{"data": {"bikes": [{"is_reserved": 0, "type": "electric_bike", "bike_id": "2d2b00413af1190066ce0d0f1aa047ce", "lat": 38.958594, "lon": -76.98618333333333, "rental_uris": {"android": "https://dc.lft.to/lastmile_qr_scan", "ios": "https://dc.lft.to/lastmile_qr_scan"}, "is_disabled": 0, "fusion_lat": 0.0, "name": "2d2b00413af1190066ce0d0f1aa047ce", "fusion_lon": 0.0}, {"is_reserved": 0, "type": "electric_scooter", "bike_id": "fd12c0a3394b74472762eface6ed2a24", "lat": 38.92446116666667, "lon": -77.0203465, "rental_uris": {"android": "https://dc.lft.to/lastmile_qr_scan", "ios": "https://dc.lft.to/lastmile_qr_scan"}, "is_disabled": 0, "fusion_lat": 0.0, "name": "fd12c0a3394b74472762eface6ed2a24", "fusion_lon": 0.0}, {"is_reserved": 0, "type": "electric_scooter", "bike_id": "547bacf1b036ff4384d4abe03b31bb4f", "lat": 38.941830333333336, "lon": -77.025641, "rental_uris": {"android": "https://dc.lft.to/lastmile_qr_scan", "ios": "https://dc.lft.to/lastmile_qr_scan"}, "is_disabled": 0, "fusion_lat": 0.0, "name": "547bacf1b036ff4384d4abe03b31bb4f", "fusion_lon": 0.0}, {"is_reserved": 0, "type": "electric_scooter", "bike_id": "e6bc2d85d35a5a44301fc3c90f71fe97", "lat": 38.897155833333336, "lon": -77.02697833333333, "rental_uris": {"android": "https://dc.lft.to/lastmile_qr_scan", "ios": "https://dc.lft.to/lastmile_qr_scan"}, "is_disabled": 0, "fusion_lat": 0.0, "name": "e6bc2d85d35a5a44301fc3c90f71fe97", "fusion_lon": 0.0}, {"is_reserved": 0, "type": "electric_scooter", "bike_id": "9d18145920efcf62fe5277829b80a025", "lat": 38.90056966666667, "lon": -77.007458, "rental_uris": {"android": "https://dc.lft.to/lastmile_qr_scan", "ios": "https://dc.lft.to/lastmile_qr_scan"}, "is_disabled": 0, "fusion_lat": 0.0, "name": "9d18145920efcf62fe5277829b80a025", "fusion_lon": 0.0}, {"is_reserved": 0, "type": "electric_scooter", "bike_id": "b81a4d686936486732e4c121cd8a2fbe", "lat": 38.92429716666667, "lon": -77.0194275, "rental_uris": {"android": "https://dc.lft.to/lastmile_qr_scan", "ios": "https://dc.lft.to/lastmile_qr_scan"}, "is_disabled": 0, "fusion_lat": 0.0, "name": "b81a4d686936486732e4c121cd8a2fbe", "fusion_lon": 0.0}, {"is_reserved": 0, "type": "electric_scooter", "bike_id": "baf7ea528c02d3478deae90d4452ff04", "lat": 38.92316183333333, "lon": -77.04450283333334, "rental_uris": {"android": "https://dc.lft.to/lastmile_qr_scan", "ios": "https://dc.lft.to/lastmile_qr_scan"}, "is_disabled": 0, "fusion_lat": 0.0, "name": "baf7ea528c02d3478deae90d4452ff04", "fusion_lon": 0.0}, {"is_reserved": 0, "type": "electric_scooter", "bike_id": "2ea632e5e44f7535f7153839aeca92c6", "lat": 38.88757433333333, "lon": -76.99619716666666, "rental_uris": {"android": "https://dc.lft.to/lastmile_qr_scan", "ios": "https://dc.lft.to/lastmile_qr_scan"}, "is_disabled": 0, "fusion_lat": 0.0, "name": "2ea632e5e44f7535f7153839aeca92c6", "fusion_lon": 0.0}, {"is_reserved": 0, "type": "electric_scooter", "bike_id": "b608c88e611fb8e2b07c3df683231c18", "lat": 38.917063, "lon": -77.03207416666666, "rental_uris": {"android": "https://dc.lft.to/lastmile_qr_scan", "ios": "https://dc.lft.to/lastmile_qr_scan"}, "is_disabled": 0, "fusion_lat": 0.0, "name": "b608c88e611fb8e2b07c3df683231c18", "fusion_lon": 0.0}, {"is_reserved": 0, "type": "electric_scooter", "bike_id": "524ec33b11ecf84a34ca16726f2f9605", "lat": 38.878679, "lon": -76.96261983333333, "rental_uris": {"android": "https://dc.lft.to/lastmile_qr_scan", "ios": "https://dc.lft.to/lastmile_qr_scan"}, "is_disabled": 0, "fusion_lat": 0.0, "name": "524ec33b11ecf84a34ca16726f2f9605", "fusion_lon": 0.0}, {"is_reserved": 0, "type": "electric_scooter", "bike_id": "ad1aab19c27a79012df428a1c044d8cc", "lat": 38.922094666666666, "lon": -77.02030233333333, "rental_uris": {"android": "https://dc.lft.to/lastmile_qr_scan", "ios": "https://dc.lft.to/lastmile_qr_scan"}, "is_disabled": 0, "fusion_lat": 0.0, "name": "ad1aab19c27a79012df428a1c044d8cc", "fusion_lon": 0.0}, {"is_reserved": 0, "type": "electric_scooter", "bike_id": "a41082e89111786730dfb686f6cf8123", "lat": 38.904286666666664, "lon": -77.04885683333333, "rental_uris": {"android": "https://dc.lft.to/lastmile_qr_scan", "ios": "https://dc.lft.to/lastmile_qr_scan"}, "is_disabled": 0, "fusion_lat": 0.0, "name": "a41082e89111786730dfb686f6cf8123", "fusion_lon": 0.0}, {"is_reserved": 0, "type": "electric_scooter", "bike_id": "50ab5ae189c7a90601a16a7e94f363c2", "lat": 38.91269033333333, "lon": -77.008356, "rental_uris": {"android": "https://dc.lft.to/lastmile_qr_scan", "ios": "https://dc.lft.to/lastmile_qr_scan"}, "is_disabled": 0, "fusion_lat": 0.0, "name": "50ab5ae189c7a90601a16a7e94f363c2", "fusion_lon": 0.0}, {"is_reserved": 0, "type": "electric_scooter", "bike_id": "2bf97f8f73b64c253109a59a9a94827a", "lat": 38.906035833333334, "lon": -77.0089535, "rental_uris": {"android": "https://dc.lft.to/lastmile_qr_scan", "ios": "https://dc.lft.to/lastmile_qr_scan"}, "is_disabled": 0, "fusion_lat": 0.0, "name": "2bf97f8f73b64c253109a59a9a94827a", "fusion_lon": 0.0}, {"is_reserved": 0, "type": "electric_scooter", "bike_id": "de8b762739d44dd922936bc1751a5317", "lat": 38.91024616666667, "lon": -76.99373883333334, "rental_uris": {"android": "https://dc.lft.to/lastmile_qr_scan", "ios": "https://dc.lft.to/lastmile_qr_scan"}, "is_disabled": 0, "fusion_lat": 0.0, "name": "de8b762739d44dd922936bc1751a5317", "fusion_lon": 0.0}, {"is_reserved": 0, "type": "electric_scooter", "bike_id": "64d2a6265e9183439c4eb190a62e9e39", "lat": 38.9237785, "lon": -77.03135083333333, "rental_uris": {"android": "https://dc.lft.to/lastmile_qr_scan", "ios": "https://dc.lft.to/lastmile_qr_scan"}, "is_disabled": 0, "fusion_lat": 0.0, "name": "64d2a6265e9183439c4eb190a62e9e39", "fusion_lon": 0.0}, {"is_reserved": 0, "type": "electric_scooter", "bike_id": "d4170b085215eaf43dea10eb712b7763", "lat": 38.91810433333333, "lon": -77.03169566666666, "rental_uris": {"android": "https://dc.lft.to/lastmile_qr_scan", "ios": "https://dc.lft.to/lastmile_qr_scan"}, "is_disabled": 0, "fusion_lat": 0.0, "name": "d4170b085215eaf43dea10eb712b7763", "fusion_lon": 0.0}, {"is_reserved": 0, "type": "electric_scooter", "bike_id": "9642ea4ad558ddfc72c81d38cf5a651a", "lat": 38.925128666666666, "lon": -77.038822, "rental_uris": {"android": "https://dc.lft.to/lastmile_qr_scan", "ios": "https://dc.lft.to/lastmile_qr_scan"}, "is_disabled": 0, "fusion_lat": 0.0, "name": "9642ea4ad558ddfc72c81d38cf5a651a", "fusion_lon": 0.0}, {"is_reserved": 0, "type": "electric_bike", "bike_id": "58e9df3faf1818fc6aa3afeedfb9ab51", "lat": 38.80251116666667, "lon": -77.114334, "rental_uris": {"android": "https://dc.lft.to/lastmile_qr_scan", "ios": "https://dc.lft.to/lastmile_qr_scan"}, "is_disabled": 0, "fusion_lat": 0.0, "name": "58e9df3faf1818fc6aa3afeedfb9ab51", "fusion_lon": 0.0}, {"is_reserved": 0, "type": "electric_scooter", "bike_id": "e9e97ee8431452945523154b087e8faa", "lat": 38.923641833333335, "lon": -77.0192435, "rental_uris": {"android": "https://dc.lft.to/lastmile_qr_scan", "ios": "https://dc.lft.to/lastmile_qr_scan"}, "is_disabled": 0, "fusion_lat": 0.0, "name": "e9e97ee8431452945523154b087e8faa", "fusion_lon": 0.0}, {"is_reserved": 0, "type": "electric_scooter", "bike_id": "917fecfa9cc3f1f9933b78c1be56fb1c", "lat": 38.915593666666666, "lon": -77.03118216666667, "rental_uris": {"android": "https://dc.lft.to/lastmile_qr_scan", "ios": "https://dc.lft.to/lastmile_qr_scan"}, "is_disabled": 0, "fusion_lat": 0.0, "name": "917fecfa9cc3f1f9933b78c1be56fb1c", "fusion_lon": 0.0}, {"is_reserved": 0, "type": "electric_scooter", "bike_id": "ec0d913878494ba27f8a213c4f98b9b9", "lat": 38.9723865, "lon": -77.02713133333333, "rental_uris": {"android": "https://dc.lft.to/lastmile_qr_scan", "ios": "https://dc.lft.to/lastmile_qr_scan"}, "is_disabled": 0, "fusion_lat": 0.0, "name": "ec0d913878494ba27f8a213c4f98b9b9", "fusion_lon": 0.0}, {"is_reserved": 0, "type": "electric_scooter", "bike_id": "acbb0030994f9410409110a80553c429", "lat": 38.9076635, "lon": -77.03213133333334, "rental_uris": {"android": "https://dc.lft.to/lastmile_qr_scan", "ios": "https://dc.lft.to/lastmile_qr_scan"}, "is_disabled": 0, "fusion_lat": 0.0, "name": "acbb0030994f9410409110a80553c429", "fusion_lon": 0.0}, {"is_reserved": 0, "type": "electric_scooter", "bike_id": "b638f161527a6bc49d6a1372c040f921", "lat": 38.91883716666667, "lon": -77.04725516666667, "rental_uris": {"android": "https://dc.lft.to/lastmile_qr_scan", "ios": "https://dc.lft.to/lastmile_qr_scan"}, "is_disabled": 0, "fusion_lat": 0.0, "name": "b638f161527a6bc49d6a1372c040f921", "fusion_lon": 0.0}, {"is_reserved": 0, "type": "electric_scooter", "bike_id": "a53688d4bda77ada3e7c674073520c6b", "lat": 38.89611683333333, "lon": -77.04416116666667, "rental_uris": {"android": "https://dc.lft.to/lastmile_qr_scan", "ios": "https://dc.lft.to/lastmile_qr_scan"}, "is_disabled": 0, "fusion_lat": 0.0, "name": "a53688d4bda77ada3e7c674073520c6b", "fusion_lon": 0.0}, {"is_reserved": 0, "type": "electric_scooter", "bike_id": "daaad256b1aab354c9923de4d6786852", "lat": 38.86529266666667, "lon": -76.96905033333333, "rental_uris": {"android": "https://dc.lft.to/lastmile_qr_scan", "ios": "https://dc.lft.to/lastmile_qr_scan"}, "is_disabled": 0, "fusion_lat": 0.0, "name": "daaad256b1aab354c9923de4d6786852", "fusion_lon": 0.0}, {"is_reserved": 0, "type": "electric_scooter", "bike_id": "a2c0d195f0dcb1ca0b27cfbb11da29e1", "lat": 38.914106833333335, "lon": -77.03227, "rental_uris": {"android": "https://dc.lft.to/lastmile_qr_scan", "ios": "https://dc.lft.to/lastmile_qr_scan"}, "is_disabled": 0, "fusion_lat": 0.0, "name": "a2c0d195f0dcb1ca0b27cfbb11da29e1", "fusion_lon": 0.0}, {"is_reserved": 0, "type": "electric_scooter", "bike_id": "4e122655f5c94282f94810cb1b93f329", "lat": 38.93224433333334, "lon": -77.02661333333333, "rental_uris": {"android": "https://dc.lft.to/lastmile_qr_scan", "ios": "https://dc.lft.to/lastmile_qr_scan"}, "is_disabled": 0, "fusion_lat": 0.0, "name": "4e122655f5c94282f94810cb1b93f329", "fusion_lon": 0.0}, {"is_reserved": 0, "type": "electric_scooter", "bike_id": "0de4e7e572d202796fa1fdb9c7fbb0cc", "lat": 38.91767933333333, "lon": -77.040563, "rental_uris": {"android": "https://dc.lft.to/lastmile_qr_scan", "ios": "https://dc.lft.to/lastmile_qr_scan"}, "is_disabled": 0, "fusion_lat": 0.0, "name": "0de4e7e572d202796fa1fdb9c7fbb0cc", "fusion_lon": 0.0}, {"is_reserved": 0, "type": "electric_scooter", "bike_id": "f44fa83ef8e276795d9c9903b469297e", "lat": 38.90296083333333, "lon": -77.002345, "rental_uris": {"android": "https://dc.lft.to/lastmile_qr_scan", "ios": "https://dc.lft.to/lastmile_qr_scan"}, "is_disabled": 0, "fusion_lat": 0.0, "name": "f44fa83ef8e276795d9c9903b469297e", "fusion_lon": 0.0}, {"is_reserved": 0, "type": "electric_scooter", "bike_id": "07a22970af72004fc3dcb4c0da73b198", "lat": 38.904994, "lon": -77.02950666666666, "rental_uris": {"android": "https://dc.lft.to/lastmile_qr_scan", "ios": "https://dc.lft.to/lastmile_qr_scan"}, "is_disabled": 0, "fusion_lat": 0.0, "name": "07a22970af72004fc3dcb4c0da73b198", "fusion_lon": 0.0}, {"is_reserved": 0, "type": "electric_scooter", "bike_id": "ea9aa7f4e1198188b9c3957c333c092c", "lat": 38.9388935, "lon": -77.03259133333333, "rental_uris": {"android": "https://dc.lft.to/lastmile_qr_scan", "ios": "https://dc.lft.to/lastmile_qr_scan"}, "is_disabled": 0, "fusion_lat": 0.0, "name": "ea9aa7f4e1198188b9c3957c333c092c", "fusion_lon": 0.0}, {"is_reserved": 0, "type": "electric_scooter", "bike_id": "9dcefdc5ec9e50ea4ea412897959201e", "lat": 38.9101975, "lon": -77.0385775, "rental_uris": {"android": "https://dc.lft.to/lastmile_qr_scan", "ios": "https://dc.lft.to/lastmile_qr_scan"}, "is_disabled": 0, "fusion_lat": 0.0, "name": "9dcefdc5ec9e50ea4ea412897959201e", "fusion_lon": 0.0}, {"is_reserved": 0, "type": "electric_scooter", "bike_id": "38b8d7c8c4db1c04680fec5664d8447e", "lat": 38.85224766666666, "lon": -76.9942615, "rental_uris": {"android": "https://dc.lft.to/lastmile_qr_scan", "ios": "https://dc.lft.to/lastmile_qr_scan"}, "is_disabled": 0, "fusion_lat": 0.0, "name": "38b8d7c8c4db1c04680fec5664d8447e", "fusion_lon": 0.0}, {"is_reserved": 0, "type": "electric_scooter", "bike_id": "9fd1119b4ba7f45359bb0a5450cc4b97", "lat": 38.90043, "lon": -76.99170666666667, "rental_uris": {"android": "https://dc.lft.to/lastmile_qr_scan", "ios": "https://dc.lft.to/lastmile_qr_scan"}, "is_disabled": 0, "fusion_lat": 0.0, "name": "9fd1119b4ba7f45359bb0a5450cc4b97", "fusion_lon": 0.0}, {"is_reserved": 0, "type": "electric_scooter", "bike_id": "8d691a8859a7b10df266227eff419ded", "lat": 38.9062145, "lon": -77.0093375, "rental_uris": {"android": "https://dc.lft.to/lastmile_qr_scan", "ios": "https://dc.lft.to/lastmile_qr_scan"}, "is_disabled": 0, "fusion_lat": 0.0, "name": "8d691a8859a7b10df266227eff419ded", "fusion_lon": 0.0}, {"is_reserved": 0, "type": "electric_scooter", "bike_id": "96e150b27c93b38710231a73df35260d", "lat": 38.946582666666664, "lon": -77.03285683333333, "rental_uris": {"android": "https://dc.lft.to/lastmile_qr_scan", "ios": "https://dc.lft.to/lastmile_qr_scan"}, "is_disabled": 0, "fusion_lat": 0.0, "name": "96e150b27c93b38710231a73df35260d", "fusion_lon": 0.0}, {"is_reserved": 0, "type": "electric_scooter", "bike_id": "1fd2155291963023aad807b237b88e0c", "lat": 38.908548, "lon": -77.0634455, "rental_uris": {"android": "https://dc.lft.to/lastmile_qr_scan", "ios": "https://dc.lft.to/lastmile_qr_scan"}, "is_disabled": 0, "fusion_lat": 0.0, "name": "1fd2155291963023aad807b237b88e0c", "fusion_lon": 0.0}, {"is_reserved": 0, "type": "electric_scooter", "bike_id": "c53433ef983cb0b68d81d11592e38563", "lat": 38.87471433333333, "lon": -77.00559866666667, "rental_uris": {"android": "https://dc.lft.to/lastmile_qr_scan", "ios": "https://dc.lft.to/lastmile_qr_scan"}, "is_disabled": 0, "fusion_lat": 0.0, "name": "c53433ef983cb0b68d81d11592e38563", "fusion_lon": 0.0}, {"is_reserved": 0, "type": "electric_scooter", "bike_id": "7bf87dd69fbf44a0a67f8f38e370dc0c", "lat": 38.8990705, "lon": -76.933714, "rental_uris": {"android": "https://dc.lft.to/lastmile_qr_scan", "ios": "https://dc.lft.to/lastmile_qr_scan"}, "is_disabled": 0, "fusion_lat": 0.0, "name": "7bf87dd69fbf44a0a67f8f38e370dc0c", "fusion_lon": 0.0}, {"is_reserved": 0, "type": "electric_scooter", "bike_id": "fe58946c5fda3ea7fce6ef4a37d4b380", "lat": 38.905257666666664, "lon": -77.06152733333333, "rental_uris": {"android": "https://dc.lft.to/lastmile_qr_scan", "ios": "https://dc.lft.to/lastmile_qr_scan"}, "is_disabled": 0, "fusion_lat": 0.0, "name": "fe58946c5fda3ea7fce6ef4a37d4b380", "fusion_lon": 0.0}, {"is_reserved": 0, "type": "electric_scooter", "bike_id": "d28ba123c91d736d351175540d742653", "lat": 38.93585616666667, "lon": -77.0584155, "rental_uris": {"android": "https://dc.lft.to/lastmile_qr_scan", "ios": "https://dc.lft.to/lastmile_qr_scan"}, "is_disabled": 0, "fusion_lat": 0.0, "name": "d28ba123c91d736d351175540d742653", "fusion_lon": 0.0}, {"is_reserved": 0, "type": "electric_bike", "bike_id": "79564c4c7e85944b0364cd79d1f6722e", "lat": 38.978726, "lon": -77.02586916666667, "rental_uris": {"android": "https://dc.lft.to/lastmile_qr_scan", "ios": "https://dc.lft.to/lastmile_qr_scan"}, "is_disabled": 0, "fusion_lat": 0.0, "name": "79564c4c7e85944b0364cd79d1f6722e", "fusion_lon": 0.0}, {"is_reserved": 0, "type": "electric_scooter", "bike_id": "0e80a92e184c2d6afc91005f88ccf4cb", "lat": 38.92062166666667, "lon": -77.0244095, "rental_uris": {"android": "https://dc.lft.to/lastmile_qr_scan", "ios": "https://dc.lft.to/lastmile_qr_scan"}, "is_disabled": 0, "fusion_lat": 0.0, "name": "0e80a92e184c2d6afc91005f88ccf4cb", "fusion_lon": 0.0}, {"is_reserved": 0, "type": "electric_scooter", "bike_id": "5eb472950ffaf3aeb71a613b386848fa", "lat": 38.932111, "lon": -77.02382666666666, "rental_uris": {"android": "https://dc.lft.to/lastmile_qr_scan", "ios": "https://dc.lft.to/lastmile_qr_scan"}, "is_disabled": 0, "fusion_lat": 0.0, "name": "5eb472950ffaf3aeb71a613b386848fa", "fusion_lon": 0.0}, {"is_reserved": 0, "type": "electric_scooter", "bike_id": "1c0d42f11bbd1e1b215f472024842fa1", "lat": 38.883781, "lon": -76.93042383333334, "rental_uris": {"android": "https://dc.lft.to/lastmile_qr_scan", "ios": "https://dc.lft.to/lastmile_qr_scan"}, "is_disabled": 0, "fusion_lat": 0.0, "name": "1c0d42f11bbd1e1b215f472024842fa1", "fusion_lon": 0.0}, {"is_reserved": 0, "type": "electric_scooter", "bike_id": "7488dab10edbd09dd1c9ee19ab32da0c", "lat": 38.8922915, "lon": -77.0160585, "rental_uris": {"android": "https://dc.lft.to/lastmile_qr_scan", "ios": "https://dc.lft.to/lastmile_qr_scan"}, "is_disabled": 0, "fusion_lat": 0.0, "name": "7488dab10edbd09dd1c9ee19ab32da0c", "fusion_lon": 0.0}, {"is_reserved": 0, "type": "electric_scooter", "bike_id": "d185fbc5a126db007f67cd08b57b5e5e", "lat": 38.90150916666666, "lon": -77.041819, "rental_uris": {"android": "https://dc.lft.to/lastmile_qr_scan", "ios": "https://dc.lft.to/lastmile_qr_scan"}, "is_disabled": 0, "fusion_lat": 0.0, "name": "d185fbc5a126db007f67cd08b57b5e5e", "fusion_lon": 0.0}, {"is_reserved": 0, "type": "electric_scooter", "bike_id": "8ac22765c5cd2ed399cafc0bdbb9cb97", "lat": 38.9208495, "lon": -77.025319, "rental_uris": {"android": "https://dc.lft.to/lastmile_qr_scan", "ios": "https://dc.lft.to/lastmile_qr_scan"}, "is_disabled": 0, "fusion_lat": 0.0, "name": "8ac22765c5cd2ed399cafc0bdbb9cb97", "fusion_lon": 0.0}, {"is_reserved": 0, "type": "electric_bike", "bike_id": "59ea5c7954506d938a31a29ab05bee41", "lat": 38.89460483333333, "lon": -77.1913695, "rental_uris": {"android": "https://dc.lft.to/lastmile_qr_scan", "ios": "https://dc.lft.to/lastmile_qr_scan"}, "is_disabled": 0, "fusion_lat": 0.0, "name": "59ea5c7954506d938a31a29ab05bee41", "fusion_lon": 0.0}, {"is_reserved": 0, "type": "electric_scooter", "bike_id": "8d9d99158d775a9a0abab29019adf320", "lat": 38.9077415, "lon": -77.03556483333334, "rental_uris": {"android": "https://dc.lft.to/lastmile_qr_scan", "ios": "https://dc.lft.to/lastmile_qr_scan"}, "is_disabled": 0, "fusion_lat": 0.0, "name": "8d9d99158d775a9a0abab29019adf320", "fusion_lon": 0.0}, {"is_reserved": 0, "type": "electric_scooter", "bike_id": "a298a76466d25da2eb9c311f68c4b2ab", "lat": 38.9059785, "lon": -76.950629, "rental_uris": {"android": "https://dc.lft.to/lastmile_qr_scan", "ios": "https://dc.lft.to/lastmile_qr_scan"}, "is_disabled": 0, "fusion_lat": 0.0, "name": "a298a76466d25da2eb9c311f68c4b2ab", "fusion_lon": 0.0}, {"is_reserved": 0, "type": "electric_scooter", "bike_id": "1b3a4d7a83704117486b73fd86f54589", "lat": 38.93503716666667, "lon": -77.04276083333333, "rental_uris": {"android": "https://dc.lft.to/lastmile_qr_scan", "ios": "https://dc.lft.to/lastmile_qr_scan"}, "is_disabled": 0, "fusion_lat": 0.0, "name": "1b3a4d7a83704117486b73fd86f54589", "fusion_lon": 0.0}, {"is_reserved": 0, "type": "electric_scooter", "bike_id": "266b20935fa1216ab2bce1a1bab1a6d2", "lat": 38.9040515, "lon": -77.02002566666667, "rental_uris": {"android": "https://dc.lft.to/lastmile_qr_scan", "ios": "https://dc.lft.to/lastmile_qr_scan"}, "is_disabled": 0, "fusion_lat": 0.0, "name": "266b20935fa1216ab2bce1a1bab1a6d2", "fusion_lon": 0.0}, {"is_reserved": 0, "type": "electric_scooter", "bike_id": "336dec568508c5cdead2313187ca69d7", "lat": 38.924574, "lon": -77.02040983333333, "rental_uris": {"android": "https://dc.lft.to/lastmile_qr_scan", "ios": "https://dc.lft.to/lastmile_qr_scan"}, "is_disabled": 0, "fusion_lat": 0.0, "name": "336dec568508c5cdead2313187ca69d7", "fusion_lon": 0.0}, {"is_reserved": 0, "type": "electric_scooter", "bike_id": "f774b5395529274cf3ee2e06a66ffa20", "lat": 38.91288816666667, "lon": -77.02202983333333, "rental_uris": {"android": "https://dc.lft.to/lastmile_qr_scan", "ios": "https://dc.lft.to/lastmile_qr_scan"}, "is_disabled": 0, "fusion_lat": 0.0, "name": "f774b5395529274cf3ee2e06a66ffa20", "fusion_lon": 0.0}, {"is_reserved": 0, "type": "electric_scooter", "bike_id": "4048d820622a596dfb308f04c8f106fd", "lat": 38.904476333333335, "lon": -76.99625, "rental_uris": {"android": "https://dc.lft.to/lastmile_qr_scan", "ios": "https://dc.lft.to/lastmile_qr_scan"}, "is_disabled": 0, "fusion_lat": 0.0, "name": "4048d820622a596dfb308f04c8f106fd", "fusion_lon": 0.0}, {"is_reserved": 0, "type": "electric_scooter", "bike_id": "9bde056d11d12bbf0819211272a21f60", "lat": 38.91590466666667, "lon": -77.0208745, "rental_uris": {"android": "https://dc.lft.to/lastmile_qr_scan", "ios": "https://dc.lft.to/lastmile_qr_scan"}, "is_disabled": 0, "fusion_lat": 0.0, "name": "9bde056d11d12bbf0819211272a21f60", "fusion_lon": 0.0}, {"is_reserved": 0, "type": "electric_scooter", "bike_id": "de3893bffe22cb4d4eab07c87b248a23", "lat": 38.92390116666667, "lon": -77.05048983333333, "rental_uris": {"android": "https://dc.lft.to/lastmile_qr_scan", "ios": "https://dc.lft.to/lastmile_qr_scan"}, "is_disabled": 0, "fusion_lat": 0.0, "name": "de3893bffe22cb4d4eab07c87b248a23", "fusion_lon": 0.0}, {"is_reserved": 0, "type": "electric_bike", "bike_id": "100521b8b4930beadb39aafd1ad77d0b", "lat": 38.91813233333333, "lon": -77.02464333333333, "rental_uris": {"android": "https://dc.lft.to/lastmile_qr_scan", "ios": "https://dc.lft.to/lastmile_qr_scan"}, "is_disabled": 0, "fusion_lat": 0.0, "name": "100521b8b4930beadb39aafd1ad77d0b", "fusion_lon": 0.0}, {"is_reserved": 0, "type": "electric_bike", "bike_id": "f33c99657992f5f7fa72f1709a27a1d8", "lat": 38.894672, "lon": -77.103505, "rental_uris": {"android": "https://dc.lft.to/lastmile_qr_scan", "ios": "https://dc.lft.to/lastmile_qr_scan"}, "is_disabled": 0, "fusion_lat": 0.0, "name": "f33c99657992f5f7fa72f1709a27a1d8", "fusion_lon": 0.0}, {"is_reserved": 0, "type": "electric_scooter", "bike_id": "bb7993e10ec808a703f42aae3ecc57e3", "lat": 38.856574333333334, "lon": -76.9968055, "rental_uris": {"android": "https://dc.lft.to/lastmile_qr_scan", "ios": "https://dc.lft.to/lastmile_qr_scan"}, "is_disabled": 0, "fusion_lat": 0.0, "name": "bb7993e10ec808a703f42aae3ecc57e3", "fusion_lon": 0.0}, {"is_reserved": 0, "type": "electric_scooter", "bike_id": "1c1e0397506582ee5da8f1de158a3b9b", "lat": 38.923858333333335, "lon": -77.05041666666666, "rental_uris": {"android": "https://dc.lft.to/lastmile_qr_scan", "ios": "https://dc.lft.to/lastmile_qr_scan"}, "is_disabled": 0, "fusion_lat": 0.0, "name": "1c1e0397506582ee5da8f1de158a3b9b", "fusion_lon": 0.0}, {"is_reserved": 0, "type": "electric_scooter", "bike_id": "b3b96a1810f36108522bd8b02dc77dbc", "lat": 38.90029333333333, "lon": -76.988396, "rental_uris": {"android": "https://dc.lft.to/lastmile_qr_scan", "ios": "https://dc.lft.to/lastmile_qr_scan"}, "is_disabled": 0, "fusion_lat": 0.0, "name": "b3b96a1810f36108522bd8b02dc77dbc", "fusion_lon": 0.0}, {"is_reserved": 0, "type": "electric_scooter", "bike_id": "8054b11973b301d38c2e85923b5d42d5", "lat": 38.9128435, "lon": -77.0727945, "rental_uris": {"android": "https://dc.lft.to/lastmile_qr_scan", "ios": "https://dc.lft.to/lastmile_qr_scan"}, "is_disabled": 0, "fusion_lat": 0.0, "name": "8054b11973b301d38c2e85923b5d42d5", "fusion_lon": 0.0}, {"is_reserved": 0, "type": "electric_scooter", "bike_id": "9d0fe95d7baf370bc0942e66f585893a", "lat": 38.89225016666666, "lon": -77.03186816666667, "rental_uris": {"android": "https://dc.lft.to/lastmile_qr_scan", "ios": "https://dc.lft.to/lastmile_qr_scan"}, "is_disabled": 0, "fusion_lat": 0.0, "name": "9d0fe95d7baf370bc0942e66f585893a", "fusion_lon": 0.0}, {"is_reserved": 0, "type": "electric_scooter", "bike_id": "f4a23974003c2729ecc19c9b38bbc4c3", "lat": 38.90628133333333, "lon": -77.026015, "rental_uris": {"android": "https://dc.lft.to/lastmile_qr_scan", "ios": "https://dc.lft.to/lastmile_qr_scan"}, "is_disabled": 0, "fusion_lat": 0.0, "name": "f4a23974003c2729ecc19c9b38bbc4c3", "fusion_lon": 0.0}, {"is_reserved": 0, "type": "electric_scooter", "bike_id": "8df41c9d8dc056016f24b8b31c751944", "lat": 38.87159316666666, "lon": -77.01355883333333, "rental_uris": {"android": "https://dc.lft.to/lastmile_qr_scan", "ios": "https://dc.lft.to/lastmile_qr_scan"}, "is_disabled": 0, "fusion_lat": 0.0, "name": "8df41c9d8dc056016f24b8b31c751944", "fusion_lon": 0.0}, {"is_reserved": 0, "type": "electric_scooter", "bike_id": "e1d83c1ffc2a0cd794c32b6b89e56590", "lat": 38.899913, "lon": -76.99477416666667, "rental_uris": {"android": "https://dc.lft.to/lastmile_qr_scan", "ios": "https://dc.lft.to/lastmile_qr_scan"}, "is_disabled": 0, "fusion_lat": 0.0, "name": "e1d83c1ffc2a0cd794c32b6b89e56590", "fusion_lon": 0.0}, {"is_reserved": 0, "type": "electric_scooter", "bike_id": "8c44a3e1fb7c6b0d5d5dd7205830e7fe", "lat": 38.92139383333333, "lon": -77.03673616666667, "rental_uris": {"android": "https://dc.lft.to/lastmile_qr_scan", "ios": "https://dc.lft.to/lastmile_qr_scan"}, "is_disabled": 0, "fusion_lat": 0.0, "name": "8c44a3e1fb7c6b0d5d5dd7205830e7fe", "fusion_lon": 0.0}, {"is_reserved": 0, "type": "electric_scooter", "bike_id": "f1de7e88ce03370d15723cf8ebf25ec3", "lat": 38.9369085, "lon": -77.02714366666666, "rental_uris": {"android": "https://dc.lft.to/lastmile_qr_scan", "ios": "https://dc.lft.to/lastmile_qr_scan"}, "is_disabled": 0, "fusion_lat": 0.0, "name": "f1de7e88ce03370d15723cf8ebf25ec3", "fusion_lon": 0.0}, {"is_reserved": 0, "type": "electric_scooter", "bike_id": "882c5ec88765fea205439a7f96385a42", "lat": 38.944423, "lon": -77.029143, "rental_uris": {"android": "https://dc.lft.to/lastmile_qr_scan", "ios": "https://dc.lft.to/lastmile_qr_scan"}, "is_disabled": 0, "fusion_lat": 0.0, "name": "882c5ec88765fea205439a7f96385a42", "fusion_lon": 0.0}, {"is_reserved": 0, "type": "electric_scooter", "bike_id": "cf0ea7e124363eacd1b9e9a251b983b6", "lat": 38.89848683333334, "lon": -76.92752616666667, "rental_uris": {"android": "https://dc.lft.to/lastmile_qr_scan", "ios": "https://dc.lft.to/lastmile_qr_scan"}, "is_disabled": 0, "fusion_lat": 0.0, "name": "cf0ea7e124363eacd1b9e9a251b983b6", "fusion_lon": 0.0}, {"is_reserved": 0, "type": "electric_scooter", "bike_id": "bb8277ba0908358fdc8c4df760826417", "lat": 38.89603566666667, "lon": -76.98322183333333, "rental_uris": {"android": "https://dc.lft.to/lastmile_qr_scan", "ios": "https://dc.lft.to/lastmile_qr_scan"}, "is_disabled": 0, "fusion_lat": 0.0, "name": "bb8277ba0908358fdc8c4df760826417", "fusion_lon": 0.0}, {"is_reserved": 0, "type": "electric_scooter", "bike_id": "e2446fe6e63b2fabbea524a5838aa550", "lat": 38.918393333333334, "lon": -77.023216, "rental_uris": {"android": "https://dc.lft.to/lastmile_qr_scan", "ios": "https://dc.lft.to/lastmile_qr_scan"}, "is_disabled": 0, "fusion_lat": 0.0, "name": "e2446fe6e63b2fabbea524a5838aa550", "fusion_lon": 0.0}, {"is_reserved": 0, "type": "electric_scooter", "bike_id": "84517dfb5a952f4769fb3de16e8b3016", "lat": 38.925659, "lon": -76.96999483333333, "rental_uris": {"android": "https://dc.lft.to/lastmile_qr_scan", "ios": "https://dc.lft.to/lastmile_qr_scan"}, "is_disabled": 0, "fusion_lat": 0.0, "name": "84517dfb5a952f4769fb3de16e8b3016", "fusion_lon": 0.0}, {"is_reserved": 0, "type": "electric_scooter", "bike_id": "fa07f8fc20ba61f071e573f34c4b5564", "lat": 38.936387333333336, "lon": -77.060064, "rental_uris": {"android": "https://dc.lft.to/lastmile_qr_scan", "ios": "https://dc.lft.to/lastmile_qr_scan"}, "is_disabled": 0, "fusion_lat": 0.0, "name": "fa07f8fc20ba61f071e573f34c4b5564", "fusion_lon": 0.0}, {"is_reserved": 0, "type": "electric_scooter", "bike_id": "ac663502292edcfe1edc6e7c13f5f540", "lat": 38.903831333333336, "lon": -77.05349766666667, "rental_uris": {"android": "https://dc.lft.to/lastmile_qr_scan", "ios": "https://dc.lft.to/lastmile_qr_scan"}, "is_disabled": 0, "fusion_lat": 0.0, "name": "ac663502292edcfe1edc6e7c13f5f540", "fusion_lon": 0.0}, {"is_reserved": 0, "type": "electric_bike", "bike_id": "487c638af24408efa57a0f6d75c62bca", "lat": 39.09447016666667, "lon": -77.134655, "rental_uris": {"android": "https://dc.lft.to/lastmile_qr_scan", "ios": "https://dc.lft.to/lastmile_qr_scan"}, "is_disabled": 0, "fusion_lat": 0.0, "name": "487c638af24408efa57a0f6d75c62bca", "fusion_lon": 0.0}, {"is_reserved": 0, "type": "electric_scooter", "bike_id": "c85826d4051f2fc9ebf154cc12c5a653", "lat": 38.89713833333333, "lon": -76.99117316666667, "rental_uris": {"android": "https://dc.lft.to/lastmile_qr_scan", "ios": "https://dc.lft.to/lastmile_qr_scan"}, "is_disabled": 0, "fusion_lat": 0.0, "name": "c85826d4051f2fc9ebf154cc12c5a653", "fusion_lon": 0.0}, {"is_reserved": 0, "type": "electric_scooter", "bike_id": "905393b78d2ab3d71e06f202be0344cb", "lat": 38.919278, "lon": -77.0197575, "rental_uris": {"android": "https://dc.lft.to/lastmile_qr_scan", "ios": "https://dc.lft.to/lastmile_qr_scan"}, "is_disabled": 0, "fusion_lat": 0.0, "name": "905393b78d2ab3d71e06f202be0344cb", "fusion_lon": 0.0}, {"is_reserved": 0, "type": "electric_scooter", "bike_id": "8cbecdd57b731fa408f95baccedc77d7", "lat": 38.905627833333334, "lon": -77.02815516666666, "rental_uris": {"android": "https://dc.lft.to/lastmile_qr_scan", "ios": "https://dc.lft.to/lastmile_qr_scan"}, "is_disabled": 0, "fusion_lat": 0.0, "name": "8cbecdd57b731fa408f95baccedc77d7", "fusion_lon": 0.0}, {"is_reserved": 0, "type": "electric_scooter", "bike_id": "28bfd93365b24a8b6773ae355f42124c", "lat": 38.972991666666665, "lon": -77.03629566666666, "rental_uris": {"android": "https://dc.lft.to/lastmile_qr_scan", "ios": "https://dc.lft.to/lastmile_qr_scan"}, "is_disabled": 0, "fusion_lat": 0.0, "name": "28bfd93365b24a8b6773ae355f42124c", "fusion_lon": 0.0}, {"is_reserved": 0, "type": "electric_scooter", "bike_id": "077e6ce098e7170f15e8b86b71e52d74", "lat": 38.92375633333333, "lon": -77.08048383333333, "rental_uris": {"android": "https://dc.lft.to/lastmile_qr_scan", "ios": "https://dc.lft.to/lastmile_qr_scan"}, "is_disabled": 0, "fusion_lat": 0.0, "name": "077e6ce098e7170f15e8b86b71e52d74", "fusion_lon": 0.0}, {"is_reserved": 0, "type": "electric_scooter", "bike_id": "5f29b736c570afc71eb0802f9bab55dc", "lat": 38.895304833333334, "lon": -77.033499, "rental_uris": {"android": "https://dc.lft.to/lastmile_qr_scan", "ios": "https://dc.lft.to/lastmile_qr_scan"}, "is_disabled": 0, "fusion_lat": 0.0, "name": "5f29b736c570afc71eb0802f9bab55dc", "fusion_lon": 0.0}, {"is_reserved": 0, "type": "electric_scooter", "bike_id": "8df6cb0cfa85e2ca3e8f163b992e9a87", "lat": 38.86450583333333, "lon": -76.991262, "rental_uris": {"android": "https://dc.lft.to/lastmile_qr_scan", "ios": "https://dc.lft.to/lastmile_qr_scan"}, "is_disabled": 0, "fusion_lat": 0.0, "name": "8df6cb0cfa85e2ca3e8f163b992e9a87", "fusion_lon": 0.0}, {"is_reserved": 0, "type": "electric_scooter", "bike_id": "8ccfbab92830b9c973c0ae566f711883", "lat": 38.9302555, "lon": -77.03778816666667, "rental_uris": {"android": "https://dc.lft.to/lastmile_qr_scan", "ios": "https://dc.lft.to/lastmile_qr_scan"}, "is_disabled": 0, "fusion_lat": 0.0, "name": "8ccfbab92830b9c973c0ae566f711883", "fusion_lon": 0.0}, {"is_reserved": 0, "type": "electric_scooter", "bike_id": "075a02ae8655a3ea92bd8029bb3216f4", "lat": 38.92789066666667, "lon": -77.03599666666666, "rental_uris": {"android": "https://dc.lft.to/lastmile_qr_scan", "ios": "https://dc.lft.to/lastmile_qr_scan"}, "is_disabled": 0, "fusion_lat": 0.0, "name": "075a02ae8655a3ea92bd8029bb3216f4", "fusion_lon": 0.0}, {"is_reserved": 0, "type": "electric_scooter", "bike_id": "7df5deace387fb057a82898fa27a5916", "lat": 38.924896833333335, "lon": -77.02816866666667, "rental_uris": {"android": "https://dc.lft.to/lastmile_qr_scan", "ios": "https://dc.lft.to/lastmile_qr_scan"}, "is_disabled": 0, "fusion_lat": 0.0, "name": "7df5deace387fb057a82898fa27a5916", "fusion_lon": 0.0}, {"is_reserved": 0, "type": "electric_scooter", "bike_id": "4b8f07d6b9ba8be482d14fbe29712357", "lat": 38.932507333333334, "lon": -77.0321015, "rental_uris": {"android": "https://dc.lft.to/lastmile_qr_scan", "ios": "https://dc.lft.to/lastmile_qr_scan"}, "is_disabled": 0, "fusion_lat": 0.0, "name": "4b8f07d6b9ba8be482d14fbe29712357", "fusion_lon": 0.0}, {"is_reserved": 0, "type": "electric_scooter", "bike_id": "2d0f6dd989d596e4fd7699f4d1643328", "lat": 38.90535466666667, "lon": -77.06153016666667, "rental_uris": {"android": "https://dc.lft.to/lastmile_qr_scan", "ios": "https://dc.lft.to/lastmile_qr_scan"}, "is_disabled": 0, "fusion_lat": 0.0, "name": "2d0f6dd989d596e4fd7699f4d1643328", "fusion_lon": 0.0}, {"is_reserved": 0, "type": "electric_scooter", "bike_id": "5597287100bc6fe77cd2ad4970b736e5", "lat": 38.89233566666667, "lon": -77.050005, "rental_uris": {"android": "https://dc.lft.to/lastmile_qr_scan", "ios": "https://dc.lft.to/lastmile_qr_scan"}, "is_disabled": 0, "fusion_lat": 0.0, "name": "5597287100bc6fe77cd2ad4970b736e5", "fusion_lon": 0.0}, {"is_reserved": 0, "type": "electric_bike", "bike_id": "d3cf606966ce1a2ffeb8bfe23f0a0aff", "lat": 38.921361, "lon": -77.00402066666666, "rental_uris": {"android": "https://dc.lft.to/lastmile_qr_scan", "ios": "https://dc.lft.to/lastmile_qr_scan"}, "is_disabled": 0, "fusion_lat": 0.0, "name": "d3cf606966ce1a2ffeb8bfe23f0a0aff", "fusion_lon": 0.0}, {"is_reserved": 0, "type": "electric_scooter", "bike_id": "d82088e8dffcece3bd88167ae5fd20ae", "lat": 38.93333883333333, "lon": -77.02914266666667, "rental_uris": {"android": "https://dc.lft.to/lastmile_qr_scan", "ios": "https://dc.lft.to/lastmile_qr_scan"}, "is_disabled": 0, "fusion_lat": 0.0, "name": "d82088e8dffcece3bd88167ae5fd20ae", "fusion_lon": 0.0}, {"is_reserved": 0, "type": "electric_scooter", "bike_id": "c14e9d153980699753448e292e7de9b4", "lat": 38.892259833333334, "lon": -77.04483216666667, "rental_uris": {"android": "https://dc.lft.to/lastmile_qr_scan", "ios": "https://dc.lft.to/lastmile_qr_scan"}, "is_disabled": 0, "fusion_lat": 0.0, "name": "c14e9d153980699753448e292e7de9b4", "fusion_lon": 0.0}, {"is_reserved": 0, "type": "electric_scooter", "bike_id": "9af887af637b2e795c0003cb64e519dd", "lat": 38.94977216666667, "lon": -77.024463, "rental_uris": {"android": "https://dc.lft.to/lastmile_qr_scan", "ios": "https://dc.lft.to/lastmile_qr_scan"}, "is_disabled": 0, "fusion_lat": 0.0, "name": "9af887af637b2e795c0003cb64e519dd", "fusion_lon": 0.0}, {"is_reserved": 0, "type": "electric_scooter", "bike_id": "648b0b7724a253ae1fd195834b568d13", "lat": 38.93314633333333, "lon": -76.996045, "rental_uris": {"android": "https://dc.lft.to/lastmile_qr_scan", "ios": "https://dc.lft.to/lastmile_qr_scan"}, "is_disabled": 0, "fusion_lat": 0.0, "name": "648b0b7724a253ae1fd195834b568d13", "fusion_lon": 0.0}, {"is_reserved": 0, "type": "electric_scooter", "bike_id": "01d0294852f1e820c1f05c7ae05aedf4", "lat": 38.904767166666666, "lon": -76.98143716666667, "rental_uris": {"android": "https://dc.lft.to/lastmile_qr_scan", "ios": "https://dc.lft.to/lastmile_qr_scan"}, "is_disabled": 0, "fusion_lat": 0.0, "name": "01d0294852f1e820c1f05c7ae05aedf4", "fusion_lon": 0.0}, {"is_reserved": 0, "type": "electric_scooter", "bike_id": "c6455d4b07e34f4cfab2f24b710150d3", "lat": 38.92079733333333, "lon": -77.02443916666667, "rental_uris": {"android": "https://dc.lft.to/lastmile_qr_scan", "ios": "https://dc.lft.to/lastmile_qr_scan"}, "is_disabled": 0, "fusion_lat": 0.0, "name": "c6455d4b07e34f4cfab2f24b710150d3", "fusion_lon": 0.0}, {"is_reserved": 0, "type": "electric_bike", "bike_id": "da883f1ae2464a3d980b6a75ad5ba1c5", "lat": 38.98829583333333, "lon": -77.02648166666667, "rental_uris": {"android": "https://dc.lft.to/lastmile_qr_scan", "ios": "https://dc.lft.to/lastmile_qr_scan"}, "is_disabled": 0, "fusion_lat": 0.0, "name": "da883f1ae2464a3d980b6a75ad5ba1c5", "fusion_lon": 0.0}, {"is_reserved": 0, "type": "electric_scooter", "bike_id": "bc6656007c3c98cbdbe75a951ba58bbf", "lat": 38.905217, "lon": -77.05996166666667, "rental_uris": {"android": "https://dc.lft.to/lastmile_qr_scan", "ios": "https://dc.lft.to/lastmile_qr_scan"}, "is_disabled": 0, "fusion_lat": 0.0, "name": "bc6656007c3c98cbdbe75a951ba58bbf", "fusion_lon": 0.0}, {"is_reserved": 0, "type": "electric_scooter", "bike_id": "c823567b9b54206d96619ed6cc412327", "lat": 38.876661666666664, "lon": -77.00764233333334, "rental_uris": {"android": "https://dc.lft.to/lastmile_qr_scan", "ios": "https://dc.lft.to/lastmile_qr_scan"}, "is_disabled": 0, "fusion_lat": 0.0, "name": "c823567b9b54206d96619ed6cc412327", "fusion_lon": 0.0}, {"is_reserved": 0, "type": "electric_scooter", "bike_id": "f2ceedef81f63119bf0c2686f8f54ce1", "lat": 38.9007585, "lon": -77.048877, "rental_uris": {"android": "https://dc.lft.to/lastmile_qr_scan", "ios": "https://dc.lft.to/lastmile_qr_scan"}, "is_disabled": 0, "fusion_lat": 0.0, "name": "f2ceedef81f63119bf0c2686f8f54ce1", "fusion_lon": 0.0}, {"is_reserved": 0, "type": "electric_scooter", "bike_id": "b9adad0f061aa2ef5e3418d425d22550", "lat": 38.924347833333336, "lon": -76.99676766666667, "rental_uris": {"android": "https://dc.lft.to/lastmile_qr_scan", "ios": "https://dc.lft.to/lastmile_qr_scan"}, "is_disabled": 0, "fusion_lat": 0.0, "name": "b9adad0f061aa2ef5e3418d425d22550", "fusion_lon": 0.0}, {"is_reserved": 0, "type": "electric_scooter", "bike_id": "fd7fb122da83570b9c13780fd134c7ba", "lat": 38.913522666666665, "lon": -77.03202583333334, "rental_uris": {"android": "https://dc.lft.to/lastmile_qr_scan", "ios": "https://dc.lft.to/lastmile_qr_scan"}, "is_disabled": 0, "fusion_lat": 0.0, "name": "fd7fb122da83570b9c13780fd134c7ba", "fusion_lon": 0.0}, {"is_reserved": 0, "type": "electric_scooter", "bike_id": "3d10c29ca77a6b6e566fa1ac698afef7", "lat": 38.895682, "lon": -76.98220016666667, "rental_uris": {"android": "https://dc.lft.to/lastmile_qr_scan", "ios": "https://dc.lft.to/lastmile_qr_scan"}, "is_disabled": 0, "fusion_lat": 0.0, "name": "3d10c29ca77a6b6e566fa1ac698afef7", "fusion_lon": 0.0}, {"is_reserved": 0, "type": "electric_bike", "bike_id": "f193b7910eaee71dc787761a5eeb59e7", "lat": 38.849416, "lon": -77.11751716666667, "rental_uris": {"android": "https://dc.lft.to/lastmile_qr_scan", "ios": "https://dc.lft.to/lastmile_qr_scan"}, "is_disabled": 0, "fusion_lat": 0.0, "name": "f193b7910eaee71dc787761a5eeb59e7", "fusion_lon": 0.0}, {"is_reserved": 0, "type": "electric_scooter", "bike_id": "e16143ed37b8b474c2837ace518a19df", "lat": 38.9054935, "lon": -77.04184033333334, "rental_uris": {"android": "https://dc.lft.to/lastmile_qr_scan", "ios": "https://dc.lft.to/lastmile_qr_scan"}, "is_disabled": 0, "fusion_lat": 0.0, "name": "e16143ed37b8b474c2837ace518a19df", "fusion_lon": 0.0}, {"is_reserved": 0, "type": "electric_scooter", "bike_id": "d623c3ff28887e900d9754f54afd7399", "lat": 38.92251, "lon": -77.03894666666666, "rental_uris": {"android": "https://dc.lft.to/lastmile_qr_scan", "ios": "https://dc.lft.to/lastmile_qr_scan"}, "is_disabled": 0, "fusion_lat": 0.0, "name": "d623c3ff28887e900d9754f54afd7399", "fusion_lon": 0.0}, {"is_reserved": 0, "type": "electric_scooter", "bike_id": "aa882765b653dac07703000909c7f46e", "lat": 38.90855483333333, "lon": -76.99805783333333, "rental_uris": {"android": "https://dc.lft.to/lastmile_qr_scan", "ios": "https://dc.lft.to/lastmile_qr_scan"}, "is_disabled": 0, "fusion_lat": 0.0, "name": "aa882765b653dac07703000909c7f46e", "fusion_lon": 0.0}, {"is_reserved": 0, "type": "electric_scooter", "bike_id": "4a2d2d04629b1c9daba8201abcc0d736", "lat": 38.909642833333336, "lon": -77.0480545, "rental_uris": {"android": "https://dc.lft.to/lastmile_qr_scan", "ios": "https://dc.lft.to/lastmile_qr_scan"}, "is_disabled": 0, "fusion_lat": 0.0, "name": "4a2d2d04629b1c9daba8201abcc0d736", "fusion_lon": 0.0}, {"is_reserved": 0, "type": "electric_scooter", "bike_id": "0ed5b6c4409674de178a5e736f8b31ed", "lat": 38.915460833333334, "lon": -77.020955, "rental_uris": {"android": "https://dc.lft.to/lastmile_qr_scan", "ios": "https://dc.lft.to/lastmile_qr_scan"}, "is_disabled": 0, "fusion_lat": 0.0, "name": "0ed5b6c4409674de178a5e736f8b31ed", "fusion_lon": 0.0}, {"is_reserved": 0, "type": "electric_scooter", "bike_id": "9b53114927b23d8f01238c8651bd39a7", "lat": 38.90117383333333, "lon": -77.03376416666667, "rental_uris": {"android": "https://dc.lft.to/lastmile_qr_scan", "ios": "https://dc.lft.to/lastmile_qr_scan"}, "is_disabled": 0, "fusion_lat": 0.0, "name": "9b53114927b23d8f01238c8651bd39a7", "fusion_lon": 0.0}, {"is_reserved": 0, "type": "electric_scooter", "bike_id": "cd64cd1bf8149b124d42f7e5aad1f917", "lat": 38.91269, "lon": -77.03280916666667, "rental_uris": {"android": "https://dc.lft.to/lastmile_qr_scan", "ios": "https://dc.lft.to/lastmile_qr_scan"}, "is_disabled": 0, "fusion_lat": 0.0, "name": "cd64cd1bf8149b124d42f7e5aad1f917", "fusion_lon": 0.0}, {"is_reserved": 0, "type": "electric_scooter", "bike_id": "23ac5bf2e8d12a554abc93bc6986c669", "lat": 38.957317333333336, "lon": -77.03625516666666, "rental_uris": {"android": "https://dc.lft.to/lastmile_qr_scan", "ios": "https://dc.lft.to/lastmile_qr_scan"}, "is_disabled": 0, "fusion_lat": 0.0, "name": "23ac5bf2e8d12a554abc93bc6986c669", "fusion_lon": 0.0}, {"is_reserved": 0, "type": "electric_scooter", "bike_id": "62ccd3d265c362120eb56e7531f72dca", "lat": 38.905742000000004, "lon": -77.0071195, "rental_uris": {"android": "https://dc.lft.to/lastmile_qr_scan", "ios": "https://dc.lft.to/lastmile_qr_scan"}, "is_disabled": 0, "fusion_lat": 0.0, "name": "62ccd3d265c362120eb56e7531f72dca", "fusion_lon": 0.0}, {"is_reserved": 0, "type": "electric_scooter", "bike_id": "009c006106c6c877c6f3bdd2791567f4", "lat": 38.93174233333333, "lon": -77.02815683333333, "rental_uris": {"android": "https://dc.lft.to/lastmile_qr_scan", "ios": "https://dc.lft.to/lastmile_qr_scan"}, "is_disabled": 0, "fusion_lat": 0.0, "name": "009c006106c6c877c6f3bdd2791567f4", "fusion_lon": 0.0}, {"is_reserved": 0, "type": "electric_scooter", "bike_id": "18060ab379c7e100df72d780bd11d6c0", "lat": 38.90782766666667, "lon": -76.99858066666667, "rental_uris": {"android": "https://dc.lft.to/lastmile_qr_scan", "ios": "https://dc.lft.to/lastmile_qr_scan"}, "is_disabled": 0, "fusion_lat": 0.0, "name": "18060ab379c7e100df72d780bd11d6c0", "fusion_lon": 0.0}, {"is_reserved": 0, "type": "electric_scooter", "bike_id": "bcd1c15614ce7f364246a74af5bff75a", "lat": 38.887742833333334, "lon": -76.93262466666667, "rental_uris": {"android": "https://dc.lft.to/lastmile_qr_scan", "ios": "https://dc.lft.to/lastmile_qr_scan"}, "is_disabled": 0, "fusion_lat": 0.0, "name": "bcd1c15614ce7f364246a74af5bff75a", "fusion_lon": 0.0}, {"is_reserved": 0, "type": "electric_scooter", "bike_id": "2df9dd1df7c074f5c913094f54ee81ca", "lat": 38.91399283333333, "lon": -77.0332005, "rental_uris": {"android": "https://dc.lft.to/lastmile_qr_scan", "ios": "https://dc.lft.to/lastmile_qr_scan"}, "is_disabled": 0, "fusion_lat": 0.0, "name": "2df9dd1df7c074f5c913094f54ee81ca", "fusion_lon": 0.0}, {"is_reserved": 0, "type": "electric_scooter", "bike_id": "5131a5ac409645063eccb92bbc680136", "lat": 38.9006655, "lon": -77.05432133333333, "rental_uris": {"android": "https://dc.lft.to/lastmile_qr_scan", "ios": "https://dc.lft.to/lastmile_qr_scan"}, "is_disabled": 0, "fusion_lat": 0.0, "name": "5131a5ac409645063eccb92bbc680136", "fusion_lon": 0.0}, {"is_reserved": 0, "type": "electric_scooter", "bike_id": "b8c228e84bcf32ef235295538b0a15d0", "lat": 38.88639466666667, "lon": -76.996152, "rental_uris": {"android": "https://dc.lft.to/lastmile_qr_scan", "ios": "https://dc.lft.to/lastmile_qr_scan"}, "is_disabled": 0, "fusion_lat": 0.0, "name": "b8c228e84bcf32ef235295538b0a15d0", "fusion_lon": 0.0}, {"is_reserved": 0, "type": "electric_scooter", "bike_id": "2eb95e975f284ea3b16beed3a97e61e3", "lat": 38.90566966666667, "lon": -77.00600533333333, "rental_uris": {"android": "https://dc.lft.to/lastmile_qr_scan", "ios": "https://dc.lft.to/lastmile_qr_scan"}, "is_disabled": 0, "fusion_lat": 0.0, "name": "2eb95e975f284ea3b16beed3a97e61e3", "fusion_lon": 0.0}, {"is_reserved": 0, "type": "electric_scooter", "bike_id": "ab82ba99d3f974d9c83012725938daf5", "lat": 38.927757166666666, "lon": -77.027864, "rental_uris": {"android": "https://dc.lft.to/lastmile_qr_scan", "ios": "https://dc.lft.to/lastmile_qr_scan"}, "is_disabled": 0, "fusion_lat": 0.0, "name": "ab82ba99d3f974d9c83012725938daf5", "fusion_lon": 0.0}, {"is_reserved": 0, "type": "electric_scooter", "bike_id": "d508670260f981a87c1d78d902b2bcbf", "lat": 38.91279933333333, "lon": -77.02971216666667, "rental_uris": {"android": "https://dc.lft.to/lastmile_qr_scan", "ios": "https://dc.lft.to/lastmile_qr_scan"}, "is_disabled": 0, "fusion_lat": 0.0, "name": "d508670260f981a87c1d78d902b2bcbf", "fusion_lon": 0.0}, {"is_reserved": 0, "type": "electric_scooter", "bike_id": "7d45acd9e9afa239206c8975fc4b3489", "lat": 38.93812616666666, "lon": -77.06653266666666, "rental_uris": {"android": "https://dc.lft.to/lastmile_qr_scan", "ios": "https://dc.lft.to/lastmile_qr_scan"}, "is_disabled": 0, "fusion_lat": 0.0, "name": "7d45acd9e9afa239206c8975fc4b3489", "fusion_lon": 0.0}, {"is_reserved": 0, "type": "electric_scooter", "bike_id": "b49f46a52d4e902047117229cc9416a3", "lat": 38.89443883333333, "lon": -76.980848, "rental_uris": {"android": "https://dc.lft.to/lastmile_qr_scan", "ios": "https://dc.lft.to/lastmile_qr_scan"}, "is_disabled": 0, "fusion_lat": 0.0, "name": "b49f46a52d4e902047117229cc9416a3", "fusion_lon": 0.0}, {"is_reserved": 0, "type": "electric_scooter", "bike_id": "a79cb3fb67cf8d1bd2d9d63f20e5686d", "lat": 38.92605866666667, "lon": -77.021699, "rental_uris": {"android": "https://dc.lft.to/lastmile_qr_scan", "ios": "https://dc.lft.to/lastmile_qr_scan"}, "is_disabled": 0, "fusion_lat": 0.0, "name": "a79cb3fb67cf8d1bd2d9d63f20e5686d", "fusion_lon": 0.0}, {"is_reserved": 0, "type": "electric_scooter", "bike_id": "176b32128bf2a4f42b7ad1d70ec08da2", "lat": 38.8987, "lon": -77.02412166666667, "rental_uris": {"android": "https://dc.lft.to/lastmile_qr_scan", "ios": "https://dc.lft.to/lastmile_qr_scan"}, "is_disabled": 0, "fusion_lat": 0.0, "name": "176b32128bf2a4f42b7ad1d70ec08da2", "fusion_lon": 0.0}, {"is_reserved": 0, "type": "electric_bike", "bike_id": "a40f465d05991fa25a7c56401a5e4074", "lat": 38.95753633333333, "lon": -76.980229, "rental_uris": {"android": "https://dc.lft.to/lastmile_qr_scan", "ios": "https://dc.lft.to/lastmile_qr_scan"}, "is_disabled": 0, "fusion_lat": 0.0, "name": "a40f465d05991fa25a7c56401a5e4074", "fusion_lon": 0.0}, {"is_reserved": 0, "type": "electric_scooter", "bike_id": "7004efeee9fae37a818af73e28b954f6", "lat": 38.900876333333336, "lon": -77.00197016666667, "rental_uris": {"android": "https://dc.lft.to/lastmile_qr_scan", "ios": "https://dc.lft.to/lastmile_qr_scan"}, "is_disabled": 0, "fusion_lat": 0.0, "name": "7004efeee9fae37a818af73e28b954f6", "fusion_lon": 0.0}, {"is_reserved": 0, "type": "electric_scooter", "bike_id": "e79433836de5fdadc44359e1ef99ef3c", "lat": 38.9377565, "lon": -77.03277816666667, "rental_uris": {"android": "https://dc.lft.to/lastmile_qr_scan", "ios": "https://dc.lft.to/lastmile_qr_scan"}, "is_disabled": 0, "fusion_lat": 0.0, "name": "e79433836de5fdadc44359e1ef99ef3c", "fusion_lon": 0.0}, {"is_reserved": 0, "type": "electric_scooter", "bike_id": "fdea8b59c2069d64b281729375ae8d13", "lat": 38.903488833333334, "lon": -76.9861485, "rental_uris": {"android": "https://dc.lft.to/lastmile_qr_scan", "ios": "https://dc.lft.to/lastmile_qr_scan"}, "is_disabled": 0, "fusion_lat": 0.0, "name": "fdea8b59c2069d64b281729375ae8d13", "fusion_lon": 0.0}, {"is_reserved": 0, "type": "electric_scooter", "bike_id": "72638e1100baec6fbaaeda57223cd137", "lat": 38.91866016666667, "lon": -77.04183983333333, "rental_uris": {"android": "https://dc.lft.to/lastmile_qr_scan", "ios": "https://dc.lft.to/lastmile_qr_scan"}, "is_disabled": 0, "fusion_lat": 0.0, "name": "72638e1100baec6fbaaeda57223cd137", "fusion_lon": 0.0}, {"is_reserved": 0, "type": "electric_scooter", "bike_id": "e68255235be12773717977164b0ee723", "lat": 38.912612333333335, "lon": -77.03813483333333, "rental_uris": {"android": "https://dc.lft.to/lastmile_qr_scan", "ios": "https://dc.lft.to/lastmile_qr_scan"}, "is_disabled": 0, "fusion_lat": 0.0, "name": "e68255235be12773717977164b0ee723", "fusion_lon": 0.0}, {"is_reserved": 0, "type": "electric_scooter", "bike_id": "d6b0aa66ab0f540f2071241be255dbd5", "lat": 38.91811083333333, "lon": -77.04547066666667, "rental_uris": {"android": "https://dc.lft.to/lastmile_qr_scan", "ios": "https://dc.lft.to/lastmile_qr_scan"}, "is_disabled": 0, "fusion_lat": 0.0, "name": "d6b0aa66ab0f540f2071241be255dbd5", "fusion_lon": 0.0}, {"is_reserved": 0, "type": "electric_scooter", "bike_id": "09fae85c6d9335ce220294a4c7406336", "lat": 38.92334016666667, "lon": -77.05674866666666, "rental_uris": {"android": "https://dc.lft.to/lastmile_qr_scan", "ios": "https://dc.lft.to/lastmile_qr_scan"}, "is_disabled": 0, "fusion_lat": 0.0, "name": "09fae85c6d9335ce220294a4c7406336", "fusion_lon": 0.0}, {"is_reserved": 0, "type": "electric_scooter", "bike_id": "115b6813338ea46a93064766758fafb7", "lat": 38.916856, "lon": -77.0319515, "rental_uris": {"android": "https://dc.lft.to/lastmile_qr_scan", "ios": "https://dc.lft.to/lastmile_qr_scan"}, "is_disabled": 0, "fusion_lat": 0.0, "name": "115b6813338ea46a93064766758fafb7", "fusion_lon": 0.0}, {"is_reserved": 0, "type": "electric_scooter", "bike_id": "2094edc7b7d22406a1a5871d896190a1", "lat": 38.9751995, "lon": -77.01746766666666, "rental_uris": {"android": "https://dc.lft.to/lastmile_qr_scan", "ios": "https://dc.lft.to/lastmile_qr_scan"}, "is_disabled": 0, "fusion_lat": 0.0, "name": "2094edc7b7d22406a1a5871d896190a1", "fusion_lon": 0.0}, {"is_reserved": 0, "type": "electric_scooter", "bike_id": "1ca3fe38f3d7d2888246c62e3d6c4fa2", "lat": 38.929074666666665, "lon": -77.03632533333334, "rental_uris": {"android": "https://dc.lft.to/lastmile_qr_scan", "ios": "https://dc.lft.to/lastmile_qr_scan"}, "is_disabled": 0, "fusion_lat": 0.0, "name": "1ca3fe38f3d7d2888246c62e3d6c4fa2", "fusion_lon": 0.0}, {"is_reserved": 0, "type": "electric_scooter", "bike_id": "51c2899098801d880ad218de5c583f09", "lat": 38.90969966666667, "lon": -77.02122283333334, "rental_uris": {"android": "https://dc.lft.to/lastmile_qr_scan", "ios": "https://dc.lft.to/lastmile_qr_scan"}, "is_disabled": 0, "fusion_lat": 0.0, "name": "51c2899098801d880ad218de5c583f09", "fusion_lon": 0.0}, {"is_reserved": 0, "type": "electric_scooter", "bike_id": "603a4084b2936f215cf47bbb26bbc702", "lat": 38.9354485, "lon": -77.072751, "rental_uris": {"android": "https://dc.lft.to/lastmile_qr_scan", "ios": "https://dc.lft.to/lastmile_qr_scan"}, "is_disabled": 0, "fusion_lat": 0.0, "name": "603a4084b2936f215cf47bbb26bbc702", "fusion_lon": 0.0}, {"is_reserved": 0, "type": "electric_bike", "bike_id": "9bcd7be2628a864b6ef7272a4f85a5e6", "lat": 38.906954999999996, "lon": -76.95249733333333, "rental_uris": {"android": "https://dc.lft.to/lastmile_qr_scan", "ios": "https://dc.lft.to/lastmile_qr_scan"}, "is_disabled": 0, "fusion_lat": 0.0, "name": "9bcd7be2628a864b6ef7272a4f85a5e6", "fusion_lon": 0.0}, {"is_reserved": 0, "type": "electric_scooter", "bike_id": "b23f3e864c7e436ffb3010f4b362633f", "lat": 38.895470333333336, "lon": -76.9833755, "rental_uris": {"android": "https://dc.lft.to/lastmile_qr_scan", "ios": "https://dc.lft.to/lastmile_qr_scan"}, "is_disabled": 0, "fusion_lat": 0.0, "name": "b23f3e864c7e436ffb3010f4b362633f", "fusion_lon": 0.0}, {"is_reserved": 0, "type": "electric_scooter", "bike_id": "830e1c329c6a3f0854565f687ae3c995", "lat": 38.92339183333333, "lon": -77.018995, "rental_uris": {"android": "https://dc.lft.to/lastmile_qr_scan", "ios": "https://dc.lft.to/lastmile_qr_scan"}, "is_disabled": 0, "fusion_lat": 0.0, "name": "830e1c329c6a3f0854565f687ae3c995", "fusion_lon": 0.0}, {"is_reserved": 0, "type": "electric_scooter", "bike_id": "19151fef74b4f1fc2a519b91709de220", "lat": 38.9126345, "lon": -77.03141733333334, "rental_uris": {"android": "https://dc.lft.to/lastmile_qr_scan", "ios": "https://dc.lft.to/lastmile_qr_scan"}, "is_disabled": 0, "fusion_lat": 0.0, "name": "19151fef74b4f1fc2a519b91709de220", "fusion_lon": 0.0}, {"is_reserved": 0, "type": "electric_scooter", "bike_id": "782ef095c7a9570a3630d784fc31c840", "lat": 38.940358833333335, "lon": -77.02520433333333, "rental_uris": {"android": "https://dc.lft.to/lastmile_qr_scan", "ios": "https://dc.lft.to/lastmile_qr_scan"}, "is_disabled": 0, "fusion_lat": 0.0, "name": "782ef095c7a9570a3630d784fc31c840", "fusion_lon": 0.0}, {"is_reserved": 0, "type": "electric_scooter", "bike_id": "4074ef41c529e57ba8d0a4a55610716f", "lat": 38.9170005, "lon": -77.03226466666666, "rental_uris": {"android": "https://dc.lft.to/lastmile_qr_scan", "ios": "https://dc.lft.to/lastmile_qr_scan"}, "is_disabled": 0, "fusion_lat": 0.0, "name": "4074ef41c529e57ba8d0a4a55610716f", "fusion_lon": 0.0}, {"is_reserved": 0, "type": "electric_scooter", "bike_id": "38d15cc42982e5e1b49420b544dc69f8", "lat": 38.9397625, "lon": -77.05475716666666, "rental_uris": {"android": "https://dc.lft.to/lastmile_qr_scan", "ios": "https://dc.lft.to/lastmile_qr_scan"}, "is_disabled": 0, "fusion_lat": 0.0, "name": "38d15cc42982e5e1b49420b544dc69f8", "fusion_lon": 0.0}, {"is_reserved": 0, "type": "electric_scooter", "bike_id": "239f170597588fab0222a682ddebb79a", "lat": 38.908999, "lon": -77.03216216666667, "rental_uris": {"android": "https://dc.lft.to/lastmile_qr_scan", "ios": "https://dc.lft.to/lastmile_qr_scan"}, "is_disabled": 0, "fusion_lat": 0.0, "name": "239f170597588fab0222a682ddebb79a", "fusion_lon": 0.0}, {"is_reserved": 0, "type": "electric_scooter", "bike_id": "1a4f4a9e1893627e2f9bcffc676bd763", "lat": 38.9264945, "lon": -77.026991, "rental_uris": {"android": "https://dc.lft.to/lastmile_qr_scan", "ios": "https://dc.lft.to/lastmile_qr_scan"}, "is_disabled": 0, "fusion_lat": 0.0, "name": "1a4f4a9e1893627e2f9bcffc676bd763", "fusion_lon": 0.0}, {"is_reserved": 0, "type": "electric_bike", "bike_id": "65280c6cd19dde608047ad3bb2aa2bc7", "lat": 38.88087, "lon": -77.025745, "rental_uris": {"android": "https://dc.lft.to/lastmile_qr_scan", "ios": "https://dc.lft.to/lastmile_qr_scan"}, "is_disabled": 0, "fusion_lat": 0.0, "name": "65280c6cd19dde608047ad3bb2aa2bc7", "fusion_lon": 0.0}, {"is_reserved": 0, "type": "electric_scooter", "bike_id": "74af7f2c18ffb83514f0d2aa037db37a", "lat": 38.9154685, "lon": -76.98368833333333, "rental_uris": {"android": "https://dc.lft.to/lastmile_qr_scan", "ios": "https://dc.lft.to/lastmile_qr_scan"}, "is_disabled": 0, "fusion_lat": 0.0, "name": "74af7f2c18ffb83514f0d2aa037db37a", "fusion_lon": 0.0}, {"is_reserved": 0, "type": "electric_scooter", "bike_id": "72e318142acd69ec9a55f78423cd45c7", "lat": 38.90088566666667, "lon": -77.0184635, "rental_uris": {"android": "https://dc.lft.to/lastmile_qr_scan", "ios": "https://dc.lft.to/lastmile_qr_scan"}, "is_disabled": 0, "fusion_lat": 0.0, "name": "72e318142acd69ec9a55f78423cd45c7", "fusion_lon": 0.0}, {"is_reserved": 0, "type": "electric_scooter", "bike_id": "5ed9d40ccaede413b94e31e7fa70fab0", "lat": 38.914755666666665, "lon": -77.03185983333333, "rental_uris": {"android": "https://dc.lft.to/lastmile_qr_scan", "ios": "https://dc.lft.to/lastmile_qr_scan"}, "is_disabled": 0, "fusion_lat": 0.0, "name": "5ed9d40ccaede413b94e31e7fa70fab0", "fusion_lon": 0.0}, {"is_reserved": 0, "type": "electric_scooter", "bike_id": "1c684e22ace9961e5f5f085e2d402e68", "lat": 38.918705, "lon": -77.02592916666667, "rental_uris": {"android": "https://dc.lft.to/lastmile_qr_scan", "ios": "https://dc.lft.to/lastmile_qr_scan"}, "is_disabled": 0, "fusion_lat": 0.0, "name": "1c684e22ace9961e5f5f085e2d402e68", "fusion_lon": 0.0}, {"is_reserved": 0, "type": "electric_scooter", "bike_id": "bcf94434aeda06f8f9f48a24b757afe6", "lat": 38.89889333333333, "lon": -76.9936185, "rental_uris": {"android": "https://dc.lft.to/lastmile_qr_scan", "ios": "https://dc.lft.to/lastmile_qr_scan"}, "is_disabled": 0, "fusion_lat": 0.0, "name": "bcf94434aeda06f8f9f48a24b757afe6", "fusion_lon": 0.0}, {"is_reserved": 0, "type": "electric_scooter", "bike_id": "1b5ff3cfa997760e864e0662643aed87", "lat": 38.933789, "lon": -77.034655, "rental_uris": {"android": "https://dc.lft.to/lastmile_qr_scan", "ios": "https://dc.lft.to/lastmile_qr_scan"}, "is_disabled": 0, "fusion_lat": 0.0, "name": "1b5ff3cfa997760e864e0662643aed87", "fusion_lon": 0.0}, {"is_reserved": 0, "type": "electric_scooter", "bike_id": "d8c75a1f7ab62ed67154d732f6a08c74", "lat": 38.89833333333333, "lon": -77.02830516666667, "rental_uris": {"android": "https://dc.lft.to/lastmile_qr_scan", "ios": "https://dc.lft.to/lastmile_qr_scan"}, "is_disabled": 0, "fusion_lat": 0.0, "name": "d8c75a1f7ab62ed67154d732f6a08c74", "fusion_lon": 0.0}, {"is_reserved": 0, "type": "electric_scooter", "bike_id": "b6f8785e58a757a2bafc988959d82e3a", "lat": 38.923922, "lon": -77.05049583333333, "rental_uris": {"android": "https://dc.lft.to/lastmile_qr_scan", "ios": "https://dc.lft.to/lastmile_qr_scan"}, "is_disabled": 0, "fusion_lat": 0.0, "name": "b6f8785e58a757a2bafc988959d82e3a", "fusion_lon": 0.0}, {"is_reserved": 0, "type": "electric_scooter", "bike_id": "8d260e753909fcbf1ccfc9f35bd23aaa", "lat": 38.91710833333333, "lon": -77.0271855, "rental_uris": {"android": "https://dc.lft.to/lastmile_qr_scan", "ios": "https://dc.lft.to/lastmile_qr_scan"}, "is_disabled": 0, "fusion_lat": 0.0, "name": "8d260e753909fcbf1ccfc9f35bd23aaa", "fusion_lon": 0.0}, {"is_reserved": 0, "type": "electric_scooter", "bike_id": "ec06147c4437a95f74c5b900868293e7", "lat": 38.90589133333334, "lon": -77.00895966666667, "rental_uris": {"android": "https://dc.lft.to/lastmile_qr_scan", "ios": "https://dc.lft.to/lastmile_qr_scan"}, "is_disabled": 0, "fusion_lat": 0.0, "name": "ec06147c4437a95f74c5b900868293e7", "fusion_lon": 0.0}, {"is_reserved": 0, "type": "electric_scooter", "bike_id": "1a689d5b52068599e6165ca28c0a2539", "lat": 38.90919783333333, "lon": -77.0451225, "rental_uris": {"android": "https://dc.lft.to/lastmile_qr_scan", "ios": "https://dc.lft.to/lastmile_qr_scan"}, "is_disabled": 0, "fusion_lat": 0.0, "name": "1a689d5b52068599e6165ca28c0a2539", "fusion_lon": 0.0}, {"is_reserved": 0, "type": "electric_scooter", "bike_id": "f94e79b6edaf60b2f92d9dc1936418b6", "lat": 38.88726333333334, "lon": -76.983781, "rental_uris": {"android": "https://dc.lft.to/lastmile_qr_scan", "ios": "https://dc.lft.to/lastmile_qr_scan"}, "is_disabled": 0, "fusion_lat": 0.0, "name": "f94e79b6edaf60b2f92d9dc1936418b6", "fusion_lon": 0.0}, {"is_reserved": 0, "type": "electric_scooter", "bike_id": "72f4f9bfbd66f8dd0082a47d4c6e4c5d", "lat": 38.900823, "lon": -77.050597, "rental_uris": {"android": "https://dc.lft.to/lastmile_qr_scan", "ios": "https://dc.lft.to/lastmile_qr_scan"}, "is_disabled": 0, "fusion_lat": 0.0, "name": "72f4f9bfbd66f8dd0082a47d4c6e4c5d", "fusion_lon": 0.0}, {"is_reserved": 0, "type": "electric_scooter", "bike_id": "76c23abda5a5fa62c6fa8c54a8346737", "lat": 38.900371166666666, "lon": -77.0122755, "rental_uris": {"android": "https://dc.lft.to/lastmile_qr_scan", "ios": "https://dc.lft.to/lastmile_qr_scan"}, "is_disabled": 0, "fusion_lat": 0.0, "name": "76c23abda5a5fa62c6fa8c54a8346737", "fusion_lon": 0.0}, {"is_reserved": 0, "type": "electric_bike", "bike_id": "1d2b55b4f61e485be96d84d2c36b2165", "lat": 38.9291385, "lon": -77.09739066666667, "rental_uris": {"android": "https://dc.lft.to/lastmile_qr_scan", "ios": "https://dc.lft.to/lastmile_qr_scan"}, "is_disabled": 0, "fusion_lat": 0.0, "name": "1d2b55b4f61e485be96d84d2c36b2165", "fusion_lon": 0.0}, {"is_reserved": 0, "type": "electric_bike", "bike_id": "7f7528045cdc100ab47c7c9023eb01c6", "lat": 38.942614166666665, "lon": -76.99072533333333, "rental_uris": {"android": "https://dc.lft.to/lastmile_qr_scan", "ios": "https://dc.lft.to/lastmile_qr_scan"}, "is_disabled": 0, "fusion_lat": 0.0, "name": "7f7528045cdc100ab47c7c9023eb01c6", "fusion_lon": 0.0}, {"is_reserved": 0, "type": "electric_scooter", "bike_id": "14de1a61c5bff677d3af3cbc9a5a484d", "lat": 38.90765916666667, "lon": -77.0318995, "rental_uris": {"android": "https://dc.lft.to/lastmile_qr_scan", "ios": "https://dc.lft.to/lastmile_qr_scan"}, "is_disabled": 0, "fusion_lat": 0.0, "name": "14de1a61c5bff677d3af3cbc9a5a484d", "fusion_lon": 0.0}, {"is_reserved": 0, "type": "electric_scooter", "bike_id": "6375dd07bdd8a269c749ef869fd0df98", "lat": 38.90199, "lon": -77.02188966666667, "rental_uris": {"android": "https://dc.lft.to/lastmile_qr_scan", "ios": "https://dc.lft.to/lastmile_qr_scan"}, "is_disabled": 0, "fusion_lat": 0.0, "name": "6375dd07bdd8a269c749ef869fd0df98", "fusion_lon": 0.0}, {"is_reserved": 0, "type": "electric_scooter", "bike_id": "772b3b5fdd7283e0249e814eb98334c8", "lat": 38.959126833333336, "lon": -77.00018433333334, "rental_uris": {"android": "https://dc.lft.to/lastmile_qr_scan", "ios": "https://dc.lft.to/lastmile_qr_scan"}, "is_disabled": 0, "fusion_lat": 0.0, "name": "772b3b5fdd7283e0249e814eb98334c8", "fusion_lon": 0.0}, {"is_reserved": 0, "type": "electric_scooter", "bike_id": "b1bb3baa328169b12dcd977670314ba4", "lat": 38.877114666666664, "lon": -77.0175835, "rental_uris": {"android": "https://dc.lft.to/lastmile_qr_scan", "ios": "https://dc.lft.to/lastmile_qr_scan"}, "is_disabled": 0, "fusion_lat": 0.0, "name": "b1bb3baa328169b12dcd977670314ba4", "fusion_lon": 0.0}, {"is_reserved": 0, "type": "electric_scooter", "bike_id": "6d7d24e23d42d7646f1be5df755db6ff", "lat": 38.94596533333333, "lon": -77.02034583333334, "rental_uris": {"android": "https://dc.lft.to/lastmile_qr_scan", "ios": "https://dc.lft.to/lastmile_qr_scan"}, "is_disabled": 0, "fusion_lat": 0.0, "name": "6d7d24e23d42d7646f1be5df755db6ff", "fusion_lon": 0.0}, {"is_reserved": 0, "type": "electric_scooter", "bike_id": "61414555d619ea57aa14a38c78e3e64d", "lat": 38.90097733333333, "lon": -77.05786866666666, "rental_uris": {"android": "https://dc.lft.to/lastmile_qr_scan", "ios": "https://dc.lft.to/lastmile_qr_scan"}, "is_disabled": 0, "fusion_lat": 0.0, "name": "61414555d619ea57aa14a38c78e3e64d", "fusion_lon": 0.0}, {"is_reserved": 0, "type": "electric_scooter", "bike_id": "0dfb6009ddff35c05f2b570b5b041959", "lat": 38.926809666666664, "lon": -77.03200716666667, "rental_uris": {"android": "https://dc.lft.to/lastmile_qr_scan", "ios": "https://dc.lft.to/lastmile_qr_scan"}, "is_disabled": 0, "fusion_lat": 0.0, "name": "0dfb6009ddff35c05f2b570b5b041959", "fusion_lon": 0.0}, {"is_reserved": 0, "type": "electric_scooter", "bike_id": "86627294e83cd39e77e1b7ae9431f92d", "lat": 38.89321283333334, "lon": -77.01232033333334, "rental_uris": {"android": "https://dc.lft.to/lastmile_qr_scan", "ios": "https://dc.lft.to/lastmile_qr_scan"}, "is_disabled": 0, "fusion_lat": 0.0, "name": "86627294e83cd39e77e1b7ae9431f92d", "fusion_lon": 0.0}, {"is_reserved": 0, "type": "electric_scooter", "bike_id": "118b36c10e1ed8f59d980c95942857db", "lat": 38.8934005, "lon": -77.04878216666667, "rental_uris": {"android": "https://dc.lft.to/lastmile_qr_scan", "ios": "https://dc.lft.to/lastmile_qr_scan"}, "is_disabled": 0, "fusion_lat": 0.0, "name": "118b36c10e1ed8f59d980c95942857db", "fusion_lon": 0.0}, {"is_reserved": 0, "type": "electric_scooter", "bike_id": "33e0b76bcce27dffc9c0b1683ccd6c96", "lat": 38.896403666666664, "lon": -77.0092335, "rental_uris": {"android": "https://dc.lft.to/lastmile_qr_scan", "ios": "https://dc.lft.to/lastmile_qr_scan"}, "is_disabled": 0, "fusion_lat": 0.0, "name": "33e0b76bcce27dffc9c0b1683ccd6c96", "fusion_lon": 0.0}, {"is_reserved": 0, "type": "electric_scooter", "bike_id": "bbbeb877b886975d58f5d6f2126e18fc", "lat": 38.896361, "lon": -76.92799633333334, "rental_uris": {"android": "https://dc.lft.to/lastmile_qr_scan", "ios": "https://dc.lft.to/lastmile_qr_scan"}, "is_disabled": 0, "fusion_lat": 0.0, "name": "bbbeb877b886975d58f5d6f2126e18fc", "fusion_lon": 0.0}, {"is_reserved": 0, "type": "electric_bike", "bike_id": "965f01b94220b17797f85cf54a1bbcaa", "lat": 38.873383833333335, "lon": -77.018543, "rental_uris": {"android": "https://dc.lft.to/lastmile_qr_scan", "ios": "https://dc.lft.to/lastmile_qr_scan"}, "is_disabled": 0, "fusion_lat": 0.0, "name": "965f01b94220b17797f85cf54a1bbcaa", "fusion_lon": 0.0}, {"is_reserved": 0, "type": "electric_scooter", "bike_id": "e1dc1d7e9b135f9f96738fe59aed0bb9", "lat": 38.91786183333333, "lon": -77.02315183333333, "rental_uris": {"android": "https://dc.lft.to/lastmile_qr_scan", "ios": "https://dc.lft.to/lastmile_qr_scan"}, "is_disabled": 0, "fusion_lat": 0.0, "name": "e1dc1d7e9b135f9f96738fe59aed0bb9", "fusion_lon": 0.0}, {"is_reserved": 0, "type": "electric_bike", "bike_id": "ab6c23555ff9724019f042f7abd7f999", "lat": 38.898540833333335, "lon": -77.11864633333333, "rental_uris": {"android": "https://dc.lft.to/lastmile_qr_scan", "ios": "https://dc.lft.to/lastmile_qr_scan"}, "is_disabled": 0, "fusion_lat": 0.0, "name": "ab6c23555ff9724019f042f7abd7f999", "fusion_lon": 0.0}, {"is_reserved": 0, "type": "electric_scooter", "bike_id": "39b449e6eaed5641850b3cf299fb5c74", "lat": 38.9140625, "lon": -77.04684766666666, "rental_uris": {"android": "https://dc.lft.to/lastmile_qr_scan", "ios": "https://dc.lft.to/lastmile_qr_scan"}, "is_disabled": 0, "fusion_lat": 0.0, "name": "39b449e6eaed5641850b3cf299fb5c74", "fusion_lon": 0.0}, {"is_reserved": 0, "type": "electric_scooter", "bike_id": "6718b47cc75e5541294bbf35bc9c24b1", "lat": 38.904057, "lon": -77.03313733333333, "rental_uris": {"android": "https://dc.lft.to/lastmile_qr_scan", "ios": "https://dc.lft.to/lastmile_qr_scan"}, "is_disabled": 0, "fusion_lat": 0.0, "name": "6718b47cc75e5541294bbf35bc9c24b1", "fusion_lon": 0.0}, {"is_reserved": 0, "type": "electric_scooter", "bike_id": "f0ed65d9946e92d236519f24f39985a8", "lat": 38.88375883333333, "lon": -76.995191, "rental_uris": {"android": "https://dc.lft.to/lastmile_qr_scan", "ios": "https://dc.lft.to/lastmile_qr_scan"}, "is_disabled": 0, "fusion_lat": 0.0, "name": "f0ed65d9946e92d236519f24f39985a8", "fusion_lon": 0.0}, {"is_reserved": 0, "type": "electric_scooter", "bike_id": "2cfd4c979405be76b9ec77f06c27c720", "lat": 38.92801633333333, "lon": -77.04064383333333, "rental_uris": {"android": "https://dc.lft.to/lastmile_qr_scan", "ios": "https://dc.lft.to/lastmile_qr_scan"}, "is_disabled": 0, "fusion_lat": 0.0, "name": "2cfd4c979405be76b9ec77f06c27c720", "fusion_lon": 0.0}, {"is_reserved": 0, "type": "electric_scooter", "bike_id": "980e664df57b756927f8edb635a04638", "lat": 38.879509166666665, "lon": -77.0166925, "rental_uris": {"android": "https://dc.lft.to/lastmile_qr_scan", "ios": "https://dc.lft.to/lastmile_qr_scan"}, "is_disabled": 0, "fusion_lat": 0.0, "name": "980e664df57b756927f8edb635a04638", "fusion_lon": 0.0}, {"is_reserved": 0, "type": "electric_scooter", "bike_id": "06f1b07decc529d9d10b56e761338115", "lat": 38.9275885, "lon": -77.0210875, "rental_uris": {"android": "https://dc.lft.to/lastmile_qr_scan", "ios": "https://dc.lft.to/lastmile_qr_scan"}, "is_disabled": 0, "fusion_lat": 0.0, "name": "06f1b07decc529d9d10b56e761338115", "fusion_lon": 0.0}, {"is_reserved": 0, "type": "electric_scooter", "bike_id": "a452195b823b0893d80851783ea2255a", "lat": 38.92140366666667, "lon": -77.03662583333333, "rental_uris": {"android": "https://dc.lft.to/lastmile_qr_scan", "ios": "https://dc.lft.to/lastmile_qr_scan"}, "is_disabled": 0, "fusion_lat": 0.0, "name": "a452195b823b0893d80851783ea2255a", "fusion_lon": 0.0}, {"is_reserved": 0, "type": "electric_scooter", "bike_id": "47b3f014764e37e335abc7862eb4265d", "lat": 38.924534666666666, "lon": -77.05196083333334, "rental_uris": {"android": "https://dc.lft.to/lastmile_qr_scan", "ios": "https://dc.lft.to/lastmile_qr_scan"}, "is_disabled": 0, "fusion_lat": 0.0, "name": "47b3f014764e37e335abc7862eb4265d", "fusion_lon": 0.0}, {"is_reserved": 0, "type": "electric_scooter", "bike_id": "82eb066b55316b1036aee8e7eedc3cc5", "lat": 38.95827833333333, "lon": -77.07644033333334, "rental_uris": {"android": "https://dc.lft.to/lastmile_qr_scan", "ios": "https://dc.lft.to/lastmile_qr_scan"}, "is_disabled": 0, "fusion_lat": 0.0, "name": "82eb066b55316b1036aee8e7eedc3cc5", "fusion_lon": 0.0}, {"is_reserved": 0, "type": "electric_bike", "bike_id": "223a726b2661be41a69c8b6577030cb7", "lat": 38.989253166666664, "lon": -77.025405, "rental_uris": {"android": "https://dc.lft.to/lastmile_qr_scan", "ios": "https://dc.lft.to/lastmile_qr_scan"}, "is_disabled": 0, "fusion_lat": 0.0, "name": "223a726b2661be41a69c8b6577030cb7", "fusion_lon": 0.0}, {"is_reserved": 0, "type": "electric_scooter", "bike_id": "22c9b4577025da67231819dfda63ec67", "lat": 38.91972366666667, "lon": -77.0414465, "rental_uris": {"android": "https://dc.lft.to/lastmile_qr_scan", "ios": "https://dc.lft.to/lastmile_qr_scan"}, "is_disabled": 0, "fusion_lat": 0.0, "name": "22c9b4577025da67231819dfda63ec67", "fusion_lon": 0.0}, {"is_reserved": 0, "type": "electric_scooter", "bike_id": "b952cc667b21fc9e0e8ccb5c3d2faa46", "lat": 38.91865416666667, "lon": -77.04043866666666, "rental_uris": {"android": "https://dc.lft.to/lastmile_qr_scan", "ios": "https://dc.lft.to/lastmile_qr_scan"}, "is_disabled": 0, "fusion_lat": 0.0, "name": "b952cc667b21fc9e0e8ccb5c3d2faa46", "fusion_lon": 0.0}, {"is_reserved": 0, "type": "electric_scooter", "bike_id": "3e2115b9a4c31986a15f241f1104a770", "lat": 38.92380983333334, "lon": -77.0525575, "rental_uris": {"android": "https://dc.lft.to/lastmile_qr_scan", "ios": "https://dc.lft.to/lastmile_qr_scan"}, "is_disabled": 0, "fusion_lat": 0.0, "name": "3e2115b9a4c31986a15f241f1104a770", "fusion_lon": 0.0}, {"is_reserved": 0, "type": "electric_scooter", "bike_id": "89683d22272e870c1afee08237cca074", "lat": 38.928488333333334, "lon": -77.01372833333333, "rental_uris": {"android": "https://dc.lft.to/lastmile_qr_scan", "ios": "https://dc.lft.to/lastmile_qr_scan"}, "is_disabled": 0, "fusion_lat": 0.0, "name": "89683d22272e870c1afee08237cca074", "fusion_lon": 0.0}, {"is_reserved": 0, "type": "electric_scooter", "bike_id": "e9395f56c1da5f0c7b69fe0461d2c696", "lat": 38.91561633333333, "lon": -77.03120366666667, "rental_uris": {"android": "https://dc.lft.to/lastmile_qr_scan", "ios": "https://dc.lft.to/lastmile_qr_scan"}, "is_disabled": 0, "fusion_lat": 0.0, "name": "e9395f56c1da5f0c7b69fe0461d2c696", "fusion_lon": 0.0}, {"is_reserved": 0, "type": "electric_scooter", "bike_id": "6524ac82385183508b5f4a01e35f05d7", "lat": 38.91682016666667, "lon": -77.0296715, "rental_uris": {"android": "https://dc.lft.to/lastmile_qr_scan", "ios": "https://dc.lft.to/lastmile_qr_scan"}, "is_disabled": 0, "fusion_lat": 0.0, "name": "6524ac82385183508b5f4a01e35f05d7", "fusion_lon": 0.0}, {"is_reserved": 0, "type": "electric_bike", "bike_id": "5321108f27845f6e02c59bcf255f35ae", "lat": 38.84460166666667, "lon": -76.93167266666667, "rental_uris": {"android": "https://dc.lft.to/lastmile_qr_scan", "ios": "https://dc.lft.to/lastmile_qr_scan"}, "is_disabled": 0, "fusion_lat": 0.0, "name": "5321108f27845f6e02c59bcf255f35ae", "fusion_lon": 0.0}, {"is_reserved": 0, "type": "electric_scooter", "bike_id": "89a04423b1c29f430e16d481048661b9", "lat": 38.91632666666667, "lon": -77.03178083333333, "rental_uris": {"android": "https://dc.lft.to/lastmile_qr_scan", "ios": "https://dc.lft.to/lastmile_qr_scan"}, "is_disabled": 0, "fusion_lat": 0.0, "name": "89a04423b1c29f430e16d481048661b9", "fusion_lon": 0.0}, {"is_reserved": 0, "type": "electric_bike", "bike_id": "a424979247dd5457f35c48326e1d9700", "lat": 38.98719716666667, "lon": -76.94585466666666, "rental_uris": {"android": "https://dc.lft.to/lastmile_qr_scan", "ios": "https://dc.lft.to/lastmile_qr_scan"}, "is_disabled": 0, "fusion_lat": 0.0, "name": "a424979247dd5457f35c48326e1d9700", "fusion_lon": 0.0}, {"is_reserved": 0, "type": "electric_bike", "bike_id": "98e5e7ce6cb3b029575c4c6e97746771", "lat": 38.947949666666666, "lon": -76.94248866666666, "rental_uris": {"android": "https://dc.lft.to/lastmile_qr_scan", "ios": "https://dc.lft.to/lastmile_qr_scan"}, "is_disabled": 0, "fusion_lat": 0.0, "name": "98e5e7ce6cb3b029575c4c6e97746771", "fusion_lon": 0.0}, {"is_reserved": 0, "type": "electric_scooter", "bike_id": "7bc5f22ae1214d906abf6dbce0b6fdcf", "lat": 38.89615633333333, "lon": -77.02152833333334, "rental_uris": {"android": "https://dc.lft.to/lastmile_qr_scan", "ios": "https://dc.lft.to/lastmile_qr_scan"}, "is_disabled": 0, "fusion_lat": 0.0, "name": "7bc5f22ae1214d906abf6dbce0b6fdcf", "fusion_lon": 0.0}, {"is_reserved": 0, "type": "electric_scooter", "bike_id": "178376a56cc2f09ebfa7227031b86830", "lat": 38.895464833333335, "lon": -76.98337833333333, "rental_uris": {"android": "https://dc.lft.to/lastmile_qr_scan", "ios": "https://dc.lft.to/lastmile_qr_scan"}, "is_disabled": 0, "fusion_lat": 0.0, "name": "178376a56cc2f09ebfa7227031b86830", "fusion_lon": 0.0}, {"is_reserved": 0, "type": "electric_scooter", "bike_id": "29c43ea4006a20967cb31939f5835ca1", "lat": 38.90081333333333, "lon": -77.04843316666667, "rental_uris": {"android": "https://dc.lft.to/lastmile_qr_scan", "ios": "https://dc.lft.to/lastmile_qr_scan"}, "is_disabled": 0, "fusion_lat": 0.0, "name": "29c43ea4006a20967cb31939f5835ca1", "fusion_lon": 0.0}, {"is_reserved": 0, "type": "electric_scooter", "bike_id": "f0b6df30db7359a12edcb69e700bd9cb", "lat": 38.9117675, "lon": -77.03188916666667, "rental_uris": {"android": "https://dc.lft.to/lastmile_qr_scan", "ios": "https://dc.lft.to/lastmile_qr_scan"}, "is_disabled": 0, "fusion_lat": 0.0, "name": "f0b6df30db7359a12edcb69e700bd9cb", "fusion_lon": 0.0}, {"is_reserved": 0, "type": "electric_scooter", "bike_id": "3f186795c2f0fcaada94853f893e2c05", "lat": 38.881467, "lon": -77.02709933333334, "rental_uris": {"android": "https://dc.lft.to/lastmile_qr_scan", "ios": "https://dc.lft.to/lastmile_qr_scan"}, "is_disabled": 0, "fusion_lat": 0.0, "name": "3f186795c2f0fcaada94853f893e2c05", "fusion_lon": 0.0}, {"is_reserved": 0, "type": "electric_scooter", "bike_id": "4b5e548db5155e4537a3566f342f0552", "lat": 38.917206666666665, "lon": -77.038374, "rental_uris": {"android": "https://dc.lft.to/lastmile_qr_scan", "ios": "https://dc.lft.to/lastmile_qr_scan"}, "is_disabled": 0, "fusion_lat": 0.0, "name": "4b5e548db5155e4537a3566f342f0552", "fusion_lon": 0.0}, {"is_reserved": 0, "type": "electric_scooter", "bike_id": "eff2b63e9f43a8240b07837d2f504246", "lat": 38.91988816666667, "lon": -76.97302833333333, "rental_uris": {"android": "https://dc.lft.to/lastmile_qr_scan", "ios": "https://dc.lft.to/lastmile_qr_scan"}, "is_disabled": 0, "fusion_lat": 0.0, "name": "eff2b63e9f43a8240b07837d2f504246", "fusion_lon": 0.0}, {"is_reserved": 0, "type": "electric_scooter", "bike_id": "eb2d5b81d80f146be371bd532a39ebc9", "lat": 38.89898733333333, "lon": -77.003677, "rental_uris": {"android": "https://dc.lft.to/lastmile_qr_scan", "ios": "https://dc.lft.to/lastmile_qr_scan"}, "is_disabled": 0, "fusion_lat": 0.0, "name": "eb2d5b81d80f146be371bd532a39ebc9", "fusion_lon": 0.0}, {"is_reserved": 0, "type": "electric_scooter", "bike_id": "abe752ed29296bba9cb81e29b6807c27", "lat": 38.92651466666667, "lon": -77.034197, "rental_uris": {"android": "https://dc.lft.to/lastmile_qr_scan", "ios": "https://dc.lft.to/lastmile_qr_scan"}, "is_disabled": 0, "fusion_lat": 0.0, "name": "abe752ed29296bba9cb81e29b6807c27", "fusion_lon": 0.0}, {"is_reserved": 0, "type": "electric_scooter", "bike_id": "46fb5d540d8d6ebf70cf4e86c23c76c7", "lat": 38.9001215, "lon": -76.9890795, "rental_uris": {"android": "https://dc.lft.to/lastmile_qr_scan", "ios": "https://dc.lft.to/lastmile_qr_scan"}, "is_disabled": 0, "fusion_lat": 0.0, "name": "46fb5d540d8d6ebf70cf4e86c23c76c7", "fusion_lon": 0.0}, {"is_reserved": 0, "type": "electric_bike", "bike_id": "b0cb683f35175a48e0982b8a187a080f", "lat": 39.01096733333333, "lon": -77.0495485, "rental_uris": {"android": "https://dc.lft.to/lastmile_qr_scan", "ios": "https://dc.lft.to/lastmile_qr_scan"}, "is_disabled": 0, "fusion_lat": 0.0, "name": "b0cb683f35175a48e0982b8a187a080f", "fusion_lon": 0.0}, {"is_reserved": 0, "type": "electric_bike", "bike_id": "f29e9705d1c39cca3d11665374cc9478", "lat": 38.863322333333336, "lon": -76.98726266666667, "rental_uris": {"android": "https://dc.lft.to/lastmile_qr_scan", "ios": "https://dc.lft.to/lastmile_qr_scan"}, "is_disabled": 0, "fusion_lat": 0.0, "name": "f29e9705d1c39cca3d11665374cc9478", "fusion_lon": 0.0}, {"is_reserved": 0, "type": "electric_bike", "bike_id": "1780a0f96c5e80924b5b143ccc93d909", "lat": 39.0000095, "lon": -76.91806033333333, "rental_uris": {"android": "https://dc.lft.to/lastmile_qr_scan", "ios": "https://dc.lft.to/lastmile_qr_scan"}, "is_disabled": 0, "fusion_lat": 0.0, "name": "1780a0f96c5e80924b5b143ccc93d909", "fusion_lon": 0.0}, {"is_reserved": 0, "type": "electric_scooter", "bike_id": "d7c3ce02ef10bdbbfa5c7e885806faab", "lat": 38.8990535, "lon": -77.03385283333333, "rental_uris": {"android": "https://dc.lft.to/lastmile_qr_scan", "ios": "https://dc.lft.to/lastmile_qr_scan"}, "is_disabled": 0, "fusion_lat": 0.0, "name": "d7c3ce02ef10bdbbfa5c7e885806faab", "fusion_lon": 0.0}, {"is_reserved": 0, "type": "electric_scooter", "bike_id": "e6f038519de33f5a8e9051b0a92bc408", "lat": 38.896058333333336, "lon": -77.044812, "rental_uris": {"android": "https://dc.lft.to/lastmile_qr_scan", "ios": "https://dc.lft.to/lastmile_qr_scan"}, "is_disabled": 0, "fusion_lat": 0.0, "name": "e6f038519de33f5a8e9051b0a92bc408", "fusion_lon": 0.0}, {"is_reserved": 0, "type": "electric_scooter", "bike_id": "37e402fc96a42b2815b027f6fa2240ef", "lat": 38.91264416666667, "lon": -77.04847466666666, "rental_uris": {"android": "https://dc.lft.to/lastmile_qr_scan", "ios": "https://dc.lft.to/lastmile_qr_scan"}, "is_disabled": 0, "fusion_lat": 0.0, "name": "37e402fc96a42b2815b027f6fa2240ef", "fusion_lon": 0.0}, {"is_reserved": 0, "type": "electric_scooter", "bike_id": "7dec9181ae3869c2729653c4a9433bc4", "lat": 38.9073075, "lon": -77.00705633333334, "rental_uris": {"android": "https://dc.lft.to/lastmile_qr_scan", "ios": "https://dc.lft.to/lastmile_qr_scan"}, "is_disabled": 0, "fusion_lat": 0.0, "name": "7dec9181ae3869c2729653c4a9433bc4", "fusion_lon": 0.0}, {"is_reserved": 0, "type": "electric_scooter", "bike_id": "151b4dafeb3765bf40a67147ef3025c0", "lat": 38.9347895, "lon": -77.024156, "rental_uris": {"android": "https://dc.lft.to/lastmile_qr_scan", "ios": "https://dc.lft.to/lastmile_qr_scan"}, "is_disabled": 0, "fusion_lat": 0.0, "name": "151b4dafeb3765bf40a67147ef3025c0", "fusion_lon": 0.0}, {"is_reserved": 0, "type": "electric_scooter", "bike_id": "060fb0f0dc250ca2715fb0eb3574908e", "lat": 38.91074066666667, "lon": -77.03196083333333, "rental_uris": {"android": "https://dc.lft.to/lastmile_qr_scan", "ios": "https://dc.lft.to/lastmile_qr_scan"}, "is_disabled": 0, "fusion_lat": 0.0, "name": "060fb0f0dc250ca2715fb0eb3574908e", "fusion_lon": 0.0}, {"is_reserved": 0, "type": "electric_scooter", "bike_id": "59eab990c8f4f9e2779e5b0f69055fcd", "lat": 38.902002333333336, "lon": -76.9820015, "rental_uris": {"android": "https://dc.lft.to/lastmile_qr_scan", "ios": "https://dc.lft.to/lastmile_qr_scan"}, "is_disabled": 0, "fusion_lat": 0.0, "name": "59eab990c8f4f9e2779e5b0f69055fcd", "fusion_lon": 0.0}, {"is_reserved": 0, "type": "electric_scooter", "bike_id": "10b088921281ed3b53619acd50f5ad0f", "lat": 38.9256255, "lon": -77.02283366666667, "rental_uris": {"android": "https://dc.lft.to/lastmile_qr_scan", "ios": "https://dc.lft.to/lastmile_qr_scan"}, "is_disabled": 0, "fusion_lat": 0.0, "name": "10b088921281ed3b53619acd50f5ad0f", "fusion_lon": 0.0}, {"is_reserved": 0, "type": "electric_scooter", "bike_id": "4dc8c4741785e0b62095a0edc06cdfe7", "lat": 38.8671605, "lon": -76.980726, "rental_uris": {"android": "https://dc.lft.to/lastmile_qr_scan", "ios": "https://dc.lft.to/lastmile_qr_scan"}, "is_disabled": 0, "fusion_lat": 0.0, "name": "4dc8c4741785e0b62095a0edc06cdfe7", "fusion_lon": 0.0}, {"is_reserved": 0, "type": "electric_scooter", "bike_id": "da8bc0c00b30ce90eb840220b9665f7b", "lat": 38.91219916666667, "lon": -77.032018, "rental_uris": {"android": "https://dc.lft.to/lastmile_qr_scan", "ios": "https://dc.lft.to/lastmile_qr_scan"}, "is_disabled": 0, "fusion_lat": 0.0, "name": "da8bc0c00b30ce90eb840220b9665f7b", "fusion_lon": 0.0}, {"is_reserved": 0, "type": "electric_scooter", "bike_id": "2cdbe8f3e1224b690d29c1d82cbbf5ab", "lat": 38.88104883333333, "lon": -76.99499933333334, "rental_uris": {"android": "https://dc.lft.to/lastmile_qr_scan", "ios": "https://dc.lft.to/lastmile_qr_scan"}, "is_disabled": 0, "fusion_lat": 0.0, "name": "2cdbe8f3e1224b690d29c1d82cbbf5ab", "fusion_lon": 0.0}, {"is_reserved": 0, "type": "electric_scooter", "bike_id": "507e3a1349dc0683aa8d56616a5d6ced", "lat": 38.91660383333333, "lon": -77.0247135, "rental_uris": {"android": "https://dc.lft.to/lastmile_qr_scan", "ios": "https://dc.lft.to/lastmile_qr_scan"}, "is_disabled": 0, "fusion_lat": 0.0, "name": "507e3a1349dc0683aa8d56616a5d6ced", "fusion_lon": 0.0}, {"is_reserved": 0, "type": "electric_scooter", "bike_id": "a6733609dc032c4b42f91e6f116a131a", "lat": 38.881016333333335, "lon": -76.99514866666667, "rental_uris": {"android": "https://dc.lft.to/lastmile_qr_scan", "ios": "https://dc.lft.to/lastmile_qr_scan"}, "is_disabled": 0, "fusion_lat": 0.0, "name": "a6733609dc032c4b42f91e6f116a131a", "fusion_lon": 0.0}, {"is_reserved": 0, "type": "electric_bike", "bike_id": "c38379c6bdfec876cd928783c2b0e928", "lat": 38.956435666666664, "lon": -77.0328795, "rental_uris": {"android": "https://dc.lft.to/lastmile_qr_scan", "ios": "https://dc.lft.to/lastmile_qr_scan"}, "is_disabled": 0, "fusion_lat": 0.0, "name": "c38379c6bdfec876cd928783c2b0e928", "fusion_lon": 0.0}, {"is_reserved": 0, "type": "electric_scooter", "bike_id": "7185228811d9867f1c54349b729816ca", "lat": 38.89769066666667, "lon": -77.02699566666666, "rental_uris": {"android": "https://dc.lft.to/lastmile_qr_scan", "ios": "https://dc.lft.to/lastmile_qr_scan"}, "is_disabled": 0, "fusion_lat": 0.0, "name": "7185228811d9867f1c54349b729816ca", "fusion_lon": 0.0}, {"is_reserved": 0, "type": "electric_scooter", "bike_id": "89d8a9fb11240ec774bb7d2c360d12ee", "lat": 38.86594233333334, "lon": -76.97451683333334, "rental_uris": {"android": "https://dc.lft.to/lastmile_qr_scan", "ios": "https://dc.lft.to/lastmile_qr_scan"}, "is_disabled": 0, "fusion_lat": 0.0, "name": "89d8a9fb11240ec774bb7d2c360d12ee", "fusion_lon": 0.0}, {"is_reserved": 0, "type": "electric_bike", "bike_id": "36b9d1ec3d229a719ecddccb837c8ed5", "lat": 38.89594233333333, "lon": -76.90689683333333, "rental_uris": {"android": "https://dc.lft.to/lastmile_qr_scan", "ios": "https://dc.lft.to/lastmile_qr_scan"}, "is_disabled": 0, "fusion_lat": 0.0, "name": "36b9d1ec3d229a719ecddccb837c8ed5", "fusion_lon": 0.0}, {"is_reserved": 0, "type": "electric_scooter", "bike_id": "b382b01901896d4c5559ccf45860bdf3", "lat": 38.88672483333333, "lon": -77.00199933333333, "rental_uris": {"android": "https://dc.lft.to/lastmile_qr_scan", "ios": "https://dc.lft.to/lastmile_qr_scan"}, "is_disabled": 0, "fusion_lat": 0.0, "name": "b382b01901896d4c5559ccf45860bdf3", "fusion_lon": 0.0}, {"is_reserved": 0, "type": "electric_scooter", "bike_id": "48ea5edccbe12dfcaf5b7ff7aaf0098b", "lat": 38.9169885, "lon": -77.02439533333333, "rental_uris": {"android": "https://dc.lft.to/lastmile_qr_scan", "ios": "https://dc.lft.to/lastmile_qr_scan"}, "is_disabled": 0, "fusion_lat": 0.0, "name": "48ea5edccbe12dfcaf5b7ff7aaf0098b", "fusion_lon": 0.0}, {"is_reserved": 0, "type": "electric_scooter", "bike_id": "627c885d19e46aa293c94dac5a544370", "lat": 38.89225483333333, "lon": -77.01602566666666, "rental_uris": {"android": "https://dc.lft.to/lastmile_qr_scan", "ios": "https://dc.lft.to/lastmile_qr_scan"}, "is_disabled": 0, "fusion_lat": 0.0, "name": "627c885d19e46aa293c94dac5a544370", "fusion_lon": 0.0}, {"is_reserved": 0, "type": "electric_scooter", "bike_id": "51e2ed3fb75c82234cb0d470472fa5e4", "lat": 38.900016666666666, "lon": -77.02903516666667, "rental_uris": {"android": "https://dc.lft.to/lastmile_qr_scan", "ios": "https://dc.lft.to/lastmile_qr_scan"}, "is_disabled": 0, "fusion_lat": 0.0, "name": "51e2ed3fb75c82234cb0d470472fa5e4", "fusion_lon": 0.0}, {"is_reserved": 0, "type": "electric_scooter", "bike_id": "22dbe35655573c44a14ccca90897d683", "lat": 38.9239585, "lon": -76.95151266666667, "rental_uris": {"android": "https://dc.lft.to/lastmile_qr_scan", "ios": "https://dc.lft.to/lastmile_qr_scan"}, "is_disabled": 0, "fusion_lat": 0.0, "name": "22dbe35655573c44a14ccca90897d683", "fusion_lon": 0.0}, {"is_reserved": 0, "type": "electric_scooter", "bike_id": "c531a474a64ff92adb9278e72a1bbeff", "lat": 38.898892833333335, "lon": -77.01629316666667, "rental_uris": {"android": "https://dc.lft.to/lastmile_qr_scan", "ios": "https://dc.lft.to/lastmile_qr_scan"}, "is_disabled": 0, "fusion_lat": 0.0, "name": "c531a474a64ff92adb9278e72a1bbeff", "fusion_lon": 0.0}, {"is_reserved": 0, "type": "electric_scooter", "bike_id": "4bc85c024c02e4104f6ac7f655280cc7", "lat": 38.88748316666667, "lon": -77.02899433333333, "rental_uris": {"android": "https://dc.lft.to/lastmile_qr_scan", "ios": "https://dc.lft.to/lastmile_qr_scan"}, "is_disabled": 0, "fusion_lat": 0.0, "name": "4bc85c024c02e4104f6ac7f655280cc7", "fusion_lon": 0.0}, {"is_reserved": 0, "type": "electric_scooter", "bike_id": "fcb7e6f8f2f978ef684a87053b1fa4dd", "lat": 38.8973755, "lon": -77.01762883333333, "rental_uris": {"android": "https://dc.lft.to/lastmile_qr_scan", "ios": "https://dc.lft.to/lastmile_qr_scan"}, "is_disabled": 0, "fusion_lat": 0.0, "name": "fcb7e6f8f2f978ef684a87053b1fa4dd", "fusion_lon": 0.0}, {"is_reserved": 0, "type": "electric_scooter", "bike_id": "635197b8b003b5fe13ae91d2243daad5", "lat": 38.896288166666665, "lon": -77.0020715, "rental_uris": {"android": "https://dc.lft.to/lastmile_qr_scan", "ios": "https://dc.lft.to/lastmile_qr_scan"}, "is_disabled": 0, "fusion_lat": 0.0, "name": "635197b8b003b5fe13ae91d2243daad5", "fusion_lon": 0.0}, {"is_reserved": 0, "type": "electric_scooter", "bike_id": "66301d1033cbdc576e957b2f7aa90b07", "lat": 38.89890283333333, "lon": -77.04906133333333, "rental_uris": {"android": "https://dc.lft.to/lastmile_qr_scan", "ios": "https://dc.lft.to/lastmile_qr_scan"}, "is_disabled": 0, "fusion_lat": 0.0, "name": "66301d1033cbdc576e957b2f7aa90b07", "fusion_lon": 0.0}, {"is_reserved": 0, "type": "electric_scooter", "bike_id": "9e12d7bc587ade5517de6b55e6ede78e", "lat": 38.92814383333334, "lon": -77.0363425, "rental_uris": {"android": "https://dc.lft.to/lastmile_qr_scan", "ios": "https://dc.lft.to/lastmile_qr_scan"}, "is_disabled": 0, "fusion_lat": 0.0, "name": "9e12d7bc587ade5517de6b55e6ede78e", "fusion_lon": 0.0}, {"is_reserved": 0, "type": "electric_scooter", "bike_id": "30e5f4177ca736fb335452da7078a2b2", "lat": 38.90041133333333, "lon": -76.990408, "rental_uris": {"android": "https://dc.lft.to/lastmile_qr_scan", "ios": "https://dc.lft.to/lastmile_qr_scan"}, "is_disabled": 0, "fusion_lat": 0.0, "name": "30e5f4177ca736fb335452da7078a2b2", "fusion_lon": 0.0}, {"is_reserved": 0, "type": "electric_scooter", "bike_id": "fb26fc2350a0b5544c7dcadd8c9bd161", "lat": 38.9126825, "lon": -77.03387516666666, "rental_uris": {"android": "https://dc.lft.to/lastmile_qr_scan", "ios": "https://dc.lft.to/lastmile_qr_scan"}, "is_disabled": 0, "fusion_lat": 0.0, "name": "fb26fc2350a0b5544c7dcadd8c9bd161", "fusion_lon": 0.0}, {"is_reserved": 0, "type": "electric_scooter", "bike_id": "00e0787242932bdd8f8fe081050816d7", "lat": 38.923968, "lon": -77.05058783333334, "rental_uris": {"android": "https://dc.lft.to/lastmile_qr_scan", "ios": "https://dc.lft.to/lastmile_qr_scan"}, "is_disabled": 0, "fusion_lat": 0.0, "name": "00e0787242932bdd8f8fe081050816d7", "fusion_lon": 0.0}, {"is_reserved": 0, "type": "electric_scooter", "bike_id": "4b0db33f94656ef544351665427be80d", "lat": 38.9239385, "lon": -77.02579566666667, "rental_uris": {"android": "https://dc.lft.to/lastmile_qr_scan", "ios": "https://dc.lft.to/lastmile_qr_scan"}, "is_disabled": 0, "fusion_lat": 0.0, "name": "4b0db33f94656ef544351665427be80d", "fusion_lon": 0.0}, {"is_reserved": 0, "type": "electric_scooter", "bike_id": "d2b3a6e099891c0d37b637a5f8acd4ac", "lat": 38.920449833333336, "lon": -77.02575016666667, "rental_uris": {"android": "https://dc.lft.to/lastmile_qr_scan", "ios": "https://dc.lft.to/lastmile_qr_scan"}, "is_disabled": 0, "fusion_lat": 0.0, "name": "d2b3a6e099891c0d37b637a5f8acd4ac", "fusion_lon": 0.0}, {"is_reserved": 0, "type": "electric_scooter", "bike_id": "40b8f084c31ac76a6979a5041499a15d", "lat": 38.89824766666667, "lon": -77.05035233333334, "rental_uris": {"android": "https://dc.lft.to/lastmile_qr_scan", "ios": "https://dc.lft.to/lastmile_qr_scan"}, "is_disabled": 0, "fusion_lat": 0.0, "name": "40b8f084c31ac76a6979a5041499a15d", "fusion_lon": 0.0}, {"is_reserved": 0, "type": "electric_scooter", "bike_id": "c68d90ad77f7c918b370d1aa97cc9f0f", "lat": 38.92185383333333, "lon": -76.99736016666667, "rental_uris": {"android": "https://dc.lft.to/lastmile_qr_scan", "ios": "https://dc.lft.to/lastmile_qr_scan"}, "is_disabled": 0, "fusion_lat": 0.0, "name": "c68d90ad77f7c918b370d1aa97cc9f0f", "fusion_lon": 0.0}, {"is_reserved": 0, "type": "electric_scooter", "bike_id": "bb78539aa1ce2445b958f2e29bdabbd4", "lat": 38.90971616666667, "lon": -77.02218816666667, "rental_uris": {"android": "https://dc.lft.to/lastmile_qr_scan", "ios": "https://dc.lft.to/lastmile_qr_scan"}, "is_disabled": 0, "fusion_lat": 0.0, "name": "bb78539aa1ce2445b958f2e29bdabbd4", "fusion_lon": 0.0}, {"is_reserved": 0, "type": "electric_scooter", "bike_id": "11eaacb8884304eb770c5e6dda0f0408", "lat": 38.89639966666667, "lon": -77.01156633333333, "rental_uris": {"android": "https://dc.lft.to/lastmile_qr_scan", "ios": "https://dc.lft.to/lastmile_qr_scan"}, "is_disabled": 0, "fusion_lat": 0.0, "name": "11eaacb8884304eb770c5e6dda0f0408", "fusion_lon": 0.0}, {"is_reserved": 0, "type": "electric_scooter", "bike_id": "118af4d5f9223e2c9e299960a415d231", "lat": 38.90566116666667, "lon": -77.01568933333333, "rental_uris": {"android": "https://dc.lft.to/lastmile_qr_scan", "ios": "https://dc.lft.to/lastmile_qr_scan"}, "is_disabled": 0, "fusion_lat": 0.0, "name": "118af4d5f9223e2c9e299960a415d231", "fusion_lon": 0.0}, {"is_reserved": 0, "type": "electric_scooter", "bike_id": "317e63365fe5feddfef610459a8ca81a", "lat": 38.921900666666666, "lon": -76.996224, "rental_uris": {"android": "https://dc.lft.to/lastmile_qr_scan", "ios": "https://dc.lft.to/lastmile_qr_scan"}, "is_disabled": 0, "fusion_lat": 0.0, "name": "317e63365fe5feddfef610459a8ca81a", "fusion_lon": 0.0}, {"is_reserved": 0, "type": "electric_scooter", "bike_id": "4f96cf8afc6fff4c5329a6cb74cb1831", "lat": 38.89494216666667, "lon": -77.049939, "rental_uris": {"android": "https://dc.lft.to/lastmile_qr_scan", "ios": "https://dc.lft.to/lastmile_qr_scan"}, "is_disabled": 0, "fusion_lat": 0.0, "name": "4f96cf8afc6fff4c5329a6cb74cb1831", "fusion_lon": 0.0}, {"is_reserved": 0, "type": "electric_bike", "bike_id": "5deaa2fada77de38e174aae047a51e2c", "lat": 38.94257783333333, "lon": -76.990746, "rental_uris": {"android": "https://dc.lft.to/lastmile_qr_scan", "ios": "https://dc.lft.to/lastmile_qr_scan"}, "is_disabled": 0, "fusion_lat": 0.0, "name": "5deaa2fada77de38e174aae047a51e2c", "fusion_lon": 0.0}, {"is_reserved": 0, "type": "electric_scooter", "bike_id": "fd7d5c24e91bd74ed054411e153cebc4", "lat": 38.9337715, "lon": -77.02029983333334, "rental_uris": {"android": "https://dc.lft.to/lastmile_qr_scan", "ios": "https://dc.lft.to/lastmile_qr_scan"}, "is_disabled": 0, "fusion_lat": 0.0, "name": "fd7d5c24e91bd74ed054411e153cebc4", "fusion_lon": 0.0}, {"is_reserved": 0, "type": "electric_scooter", "bike_id": "29300c98eb2346b5961db0e704e2beb6", "lat": 38.912287, "lon": -77.01117533333333, "rental_uris": {"android": "https://dc.lft.to/lastmile_qr_scan", "ios": "https://dc.lft.to/lastmile_qr_scan"}, "is_disabled": 0, "fusion_lat": 0.0, "name": "29300c98eb2346b5961db0e704e2beb6", "fusion_lon": 0.0}, {"is_reserved": 0, "type": "electric_scooter", "bike_id": "d6e4d6089db840089c7b1ebc1c74c099", "lat": 38.94322716666667, "lon": -77.07577833333333, "rental_uris": {"android": "https://dc.lft.to/lastmile_qr_scan", "ios": "https://dc.lft.to/lastmile_qr_scan"}, "is_disabled": 0, "fusion_lat": 0.0, "name": "d6e4d6089db840089c7b1ebc1c74c099", "fusion_lon": 0.0}, {"is_reserved": 0, "type": "electric_scooter", "bike_id": "5d3280565266bbb1593c79fbf9e4d175", "lat": 38.89479383333333, "lon": -77.05012366666666, "rental_uris": {"android": "https://dc.lft.to/lastmile_qr_scan", "ios": "https://dc.lft.to/lastmile_qr_scan"}, "is_disabled": 0, "fusion_lat": 0.0, "name": "5d3280565266bbb1593c79fbf9e4d175", "fusion_lon": 0.0}, {"is_reserved": 0, "type": "electric_scooter", "bike_id": "12ab0b00581855cb299f88ace4b5fefc", "lat": 38.902152, "lon": -77.02364016666667, "rental_uris": {"android": "https://dc.lft.to/lastmile_qr_scan", "ios": "https://dc.lft.to/lastmile_qr_scan"}, "is_disabled": 0, "fusion_lat": 0.0, "name": "12ab0b00581855cb299f88ace4b5fefc", "fusion_lon": 0.0}, {"is_reserved": 0, "type": "electric_scooter", "bike_id": "bb9143596f6e40d2ce4087b60f5aa3f5", "lat": 38.91673383333333, "lon": -77.02972866666667, "rental_uris": {"android": "https://dc.lft.to/lastmile_qr_scan", "ios": "https://dc.lft.to/lastmile_qr_scan"}, "is_disabled": 0, "fusion_lat": 0.0, "name": "bb9143596f6e40d2ce4087b60f5aa3f5", "fusion_lon": 0.0}, {"is_reserved": 0, "type": "electric_scooter", "bike_id": "05563579674dc476f93fa03a9bb214f9", "lat": 38.9051015, "lon": -77.02816533333333, "rental_uris": {"android": "https://dc.lft.to/lastmile_qr_scan", "ios": "https://dc.lft.to/lastmile_qr_scan"}, "is_disabled": 0, "fusion_lat": 0.0, "name": "05563579674dc476f93fa03a9bb214f9", "fusion_lon": 0.0}, {"is_reserved": 0, "type": "electric_scooter", "bike_id": "ee71ff7685db71a77a52d9541df37940", "lat": 38.93085833333333, "lon": -77.03088016666666, "rental_uris": {"android": "https://dc.lft.to/lastmile_qr_scan", "ios": "https://dc.lft.to/lastmile_qr_scan"}, "is_disabled": 0, "fusion_lat": 0.0, "name": "ee71ff7685db71a77a52d9541df37940", "fusion_lon": 0.0}, {"is_reserved": 0, "type": "electric_scooter", "bike_id": "a51edb82731a2786e1022e5a5c74dce5", "lat": 38.92554966666667, "lon": -76.98149533333333, "rental_uris": {"android": "https://dc.lft.to/lastmile_qr_scan", "ios": "https://dc.lft.to/lastmile_qr_scan"}, "is_disabled": 0, "fusion_lat": 0.0, "name": "a51edb82731a2786e1022e5a5c74dce5", "fusion_lon": 0.0}, {"is_reserved": 0, "type": "electric_scooter", "bike_id": "d59e49420d0382b792372eb3b0717a1b", "lat": 38.911506833333334, "lon": -77.02089083333334, "rental_uris": {"android": "https://dc.lft.to/lastmile_qr_scan", "ios": "https://dc.lft.to/lastmile_qr_scan"}, "is_disabled": 0, "fusion_lat": 0.0, "name": "d59e49420d0382b792372eb3b0717a1b", "fusion_lon": 0.0}, {"is_reserved": 0, "type": "electric_scooter", "bike_id": "1c72666d2ca10ec86ac7ad9144e4fddc", "lat": 38.91699583333333, "lon": -77.05305466666667, "rental_uris": {"android": "https://dc.lft.to/lastmile_qr_scan", "ios": "https://dc.lft.to/lastmile_qr_scan"}, "is_disabled": 0, "fusion_lat": 0.0, "name": "1c72666d2ca10ec86ac7ad9144e4fddc", "fusion_lon": 0.0}, {"is_reserved": 0, "type": "electric_scooter", "bike_id": "ca3ca8963a712ef3801b7181aa97df54", "lat": 38.87285683333333, "lon": -77.009856, "rental_uris": {"android": "https://dc.lft.to/lastmile_qr_scan", "ios": "https://dc.lft.to/lastmile_qr_scan"}, "is_disabled": 0, "fusion_lat": 0.0, "name": "ca3ca8963a712ef3801b7181aa97df54", "fusion_lon": 0.0}, {"is_reserved": 0, "type": "electric_scooter", "bike_id": "3c143af6501c680b085a265e00967914", "lat": 38.937462333333336, "lon": -77.03268816666667, "rental_uris": {"android": "https://dc.lft.to/lastmile_qr_scan", "ios": "https://dc.lft.to/lastmile_qr_scan"}, "is_disabled": 0, "fusion_lat": 0.0, "name": "3c143af6501c680b085a265e00967914", "fusion_lon": 0.0}, {"is_reserved": 0, "type": "electric_scooter", "bike_id": "21c24a8c11813a17fa9de98d0696cb79", "lat": 38.9002685, "lon": -77.036251, "rental_uris": {"android": "https://dc.lft.to/lastmile_qr_scan", "ios": "https://dc.lft.to/lastmile_qr_scan"}, "is_disabled": 0, "fusion_lat": 0.0, "name": "21c24a8c11813a17fa9de98d0696cb79", "fusion_lon": 0.0}, {"is_reserved": 0, "type": "electric_scooter", "bike_id": "828f1a20ae6201340111be38b01f1dbf", "lat": 38.87608916666667, "lon": -76.96565383333333, "rental_uris": {"android": "https://dc.lft.to/lastmile_qr_scan", "ios": "https://dc.lft.to/lastmile_qr_scan"}, "is_disabled": 0, "fusion_lat": 0.0, "name": "828f1a20ae6201340111be38b01f1dbf", "fusion_lon": 0.0}, {"is_reserved": 0, "type": "electric_scooter", "bike_id": "7bd45082fc05069fcd77cccc9711d66f", "lat": 38.90078783333333, "lon": -77.04958016666667, "rental_uris": {"android": "https://dc.lft.to/lastmile_qr_scan", "ios": "https://dc.lft.to/lastmile_qr_scan"}, "is_disabled": 0, "fusion_lat": 0.0, "name": "7bd45082fc05069fcd77cccc9711d66f", "fusion_lon": 0.0}, {"is_reserved": 0, "type": "electric_scooter", "bike_id": "feb875337842b7128bf2c4ccf047950a", "lat": 38.89740533333333, "lon": -77.04997083333333, "rental_uris": {"android": "https://dc.lft.to/lastmile_qr_scan", "ios": "https://dc.lft.to/lastmile_qr_scan"}, "is_disabled": 0, "fusion_lat": 0.0, "name": "feb875337842b7128bf2c4ccf047950a", "fusion_lon": 0.0}, {"is_reserved": 0, "type": "electric_scooter", "bike_id": "3e83a2f0d61401db70b6b3a6035d48ba", "lat": 38.8744715, "lon": -77.0092155, "rental_uris": {"android": "https://dc.lft.to/lastmile_qr_scan", "ios": "https://dc.lft.to/lastmile_qr_scan"}, "is_disabled": 0, "fusion_lat": 0.0, "name": "3e83a2f0d61401db70b6b3a6035d48ba", "fusion_lon": 0.0}, {"is_reserved": 0, "type": "electric_scooter", "bike_id": "1ccc162eeba153f6a9fd89b89ba429bc", "lat": 38.90485433333333, "lon": -77.045046, "rental_uris": {"android": "https://dc.lft.to/lastmile_qr_scan", "ios": "https://dc.lft.to/lastmile_qr_scan"}, "is_disabled": 0, "fusion_lat": 0.0, "name": "1ccc162eeba153f6a9fd89b89ba429bc", "fusion_lon": 0.0}, {"is_reserved": 0, "type": "electric_scooter", "bike_id": "31a3197ccb342f1fe08595e1ca954e74", "lat": 38.9205725, "lon": -77.02444166666666, "rental_uris": {"android": "https://dc.lft.to/lastmile_qr_scan", "ios": "https://dc.lft.to/lastmile_qr_scan"}, "is_disabled": 0, "fusion_lat": 0.0, "name": "31a3197ccb342f1fe08595e1ca954e74", "fusion_lon": 0.0}, {"is_reserved": 0, "type": "electric_scooter", "bike_id": "fce49bb69c433869eb5fea47133960a8", "lat": 38.9147655, "lon": -77.03223733333333, "rental_uris": {"android": "https://dc.lft.to/lastmile_qr_scan", "ios": "https://dc.lft.to/lastmile_qr_scan"}, "is_disabled": 0, "fusion_lat": 0.0, "name": "fce49bb69c433869eb5fea47133960a8", "fusion_lon": 0.0}, {"is_reserved": 0, "type": "electric_scooter", "bike_id": "f95b057d09fab3c1409c6c30076c6564", "lat": 38.92084333333333, "lon": -77.03725266666666, "rental_uris": {"android": "https://dc.lft.to/lastmile_qr_scan", "ios": "https://dc.lft.to/lastmile_qr_scan"}, "is_disabled": 0, "fusion_lat": 0.0, "name": "f95b057d09fab3c1409c6c30076c6564", "fusion_lon": 0.0}, {"is_reserved": 0, "type": "electric_scooter", "bike_id": "341ef369879c411ed36c2266762cd5ab", "lat": 38.94310266666667, "lon": -77.02179233333334, "rental_uris": {"android": "https://dc.lft.to/lastmile_qr_scan", "ios": "https://dc.lft.to/lastmile_qr_scan"}, "is_disabled": 0, "fusion_lat": 0.0, "name": "341ef369879c411ed36c2266762cd5ab", "fusion_lon": 0.0}, {"is_reserved": 0, "type": "electric_scooter", "bike_id": "e6468281cc37dc8c5d32557f92d420b8", "lat": 38.89934083333333, "lon": -77.02697783333333, "rental_uris": {"android": "https://dc.lft.to/lastmile_qr_scan", "ios": "https://dc.lft.to/lastmile_qr_scan"}, "is_disabled": 0, "fusion_lat": 0.0, "name": "e6468281cc37dc8c5d32557f92d420b8", "fusion_lon": 0.0}, {"is_reserved": 0, "type": "electric_scooter", "bike_id": "76d3dcb53a67ac30693827c265c31459", "lat": 38.9202935, "lon": -77.01032666666667, "rental_uris": {"android": "https://dc.lft.to/lastmile_qr_scan", "ios": "https://dc.lft.to/lastmile_qr_scan"}, "is_disabled": 0, "fusion_lat": 0.0, "name": "76d3dcb53a67ac30693827c265c31459", "fusion_lon": 0.0}, {"is_reserved": 0, "type": "electric_scooter", "bike_id": "6e21308410c5494de87d8717a8409c6f", "lat": 38.928284166666664, "lon": -77.05435566666667, "rental_uris": {"android": "https://dc.lft.to/lastmile_qr_scan", "ios": "https://dc.lft.to/lastmile_qr_scan"}, "is_disabled": 0, "fusion_lat": 0.0, "name": "6e21308410c5494de87d8717a8409c6f", "fusion_lon": 0.0},