{"data": {"bikes": [{"name": "5f4aa220623cb6c15bd57c3ad98ec8b0", "lat": 38.9296455, "type": "electric_scooter", "is_disabled": 0, "fusion_lon": 0.0, "fusion_lat": 0.0, "lon": -77.04108866666667, "is_reserved": 0, "rental_uris": {"android": "https://dc.lft.to/lastmile_qr_scan", "ios": "https://dc.lft.to/lastmile_qr_scan"}, "bike_id": "5f4aa220623cb6c15bd57c3ad98ec8b0"}, {"name": "c99d9af041b3e60f9724a6e580fc116e", "lat": 38.91203633333333, "type": "electric_scooter", "is_disabled": 0, "fusion_lon": 0.0, "fusion_lat": 0.0, "lon": -77.032026, "is_reserved": 0, "rental_uris": {"android": "https://dc.lft.to/lastmile_qr_scan", "ios": "https://dc.lft.to/lastmile_qr_scan"}, "bike_id": "c99d9af041b3e60f9724a6e580fc116e"}, {"name": "849ab144bb4424ea5a7c6577f6ade56d", "lat": 38.92289866666667, "type": "electric_scooter", "is_disabled": 0, "fusion_lon": 0.0, "fusion_lat": 0.0, "lon": -77.022419, "is_reserved": 0, "rental_uris": {"android": "https://dc.lft.to/lastmile_qr_scan", "ios": "https://dc.lft.to/lastmile_qr_scan"}, "bike_id": "849ab144bb4424ea5a7c6577f6ade56d"}, {"name": "810b0bb5f133e8312358b21dfe9d31c1", "lat": 38.92439683333333, "type": "electric_scooter", "is_disabled": 0, "fusion_lon": 0.0, "fusion_lat": 0.0, "lon": -77.02135666666666, "is_reserved": 0, "rental_uris": {"android": "https://dc.lft.to/lastmile_qr_scan", "ios": "https://dc.lft.to/lastmile_qr_scan"}, "bike_id": "810b0bb5f133e8312358b21dfe9d31c1"}, {"name": "05dd26e716ffaa2e9ea1bc4b76648173", "lat": 38.90889133333334, "type": "electric_scooter", "is_disabled": 0, "fusion_lon": 0.0, "fusion_lat": 0.0, "lon": -76.98236633333333, "is_reserved": 0, "rental_uris": {"android": "https://dc.lft.to/lastmile_qr_scan", "ios": "https://dc.lft.to/lastmile_qr_scan"}, "bike_id": "05dd26e716ffaa2e9ea1bc4b76648173"}, {"name": "18b4db6ce9a2ddd3704ec26ea0c2ec44", "lat": 38.900803833333335, "type": "electric_scooter", "is_disabled": 0, "fusion_lon": 0.0, "fusion_lat": 0.0, "lon": -77.01599116666667, "is_reserved": 0, "rental_uris": {"android": "https://dc.lft.to/lastmile_qr_scan", "ios": "https://dc.lft.to/lastmile_qr_scan"}, "bike_id": "18b4db6ce9a2ddd3704ec26ea0c2ec44"}, {"name": "d87b8714d6b961536dcb02cfa47073ef", "lat": 38.89202, "type": "electric_scooter", "is_disabled": 0, "fusion_lon": 0.0, "fusion_lat": 0.0, "lon": -76.990179, "is_reserved": 0, "rental_uris": {"android": "https://dc.lft.to/lastmile_qr_scan", "ios": "https://dc.lft.to/lastmile_qr_scan"}, "bike_id": "d87b8714d6b961536dcb02cfa47073ef"}, {"name": "bc6887372c8f204ef4e03e6b434ce372", "lat": 38.8804015, "type": "electric_scooter", "is_disabled": 0, "fusion_lon": 0.0, "fusion_lat": 0.0, "lon": -76.93210516666667, "is_reserved": 0, "rental_uris": {"android": "https://dc.lft.to/lastmile_qr_scan", "ios": "https://dc.lft.to/lastmile_qr_scan"}, "bike_id": "bc6887372c8f204ef4e03e6b434ce372"}, {"name": "2f2374e78b82db18efc37af98c1a134b", "lat": 38.930838333333334, "type": "electric_scooter", "is_disabled": 0, "fusion_lon": 0.0, "fusion_lat": 0.0, "lon": -77.0020155, "is_reserved": 0, "rental_uris": {"android": "https://dc.lft.to/lastmile_qr_scan", "ios": "https://dc.lft.to/lastmile_qr_scan"}, "bike_id": "2f2374e78b82db18efc37af98c1a134b"}, {"name": "660a9ce153594a02c41a4b43d2277f7e", "lat": 38.970038833333334, "type": "electric_scooter", "is_disabled": 0, "fusion_lon": 0.0, "fusion_lat": 0.0, "lon": -77.02547633333333, "is_reserved": 0, "rental_uris": {"android": "https://dc.lft.to/lastmile_qr_scan", "ios": "https://dc.lft.to/lastmile_qr_scan"}, "bike_id": "660a9ce153594a02c41a4b43d2277f7e"}, {"name": "32ebb746fbcd165a811554c3bfba0f96", "lat": 38.923296, "type": "electric_scooter", "is_disabled": 0, "fusion_lon": 0.0, "fusion_lat": 0.0, "lon": -77.053912, "is_reserved": 0, "rental_uris": {"android": "https://dc.lft.to/lastmile_qr_scan", "ios": "https://dc.lft.to/lastmile_qr_scan"}, "bike_id": "32ebb746fbcd165a811554c3bfba0f96"}, {"name": "71509dae496722f31cbbd7a30dde6361", "lat": 38.89354616666667, "type": "electric_scooter", "is_disabled": 0, "fusion_lon": 0.0, "fusion_lat": 0.0, "lon": -77.002854, "is_reserved": 0, "rental_uris": {"android": "https://dc.lft.to/lastmile_qr_scan", "ios": "https://dc.lft.to/lastmile_qr_scan"}, "bike_id": "71509dae496722f31cbbd7a30dde6361"}, {"name": "f74c4446e44c90080c5006bf6d1801ec", "lat": 38.901227666666664, "type": "electric_scooter", "is_disabled": 0, "fusion_lon": 0.0, "fusion_lat": 0.0, "lon": -77.03981333333333, "is_reserved": 0, "rental_uris": {"android": "https://dc.lft.to/lastmile_qr_scan", "ios": "https://dc.lft.to/lastmile_qr_scan"}, "bike_id": "f74c4446e44c90080c5006bf6d1801ec"}, {"name": "525751284b46805dc486a6531d858a82", "lat": 38.93086516666666, "type": "electric_scooter", "is_disabled": 0, "fusion_lon": 0.0, "fusion_lat": 0.0, "lon": -77.03482883333334, "is_reserved": 0, "rental_uris": {"android": "https://dc.lft.to/lastmile_qr_scan", "ios": "https://dc.lft.to/lastmile_qr_scan"}, "bike_id": "525751284b46805dc486a6531d858a82"}, {"name": "291d886a6849d80c264146c4da865c7f", "lat": 38.92851316666667, "type": "electric_scooter", "is_disabled": 0, "fusion_lon": 0.0, "fusion_lat": 0.0, "lon": -77.03610466666666, "is_reserved": 0, "rental_uris": {"android": "https://dc.lft.to/lastmile_qr_scan", "ios": "https://dc.lft.to/lastmile_qr_scan"}, "bike_id": "291d886a6849d80c264146c4da865c7f"}, {"name": "141e836ad82f423b0e442892c1910b4a", "lat": 38.9030835, "type": "electric_scooter", "is_disabled": 0, "fusion_lon": 0.0, "fusion_lat": 0.0, "lon": -77.04170266666667, "is_reserved": 0, "rental_uris": {"android": "https://dc.lft.to/lastmile_qr_scan", "ios": "https://dc.lft.to/lastmile_qr_scan"}, "bike_id": "141e836ad82f423b0e442892c1910b4a"}, {"name": "ea4a5af41ea87c446d64788128f661ae", "lat": 38.903589, "type": "electric_scooter", "is_disabled": 0, "fusion_lon": 0.0, "fusion_lat": 0.0, "lon": -77.04565033333333, "is_reserved": 0, "rental_uris": {"android": "https://dc.lft.to/lastmile_qr_scan", "ios": "https://dc.lft.to/lastmile_qr_scan"}, "bike_id": "ea4a5af41ea87c446d64788128f661ae"}, {"name": "02fd7c01a1d1ec32632064d4c8a35bb1", "lat": 38.91684883333333, "type": "electric_scooter", "is_disabled": 0, "fusion_lon": 0.0, "fusion_lat": 0.0, "lon": -77.04077233333334, "is_reserved": 0, "rental_uris": {"android": "https://dc.lft.to/lastmile_qr_scan", "ios": "https://dc.lft.to/lastmile_qr_scan"}, "bike_id": "02fd7c01a1d1ec32632064d4c8a35bb1"}, {"name": "f6b3fa15a885ec74c7e78d1bb1e3c8c4", "lat": 38.90382116666667, "type": "electric_scooter", "is_disabled": 0, "fusion_lon": 0.0, "fusion_lat": 0.0, "lon": -77.04465533333334, "is_reserved": 0, "rental_uris": {"android": "https://dc.lft.to/lastmile_qr_scan", "ios": "https://dc.lft.to/lastmile_qr_scan"}, "bike_id": "f6b3fa15a885ec74c7e78d1bb1e3c8c4"}, {"name": "aafcda9cd4ff867af229aa0e0eb39f6c", "lat": 38.906393, "type": "electric_scooter", "is_disabled": 0, "fusion_lon": 0.0, "fusion_lat": 0.0, "lon": -77.02197766666667, "is_reserved": 0, "rental_uris": {"android": "https://dc.lft.to/lastmile_qr_scan", "ios": "https://dc.lft.to/lastmile_qr_scan"}, "bike_id": "aafcda9cd4ff867af229aa0e0eb39f6c"}, {"name": "31e93aa39fe285d91b88aecbbc201891", "lat": 38.90958916666666, "type": "electric_scooter", "is_disabled": 0, "fusion_lon": 0.0, "fusion_lat": 0.0, "lon": -77.031621, "is_reserved": 0, "rental_uris": {"android": "https://dc.lft.to/lastmile_qr_scan", "ios": "https://dc.lft.to/lastmile_qr_scan"}, "bike_id": "31e93aa39fe285d91b88aecbbc201891"}, {"name": "8b73860663d4a670322a983c8274eae2", "lat": 38.83808766666667, "type": "electric_bike", "is_disabled": 0, "fusion_lon": 0.0, "fusion_lat": 0.0, "lon": -77.0952335, "is_reserved": 0, "rental_uris": {"android": "https://dc.lft.to/lastmile_qr_scan", "ios": "https://dc.lft.to/lastmile_qr_scan"}, "bike_id": "8b73860663d4a670322a983c8274eae2"}, {"name": "1646cfcac1fd0fb610f689c866a8433b", "lat": 38.91594383333333, "type": "electric_scooter", "is_disabled": 0, "fusion_lon": 0.0, "fusion_lat": 0.0, "lon": -77.0460615, "is_reserved": 0, "rental_uris": {"android": "https://dc.lft.to/lastmile_qr_scan", "ios": "https://dc.lft.to/lastmile_qr_scan"}, "bike_id": "1646cfcac1fd0fb610f689c866a8433b"}, {"name": "b6b104386fcc1d1fb9072d4444322729", "lat": 38.875547, "type": "electric_scooter", "is_disabled": 0, "fusion_lon": 0.0, "fusion_lat": 0.0, "lon": -77.0060405, "is_reserved": 0, "rental_uris": {"android": "https://dc.lft.to/lastmile_qr_scan", "ios": "https://dc.lft.to/lastmile_qr_scan"}, "bike_id": "b6b104386fcc1d1fb9072d4444322729"}, {"name": "bc1cffcbbb4e8029bbd8039ef9300f34", "lat": 38.90104766666666, "type": "electric_scooter", "is_disabled": 0, "fusion_lon": 0.0, "fusion_lat": 0.0, "lon": -77.04341283333333, "is_reserved": 0, "rental_uris": {"android": "https://dc.lft.to/lastmile_qr_scan", "ios": "https://dc.lft.to/lastmile_qr_scan"}, "bike_id": "bc1cffcbbb4e8029bbd8039ef9300f34"}, {"name": "fbb6f0c4eaac8a4e8403b9778ddfcd8e", "lat": 38.89113783333333, "type": "electric_scooter", "is_disabled": 0, "fusion_lon": 0.0, "fusion_lat": 0.0, "lon": -76.94381066666666, "is_reserved": 0, "rental_uris": {"android": "https://dc.lft.to/lastmile_qr_scan", "ios": "https://dc.lft.to/lastmile_qr_scan"}, "bike_id": "fbb6f0c4eaac8a4e8403b9778ddfcd8e"}, {"name": "5f05e54ede21ff6687ef48accdf90b9a", "lat": 38.926534, "type": "electric_scooter", "is_disabled": 0, "fusion_lon": 0.0, "fusion_lat": 0.0, "lon": -77.04062583333334, "is_reserved": 0, "rental_uris": {"android": "https://dc.lft.to/lastmile_qr_scan", "ios": "https://dc.lft.to/lastmile_qr_scan"}, "bike_id": "5f05e54ede21ff6687ef48accdf90b9a"}, {"name": "f07962e055eb9a02bee61e57ced8fe2d", "lat": 38.883887, "type": "electric_scooter", "is_disabled": 0, "fusion_lon": 0.0, "fusion_lat": 0.0, "lon": -76.95737933333334, "is_reserved": 0, "rental_uris": {"android": "https://dc.lft.to/lastmile_qr_scan", "ios": "https://dc.lft.to/lastmile_qr_scan"}, "bike_id": "f07962e055eb9a02bee61e57ced8fe2d"}, {"name": "1bef41387a9698ec7d8e3aacabf6ae32", "lat": 38.89911083333333, "type": "electric_scooter", "is_disabled": 0, "fusion_lon": 0.0, "fusion_lat": 0.0, "lon": -77.04999183333334, "is_reserved": 0, "rental_uris": {"android": "https://dc.lft.to/lastmile_qr_scan", "ios": "https://dc.lft.to/lastmile_qr_scan"}, "bike_id": "1bef41387a9698ec7d8e3aacabf6ae32"}, {"name": "55306e9a93911c02ab5d8132ebd1924a", "lat": 38.90200266666667, "type": "electric_scooter", "is_disabled": 0, "fusion_lon": 0.0, "fusion_lat": 0.0, "lon": -77.03837033333333, "is_reserved": 0, "rental_uris": {"android": "https://dc.lft.to/lastmile_qr_scan", "ios": "https://dc.lft.to/lastmile_qr_scan"}, "bike_id": "55306e9a93911c02ab5d8132ebd1924a"}, {"name": "485608e7de9aea595fd048db33d20efe", "lat": 38.924689, "type": "electric_scooter", "is_disabled": 0, "fusion_lon": 0.0, "fusion_lat": 0.0, "lon": -77.03382216666667, "is_reserved": 0, "rental_uris": {"android": "https://dc.lft.to/lastmile_qr_scan", "ios": "https://dc.lft.to/lastmile_qr_scan"}, "bike_id": "485608e7de9aea595fd048db33d20efe"}, {"name": "e7865ad4a624ff3b308e2405cb705cf7", "lat": 38.90862, "type": "electric_scooter", "is_disabled": 0, "fusion_lon": 0.0, "fusion_lat": 0.0, "lon": -77.02425633333333, "is_reserved": 0, "rental_uris": {"android": "https://dc.lft.to/lastmile_qr_scan", "ios": "https://dc.lft.to/lastmile_qr_scan"}, "bike_id": "e7865ad4a624ff3b308e2405cb705cf7"}, {"name": "6c313a580fc9cb7ad37f467caaebdc7e", "lat": 38.916294666666666, "type": "electric_scooter", "is_disabled": 0, "fusion_lon": 0.0, "fusion_lat": 0.0, "lon": -77.03496683333333, "is_reserved": 0, "rental_uris": {"android": "https://dc.lft.to/lastmile_qr_scan", "ios": "https://dc.lft.to/lastmile_qr_scan"}, "bike_id": "6c313a580fc9cb7ad37f467caaebdc7e"}, {"name": "77515a78b4bf453d70e7e169dde3e918", "lat": 38.89427716666667, "type": "electric_scooter", "is_disabled": 0, "fusion_lon": 0.0, "fusion_lat": 0.0, "lon": -77.0219955, "is_reserved": 0, "rental_uris": {"android": "https://dc.lft.to/lastmile_qr_scan", "ios": "https://dc.lft.to/lastmile_qr_scan"}, "bike_id": "77515a78b4bf453d70e7e169dde3e918"}, {"name": "69ea1f53c8540d1c6deed32d40ffd9b1", "lat": 38.920682, "type": "electric_scooter", "is_disabled": 0, "fusion_lon": 0.0, "fusion_lat": 0.0, "lon": -77.02535983333334, "is_reserved": 0, "rental_uris": {"android": "https://dc.lft.to/lastmile_qr_scan", "ios": "https://dc.lft.to/lastmile_qr_scan"}, "bike_id": "69ea1f53c8540d1c6deed32d40ffd9b1"}, {"name": "2664635b9c5325ec10d25e82a3adf754", "lat": 38.904607166666665, "type": "electric_scooter", "is_disabled": 0, "fusion_lon": 0.0, "fusion_lat": 0.0, "lon": -77.01712733333333, "is_reserved": 0, "rental_uris": {"android": "https://dc.lft.to/lastmile_qr_scan", "ios": "https://dc.lft.to/lastmile_qr_scan"}, "bike_id": "2664635b9c5325ec10d25e82a3adf754"}, {"name": "3c44d80dd1d1b2e419a87c726156d1ed", "lat": 38.910388166666664, "type": "electric_scooter", "is_disabled": 0, "fusion_lon": 0.0, "fusion_lat": 0.0, "lon": -77.04342283333334, "is_reserved": 0, "rental_uris": {"android": "https://dc.lft.to/lastmile_qr_scan", "ios": "https://dc.lft.to/lastmile_qr_scan"}, "bike_id": "3c44d80dd1d1b2e419a87c726156d1ed"}, {"name": "54934a1f145ab87f0e9ba4d7ce8d172b", "lat": 38.880808333333334, "type": "electric_scooter", "is_disabled": 0, "fusion_lon": 0.0, "fusion_lat": 0.0, "lon": -76.9950265, "is_reserved": 0, "rental_uris": {"android": "https://dc.lft.to/lastmile_qr_scan", "ios": "https://dc.lft.to/lastmile_qr_scan"}, "bike_id": "54934a1f145ab87f0e9ba4d7ce8d172b"}, {"name": "44a4ab38fa15e143b4759467013ab25f", "lat": 38.91581633333333, "type": "electric_scooter", "is_disabled": 0, "fusion_lon": 0.0, "fusion_lat": 0.0, "lon": -76.98388916666667, "is_reserved": 0, "rental_uris": {"android": "https://dc.lft.to/lastmile_qr_scan", "ios": "https://dc.lft.to/lastmile_qr_scan"}, "bike_id": "44a4ab38fa15e143b4759467013ab25f"}, {"name": "cf3f473e70d9eeaf9f5d84a2fa849d8a", "lat": 38.9393225, "type": "electric_scooter", "is_disabled": 0, "fusion_lon": 0.0, "fusion_lat": 0.0, "lon": -77.03267833333334, "is_reserved": 0, "rental_uris": {"android": "https://dc.lft.to/lastmile_qr_scan", "ios": "https://dc.lft.to/lastmile_qr_scan"}, "bike_id": "cf3f473e70d9eeaf9f5d84a2fa849d8a"}, {"name": "84a8e76916db96cc43a345d804b791bd", "lat": 38.892633833333335, "type": "electric_scooter", "is_disabled": 0, "fusion_lon": 0.0, "fusion_lat": 0.0, "lon": -76.9836675, "is_reserved": 0, "rental_uris": {"android": "https://dc.lft.to/lastmile_qr_scan", "ios": "https://dc.lft.to/lastmile_qr_scan"}, "bike_id": "84a8e76916db96cc43a345d804b791bd"}, {"name": "5be998a3ca03fe3ecfad22e61fe34357", "lat": 38.84194433333333, "type": "electric_bike", "is_disabled": 0, "fusion_lon": 0.0, "fusion_lat": 0.0, "lon": -77.0775345, "is_reserved": 0, "rental_uris": {"android": "https://dc.lft.to/lastmile_qr_scan", "ios": "https://dc.lft.to/lastmile_qr_scan"}, "bike_id": "5be998a3ca03fe3ecfad22e61fe34357"}, {"name": "0ba2a075624de4a24eca214bacd2ec93", "lat": 38.9305885, "type": "electric_scooter", "is_disabled": 0, "fusion_lon": 0.0, "fusion_lat": 0.0, "lon": -77.0394145, "is_reserved": 0, "rental_uris": {"android": "https://dc.lft.to/lastmile_qr_scan", "ios": "https://dc.lft.to/lastmile_qr_scan"}, "bike_id": "0ba2a075624de4a24eca214bacd2ec93"}, {"name": "41f1aa22a373b0341a85bba40efd1fbe", "lat": 38.8812045, "type": "electric_scooter", "is_disabled": 0, "fusion_lon": 0.0, "fusion_lat": 0.0, "lon": -76.99340866666667, "is_reserved": 0, "rental_uris": {"android": "https://dc.lft.to/lastmile_qr_scan", "ios": "https://dc.lft.to/lastmile_qr_scan"}, "bike_id": "41f1aa22a373b0341a85bba40efd1fbe"}, {"name": "d872a48e17a7b383d34c33b3d0ee02a3", "lat": 38.895475833333336, "type": "electric_scooter", "is_disabled": 0, "fusion_lon": 0.0, "fusion_lat": 0.0, "lon": -77.00908, "is_reserved": 0, "rental_uris": {"android": "https://dc.lft.to/lastmile_qr_scan", "ios": "https://dc.lft.to/lastmile_qr_scan"}, "bike_id": "d872a48e17a7b383d34c33b3d0ee02a3"}, {"name": "769d47fb54b9cb8741ef57b5601a638a", "lat": 38.936181166666664, "type": "electric_scooter", "is_disabled": 0, "fusion_lon": 0.0, "fusion_lat": 0.0, "lon": -77.03283766666667, "is_reserved": 0, "rental_uris": {"android": "https://dc.lft.to/lastmile_qr_scan", "ios": "https://dc.lft.to/lastmile_qr_scan"}, "bike_id": "769d47fb54b9cb8741ef57b5601a638a"}, {"name": "9d9a6f101df672f646df5150ef111abe", "lat": 38.92236483333333, "type": "electric_scooter", "is_disabled": 0, "fusion_lon": 0.0, "fusion_lat": 0.0, "lon": -77.03364816666667, "is_reserved": 0, "rental_uris": {"android": "https://dc.lft.to/lastmile_qr_scan", "ios": "https://dc.lft.to/lastmile_qr_scan"}, "bike_id": "9d9a6f101df672f646df5150ef111abe"}, {"name": "f5fa6ac0c9525568f55d4bc29c6a5ce4", "lat": 38.897209, "type": "electric_scooter", "is_disabled": 0, "fusion_lon": 0.0, "fusion_lat": 0.0, "lon": -76.98356683333333, "is_reserved": 0, "rental_uris": {"android": "https://dc.lft.to/lastmile_qr_scan", "ios": "https://dc.lft.to/lastmile_qr_scan"}, "bike_id": "f5fa6ac0c9525568f55d4bc29c6a5ce4"}, {"name": "119af152af78037cb20d19b59423015f", "lat": 38.887410833333334, "type": "electric_scooter", "is_disabled": 0, "fusion_lon": 0.0, "fusion_lat": 0.0, "lon": -77.01624183333334, "is_reserved": 0, "rental_uris": {"android": "https://dc.lft.to/lastmile_qr_scan", "ios": "https://dc.lft.to/lastmile_qr_scan"}, "bike_id": "119af152af78037cb20d19b59423015f"}, {"name": "1f0c57f9df593f58ce70e3b621f3f34b", "lat": 38.91480516666667, "type": "electric_scooter", "is_disabled": 0, "fusion_lon": 0.0, "fusion_lat": 0.0, "lon": -77.04556483333333, "is_reserved": 0, "rental_uris": {"android": "https://dc.lft.to/lastmile_qr_scan", "ios": "https://dc.lft.to/lastmile_qr_scan"}, "bike_id": "1f0c57f9df593f58ce70e3b621f3f34b"}, {"name": "711fdae2854758f1bd2898797542d6c7", "lat": 38.8763105, "type": "electric_scooter", "is_disabled": 0, "fusion_lon": 0.0, "fusion_lat": 0.0, "lon": -77.00953916666667, "is_reserved": 0, "rental_uris": {"android": "https://dc.lft.to/lastmile_qr_scan", "ios": "https://dc.lft.to/lastmile_qr_scan"}, "bike_id": "711fdae2854758f1bd2898797542d6c7"}, {"name": "bf6f7f50f082f55613b342e12326339e", "lat": 38.923606, "type": "electric_scooter", "is_disabled": 0, "fusion_lon": 0.0, "fusion_lat": 0.0, "lon": -77.03398583333333, "is_reserved": 0, "rental_uris": {"android": "https://dc.lft.to/lastmile_qr_scan", "ios": "https://dc.lft.to/lastmile_qr_scan"}, "bike_id": "bf6f7f50f082f55613b342e12326339e"}, {"name": "321132c75a0885314630517f2c1e6e70", "lat": 38.901525166666666, "type": "electric_scooter", "is_disabled": 0, "fusion_lon": 0.0, "fusion_lat": 0.0, "lon": -77.0591865, "is_reserved": 0, "rental_uris": {"android": "https://dc.lft.to/lastmile_qr_scan", "ios": "https://dc.lft.to/lastmile_qr_scan"}, "bike_id": "321132c75a0885314630517f2c1e6e70"}, {"name": "c0945cebc16dfbc27a5c3aed6c94a2dd", "lat": 38.90039483333334, "type": "electric_scooter", "is_disabled": 0, "fusion_lon": 0.0, "fusion_lat": 0.0, "lon": -77.0294845, "is_reserved": 0, "rental_uris": {"android": "https://dc.lft.to/lastmile_qr_scan", "ios": "https://dc.lft.to/lastmile_qr_scan"}, "bike_id": "c0945cebc16dfbc27a5c3aed6c94a2dd"}, {"name": "6581058f6465d3e874650908fcf07c77", "lat": 38.92661, "type": "electric_scooter", "is_disabled": 0, "fusion_lon": 0.0, "fusion_lat": 0.0, "lon": -76.9955105, "is_reserved": 0, "rental_uris": {"android": "https://dc.lft.to/lastmile_qr_scan", "ios": "https://dc.lft.to/lastmile_qr_scan"}, "bike_id": "6581058f6465d3e874650908fcf07c77"}, {"name": "22db76eb0bde0aaa430cac0cf4bd7ce3", "lat": 38.91191716666667, "type": "electric_scooter", "is_disabled": 0, "fusion_lon": 0.0, "fusion_lat": 0.0, "lon": -77.0072235, "is_reserved": 0, "rental_uris": {"android": "https://dc.lft.to/lastmile_qr_scan", "ios": "https://dc.lft.to/lastmile_qr_scan"}, "bike_id": "22db76eb0bde0aaa430cac0cf4bd7ce3"}, {"name": "0a7e3944d909bf2ebe2668f532d2a224", "lat": 38.906898166666664, "type": "electric_bike", "is_disabled": 0, "fusion_lon": 0.0, "fusion_lat": 0.0, "lon": -76.95252916666666, "is_reserved": 0, "rental_uris": {"android": "https://dc.lft.to/lastmile_qr_scan", "ios": "https://dc.lft.to/lastmile_qr_scan"}, "bike_id": "0a7e3944d909bf2ebe2668f532d2a224"}, {"name": "c92ab5f261b861b80a879721098f03cf", "lat": 38.897931666666665, "type": "electric_scooter", "is_disabled": 0, "fusion_lon": 0.0, "fusion_lat": 0.0, "lon": -77.01193616666667, "is_reserved": 0, "rental_uris": {"android": "https://dc.lft.to/lastmile_qr_scan", "ios": "https://dc.lft.to/lastmile_qr_scan"}, "bike_id": "c92ab5f261b861b80a879721098f03cf"}, {"name": "fb3c53569d96c2dc9b29adad3bf61401", "lat": 38.926542166666664, "type": "electric_scooter", "is_disabled": 0, "fusion_lon": 0.0, "fusion_lat": 0.0, "lon": -77.02412933333333, "is_reserved": 0, "rental_uris": {"android": "https://dc.lft.to/lastmile_qr_scan", "ios": "https://dc.lft.to/lastmile_qr_scan"}, "bike_id": "fb3c53569d96c2dc9b29adad3bf61401"}, {"name": "3747568ca30ea1e405b1c1c291101f47", "lat": 38.893518, "type": "electric_scooter", "is_disabled": 0, "fusion_lon": 0.0, "fusion_lat": 0.0, "lon": -77.003384, "is_reserved": 0, "rental_uris": {"android": "https://dc.lft.to/lastmile_qr_scan", "ios": "https://dc.lft.to/lastmile_qr_scan"}, "bike_id": "3747568ca30ea1e405b1c1c291101f47"}, {"name": "e34779041e260e326aaae709a3bb6eb4", "lat": 38.91867666666667, "type": "electric_scooter", "is_disabled": 0, "fusion_lon": 0.0, "fusion_lat": 0.0, "lon": -77.04191833333333, "is_reserved": 0, "rental_uris": {"android": "https://dc.lft.to/lastmile_qr_scan", "ios": "https://dc.lft.to/lastmile_qr_scan"}, "bike_id": "e34779041e260e326aaae709a3bb6eb4"}, {"name": "6aebb29cd32cf8d01d1ba649c99c1db6", "lat": 38.90653916666667, "type": "electric_scooter", "is_disabled": 0, "fusion_lon": 0.0, "fusion_lat": 0.0, "lon": -77.04176983333333, "is_reserved": 0, "rental_uris": {"android": "https://dc.lft.to/lastmile_qr_scan", "ios": "https://dc.lft.to/lastmile_qr_scan"}, "bike_id": "6aebb29cd32cf8d01d1ba649c99c1db6"}, {"name": "6a73bb55b63aa2c4a4402839b530d1da", "lat": 38.8986885, "type": "electric_scooter", "is_disabled": 0, "fusion_lon": 0.0, "fusion_lat": 0.0, "lon": -76.94662033333333, "is_reserved": 0, "rental_uris": {"android": "https://dc.lft.to/lastmile_qr_scan", "ios": "https://dc.lft.to/lastmile_qr_scan"}, "bike_id": "6a73bb55b63aa2c4a4402839b530d1da"}, {"name": "8065f644ae400a817174f6c05a241978", "lat": 38.89226333333333, "type": "electric_scooter", "is_disabled": 0, "fusion_lon": 0.0, "fusion_lat": 0.0, "lon": -77.02803416666667, "is_reserved": 0, "rental_uris": {"android": "https://dc.lft.to/lastmile_qr_scan", "ios": "https://dc.lft.to/lastmile_qr_scan"}, "bike_id": "8065f644ae400a817174f6c05a241978"}, {"name": "cd63955528dfb93078167618ec466de4", "lat": 38.906402666666665, "type": "electric_scooter", "is_disabled": 0, "fusion_lon": 0.0, "fusion_lat": 0.0, "lon": -77.05338633333334, "is_reserved": 0, "rental_uris": {"android": "https://dc.lft.to/lastmile_qr_scan", "ios": "https://dc.lft.to/lastmile_qr_scan"}, "bike_id": "cd63955528dfb93078167618ec466de4"}, {"name": "3e5499d38cae26440a8005987cea6faf", "lat": 38.92400266666667, "type": "electric_scooter", "is_disabled": 0, "fusion_lon": 0.0, "fusion_lat": 0.0, "lon": -77.020859, "is_reserved": 0, "rental_uris": {"android": "https://dc.lft.to/lastmile_qr_scan", "ios": "https://dc.lft.to/lastmile_qr_scan"}, "bike_id": "3e5499d38cae26440a8005987cea6faf"}, {"name": "cb3ce767bb742f933278c8fa62447e9d", "lat": 38.96126533333333, "type": "electric_scooter", "is_disabled": 0, "fusion_lon": 0.0, "fusion_lat": 0.0, "lon": -77.02786933333333, "is_reserved": 0, "rental_uris": {"android": "https://dc.lft.to/lastmile_qr_scan", "ios": "https://dc.lft.to/lastmile_qr_scan"}, "bike_id": "cb3ce767bb742f933278c8fa62447e9d"}, {"name": "683df7d4066e5606dea5798523a2058d", "lat": 38.92146966666667, "type": "electric_scooter", "is_disabled": 0, "fusion_lon": 0.0, "fusion_lat": 0.0, "lon": -77.03383733333334, "is_reserved": 0, "rental_uris": {"android": "https://dc.lft.to/lastmile_qr_scan", "ios": "https://dc.lft.to/lastmile_qr_scan"}, "bike_id": "683df7d4066e5606dea5798523a2058d"}, {"name": "d707123a4eb22d06921eb216e77be557", "lat": 38.93097366666667, "type": "electric_scooter", "is_disabled": 0, "fusion_lon": 0.0, "fusion_lat": 0.0, "lon": -77.09096466666666, "is_reserved": 0, "rental_uris": {"android": "https://dc.lft.to/lastmile_qr_scan", "ios": "https://dc.lft.to/lastmile_qr_scan"}, "bike_id": "d707123a4eb22d06921eb216e77be557"}, {"name": "aa520ab0dd0eaecdcbafd07b1cf6c148", "lat": 38.8873205, "type": "electric_scooter", "is_disabled": 0, "fusion_lon": 0.0, "fusion_lat": 0.0, "lon": -77.02574483333333, "is_reserved": 0, "rental_uris": {"android": "https://dc.lft.to/lastmile_qr_scan", "ios": "https://dc.lft.to/lastmile_qr_scan"}, "bike_id": "aa520ab0dd0eaecdcbafd07b1cf6c148"}, {"name": "3cb647d05214207288c904c14b0752ab", "lat": 38.91728283333333, "type": "electric_scooter", "is_disabled": 0, "fusion_lon": 0.0, "fusion_lat": 0.0, "lon": -77.0683795, "is_reserved": 0, "rental_uris": {"android": "https://dc.lft.to/lastmile_qr_scan", "ios": "https://dc.lft.to/lastmile_qr_scan"}, "bike_id": "3cb647d05214207288c904c14b0752ab"}, {"name": "a5054240644d29b12fa5778a212f0a1e", "lat": 38.936857333333336, "type": "electric_bike", "is_disabled": 0, "fusion_lon": 0.0, "fusion_lat": 0.0, "lon": -77.05640866666667, "is_reserved": 0, "rental_uris": {"android": "https://dc.lft.to/lastmile_qr_scan", "ios": "https://dc.lft.to/lastmile_qr_scan"}, "bike_id": "a5054240644d29b12fa5778a212f0a1e"}, {"name": "7f3d79d2c7227470ff3e8bb836ae3f79", "lat": 38.920421, "type": "electric_scooter", "is_disabled": 0, "fusion_lon": 0.0, "fusion_lat": 0.0, "lon": -77.038862, "is_reserved": 0, "rental_uris": {"android": "https://dc.lft.to/lastmile_qr_scan", "ios": "https://dc.lft.to/lastmile_qr_scan"}, "bike_id": "7f3d79d2c7227470ff3e8bb836ae3f79"}, {"name": "be0f16eba3dc3e746c19107efee9eea7", "lat": 38.94572016666667, "type": "electric_bike", "is_disabled": 0, "fusion_lon": 0.0, "fusion_lat": 0.0, "lon": -76.98110166666666, "is_reserved": 0, "rental_uris": {"android": "https://dc.lft.to/lastmile_qr_scan", "ios": "https://dc.lft.to/lastmile_qr_scan"}, "bike_id": "be0f16eba3dc3e746c19107efee9eea7"}, {"name": "b2011fa231c965461b412caa80b743f7", "lat": 38.9126045, "type": "electric_scooter", "is_disabled": 0, "fusion_lon": 0.0, "fusion_lat": 0.0, "lon": -77.07150483333334, "is_reserved": 0, "rental_uris": {"android": "https://dc.lft.to/lastmile_qr_scan", "ios": "https://dc.lft.to/lastmile_qr_scan"}, "bike_id": "b2011fa231c965461b412caa80b743f7"}, {"name": "33e6baec94326e4ff2b932d1f87d1065", "lat": 38.923291166666665, "type": "electric_scooter", "is_disabled": 0, "fusion_lon": 0.0, "fusion_lat": 0.0, "lon": -77.01955416666667, "is_reserved": 0, "rental_uris": {"android": "https://dc.lft.to/lastmile_qr_scan", "ios": "https://dc.lft.to/lastmile_qr_scan"}, "bike_id": "33e6baec94326e4ff2b932d1f87d1065"}, {"name": "d4f2d380fddfda1f45628d9714d748a6", "lat": 38.940949833333335, "type": "electric_scooter", "is_disabled": 0, "fusion_lon": 0.0, "fusion_lat": 0.0, "lon": -77.07710116666667, "is_reserved": 0, "rental_uris": {"android": "https://dc.lft.to/lastmile_qr_scan", "ios": "https://dc.lft.to/lastmile_qr_scan"}, "bike_id": "d4f2d380fddfda1f45628d9714d748a6"}, {"name": "2089614f1152e2f27d9cb9e5d739d33c", "lat": 38.915521166666664, "type": "electric_scooter", "is_disabled": 0, "fusion_lon": 0.0, "fusion_lat": 0.0, "lon": -77.03508583333333, "is_reserved": 0, "rental_uris": {"android": "https://dc.lft.to/lastmile_qr_scan", "ios": "https://dc.lft.to/lastmile_qr_scan"}, "bike_id": "2089614f1152e2f27d9cb9e5d739d33c"}, {"name": "451e3e00423afb2253cad7796ec4d2cb", "lat": 38.89814533333333, "type": "electric_scooter", "is_disabled": 0, "fusion_lon": 0.0, "fusion_lat": 0.0, "lon": -77.04020566666667, "is_reserved": 0, "rental_uris": {"android": "https://dc.lft.to/lastmile_qr_scan", "ios": "https://dc.lft.to/lastmile_qr_scan"}, "bike_id": "451e3e00423afb2253cad7796ec4d2cb"}, {"name": "06d7c2115a00bb0f4c6ea5585b4abea8", "lat": 38.897351666666665, "type": "electric_scooter", "is_disabled": 0, "fusion_lon": 0.0, "fusion_lat": 0.0, "lon": -77.05519966666667, "is_reserved": 0, "rental_uris": {"android": "https://dc.lft.to/lastmile_qr_scan", "ios": "https://dc.lft.to/lastmile_qr_scan"}, "bike_id": "06d7c2115a00bb0f4c6ea5585b4abea8"}, {"name": "67c6e020725c87af3f5ceb7ba0a13f78", "lat": 38.92460966666667, "type": "electric_scooter", "is_disabled": 0, "fusion_lon": 0.0, "fusion_lat": 0.0, "lon": -77.02206016666666, "is_reserved": 0, "rental_uris": {"android": "https://dc.lft.to/lastmile_qr_scan", "ios": "https://dc.lft.to/lastmile_qr_scan"}, "bike_id": "67c6e020725c87af3f5ceb7ba0a13f78"}, {"name": "122a3fc800d34e10427a246965344d20", "lat": 38.906056666666665, "type": "electric_scooter", "is_disabled": 0, "fusion_lon": 0.0, "fusion_lat": 0.0, "lon": -77.06376083333333, "is_reserved": 0, "rental_uris": {"android": "https://dc.lft.to/lastmile_qr_scan", "ios": "https://dc.lft.to/lastmile_qr_scan"}, "bike_id": "122a3fc800d34e10427a246965344d20"}, {"name": "d0571daf425be2cb0c77ecfe68ea97e6", "lat": 38.94319733333333, "type": "electric_scooter", "is_disabled": 0, "fusion_lon": 0.0, "fusion_lat": 0.0, "lon": -77.06156683333333, "is_reserved": 0, "rental_uris": {"android": "https://dc.lft.to/lastmile_qr_scan", "ios": "https://dc.lft.to/lastmile_qr_scan"}, "bike_id": "d0571daf425be2cb0c77ecfe68ea97e6"}, {"name": "57423669e2b1bc944bd2b0360c7c301f", "lat": 38.902820166666665, "type": "electric_scooter", "is_disabled": 0, "fusion_lon": 0.0, "fusion_lat": 0.0, "lon": -77.02407916666667, "is_reserved": 0, "rental_uris": {"android": "https://dc.lft.to/lastmile_qr_scan", "ios": "https://dc.lft.to/lastmile_qr_scan"}, "bike_id": "57423669e2b1bc944bd2b0360c7c301f"}, {"name": "55517e7c3a1cef9e6be8793d352b49a7", "lat": 38.90462383333333, "type": "electric_scooter", "is_disabled": 0, "fusion_lon": 0.0, "fusion_lat": 0.0, "lon": -77.0281155, "is_reserved": 0, "rental_uris": {"android": "https://dc.lft.to/lastmile_qr_scan", "ios": "https://dc.lft.to/lastmile_qr_scan"}, "bike_id": "55517e7c3a1cef9e6be8793d352b49a7"}, {"name": "43faa099e3978dfc4d692ae68e727fff", "lat": 38.9166155, "type": "electric_scooter", "is_disabled": 0, "fusion_lon": 0.0, "fusion_lat": 0.0, "lon": -77.02312583333334, "is_reserved": 0, "rental_uris": {"android": "https://dc.lft.to/lastmile_qr_scan", "ios": "https://dc.lft.to/lastmile_qr_scan"}, "bike_id": "43faa099e3978dfc4d692ae68e727fff"}, {"name": "edbce77385d7a9bd1522bf1d79631ba7", "lat": 38.962722, "type": "electric_scooter", "is_disabled": 0, "fusion_lon": 0.0, "fusion_lat": 0.0, "lon": -77.03019216666667, "is_reserved": 0, "rental_uris": {"android": "https://dc.lft.to/lastmile_qr_scan", "ios": "https://dc.lft.to/lastmile_qr_scan"}, "bike_id": "edbce77385d7a9bd1522bf1d79631ba7"}, {"name": "0067b5c496855d55fbb7b3ac800895cc", "lat": 38.92813783333333, "type": "electric_scooter", "is_disabled": 0, "fusion_lon": 0.0, "fusion_lat": 0.0, "lon": -77.02728266666666, "is_reserved": 0, "rental_uris": {"android": "https://dc.lft.to/lastmile_qr_scan", "ios": "https://dc.lft.to/lastmile_qr_scan"}, "bike_id": "0067b5c496855d55fbb7b3ac800895cc"}, {"name": "5d4c3b5893b672480660d4e903a531dd", "lat": 38.925614333333336, "type": "electric_scooter", "is_disabled": 0, "fusion_lon": 0.0, "fusion_lat": 0.0, "lon": -77.03220983333334, "is_reserved": 0, "rental_uris": {"android": "https://dc.lft.to/lastmile_qr_scan", "ios": "https://dc.lft.to/lastmile_qr_scan"}, "bike_id": "5d4c3b5893b672480660d4e903a531dd"}, {"name": "b173405e943b51cb91dcfb87c8213206", "lat": 38.90530583333334, "type": "electric_scooter", "is_disabled": 0, "fusion_lon": 0.0, "fusion_lat": 0.0, "lon": -77.0532875, "is_reserved": 0, "rental_uris": {"android": "https://dc.lft.to/lastmile_qr_scan", "ios": "https://dc.lft.to/lastmile_qr_scan"}, "bike_id": "b173405e943b51cb91dcfb87c8213206"}, {"name": "914f949e5130daa1abcf376fc14016b4", "lat": 38.92657633333334, "type": "electric_scooter", "is_disabled": 0, "fusion_lon": 0.0, "fusion_lat": 0.0, "lon": -77.022859, "is_reserved": 0, "rental_uris": {"android": "https://dc.lft.to/lastmile_qr_scan", "ios": "https://dc.lft.to/lastmile_qr_scan"}, "bike_id": "914f949e5130daa1abcf376fc14016b4"}, {"name": "fb38aaff391a696d8e756bd2953bb912", "lat": 38.9097615, "type": "electric_scooter", "is_disabled": 0, "fusion_lon": 0.0, "fusion_lat": 0.0, "lon": -77.00884733333334, "is_reserved": 0, "rental_uris": {"android": "https://dc.lft.to/lastmile_qr_scan", "ios": "https://dc.lft.to/lastmile_qr_scan"}, "bike_id": "fb38aaff391a696d8e756bd2953bb912"}, {"name": "3eebb485e5a05880a4b7882017ccd9fd", "lat": 38.91587166666667, "type": "electric_scooter", "is_disabled": 0, "fusion_lon": 0.0, "fusion_lat": 0.0, "lon": -76.98381583333334, "is_reserved": 0, "rental_uris": {"android": "https://dc.lft.to/lastmile_qr_scan", "ios": "https://dc.lft.to/lastmile_qr_scan"}, "bike_id": "3eebb485e5a05880a4b7882017ccd9fd"}, {"name": "73b7f35c9fa308e16df717176a4ba002", "lat": 38.847153666666664, "type": "electric_scooter", "is_disabled": 0, "fusion_lon": 0.0, "fusion_lat": 0.0, "lon": -76.96811233333334, "is_reserved": 0, "rental_uris": {"android": "https://dc.lft.to/lastmile_qr_scan", "ios": "https://dc.lft.to/lastmile_qr_scan"}, "bike_id": "73b7f35c9fa308e16df717176a4ba002"}, {"name": "5416443d136b768e3cbeb59629ebc271", "lat": 38.90992033333333, "type": "electric_scooter", "is_disabled": 0, "fusion_lon": 0.0, "fusion_lat": 0.0, "lon": -77.0648005, "is_reserved": 0, "rental_uris": {"android": "https://dc.lft.to/lastmile_qr_scan", "ios": "https://dc.lft.to/lastmile_qr_scan"}, "bike_id": "5416443d136b768e3cbeb59629ebc271"}, {"name": "ad7150e1432e978bddc25231811570b5", "lat": 38.87580416666667, "type": "electric_bike", "is_disabled": 0, "fusion_lon": 0.0, "fusion_lat": 0.0, "lon": -77.234092, "is_reserved": 0, "rental_uris": {"android": "https://dc.lft.to/lastmile_qr_scan", "ios": "https://dc.lft.to/lastmile_qr_scan"}, "bike_id": "ad7150e1432e978bddc25231811570b5"}, {"name": "4bb8406e5d251fc92e32a256542dee7e", "lat": 38.9003725, "type": "electric_scooter", "is_disabled": 0, "fusion_lon": 0.0, "fusion_lat": 0.0, "lon": -76.988282, "is_reserved": 0, "rental_uris": {"android": "https://dc.lft.to/lastmile_qr_scan", "ios": "https://dc.lft.to/lastmile_qr_scan"}, "bike_id": "4bb8406e5d251fc92e32a256542dee7e"}, {"name": "66870e5eb1677e1586c6bbcb60655dde", "lat": 38.9003135, "type": "electric_scooter", "is_disabled": 0, "fusion_lon": 0.0, "fusion_lat": 0.0, "lon": -77.00237683333333, "is_reserved": 0, "rental_uris": {"android": "https://dc.lft.to/lastmile_qr_scan", "ios": "https://dc.lft.to/lastmile_qr_scan"}, "bike_id": "66870e5eb1677e1586c6bbcb60655dde"}, {"name": "5a5d47f31bbd4a9b4dee28f8c28b455c", "lat": 38.888603833333335, "type": "electric_scooter", "is_disabled": 0, "fusion_lon": 0.0, "fusion_lat": 0.0, "lon": -76.97905683333333, "is_reserved": 0, "rental_uris": {"android": "https://dc.lft.to/lastmile_qr_scan", "ios": "https://dc.lft.to/lastmile_qr_scan"}, "bike_id": "5a5d47f31bbd4a9b4dee28f8c28b455c"}, {"name": "41d84cf20e1ba6b7dc46b88e2fff2596", "lat": 38.90692716666667, "type": "electric_scooter", "is_disabled": 0, "fusion_lon": 0.0, "fusion_lat": 0.0, "lon": -77.041792, "is_reserved": 0, "rental_uris": {"android": "https://dc.lft.to/lastmile_qr_scan", "ios": "https://dc.lft.to/lastmile_qr_scan"}, "bike_id": "41d84cf20e1ba6b7dc46b88e2fff2596"}, {"name": "d952465c1cc43880fe4730e56a011590", "lat": 38.9010975, "type": "electric_scooter", "is_disabled": 0, "fusion_lon": 0.0, "fusion_lat": 0.0, "lon": -77.04098183333333, "is_reserved": 0, "rental_uris": {"android": "https://dc.lft.to/lastmile_qr_scan", "ios": "https://dc.lft.to/lastmile_qr_scan"}, "bike_id": "d952465c1cc43880fe4730e56a011590"}, {"name": "9150d133c02e1eb2730af99b516131b4", "lat": 38.897298, "type": "electric_scooter", "is_disabled": 0, "fusion_lon": 0.0, "fusion_lat": 0.0, "lon": -77.0032825, "is_reserved": 0, "rental_uris": {"android": "https://dc.lft.to/lastmile_qr_scan", "ios": "https://dc.lft.to/lastmile_qr_scan"}, "bike_id": "9150d133c02e1eb2730af99b516131b4"}, {"name": "19552fd774b078b6edf5d81fe6cc73dd", "lat": 38.91761316666667, "type": "electric_scooter", "is_disabled": 0, "fusion_lon": 0.0, "fusion_lat": 0.0, "lon": -77.02300166666667, "is_reserved": 0, "rental_uris": {"android": "https://dc.lft.to/lastmile_qr_scan", "ios": "https://dc.lft.to/lastmile_qr_scan"}, "bike_id": "19552fd774b078b6edf5d81fe6cc73dd"}, {"name": "79d946840da6afb0a0aa0894c2addd9f", "lat": 38.919269, "type": "electric_scooter", "is_disabled": 0, "fusion_lon": 0.0, "fusion_lat": 0.0, "lon": -77.03420316666667, "is_reserved": 0, "rental_uris": {"android": "https://dc.lft.to/lastmile_qr_scan", "ios": "https://dc.lft.to/lastmile_qr_scan"}, "bike_id": "79d946840da6afb0a0aa0894c2addd9f"}, {"name": "dd727c22629f59e72696e27f72f33561", "lat": 38.9198145, "type": "electric_scooter", "is_disabled": 0, "fusion_lon": 0.0, "fusion_lat": 0.0, "lon": -77.02500216666667, "is_reserved": 0, "rental_uris": {"android": "https://dc.lft.to/lastmile_qr_scan", "ios": "https://dc.lft.to/lastmile_qr_scan"}, "bike_id": "dd727c22629f59e72696e27f72f33561"}, {"name": "da4c6c7c6b1068dc139bec147490ebcc", "lat": 38.90564066666666, "type": "electric_scooter", "is_disabled": 0, "fusion_lon": 0.0, "fusion_lat": 0.0, "lon": -76.981417, "is_reserved": 0, "rental_uris": {"android": "https://dc.lft.to/lastmile_qr_scan", "ios": "https://dc.lft.to/lastmile_qr_scan"}, "bike_id": "da4c6c7c6b1068dc139bec147490ebcc"}, {"name": "017a93a7b0675719fb0a72407a7127cf", "lat": 38.836068, "type": "electric_bike", "is_disabled": 0, "fusion_lon": 0.0, "fusion_lat": 0.0, "lon": -77.00375816666667, "is_reserved": 0, "rental_uris": {"android": "https://dc.lft.to/lastmile_qr_scan", "ios": "https://dc.lft.to/lastmile_qr_scan"}, "bike_id": "017a93a7b0675719fb0a72407a7127cf"}, {"name": "7adc4c33f15fa7c16761c28be55c7199", "lat": 38.899940666666666, "type": "electric_scooter", "is_disabled": 0, "fusion_lon": 0.0, "fusion_lat": 0.0, "lon": -77.024454, "is_reserved": 0, "rental_uris": {"android": "https://dc.lft.to/lastmile_qr_scan", "ios": "https://dc.lft.to/lastmile_qr_scan"}, "bike_id": "7adc4c33f15fa7c16761c28be55c7199"}, {"name": "603821b10d8358c3f6c0dcc7cbc5484a", "lat": 38.899954666666666, "type": "electric_scooter", "is_disabled": 0, "fusion_lon": 0.0, "fusion_lat": 0.0, "lon": -77.03320733333334, "is_reserved": 0, "rental_uris": {"android": "https://dc.lft.to/lastmile_qr_scan", "ios": "https://dc.lft.to/lastmile_qr_scan"}, "bike_id": "603821b10d8358c3f6c0dcc7cbc5484a"}, {"name": "994ac3eebaa00fb30f6760d6f8cdba94", "lat": 38.99225533333333, "type": "electric_bike", "is_disabled": 0, "fusion_lon": 0.0, "fusion_lat": 0.0, "lon": -77.035825, "is_reserved": 0, "rental_uris": {"android": "https://dc.lft.to/lastmile_qr_scan", "ios": "https://dc.lft.to/lastmile_qr_scan"}, "bike_id": "994ac3eebaa00fb30f6760d6f8cdba94"}, {"name": "482e1870e312252d4ce2bf02789ef739", "lat": 38.8992455, "type": "electric_scooter", "is_disabled": 0, "fusion_lon": 0.0, "fusion_lat": 0.0, "lon": -77.02802716666666, "is_reserved": 0, "rental_uris": {"android": "https://dc.lft.to/lastmile_qr_scan", "ios": "https://dc.lft.to/lastmile_qr_scan"}, "bike_id": "482e1870e312252d4ce2bf02789ef739"}, {"name": "cb867ea1517342d9cd452fcbcf136db1", "lat": 38.83807733333333, "type": "electric_bike", "is_disabled": 0, "fusion_lon": 0.0, "fusion_lat": 0.0, "lon": -77.002729, "is_reserved": 0, "rental_uris": {"android": "https://dc.lft.to/lastmile_qr_scan", "ios": "https://dc.lft.to/lastmile_qr_scan"}, "bike_id": "cb867ea1517342d9cd452fcbcf136db1"}, {"name": "ed3cf17e4379b4b8ce170dc5375fa533", "lat": 38.907174833333336, "type": "electric_scooter", "is_disabled": 0, "fusion_lon": 0.0, "fusion_lat": 0.0, "lon": -77.026749, "is_reserved": 0, "rental_uris": {"android": "https://dc.lft.to/lastmile_qr_scan", "ios": "https://dc.lft.to/lastmile_qr_scan"}, "bike_id": "ed3cf17e4379b4b8ce170dc5375fa533"}, {"name": "49f3cc5559ed33925b7ee242cad00bd4", "lat": 38.966481, "type": "electric_scooter", "is_disabled": 0, "fusion_lon": 0.0, "fusion_lat": 0.0, "lon": -77.02742966666666, "is_reserved": 0, "rental_uris": {"android": "https://dc.lft.to/lastmile_qr_scan", "ios": "https://dc.lft.to/lastmile_qr_scan"}, "bike_id": "49f3cc5559ed33925b7ee242cad00bd4"}, {"name": "550c87dc4495a9ef7f20d8353f876dcb", "lat": 38.9286705, "type": "electric_scooter", "is_disabled": 0, "fusion_lon": 0.0, "fusion_lat": 0.0, "lon": -77.033906, "is_reserved": 0, "rental_uris": {"android": "https://dc.lft.to/lastmile_qr_scan", "ios": "https://dc.lft.to/lastmile_qr_scan"}, "bike_id": "550c87dc4495a9ef7f20d8353f876dcb"}, {"name": "9322b901e71b2d438b8dd641ac0d8df6", "lat": 38.900281166666666, "type": "electric_scooter", "is_disabled": 0, "fusion_lon": 0.0, "fusion_lat": 0.0, "lon": -77.01200816666666, "is_reserved": 0, "rental_uris": {"android": "https://dc.lft.to/lastmile_qr_scan", "ios": "https://dc.lft.to/lastmile_qr_scan"}, "bike_id": "9322b901e71b2d438b8dd641ac0d8df6"}, {"name": "3cfa990d84a3bde60f417a703a26351a", "lat": 38.92420766666667, "type": "electric_scooter", "is_disabled": 0, "fusion_lon": 0.0, "fusion_lat": 0.0, "lon": -77.01942866666667, "is_reserved": 0, "rental_uris": {"android": "https://dc.lft.to/lastmile_qr_scan", "ios": "https://dc.lft.to/lastmile_qr_scan"}, "bike_id": "3cfa990d84a3bde60f417a703a26351a"}, {"name": "6ae9a36452e5fb3444669d9ab02a8c71", "lat": 38.9096, "type": "electric_scooter", "is_disabled": 0, "fusion_lon": 0.0, "fusion_lat": 0.0, "lon": -77.03417583333334, "is_reserved": 0, "rental_uris": {"android": "https://dc.lft.to/lastmile_qr_scan", "ios": "https://dc.lft.to/lastmile_qr_scan"}, "bike_id": "6ae9a36452e5fb3444669d9ab02a8c71"}, {"name": "8017abf93d57450d24a1bc239128557d", "lat": 38.92603016666666, "type": "electric_scooter", "is_disabled": 0, "fusion_lon": 0.0, "fusion_lat": 0.0, "lon": -77.02155533333334, "is_reserved": 0, "rental_uris": {"android": "https://dc.lft.to/lastmile_qr_scan", "ios": "https://dc.lft.to/lastmile_qr_scan"}, "bike_id": "8017abf93d57450d24a1bc239128557d"}, {"name": "1270a89525f7abcb7747030ad3023d19", "lat": 38.90184766666667, "type": "electric_scooter", "is_disabled": 0, "fusion_lon": 0.0, "fusion_lat": 0.0, "lon": -77.04334483333334, "is_reserved": 0, "rental_uris": {"android": "https://dc.lft.to/lastmile_qr_scan", "ios": "https://dc.lft.to/lastmile_qr_scan"}, "bike_id": "1270a89525f7abcb7747030ad3023d19"}, {"name": "d2735431222082965edd6fba23669a56", "lat": 38.89222633333333, "type": "electric_scooter", "is_disabled": 0, "fusion_lon": 0.0, "fusion_lat": 0.0, "lon": -77.02179566666666, "is_reserved": 0, "rental_uris": {"android": "https://dc.lft.to/lastmile_qr_scan", "ios": "https://dc.lft.to/lastmile_qr_scan"}, "bike_id": "d2735431222082965edd6fba23669a56"}, {"name": "139d7112780e49c4cfa6dd5ae5b87eba", "lat": 38.917597666666666, "type": "electric_scooter", "is_disabled": 0, "fusion_lon": 0.0, "fusion_lat": 0.0, "lon": -77.04766233333334, "is_reserved": 0, "rental_uris": {"android": "https://dc.lft.to/lastmile_qr_scan", "ios": "https://dc.lft.to/lastmile_qr_scan"}, "bike_id": "139d7112780e49c4cfa6dd5ae5b87eba"}, {"name": "c89f753402e754ddcc673fa917cfdf19", "lat": 38.903468833333335, "type": "electric_scooter", "is_disabled": 0, "fusion_lon": 0.0, "fusion_lat": 0.0, "lon": -76.929411, "is_reserved": 0, "rental_uris": {"android": "https://dc.lft.to/lastmile_qr_scan", "ios": "https://dc.lft.to/lastmile_qr_scan"}, "bike_id": "c89f753402e754ddcc673fa917cfdf19"}, {"name": "4641bf3d46b9eceb1a58d4797add8130", "lat": 38.92436766666667, "type": "electric_scooter", "is_disabled": 0, "fusion_lon": 0.0, "fusion_lat": 0.0, "lon": -77.05763733333333, "is_reserved": 0, "rental_uris": {"android": "https://dc.lft.to/lastmile_qr_scan", "ios": "https://dc.lft.to/lastmile_qr_scan"}, "bike_id": "4641bf3d46b9eceb1a58d4797add8130"}, {"name": "ec8c0bf5d7b79250b376034f1afc21f6", "lat": 38.908698666666666, "type": "electric_scooter", "is_disabled": 0, "fusion_lon": 0.0, "fusion_lat": 0.0, "lon": -77.07166766666667, "is_reserved": 0, "rental_uris": {"android": "https://dc.lft.to/lastmile_qr_scan", "ios": "https://dc.lft.to/lastmile_qr_scan"}, "bike_id": "ec8c0bf5d7b79250b376034f1afc21f6"}, {"name": "4a3dd49bca6259c2bbe15d8e79e1bcc1", "lat": 38.9222575, "type": "electric_scooter", "is_disabled": 0, "fusion_lon": 0.0, "fusion_lat": 0.0, "lon": -77.02713766666666, "is_reserved": 0, "rental_uris": {"android": "https://dc.lft.to/lastmile_qr_scan", "ios": "https://dc.lft.to/lastmile_qr_scan"}, "bike_id": "4a3dd49bca6259c2bbe15d8e79e1bcc1"}, {"name": "e82466ad90b896c6356620b88a4d646c", "lat": 38.9192725, "type": "electric_scooter", "is_disabled": 0, "fusion_lon": 0.0, "fusion_lat": 0.0, "lon": -77.034231, "is_reserved": 0, "rental_uris": {"android": "https://dc.lft.to/lastmile_qr_scan", "ios": "https://dc.lft.to/lastmile_qr_scan"}, "bike_id": "e82466ad90b896c6356620b88a4d646c"}, {"name": "ccc56a7ee0f9e43e617d9f3c5e8cf02c", "lat": 38.8769285, "type": "electric_scooter", "is_disabled": 0, "fusion_lon": 0.0, "fusion_lat": 0.0, "lon": -77.00286816666667, "is_reserved": 0, "rental_uris": {"android": "https://dc.lft.to/lastmile_qr_scan", "ios": "https://dc.lft.to/lastmile_qr_scan"}, "bike_id": "ccc56a7ee0f9e43e617d9f3c5e8cf02c"}, {"name": "d22f5ef70e82baaa04a012a93ce8ce27", "lat": 38.90136833333333, "type": "electric_scooter", "is_disabled": 0, "fusion_lon": 0.0, "fusion_lat": 0.0, "lon": -77.018075, "is_reserved": 0, "rental_uris": {"android": "https://dc.lft.to/lastmile_qr_scan", "ios": "https://dc.lft.to/lastmile_qr_scan"}, "bike_id": "d22f5ef70e82baaa04a012a93ce8ce27"}, {"name": "e90a82c2e3a9fa200217965bf5f5db7d", "lat": 38.919250166666664, "type": "electric_scooter", "is_disabled": 0, "fusion_lon": 0.0, "fusion_lat": 0.0, "lon": -77.04487266666666, "is_reserved": 0, "rental_uris": {"android": "https://dc.lft.to/lastmile_qr_scan", "ios": "https://dc.lft.to/lastmile_qr_scan"}, "bike_id": "e90a82c2e3a9fa200217965bf5f5db7d"}, {"name": "bd97fd494a4abd8c1254c920f996bb14", "lat": 38.920855, "type": "electric_scooter", "is_disabled": 0, "fusion_lon": 0.0, "fusion_lat": 0.0, "lon": -77.02421733333334, "is_reserved": 0, "rental_uris": {"android": "https://dc.lft.to/lastmile_qr_scan", "ios": "https://dc.lft.to/lastmile_qr_scan"}, "bike_id": "bd97fd494a4abd8c1254c920f996bb14"}, {"name": "9c9ffe4cc1d110b9dae9840c7dea4203", "lat": 38.922139666666666, "type": "electric_scooter", "is_disabled": 0, "fusion_lon": 0.0, "fusion_lat": 0.0, "lon": -77.0182385, "is_reserved": 0, "rental_uris": {"android": "https://dc.lft.to/lastmile_qr_scan", "ios": "https://dc.lft.to/lastmile_qr_scan"}, "bike_id": "9c9ffe4cc1d110b9dae9840c7dea4203"}, {"name": "ea61acd6f12f6baa53949ab69d1ed978", "lat": 38.915903666666665, "type": "electric_scooter", "is_disabled": 0, "fusion_lon": 0.0, "fusion_lat": 0.0, "lon": -77.04604016666667, "is_reserved": 0, "rental_uris": {"android": "https://dc.lft.to/lastmile_qr_scan", "ios": "https://dc.lft.to/lastmile_qr_scan"}, "bike_id": "ea61acd6f12f6baa53949ab69d1ed978"}, {"name": "eb04da80d8ed3abcfaf6e3459b040953", "lat": 38.89919883333334, "type": "electric_scooter", "is_disabled": 0, "fusion_lon": 0.0, "fusion_lat": 0.0, "lon": -77.03287833333333, "is_reserved": 0, "rental_uris": {"android": "https://dc.lft.to/lastmile_qr_scan", "ios": "https://dc.lft.to/lastmile_qr_scan"}, "bike_id": "eb04da80d8ed3abcfaf6e3459b040953"}, {"name": "2d6b419d6c22ede4d67941e62b622f34", "lat": 38.91837116666667, "type": "electric_scooter", "is_disabled": 0, "fusion_lon": 0.0, "fusion_lat": 0.0, "lon": -77.034437, "is_reserved": 0, "rental_uris": {"android": "https://dc.lft.to/lastmile_qr_scan", "ios": "https://dc.lft.to/lastmile_qr_scan"}, "bike_id": "2d6b419d6c22ede4d67941e62b622f34"}, {"name": "74f541536cdfd2097bb8c725445f07d6", "lat": 38.92155416666667, "type": "electric_scooter", "is_disabled": 0, "fusion_lon": 0.0, "fusion_lat": 0.0, "lon": -77.02108, "is_reserved": 0, "rental_uris": {"android": "https://dc.lft.to/lastmile_qr_scan", "ios": "https://dc.lft.to/lastmile_qr_scan"}, "bike_id": "74f541536cdfd2097bb8c725445f07d6"}, {"name": "c911a93f23d0661915b7d78608b5d73b", "lat": 38.906545333333334, "type": "electric_scooter", "is_disabled": 0, "fusion_lon": 0.0, "fusion_lat": 0.0, "lon": -76.98600183333333, "is_reserved": 0, "rental_uris": {"android": "https://dc.lft.to/lastmile_qr_scan", "ios": "https://dc.lft.to/lastmile_qr_scan"}, "bike_id": "c911a93f23d0661915b7d78608b5d73b"}, {"name": "09a2a3f7056b57d790ef6ce97e079d91", "lat": 38.922056166666664, "type": "electric_scooter", "is_disabled": 0, "fusion_lon": 0.0, "fusion_lat": 0.0, "lon": -77.03190233333333, "is_reserved": 0, "rental_uris": {"android": "https://dc.lft.to/lastmile_qr_scan", "ios": "https://dc.lft.to/lastmile_qr_scan"}, "bike_id": "09a2a3f7056b57d790ef6ce97e079d91"}, {"name": "f9085e062705af79fccdcff56ef3935e", "lat": 38.998287166666664, "type": "electric_bike", "is_disabled": 0, "fusion_lon": 0.0, "fusion_lat": 0.0, "lon": -76.9979025, "is_reserved": 0, "rental_uris": {"android": "https://dc.lft.to/lastmile_qr_scan", "ios": "https://dc.lft.to/lastmile_qr_scan"}, "bike_id": "f9085e062705af79fccdcff56ef3935e"}, {"name": "2ae4b6bc0a52aeab8a76c792c2d9078c", "lat": 38.900066833333334, "type": "electric_scooter", "is_disabled": 0, "fusion_lon": 0.0, "fusion_lat": 0.0, "lon": -76.993963, "is_reserved": 0, "rental_uris": {"android": "https://dc.lft.to/lastmile_qr_scan", "ios": "https://dc.lft.to/lastmile_qr_scan"}, "bike_id": "2ae4b6bc0a52aeab8a76c792c2d9078c"}, {"name": "dd8627926bc2ba8e49fecacdb28b419a", "lat": 38.92494266666667, "type": "electric_scooter", "is_disabled": 0, "fusion_lon": 0.0, "fusion_lat": 0.0, "lon": -77.02179033333333, "is_reserved": 0, "rental_uris": {"android": "https://dc.lft.to/lastmile_qr_scan", "ios": "https://dc.lft.to/lastmile_qr_scan"}, "bike_id": "dd8627926bc2ba8e49fecacdb28b419a"}, {"name": "79162bf32c9ff41d590e735666b2252f", "lat": 38.87887333333333, "type": "electric_scooter", "is_disabled": 0, "fusion_lon": 0.0, "fusion_lat": 0.0, "lon": -77.02196583333334, "is_reserved": 0, "rental_uris": {"android": "https://dc.lft.to/lastmile_qr_scan", "ios": "https://dc.lft.to/lastmile_qr_scan"}, "bike_id": "79162bf32c9ff41d590e735666b2252f"}, {"name": "efbea24d6d42e40eec8d00c72f6483f7", "lat": 38.94692633333333, "type": "electric_scooter", "is_disabled": 0, "fusion_lon": 0.0, "fusion_lat": 0.0, "lon": -77.06495266666667, "is_reserved": 0, "rental_uris": {"android": "https://dc.lft.to/lastmile_qr_scan", "ios": "https://dc.lft.to/lastmile_qr_scan"}, "bike_id": "efbea24d6d42e40eec8d00c72f6483f7"}, {"name": "dbfe886a6b032cfda175fbed1469d7a6", "lat": 38.88962716666666, "type": "electric_scooter", "is_disabled": 0, "fusion_lon": 0.0, "fusion_lat": 0.0, "lon": -77.00196466666667, "is_reserved": 0, "rental_uris": {"android": "https://dc.lft.to/lastmile_qr_scan", "ios": "https://dc.lft.to/lastmile_qr_scan"}, "bike_id": "dbfe886a6b032cfda175fbed1469d7a6"}, {"name": "7d11f9b337aca000eae9a707ebf2aac0", "lat": 38.87717083333333, "type": "electric_scooter", "is_disabled": 0, "fusion_lon": 0.0, "fusion_lat": 0.0, "lon": -77.005903, "is_reserved": 0, "rental_uris": {"android": "https://dc.lft.to/lastmile_qr_scan", "ios": "https://dc.lft.to/lastmile_qr_scan"}, "bike_id": "7d11f9b337aca000eae9a707ebf2aac0"}, {"name": "8c9bc7f15d4f8fc2a1980d389a091f4c", "lat": 38.923236333333335, "type": "electric_scooter", "is_disabled": 0, "fusion_lon": 0.0, "fusion_lat": 0.0, "lon": -77.0196675, "is_reserved": 0, "rental_uris": {"android": "https://dc.lft.to/lastmile_qr_scan", "ios": "https://dc.lft.to/lastmile_qr_scan"}, "bike_id": "8c9bc7f15d4f8fc2a1980d389a091f4c"}, {"name": "e5cbbab463a49e5061e5dc7b23696f7a", "lat": 38.9284985, "type": "electric_scooter", "is_disabled": 0, "fusion_lon": 0.0, "fusion_lat": 0.0, "lon": -77.05432733333333, "is_reserved": 0, "rental_uris": {"android": "https://dc.lft.to/lastmile_qr_scan", "ios": "https://dc.lft.to/lastmile_qr_scan"}, "bike_id": "e5cbbab463a49e5061e5dc7b23696f7a"}, {"name": "a0f98442f79787ee748845cace717d03", "lat": 38.919475, "type": "electric_scooter", "is_disabled": 0, "fusion_lon": 0.0, "fusion_lat": 0.0, "lon": -77.041581, "is_reserved": 0, "rental_uris": {"android": "https://dc.lft.to/lastmile_qr_scan", "ios": "https://dc.lft.to/lastmile_qr_scan"}, "bike_id": "a0f98442f79787ee748845cace717d03"}, {"name": "8f6c9a22f7f5fe6305b43597394bfe88", "lat": 38.9419925, "type": "electric_scooter", "is_disabled": 0, "fusion_lon": 0.0, "fusion_lat": 0.0, "lon": -77.02346583333333, "is_reserved": 0, "rental_uris": {"android": "https://dc.lft.to/lastmile_qr_scan", "ios": "https://dc.lft.to/lastmile_qr_scan"}, "bike_id": "8f6c9a22f7f5fe6305b43597394bfe88"}, {"name": "0c474983f59521a4f5671ed8e4ab3a63", "lat": 38.920184666666664, "type": "electric_scooter", "is_disabled": 0, "fusion_lon": 0.0, "fusion_lat": 0.0, "lon": -77.06364233333333, "is_reserved": 0, "rental_uris": {"android": "https://dc.lft.to/lastmile_qr_scan", "ios": "https://dc.lft.to/lastmile_qr_scan"}, "bike_id": "0c474983f59521a4f5671ed8e4ab3a63"}, {"name": "7b306e5b7306cd8815c5cf1e5aa3336a", "lat": 38.90471566666667, "type": "electric_scooter", "is_disabled": 0, "fusion_lon": 0.0, "fusion_lat": 0.0, "lon": -77.01887416666666, "is_reserved": 0, "rental_uris": {"android": "https://dc.lft.to/lastmile_qr_scan", "ios": "https://dc.lft.to/lastmile_qr_scan"}, "bike_id": "7b306e5b7306cd8815c5cf1e5aa3336a"}, {"name": "4901e6ac1c7649bd98b922e8cd33a1ac", "lat": 38.860317333333334, "type": "electric_scooter", "is_disabled": 0, "fusion_lon": 0.0, "fusion_lat": 0.0, "lon": -76.98371416666667, "is_reserved": 0, "rental_uris": {"android": "https://dc.lft.to/lastmile_qr_scan", "ios": "https://dc.lft.to/lastmile_qr_scan"}, "bike_id": "4901e6ac1c7649bd98b922e8cd33a1ac"}, {"name": "19251966bcaed3d8a3f782cef814331b", "lat": 38.904514666666664, "type": "electric_scooter", "is_disabled": 0, "fusion_lon": 0.0, "fusion_lat": 0.0, "lon": -77.02804183333333, "is_reserved": 0, "rental_uris": {"android": "https://dc.lft.to/lastmile_qr_scan", "ios": "https://dc.lft.to/lastmile_qr_scan"}, "bike_id": "19251966bcaed3d8a3f782cef814331b"}, {"name": "2d4f1cf2255bd525ebf69497b664123c", "lat": 38.9055055, "type": "electric_scooter", "is_disabled": 0, "fusion_lon": 0.0, "fusion_lat": 0.0, "lon": -77.00592333333333, "is_reserved": 0, "rental_uris": {"android": "https://dc.lft.to/lastmile_qr_scan", "ios": "https://dc.lft.to/lastmile_qr_scan"}, "bike_id": "2d4f1cf2255bd525ebf69497b664123c"}, {"name": "a4e256ff2e5258408ddbeaa7c2c30af3", "lat": 38.91539133333333, "type": "electric_scooter", "is_disabled": 0, "fusion_lon": 0.0, "fusion_lat": 0.0, "lon": -77.0442845, "is_reserved": 0, "rental_uris": {"android": "https://dc.lft.to/lastmile_qr_scan", "ios": "https://dc.lft.to/lastmile_qr_scan"}, "bike_id": "a4e256ff2e5258408ddbeaa7c2c30af3"}, {"name": "cd5f6744119399f03441db777fbc3b6e", "lat": 38.89218866666667, "type": "electric_scooter", "is_disabled": 0, "fusion_lon": 0.0, "fusion_lat": 0.0, "lon": -77.02369133333333, "is_reserved": 0, "rental_uris": {"android": "https://dc.lft.to/lastmile_qr_scan", "ios": "https://dc.lft.to/lastmile_qr_scan"}, "bike_id": "cd5f6744119399f03441db777fbc3b6e"}, {"name": "07b44c302fefe0d050e4106f2600ca72", "lat": 38.904534, "type": "electric_scooter", "is_disabled": 0, "fusion_lon": 0.0, "fusion_lat": 0.0, "lon": -77.0378875, "is_reserved": 0, "rental_uris": {"android": "https://dc.lft.to/lastmile_qr_scan", "ios": "https://dc.lft.to/lastmile_qr_scan"}, "bike_id": "07b44c302fefe0d050e4106f2600ca72"}, {"name": "bd9cb6ad9363d1c86ca1f2323fca1bcc", "lat": 38.90699216666667, "type": "electric_scooter", "is_disabled": 0, "fusion_lon": 0.0, "fusion_lat": 0.0, "lon": -76.986885, "is_reserved": 0, "rental_uris": {"android": "https://dc.lft.to/lastmile_qr_scan", "ios": "https://dc.lft.to/lastmile_qr_scan"}, "bike_id": "bd9cb6ad9363d1c86ca1f2323fca1bcc"}, {"name": "01ccf68950accbd89458a0f3f2c27617", "lat": 38.9124645, "type": "electric_scooter", "is_disabled": 0, "fusion_lon": 0.0, "fusion_lat": 0.0, "lon": -77.03146733333334, "is_reserved": 0, "rental_uris": {"android": "https://dc.lft.to/lastmile_qr_scan", "ios": "https://dc.lft.to/lastmile_qr_scan"}, "bike_id": "01ccf68950accbd89458a0f3f2c27617"}, {"name": "3f0bf002274fde539dcf5634bc4c922d", "lat": 38.876919666666666, "type": "electric_scooter", "is_disabled": 0, "fusion_lon": 0.0, "fusion_lat": 0.0, "lon": -77.00287516666667, "is_reserved": 0, "rental_uris": {"android": "https://dc.lft.to/lastmile_qr_scan", "ios": "https://dc.lft.to/lastmile_qr_scan"}, "bike_id": "3f0bf002274fde539dcf5634bc4c922d"}, {"name": "c63ff3249d62d107eb47395e5a5bc441", "lat": 38.89894283333334, "type": "electric_bike", "is_disabled": 0, "fusion_lon": 0.0, "fusion_lat": 0.0, "lon": -76.98958433333334, "is_reserved": 0, "rental_uris": {"android": "https://dc.lft.to/lastmile_qr_scan", "ios": "https://dc.lft.to/lastmile_qr_scan"}, "bike_id": "c63ff3249d62d107eb47395e5a5bc441"}, {"name": "e07eff1f2c0b3a7918669c908791304b", "lat": 38.8985145, "type": "electric_scooter", "is_disabled": 0, "fusion_lon": 0.0, "fusion_lat": 0.0, "lon": -77.02217266666666, "is_reserved": 0, "rental_uris": {"android": "https://dc.lft.to/lastmile_qr_scan", "ios": "https://dc.lft.to/lastmile_qr_scan"}, "bike_id": "e07eff1f2c0b3a7918669c908791304b"}, {"name": "562064f1303f57dc21c01b7dd96f4c02", "lat": 38.9310045, "type": "electric_scooter", "is_disabled": 0, "fusion_lon": 0.0, "fusion_lat": 0.0, "lon": -77.0266355, "is_reserved": 0, "rental_uris": {"android": "https://dc.lft.to/lastmile_qr_scan", "ios": "https://dc.lft.to/lastmile_qr_scan"}, "bike_id": "562064f1303f57dc21c01b7dd96f4c02"}, {"name": "5604ea0773b5a15bee61aea2ee747508", "lat": 38.918657, "type": "electric_scooter", "is_disabled": 0, "fusion_lon": 0.0, "fusion_lat": 0.0, "lon": -77.0403425, "is_reserved": 0, "rental_uris": {"android": "https://dc.lft.to/lastmile_qr_scan", "ios": "https://dc.lft.to/lastmile_qr_scan"}, "bike_id": "5604ea0773b5a15bee61aea2ee747508"}, {"name": "7d32b29bc4e96135cf3ae95dd17ba74d", "lat": 38.897051166666664, "type": "electric_scooter", "is_disabled": 0, "fusion_lon": 0.0, "fusion_lat": 0.0, "lon": -77.02810166666667, "is_reserved": 0, "rental_uris": {"android": "https://dc.lft.to/lastmile_qr_scan", "ios": "https://dc.lft.to/lastmile_qr_scan"}, "bike_id": "7d32b29bc4e96135cf3ae95dd17ba74d"}, {"name": "cc119f3b843b34336e5ae973093910d7", "lat": 38.9035595, "type": "electric_scooter", "is_disabled": 0, "fusion_lon": 0.0, "fusion_lat": 0.0, "lon": -77.00289233333334, "is_reserved": 0, "rental_uris": {"android": "https://dc.lft.to/lastmile_qr_scan", "ios": "https://dc.lft.to/lastmile_qr_scan"}, "bike_id": "cc119f3b843b34336e5ae973093910d7"}, {"name": "c79d09b429a63b5147aa7fa01addd3a6", "lat": 38.93562433333334, "type": "electric_scooter", "is_disabled": 0, "fusion_lon": 0.0, "fusion_lat": 0.0, "lon": -77.06422666666667, "is_reserved": 0, "rental_uris": {"android": "https://dc.lft.to/lastmile_qr_scan", "ios": "https://dc.lft.to/lastmile_qr_scan"}, "bike_id": "c79d09b429a63b5147aa7fa01addd3a6"}, {"name": "709dcfce3a8181f36a38bfe2abe89f52", "lat": 39.084364, "type": "electric_bike", "is_disabled": 0, "fusion_lon": 0.0, "fusion_lat": 0.0, "lon": -76.95156833333333, "is_reserved": 0, "rental_uris": {"android": "https://dc.lft.to/lastmile_qr_scan", "ios": "https://dc.lft.to/lastmile_qr_scan"}, "bike_id": "709dcfce3a8181f36a38bfe2abe89f52"}, {"name": "0818006bbe865afea6205ce9937d89f5", "lat": 38.902877833333335, "type": "electric_scooter", "is_disabled": 0, "fusion_lon": 0.0, "fusion_lat": 0.0, "lon": -77.03667666666666, "is_reserved": 0, "rental_uris": {"android": "https://dc.lft.to/lastmile_qr_scan", "ios": "https://dc.lft.to/lastmile_qr_scan"}, "bike_id": "0818006bbe865afea6205ce9937d89f5"}, {"name": "5d845dbe78778b14f26a56fa99cb9b68", "lat": 38.921747833333335, "type": "electric_scooter", "is_disabled": 0, "fusion_lon": 0.0, "fusion_lat": 0.0, "lon": -77.03526783333334, "is_reserved": 0, "rental_uris": {"android": "https://dc.lft.to/lastmile_qr_scan", "ios": "https://dc.lft.to/lastmile_qr_scan"}, "bike_id": "5d845dbe78778b14f26a56fa99cb9b68"}, {"name": "16ca312b015ce10422bcc925849731f1", "lat": 38.909458666666666, "type": "electric_scooter", "is_disabled": 0, "fusion_lon": 0.0, "fusion_lat": 0.0, "lon": -76.9359465, "is_reserved": 0, "rental_uris": {"android": "https://dc.lft.to/lastmile_qr_scan", "ios": "https://dc.lft.to/lastmile_qr_scan"}, "bike_id": "16ca312b015ce10422bcc925849731f1"}, {"name": "1093722bd64925a4930fc714a36686a8", "lat": 38.919466666666665, "type": "electric_scooter", "is_disabled": 0, "fusion_lon": 0.0, "fusion_lat": 0.0, "lon": -77.02493983333333, "is_reserved": 0, "rental_uris": {"android": "https://dc.lft.to/lastmile_qr_scan", "ios": "https://dc.lft.to/lastmile_qr_scan"}, "bike_id": "1093722bd64925a4930fc714a36686a8"}, {"name": "c8488d17d871dc5a24a4935acdcedf90", "lat": 38.8836945, "type": "electric_scooter", "is_disabled": 0, "fusion_lon": 0.0, "fusion_lat": 0.0, "lon": -76.99519083333334, "is_reserved": 0, "rental_uris": {"android": "https://dc.lft.to/lastmile_qr_scan", "ios": "https://dc.lft.to/lastmile_qr_scan"}, "bike_id": "c8488d17d871dc5a24a4935acdcedf90"}, {"name": "56451ff4fd63f659ad8bd04b372ad773", "lat": 38.909702333333335, "type": "electric_scooter", "is_disabled": 0, "fusion_lon": 0.0, "fusion_lat": 0.0, "lon": -77.033432, "is_reserved": 0, "rental_uris": {"android": "https://dc.lft.to/lastmile_qr_scan", "ios": "https://dc.lft.to/lastmile_qr_scan"}, "bike_id": "56451ff4fd63f659ad8bd04b372ad773"}, {"name": "8a17091fbd56b0e66afb6d3af5d02dc4", "lat": 38.9196405, "type": "electric_scooter", "is_disabled": 0, "fusion_lon": 0.0, "fusion_lat": 0.0, "lon": -77.03219183333333, "is_reserved": 0, "rental_uris": {"android": "https://dc.lft.to/lastmile_qr_scan", "ios": "https://dc.lft.to/lastmile_qr_scan"}, "bike_id": "8a17091fbd56b0e66afb6d3af5d02dc4"}, {"name": "6a684f357870364883ab894892b64bb2", "lat": 38.92116883333333, "type": "electric_scooter", "is_disabled": 0, "fusion_lon": 0.0, "fusion_lat": 0.0, "lon": -77.04578766666667, "is_reserved": 0, "rental_uris": {"android": "https://dc.lft.to/lastmile_qr_scan", "ios": "https://dc.lft.to/lastmile_qr_scan"}, "bike_id": "6a684f357870364883ab894892b64bb2"}, {"name": "10889acd783715db37599b076dd08c24", "lat": 38.902264333333335, "type": "electric_scooter", "is_disabled": 0, "fusion_lon": 0.0, "fusion_lat": 0.0, "lon": -77.028438, "is_reserved": 0, "rental_uris": {"android": "https://dc.lft.to/lastmile_qr_scan", "ios": "https://dc.lft.to/lastmile_qr_scan"}, "bike_id": "10889acd783715db37599b076dd08c24"}, {"name": "c74570893ea52355362526194c02a86d", "lat": 38.898120166666665, "type": "electric_scooter", "is_disabled": 0, "fusion_lon": 0.0, "fusion_lat": 0.0, "lon": -76.97931416666667, "is_reserved": 0, "rental_uris": {"android": "https://dc.lft.to/lastmile_qr_scan", "ios": "https://dc.lft.to/lastmile_qr_scan"}, "bike_id": "c74570893ea52355362526194c02a86d"}, {"name": "79e4a6487345731c14bc6ad2aa0c3fcc", "lat": 38.880245333333335, "type": "electric_scooter", "is_disabled": 0, "fusion_lon": 0.0, "fusion_lat": 0.0, "lon": -77.02503016666667, "is_reserved": 0, "rental_uris": {"android": "https://dc.lft.to/lastmile_qr_scan", "ios": "https://dc.lft.to/lastmile_qr_scan"}, "bike_id": "79e4a6487345731c14bc6ad2aa0c3fcc"}, {"name": "69a42a025dbbf83a70c1e0936aee7e6d", "lat": 38.91309, "type": "electric_scooter", "is_disabled": 0, "fusion_lon": 0.0, "fusion_lat": 0.0, "lon": -77.01929183333333, "is_reserved": 0, "rental_uris": {"android": "https://dc.lft.to/lastmile_qr_scan", "ios": "https://dc.lft.to/lastmile_qr_scan"}, "bike_id": "69a42a025dbbf83a70c1e0936aee7e6d"}, {"name": "f57839c5eb14e734fd5d8e4446fa0d6c", "lat": 38.905478, "type": "electric_scooter", "is_disabled": 0, "fusion_lon": 0.0, "fusion_lat": 0.0, "lon": -77.00435716666667, "is_reserved": 0, "rental_uris": {"android": "https://dc.lft.to/lastmile_qr_scan", "ios": "https://dc.lft.to/lastmile_qr_scan"}, "bike_id": "f57839c5eb14e734fd5d8e4446fa0d6c"}, {"name": "19fbb8190ce0b788a4824452906edd21", "lat": 38.899864, "type": "electric_scooter", "is_disabled": 0, "fusion_lon": 0.0, "fusion_lat": 0.0, "lon": -77.02280416666666, "is_reserved": 0, "rental_uris": {"android": "https://dc.lft.to/lastmile_qr_scan", "ios": "https://dc.lft.to/lastmile_qr_scan"}, "bike_id": "19fbb8190ce0b788a4824452906edd21"}, {"name": "70ce4c7f20851ed19943362100c78244", "lat": 38.917034, "type": "electric_scooter", "is_disabled": 0, "fusion_lon": 0.0, "fusion_lat": 0.0, "lon": -77.029136, "is_reserved": 0, "rental_uris": {"android": "https://dc.lft.to/lastmile_qr_scan", "ios": "https://dc.lft.to/lastmile_qr_scan"}, "bike_id": "70ce4c7f20851ed19943362100c78244"}, {"name": "ba5d1de2ca5e35cc9b961ec1f1497e15", "lat": 38.8154365, "type": "electric_bike", "is_disabled": 0, "fusion_lon": 0.0, "fusion_lat": 0.0, "lon": -77.04643916666667, "is_reserved": 0, "rental_uris": {"android": "https://dc.lft.to/lastmile_qr_scan", "ios": "https://dc.lft.to/lastmile_qr_scan"}, "bike_id": "ba5d1de2ca5e35cc9b961ec1f1497e15"}, {"name": "1eedab832cf56d512e9f8358e481f717", "lat": 38.893624, "type": "electric_scooter", "is_disabled": 0, "fusion_lon": 0.0, "fusion_lat": 0.0, "lon": -76.98805316666666, "is_reserved": 0, "rental_uris": {"android": "https://dc.lft.to/lastmile_qr_scan", "ios": "https://dc.lft.to/lastmile_qr_scan"}, "bike_id": "1eedab832cf56d512e9f8358e481f717"}, {"name": "334769136653f21e1cf72ab31517cb2a", "lat": 38.895449666666664, "type": "electric_scooter", "is_disabled": 0, "fusion_lon": 0.0, "fusion_lat": 0.0, "lon": -76.98332783333333, "is_reserved": 0, "rental_uris": {"android": "https://dc.lft.to/lastmile_qr_scan", "ios": "https://dc.lft.to/lastmile_qr_scan"}, "bike_id": "334769136653f21e1cf72ab31517cb2a"}, {"name": "0299f22fbd7c14fb9753d6c3d62f5789", "lat": 38.9095705, "type": "electric_scooter", "is_disabled": 0, "fusion_lon": 0.0, "fusion_lat": 0.0, "lon": -77.00761383333334, "is_reserved": 0, "rental_uris": {"android": "https://dc.lft.to/lastmile_qr_scan", "ios": "https://dc.lft.to/lastmile_qr_scan"}, "bike_id": "0299f22fbd7c14fb9753d6c3d62f5789"}, {"name": "d7eb9fdb0356dcc2bcb8d284378bc7e0", "lat": 38.92599, "type": "electric_scooter", "is_disabled": 0, "fusion_lon": 0.0, "fusion_lat": 0.0, "lon": -77.02148883333334, "is_reserved": 0, "rental_uris": {"android": "https://dc.lft.to/lastmile_qr_scan", "ios": "https://dc.lft.to/lastmile_qr_scan"}, "bike_id": "d7eb9fdb0356dcc2bcb8d284378bc7e0"}, {"name": "6cfb86db4c10bd3476fdd410e3ac94a2", "lat": 38.95201983333333, "type": "electric_scooter", "is_disabled": 0, "fusion_lon": 0.0, "fusion_lat": 0.0, "lon": -77.02733333333333, "is_reserved": 0, "rental_uris": {"android": "https://dc.lft.to/lastmile_qr_scan", "ios": "https://dc.lft.to/lastmile_qr_scan"}, "bike_id": "6cfb86db4c10bd3476fdd410e3ac94a2"}, {"name": "977493923a96fb6db9dde5361213153f", "lat": 38.87995433333333, "type": "electric_scooter", "is_disabled": 0, "fusion_lon": 0.0, "fusion_lat": 0.0, "lon": -76.98546833333333, "is_reserved": 0, "rental_uris": {"android": "https://dc.lft.to/lastmile_qr_scan", "ios": "https://dc.lft.to/lastmile_qr_scan"}, "bike_id": "977493923a96fb6db9dde5361213153f"}, {"name": "310c7e044b79e45a959148c7687e6f2c", "lat": 38.907863666666664, "type": "electric_scooter", "is_disabled": 0, "fusion_lon": 0.0, "fusion_lat": 0.0, "lon": -77.0321015, "is_reserved": 0, "rental_uris": {"android": "https://dc.lft.to/lastmile_qr_scan", "ios": "https://dc.lft.to/lastmile_qr_scan"}, "bike_id": "310c7e044b79e45a959148c7687e6f2c"}, {"name": "659a45e5a22c85055155a3639c85bff0", "lat": 38.926839666666666, "type": "electric_scooter", "is_disabled": 0, "fusion_lon": 0.0, "fusion_lat": 0.0, "lon": -77.0258645, "is_reserved": 0, "rental_uris": {"android": "https://dc.lft.to/lastmile_qr_scan", "ios": "https://dc.lft.to/lastmile_qr_scan"}, "bike_id": "659a45e5a22c85055155a3639c85bff0"}, {"name": "7b6fd6c30f83a2019b52930c2ff3b843", "lat": 38.92317766666667, "type": "electric_scooter", "is_disabled": 0, "fusion_lon": 0.0, "fusion_lat": 0.0, "lon": -77.019644, "is_reserved": 0, "rental_uris": {"android": "https://dc.lft.to/lastmile_qr_scan", "ios": "https://dc.lft.to/lastmile_qr_scan"}, "bike_id": "7b6fd6c30f83a2019b52930c2ff3b843"}, {"name": "d674bcfb6f5280f088b69638ca40bdc6", "lat": 38.91560966666667, "type": "electric_bike", "is_disabled": 0, "fusion_lon": 0.0, "fusion_lat": 0.0, "lon": -76.9836925, "is_reserved": 0, "rental_uris": {"android": "https://dc.lft.to/lastmile_qr_scan", "ios": "https://dc.lft.to/lastmile_qr_scan"}, "bike_id": "d674bcfb6f5280f088b69638ca40bdc6"}, {"name": "153d122582fa64f83a317ef6fcf4e5b6", "lat": 38.926005, "type": "electric_scooter", "is_disabled": 0, "fusion_lon": 0.0, "fusion_lat": 0.0, "lon": -77.0215575, "is_reserved": 0, "rental_uris": {"android": "https://dc.lft.to/lastmile_qr_scan", "ios": "https://dc.lft.to/lastmile_qr_scan"}, "bike_id": "153d122582fa64f83a317ef6fcf4e5b6"}, {"name": "88b27b2d9500ea44ba88226edfccb1c9", "lat": 38.902809833333336, "type": "electric_scooter", "is_disabled": 0, "fusion_lon": 0.0, "fusion_lat": 0.0, "lon": -77.02272583333334, "is_reserved": 0, "rental_uris": {"android": "https://dc.lft.to/lastmile_qr_scan", "ios": "https://dc.lft.to/lastmile_qr_scan"}, "bike_id": "88b27b2d9500ea44ba88226edfccb1c9"}, {"name": "cfaa4648d24ccf10ee5d36c5c05349ff", "lat": 38.905474, "type": "electric_scooter", "is_disabled": 0, "fusion_lon": 0.0, "fusion_lat": 0.0, "lon": -77.00689816666667, "is_reserved": 0, "rental_uris": {"android": "https://dc.lft.to/lastmile_qr_scan", "ios": "https://dc.lft.to/lastmile_qr_scan"}, "bike_id": "cfaa4648d24ccf10ee5d36c5c05349ff"}, {"name": "9489d202b770ba4b0084a3f93e941a96", "lat": 38.920744666666664, "type": "electric_bike", "is_disabled": 0, "fusion_lon": 0.0, "fusion_lat": 0.0, "lon": -77.03061066666666, "is_reserved": 0, "rental_uris": {"android": "https://dc.lft.to/lastmile_qr_scan", "ios": "https://dc.lft.to/lastmile_qr_scan"}, "bike_id": "9489d202b770ba4b0084a3f93e941a96"}, {"name": "1d2a3ccd5d1e3cdb7955f8c015afddb3", "lat": 38.91728833333333, "type": "electric_scooter", "is_disabled": 0, "fusion_lon": 0.0, "fusion_lat": 0.0, "lon": -77.02348283333333, "is_reserved": 0, "rental_uris": {"android": "https://dc.lft.to/lastmile_qr_scan", "ios": "https://dc.lft.to/lastmile_qr_scan"}, "bike_id": "1d2a3ccd5d1e3cdb7955f8c015afddb3"}, {"name": "6b8ed0a980976193c8709c742e7374da", "lat": 38.886328, "type": "electric_bike", "is_disabled": 0, "fusion_lon": 0.0, "fusion_lat": 0.0, "lon": -77.09581216666666, "is_reserved": 0, "rental_uris": {"android": "https://dc.lft.to/lastmile_qr_scan", "ios": "https://dc.lft.to/lastmile_qr_scan"}, "bike_id": "6b8ed0a980976193c8709c742e7374da"}, {"name": "591dfe8299b69faa7e6404cbbe26e3e1", "lat": 38.8357695, "type": "electric_bike", "is_disabled": 0, "fusion_lon": 0.0, "fusion_lat": 0.0, "lon": -76.99023816666667, "is_reserved": 0, "rental_uris": {"android": "https://dc.lft.to/lastmile_qr_scan", "ios": "https://dc.lft.to/lastmile_qr_scan"}, "bike_id": "591dfe8299b69faa7e6404cbbe26e3e1"}, {"name": "72c5c0788c38adf357383e6a4f050993", "lat": 38.9192075, "type": "electric_scooter", "is_disabled": 0, "fusion_lon": 0.0, "fusion_lat": 0.0, "lon": -77.03179433333334, "is_reserved": 0, "rental_uris": {"android": "https://dc.lft.to/lastmile_qr_scan", "ios": "https://dc.lft.to/lastmile_qr_scan"}, "bike_id": "72c5c0788c38adf357383e6a4f050993"}, {"name": "8b60ca168d4908fb92ab768bf541a44a", "lat": 38.887371, "type": "electric_scooter", "is_disabled": 0, "fusion_lon": 0.0, "fusion_lat": 0.0, "lon": -77.01504183333333, "is_reserved": 0, "rental_uris": {"android": "https://dc.lft.to/lastmile_qr_scan", "ios": "https://dc.lft.to/lastmile_qr_scan"}, "bike_id": "8b60ca168d4908fb92ab768bf541a44a"}, {"name": "27b4caefcc9abedbc566e909449efacd", "lat": 38.8769115, "type": "electric_scooter", "is_disabled": 0, "fusion_lon": 0.0, "fusion_lat": 0.0, "lon": -77.00299283333334, "is_reserved": 0, "rental_uris": {"android": "https://dc.lft.to/lastmile_qr_scan", "ios": "https://dc.lft.to/lastmile_qr_scan"}, "bike_id": "27b4caefcc9abedbc566e909449efacd"}, {"name": "b5f54b2e7cca5f54d81789f15f9d5be6", "lat": 38.88432483333333, "type": "electric_scooter", "is_disabled": 0, "fusion_lon": 0.0, "fusion_lat": 0.0, "lon": -77.00137183333334, "is_reserved": 0, "rental_uris": {"android": "https://dc.lft.to/lastmile_qr_scan", "ios": "https://dc.lft.to/lastmile_qr_scan"}, "bike_id": "b5f54b2e7cca5f54d81789f15f9d5be6"}, {"name": "b52187a1422c2e8b15db489aff35b03f", "lat": 38.91004066666667, "type": "electric_scooter", "is_disabled": 0, "fusion_lon": 0.0, "fusion_lat": 0.0, "lon": -77.04008916666666, "is_reserved": 0, "rental_uris": {"android": "https://dc.lft.to/lastmile_qr_scan", "ios": "https://dc.lft.to/lastmile_qr_scan"}, "bike_id": "b52187a1422c2e8b15db489aff35b03f"}, {"name": "ae6ecff9eac35b156c85fefc0ef6b895", "lat": 38.9051685, "type": "electric_scooter", "is_disabled": 0, "fusion_lon": 0.0, "fusion_lat": 0.0, "lon": -77.04324083333333, "is_reserved": 0, "rental_uris": {"android": "https://dc.lft.to/lastmile_qr_scan", "ios": "https://dc.lft.to/lastmile_qr_scan"}, "bike_id": "ae6ecff9eac35b156c85fefc0ef6b895"}, {"name": "fdc167ed50d7f32cf6f6484556644185", "lat": 38.881086, "type": "electric_scooter", "is_disabled": 0, "fusion_lon": 0.0, "fusion_lat": 0.0, "lon": -77.0165975, "is_reserved": 0, "rental_uris": {"android": "https://dc.lft.to/lastmile_qr_scan", "ios": "https://dc.lft.to/lastmile_qr_scan"}, "bike_id": "fdc167ed50d7f32cf6f6484556644185"}, {"name": "a5cc3eabf1ec6b253e6fd50b0241b2ab", "lat": 38.88644333333333, "type": "electric_scooter", "is_disabled": 0, "fusion_lon": 0.0, "fusion_lat": 0.0, "lon": -77.00096366666666, "is_reserved": 0, "rental_uris": {"android": "https://dc.lft.to/lastmile_qr_scan", "ios": "https://dc.lft.to/lastmile_qr_scan"}, "bike_id": "a5cc3eabf1ec6b253e6fd50b0241b2ab"}, {"name": "57be2e26ecd8fad1e04fa9ca5a3636e9", "lat": 38.8796075, "type": "electric_scooter", "is_disabled": 0, "fusion_lon": 0.0, "fusion_lat": 0.0, "lon": -76.9874175, "is_reserved": 0, "rental_uris": {"android": "https://dc.lft.to/lastmile_qr_scan", "ios": "https://dc.lft.to/lastmile_qr_scan"}, "bike_id": "57be2e26ecd8fad1e04fa9ca5a3636e9"}, {"name": "903921525803368862f9d13ed0e218b7", "lat": 38.89197033333333, "type": "electric_scooter", "is_disabled": 0, "fusion_lon": 0.0, "fusion_lat": 0.0, "lon": -76.98843516666666, "is_reserved": 0, "rental_uris": {"android": "https://dc.lft.to/lastmile_qr_scan", "ios": "https://dc.lft.to/lastmile_qr_scan"}, "bike_id": "903921525803368862f9d13ed0e218b7"}, {"name": "69b3f54e66af74b9e4755083ad494302", "lat": 38.938271666666665, "type": "electric_scooter", "is_disabled": 0, "fusion_lon": 0.0, "fusion_lat": 0.0, "lon": -76.986126, "is_reserved": 0, "rental_uris": {"android": "https://dc.lft.to/lastmile_qr_scan", "ios": "https://dc.lft.to/lastmile_qr_scan"}, "bike_id": "69b3f54e66af74b9e4755083ad494302"}, {"name": "ec0ece2031525f8cb23cadb477c57bab", "lat": 38.92315033333333, "type": "electric_scooter", "is_disabled": 0, "fusion_lon": 0.0, "fusion_lat": 0.0, "lon": -77.02797433333333, "is_reserved": 0, "rental_uris": {"android": "https://dc.lft.to/lastmile_qr_scan", "ios": "https://dc.lft.to/lastmile_qr_scan"}, "bike_id": "ec0ece2031525f8cb23cadb477c57bab"}, {"name": "9cbfe3a3a329c9d757b13bd234997ba7", "lat": 38.87891883333333, "type": "electric_scooter", "is_disabled": 0, "fusion_lon": 0.0, "fusion_lat": 0.0, "lon": -77.0138885, "is_reserved": 0, "rental_uris": {"android": "https://dc.lft.to/lastmile_qr_scan", "ios": "https://dc.lft.to/lastmile_qr_scan"}, "bike_id": "9cbfe3a3a329c9d757b13bd234997ba7"}, {"name": "ea7e337a55464dc5e32663434ea10a8a", "lat": 38.87616, "type": "electric_scooter", "is_disabled": 0, "fusion_lon": 0.0, "fusion_lat": 0.0, "lon": -77.02084866666667, "is_reserved": 0, "rental_uris": {"android": "https://dc.lft.to/lastmile_qr_scan", "ios": "https://dc.lft.to/lastmile_qr_scan"}, "bike_id": "ea7e337a55464dc5e32663434ea10a8a"}, {"name": "8cae6294efa671b850dce639d389134c", "lat": 38.909547, "type": "electric_scooter", "is_disabled": 0, "fusion_lon": 0.0, "fusion_lat": 0.0, "lon": -77.01179983333333, "is_reserved": 0, "rental_uris": {"android": "https://dc.lft.to/lastmile_qr_scan", "ios": "https://dc.lft.to/lastmile_qr_scan"}, "bike_id": "8cae6294efa671b850dce639d389134c"}, {"name": "2dd32e28824af41f788aa263a45a6bf9", "lat": 38.897282833333335, "type": "electric_scooter", "is_disabled": 0, "fusion_lon": 0.0, "fusion_lat": 0.0, "lon": -77.0322745, "is_reserved": 0, "rental_uris": {"android": "https://dc.lft.to/lastmile_qr_scan", "ios": "https://dc.lft.to/lastmile_qr_scan"}, "bike_id": "2dd32e28824af41f788aa263a45a6bf9"}, {"name": "357035c8d764b791c256f8eca3d424ff", "lat": 38.80054233333333, "type": "electric_bike", "is_disabled": 0, "fusion_lon": 0.0, "fusion_lat": 0.0, "lon": -77.1283655, "is_reserved": 0, "rental_uris": {"android": "https://dc.lft.to/lastmile_qr_scan", "ios": "https://dc.lft.to/lastmile_qr_scan"}, "bike_id": "357035c8d764b791c256f8eca3d424ff"}, {"name": "d56dc4d2f140f9e1f0f2b25f3cbf6eae", "lat": 38.924889666666665, "type": "electric_scooter", "is_disabled": 0, "fusion_lon": 0.0, "fusion_lat": 0.0, "lon": -77.0392135, "is_reserved": 0, "rental_uris": {"android": "https://dc.lft.to/lastmile_qr_scan", "ios": "https://dc.lft.to/lastmile_qr_scan"}, "bike_id": "d56dc4d2f140f9e1f0f2b25f3cbf6eae"}, {"name": "5bf6c769e7761d78d0e20ffe1006729a", "lat": 38.95247716666667, "type": "electric_scooter", "is_disabled": 0, "fusion_lon": 0.0, "fusion_lat": 0.0, "lon": -77.00792966666667, "is_reserved": 0, "rental_uris": {"android": "https://dc.lft.to/lastmile_qr_scan", "ios": "https://dc.lft.to/lastmile_qr_scan"}, "bike_id": "5bf6c769e7761d78d0e20ffe1006729a"}, {"name": "17e2010f19cdf269dfa6dc28a8b9a347", "lat": 38.924754166666666, "type": "electric_scooter", "is_disabled": 0, "fusion_lon": 0.0, "fusion_lat": 0.0, "lon": -77.02231233333333, "is_reserved": 0, "rental_uris": {"android": "https://dc.lft.to/lastmile_qr_scan", "ios": "https://dc.lft.to/lastmile_qr_scan"}, "bike_id": "17e2010f19cdf269dfa6dc28a8b9a347"}, {"name": "c8f53f3224a999d49974e972bbe8a13f", "lat": 38.903601333333334, "type": "electric_scooter", "is_disabled": 0, "fusion_lon": 0.0, "fusion_lat": 0.0, "lon": -77.04512966666667, "is_reserved": 0, "rental_uris": {"android": "https://dc.lft.to/lastmile_qr_scan", "ios": "https://dc.lft.to/lastmile_qr_scan"}, "bike_id": "c8f53f3224a999d49974e972bbe8a13f"}, {"name": "dd08445c7e0e460219e25e371040f555", "lat": 38.903160166666666, "type": "electric_scooter", "is_disabled": 0, "fusion_lon": 0.0, "fusion_lat": 0.0, "lon": -76.9925725, "is_reserved": 0, "rental_uris": {"android": "https://dc.lft.to/lastmile_qr_scan", "ios": "https://dc.lft.to/lastmile_qr_scan"}, "bike_id": "dd08445c7e0e460219e25e371040f555"}, {"name": "eb3ccb5f038c920b44cccf56c32c65d3", "lat": 38.87538166666667, "type": "electric_scooter", "is_disabled": 0, "fusion_lon": 0.0, "fusion_lat": 0.0, "lon": -77.00599966666667, "is_reserved": 0, "rental_uris": {"android": "https://dc.lft.to/lastmile_qr_scan", "ios": "https://dc.lft.to/lastmile_qr_scan"}, "bike_id": "eb3ccb5f038c920b44cccf56c32c65d3"}, {"name": "4b286592c9c7396a5020fc73d1637dc1", "lat": 38.80738083333333, "type": "electric_bike", "is_disabled": 0, "fusion_lon": 0.0, "fusion_lat": 0.0, "lon": -77.0968715, "is_reserved": 0, "rental_uris": {"android": "https://dc.lft.to/lastmile_qr_scan", "ios": "https://dc.lft.to/lastmile_qr_scan"}, "bike_id": "4b286592c9c7396a5020fc73d1637dc1"}, {"name": "50938d47f0ada46d39fb28b89a63e714", "lat": 38.925337166666665, "type": "electric_scooter", "is_disabled": 0, "fusion_lon": 0.0, "fusion_lat": 0.0, "lon": -77.03392233333334, "is_reserved": 0, "rental_uris": {"android": "https://dc.lft.to/lastmile_qr_scan", "ios": "https://dc.lft.to/lastmile_qr_scan"}, "bike_id": "50938d47f0ada46d39fb28b89a63e714"}, {"name": "515ef9708292b8425c42e6c2636923f7", "lat": 38.9211535, "type": "electric_scooter", "is_disabled": 0, "fusion_lon": 0.0, "fusion_lat": 0.0, "lon": -77.021331, "is_reserved": 0, "rental_uris": {"android": "https://dc.lft.to/lastmile_qr_scan", "ios": "https://dc.lft.to/lastmile_qr_scan"}, "bike_id": "515ef9708292b8425c42e6c2636923f7"}, {"name": "b4b604b3280c4139e782c304bcf49398", "lat": 38.90051716666667, "type": "electric_scooter", "is_disabled": 0, "fusion_lon": 0.0, "fusion_lat": 0.0, "lon": -76.98509983333334, "is_reserved": 0, "rental_uris": {"android": "https://dc.lft.to/lastmile_qr_scan", "ios": "https://dc.lft.to/lastmile_qr_scan"}, "bike_id": "b4b604b3280c4139e782c304bcf49398"}, {"name": "eba0c24d652e4f60fbd60a38fc3dcd85", "lat": 38.9024755, "type": "electric_scooter", "is_disabled": 0, "fusion_lon": 0.0, "fusion_lat": 0.0, "lon": -77.038653, "is_reserved": 0, "rental_uris": {"android": "https://dc.lft.to/lastmile_qr_scan", "ios": "https://dc.lft.to/lastmile_qr_scan"}, "bike_id": "eba0c24d652e4f60fbd60a38fc3dcd85"}, {"name": "799307b238acf31887beec59e9144b08", "lat": 38.923603166666666, "type": "electric_scooter", "is_disabled": 0, "fusion_lon": 0.0, "fusion_lat": 0.0, "lon": -77.03400866666667, "is_reserved": 0, "rental_uris": {"android": "https://dc.lft.to/lastmile_qr_scan", "ios": "https://dc.lft.to/lastmile_qr_scan"}, "bike_id": "799307b238acf31887beec59e9144b08"}, {"name": "0e4414d4cfc52f221b71cbd4d7bcc204", "lat": 38.915726666666664, "type": "electric_scooter", "is_disabled": 0, "fusion_lon": 0.0, "fusion_lat": 0.0, "lon": -77.03464016666666, "is_reserved": 0, "rental_uris": {"android": "https://dc.lft.to/lastmile_qr_scan", "ios": "https://dc.lft.to/lastmile_qr_scan"}, "bike_id": "0e4414d4cfc52f221b71cbd4d7bcc204"}, {"name": "01c6ebc77e1eadcb39640c9c8412f041", "lat": 38.872758833333336, "type": "electric_scooter", "is_disabled": 0, "fusion_lon": 0.0, "fusion_lat": 0.0, "lon": -77.01517283333334, "is_reserved": 0, "rental_uris": {"android": "https://dc.lft.to/lastmile_qr_scan", "ios": "https://dc.lft.to/lastmile_qr_scan"}, "bike_id": "01c6ebc77e1eadcb39640c9c8412f041"}, {"name": "04e15c5b2986d52b5f88d933c0bd6a3d", "lat": 38.94411916666667, "type": "electric_scooter", "is_disabled": 0, "fusion_lon": 0.0, "fusion_lat": 0.0, "lon": -77.01901533333333, "is_reserved": 0, "rental_uris": {"android": "https://dc.lft.to/lastmile_qr_scan", "ios": "https://dc.lft.to/lastmile_qr_scan"}, "bike_id": "04e15c5b2986d52b5f88d933c0bd6a3d"}, {"name": "1e14f2cbb04a18266017fcbad7a47978", "lat": 38.89286116666667, "type": "electric_scooter", "is_disabled": 0, "fusion_lon": 0.0, "fusion_lat": 0.0, "lon": -77.0504625, "is_reserved": 0, "rental_uris": {"android": "https://dc.lft.to/lastmile_qr_scan", "ios": "https://dc.lft.to/lastmile_qr_scan"}, "bike_id": "1e14f2cbb04a18266017fcbad7a47978"}, {"name": "c5669520767b9e72d93af884f1228da7", "lat": 38.89800433333333, "type": "electric_scooter", "is_disabled": 0, "fusion_lon": 0.0, "fusion_lat": 0.0, "lon": -77.046189, "is_reserved": 0, "rental_uris": {"android": "https://dc.lft.to/lastmile_qr_scan", "ios": "https://dc.lft.to/lastmile_qr_scan"}, "bike_id": "c5669520767b9e72d93af884f1228da7"}, {"name": "a3b1b6e5dce93c47ec61bdbdbd06a769", "lat": 38.91295983333333, "type": "electric_scooter", "is_disabled": 0, "fusion_lon": 0.0, "fusion_lat": 0.0, "lon": -77.03835133333334, "is_reserved": 0, "rental_uris": {"android": "https://dc.lft.to/lastmile_qr_scan", "ios": "https://dc.lft.to/lastmile_qr_scan"}, "bike_id": "a3b1b6e5dce93c47ec61bdbdbd06a769"}, {"name": "f7f68574fed5336fda118be2ed9afe2d", "lat": 38.89500116666667, "type": "electric_scooter", "is_disabled": 0, "fusion_lon": 0.0, "fusion_lat": 0.0, "lon": -76.94874083333333, "is_reserved": 0, "rental_uris": {"android": "https://dc.lft.to/lastmile_qr_scan", "ios": "https://dc.lft.to/lastmile_qr_scan"}, "bike_id": "f7f68574fed5336fda118be2ed9afe2d"}, {"name": "0de7c2b7e49ded417adf8a33318474ce", "lat": 38.924381, "type": "electric_scooter", "is_disabled": 0, "fusion_lon": 0.0, "fusion_lat": 0.0, "lon": -77.0194955, "is_reserved": 0, "rental_uris": {"android": "https://dc.lft.to/lastmile_qr_scan", "ios": "https://dc.lft.to/lastmile_qr_scan"}, "bike_id": "0de7c2b7e49ded417adf8a33318474ce"}, {"name": "13e13e02a17a412fd38397e610ec2c23", "lat": 38.920587833333336, "type": "electric_scooter", "is_disabled": 0, "fusion_lon": 0.0, "fusion_lat": 0.0, "lon": -77.042354, "is_reserved": 0, "rental_uris": {"android": "https://dc.lft.to/lastmile_qr_scan", "ios": "https://dc.lft.to/lastmile_qr_scan"}, "bike_id": "13e13e02a17a412fd38397e610ec2c23"}, {"name": "73f950ab99d15ceb9b9c38971115fd7d", "lat": 38.917085, "type": "electric_scooter", "is_disabled": 0, "fusion_lon": 0.0, "fusion_lat": 0.0, "lon": -77.03871916666667, "is_reserved": 0, "rental_uris": {"android": "https://dc.lft.to/lastmile_qr_scan", "ios": "https://dc.lft.to/lastmile_qr_scan"}, "bike_id": "73f950ab99d15ceb9b9c38971115fd7d"}, {"name": "a1e1d8624f4dfee8403a260c9d9307ca", "lat": 38.87171933333333, "type": "electric_bike", "is_disabled": 0, "fusion_lon": 0.0, "fusion_lat": 0.0, "lon": -77.23386566666667, "is_reserved": 0, "rental_uris": {"android": "https://dc.lft.to/lastmile_qr_scan", "ios": "https://dc.lft.to/lastmile_qr_scan"}, "bike_id": "a1e1d8624f4dfee8403a260c9d9307ca"}, {"name": "7b852e5252e84e10b1234e89089be3ba", "lat": 38.92176383333333, "type": "electric_scooter", "is_disabled": 0, "fusion_lon": 0.0, "fusion_lat": 0.0, "lon": -77.0352495, "is_reserved": 0, "rental_uris": {"android": "https://dc.lft.to/lastmile_qr_scan", "ios": "https://dc.lft.to/lastmile_qr_scan"}, "bike_id": "7b852e5252e84e10b1234e89089be3ba"}, {"name": "b9f66f0c20f3c3a6cdc7dd4dcb332a50", "lat": 38.919085, "type": "electric_scooter", "is_disabled": 0, "fusion_lon": 0.0, "fusion_lat": 0.0, "lon": -77.0213195, "is_reserved": 0, "rental_uris": {"android": "https://dc.lft.to/lastmile_qr_scan", "ios": "https://dc.lft.to/lastmile_qr_scan"}, "bike_id": "b9f66f0c20f3c3a6cdc7dd4dcb332a50"}, {"name": "e19bbcab9c08bd73b4623e983fd2c576", "lat": 38.899867666666665, "type": "electric_scooter", "is_disabled": 0, "fusion_lon": 0.0, "fusion_lat": 0.0, "lon": -77.02812366666667, "is_reserved": 0, "rental_uris": {"android": "https://dc.lft.to/lastmile_qr_scan", "ios": "https://dc.lft.to/lastmile_qr_scan"}, "bike_id": "e19bbcab9c08bd73b4623e983fd2c576"}, {"name": "b08f37fa55e1f565cc5f3538f05a0499", "lat": 38.906187333333335, "type": "electric_scooter", "is_disabled": 0, "fusion_lon": 0.0, "fusion_lat": 0.0, "lon": -76.99325483333334, "is_reserved": 0, "rental_uris": {"android": "https://dc.lft.to/lastmile_qr_scan", "ios": "https://dc.lft.to/lastmile_qr_scan"}, "bike_id": "b08f37fa55e1f565cc5f3538f05a0499"}, {"name": "0ed9add11a7e3817bf9a21a28cb5b8f3", "lat": 38.923604, "type": "electric_scooter", "is_disabled": 0, "fusion_lon": 0.0, "fusion_lat": 0.0, "lon": -77.02057833333333, "is_reserved": 0, "rental_uris": {"android": "https://dc.lft.to/lastmile_qr_scan", "ios": "https://dc.lft.to/lastmile_qr_scan"}, "bike_id": "0ed9add11a7e3817bf9a21a28cb5b8f3"}, {"name": "3b09c0cbe58b2daba05a564350e3e18a", "lat": 38.90526783333333, "type": "electric_scooter", "is_disabled": 0, "fusion_lon": 0.0, "fusion_lat": 0.0, "lon": -77.043299, "is_reserved": 0, "rental_uris": {"android": "https://dc.lft.to/lastmile_qr_scan", "ios": "https://dc.lft.to/lastmile_qr_scan"}, "bike_id": "3b09c0cbe58b2daba05a564350e3e18a"}, {"name": "35f6beac6e7e479fb6f091f8ffd140e0", "lat": 38.8634535, "type": "electric_bike", "is_disabled": 0, "fusion_lon": 0.0, "fusion_lat": 0.0, "lon": -77.08414266666666, "is_reserved": 0, "rental_uris": {"android": "https://dc.lft.to/lastmile_qr_scan", "ios": "https://dc.lft.to/lastmile_qr_scan"}, "bike_id": "35f6beac6e7e479fb6f091f8ffd140e0"}, {"name": "0c3242827a35a9a7793c4c5b82dc5368", "lat": 38.92688833333333, "type": "electric_scooter", "is_disabled": 0, "fusion_lon": 0.0, "fusion_lat": 0.0, "lon": -77.02570566666667, "is_reserved": 0, "rental_uris": {"android": "https://dc.lft.to/lastmile_qr_scan", "ios": "https://dc.lft.to/lastmile_qr_scan"}, "bike_id": "0c3242827a35a9a7793c4c5b82dc5368"}, {"name": "780a65d740cbb8196a094010c273acdb", "lat": 38.89810216666667, "type": "electric_scooter", "is_disabled": 0, "fusion_lon": 0.0, "fusion_lat": 0.0, "lon": -77.02387116666667, "is_reserved": 0, "rental_uris": {"android": "https://dc.lft.to/lastmile_qr_scan", "ios": "https://dc.lft.to/lastmile_qr_scan"}, "bike_id": "780a65d740cbb8196a094010c273acdb"}, {"name": "63e73dfeb270d3552d3c1d9b78fef5a9", "lat": 38.9351665, "type": "electric_scooter", "is_disabled": 0, "fusion_lon": 0.0, "fusion_lat": 0.0, "lon": -77.02549666666667, "is_reserved": 0, "rental_uris": {"android": "https://dc.lft.to/lastmile_qr_scan", "ios": "https://dc.lft.to/lastmile_qr_scan"}, "bike_id": "63e73dfeb270d3552d3c1d9b78fef5a9"}, {"name": "3eee65f648fa7133b503a15c4e0cbdbc", "lat": 38.92358316666667, "type": "electric_scooter", "is_disabled": 0, "fusion_lon": 0.0, "fusion_lat": 0.0, "lon": -77.02054033333333, "is_reserved": 0, "rental_uris": {"android": "https://dc.lft.to/lastmile_qr_scan", "ios": "https://dc.lft.to/lastmile_qr_scan"}, "bike_id": "3eee65f648fa7133b503a15c4e0cbdbc"}, {"name": "844c44997b7bf008d922ad13c72d21b4", "lat": 38.88336783333333, "type": "electric_scooter", "is_disabled": 0, "fusion_lon": 0.0, "fusion_lat": 0.0, "lon": -77.02170216666667, "is_reserved": 0, "rental_uris": {"android": "https://dc.lft.to/lastmile_qr_scan", "ios": "https://dc.lft.to/lastmile_qr_scan"}, "bike_id": "844c44997b7bf008d922ad13c72d21b4"}, {"name": "1e0aa3c80ec110c679a3bab87d86a4fc", "lat": 38.92247716666667, "type": "electric_scooter", "is_disabled": 0, "fusion_lon": 0.0, "fusion_lat": 0.0, "lon": -77.01951383333333, "is_reserved": 0, "rental_uris": {"android": "https://dc.lft.to/lastmile_qr_scan", "ios": "https://dc.lft.to/lastmile_qr_scan"}, "bike_id": "1e0aa3c80ec110c679a3bab87d86a4fc"}, {"name": "3375ff58ca2ab12d371f14515ccf3bbd", "lat": 38.904646666666665, "type": "electric_scooter", "is_disabled": 0, "fusion_lon": 0.0, "fusion_lat": 0.0, "lon": -77.04183083333334, "is_reserved": 0, "rental_uris": {"android": "https://dc.lft.to/lastmile_qr_scan", "ios": "https://dc.lft.to/lastmile_qr_scan"}, "bike_id": "3375ff58ca2ab12d371f14515ccf3bbd"}, {"name": "005dba5c5807952206541d9d3147bfc7", "lat": 38.888827666666664, "type": "electric_scooter", "is_disabled": 0, "fusion_lon": 0.0, "fusion_lat": 0.0, "lon": -77.01969166666667, "is_reserved": 0, "rental_uris": {"android": "https://dc.lft.to/lastmile_qr_scan", "ios": "https://dc.lft.to/lastmile_qr_scan"}, "bike_id": "005dba5c5807952206541d9d3147bfc7"}, {"name": "fcc9d168fb2e694d14a8d8fe1fe91ef1", "lat": 38.9173845, "type": "electric_scooter", "is_disabled": 0, "fusion_lon": 0.0, "fusion_lat": 0.0, "lon": -77.03179516666667, "is_reserved": 0, "rental_uris": {"android": "https://dc.lft.to/lastmile_qr_scan", "ios": "https://dc.lft.to/lastmile_qr_scan"}, "bike_id": "fcc9d168fb2e694d14a8d8fe1fe91ef1"}, {"name": "b09e986659d46febbb0f9b029895d541", "lat": 38.89811366666667, "type": "electric_scooter", "is_disabled": 0, "fusion_lon": 0.0, "fusion_lat": 0.0, "lon": -77.01357983333334, "is_reserved": 0, "rental_uris": {"android": "https://dc.lft.to/lastmile_qr_scan", "ios": "https://dc.lft.to/lastmile_qr_scan"}, "bike_id": "b09e986659d46febbb0f9b029895d541"}, {"name": "dc2990bc5d96403af18985d24027ce85", "lat": 38.91690966666667, "type": "electric_scooter", "is_disabled": 0, "fusion_lon": 0.0, "fusion_lat": 0.0, "lon": -77.0294965, "is_reserved": 0, "rental_uris": {"android": "https://dc.lft.to/lastmile_qr_scan", "ios": "https://dc.lft.to/lastmile_qr_scan"}, "bike_id": "dc2990bc5d96403af18985d24027ce85"}, {"name": "4c7da857ab5c3a6355b7287a9b1a131d", "lat": 38.918748, "type": "electric_scooter", "is_disabled": 0, "fusion_lon": 0.0, "fusion_lat": 0.0, "lon": -77.04310683333334, "is_reserved": 0, "rental_uris": {"android": "https://dc.lft.to/lastmile_qr_scan", "ios": "https://dc.lft.to/lastmile_qr_scan"}, "bike_id": "4c7da857ab5c3a6355b7287a9b1a131d"}, {"name": "ccc894c6ff510da1fdf14c06eeae8947", "lat": 38.90145316666667, "type": "electric_scooter", "is_disabled": 0, "fusion_lon": 0.0, "fusion_lat": 0.0, "lon": -77.04323183333334, "is_reserved": 0, "rental_uris": {"android": "https://dc.lft.to/lastmile_qr_scan", "ios": "https://dc.lft.to/lastmile_qr_scan"}, "bike_id": "ccc894c6ff510da1fdf14c06eeae8947"}, {"name": "5847973c029f4cfadec78f41453ca3c8", "lat": 38.882014166666664, "type": "electric_scooter", "is_disabled": 0, "fusion_lon": 0.0, "fusion_lat": 0.0, "lon": -76.99377733333333, "is_reserved": 0, "rental_uris": {"android": "https://dc.lft.to/lastmile_qr_scan", "ios": "https://dc.lft.to/lastmile_qr_scan"}, "bike_id": "5847973c029f4cfadec78f41453ca3c8"}, {"name": "bc1fb66d691dda8e61cce9ee31648fbc", "lat": 38.8935935, "type": "electric_scooter", "is_disabled": 0, "fusion_lon": 0.0, "fusion_lat": 0.0, "lon": -77.0034145, "is_reserved": 0, "rental_uris": {"android": "https://dc.lft.to/lastmile_qr_scan", "ios": "https://dc.lft.to/lastmile_qr_scan"}, "bike_id": "bc1fb66d691dda8e61cce9ee31648fbc"}, {"name": "096e018429eb55466dcd2a0484f56f17", "lat": 38.91425383333333, "type": "electric_scooter", "is_disabled": 0, "fusion_lon": 0.0, "fusion_lat": 0.0, "lon": -77.02810016666666, "is_reserved": 0, "rental_uris": {"android": "https://dc.lft.to/lastmile_qr_scan", "ios": "https://dc.lft.to/lastmile_qr_scan"}, "bike_id": "096e018429eb55466dcd2a0484f56f17"}, {"name": "06ba8fb07132d5cef0d8dfd2d4783969", "lat": 38.916900166666665, "type": "electric_scooter", "is_disabled": 0, "fusion_lon": 0.0, "fusion_lat": 0.0, "lon": -77.04603166666666, "is_reserved": 0, "rental_uris": {"android": "https://dc.lft.to/lastmile_qr_scan", "ios": "https://dc.lft.to/lastmile_qr_scan"}, "bike_id": "06ba8fb07132d5cef0d8dfd2d4783969"}, {"name": "965a9f523722b8fd84846322509c9494", "lat": 38.89648833333333, "type": "electric_scooter", "is_disabled": 0, "fusion_lon": 0.0, "fusion_lat": 0.0, "lon": -77.03376033333333, "is_reserved": 0, "rental_uris": {"android": "https://dc.lft.to/lastmile_qr_scan", "ios": "https://dc.lft.to/lastmile_qr_scan"}, "bike_id": "965a9f523722b8fd84846322509c9494"}, {"name": "cfec300f2ff48f5c1802915cd62a187a", "lat": 38.90042233333333, "type": "electric_scooter", "is_disabled": 0, "fusion_lon": 0.0, "fusion_lat": 0.0, "lon": -77.04867966666667, "is_reserved": 0, "rental_uris": {"android": "https://dc.lft.to/lastmile_qr_scan", "ios": "https://dc.lft.to/lastmile_qr_scan"}, "bike_id": "cfec300f2ff48f5c1802915cd62a187a"}, {"name": "d402147f5c5555390fca4d6ba9bf4d4f", "lat": 38.934040333333336, "type": "electric_scooter", "is_disabled": 0, "fusion_lon": 0.0, "fusion_lat": 0.0, "lon": -77.03987016666666, "is_reserved": 0, "rental_uris": {"android": "https://dc.lft.to/lastmile_qr_scan", "ios": "https://dc.lft.to/lastmile_qr_scan"}, "bike_id": "d402147f5c5555390fca4d6ba9bf4d4f"}, {"name": "201893a8400e7db3c799a02623d62058", "lat": 38.9359565, "type": "electric_bike", "is_disabled": 0, "fusion_lon": 0.0, "fusion_lat": 0.0, "lon": -77.0263555, "is_reserved": 0, "rental_uris": {"android": "https://dc.lft.to/lastmile_qr_scan", "ios": "https://dc.lft.to/lastmile_qr_scan"}, "bike_id": "201893a8400e7db3c799a02623d62058"}, {"name": "83340a62417b2f0c963e54c9a0fa72f6", "lat": 38.917063, "type": "electric_scooter", "is_disabled": 0, "fusion_lon": 0.0, "fusion_lat": 0.0, "lon": -77.03870366666666, "is_reserved": 0, "rental_uris": {"android": "https://dc.lft.to/lastmile_qr_scan", "ios": "https://dc.lft.to/lastmile_qr_scan"}, "bike_id": "83340a62417b2f0c963e54c9a0fa72f6"}, {"name": "f92123e018bdd44d58e13f57660ecd20", "lat": 38.90632016666667, "type": "electric_scooter", "is_disabled": 0, "fusion_lon": 0.0, "fusion_lat": 0.0, "lon": -77.03872233333334, "is_reserved": 0, "rental_uris": {"android": "https://dc.lft.to/lastmile_qr_scan", "ios": "https://dc.lft.to/lastmile_qr_scan"}, "bike_id": "f92123e018bdd44d58e13f57660ecd20"}, {"name": "797553afacd431e55ea9da7023903895", "lat": 38.95735466666667, "type": "electric_scooter", "is_disabled": 0, "fusion_lon": 0.0, "fusion_lat": 0.0, "lon": -77.0233905, "is_reserved": 0, "rental_uris": {"android": "https://dc.lft.to/lastmile_qr_scan", "ios": "https://dc.lft.to/lastmile_qr_scan"}, "bike_id": "797553afacd431e55ea9da7023903895"}, {"name": "47130181f447f47a36101fe1cf551fdb", "lat": 38.91660016666667, "type": "electric_scooter", "is_disabled": 0, "fusion_lon": 0.0, "fusion_lat": 0.0, "lon": -77.02196216666667, "is_reserved": 0, "rental_uris": {"android": "https://dc.lft.to/lastmile_qr_scan", "ios": "https://dc.lft.to/lastmile_qr_scan"}, "bike_id": "47130181f447f47a36101fe1cf551fdb"}, {"name": "4a09e176a06e932ff96cf85d3dba05dc", "lat": 38.904771333333336, "type": "electric_scooter", "is_disabled": 0, "fusion_lon": 0.0, "fusion_lat": 0.0, "lon": -77.0213735, "is_reserved": 0, "rental_uris": {"android": "https://dc.lft.to/lastmile_qr_scan", "ios": "https://dc.lft.to/lastmile_qr_scan"}, "bike_id": "4a09e176a06e932ff96cf85d3dba05dc"}, {"name": "02f97e1c773c2bcc43e0268e7bbbf668", "lat": 38.906424666666666, "type": "electric_scooter", "is_disabled": 0, "fusion_lon": 0.0, "fusion_lat": 0.0, "lon": -77.051296, "is_reserved": 0, "rental_uris": {"android": "https://dc.lft.to/lastmile_qr_scan", "ios": "https://dc.lft.to/lastmile_qr_scan"}, "bike_id": "02f97e1c773c2bcc43e0268e7bbbf668"}, {"name": "462a11ae86887a78720e0e0400b4217a", "lat": 38.85827483333333, "type": "electric_scooter", "is_disabled": 0, "fusion_lon": 0.0, "fusion_lat": 0.0, "lon": -76.99009283333334, "is_reserved": 0, "rental_uris": {"android": "https://dc.lft.to/lastmile_qr_scan", "ios": "https://dc.lft.to/lastmile_qr_scan"}, "bike_id": "462a11ae86887a78720e0e0400b4217a"}, {"name": "6b724c082718ee3e248b78c2124d66d4", "lat": 38.949806833333334, "type": "electric_scooter", "is_disabled": 0, "fusion_lon": 0.0, "fusion_lat": 0.0, "lon": -77.026964, "is_reserved": 0, "rental_uris": {"android": "https://dc.lft.to/lastmile_qr_scan", "ios": "https://dc.lft.to/lastmile_qr_scan"}, "bike_id": "6b724c082718ee3e248b78c2124d66d4"}, {"name": "b895a6e00f33e6f8f13dfc1d8ce8a8cd", "lat": 38.91658433333333, "type": "electric_scooter", "is_disabled": 0, "fusion_lon": 0.0, "fusion_lat": 0.0, "lon": -77.04200516666667, "is_reserved": 0, "rental_uris": {"android": "https://dc.lft.to/lastmile_qr_scan", "ios": "https://dc.lft.to/lastmile_qr_scan"}, "bike_id": "b895a6e00f33e6f8f13dfc1d8ce8a8cd"}, {"name": "f32eeac0419aee67676fbfb30ebb2a7d", "lat": 38.911750833333336, "type": "electric_scooter", "is_disabled": 0, "fusion_lon": 0.0, "fusion_lat": 0.0, "lon": -77.023359, "is_reserved": 0, "rental_uris": {"android": "https://dc.lft.to/lastmile_qr_scan", "ios": "https://dc.lft.to/lastmile_qr_scan"}, "bike_id": "f32eeac0419aee67676fbfb30ebb2a7d"}, {"name": "df9cd9575185a5bc3fb2cdfc6753513d", "lat": 38.94287633333333, "type": "electric_scooter", "is_disabled": 0, "fusion_lon": 0.0, "fusion_lat": 0.0, "lon": -77.03619, "is_reserved": 0, "rental_uris": {"android": "https://dc.lft.to/lastmile_qr_scan", "ios": "https://dc.lft.to/lastmile_qr_scan"}, "bike_id": "df9cd9575185a5bc3fb2cdfc6753513d"}, {"name": "705b406ba8d27a8edd6014ee4f5d5759", "lat": 38.92713966666667, "type": "electric_scooter", "is_disabled": 0, "fusion_lon": 0.0, "fusion_lat": 0.0, "lon": -77.02077983333334, "is_reserved": 0, "rental_uris": {"android": "https://dc.lft.to/lastmile_qr_scan", "ios": "https://dc.lft.to/lastmile_qr_scan"}, "bike_id": "705b406ba8d27a8edd6014ee4f5d5759"}, {"name": "c9a15f2156ef81708fafda4a638bcba8", "lat": 38.9053755, "type": "electric_scooter", "is_disabled": 0, "fusion_lon": 0.0, "fusion_lat": 0.0, "lon": -77.02202033333333, "is_reserved": 0, "rental_uris": {"android": "https://dc.lft.to/lastmile_qr_scan", "ios": "https://dc.lft.to/lastmile_qr_scan"}, "bike_id": "c9a15f2156ef81708fafda4a638bcba8"},