{"data": {"bikes": [{"lat": 38.902675, "is_disabled": 0, "type": "electric_scooter", "lon": -77.0282555, "bike_id": "58652da23dae59e153fb1fc0f2d881ce", "fusion_lat": 0.0, "name": "58652da23dae59e153fb1fc0f2d881ce", "is_reserved": 0, "rental_uris": {"android": "https://dc.lft.to/lastmile_qr_scan", "ios": "https://dc.lft.to/lastmile_qr_scan"}, "fusion_lon": 0.0}, {"lat": 38.855645833333334, "is_disabled": 0, "type": "electric_bike", "lon": -77.11141616666667, "bike_id": "ae8a8bc2083cc0e119de630e1f5f7f72", "fusion_lat": 0.0, "name": "ae8a8bc2083cc0e119de630e1f5f7f72", "is_reserved": 0, "rental_uris": {"android": "https://dc.lft.to/lastmile_qr_scan", "ios": "https://dc.lft.to/lastmile_qr_scan"}, "fusion_lon": 0.0}, {"lat": 38.9332455, "is_disabled": 0, "type": "electric_scooter", "lon": -77.04366633333333, "bike_id": "5b0d20a7c6a3688e18a046dc9ae568bc", "fusion_lat": 0.0, "name": "5b0d20a7c6a3688e18a046dc9ae568bc", "is_reserved": 0, "rental_uris": {"android": "https://dc.lft.to/lastmile_qr_scan", "ios": "https://dc.lft.to/lastmile_qr_scan"}, "fusion_lon": 0.0}, {"lat": 38.89843583333333, "is_disabled": 0, "type": "electric_scooter", "lon": -77.03026616666666, "bike_id": "2bc96dddb34b36a8d8e221be633534b7", "fusion_lat": 0.0, "name": "2bc96dddb34b36a8d8e221be633534b7", "is_reserved": 0, "rental_uris": {"android": "https://dc.lft.to/lastmile_qr_scan", "ios": "https://dc.lft.to/lastmile_qr_scan"}, "fusion_lon": 0.0}, {"lat": 38.91718866666667, "is_disabled": 0, "type": "electric_scooter", "lon": -77.04586133333333, "bike_id": "bbc977488b8b0b17fa28c20f47be6088", "fusion_lat": 0.0, "name": "bbc977488b8b0b17fa28c20f47be6088", "is_reserved": 0, "rental_uris": {"android": "https://dc.lft.to/lastmile_qr_scan", "ios": "https://dc.lft.to/lastmile_qr_scan"}, "fusion_lon": 0.0}, {"lat": 38.919538333333335, "is_disabled": 0, "type": "electric_scooter", "lon": -76.980809, "bike_id": "ec37d7d4801363c72000ef58286f70f1", "fusion_lat": 0.0, "name": "ec37d7d4801363c72000ef58286f70f1", "is_reserved": 0, "rental_uris": {"android": "https://dc.lft.to/lastmile_qr_scan", "ios": "https://dc.lft.to/lastmile_qr_scan"}, "fusion_lon": 0.0}, {"lat": 38.9119315, "is_disabled": 0, "type": "electric_scooter", "lon": -77.00217833333333, "bike_id": "ec39e8742cac6ce848dfc3c98886abb4", "fusion_lat": 0.0, "name": "ec39e8742cac6ce848dfc3c98886abb4", "is_reserved": 0, "rental_uris": {"android": "https://dc.lft.to/lastmile_qr_scan", "ios": "https://dc.lft.to/lastmile_qr_scan"}, "fusion_lon": 0.0}, {"lat": 38.842695, "is_disabled": 0, "type": "electric_bike", "lon": -76.98840333333334, "bike_id": "33f5e5f47ff91ddd06230ff8df3c1c1f", "fusion_lat": 0.0, "name": "33f5e5f47ff91ddd06230ff8df3c1c1f", "is_reserved": 0, "rental_uris": {"android": "https://dc.lft.to/lastmile_qr_scan", "ios": "https://dc.lft.to/lastmile_qr_scan"}, "fusion_lon": 0.0}, {"lat": 38.887641333333335, "is_disabled": 0, "type": "electric_scooter", "lon": -76.95600366666666, "bike_id": "bab8901dd442465f5c8e364697d497e4", "fusion_lat": 0.0, "name": "bab8901dd442465f5c8e364697d497e4", "is_reserved": 0, "rental_uris": {"android": "https://dc.lft.to/lastmile_qr_scan", "ios": "https://dc.lft.to/lastmile_qr_scan"}, "fusion_lon": 0.0}, {"lat": 38.866241333333335, "is_disabled": 0, "type": "electric_scooter", "lon": -76.98699766666667, "bike_id": "20c160e9ae9169df825594be7c7734a1", "fusion_lat": 0.0, "name": "20c160e9ae9169df825594be7c7734a1", "is_reserved": 0, "rental_uris": {"android": "https://dc.lft.to/lastmile_qr_scan", "ios": "https://dc.lft.to/lastmile_qr_scan"}, "fusion_lon": 0.0}, {"lat": 38.884870166666666, "is_disabled": 0, "type": "electric_scooter", "lon": -77.007147, "bike_id": "edcbc48377aa0304465f33f18c081cd5", "fusion_lat": 0.0, "name": "edcbc48377aa0304465f33f18c081cd5", "is_reserved": 0, "rental_uris": {"android": "https://dc.lft.to/lastmile_qr_scan", "ios": "https://dc.lft.to/lastmile_qr_scan"}, "fusion_lon": 0.0}, {"lat": 38.905517, "is_disabled": 0, "type": "electric_scooter", "lon": -77.04680633333334, "bike_id": "1b6b4dea92f6e39d0395a557790e6b64", "fusion_lat": 0.0, "name": "1b6b4dea92f6e39d0395a557790e6b64", "is_reserved": 0, "rental_uris": {"android": "https://dc.lft.to/lastmile_qr_scan", "ios": "https://dc.lft.to/lastmile_qr_scan"}, "fusion_lon": 0.0}, {"lat": 38.87577066666667, "is_disabled": 0, "type": "electric_bike", "lon": -77.10566833333333, "bike_id": "8ced97b6322d5894ac8e5832eb2761ab", "fusion_lat": 0.0, "name": "8ced97b6322d5894ac8e5832eb2761ab", "is_reserved": 0, "rental_uris": {"android": "https://dc.lft.to/lastmile_qr_scan", "ios": "https://dc.lft.to/lastmile_qr_scan"}, "fusion_lon": 0.0}, {"lat": 38.934773166666666, "is_disabled": 0, "type": "electric_scooter", "lon": -77.035808, "bike_id": "f221540893f50c135a088238d8c50bd4", "fusion_lat": 0.0, "name": "f221540893f50c135a088238d8c50bd4", "is_reserved": 0, "rental_uris": {"android": "https://dc.lft.to/lastmile_qr_scan", "ios": "https://dc.lft.to/lastmile_qr_scan"}, "fusion_lon": 0.0}, {"lat": 38.842989, "is_disabled": 0, "type": "electric_scooter", "lon": -76.99942816666666, "bike_id": "ebf064608beff6be1ef980ad9e4b23e6", "fusion_lat": 0.0, "name": "ebf064608beff6be1ef980ad9e4b23e6", "is_reserved": 0, "rental_uris": {"android": "https://dc.lft.to/lastmile_qr_scan", "ios": "https://dc.lft.to/lastmile_qr_scan"}, "fusion_lon": 0.0}, {"lat": 38.93234233333333, "is_disabled": 0, "type": "electric_scooter", "lon": -76.9960195, "bike_id": "6aa2b6ec9bd6046e9ba78a2fbbf97e6f", "fusion_lat": 0.0, "name": "6aa2b6ec9bd6046e9ba78a2fbbf97e6f", "is_reserved": 0, "rental_uris": {"android": "https://dc.lft.to/lastmile_qr_scan", "ios": "https://dc.lft.to/lastmile_qr_scan"}, "fusion_lon": 0.0}, {"lat": 38.94289066666666, "is_disabled": 0, "type": "electric_scooter", "lon": -77.02174683333334, "bike_id": "c9d48c924ace01a1a8f5e043aa5cdd38", "fusion_lat": 0.0, "name": "c9d48c924ace01a1a8f5e043aa5cdd38", "is_reserved": 0, "rental_uris": {"android": "https://dc.lft.to/lastmile_qr_scan", "ios": "https://dc.lft.to/lastmile_qr_scan"}, "fusion_lon": 0.0}, {"lat": 38.9010875, "is_disabled": 0, "type": "electric_scooter", "lon": -77.04994216666667, "bike_id": "f3d262f452c2249f89b9c9db60f39ef9", "fusion_lat": 0.0, "name": "f3d262f452c2249f89b9c9db60f39ef9", "is_reserved": 0, "rental_uris": {"android": "https://dc.lft.to/lastmile_qr_scan", "ios": "https://dc.lft.to/lastmile_qr_scan"}, "fusion_lon": 0.0}, {"lat": 38.90203116666667, "is_disabled": 0, "type": "electric_scooter", "lon": -77.02377383333334, "bike_id": "c7b0dc4614345fe2115f44cefde62160", "fusion_lat": 0.0, "name": "c7b0dc4614345fe2115f44cefde62160", "is_reserved": 0, "rental_uris": {"android": "https://dc.lft.to/lastmile_qr_scan", "ios": "https://dc.lft.to/lastmile_qr_scan"}, "fusion_lon": 0.0}, {"lat": 38.901283, "is_disabled": 0, "type": "electric_scooter", "lon": -77.02891816666667, "bike_id": "b20656269b0318ccf2ff22c8cab9c24d", "fusion_lat": 0.0, "name": "b20656269b0318ccf2ff22c8cab9c24d", "is_reserved": 0, "rental_uris": {"android": "https://dc.lft.to/lastmile_qr_scan", "ios": "https://dc.lft.to/lastmile_qr_scan"}, "fusion_lon": 0.0}, {"lat": 38.99816466666667, "is_disabled": 0, "type": "electric_bike", "lon": -76.883721, "bike_id": "d94e2414bf889b37f67a99aadf208bc1", "fusion_lat": 0.0, "name": "d94e2414bf889b37f67a99aadf208bc1", "is_reserved": 0, "rental_uris": {"android": "https://dc.lft.to/lastmile_qr_scan", "ios": "https://dc.lft.to/lastmile_qr_scan"}, "fusion_lon": 0.0}, {"lat": 39.030437666666664, "is_disabled": 0, "type": "electric_bike", "lon": -77.094792, "bike_id": "08a05d1a425cb709369d0a7d529554d8", "fusion_lat": 0.0, "name": "08a05d1a425cb709369d0a7d529554d8", "is_reserved": 0, "rental_uris": {"android": "https://dc.lft.to/lastmile_qr_scan", "ios": "https://dc.lft.to/lastmile_qr_scan"}, "fusion_lon": 0.0}, {"lat": 38.94981083333333, "is_disabled": 0, "type": "electric_scooter", "lon": -77.0675675, "bike_id": "2189622d345e75e0355a867a4b840a06", "fusion_lat": 0.0, "name": "2189622d345e75e0355a867a4b840a06", "is_reserved": 0, "rental_uris": {"android": "https://dc.lft.to/lastmile_qr_scan", "ios": "https://dc.lft.to/lastmile_qr_scan"}, "fusion_lon": 0.0}, {"lat": 39.024314333333336, "is_disabled": 0, "type": "electric_bike", "lon": -77.1310615, "bike_id": "5588c9ac9e4e7143910ab421f1984de7", "fusion_lat": 0.0, "name": "5588c9ac9e4e7143910ab421f1984de7", "is_reserved": 0, "rental_uris": {"android": "https://dc.lft.to/lastmile_qr_scan", "ios": "https://dc.lft.to/lastmile_qr_scan"}, "fusion_lon": 0.0}, {"lat": 38.93641133333333, "is_disabled": 0, "type": "electric_scooter", "lon": -77.03656933333333, "bike_id": "9271da999c7ce949f15e3764df402f90", "fusion_lat": 0.0, "name": "9271da999c7ce949f15e3764df402f90", "is_reserved": 0, "rental_uris": {"android": "https://dc.lft.to/lastmile_qr_scan", "ios": "https://dc.lft.to/lastmile_qr_scan"}, "fusion_lon": 0.0}, {"lat": 38.9062325, "is_disabled": 0, "type": "electric_scooter", "lon": -76.98700783333334, "bike_id": "726c1cc6cb3413806db886b4a9fa3db1", "fusion_lat": 0.0, "name": "726c1cc6cb3413806db886b4a9fa3db1", "is_reserved": 0, "rental_uris": {"android": "https://dc.lft.to/lastmile_qr_scan", "ios": "https://dc.lft.to/lastmile_qr_scan"}, "fusion_lon": 0.0}, {"lat": 38.913145, "is_disabled": 0, "type": "electric_scooter", "lon": -76.9864595, "bike_id": "56be5f79c22529cc5b91ee6991fb703d", "fusion_lat": 0.0, "name": "56be5f79c22529cc5b91ee6991fb703d", "is_reserved": 0, "rental_uris": {"android": "https://dc.lft.to/lastmile_qr_scan", "ios": "https://dc.lft.to/lastmile_qr_scan"}, "fusion_lon": 0.0}, {"lat": 38.88493783333333, "is_disabled": 0, "type": "electric_scooter", "lon": -77.00726133333333, "bike_id": "a178bcca7e999caab54baa83753d557a", "fusion_lat": 0.0, "name": "a178bcca7e999caab54baa83753d557a", "is_reserved": 0, "rental_uris": {"android": "https://dc.lft.to/lastmile_qr_scan", "ios": "https://dc.lft.to/lastmile_qr_scan"}, "fusion_lon": 0.0}, {"lat": 38.933444333333334, "is_disabled": 0, "type": "electric_scooter", "lon": -76.99309616666666, "bike_id": "bbc09b1803c6969e58b4e5ff82438ae9", "fusion_lat": 0.0, "name": "bbc09b1803c6969e58b4e5ff82438ae9", "is_reserved": 0, "rental_uris": {"android": "https://dc.lft.to/lastmile_qr_scan", "ios": "https://dc.lft.to/lastmile_qr_scan"}, "fusion_lon": 0.0}, {"lat": 38.900104166666665, "is_disabled": 0, "type": "electric_scooter", "lon": -76.92238766666667, "bike_id": "43d477891e86ece0bfa4b7f969af2f21", "fusion_lat": 0.0, "name": "43d477891e86ece0bfa4b7f969af2f21", "is_reserved": 0, "rental_uris": {"android": "https://dc.lft.to/lastmile_qr_scan", "ios": "https://dc.lft.to/lastmile_qr_scan"}, "fusion_lon": 0.0}, {"lat": 38.931398333333334, "is_disabled": 0, "type": "electric_scooter", "lon": -77.02151366666666, "bike_id": "aaed7ad923552c0435d850fa87f422fe", "fusion_lat": 0.0, "name": "aaed7ad923552c0435d850fa87f422fe", "is_reserved": 0, "rental_uris": {"android": "https://dc.lft.to/lastmile_qr_scan", "ios": "https://dc.lft.to/lastmile_qr_scan"}, "fusion_lon": 0.0}, {"lat": 38.900671833333334, "is_disabled": 0, "type": "electric_scooter", "lon": -77.026, "bike_id": "058db07123855bc76811ebc9a08ef485", "fusion_lat": 0.0, "name": "058db07123855bc76811ebc9a08ef485", "is_reserved": 0, "rental_uris": {"android": "https://dc.lft.to/lastmile_qr_scan", "ios": "https://dc.lft.to/lastmile_qr_scan"}, "fusion_lon": 0.0}, {"lat": 38.90107716666667, "is_disabled": 0, "type": "electric_scooter", "lon": -76.98640683333333, "bike_id": "4dcade8b3ef9affc157ad23f05c25e00", "fusion_lat": 0.0, "name": "4dcade8b3ef9affc157ad23f05c25e00", "is_reserved": 0, "rental_uris": {"android": "https://dc.lft.to/lastmile_qr_scan", "ios": "https://dc.lft.to/lastmile_qr_scan"}, "fusion_lon": 0.0}, {"lat": 38.91554466666667, "is_disabled": 0, "type": "electric_scooter", "lon": -77.02425966666667, "bike_id": "99758583f4d6f862d03e0ad12e438d27", "fusion_lat": 0.0, "name": "99758583f4d6f862d03e0ad12e438d27", "is_reserved": 0, "rental_uris": {"android": "https://dc.lft.to/lastmile_qr_scan", "ios": "https://dc.lft.to/lastmile_qr_scan"}, "fusion_lon": 0.0}, {"lat": 38.92751233333333, "is_disabled": 0, "type": "electric_scooter", "lon": -77.02963066666666, "bike_id": "edfacd091a3412d07b5132b9edaca082", "fusion_lat": 0.0, "name": "edfacd091a3412d07b5132b9edaca082", "is_reserved": 0, "rental_uris": {"android": "https://dc.lft.to/lastmile_qr_scan", "ios": "https://dc.lft.to/lastmile_qr_scan"}, "fusion_lon": 0.0}, {"lat": 38.914471, "is_disabled": 0, "type": "electric_scooter", "lon": -77.02972633333333, "bike_id": "13452b9559e01120c8c150d0e4b32b36", "fusion_lat": 0.0, "name": "13452b9559e01120c8c150d0e4b32b36", "is_reserved": 0, "rental_uris": {"android": "https://dc.lft.to/lastmile_qr_scan", "ios": "https://dc.lft.to/lastmile_qr_scan"}, "fusion_lon": 0.0}, {"lat": 38.917516666666664, "is_disabled": 0, "type": "electric_scooter", "lon": -77.03599333333334, "bike_id": "ab4e2b79ce450553604e706749714c61", "fusion_lat": 0.0, "name": "ab4e2b79ce450553604e706749714c61", "is_reserved": 0, "rental_uris": {"android": "https://dc.lft.to/lastmile_qr_scan", "ios": "https://dc.lft.to/lastmile_qr_scan"}, "fusion_lon": 0.0}, {"lat": 38.8985385, "is_disabled": 0, "type": "electric_scooter", "lon": -76.98180566666667, "bike_id": "b3bb17bcb7d473425cb72684791d6eb5", "fusion_lat": 0.0, "name": "b3bb17bcb7d473425cb72684791d6eb5", "is_reserved": 0, "rental_uris": {"android": "https://dc.lft.to/lastmile_qr_scan", "ios": "https://dc.lft.to/lastmile_qr_scan"}, "fusion_lon": 0.0}, {"lat": 38.922493, "is_disabled": 0, "type": "electric_scooter", "lon": -77.03084066666666, "bike_id": "060a605f73ce3ef7a8dbe9b06544d57e", "fusion_lat": 0.0, "name": "060a605f73ce3ef7a8dbe9b06544d57e", "is_reserved": 0, "rental_uris": {"android": "https://dc.lft.to/lastmile_qr_scan", "ios": "https://dc.lft.to/lastmile_qr_scan"}, "fusion_lon": 0.0}, {"lat": 38.902568, "is_disabled": 0, "type": "electric_scooter", "lon": -77.0282925, "bike_id": "809f31e11e175b7c20a8f1015707e3e2", "fusion_lat": 0.0, "name": "809f31e11e175b7c20a8f1015707e3e2", "is_reserved": 0, "rental_uris": {"android": "https://dc.lft.to/lastmile_qr_scan", "ios": "https://dc.lft.to/lastmile_qr_scan"}, "fusion_lon": 0.0}, {"lat": 38.9260515, "is_disabled": 0, "type": "electric_scooter", "lon": -77.056925, "bike_id": "058ece84de2562a526c9d6e2dfb120bf", "fusion_lat": 0.0, "name": "058ece84de2562a526c9d6e2dfb120bf", "is_reserved": 0, "rental_uris": {"android": "https://dc.lft.to/lastmile_qr_scan", "ios": "https://dc.lft.to/lastmile_qr_scan"}, "fusion_lon": 0.0}, {"lat": 38.95404416666667, "is_disabled": 0, "type": "electric_scooter", "lon": -77.0274725, "bike_id": "fe863a33e7ef65032f79e889bad07851", "fusion_lat": 0.0, "name": "fe863a33e7ef65032f79e889bad07851", "is_reserved": 0, "rental_uris": {"android": "https://dc.lft.to/lastmile_qr_scan", "ios": "https://dc.lft.to/lastmile_qr_scan"}, "fusion_lon": 0.0}, {"lat": 38.8857685, "is_disabled": 0, "type": "electric_scooter", "lon": -76.91914116666666, "bike_id": "b93d60c983115940485b8203589f2a42", "fusion_lat": 0.0, "name": "b93d60c983115940485b8203589f2a42", "is_reserved": 0, "rental_uris": {"android": "https://dc.lft.to/lastmile_qr_scan", "ios": "https://dc.lft.to/lastmile_qr_scan"}, "fusion_lon": 0.0}, {"lat": 38.921786833333336, "is_disabled": 0, "type": "electric_scooter", "lon": -77.047104, "bike_id": "eacc1b3d8d49c540a763184620bba984", "fusion_lat": 0.0, "name": "eacc1b3d8d49c540a763184620bba984", "is_reserved": 0, "rental_uris": {"android": "https://dc.lft.to/lastmile_qr_scan", "ios": "https://dc.lft.to/lastmile_qr_scan"}, "fusion_lon": 0.0}, {"lat": 38.937463, "is_disabled": 0, "type": "electric_scooter", "lon": -77.03468183333334, "bike_id": "75bf02cf04c8f0a0fde9594d859eec00", "fusion_lat": 0.0, "name": "75bf02cf04c8f0a0fde9594d859eec00", "is_reserved": 0, "rental_uris": {"android": "https://dc.lft.to/lastmile_qr_scan", "ios": "https://dc.lft.to/lastmile_qr_scan"}, "fusion_lon": 0.0}, {"lat": 38.927389166666664, "is_disabled": 0, "type": "electric_scooter", "lon": -77.02592383333334, "bike_id": "575b4cc7ebcf3af1f486d8bd52650892", "fusion_lat": 0.0, "name": "575b4cc7ebcf3af1f486d8bd52650892", "is_reserved": 0, "rental_uris": {"android": "https://dc.lft.to/lastmile_qr_scan", "ios": "https://dc.lft.to/lastmile_qr_scan"}, "fusion_lon": 0.0}, {"lat": 38.92081066666667, "is_disabled": 0, "type": "electric_scooter", "lon": -77.042069, "bike_id": "c0062d70c72645daafb796d4625b75b1", "fusion_lat": 0.0, "name": "c0062d70c72645daafb796d4625b75b1", "is_reserved": 0, "rental_uris": {"android": "https://dc.lft.to/lastmile_qr_scan", "ios": "https://dc.lft.to/lastmile_qr_scan"}, "fusion_lon": 0.0}, {"lat": 38.911891, "is_disabled": 0, "type": "electric_scooter", "lon": -77.043106, "bike_id": "8a4ac20d3c3388a80b21d309ed70868e", "fusion_lat": 0.0, "name": "8a4ac20d3c3388a80b21d309ed70868e", "is_reserved": 0, "rental_uris": {"android": "https://dc.lft.to/lastmile_qr_scan", "ios": "https://dc.lft.to/lastmile_qr_scan"}, "fusion_lon": 0.0}, {"lat": 38.890414666666665, "is_disabled": 0, "type": "electric_scooter", "lon": -76.95246033333333, "bike_id": "1accb937460f79f6f962ecb349cf36a0", "fusion_lat": 0.0, "name": "1accb937460f79f6f962ecb349cf36a0", "is_reserved": 0, "rental_uris": {"android": "https://dc.lft.to/lastmile_qr_scan", "ios": "https://dc.lft.to/lastmile_qr_scan"}, "fusion_lon": 0.0}, {"lat": 38.90273066666666, "is_disabled": 0, "type": "electric_scooter", "lon": -77.04384033333334, "bike_id": "a316013cfcd7c5bb1d369539423da1f0", "fusion_lat": 0.0, "name": "a316013cfcd7c5bb1d369539423da1f0", "is_reserved": 0, "rental_uris": {"android": "https://dc.lft.to/lastmile_qr_scan", "ios": "https://dc.lft.to/lastmile_qr_scan"}, "fusion_lon": 0.0}, {"lat": 38.924831, "is_disabled": 0, "type": "electric_scooter", "lon": -77.02843316666667, "bike_id": "6da4694b64b0f9b96facd0ccbe9580f4", "fusion_lat": 0.0, "name": "6da4694b64b0f9b96facd0ccbe9580f4", "is_reserved": 0, "rental_uris": {"android": "https://dc.lft.to/lastmile_qr_scan", "ios": "https://dc.lft.to/lastmile_qr_scan"}, "fusion_lon": 0.0}, {"lat": 38.898135333333336, "is_disabled": 0, "type": "electric_scooter", "lon": -76.996945, "bike_id": "dcf442394da027c6e1f235121b073d5c", "fusion_lat": 0.0, "name": "dcf442394da027c6e1f235121b073d5c", "is_reserved": 0, "rental_uris": {"android": "https://dc.lft.to/lastmile_qr_scan", "ios": "https://dc.lft.to/lastmile_qr_scan"}, "fusion_lon": 0.0}, {"lat": 38.90826466666667, "is_disabled": 0, "type": "electric_scooter", "lon": -77.00210433333334, "bike_id": "57003ad45cdc2fb845bb06128bae121a", "fusion_lat": 0.0, "name": "57003ad45cdc2fb845bb06128bae121a", "is_reserved": 0, "rental_uris": {"android": "https://dc.lft.to/lastmile_qr_scan", "ios": "https://dc.lft.to/lastmile_qr_scan"}, "fusion_lon": 0.0}, {"lat": 39.056361833333334, "is_disabled": 0, "type": "electric_bike", "lon": -77.12526233333334, "bike_id": "9ddb0837dd75e7bc8759a156d814dd0f", "fusion_lat": 0.0, "name": "9ddb0837dd75e7bc8759a156d814dd0f", "is_reserved": 0, "rental_uris": {"android": "https://dc.lft.to/lastmile_qr_scan", "ios": "https://dc.lft.to/lastmile_qr_scan"}, "fusion_lon": 0.0}, {"lat": 38.915635333333334, "is_disabled": 0, "type": "electric_scooter", "lon": -77.032106, "bike_id": "8c69760abc90a1b1446fb91fc9288101", "fusion_lat": 0.0, "name": "8c69760abc90a1b1446fb91fc9288101", "is_reserved": 0, "rental_uris": {"android": "https://dc.lft.to/lastmile_qr_scan", "ios": "https://dc.lft.to/lastmile_qr_scan"}, "fusion_lon": 0.0}, {"lat": 38.88739266666666, "is_disabled": 0, "type": "electric_scooter", "lon": -77.015326, "bike_id": "08ede047e6f584048b450173c4cdac8e", "fusion_lat": 0.0, "name": "08ede047e6f584048b450173c4cdac8e", "is_reserved": 0, "rental_uris": {"android": "https://dc.lft.to/lastmile_qr_scan", "ios": "https://dc.lft.to/lastmile_qr_scan"}, "fusion_lon": 0.0}, {"lat": 38.884082666666664, "is_disabled": 0, "type": "electric_bike", "lon": -76.95423816666667, "bike_id": "570f982e839980080e6a8fdeef89dbd2", "fusion_lat": 0.0, "name": "570f982e839980080e6a8fdeef89dbd2", "is_reserved": 0, "rental_uris": {"android": "https://dc.lft.to/lastmile_qr_scan", "ios": "https://dc.lft.to/lastmile_qr_scan"}, "fusion_lon": 0.0}, {"lat": 38.9321065, "is_disabled": 0, "type": "electric_scooter", "lon": -77.0224815, "bike_id": "3da16e5e4f72a7a8ffd0cc64791cf81a", "fusion_lat": 0.0, "name": "3da16e5e4f72a7a8ffd0cc64791cf81a", "is_reserved": 0, "rental_uris": {"android": "https://dc.lft.to/lastmile_qr_scan", "ios": "https://dc.lft.to/lastmile_qr_scan"}, "fusion_lon": 0.0}, {"lat": 38.919727333333334, "is_disabled": 0, "type": "electric_scooter", "lon": -77.012096, "bike_id": "7b34f620e80e820e365a08c2a16a0f30", "fusion_lat": 0.0, "name": "7b34f620e80e820e365a08c2a16a0f30", "is_reserved": 0, "rental_uris": {"android": "https://dc.lft.to/lastmile_qr_scan", "ios": "https://dc.lft.to/lastmile_qr_scan"}, "fusion_lon": 0.0}, {"lat": 38.9100655, "is_disabled": 0, "type": "electric_scooter", "lon": -77.0442355, "bike_id": "51a6885b2d65737e7d5083fae35af998", "fusion_lat": 0.0, "name": "51a6885b2d65737e7d5083fae35af998", "is_reserved": 0, "rental_uris": {"android": "https://dc.lft.to/lastmile_qr_scan", "ios": "https://dc.lft.to/lastmile_qr_scan"}, "fusion_lon": 0.0}, {"lat": 38.888908666666666, "is_disabled": 0, "type": "electric_scooter", "lon": -76.93154533333333, "bike_id": "5ed54b35f57b6ac4014eef644e90b079", "fusion_lat": 0.0, "name": "5ed54b35f57b6ac4014eef644e90b079", "is_reserved": 0, "rental_uris": {"android": "https://dc.lft.to/lastmile_qr_scan", "ios": "https://dc.lft.to/lastmile_qr_scan"}, "fusion_lon": 0.0}, {"lat": 38.90728883333333, "is_disabled": 0, "type": "electric_scooter", "lon": -77.0464565, "bike_id": "f461366b4550eced5ebb909281420341", "fusion_lat": 0.0, "name": "f461366b4550eced5ebb909281420341", "is_reserved": 0, "rental_uris": {"android": "https://dc.lft.to/lastmile_qr_scan", "ios": "https://dc.lft.to/lastmile_qr_scan"}, "fusion_lon": 0.0}, {"lat": 38.961579666666665, "is_disabled": 0, "type": "electric_scooter", "lon": -77.02770816666667, "bike_id": "2b0ce97485e9f2dec5e1653bf62cf4b5", "fusion_lat": 0.0, "name": "2b0ce97485e9f2dec5e1653bf62cf4b5", "is_reserved": 0, "rental_uris": {"android": "https://dc.lft.to/lastmile_qr_scan", "ios": "https://dc.lft.to/lastmile_qr_scan"}, "fusion_lon": 0.0}, {"lat": 38.925534666666664, "is_disabled": 0, "type": "electric_scooter", "lon": -77.03345266666666, "bike_id": "cb6e707eb58121194c58e789ef271c22", "fusion_lat": 0.0, "name": "cb6e707eb58121194c58e789ef271c22", "is_reserved": 0, "rental_uris": {"android": "https://dc.lft.to/lastmile_qr_scan", "ios": "https://dc.lft.to/lastmile_qr_scan"}, "fusion_lon": 0.0}, {"lat": 38.865247333333336, "is_disabled": 0, "type": "electric_scooter", "lon": -76.99026066666667, "bike_id": "d2a4ec4e379ffb8c064c30a06f4ef46a", "fusion_lat": 0.0, "name": "d2a4ec4e379ffb8c064c30a06f4ef46a", "is_reserved": 0, "rental_uris": {"android": "https://dc.lft.to/lastmile_qr_scan", "ios": "https://dc.lft.to/lastmile_qr_scan"}, "fusion_lon": 0.0}, {"lat": 38.86998666666667, "is_disabled": 0, "type": "electric_bike", "lon": -77.06569733333333, "bike_id": "f0700f14419bdf02641555cb618fd3da", "fusion_lat": 0.0, "name": "f0700f14419bdf02641555cb618fd3da", "is_reserved": 0, "rental_uris": {"android": "https://dc.lft.to/lastmile_qr_scan", "ios": "https://dc.lft.to/lastmile_qr_scan"}, "fusion_lon": 0.0}, {"lat": 38.92408916666667, "is_disabled": 0, "type": "electric_scooter", "lon": -77.02743633333333, "bike_id": "1af50829f5ab74938c5a54c488869632", "fusion_lat": 0.0, "name": "1af50829f5ab74938c5a54c488869632", "is_reserved": 0, "rental_uris": {"android": "https://dc.lft.to/lastmile_qr_scan", "ios": "https://dc.lft.to/lastmile_qr_scan"}, "fusion_lon": 0.0}, {"lat": 38.934451833333334, "is_disabled": 0, "type": "electric_scooter", "lon": -77.03086883333333, "bike_id": "91a3b5109c80e4006bffd5ee67715cd1", "fusion_lat": 0.0, "name": "91a3b5109c80e4006bffd5ee67715cd1", "is_reserved": 0, "rental_uris": {"android": "https://dc.lft.to/lastmile_qr_scan", "ios": "https://dc.lft.to/lastmile_qr_scan"}, "fusion_lon": 0.0}, {"lat": 38.8593185, "is_disabled": 0, "type": "electric_scooter", "lon": -76.9971295, "bike_id": "57f768145fbdf43d8f933f51487a6b39", "fusion_lat": 0.0, "name": "57f768145fbdf43d8f933f51487a6b39", "is_reserved": 0, "rental_uris": {"android": "https://dc.lft.to/lastmile_qr_scan", "ios": "https://dc.lft.to/lastmile_qr_scan"}, "fusion_lon": 0.0}, {"lat": 38.89238, "is_disabled": 0, "type": "electric_bike", "lon": -76.99610866666667, "bike_id": "f52013660f1fe813656eef9d7f127ec2", "fusion_lat": 0.0, "name": "f52013660f1fe813656eef9d7f127ec2", "is_reserved": 0, "rental_uris": {"android": "https://dc.lft.to/lastmile_qr_scan", "ios": "https://dc.lft.to/lastmile_qr_scan"}, "fusion_lon": 0.0}, {"lat": 38.834217333333335, "is_disabled": 0, "type": "electric_bike", "lon": -77.1037295, "bike_id": "a307c181264e97b8bae45f56a934c8ea", "fusion_lat": 0.0, "name": "a307c181264e97b8bae45f56a934c8ea", "is_reserved": 0, "rental_uris": {"android": "https://dc.lft.to/lastmile_qr_scan", "ios": "https://dc.lft.to/lastmile_qr_scan"}, "fusion_lon": 0.0}, {"lat": 38.844661333333335, "is_disabled": 0, "type": "electric_bike", "lon": -76.987524, "bike_id": "45c4d95f4c7dc26585f71a751d3a244a", "fusion_lat": 0.0, "name": "45c4d95f4c7dc26585f71a751d3a244a", "is_reserved": 0, "rental_uris": {"android": "https://dc.lft.to/lastmile_qr_scan", "ios": "https://dc.lft.to/lastmile_qr_scan"}, "fusion_lon": 0.0}, {"lat": 38.90610616666667, "is_disabled": 0, "type": "electric_scooter", "lon": -76.9898565, "bike_id": "c00a9de1f47fb1ed395610249ff5b396", "fusion_lat": 0.0, "name": "c00a9de1f47fb1ed395610249ff5b396", "is_reserved": 0, "rental_uris": {"android": "https://dc.lft.to/lastmile_qr_scan", "ios": "https://dc.lft.to/lastmile_qr_scan"}, "fusion_lon": 0.0}, {"lat": 38.904974, "is_disabled": 0, "type": "electric_scooter", "lon": -77.02948783333333, "bike_id": "89494054b1545b6bf7202d36331849c3", "fusion_lat": 0.0, "name": "89494054b1545b6bf7202d36331849c3", "is_reserved": 0, "rental_uris": {"android": "https://dc.lft.to/lastmile_qr_scan", "ios": "https://dc.lft.to/lastmile_qr_scan"}, "fusion_lon": 0.0}, {"lat": 38.900385666666665, "is_disabled": 0, "type": "electric_scooter", "lon": -76.98372883333333, "bike_id": "7d53987652413c6e252975aad1dcbced", "fusion_lat": 0.0, "name": "7d53987652413c6e252975aad1dcbced", "is_reserved": 0, "rental_uris": {"android": "https://dc.lft.to/lastmile_qr_scan", "ios": "https://dc.lft.to/lastmile_qr_scan"}, "fusion_lon": 0.0}, {"lat": 38.876280666666666, "is_disabled": 0, "type": "electric_scooter", "lon": -76.96525733333333, "bike_id": "bc316e687d3579b4fb2e590bc01aa42f", "fusion_lat": 0.0, "name": "bc316e687d3579b4fb2e590bc01aa42f", "is_reserved": 0, "rental_uris": {"android": "https://dc.lft.to/lastmile_qr_scan", "ios": "https://dc.lft.to/lastmile_qr_scan"}, "fusion_lon": 0.0}, {"lat": 38.90362783333333, "is_disabled": 0, "type": "electric_scooter", "lon": -77.04268666666667, "bike_id": "b3f072b845a121c25b09af491e1bec5b", "fusion_lat": 0.0, "name": "b3f072b845a121c25b09af491e1bec5b", "is_reserved": 0, "rental_uris": {"android": "https://dc.lft.to/lastmile_qr_scan", "ios": "https://dc.lft.to/lastmile_qr_scan"}, "fusion_lon": 0.0}, {"lat": 38.90373116666667, "is_disabled": 0, "type": "electric_scooter", "lon": -77.0434715, "bike_id": "52d46d5d5c8ae2d2353fd31823dc5a1c", "fusion_lat": 0.0, "name": "52d46d5d5c8ae2d2353fd31823dc5a1c", "is_reserved": 0, "rental_uris": {"android": "https://dc.lft.to/lastmile_qr_scan", "ios": "https://dc.lft.to/lastmile_qr_scan"}, "fusion_lon": 0.0}, {"lat": 38.86907733333334, "is_disabled": 0, "type": "electric_bike", "lon": -77.13180666666666, "bike_id": "98da707e1394a18e3b6938b3bc88d961", "fusion_lat": 0.0, "name": "98da707e1394a18e3b6938b3bc88d961", "is_reserved": 0, "rental_uris": {"android": "https://dc.lft.to/lastmile_qr_scan", "ios": "https://dc.lft.to/lastmile_qr_scan"}, "fusion_lon": 0.0}, {"lat": 38.914884666666666, "is_disabled": 0, "type": "electric_scooter", "lon": -77.03250883333334, "bike_id": "e72b3824a9722a5e899c76233f6658f4", "fusion_lat": 0.0, "name": "e72b3824a9722a5e899c76233f6658f4", "is_reserved": 0, "rental_uris": {"android": "https://dc.lft.to/lastmile_qr_scan", "ios": "https://dc.lft.to/lastmile_qr_scan"}, "fusion_lon": 0.0}, {"lat": 38.8860125, "is_disabled": 0, "type": "electric_scooter", "lon": -77.02205016666667, "bike_id": "a1db26857ae1f7d2c31731dea2cece3c", "fusion_lat": 0.0, "name": "a1db26857ae1f7d2c31731dea2cece3c", "is_reserved": 0, "rental_uris": {"android": "https://dc.lft.to/lastmile_qr_scan", "ios": "https://dc.lft.to/lastmile_qr_scan"}, "fusion_lon": 0.0}, {"lat": 38.931704833333335, "is_disabled": 0, "type": "electric_scooter", "lon": -77.02819516666666, "bike_id": "48cf88b0ac9703a48443ae3e3242ae1a", "fusion_lat": 0.0, "name": "48cf88b0ac9703a48443ae3e3242ae1a", "is_reserved": 0, "rental_uris": {"android": "https://dc.lft.to/lastmile_qr_scan", "ios": "https://dc.lft.to/lastmile_qr_scan"}, "fusion_lon": 0.0}, {"lat": 38.890442166666666, "is_disabled": 0, "type": "electric_scooter", "lon": -76.95139283333333, "bike_id": "3aa205b417cba069b023fc7b36aa758c", "fusion_lat": 0.0, "name": "3aa205b417cba069b023fc7b36aa758c", "is_reserved": 0, "rental_uris": {"android": "https://dc.lft.to/lastmile_qr_scan", "ios": "https://dc.lft.to/lastmile_qr_scan"}, "fusion_lon": 0.0}, {"lat": 38.90654166666667, "is_disabled": 0, "type": "electric_scooter", "lon": -77.02596516666667, "bike_id": "d2fdde45c617e60704ac0e3563aef8b8", "fusion_lat": 0.0, "name": "d2fdde45c617e60704ac0e3563aef8b8", "is_reserved": 0, "rental_uris": {"android": "https://dc.lft.to/lastmile_qr_scan", "ios": "https://dc.lft.to/lastmile_qr_scan"}, "fusion_lon": 0.0}, {"lat": 38.907818666666664, "is_disabled": 0, "type": "electric_scooter", "lon": -77.04251583333334, "bike_id": "5e5629f34dc068babba72344295eea39", "fusion_lat": 0.0, "name": "5e5629f34dc068babba72344295eea39", "is_reserved": 0, "rental_uris": {"android": "https://dc.lft.to/lastmile_qr_scan", "ios": "https://dc.lft.to/lastmile_qr_scan"}, "fusion_lon": 0.0}, {"lat": 38.91784033333333, "is_disabled": 0, "type": "electric_scooter", "lon": -77.02313416666667, "bike_id": "09654830571a55b3924fdf58bad4da61", "fusion_lat": 0.0, "name": "09654830571a55b3924fdf58bad4da61", "is_reserved": 0, "rental_uris": {"android": "https://dc.lft.to/lastmile_qr_scan", "ios": "https://dc.lft.to/lastmile_qr_scan"}, "fusion_lon": 0.0}, {"lat": 38.91607, "is_disabled": 0, "type": "electric_scooter", "lon": -77.02127533333334, "bike_id": "886cbd576f6cc32e40b01e645ff71240", "fusion_lat": 0.0, "name": "886cbd576f6cc32e40b01e645ff71240", "is_reserved": 0, "rental_uris": {"android": "https://dc.lft.to/lastmile_qr_scan", "ios": "https://dc.lft.to/lastmile_qr_scan"}, "fusion_lon": 0.0}, {"lat": 38.840388, "is_disabled": 0, "type": "electric_bike", "lon": -76.976236, "bike_id": "ee8f2a5f83bbdb3300f9e2a02a5904f6", "fusion_lat": 0.0, "name": "ee8f2a5f83bbdb3300f9e2a02a5904f6", "is_reserved": 0, "rental_uris": {"android": "https://dc.lft.to/lastmile_qr_scan", "ios": "https://dc.lft.to/lastmile_qr_scan"}, "fusion_lon": 0.0}, {"lat": 38.920074666666665, "is_disabled": 0, "type": "electric_scooter", "lon": -77.0206215, "bike_id": "2c70b6219ce38050c329853115584147", "fusion_lat": 0.0, "name": "2c70b6219ce38050c329853115584147", "is_reserved": 0, "rental_uris": {"android": "https://dc.lft.to/lastmile_qr_scan", "ios": "https://dc.lft.to/lastmile_qr_scan"}, "fusion_lon": 0.0}, {"lat": 38.9458505, "is_disabled": 0, "type": "electric_scooter", "lon": -77.06451, "bike_id": "bb91c106697ca4cc242608c95d20dc0f", "fusion_lat": 0.0, "name": "bb91c106697ca4cc242608c95d20dc0f", "is_reserved": 0, "rental_uris": {"android": "https://dc.lft.to/lastmile_qr_scan", "ios": "https://dc.lft.to/lastmile_qr_scan"}, "fusion_lon": 0.0}, {"lat": 38.90576516666667, "is_disabled": 0, "type": "electric_scooter", "lon": -77.02938583333334, "bike_id": "a85e5a78ded0052cb23e44726f6cb838", "fusion_lat": 0.0, "name": "a85e5a78ded0052cb23e44726f6cb838", "is_reserved": 0, "rental_uris": {"android": "https://dc.lft.to/lastmile_qr_scan", "ios": "https://dc.lft.to/lastmile_qr_scan"}, "fusion_lon": 0.0}, {"lat": 38.8971945, "is_disabled": 0, "type": "electric_scooter", "lon": -77.00802883333333, "bike_id": "6504b9d48b0cd65cf499664e1951ebb1", "fusion_lat": 0.0, "name": "6504b9d48b0cd65cf499664e1951ebb1", "is_reserved": 0, "rental_uris": {"android": "https://dc.lft.to/lastmile_qr_scan", "ios": "https://dc.lft.to/lastmile_qr_scan"}, "fusion_lon": 0.0}, {"lat": 38.910489166666665, "is_disabled": 0, "type": "electric_scooter", "lon": -77.01511483333333, "bike_id": "711bc9affd18d1a54e13990ddc304c64", "fusion_lat": 0.0, "name": "711bc9affd18d1a54e13990ddc304c64", "is_reserved": 0, "rental_uris": {"android": "https://dc.lft.to/lastmile_qr_scan", "ios": "https://dc.lft.to/lastmile_qr_scan"}, "fusion_lon": 0.0}, {"lat": 38.95403016666667, "is_disabled": 0, "type": "electric_scooter", "lon": -77.036316, "bike_id": "90198605a541db8b59b63bfba2cfab11", "fusion_lat": 0.0, "name": "90198605a541db8b59b63bfba2cfab11", "is_reserved": 0, "rental_uris": {"android": "https://dc.lft.to/lastmile_qr_scan", "ios": "https://dc.lft.to/lastmile_qr_scan"}, "fusion_lon": 0.0}, {"lat": 38.905519166666664, "is_disabled": 0, "type": "electric_scooter", "lon": -77.03415516666666, "bike_id": "800266cd4410ac55ea44b86723095176", "fusion_lat": 0.0, "name": "800266cd4410ac55ea44b86723095176", "is_reserved": 0, "rental_uris": {"android": "https://dc.lft.to/lastmile_qr_scan", "ios": "https://dc.lft.to/lastmile_qr_scan"}, "fusion_lon": 0.0}, {"lat": 38.922061, "is_disabled": 0, "type": "electric_scooter", "lon": -77.0401405, "bike_id": "1e13a655aab97358c0f42989be8cb868", "fusion_lat": 0.0, "name": "1e13a655aab97358c0f42989be8cb868", "is_reserved": 0, "rental_uris": {"android": "https://dc.lft.to/lastmile_qr_scan", "ios": "https://dc.lft.to/lastmile_qr_scan"}, "fusion_lon": 0.0}, {"lat": 38.91835783333333, "is_disabled": 0, "type": "electric_scooter", "lon": -77.02372416666667, "bike_id": "7a3a7506200208ecd20ecb9400016954", "fusion_lat": 0.0, "name": "7a3a7506200208ecd20ecb9400016954", "is_reserved": 0, "rental_uris": {"android": "https://dc.lft.to/lastmile_qr_scan", "ios": "https://dc.lft.to/lastmile_qr_scan"}, "fusion_lon": 0.0}, {"lat": 38.90073566666667, "is_disabled": 0, "type": "electric_scooter", "lon": -77.00215383333334, "bike_id": "0edab6fbfe02e1c637ac8902ece6ead0", "fusion_lat": 0.0, "name": "0edab6fbfe02e1c637ac8902ece6ead0", "is_reserved": 0, "rental_uris": {"android": "https://dc.lft.to/lastmile_qr_scan", "ios": "https://dc.lft.to/lastmile_qr_scan"}, "fusion_lon": 0.0}, {"lat": 38.82877966666667, "is_disabled": 0, "type": "electric_bike", "lon": -77.11217916666666, "bike_id": "392172a87a0e8e766bce9fb7d4fe9cbe", "fusion_lat": 0.0, "name": "392172a87a0e8e766bce9fb7d4fe9cbe", "is_reserved": 0, "rental_uris": {"android": "https://dc.lft.to/lastmile_qr_scan", "ios": "https://dc.lft.to/lastmile_qr_scan"}, "fusion_lon": 0.0}, {"lat": 38.90493383333333, "is_disabled": 0, "type": "electric_scooter", "lon": -77.00698233333334, "bike_id": "4c195dfe2729a1c0699c06ca70583d64", "fusion_lat": 0.0, "name": "4c195dfe2729a1c0699c06ca70583d64", "is_reserved": 0, "rental_uris": {"android": "https://dc.lft.to/lastmile_qr_scan", "ios": "https://dc.lft.to/lastmile_qr_scan"}, "fusion_lon": 0.0}, {"lat": 38.900405, "is_disabled": 0, "type": "electric_scooter", "lon": -77.02966933333333, "bike_id": "6427b6540d8a40eb53956962ce0d7273", "fusion_lat": 0.0, "name": "6427b6540d8a40eb53956962ce0d7273", "is_reserved": 0, "rental_uris": {"android": "https://dc.lft.to/lastmile_qr_scan", "ios": "https://dc.lft.to/lastmile_qr_scan"}, "fusion_lon": 0.0}, {"lat": 39.00473733333333, "is_disabled": 0, "type": "electric_bike", "lon": -76.90133533333334, "bike_id": "5600556682985dcbf97af7e50841bed8", "fusion_lat": 0.0, "name": "5600556682985dcbf97af7e50841bed8", "is_reserved": 0, "rental_uris": {"android": "https://dc.lft.to/lastmile_qr_scan", "ios": "https://dc.lft.to/lastmile_qr_scan"}, "fusion_lon": 0.0}, {"lat": 38.909892666666664, "is_disabled": 0, "type": "electric_scooter", "lon": -76.99738016666667, "bike_id": "5b0287a8ff5f30e6cdb28159f67c9784", "fusion_lat": 0.0, "name": "5b0287a8ff5f30e6cdb28159f67c9784", "is_reserved": 0, "rental_uris": {"android": "https://dc.lft.to/lastmile_qr_scan", "ios": "https://dc.lft.to/lastmile_qr_scan"}, "fusion_lon": 0.0}, {"lat": 38.91808283333334, "is_disabled": 0, "type": "electric_scooter", "lon": -77.03567, "bike_id": "1b8ed142dd6f1f27e64f9fed578c9055", "fusion_lat": 0.0, "name": "1b8ed142dd6f1f27e64f9fed578c9055", "is_reserved": 0, "rental_uris": {"android": "https://dc.lft.to/lastmile_qr_scan", "ios": "https://dc.lft.to/lastmile_qr_scan"}, "fusion_lon": 0.0}, {"lat": 38.883023666666666, "is_disabled": 0, "type": "electric_scooter", "lon": -77.0175095, "bike_id": "a02cda9670233510421970373955acc7", "fusion_lat": 0.0, "name": "a02cda9670233510421970373955acc7", "is_reserved": 0, "rental_uris": {"android": "https://dc.lft.to/lastmile_qr_scan", "ios": "https://dc.lft.to/lastmile_qr_scan"}, "fusion_lon": 0.0}, {"lat": 38.92873766666666, "is_disabled": 0, "type": "electric_scooter", "lon": -77.01939283333333, "bike_id": "0adf4efe47b25fb550f34fead19b250d", "fusion_lat": 0.0, "name": "0adf4efe47b25fb550f34fead19b250d", "is_reserved": 0, "rental_uris": {"android": "https://dc.lft.to/lastmile_qr_scan", "ios": "https://dc.lft.to/lastmile_qr_scan"}, "fusion_lon": 0.0}, {"lat": 38.9231935, "is_disabled": 0, "type": "electric_scooter", "lon": -77.02798166666666, "bike_id": "b1884fd30b48e80265b3f40a4c0565b6", "fusion_lat": 0.0, "name": "b1884fd30b48e80265b3f40a4c0565b6", "is_reserved": 0, "rental_uris": {"android": "https://dc.lft.to/lastmile_qr_scan", "ios": "https://dc.lft.to/lastmile_qr_scan"}, "fusion_lon": 0.0}, {"lat": 38.92792083333333, "is_disabled": 0, "type": "electric_scooter", "lon": -77.03814066666666, "bike_id": "314a1cc1ab086bf2912086d29a729d3d", "fusion_lat": 0.0, "name": "314a1cc1ab086bf2912086d29a729d3d", "is_reserved": 0, "rental_uris": {"android": "https://dc.lft.to/lastmile_qr_scan", "ios": "https://dc.lft.to/lastmile_qr_scan"}, "fusion_lon": 0.0}, {"lat": 38.893984333333336, "is_disabled": 0, "type": "electric_scooter", "lon": -77.04998883333333, "bike_id": "13f78a8baaae4081c5af347a16b8a591", "fusion_lat": 0.0, "name": "13f78a8baaae4081c5af347a16b8a591", "is_reserved": 0, "rental_uris": {"android": "https://dc.lft.to/lastmile_qr_scan", "ios": "https://dc.lft.to/lastmile_qr_scan"}, "fusion_lon": 0.0}, {"lat": 38.91053216666667, "is_disabled": 0, "type": "electric_scooter", "lon": -77.043506, "bike_id": "4ac71fba6e44f2522c75ad350f19aba0", "fusion_lat": 0.0, "name": "4ac71fba6e44f2522c75ad350f19aba0", "is_reserved": 0, "rental_uris": {"android": "https://dc.lft.to/lastmile_qr_scan", "ios": "https://dc.lft.to/lastmile_qr_scan"}, "fusion_lon": 0.0}, {"lat": 38.884716833333336, "is_disabled": 0, "type": "electric_scooter", "lon": -76.99258366666666, "bike_id": "8615e87f90a18da59a7265c6f0b2f4b3", "fusion_lat": 0.0, "name": "8615e87f90a18da59a7265c6f0b2f4b3", "is_reserved": 0, "rental_uris": {"android": "https://dc.lft.to/lastmile_qr_scan", "ios": "https://dc.lft.to/lastmile_qr_scan"}, "fusion_lon": 0.0}, {"lat": 38.9215585, "is_disabled": 0, "type": "electric_scooter", "lon": -77.035112, "bike_id": "84eca452c1e668ee10dd00ae64ac8bce", "fusion_lat": 0.0, "name": "84eca452c1e668ee10dd00ae64ac8bce", "is_reserved": 0, "rental_uris": {"android": "https://dc.lft.to/lastmile_qr_scan", "ios": "https://dc.lft.to/lastmile_qr_scan"}, "fusion_lon": 0.0}, {"lat": 38.88989516666667, "is_disabled": 0, "type": "electric_scooter", "lon": -77.0033785, "bike_id": "6e0b6ef2fc55a5091b80f80b679474a0", "fusion_lat": 0.0, "name": "6e0b6ef2fc55a5091b80f80b679474a0", "is_reserved": 0, "rental_uris": {"android": "https://dc.lft.to/lastmile_qr_scan", "ios": "https://dc.lft.to/lastmile_qr_scan"}, "fusion_lon": 0.0}, {"lat": 38.960204166666664, "is_disabled": 0, "type": "electric_bike", "lon": -77.01726766666667, "bike_id": "0b2bbf5c1c3cf8daed63b5af76afe61d", "fusion_lat": 0.0, "name": "0b2bbf5c1c3cf8daed63b5af76afe61d", "is_reserved": 0, "rental_uris": {"android": "https://dc.lft.to/lastmile_qr_scan", "ios": "https://dc.lft.to/lastmile_qr_scan"}, "fusion_lon": 0.0}, {"lat": 38.8075285, "is_disabled": 0, "type": "electric_bike", "lon": -77.09453866666666, "bike_id": "51d0a4ca44e8e12ab4af68db7d38d3a7", "fusion_lat": 0.0, "name": "51d0a4ca44e8e12ab4af68db7d38d3a7", "is_reserved": 0, "rental_uris": {"android": "https://dc.lft.to/lastmile_qr_scan", "ios": "https://dc.lft.to/lastmile_qr_scan"}, "fusion_lon": 0.0}, {"lat": 38.87292333333333, "is_disabled": 0, "type": "electric_scooter", "lon": -77.0093325, "bike_id": "471186d17465fda0d45d97df2d669c4a", "fusion_lat": 0.0, "name": "471186d17465fda0d45d97df2d669c4a", "is_reserved": 0, "rental_uris": {"android": "https://dc.lft.to/lastmile_qr_scan", "ios": "https://dc.lft.to/lastmile_qr_scan"}, "fusion_lon": 0.0}, {"lat": 38.884916833333335, "is_disabled": 0, "type": "electric_scooter", "lon": -77.007123, "bike_id": "68ef2aa5c3e63728b60187934ca10b8c", "fusion_lat": 0.0, "name": "68ef2aa5c3e63728b60187934ca10b8c", "is_reserved": 0, "rental_uris": {"android": "https://dc.lft.to/lastmile_qr_scan", "ios": "https://dc.lft.to/lastmile_qr_scan"}, "fusion_lon": 0.0}, {"lat": 39.02934316666666, "is_disabled": 0, "type": "electric_bike", "lon": -77.049311, "bike_id": "0c92ac4fa2bf435bdaecc52dfa68b3ea", "fusion_lat": 0.0, "name": "0c92ac4fa2bf435bdaecc52dfa68b3ea", "is_reserved": 0, "rental_uris": {"android": "https://dc.lft.to/lastmile_qr_scan", "ios": "https://dc.lft.to/lastmile_qr_scan"}, "fusion_lon": 0.0}, {"lat": 38.905667, "is_disabled": 0, "type": "electric_scooter", "lon": -77.02984783333333, "bike_id": "4b6fa516df0bb1a39dbee618ace1b08d", "fusion_lat": 0.0, "name": "4b6fa516df0bb1a39dbee618ace1b08d", "is_reserved": 0, "rental_uris": {"android": "https://dc.lft.to/lastmile_qr_scan", "ios": "https://dc.lft.to/lastmile_qr_scan"}, "fusion_lon": 0.0}, {"lat": 38.934364333333335, "is_disabled": 0, "type": "electric_scooter", "lon": -77.0344145, "bike_id": "55f93c3af5b5a31b8a80ebd1c57afca6", "fusion_lat": 0.0, "name": "55f93c3af5b5a31b8a80ebd1c57afca6", "is_reserved": 0, "rental_uris": {"android": "https://dc.lft.to/lastmile_qr_scan", "ios": "https://dc.lft.to/lastmile_qr_scan"}, "fusion_lon": 0.0}, {"lat": 38.953289166666664, "is_disabled": 0, "type": "electric_scooter", "lon": -77.02752233333334, "bike_id": "e0ca5106d15598e6727d1b6aaad8682e", "fusion_lat": 0.0, "name": "e0ca5106d15598e6727d1b6aaad8682e", "is_reserved": 0, "rental_uris": {"android": "https://dc.lft.to/lastmile_qr_scan", "ios": "https://dc.lft.to/lastmile_qr_scan"}, "fusion_lon": 0.0}, {"lat": 38.94087783333333, "is_disabled": 0, "type": "electric_bike", "lon": -77.04662933333333, "bike_id": "4474fec85511090dff5f0f657ba65889", "fusion_lat": 0.0, "name": "4474fec85511090dff5f0f657ba65889", "is_reserved": 0, "rental_uris": {"android": "https://dc.lft.to/lastmile_qr_scan", "ios": "https://dc.lft.to/lastmile_qr_scan"}, "fusion_lon": 0.0}, {"lat": 38.862526, "is_disabled": 0, "type": "electric_scooter", "lon": -76.98699083333334, "bike_id": "5590c74b995d7fe4f73dea89ce254891", "fusion_lat": 0.0, "name": "5590c74b995d7fe4f73dea89ce254891", "is_reserved": 0, "rental_uris": {"android": "https://dc.lft.to/lastmile_qr_scan", "ios": "https://dc.lft.to/lastmile_qr_scan"}, "fusion_lon": 0.0}, {"lat": 38.90666133333333, "is_disabled": 0, "type": "electric_scooter", "lon": -77.015388, "bike_id": "4e7c54720faae0fdf86293cf42a0d12d", "fusion_lat": 0.0, "name": "4e7c54720faae0fdf86293cf42a0d12d", "is_reserved": 0, "rental_uris": {"android": "https://dc.lft.to/lastmile_qr_scan", "ios": "https://dc.lft.to/lastmile_qr_scan"}, "fusion_lon": 0.0}, {"lat": 38.95185133333333, "is_disabled": 0, "type": "electric_bike", "lon": -76.935457, "bike_id": "19708ec5f6227501bf8d0429f39c79bb", "fusion_lat": 0.0, "name": "19708ec5f6227501bf8d0429f39c79bb", "is_reserved": 0, "rental_uris": {"android": "https://dc.lft.to/lastmile_qr_scan", "ios": "https://dc.lft.to/lastmile_qr_scan"}, "fusion_lon": 0.0}, {"lat": 38.90736066666667, "is_disabled": 0, "type": "electric_scooter", "lon": -77.04208333333334, "bike_id": "5e1ae6e1483311dd1a5fbae19337d156", "fusion_lat": 0.0, "name": "5e1ae6e1483311dd1a5fbae19337d156", "is_reserved": 0, "rental_uris": {"android": "https://dc.lft.to/lastmile_qr_scan", "ios": "https://dc.lft.to/lastmile_qr_scan"}, "fusion_lon": 0.0}, {"lat": 38.91217733333333, "is_disabled": 0, "type": "electric_scooter", "lon": -77.07593983333334, "bike_id": "9db4afc1228b2f652400f9644bc362b1", "fusion_lat": 0.0, "name": "9db4afc1228b2f652400f9644bc362b1", "is_reserved": 0, "rental_uris": {"android": "https://dc.lft.to/lastmile_qr_scan", "ios": "https://dc.lft.to/lastmile_qr_scan"}, "fusion_lon": 0.0}, {"lat": 38.892322, "is_disabled": 0, "type": "electric_scooter", "lon": -77.021797, "bike_id": "bf112a8aec3831b4928ec94db3d5b25f", "fusion_lat": 0.0, "name": "bf112a8aec3831b4928ec94db3d5b25f", "is_reserved": 0, "rental_uris": {"android": "https://dc.lft.to/lastmile_qr_scan", "ios": "https://dc.lft.to/lastmile_qr_scan"}, "fusion_lon": 0.0}, {"lat": 38.867492166666665, "is_disabled": 0, "type": "electric_scooter", "lon": -76.9766725, "bike_id": "b7272e6e13110e1fa040fc5a35ec6073", "fusion_lat": 0.0, "name": "b7272e6e13110e1fa040fc5a35ec6073", "is_reserved": 0, "rental_uris": {"android": "https://dc.lft.to/lastmile_qr_scan", "ios": "https://dc.lft.to/lastmile_qr_scan"}, "fusion_lon": 0.0}, {"lat": 38.910535833333334, "is_disabled": 0, "type": "electric_scooter", "lon": -77.01522933333334, "bike_id": "e6e993f409af22b56753e33d4b816842", "fusion_lat": 0.0, "name": "e6e993f409af22b56753e33d4b816842", "is_reserved": 0, "rental_uris": {"android": "https://dc.lft.to/lastmile_qr_scan", "ios": "https://dc.lft.to/lastmile_qr_scan"}, "fusion_lon": 0.0}, {"lat": 38.94321883333333, "is_disabled": 0, "type": "electric_scooter", "lon": -77.02482883333333, "bike_id": "c63ff4169d85d156c5087fe5d0660d70", "fusion_lat": 0.0, "name": "c63ff4169d85d156c5087fe5d0660d70", "is_reserved": 0, "rental_uris": {"android": "https://dc.lft.to/lastmile_qr_scan", "ios": "https://dc.lft.to/lastmile_qr_scan"}, "fusion_lon": 0.0}, {"lat": 38.877342, "is_disabled": 0, "type": "electric_bike", "lon": -77.1184975, "bike_id": "a6c33ef743c22083cc976271c2bbefa7", "fusion_lat": 0.0, "name": "a6c33ef743c22083cc976271c2bbefa7", "is_reserved": 0, "rental_uris": {"android": "https://dc.lft.to/lastmile_qr_scan", "ios": "https://dc.lft.to/lastmile_qr_scan"}, "fusion_lon": 0.0}, {"lat": 38.93411833333333, "is_disabled": 0, "type": "electric_bike", "lon": -77.0251, "bike_id": "7210a2c071d2bf5a97c19e151a3acfd6", "fusion_lat": 0.0, "name": "7210a2c071d2bf5a97c19e151a3acfd6", "is_reserved": 0, "rental_uris": {"android": "https://dc.lft.to/lastmile_qr_scan", "ios": "https://dc.lft.to/lastmile_qr_scan"}, "fusion_lon": 0.0}, {"lat": 38.901762833333336, "is_disabled": 0, "type": "electric_scooter", "lon": -77.02463916666666, "bike_id": "e8bc059c3554ffdc24f13a4218f29372", "fusion_lat": 0.0, "name": "e8bc059c3554ffdc24f13a4218f29372", "is_reserved": 0, "rental_uris": {"android": "https://dc.lft.to/lastmile_qr_scan", "ios": "https://dc.lft.to/lastmile_qr_scan"}, "fusion_lon": 0.0}, {"lat": 38.9314555, "is_disabled": 0, "type": "electric_scooter", "lon": -77.02149316666667, "bike_id": "02f48b004c96586096da54c2e020ced0", "fusion_lat": 0.0, "name": "02f48b004c96586096da54c2e020ced0", "is_reserved": 0, "rental_uris": {"android": "https://dc.lft.to/lastmile_qr_scan", "ios": "https://dc.lft.to/lastmile_qr_scan"}, "fusion_lon": 0.0}, {"lat": 38.91740266666667, "is_disabled": 0, "type": "electric_scooter", "lon": -77.031951, "bike_id": "62b916c5f5c712d9bee49fb767c417ee", "fusion_lat": 0.0, "name": "62b916c5f5c712d9bee49fb767c417ee", "is_reserved": 0, "rental_uris": {"android": "https://dc.lft.to/lastmile_qr_scan", "ios": "https://dc.lft.to/lastmile_qr_scan"}, "fusion_lon": 0.0}, {"lat": 38.94066183333333, "is_disabled": 0, "type": "electric_scooter", "lon": -76.99466416666667, "bike_id": "2612848be9c4bb3f44ec487454552695", "fusion_lat": 0.0, "name": "2612848be9c4bb3f44ec487454552695", "is_reserved": 0, "rental_uris": {"android": "https://dc.lft.to/lastmile_qr_scan", "ios": "https://dc.lft.to/lastmile_qr_scan"}, "fusion_lon": 0.0}, {"lat": 38.897641166666666, "is_disabled": 0, "type": "electric_scooter", "lon": -77.05006533333334, "bike_id": "d39dee90e38a74a2193dea335af1d44a", "fusion_lat": 0.0, "name": "d39dee90e38a74a2193dea335af1d44a", "is_reserved": 0, "rental_uris": {"android": "https://dc.lft.to/lastmile_qr_scan", "ios": "https://dc.lft.to/lastmile_qr_scan"}, "fusion_lon": 0.0}, {"lat": 38.85027216666667, "is_disabled": 0, "type": "electric_bike", "lon": -77.09805783333333, "bike_id": "00bba06c6ba64ca3c243c9265f5a657a", "fusion_lat": 0.0, "name": "00bba06c6ba64ca3c243c9265f5a657a", "is_reserved": 0, "rental_uris": {"android": "https://dc.lft.to/lastmile_qr_scan", "ios": "https://dc.lft.to/lastmile_qr_scan"}, "fusion_lon": 0.0}, {"lat": 38.884813666666666, "is_disabled": 0, "type": "electric_scooter", "lon": -76.94529066666666, "bike_id": "5357c97820eee29c47865f2613e234bf", "fusion_lat": 0.0, "name": "5357c97820eee29c47865f2613e234bf", "is_reserved": 0, "rental_uris": {"android": "https://dc.lft.to/lastmile_qr_scan", "ios": "https://dc.lft.to/lastmile_qr_scan"}, "fusion_lon": 0.0}, {"lat": 38.930739833333334, "is_disabled": 0, "type": "electric_scooter", "lon": -77.07759266666666, "bike_id": "564070bd9ae547b8154564a969f453f8", "fusion_lat": 0.0, "name": "564070bd9ae547b8154564a969f453f8", "is_reserved": 0, "rental_uris": {"android": "https://dc.lft.to/lastmile_qr_scan", "ios": "https://dc.lft.to/lastmile_qr_scan"}, "fusion_lon": 0.0}, {"lat": 38.9056005, "is_disabled": 0, "type": "electric_scooter", "lon": -77.013118, "bike_id": "e63e7f4024d87f044c10bf6bb21e8a44", "fusion_lat": 0.0, "name": "e63e7f4024d87f044c10bf6bb21e8a44", "is_reserved": 0, "rental_uris": {"android": "https://dc.lft.to/lastmile_qr_scan", "ios": "https://dc.lft.to/lastmile_qr_scan"}, "fusion_lon": 0.0}, {"lat": 38.9178425, "is_disabled": 0, "type": "electric_scooter", "lon": -77.02234033333333, "bike_id": "9bd59c15844d59d5e45b3bc0f403a047", "fusion_lat": 0.0, "name": "9bd59c15844d59d5e45b3bc0f403a047", "is_reserved": 0, "rental_uris": {"android": "https://dc.lft.to/lastmile_qr_scan", "ios": "https://dc.lft.to/lastmile_qr_scan"}, "fusion_lon": 0.0}, {"lat": 38.90034683333333, "is_disabled": 0, "type": "electric_scooter", "lon": -76.983689, "bike_id": "114123f506ebb0166e37b3deb539cd2f", "fusion_lat": 0.0, "name": "114123f506ebb0166e37b3deb539cd2f", "is_reserved": 0, "rental_uris": {"android": "https://dc.lft.to/lastmile_qr_scan", "ios": "https://dc.lft.to/lastmile_qr_scan"}, "fusion_lon": 0.0}, {"lat": 38.903643333333335, "is_disabled": 0, "type": "electric_scooter", "lon": -77.0364415, "bike_id": "c9cc6b3f8b3fc3082de10b860a2af8b6", "fusion_lat": 0.0, "name": "c9cc6b3f8b3fc3082de10b860a2af8b6", "is_reserved": 0, "rental_uris": {"android": "https://dc.lft.to/lastmile_qr_scan", "ios": "https://dc.lft.to/lastmile_qr_scan"}, "fusion_lon": 0.0}, {"lat": 38.8728725, "is_disabled": 0, "type": "electric_scooter", "lon": -77.00921183333334, "bike_id": "3c109314c56377d0ba90b6fdb5f4a032", "fusion_lat": 0.0, "name": "3c109314c56377d0ba90b6fdb5f4a032", "is_reserved": 0, "rental_uris": {"android": "https://dc.lft.to/lastmile_qr_scan", "ios": "https://dc.lft.to/lastmile_qr_scan"}, "fusion_lon": 0.0}, {"lat": 38.918165, "is_disabled": 0, "type": "electric_scooter", "lon": -77.045219, "bike_id": "00a983f3760ffc069ed12453cc4746b9", "fusion_lat": 0.0, "name": "00a983f3760ffc069ed12453cc4746b9", "is_reserved": 0, "rental_uris": {"android": "https://dc.lft.to/lastmile_qr_scan", "ios": "https://dc.lft.to/lastmile_qr_scan"}, "fusion_lon": 0.0}, {"lat": 38.93295083333334, "is_disabled": 0, "type": "electric_scooter", "lon": -77.021961, "bike_id": "45a94faaca84940214d654bddda6397c", "fusion_lat": 0.0, "name": "45a94faaca84940214d654bddda6397c", "is_reserved": 0, "rental_uris": {"android": "https://dc.lft.to/lastmile_qr_scan", "ios": "https://dc.lft.to/lastmile_qr_scan"}, "fusion_lon": 0.0}, {"lat": 38.89950616666667, "is_disabled": 0, "type": "electric_scooter", "lon": -77.07226483333334, "bike_id": "aea7af4d35855fc810a18d7691fb8297", "fusion_lat": 0.0, "name": "aea7af4d35855fc810a18d7691fb8297", "is_reserved": 0, "rental_uris": {"android": "https://dc.lft.to/lastmile_qr_scan", "ios": "https://dc.lft.to/lastmile_qr_scan"}, "fusion_lon": 0.0}, {"lat": 38.91240366666667, "is_disabled": 0, "type": "electric_scooter", "lon": -77.04663866666667, "bike_id": "ea5999b046b910716d3a7217f1a63f53", "fusion_lat": 0.0, "name": "ea5999b046b910716d3a7217f1a63f53", "is_reserved": 0, "rental_uris": {"android": "https://dc.lft.to/lastmile_qr_scan", "ios": "https://dc.lft.to/lastmile_qr_scan"}, "fusion_lon": 0.0}, {"lat": 38.90695183333333, "is_disabled": 0, "type": "electric_bike", "lon": -77.08199016666667, "bike_id": "b0f10ee432aa0ada41bdddef83497fca", "fusion_lat": 0.0, "name": "b0f10ee432aa0ada41bdddef83497fca", "is_reserved": 0, "rental_uris": {"android": "https://dc.lft.to/lastmile_qr_scan", "ios": "https://dc.lft.to/lastmile_qr_scan"}, "fusion_lon": 0.0}, {"lat": 38.903390333333334, "is_disabled": 0, "type": "electric_scooter", "lon": -77.0448135, "bike_id": "21b323d47cf0311f29f7be7c47e8bbee", "fusion_lat": 0.0, "name": "21b323d47cf0311f29f7be7c47e8bbee", "is_reserved": 0, "rental_uris": {"android": "https://dc.lft.to/lastmile_qr_scan", "ios": "https://dc.lft.to/lastmile_qr_scan"}, "fusion_lon": 0.0}, {"lat": 38.90121116666667, "is_disabled": 0, "type": "electric_scooter", "lon": -77.0333525, "bike_id": "eebfa6dc38fa1bc4bed7badd5780cec1", "fusion_lat": 0.0, "name": "eebfa6dc38fa1bc4bed7badd5780cec1", "is_reserved": 0, "rental_uris": {"android": "https://dc.lft.to/lastmile_qr_scan", "ios": "https://dc.lft.to/lastmile_qr_scan"}, "fusion_lon": 0.0}, {"lat": 38.923029166666666, "is_disabled": 0, "type": "electric_scooter", "lon": -77.02334533333334, "bike_id": "5c961e07e25c05f541bafc1e28913acd", "fusion_lat": 0.0, "name": "5c961e07e25c05f541bafc1e28913acd", "is_reserved": 0, "rental_uris": {"android": "https://dc.lft.to/lastmile_qr_scan", "ios": "https://dc.lft.to/lastmile_qr_scan"}, "fusion_lon": 0.0}, {"lat": 38.9010685, "is_disabled": 0, "type": "electric_scooter", "lon": -77.059002, "bike_id": "ffce6b29eb36e6450eee6c337348fde4", "fusion_lat": 0.0, "name": "ffce6b29eb36e6450eee6c337348fde4", "is_reserved": 0, "rental_uris": {"android": "https://dc.lft.to/lastmile_qr_scan", "ios": "https://dc.lft.to/lastmile_qr_scan"}, "fusion_lon": 0.0}, {"lat": 38.93982483333333, "is_disabled": 0, "type": "electric_scooter", "lon": -77.02630433333333, "bike_id": "48f8ec28bdc3c264bc45490ded744e00", "fusion_lat": 0.0, "name": "48f8ec28bdc3c264bc45490ded744e00", "is_reserved": 0, "rental_uris": {"android": "https://dc.lft.to/lastmile_qr_scan", "ios": "https://dc.lft.to/lastmile_qr_scan"}, "fusion_lon": 0.0}, {"lat": 38.90264333333333, "is_disabled": 0, "type": "electric_scooter", "lon": -77.01761216666667, "bike_id": "50b3d5c34e35c6ca7d401a6cb1edb4ef", "fusion_lat": 0.0, "name": "50b3d5c34e35c6ca7d401a6cb1edb4ef", "is_reserved": 0, "rental_uris": {"android": "https://dc.lft.to/lastmile_qr_scan", "ios": "https://dc.lft.to/lastmile_qr_scan"}, "fusion_lon": 0.0}, {"lat": 38.9073935, "is_disabled": 0, "type": "electric_scooter", "lon": -77.03206616666667, "bike_id": "b79389ca8ba99640070c3db179824681", "fusion_lat": 0.0, "name": "b79389ca8ba99640070c3db179824681", "is_reserved": 0, "rental_uris": {"android": "https://dc.lft.to/lastmile_qr_scan", "ios": "https://dc.lft.to/lastmile_qr_scan"}, "fusion_lon": 0.0}, {"lat": 38.902095333333335, "is_disabled": 0, "type": "electric_scooter", "lon": -77.02319283333334, "bike_id": "eecdfde754e35f8372ab2f6f6a9ec142", "fusion_lat": 0.0, "name": "eecdfde754e35f8372ab2f6f6a9ec142", "is_reserved": 0, "rental_uris": {"android": "https://dc.lft.to/lastmile_qr_scan", "ios": "https://dc.lft.to/lastmile_qr_scan"}, "fusion_lon": 0.0}, {"lat": 38.9611565, "is_disabled": 0, "type": "electric_scooter", "lon": -77.02815283333334, "bike_id": "dd30515e6f71aa1efaadc00c514c5f9e", "fusion_lat": 0.0, "name": "dd30515e6f71aa1efaadc00c514c5f9e", "is_reserved": 0, "rental_uris": {"android": "https://dc.lft.to/lastmile_qr_scan", "ios": "https://dc.lft.to/lastmile_qr_scan"}, "fusion_lon": 0.0}, {"lat": 38.89220916666667, "is_disabled": 0, "type": "electric_scooter", "lon": -77.02115283333333, "bike_id": "e32509b774b092cd112067e8fdacbc25", "fusion_lat": 0.0, "name": "e32509b774b092cd112067e8fdacbc25", "is_reserved": 0, "rental_uris": {"android": "https://dc.lft.to/lastmile_qr_scan", "ios": "https://dc.lft.to/lastmile_qr_scan"}, "fusion_lon": 0.0}, {"lat": 38.92666533333333, "is_disabled": 0, "type": "electric_scooter", "lon": -77.01468283333334, "bike_id": "eafb34228dc63a07789f3cd789c59650", "fusion_lat": 0.0, "name": "eafb34228dc63a07789f3cd789c59650", "is_reserved": 0, "rental_uris": {"android": "https://dc.lft.to/lastmile_qr_scan", "ios": "https://dc.lft.to/lastmile_qr_scan"}, "fusion_lon": 0.0}, {"lat": 38.90981, "is_disabled": 0, "type": "electric_scooter", "lon": -77.03438833333334, "bike_id": "d4cd35eb344d80b50d219ff01799e79c", "fusion_lat": 0.0, "name": "d4cd35eb344d80b50d219ff01799e79c", "is_reserved": 0, "rental_uris": {"android": "https://dc.lft.to/lastmile_qr_scan", "ios": "https://dc.lft.to/lastmile_qr_scan"}, "fusion_lon": 0.0}, {"lat": 38.92118166666667, "is_disabled": 0, "type": "electric_scooter", "lon": -77.01811733333334, "bike_id": "00a59aaaa2b31f65edcefdfe3faff3fd", "fusion_lat": 0.0, "name": "00a59aaaa2b31f65edcefdfe3faff3fd", "is_reserved": 0, "rental_uris": {"android": "https://dc.lft.to/lastmile_qr_scan", "ios": "https://dc.lft.to/lastmile_qr_scan"}, "fusion_lon": 0.0}, {"lat": 38.92582183333333, "is_disabled": 0, "type": "electric_scooter", "lon": -77.0576325, "bike_id": "a3d5fade39c946cf896004bc20a606eb", "fusion_lat": 0.0, "name": "a3d5fade39c946cf896004bc20a606eb", "is_reserved": 0, "rental_uris": {"android": "https://dc.lft.to/lastmile_qr_scan", "ios": "https://dc.lft.to/lastmile_qr_scan"}, "fusion_lon": 0.0}, {"lat": 38.90384483333333, "is_disabled": 0, "type": "electric_scooter", "lon": -77.018751, "bike_id": "ebf4077f5ed7212637bdc722e0db053c", "fusion_lat": 0.0, "name": "ebf4077f5ed7212637bdc722e0db053c", "is_reserved": 0, "rental_uris": {"android": "https://dc.lft.to/lastmile_qr_scan", "ios": "https://dc.lft.to/lastmile_qr_scan"}, "fusion_lon": 0.0}, {"lat": 38.896553, "is_disabled": 0, "type": "electric_scooter", "lon": -77.00521066666667, "bike_id": "41522a65914a83a66f09a84453459e5e", "fusion_lat": 0.0, "name": "41522a65914a83a66f09a84453459e5e", "is_reserved": 0, "rental_uris": {"android": "https://dc.lft.to/lastmile_qr_scan", "ios": "https://dc.lft.to/lastmile_qr_scan"}, "fusion_lon": 0.0}, {"lat": 38.845039166666666, "is_disabled": 0, "type": "electric_bike", "lon": -76.9935575, "bike_id": "2fa9c88bb97c4a7081cb3f9d73aed8ef", "fusion_lat": 0.0, "name": "2fa9c88bb97c4a7081cb3f9d73aed8ef", "is_reserved": 0, "rental_uris": {"android": "https://dc.lft.to/lastmile_qr_scan", "ios": "https://dc.lft.to/lastmile_qr_scan"}, "fusion_lon": 0.0}, {"lat": 38.911198, "is_disabled": 0, "type": "electric_scooter", "lon": -77.04528283333333, "bike_id": "da7ebb08cee2b32349293833a113e6b4", "fusion_lat": 0.0, "name": "da7ebb08cee2b32349293833a113e6b4", "is_reserved": 0, "rental_uris": {"android": "https://dc.lft.to/lastmile_qr_scan", "ios": "https://dc.lft.to/lastmile_qr_scan"}, "fusion_lon": 0.0}, {"lat": 38.939067333333334, "is_disabled": 0, "type": "electric_scooter", "lon": -77.06675883333334, "bike_id": "6b5983537765d10225e771286a7aed82", "fusion_lat": 0.0, "name": "6b5983537765d10225e771286a7aed82", "is_reserved": 0, "rental_uris": {"android": "https://dc.lft.to/lastmile_qr_scan", "ios": "https://dc.lft.to/lastmile_qr_scan"}, "fusion_lon": 0.0}, {"lat": 38.90587933333333, "is_disabled": 0, "type": "electric_scooter", "lon": -76.98619333333333, "bike_id": "781bc3d125086657aafe6556ae00937d", "fusion_lat": 0.0, "name": "781bc3d125086657aafe6556ae00937d", "is_reserved": 0, "rental_uris": {"android": "https://dc.lft.to/lastmile_qr_scan", "ios": "https://dc.lft.to/lastmile_qr_scan"}, "fusion_lon": 0.0}, {"lat": 38.867098, "is_disabled": 0, "type": "electric_scooter", "lon": -76.9872895, "bike_id": "8a53c3eab14f8697e50d4cbffd9380e4", "fusion_lat": 0.0, "name": "8a53c3eab14f8697e50d4cbffd9380e4", "is_reserved": 0, "rental_uris": {"android": "https://dc.lft.to/lastmile_qr_scan", "ios": "https://dc.lft.to/lastmile_qr_scan"}, "fusion_lon": 0.0}, {"lat": 38.91878583333333, "is_disabled": 0, "type": "electric_scooter", "lon": -77.03500966666667, "bike_id": "ec3422b79899d57490d31b2a944a2397", "fusion_lat": 0.0, "name": "ec3422b79899d57490d31b2a944a2397", "is_reserved": 0, "rental_uris": {"android": "https://dc.lft.to/lastmile_qr_scan", "ios": "https://dc.lft.to/lastmile_qr_scan"}, "fusion_lon": 0.0}, {"lat": 38.92132983333333, "is_disabled": 0, "type": "electric_scooter", "lon": -77.04572716666667, "bike_id": "a8523ef7a24d9b6440ea44a46c17e5fb", "fusion_lat": 0.0, "name": "a8523ef7a24d9b6440ea44a46c17e5fb", "is_reserved": 0, "rental_uris": {"android": "https://dc.lft.to/lastmile_qr_scan", "ios": "https://dc.lft.to/lastmile_qr_scan"}, "fusion_lon": 0.0}, {"lat": 38.9086185, "is_disabled": 0, "type": "electric_bike", "lon": -76.94010883333333, "bike_id": "8436372723e033796e12178e86d3f4b6", "fusion_lat": 0.0, "name": "8436372723e033796e12178e86d3f4b6", "is_reserved": 0, "rental_uris": {"android": "https://dc.lft.to/lastmile_qr_scan", "ios": "https://dc.lft.to/lastmile_qr_scan"}, "fusion_lon": 0.0}, {"lat": 38.9045435, "is_disabled": 0, "type": "electric_scooter", "lon": -76.99459933333333, "bike_id": "0ab2f94d3dbfa0bc152512cc37fc4694", "fusion_lat": 0.0, "name": "0ab2f94d3dbfa0bc152512cc37fc4694", "is_reserved": 0, "rental_uris": {"android": "https://dc.lft.to/lastmile_qr_scan", "ios": "https://dc.lft.to/lastmile_qr_scan"}, "fusion_lon": 0.0}, {"lat": 38.9208215, "is_disabled": 0, "type": "electric_bike", "lon": -76.99187733333333, "bike_id": "bc2ffbf9172331420e615617ea2c19a2", "fusion_lat": 0.0, "name": "bc2ffbf9172331420e615617ea2c19a2", "is_reserved": 0, "rental_uris": {"android": "https://dc.lft.to/lastmile_qr_scan", "ios": "https://dc.lft.to/lastmile_qr_scan"}, "fusion_lon": 0.0}, {"lat": 38.9098675, "is_disabled": 0, "type": "electric_scooter", "lon": -77.0449785, "bike_id": "8d889804c1ecbb38da4c0a1561836ba5", "fusion_lat": 0.0, "name": "8d889804c1ecbb38da4c0a1561836ba5", "is_reserved": 0, "rental_uris": {"android": "https://dc.lft.to/lastmile_qr_scan", "ios": "https://dc.lft.to/lastmile_qr_scan"}, "fusion_lon": 0.0}, {"lat": 38.93087533333333, "is_disabled": 0, "type": "electric_scooter", "lon": -77.0256345, "bike_id": "91414c0c729c626d61af1b1265d3dd50", "fusion_lat": 0.0, "name": "91414c0c729c626d61af1b1265d3dd50", "is_reserved": 0, "rental_uris": {"android": "https://dc.lft.to/lastmile_qr_scan", "ios": "https://dc.lft.to/lastmile_qr_scan"}, "fusion_lon": 0.0}, {"lat": 38.90865633333333, "is_disabled": 0, "type": "electric_bike", "lon": -76.93165066666667, "bike_id": "0abef9e41a1a476d1faa5ed6905fca1f", "fusion_lat": 0.0, "name": "0abef9e41a1a476d1faa5ed6905fca1f", "is_reserved": 0, "rental_uris": {"android": "https://dc.lft.to/lastmile_qr_scan", "ios": "https://dc.lft.to/lastmile_qr_scan"}, "fusion_lon": 0.0}, {"lat": 38.87455683333334, "is_disabled": 0, "type": "electric_scooter", "lon": -77.00927266666666, "bike_id": "4af19d094ae7da6020a5bd1aefae4f22", "fusion_lat": 0.0, "name": "4af19d094ae7da6020a5bd1aefae4f22", "is_reserved": 0, "rental_uris": {"android": "https://dc.lft.to/lastmile_qr_scan", "ios": "https://dc.lft.to/lastmile_qr_scan"}, "fusion_lon": 0.0}, {"lat": 38.89250233333333, "is_disabled": 0, "type": "electric_scooter", "lon": -77.04896083333334, "bike_id": "2fe4bb8ca2c26107dbfeb4f8a14d70db", "fusion_lat": 0.0, "name": "2fe4bb8ca2c26107dbfeb4f8a14d70db", "is_reserved": 0, "rental_uris": {"android": "https://dc.lft.to/lastmile_qr_scan", "ios": "https://dc.lft.to/lastmile_qr_scan"}, "fusion_lon": 0.0}, {"lat": 38.933560166666666, "is_disabled": 0, "type": "electric_scooter", "lon": -77.073743, "bike_id": "59367bda7e0447a1cb0b6f5f40e57af3", "fusion_lat": 0.0, "name": "59367bda7e0447a1cb0b6f5f40e57af3", "is_reserved": 0, "rental_uris": {"android": "https://dc.lft.to/lastmile_qr_scan", "ios": "https://dc.lft.to/lastmile_qr_scan"}, "fusion_lon": 0.0}, {"lat": 38.969299166666666, "is_disabled": 0, "type": "electric_bike", "lon": -77.02621166666667, "bike_id": "7d6a65b6282c6a49ce66f17d8ae7ddf0", "fusion_lat": 0.0, "name": "7d6a65b6282c6a49ce66f17d8ae7ddf0", "is_reserved": 0, "rental_uris": {"android": "https://dc.lft.to/lastmile_qr_scan", "ios": "https://dc.lft.to/lastmile_qr_scan"}, "fusion_lon": 0.0}, {"lat": 38.89834616666667, "is_disabled": 0, "type": "electric_scooter", "lon": -76.93105983333334, "bike_id": "3602c5a80a2b8ca2a38720c1b125a608", "fusion_lat": 0.0, "name": "3602c5a80a2b8ca2a38720c1b125a608", "is_reserved": 0, "rental_uris": {"android": "https://dc.lft.to/lastmile_qr_scan", "ios": "https://dc.lft.to/lastmile_qr_scan"}, "fusion_lon": 0.0}, {"lat": 38.90732716666667, "is_disabled": 0, "type": "electric_scooter", "lon": -77.03203616666667, "bike_id": "91e8a77fe1e8923a6d3da5dd9386a6b4", "fusion_lat": 0.0, "name": "91e8a77fe1e8923a6d3da5dd9386a6b4", "is_reserved": 0, "rental_uris": {"android": "https://dc.lft.to/lastmile_qr_scan", "ios": "https://dc.lft.to/lastmile_qr_scan"}, "fusion_lon": 0.0}, {"lat": 38.905352, "is_disabled": 0, "type": "electric_scooter", "lon": -77.04999216666667, "bike_id": "3a2824e6afb7e76d78b91b141e8e3285", "fusion_lat": 0.0, "name": "3a2824e6afb7e76d78b91b141e8e3285", "is_reserved": 0, "rental_uris": {"android": "https://dc.lft.to/lastmile_qr_scan", "ios": "https://dc.lft.to/lastmile_qr_scan"}, "fusion_lon": 0.0}, {"lat": 38.90316983333334, "is_disabled": 0, "type": "electric_scooter", "lon": -76.990001, "bike_id": "efee7e11bb0342ab8ff26dc91a8ca312", "fusion_lat": 0.0, "name": "efee7e11bb0342ab8ff26dc91a8ca312", "is_reserved": 0, "rental_uris": {"android": "https://dc.lft.to/lastmile_qr_scan", "ios": "https://dc.lft.to/lastmile_qr_scan"}, "fusion_lon": 0.0}, {"lat": 38.900335, "is_disabled": 0, "type": "electric_scooter", "lon": -77.04419383333334, "bike_id": "567cefd6e8c11424d0d2eb714f8cedc1", "fusion_lat": 0.0, "name": "567cefd6e8c11424d0d2eb714f8cedc1", "is_reserved": 0, "rental_uris": {"android": "https://dc.lft.to/lastmile_qr_scan", "ios": "https://dc.lft.to/lastmile_qr_scan"}, "fusion_lon": 0.0}, {"lat": 38.876304166666664, "is_disabled": 0, "type": "electric_scooter", "lon": -76.96525266666667, "bike_id": "3d4f03d4679aafeaf5d1a6fed834c532", "fusion_lat": 0.0, "name": "3d4f03d4679aafeaf5d1a6fed834c532", "is_reserved": 0, "rental_uris": {"android": "https://dc.lft.to/lastmile_qr_scan", "ios": "https://dc.lft.to/lastmile_qr_scan"}, "fusion_lon": 0.0}, {"lat": 38.9195975, "is_disabled": 0, "type": "electric_scooter", "lon": -77.048864, "bike_id": "8f1545800a0f6dd29c7c6252a1e63471", "fusion_lat": 0.0, "name": "8f1545800a0f6dd29c7c6252a1e63471", "is_reserved": 0, "rental_uris": {"android": "https://dc.lft.to/lastmile_qr_scan", "ios": "https://dc.lft.to/lastmile_qr_scan"}, "fusion_lon": 0.0}, {"lat": 38.916549833333335, "is_disabled": 0, "type": "electric_scooter", "lon": -77.03856833333333, "bike_id": "9a1e01ed5687a73ef4c0510524c664f2", "fusion_lat": 0.0, "name": "9a1e01ed5687a73ef4c0510524c664f2", "is_reserved": 0, "rental_uris": {"android": "https://dc.lft.to/lastmile_qr_scan", "ios": "https://dc.lft.to/lastmile_qr_scan"}, "fusion_lon": 0.0}, {"lat": 38.930807, "is_disabled": 0, "type": "electric_scooter", "lon": -77.026099, "bike_id": "9bb9fd1e218ae6b1e566b08a2accd766", "fusion_lat": 0.0, "name": "9bb9fd1e218ae6b1e566b08a2accd766", "is_reserved": 0, "rental_uris": {"android": "https://dc.lft.to/lastmile_qr_scan", "ios": "https://dc.lft.to/lastmile_qr_scan"}, "fusion_lon": 0.0}, {"lat": 38.90117983333333, "is_disabled": 0, "type": "electric_scooter", "lon": -77.03313533333333, "bike_id": "f3bd3b1b6f8537024919693983c91f18", "fusion_lat": 0.0, "name": "f3bd3b1b6f8537024919693983c91f18", "is_reserved": 0, "rental_uris": {"android": "https://dc.lft.to/lastmile_qr_scan", "ios": "https://dc.lft.to/lastmile_qr_scan"}, "fusion_lon": 0.0}, {"lat": 38.913332, "is_disabled": 0, "type": "electric_scooter", "lon": -77.03186183333334, "bike_id": "797aa44227674be41ee51aa6e35ef412", "fusion_lat": 0.0, "name": "797aa44227674be41ee51aa6e35ef412", "is_reserved": 0, "rental_uris": {"android": "https://dc.lft.to/lastmile_qr_scan", "ios": "https://dc.lft.to/lastmile_qr_scan"}, "fusion_lon": 0.0}, {"lat": 38.873413666666664, "is_disabled": 0, "type": "electric_scooter", "lon": -76.99167133333333, "bike_id": "00f56628ac058058957b9078d8ba77d5", "fusion_lat": 0.0, "name": "00f56628ac058058957b9078d8ba77d5", "is_reserved": 0, "rental_uris": {"android": "https://dc.lft.to/lastmile_qr_scan", "ios": "https://dc.lft.to/lastmile_qr_scan"}, "fusion_lon": 0.0}, {"lat": 38.86347516666667, "is_disabled": 0, "type": "electric_scooter", "lon": -76.9900235, "bike_id": "e90c51fa210239c709c78ddb89b08cad", "fusion_lat": 0.0, "name": "e90c51fa210239c709c78ddb89b08cad", "is_reserved": 0, "rental_uris": {"android": "https://dc.lft.to/lastmile_qr_scan", "ios": "https://dc.lft.to/lastmile_qr_scan"}, "fusion_lon": 0.0}, {"lat": 38.95559133333333, "is_disabled": 0, "type": "electric_bike", "lon": -76.93544533333333, "bike_id": "6a268e8af3536337f01a2c83ace64534", "fusion_lat": 0.0, "name": "6a268e8af3536337f01a2c83ace64534", "is_reserved": 0, "rental_uris": {"android": "https://dc.lft.to/lastmile_qr_scan", "ios": "https://dc.lft.to/lastmile_qr_scan"}, "fusion_lon": 0.0}, {"lat": 38.915536333333336, "is_disabled": 0, "type": "electric_scooter", "lon": -77.02431183333333, "bike_id": "d4fd6d69c9e4209d7cf24f89a4433b1b", "fusion_lat": 0.0, "name": "d4fd6d69c9e4209d7cf24f89a4433b1b", "is_reserved": 0, "rental_uris": {"android": "https://dc.lft.to/lastmile_qr_scan", "ios": "https://dc.lft.to/lastmile_qr_scan"}, "fusion_lon": 0.0}, {"lat": 38.912480333333335, "is_disabled": 0, "type": "electric_scooter", "lon": -77.04769183333333, "bike_id": "251e08cf53c70dddbbc113be84ce1ae8", "fusion_lat": 0.0, "name": "251e08cf53c70dddbbc113be84ce1ae8", "is_reserved": 0, "rental_uris": {"android": "https://dc.lft.to/lastmile_qr_scan", "ios": "https://dc.lft.to/lastmile_qr_scan"}, "fusion_lon": 0.0}, {"lat": 38.84866983333333, "is_disabled": 0, "type": "electric_scooter", "lon": -76.97692583333334, "bike_id": "e38cab7a40ace2cd6b5ccc788170b22d", "fusion_lat": 0.0, "name": "e38cab7a40ace2cd6b5ccc788170b22d", "is_reserved": 0, "rental_uris": {"android": "https://dc.lft.to/lastmile_qr_scan", "ios": "https://dc.lft.to/lastmile_qr_scan"}, "fusion_lon": 0.0}, {"lat": 38.89880183333333, "is_disabled": 0, "type": "electric_scooter", "lon": -77.053383, "bike_id": "ea871b36365954087db6d6e16a6d978c", "fusion_lat": 0.0, "name": "ea871b36365954087db6d6e16a6d978c", "is_reserved": 0, "rental_uris": {"android": "https://dc.lft.to/lastmile_qr_scan", "ios": "https://dc.lft.to/lastmile_qr_scan"}, "fusion_lon": 0.0}, {"lat": 38.89916566666667, "is_disabled": 0, "type": "electric_scooter", "lon": -76.93381483333333, "bike_id": "36ff1a57f94c9eda9dbbc11b247e7e86", "fusion_lat": 0.0, "name": "36ff1a57f94c9eda9dbbc11b247e7e86", "is_reserved": 0, "rental_uris": {"android": "https://dc.lft.to/lastmile_qr_scan", "ios": "https://dc.lft.to/lastmile_qr_scan"}, "fusion_lon": 0.0}, {"lat": 38.897381333333335, "is_disabled": 0, "type": "electric_scooter", "lon": -77.0453625, "bike_id": "afbd872af43d3b72f7efdad0fe8baa47", "fusion_lat": 0.0, "name": "afbd872af43d3b72f7efdad0fe8baa47", "is_reserved": 0, "rental_uris": {"android": "https://dc.lft.to/lastmile_qr_scan", "ios": "https://dc.lft.to/lastmile_qr_scan"}, "fusion_lon": 0.0}, {"lat": 38.874127333333334, "is_disabled": 0, "type": "electric_scooter", "lon": -76.97310783333333, "bike_id": "0c57309d979ea3490558564c3f23a8df", "fusion_lat": 0.0, "name": "0c57309d979ea3490558564c3f23a8df", "is_reserved": 0, "rental_uris": {"android": "https://dc.lft.to/lastmile_qr_scan", "ios": "https://dc.lft.to/lastmile_qr_scan"}, "fusion_lon": 0.0}, {"lat": 38.8068115, "is_disabled": 0, "type": "electric_bike", "lon": -77.08121233333334, "bike_id": "4c898962edc5b61f93472d4963a5ab45", "fusion_lat": 0.0, "name": "4c898962edc5b61f93472d4963a5ab45", "is_reserved": 0, "rental_uris": {"android": "https://dc.lft.to/lastmile_qr_scan", "ios": "https://dc.lft.to/lastmile_qr_scan"}, "fusion_lon": 0.0}, {"lat": 38.86658966666667, "is_disabled": 0, "type": "electric_scooter", "lon": -76.988838, "bike_id": "62399b14d59f750eff3c6903ed1b1430", "fusion_lat": 0.0, "name": "62399b14d59f750eff3c6903ed1b1430", "is_reserved": 0, "rental_uris": {"android": "https://dc.lft.to/lastmile_qr_scan", "ios": "https://dc.lft.to/lastmile_qr_scan"}, "fusion_lon": 0.0}, {"lat": 38.917784, "is_disabled": 0, "type": "electric_scooter", "lon": -77.04543933333333, "bike_id": "d9472e9156c51e60090c8b5e95fe1236", "fusion_lat": 0.0, "name": "d9472e9156c51e60090c8b5e95fe1236", "is_reserved": 0, "rental_uris": {"android": "https://dc.lft.to/lastmile_qr_scan", "ios": "https://dc.lft.to/lastmile_qr_scan"}, "fusion_lon": 0.0}, {"lat": 38.9257395, "is_disabled": 0, "type": "electric_scooter", "lon": -77.057636, "bike_id": "475122cd47c136b9b213861fd1d330ee", "fusion_lat": 0.0, "name": "475122cd47c136b9b213861fd1d330ee", "is_reserved": 0, "rental_uris": {"android": "https://dc.lft.to/lastmile_qr_scan", "ios": "https://dc.lft.to/lastmile_qr_scan"}, "fusion_lon": 0.0}, {"lat": 38.92140216666667, "is_disabled": 0, "type": "electric_scooter", "lon": -77.04355883333334, "bike_id": "4de07206be79349dfde781564170567d", "fusion_lat": 0.0, "name": "4de07206be79349dfde781564170567d", "is_reserved": 0, "rental_uris": {"android": "https://dc.lft.to/lastmile_qr_scan", "ios": "https://dc.lft.to/lastmile_qr_scan"}, "fusion_lon": 0.0}, {"lat": 38.903312166666666, "is_disabled": 0, "type": "electric_scooter", "lon": -76.97596366666667, "bike_id": "f7b62b63fe322259940ad2bb851be172", "fusion_lat": 0.0, "name": "f7b62b63fe322259940ad2bb851be172", "is_reserved": 0, "rental_uris": {"android": "https://dc.lft.to/lastmile_qr_scan", "ios": "https://dc.lft.to/lastmile_qr_scan"}, "fusion_lon": 0.0}, {"lat": 38.93993566666666, "is_disabled": 0, "type": "electric_scooter", "lon": -77.0717925, "bike_id": "28f73ac7cbdf652c1504b4eaa4e1a9b1", "fusion_lat": 0.0, "name": "28f73ac7cbdf652c1504b4eaa4e1a9b1", "is_reserved": 0, "rental_uris": {"android": "https://dc.lft.to/lastmile_qr_scan", "ios": "https://dc.lft.to/lastmile_qr_scan"}, "fusion_lon": 0.0}, {"lat": 38.903610666666665, "is_disabled": 0, "type": "electric_scooter", "lon": -77.0252475, "bike_id": "a684f2dbe6cd02f24fa17c8ee7d42f27", "fusion_lat": 0.0, "name": "a684f2dbe6cd02f24fa17c8ee7d42f27", "is_reserved": 0, "rental_uris": {"android": "https://dc.lft.to/lastmile_qr_scan", "ios": "https://dc.lft.to/lastmile_qr_scan"}, "fusion_lon": 0.0}, {"lat": 38.93199766666667, "is_disabled": 0, "type": "electric_scooter", "lon": -77.03745233333333, "bike_id": "21ca644f532cfc6c6954044fb9259986", "fusion_lat": 0.0, "name": "21ca644f532cfc6c6954044fb9259986", "is_reserved": 0, "rental_uris": {"android": "https://dc.lft.to/lastmile_qr_scan", "ios": "https://dc.lft.to/lastmile_qr_scan"}, "fusion_lon": 0.0}, {"lat": 38.892582833333336, "is_disabled": 0, "type": "electric_scooter", "lon": -76.941586, "bike_id": "9b0cc1c60eb0e46940a67bc94f0a8448", "fusion_lat": 0.0, "name": "9b0cc1c60eb0e46940a67bc94f0a8448", "is_reserved": 0, "rental_uris": {"android": "https://dc.lft.to/lastmile_qr_scan", "ios": "https://dc.lft.to/lastmile_qr_scan"}, "fusion_lon": 0.0}, {"lat": 38.899114833333336, "is_disabled": 0, "type": "electric_scooter", "lon": -76.93351916666667, "bike_id": "f1e73297a6ad7735e1efd0bdb6212c2d", "fusion_lat": 0.0, "name": "f1e73297a6ad7735e1efd0bdb6212c2d", "is_reserved": 0, "rental_uris": {"android": "https://dc.lft.to/lastmile_qr_scan", "ios": "https://dc.lft.to/lastmile_qr_scan"}, "fusion_lon": 0.0}, {"lat": 38.92029466666666, "is_disabled": 0, "type": "electric_scooter", "lon": -77.0307855, "bike_id": "9b897568a809f8c34e89c8198da9ad2c", "fusion_lat": 0.0, "name": "9b897568a809f8c34e89c8198da9ad2c", "is_reserved": 0, "rental_uris": {"android": "https://dc.lft.to/lastmile_qr_scan", "ios": "https://dc.lft.to/lastmile_qr_scan"}, "fusion_lon": 0.0}, {"lat": 38.91926466666666, "is_disabled": 0, "type": "electric_bike", "lon": -76.95730933333333, "bike_id": "83c9d4d71cf98b0467c51829b9e12edd", "fusion_lat": 0.0, "name": "83c9d4d71cf98b0467c51829b9e12edd", "is_reserved": 0, "rental_uris": {"android": "https://dc.lft.to/lastmile_qr_scan", "ios": "https://dc.lft.to/lastmile_qr_scan"}, "fusion_lon": 0.0}, {"lat": 38.91332716666667, "is_disabled": 0, "type": "electric_scooter", "lon": -77.031813, "bike_id": "45fa32e9870d27b3fa39d3f2c6e6e737", "fusion_lat": 0.0, "name": "45fa32e9870d27b3fa39d3f2c6e6e737", "is_reserved": 0, "rental_uris": {"android": "https://dc.lft.to/lastmile_qr_scan", "ios": "https://dc.lft.to/lastmile_qr_scan"}, "fusion_lon": 0.0}, {"lat": 38.924004, "is_disabled": 0, "type": "electric_scooter", "lon": -77.05164033333334, "bike_id": "34c7a1dcc88f4f4d2c474700d200882f", "fusion_lat": 0.0, "name": "34c7a1dcc88f4f4d2c474700d200882f", "is_reserved": 0, "rental_uris": {"android": "https://dc.lft.to/lastmile_qr_scan", "ios": "https://dc.lft.to/lastmile_qr_scan"}, "fusion_lon": 0.0}, {"lat": 38.859660166666664, "is_disabled": 0, "type": "electric_bike", "lon": -77.056745, "bike_id": "b81dba4e585c76d8f27c8929e68cb75a", "fusion_lat": 0.0, "name": "b81dba4e585c76d8f27c8929e68cb75a", "is_reserved": 0, "rental_uris": {"android": "https://dc.lft.to/lastmile_qr_scan", "ios": "https://dc.lft.to/lastmile_qr_scan"}, "fusion_lon": 0.0}, {"lat": 38.9064375, "is_disabled": 0, "type": "electric_scooter", "lon": -77.03381566666667, "bike_id": "a1bc610bde93dda1054effe5fc431005", "fusion_lat": 0.0, "name": "a1bc610bde93dda1054effe5fc431005", "is_reserved": 0, "rental_uris": {"android": "https://dc.lft.to/lastmile_qr_scan", "ios": "https://dc.lft.to/lastmile_qr_scan"}, "fusion_lon": 0.0}, {"lat": 38.9112165, "is_disabled": 0, "type": "electric_scooter", "lon": -77.03824283333333, "bike_id": "5d806ac7250f10e93fae81da422068ec", "fusion_lat": 0.0, "name": "5d806ac7250f10e93fae81da422068ec", "is_reserved": 0, "rental_uris": {"android": "https://dc.lft.to/lastmile_qr_scan", "ios": "https://dc.lft.to/lastmile_qr_scan"}, "fusion_lon": 0.0}, {"lat": 38.9560925, "is_disabled": 0, "type": "electric_scooter", "lon": -77.01019616666666, "bike_id": "992229b796a10824068ec2561eb31784", "fusion_lat": 0.0, "name": "992229b796a10824068ec2561eb31784", "is_reserved": 0, "rental_uris": {"android": "https://dc.lft.to/lastmile_qr_scan", "ios": "https://dc.lft.to/lastmile_qr_scan"}, "fusion_lon": 0.0}, {"lat": 38.844284, "is_disabled": 0, "type": "electric_scooter", "lon": -76.99782333333333, "bike_id": "9a609f9abeae567e65f248a23e6208b2", "fusion_lat": 0.0, "name": "9a609f9abeae567e65f248a23e6208b2", "is_reserved": 0, "rental_uris": {"android": "https://dc.lft.to/lastmile_qr_scan", "ios": "https://dc.lft.to/lastmile_qr_scan"}, "fusion_lon": 0.0}, {"lat": 38.91536683333333, "is_disabled": 0, "type": "electric_scooter", "lon": -77.03190933333333, "bike_id": "917ac39e7eacaf4c4d7283f670b08f6e", "fusion_lat": 0.0, "name": "917ac39e7eacaf4c4d7283f670b08f6e", "is_reserved": 0, "rental_uris": {"android": "https://dc.lft.to/lastmile_qr_scan", "ios": "https://dc.lft.to/lastmile_qr_scan"}, "fusion_lon": 0.0}, {"lat": 38.87690333333333, "is_disabled": 0, "type": "electric_scooter", "lon": -77.004103, "bike_id": "e4041097a40f72599ea8fb260fb0b89b", "fusion_lat": 0.0, "name": "e4041097a40f72599ea8fb260fb0b89b", "is_reserved": 0, "rental_uris": {"android": "https://dc.lft.to/lastmile_qr_scan", "ios": "https://dc.lft.to/lastmile_qr_scan"}, "fusion_lon": 0.0}, {"lat": 38.90785666666667, "is_disabled": 0, "type": "electric_scooter", "lon": -77.002016, "bike_id": "8bbab859703e7d95e30cebd89ffb7320", "fusion_lat": 0.0, "name": "8bbab859703e7d95e30cebd89ffb7320", "is_reserved": 0, "rental_uris": {"android": "https://dc.lft.to/lastmile_qr_scan", "ios": "https://dc.lft.to/lastmile_qr_scan"}, "fusion_lon": 0.0}, {"lat": 38.9212425, "is_disabled": 0, "type": "electric_scooter", "lon": -77.04114816666667, "bike_id": "850301a69c7ab0e3160d5c81c4bbf2d1", "fusion_lat": 0.0, "name": "850301a69c7ab0e3160d5c81c4bbf2d1", "is_reserved": 0, "rental_uris": {"android": "https://dc.lft.to/lastmile_qr_scan", "ios": "https://dc.lft.to/lastmile_qr_scan"}, "fusion_lon": 0.0}, {"lat": 38.80500933333333, "is_disabled": 0, "type": "electric_bike", "lon": -77.04137716666666, "bike_id": "c5f2394d2dc6e411eeadf5d34aec1298", "fusion_lat": 0.0, "name": "c5f2394d2dc6e411eeadf5d34aec1298", "is_reserved": 0, "rental_uris": {"android": "https://dc.lft.to/lastmile_qr_scan", "ios": "https://dc.lft.to/lastmile_qr_scan"}, "fusion_lon": 0.0}, {"lat": 38.933379, "is_disabled": 0, "type": "electric_scooter", "lon": -76.99308583333334, "bike_id": "13401add7009608d2734a6f463301ecc", "fusion_lat": 0.0, "name": "13401add7009608d2734a6f463301ecc", "is_reserved": 0, "rental_uris": {"android": "https://dc.lft.to/lastmile_qr_scan", "ios": "https://dc.lft.to/lastmile_qr_scan"}, "fusion_lon": 0.0}, {"lat": 38.866205, "is_disabled": 0, "type": "electric_scooter", "lon": -76.986404, "bike_id": "4f2eb0ff21fc29a71b4dc9c3eb115a8b", "fusion_lat": 0.0, "name": "4f2eb0ff21fc29a71b4dc9c3eb115a8b", "is_reserved": 0, "rental_uris": {"android": "https://dc.lft.to/lastmile_qr_scan", "ios": "https://dc.lft.to/lastmile_qr_scan"}, "fusion_lon": 0.0}, {"lat": 38.9129445, "is_disabled": 0, "type": "electric_scooter", "lon": -77.0385675, "bike_id": "e061073949f5db440401cb86a8620e41", "fusion_lat": 0.0, "name": "e061073949f5db440401cb86a8620e41", "is_reserved": 0, "rental_uris": {"android": "https://dc.lft.to/lastmile_qr_scan", "ios": "https://dc.lft.to/lastmile_qr_scan"}, "fusion_lon": 0.0}, {"lat": 38.85211983333333, "is_disabled": 0, "type": "electric_bike", "lon": -76.99579833333334, "bike_id": "380761e8d43619fea377f860f1c6da8c", "fusion_lat": 0.0, "name": "380761e8d43619fea377f860f1c6da8c", "is_reserved": 0, "rental_uris": {"android": "https://dc.lft.to/lastmile_qr_scan", "ios": "https://dc.lft.to/lastmile_qr_scan"}, "fusion_lon": 0.0}, {"lat": 38.9184005, "is_disabled": 0, "type": "electric_scooter", "lon": -77.0231495, "bike_id": "883b0b4524827d1f336009a310803664", "fusion_lat": 0.0, "name": "883b0b4524827d1f336009a310803664", "is_reserved": 0, "rental_uris": {"android": "https://dc.lft.to/lastmile_qr_scan", "ios": "https://dc.lft.to/lastmile_qr_scan"}, "fusion_lon": 0.0}, {"lat": 38.91419, "is_disabled": 0, "type": "electric_scooter", "lon": -77.031876, "bike_id": "cf913b47a186a53426f981790a60cbb1", "fusion_lat": 0.0, "name": "cf913b47a186a53426f981790a60cbb1", "is_reserved": 0, "rental_uris": {"android": "https://dc.lft.to/lastmile_qr_scan", "ios": "https://dc.lft.to/lastmile_qr_scan"}, "fusion_lon": 0.0}, {"lat": 38.9382255, "is_disabled": 0, "type": "electric_bike", "lon": -76.990415, "bike_id": "5b278fe99c6aaa5f024c00c90f2402af", "fusion_lat": 0.0, "name": "5b278fe99c6aaa5f024c00c90f2402af", "is_reserved": 0, "rental_uris": {"android": "https://dc.lft.to/lastmile_qr_scan", "ios": "https://dc.lft.to/lastmile_qr_scan"}, "fusion_lon": 0.0}, {"lat": 38.913344, "is_disabled": 0, "type": "electric_scooter", "lon": -77.031815, "bike_id": "e02e6294234c19fa4cf74c0a8c3caa89", "fusion_lat": 0.0, "name": "e02e6294234c19fa4cf74c0a8c3caa89", "is_reserved": 0, "rental_uris": {"android": "https://dc.lft.to/lastmile_qr_scan", "ios": "https://dc.lft.to/lastmile_qr_scan"}, "fusion_lon": 0.0}, {"lat": 38.937496, "is_disabled": 0, "type": "electric_scooter", "lon": -77.034549, "bike_id": "3429ef39af529f8ad421d91ac6f9ffba", "fusion_lat": 0.0, "name": "3429ef39af529f8ad421d91ac6f9ffba", "is_reserved": 0, "rental_uris": {"android": "https://dc.lft.to/lastmile_qr_scan", "ios": "https://dc.lft.to/lastmile_qr_scan"}, "fusion_lon": 0.0}, {"lat": 38.9064465, "is_disabled": 0, "type": "electric_scooter", "lon": -76.99027433333333, "bike_id": "657eb21783f02b692d7eead3aaf891ef", "fusion_lat": 0.0, "name": "657eb21783f02b692d7eead3aaf891ef", "is_reserved": 0, "rental_uris": {"android": "https://dc.lft.to/lastmile_qr_scan", "ios": "https://dc.lft.to/lastmile_qr_scan"}, "fusion_lon": 0.0}, {"lat": 38.909734666666665, "is_disabled": 0, "type": "electric_scooter", "lon": -77.03302383333333, "bike_id": "89c11b7adb42982e4ee15b6ed3a60643", "fusion_lat": 0.0, "name": "89c11b7adb42982e4ee15b6ed3a60643", "is_reserved": 0, "rental_uris": {"android": "https://dc.lft.to/lastmile_qr_scan", "ios": "https://dc.lft.to/lastmile_qr_scan"}, "fusion_lon": 0.0}, {"lat": 38.90764183333334, "is_disabled": 0, "type": "electric_scooter", "lon": -77.04155216666666, "bike_id": "f82751c91ab94c07e51620d31520e2c9", "fusion_lat": 0.0, "name": "f82751c91ab94c07e51620d31520e2c9", "is_reserved": 0, "rental_uris": {"android": "https://dc.lft.to/lastmile_qr_scan", "ios": "https://dc.lft.to/lastmile_qr_scan"}, "fusion_lon": 0.0}, {"lat": 38.901945833333336, "is_disabled": 0, "type": "electric_scooter", "lon": -77.02172233333333, "bike_id": "f7ee66c92c77ff921f5c5b9be4129236", "fusion_lat": 0.0, "name": "f7ee66c92c77ff921f5c5b9be4129236", "is_reserved": 0, "rental_uris": {"android": "https://dc.lft.to/lastmile_qr_scan", "ios": "https://dc.lft.to/lastmile_qr_scan"}, "fusion_lon": 0.0}, {"lat": 38.882823, "is_disabled": 0, "type": "electric_bike", "lon": -76.93244416666667, "bike_id": "ba04b9805c3592a658bedcafebc52fd9", "fusion_lat": 0.0, "name": "ba04b9805c3592a658bedcafebc52fd9", "is_reserved": 0, "rental_uris": {"android": "https://dc.lft.to/lastmile_qr_scan", "ios": "https://dc.lft.to/lastmile_qr_scan"}, "fusion_lon": 0.0}, {"lat": 38.8996995, "is_disabled": 0, "type": "electric_scooter", "lon": -77.05269716666666, "bike_id": "3a7d80d7687d5fe83fa1f1d7773afa9d", "fusion_lat": 0.0, "name": "3a7d80d7687d5fe83fa1f1d7773afa9d", "is_reserved": 0, "rental_uris": {"android": "https://dc.lft.to/lastmile_qr_scan", "ios": "https://dc.lft.to/lastmile_qr_scan"}, "fusion_lon": 0.0}, {"lat": 38.90333016666666, "is_disabled": 0, "type": "electric_scooter", "lon": -76.97056833333333, "bike_id": "d8566203dda4514bf4947a2039a82958", "fusion_lat": 0.0, "name": "d8566203dda4514bf4947a2039a82958", "is_reserved": 0, "rental_uris": {"android": "https://dc.lft.to/lastmile_qr_scan", "ios": "https://dc.lft.to/lastmile_qr_scan"}, "fusion_lon": 0.0}, {"lat": 38.90646783333333, "is_disabled": 0, "type": "electric_scooter", "lon": -77.006001, "bike_id": "990e1274dd70f09daee281f6a707948c", "fusion_lat": 0.0, "name": "990e1274dd70f09daee281f6a707948c", "is_reserved": 0, "rental_uris": {"android": "https://dc.lft.to/lastmile_qr_scan", "ios": "https://dc.lft.to/lastmile_qr_scan"}, "fusion_lon": 0.0}, {"lat": 38.914927166666665, "is_disabled": 0, "type": "electric_scooter", "lon": -76.98354783333333, "bike_id": "1d0138c870cb1e33835f817ec4b7c60d", "fusion_lat": 0.0, "name": "1d0138c870cb1e33835f817ec4b7c60d", "is_reserved": 0, "rental_uris": {"android": "https://dc.lft.to/lastmile_qr_scan", "ios": "https://dc.lft.to/lastmile_qr_scan"}, "fusion_lon": 0.0}, {"lat": 38.95733883333333, "is_disabled": 0, "type": "electric_scooter", "lon": -77.02386316666667, "bike_id": "ab4307f7a2c81eed0775f54dfbcc8b8c", "fusion_lat": 0.0, "name": "ab4307f7a2c81eed0775f54dfbcc8b8c", "is_reserved": 0, "rental_uris": {"android": "https://dc.lft.to/lastmile_qr_scan", "ios": "https://dc.lft.to/lastmile_qr_scan"}, "fusion_lon": 0.0}, {"lat": 38.90883616666667, "is_disabled": 0, "type": "electric_scooter", "lon": -77.0366845, "bike_id": "d2c1d6caef5bf992ac4f5b3750f50003", "fusion_lat": 0.0, "name": "d2c1d6caef5bf992ac4f5b3750f50003", "is_reserved": 0, "rental_uris": {"android": "https://dc.lft.to/lastmile_qr_scan", "ios": "https://dc.lft.to/lastmile_qr_scan"}, "fusion_lon": 0.0}, {"lat": 38.911923, "is_disabled": 0, "type": "electric_scooter", "lon": -77.04486083333333, "bike_id": "498169d2e2ba3a075fe910c76b35aea8", "fusion_lat": 0.0, "name": "498169d2e2ba3a075fe910c76b35aea8", "is_reserved": 0, "rental_uris": {"android": "https://dc.lft.to/lastmile_qr_scan", "ios": "https://dc.lft.to/lastmile_qr_scan"}, "fusion_lon": 0.0}, {"lat": 38.86620166666667, "is_disabled": 0, "type": "electric_scooter", "lon": -76.98662816666666, "bike_id": "9e442845393563823f20eabaf6d6419e", "fusion_lat": 0.0, "name": "9e442845393563823f20eabaf6d6419e", "is_reserved": 0, "rental_uris": {"android": "https://dc.lft.to/lastmile_qr_scan", "ios": "https://dc.lft.to/lastmile_qr_scan"}, "fusion_lon": 0.0}, {"lat": 38.90146716666667, "is_disabled": 0, "type": "electric_scooter", "lon": -77.05120883333333, "bike_id": "295d81cadc6982b29c7a0d7905887074", "fusion_lat": 0.0, "name": "295d81cadc6982b29c7a0d7905887074", "is_reserved": 0, "rental_uris": {"android": "https://dc.lft.to/lastmile_qr_scan", "ios": "https://dc.lft.to/lastmile_qr_scan"}, "fusion_lon": 0.0}, {"lat": 38.89423433333333, "is_disabled": 0, "type": "electric_scooter", "lon": -77.02088033333334, "bike_id": "ec8978085de90666157ec17c69e17fd8", "fusion_lat": 0.0, "name": "ec8978085de90666157ec17c69e17fd8", "is_reserved": 0, "rental_uris": {"android": "https://dc.lft.to/lastmile_qr_scan", "ios": "https://dc.lft.to/lastmile_qr_scan"}, "fusion_lon": 0.0}, {"lat": 38.95082566666667, "is_disabled": 0, "type": "electric_bike", "lon": -77.012053, "bike_id": "f1f5bad212014ec733046fbc9a615af6", "fusion_lat": 0.0, "name": "f1f5bad212014ec733046fbc9a615af6", "is_reserved": 0, "rental_uris": {"android": "https://dc.lft.to/lastmile_qr_scan", "ios": "https://dc.lft.to/lastmile_qr_scan"}, "fusion_lon": 0.0}, {"lat": 38.90575466666667, "is_disabled": 0, "type": "electric_scooter", "lon": -77.0220255, "bike_id": "cfba7552002a2d78250a6615868e1fe7", "fusion_lat": 0.0, "name": "cfba7552002a2d78250a6615868e1fe7", "is_reserved": 0, "rental_uris": {"android": "https://dc.lft.to/lastmile_qr_scan", "ios": "https://dc.lft.to/lastmile_qr_scan"}, "fusion_lon": 0.0}, {"lat": 38.935843, "is_disabled": 0, "type": "electric_scooter", "lon": -77.03753516666667, "bike_id": "29a0e66f525c5e1fdeb162bdd14a2cfc", "fusion_lat": 0.0, "name": "29a0e66f525c5e1fdeb162bdd14a2cfc", "is_reserved": 0, "rental_uris": {"android": "https://dc.lft.to/lastmile_qr_scan", "ios": "https://dc.lft.to/lastmile_qr_scan"}, "fusion_lon": 0.0}, {"lat": 38.923681333333334, "is_disabled": 0, "type": "electric_scooter", "lon": -77.03165733333333, "bike_id": "f0995abf57042a7aad281b15ffb5f1ea", "fusion_lat": 0.0, "name": "f0995abf57042a7aad281b15ffb5f1ea", "is_reserved": 0, "rental_uris": {"android": "https://dc.lft.to/lastmile_qr_scan", "ios": "https://dc.lft.to/lastmile_qr_scan"}, "fusion_lon": 0.0}, {"lat": 38.961340166666666, "is_disabled": 0, "type": "electric_scooter", "lon": -77.02231633333334, "bike_id": "52558cd4e483ebc891ee5f08367da82c", "fusion_lat": 0.0, "name": "52558cd4e483ebc891ee5f08367da82c", "is_reserved": 0, "rental_uris": {"android": "https://dc.lft.to/lastmile_qr_scan", "ios": "https://dc.lft.to/lastmile_qr_scan"}, "fusion_lon": 0.0}, {"lat": 38.92357366666667, "is_disabled": 0, "type": "electric_bike", "lon": -76.97142283333334, "bike_id": "43cc2bcd453a56e5a624dd2d47296385", "fusion_lat": 0.0, "name": "43cc2bcd453a56e5a624dd2d47296385", "is_reserved": 0, "rental_uris": {"android": "https://dc.lft.to/lastmile_qr_scan", "ios": "https://dc.lft.to/lastmile_qr_scan"}, "fusion_lon": 0.0}, {"lat": 38.912952, "is_disabled": 0, "type": "electric_scooter", "lon": -77.03847983333333, "bike_id": "79df9d92a395682ac33047906394429f", "fusion_lat": 0.0, "name": "79df9d92a395682ac33047906394429f", "is_reserved": 0, "rental_uris": {"android": "https://dc.lft.to/lastmile_qr_scan", "ios": "https://dc.lft.to/lastmile_qr_scan"}, "fusion_lon": 0.0}, {"lat": 38.929747666666664, "is_disabled": 0, "type": "electric_scooter", "lon": -77.01299483333334, "bike_id": "0aa54a749ca25c39d45fc43c9e576c7f", "fusion_lat": 0.0, "name": "0aa54a749ca25c39d45fc43c9e576c7f", "is_reserved": 0, "rental_uris": {"android": "https://dc.lft.to/lastmile_qr_scan", "ios": "https://dc.lft.to/lastmile_qr_scan"}, "fusion_lon": 0.0}, {"lat": 38.9067, "is_disabled": 0, "type": "electric_scooter", "lon": -77.03860183333333, "bike_id": "88a244089e7792344c574b12919ab934", "fusion_lat": 0.0, "name": "88a244089e7792344c574b12919ab934", "is_reserved": 0, "rental_uris": {"android": "https://dc.lft.to/lastmile_qr_scan", "ios": "https://dc.lft.to/lastmile_qr_scan"}, "fusion_lon": 0.0}, {"lat": 38.871462333333334, "is_disabled": 0, "type": "electric_bike", "lon": -76.93701783333333, "bike_id": "3b41d1d0f66cfa3b67c55c96441d51aa", "fusion_lat": 0.0, "name": "3b41d1d0f66cfa3b67c55c96441d51aa", "is_reserved": 0, "rental_uris": {"android": "https://dc.lft.to/lastmile_qr_scan", "ios": "https://dc.lft.to/lastmile_qr_scan"}, "fusion_lon": 0.0}, {"lat": 38.91020783333333, "is_disabled": 0, "type": "electric_scooter", "lon": -77.0487915, "bike_id": "156859041ccea529ef347c09f412bc5b", "fusion_lat": 0.0, "name": "156859041ccea529ef347c09f412bc5b", "is_reserved": 0, "rental_uris": {"android": "https://dc.lft.to/lastmile_qr_scan", "ios": "https://dc.lft.to/lastmile_qr_scan"}, "fusion_lon": 0.0}, {"lat": 38.857219, "is_disabled": 0, "type": "electric_bike", "lon": -76.9708335, "bike_id": "24e37bcdf625786c7ea1d4ed7f1c0610", "fusion_lat": 0.0, "name": "24e37bcdf625786c7ea1d4ed7f1c0610", "is_reserved": 0, "rental_uris": {"android": "https://dc.lft.to/lastmile_qr_scan", "ios": "https://dc.lft.to/lastmile_qr_scan"}, "fusion_lon": 0.0}, {"lat": 38.9055265, "is_disabled": 0, "type": "electric_scooter", "lon": -77.0465775, "bike_id": "8d3a919c9fe0818d7477c38de7a0633d", "fusion_lat": 0.0, "name": "8d3a919c9fe0818d7477c38de7a0633d", "is_reserved": 0, "rental_uris": {"android": "https://dc.lft.to/lastmile_qr_scan", "ios": "https://dc.lft.to/lastmile_qr_scan"}, "fusion_lon": 0.0}, {"lat": 38.88448266666666, "is_disabled": 0, "type": "electric_scooter", "lon": -76.9509575, "bike_id": "20d9864c3490cfdf951483f2badb03cc", "fusion_lat": 0.0, "name": "20d9864c3490cfdf951483f2badb03cc", "is_reserved": 0, "rental_uris": {"android": "https://dc.lft.to/lastmile_qr_scan", "ios": "https://dc.lft.to/lastmile_qr_scan"}, "fusion_lon": 0.0}, {"lat": 38.948234666666664, "is_disabled": 0, "type": "electric_scooter", "lon": -76.99904766666667, "bike_id": "e81703f4537043b5423e68d7e0ad619e", "fusion_lat": 0.0, "name": "e81703f4537043b5423e68d7e0ad619e", "is_reserved": 0, "rental_uris": {"android": "https://dc.lft.to/lastmile_qr_scan", "ios": "https://dc.lft.to/lastmile_qr_scan"}, "fusion_lon": 0.0}, {"lat": 38.92120233333333, "is_disabled": 0, "type": "electric_scooter", "lon": -77.04166466666666, "bike_id": "e4537f0df6028bc5d8dc833916aab7c2", "fusion_lat": 0.0, "name": "e4537f0df6028bc5d8dc833916aab7c2", "is_reserved": 0, "rental_uris": {"android": "https://dc.lft.to/lastmile_qr_scan", "ios": "https://dc.lft.to/lastmile_qr_scan"}, "fusion_lon": 0.0}, {"lat": 38.91740633333333, "is_disabled": 0, "type": "electric_scooter", "lon": -77.031968, "bike_id": "8cccbcbfda8aea4524ac24822ddcbcf1", "fusion_lat": 0.0, "name": "8cccbcbfda8aea4524ac24822ddcbcf1", "is_reserved": 0, "rental_uris": {"android": "https://dc.lft.to/lastmile_qr_scan", "ios": "https://dc.lft.to/lastmile_qr_scan"}, "fusion_lon": 0.0}, {"lat": 38.944588833333334, "is_disabled": 0, "type": "electric_scooter", "lon": -77.06037183333333, "bike_id": "e7542065078fa3946390dd33f7fe8540", "fusion_lat": 0.0, "name": "e7542065078fa3946390dd33f7fe8540", "is_reserved": 0, "rental_uris": {"android": "https://dc.lft.to/lastmile_qr_scan", "ios": "https://dc.lft.to/lastmile_qr_scan"}, "fusion_lon": 0.0}, {"lat": 38.90270066666667, "is_disabled": 0, "type": "electric_scooter", "lon": -77.039606, "bike_id": "5661265ca5e27dc1824c5b498e274ef7", "fusion_lat": 0.0, "name": "5661265ca5e27dc1824c5b498e274ef7", "is_reserved": 0, "rental_uris": {"android": "https://dc.lft.to/lastmile_qr_scan", "ios": "https://dc.lft.to/lastmile_qr_scan"}, "fusion_lon": 0.0}, {"lat": 38.9881835, "is_disabled": 0, "type": "electric_bike", "lon": -77.02652533333334, "bike_id": "cdbc0337ff1c2b19f1bf65e6ec6c1044", "fusion_lat": 0.0, "name": "cdbc0337ff1c2b19f1bf65e6ec6c1044", "is_reserved": 0, "rental_uris": {"android": "https://dc.lft.to/lastmile_qr_scan", "ios": "https://dc.lft.to/lastmile_qr_scan"}, "fusion_lon": 0.0}, {"lat": 38.930945666666666, "is_disabled": 0, "type": "electric_scooter", "lon": -77.03402533333333, "bike_id": "1ba51f9e7d690c45126135fda7de18b5", "fusion_lat": 0.0, "name": "1ba51f9e7d690c45126135fda7de18b5", "is_reserved": 0, "rental_uris": {"android": "https://dc.lft.to/lastmile_qr_scan", "ios": "https://dc.lft.to/lastmile_qr_scan"}, "fusion_lon": 0.0}, {"lat": 38.92452816666667, "is_disabled": 0, "type": "electric_scooter", "lon": -77.04201866666666, "bike_id": "feed8107ea75bab9e786b35993942efb", "fusion_lat": 0.0, "name": "feed8107ea75bab9e786b35993942efb", "is_reserved": 0, "rental_uris": {"android": "https://dc.lft.to/lastmile_qr_scan", "ios": "https://dc.lft.to/lastmile_qr_scan"}, "fusion_lon": 0.0}, {"lat": 38.896839166666666, "is_disabled": 0, "type": "electric_scooter", "lon": -76.93609066666667, "bike_id": "c855e68ef81dd68ea0b36a3574fe4d5b", "fusion_lat": 0.0, "name": "c855e68ef81dd68ea0b36a3574fe4d5b", "is_reserved": 0, "rental_uris": {"android": "https://dc.lft.to/lastmile_qr_scan", "ios": "https://dc.lft.to/lastmile_qr_scan"}, "fusion_lon": 0.0}, {"lat": 38.9012865, "is_disabled": 0, "type": "electric_scooter", "lon": -77.0179035, "bike_id": "72c577c995d06f30aad901f9e0ab7ed9", "fusion_lat": 0.0, "name": "72c577c995d06f30aad901f9e0ab7ed9", "is_reserved": 0, "rental_uris": {"android": "https://dc.lft.to/lastmile_qr_scan", "ios": "https://dc.lft.to/lastmile_qr_scan"}, "fusion_lon": 0.0}, {"lat": 38.907149833333335, "is_disabled": 0, "type": "electric_scooter", "lon": -77.02406133333334, "bike_id": "febecf1de81f5fe5f30ed45d9123e0cc", "fusion_lat": 0.0, "name": "febecf1de81f5fe5f30ed45d9123e0cc", "is_reserved": 0, "rental_uris": {"android": "https://dc.lft.to/lastmile_qr_scan", "ios": "https://dc.lft.to/lastmile_qr_scan"}, "fusion_lon": 0.0}, {"lat": 38.91561516666667, "is_disabled": 0, "type": "electric_scooter", "lon": -77.03846933333334, "bike_id": "115d5710cb443d9307a141f6985128d4", "fusion_lat": 0.0, "name": "115d5710cb443d9307a141f6985128d4", "is_reserved": 0, "rental_uris": {"android": "https://dc.lft.to/lastmile_qr_scan", "ios": "https://dc.lft.to/lastmile_qr_scan"}, "fusion_lon": 0.0}, {"lat": 38.954946666666665, "is_disabled": 0, "type": "electric_scooter", "lon": -77.06570316666667, "bike_id": "b75c363fc37a1671f858cebf73548fa9", "fusion_lat": 0.0, "name": "b75c363fc37a1671f858cebf73548fa9", "is_reserved": 0, "rental_uris": {"android": "https://dc.lft.to/lastmile_qr_scan", "ios": "https://dc.lft.to/lastmile_qr_scan"}, "fusion_lon": 0.0}, {"lat": 38.91202533333333, "is_disabled": 0, "type": "electric_scooter", "lon": -77.01465833333333, "bike_id": "249e73266a01f95b1d391c9166281f16", "fusion_lat": 0.0, "name": "249e73266a01f95b1d391c9166281f16", "is_reserved": 0, "rental_uris": {"android": "https://dc.lft.to/lastmile_qr_scan", "ios": "https://dc.lft.to/lastmile_qr_scan"}, "fusion_lon": 0.0},