{"data": {"bikes": [{"fusion_lon": 0.0, "bike_id": "95cf2071142200e6134836e9d07aed4e", "name": "95cf2071142200e6134836e9d07aed4e", "type": "electric_bike", "lon": -77.04900983333333, "rental_uris": {"android": "https://dc.lft.to/lastmile_qr_scan", "ios": "https://dc.lft.to/lastmile_qr_scan"}, "lat": 38.874924166666666, "is_reserved": 0, "is_disabled": 0, "fusion_lat": 0.0}, {"fusion_lon": 0.0, "bike_id": "500dcf7882a553a5eb3ab8bf62740d35", "name": "500dcf7882a553a5eb3ab8bf62740d35", "type": "electric_scooter", "lon": -77.02958516666666, "rental_uris": {"android": "https://dc.lft.to/lastmile_qr_scan", "ios": "https://dc.lft.to/lastmile_qr_scan"}, "lat": 38.911866, "is_reserved": 0, "is_disabled": 0, "fusion_lat": 0.0}, {"fusion_lon": 0.0, "bike_id": "ff3d3f1981bd78249ba93ac27c5b1d2a", "name": "ff3d3f1981bd78249ba93ac27c5b1d2a", "type": "electric_scooter", "lon": -77.03149816666667, "rental_uris": {"android": "https://dc.lft.to/lastmile_qr_scan", "ios": "https://dc.lft.to/lastmile_qr_scan"}, "lat": 38.927865, "is_reserved": 0, "is_disabled": 0, "fusion_lat": 0.0}, {"fusion_lon": 0.0, "bike_id": "6260a301a58b92402d8193df4b742bd5", "name": "6260a301a58b92402d8193df4b742bd5", "type": "electric_scooter", "lon": -77.00340733333333, "rental_uris": {"android": "https://dc.lft.to/lastmile_qr_scan", "ios": "https://dc.lft.to/lastmile_qr_scan"}, "lat": 38.9072585, "is_reserved": 0, "is_disabled": 0, "fusion_lat": 0.0}, {"fusion_lon": 0.0, "bike_id": "dcb5924c9ee43d8806cc569b0984da26", "name": "dcb5924c9ee43d8806cc569b0984da26", "type": "electric_scooter", "lon": -77.01793016666667, "rental_uris": {"android": "https://dc.lft.to/lastmile_qr_scan", "ios": "https://dc.lft.to/lastmile_qr_scan"}, "lat": 38.9412105, "is_reserved": 0, "is_disabled": 0, "fusion_lat": 0.0}, {"fusion_lon": 0.0, "bike_id": "bcdaf11285194501fbfcf041beeb9341", "name": "bcdaf11285194501fbfcf041beeb9341", "type": "electric_scooter", "lon": -77.03732116666667, "rental_uris": {"android": "https://dc.lft.to/lastmile_qr_scan", "ios": "https://dc.lft.to/lastmile_qr_scan"}, "lat": 38.93572233333333, "is_reserved": 0, "is_disabled": 0, "fusion_lat": 0.0}, {"fusion_lon": 0.0, "bike_id": "a7889cc89ac7cd4fb469c8ff2031c32b", "name": "a7889cc89ac7cd4fb469c8ff2031c32b", "type": "electric_scooter", "lon": -77.02936616666666, "rental_uris": {"android": "https://dc.lft.to/lastmile_qr_scan", "ios": "https://dc.lft.to/lastmile_qr_scan"}, "lat": 38.914168333333336, "is_reserved": 0, "is_disabled": 0, "fusion_lat": 0.0}, {"fusion_lon": 0.0, "bike_id": "0b02c7ffa1c03dfcdf803bc59a92787b", "name": "0b02c7ffa1c03dfcdf803bc59a92787b", "type": "electric_scooter", "lon": -77.05922783333334, "rental_uris": {"android": "https://dc.lft.to/lastmile_qr_scan", "ios": "https://dc.lft.to/lastmile_qr_scan"}, "lat": 38.91004933333333, "is_reserved": 0, "is_disabled": 0, "fusion_lat": 0.0}, {"fusion_lon": 0.0, "bike_id": "fc72f1105b41a1f45b2cb68d0b86e960", "name": "fc72f1105b41a1f45b2cb68d0b86e960", "type": "electric_scooter", "lon": -77.030483, "rental_uris": {"android": "https://dc.lft.to/lastmile_qr_scan", "ios": "https://dc.lft.to/lastmile_qr_scan"}, "lat": 38.884049166666664, "is_reserved": 0, "is_disabled": 0, "fusion_lat": 0.0}, {"fusion_lon": 0.0, "bike_id": "da79cdbb652e368c3785241063ce18ff", "name": "da79cdbb652e368c3785241063ce18ff", "type": "electric_scooter", "lon": -77.0248355, "rental_uris": {"android": "https://dc.lft.to/lastmile_qr_scan", "ios": "https://dc.lft.to/lastmile_qr_scan"}, "lat": 38.904134, "is_reserved": 0, "is_disabled": 0, "fusion_lat": 0.0}, {"fusion_lon": 0.0, "bike_id": "6d4656161864270e38d660aedbc72605", "name": "6d4656161864270e38d660aedbc72605", "type": "electric_bike", "lon": -76.87494733333334, "rental_uris": {"android": "https://dc.lft.to/lastmile_qr_scan", "ios": "https://dc.lft.to/lastmile_qr_scan"}, "lat": 38.990929333333334, "is_reserved": 0, "is_disabled": 0, "fusion_lat": 0.0}, {"fusion_lon": 0.0, "bike_id": "fdb79f2784831c5bbfd456aabf79b4cb", "name": "fdb79f2784831c5bbfd456aabf79b4cb", "type": "electric_bike", "lon": -77.100279, "rental_uris": {"android": "https://dc.lft.to/lastmile_qr_scan", "ios": "https://dc.lft.to/lastmile_qr_scan"}, "lat": 38.990720333333336, "is_reserved": 0, "is_disabled": 0, "fusion_lat": 0.0}, {"fusion_lon": 0.0, "bike_id": "c6a3014b64fffe9bce9ed87d87f196ac", "name": "c6a3014b64fffe9bce9ed87d87f196ac", "type": "electric_scooter", "lon": -77.02802966666667, "rental_uris": {"android": "https://dc.lft.to/lastmile_qr_scan", "ios": "https://dc.lft.to/lastmile_qr_scan"}, "lat": 38.9509935, "is_reserved": 0, "is_disabled": 0, "fusion_lat": 0.0}, {"fusion_lon": 0.0, "bike_id": "1c094fcfe53b8187efe0ecd061e9acbc", "name": "1c094fcfe53b8187efe0ecd061e9acbc", "type": "electric_scooter", "lon": -77.02201833333334, "rental_uris": {"android": "https://dc.lft.to/lastmile_qr_scan", "ios": "https://dc.lft.to/lastmile_qr_scan"}, "lat": 38.911289, "is_reserved": 0, "is_disabled": 0, "fusion_lat": 0.0}, {"fusion_lon": 0.0, "bike_id": "e8ff1f3f8600ebeaa8420d94e8936287", "name": "e8ff1f3f8600ebeaa8420d94e8936287", "type": "electric_scooter", "lon": -77.04022266666666, "rental_uris": {"android": "https://dc.lft.to/lastmile_qr_scan", "ios": "https://dc.lft.to/lastmile_qr_scan"}, "lat": 38.91299266666667, "is_reserved": 0, "is_disabled": 0, "fusion_lat": 0.0}, {"fusion_lon": 0.0, "bike_id": "52e1574c77f83ff82a4aeb0702eac626", "name": "52e1574c77f83ff82a4aeb0702eac626", "type": "electric_scooter", "lon": -77.02219466666666, "rental_uris": {"android": "https://dc.lft.to/lastmile_qr_scan", "ios": "https://dc.lft.to/lastmile_qr_scan"}, "lat": 38.912707, "is_reserved": 0, "is_disabled": 0, "fusion_lat": 0.0}, {"fusion_lon": 0.0, "bike_id": "0f749d680350ebca4698768885ae5ded", "name": "0f749d680350ebca4698768885ae5ded", "type": "electric_scooter", "lon": -77.0019675, "rental_uris": {"android": "https://dc.lft.to/lastmile_qr_scan", "ios": "https://dc.lft.to/lastmile_qr_scan"}, "lat": 38.9023525, "is_reserved": 0, "is_disabled": 0, "fusion_lat": 0.0}, {"fusion_lon": 0.0, "bike_id": "559e50f85adf6f15e32b9d0f19d87972", "name": "559e50f85adf6f15e32b9d0f19d87972", "type": "electric_scooter", "lon": -76.996487, "rental_uris": {"android": "https://dc.lft.to/lastmile_qr_scan", "ios": "https://dc.lft.to/lastmile_qr_scan"}, "lat": 38.93238516666667, "is_reserved": 0, "is_disabled": 0, "fusion_lat": 0.0}, {"fusion_lon": 0.0, "bike_id": "5eb13f80d9de9ab1fda0c3f475a18345", "name": "5eb13f80d9de9ab1fda0c3f475a18345", "type": "electric_scooter", "lon": -77.01012216666666, "rental_uris": {"android": "https://dc.lft.to/lastmile_qr_scan", "ios": "https://dc.lft.to/lastmile_qr_scan"}, "lat": 38.87966633333333, "is_reserved": 0, "is_disabled": 0, "fusion_lat": 0.0}, {"fusion_lon": 0.0, "bike_id": "06b425faf01254324129e67093e8fac6", "name": "06b425faf01254324129e67093e8fac6", "type": "electric_scooter", "lon": -77.00667583333333, "rental_uris": {"android": "https://dc.lft.to/lastmile_qr_scan", "ios": "https://dc.lft.to/lastmile_qr_scan"}, "lat": 38.877089, "is_reserved": 0, "is_disabled": 0, "fusion_lat": 0.0}, {"fusion_lon": 0.0, "bike_id": "c8b3086263a814024199b48766943ec0", "name": "c8b3086263a814024199b48766943ec0", "type": "electric_scooter", "lon": -76.99054733333334, "rental_uris": {"android": "https://dc.lft.to/lastmile_qr_scan", "ios": "https://dc.lft.to/lastmile_qr_scan"}, "lat": 38.863636, "is_reserved": 0, "is_disabled": 0, "fusion_lat": 0.0}, {"fusion_lon": 0.0, "bike_id": "294dc659e0f02e047b2a898f470e1061", "name": "294dc659e0f02e047b2a898f470e1061", "type": "electric_scooter", "lon": -77.03367416666667, "rental_uris": {"android": "https://dc.lft.to/lastmile_qr_scan", "ios": "https://dc.lft.to/lastmile_qr_scan"}, "lat": 38.909730333333336, "is_reserved": 0, "is_disabled": 0, "fusion_lat": 0.0}, {"fusion_lon": 0.0, "bike_id": "5c6fc9326a3def3feedc9ac9f50ec6f1", "name": "5c6fc9326a3def3feedc9ac9f50ec6f1", "type": "electric_scooter", "lon": -76.99353233333333, "rental_uris": {"android": "https://dc.lft.to/lastmile_qr_scan", "ios": "https://dc.lft.to/lastmile_qr_scan"}, "lat": 38.896122, "is_reserved": 0, "is_disabled": 0, "fusion_lat": 0.0}, {"fusion_lon": 0.0, "bike_id": "66063e8eb6f4a2205bb00c6ce029eb13", "name": "66063e8eb6f4a2205bb00c6ce029eb13", "type": "electric_scooter", "lon": -77.02746133333333, "rental_uris": {"android": "https://dc.lft.to/lastmile_qr_scan", "ios": "https://dc.lft.to/lastmile_qr_scan"}, "lat": 38.93202, "is_reserved": 0, "is_disabled": 0, "fusion_lat": 0.0}, {"fusion_lon": 0.0, "bike_id": "1c40aaeeaabb5917d6092009e6fd5482", "name": "1c40aaeeaabb5917d6092009e6fd5482", "type": "electric_scooter", "lon": -77.05117866666667, "rental_uris": {"android": "https://dc.lft.to/lastmile_qr_scan", "ios": "https://dc.lft.to/lastmile_qr_scan"}, "lat": 38.92345983333333, "is_reserved": 0, "is_disabled": 0, "fusion_lat": 0.0}, {"fusion_lon": 0.0, "bike_id": "f090db5b2dc133494c97edf5d9621812", "name": "f090db5b2dc133494c97edf5d9621812", "type": "electric_scooter", "lon": -77.02814966666666, "rental_uris": {"android": "https://dc.lft.to/lastmile_qr_scan", "ios": "https://dc.lft.to/lastmile_qr_scan"}, "lat": 38.916336333333334, "is_reserved": 0, "is_disabled": 0, "fusion_lat": 0.0}, {"fusion_lon": 0.0, "bike_id": "71aacd8a6569d192d5f531664a574d46", "name": "71aacd8a6569d192d5f531664a574d46", "type": "electric_scooter", "lon": -77.05161033333333, "rental_uris": {"android": "https://dc.lft.to/lastmile_qr_scan", "ios": "https://dc.lft.to/lastmile_qr_scan"}, "lat": 38.9008495, "is_reserved": 0, "is_disabled": 0, "fusion_lat": 0.0}, {"fusion_lon": 0.0, "bike_id": "b862923f7ebe7c6d35c3515bb6b5d62a", "name": "b862923f7ebe7c6d35c3515bb6b5d62a", "type": "electric_scooter", "lon": -77.0465295, "rental_uris": {"android": "https://dc.lft.to/lastmile_qr_scan", "ios": "https://dc.lft.to/lastmile_qr_scan"}, "lat": 38.9043095, "is_reserved": 0, "is_disabled": 0, "fusion_lat": 0.0}, {"fusion_lon": 0.0, "bike_id": "7af92f6bd53cf1b6caf4080252295254", "name": "7af92f6bd53cf1b6caf4080252295254", "type": "electric_scooter", "lon": -77.05093383333333, "rental_uris": {"android": "https://dc.lft.to/lastmile_qr_scan", "ios": "https://dc.lft.to/lastmile_qr_scan"}, "lat": 38.905438, "is_reserved": 0, "is_disabled": 0, "fusion_lat": 0.0}, {"fusion_lon": 0.0, "bike_id": "c71e762d9e36c54814ade2b8cfc19f9c", "name": "c71e762d9e36c54814ade2b8cfc19f9c", "type": "electric_scooter", "lon": -77.00810966666667, "rental_uris": {"android": "https://dc.lft.to/lastmile_qr_scan", "ios": "https://dc.lft.to/lastmile_qr_scan"}, "lat": 38.87645216666667, "is_reserved": 0, "is_disabled": 0, "fusion_lat": 0.0}, {"fusion_lon": 0.0, "bike_id": "7e24503c742f4015c27891dd6f248f05", "name": "7e24503c742f4015c27891dd6f248f05", "type": "electric_scooter", "lon": -77.0439425, "rental_uris": {"android": "https://dc.lft.to/lastmile_qr_scan", "ios": "https://dc.lft.to/lastmile_qr_scan"}, "lat": 38.9228065, "is_reserved": 0, "is_disabled": 0, "fusion_lat": 0.0}, {"fusion_lon": 0.0, "bike_id": "647118d00b384f31b0c068f18eb8fbf1", "name": "647118d00b384f31b0c068f18eb8fbf1", "type": "electric_scooter", "lon": -77.0489325, "rental_uris": {"android": "https://dc.lft.to/lastmile_qr_scan", "ios": "https://dc.lft.to/lastmile_qr_scan"}, "lat": 38.892573, "is_reserved": 0, "is_disabled": 0, "fusion_lat": 0.0}, {"fusion_lon": 0.0, "bike_id": "62062d49011a2b6a8ef1177942ff4493", "name": "62062d49011a2b6a8ef1177942ff4493", "type": "electric_scooter", "lon": -76.98707783333333, "rental_uris": {"android": "https://dc.lft.to/lastmile_qr_scan", "ios": "https://dc.lft.to/lastmile_qr_scan"}, "lat": 38.8670265, "is_reserved": 0, "is_disabled": 0, "fusion_lat": 0.0}, {"fusion_lon": 0.0, "bike_id": "ba70003b846785f3e8002ae24b0d681a", "name": "ba70003b846785f3e8002ae24b0d681a", "type": "electric_bike", "lon": -76.97566883333333, "rental_uris": {"android": "https://dc.lft.to/lastmile_qr_scan", "ios": "https://dc.lft.to/lastmile_qr_scan"}, "lat": 38.924614166666665, "is_reserved": 0, "is_disabled": 0, "fusion_lat": 0.0}, {"fusion_lon": 0.0, "bike_id": "6895c1a902bab78e519f42b8ebad4fc0", "name": "6895c1a902bab78e519f42b8ebad4fc0", "type": "electric_scooter", "lon": -76.96507083333333, "rental_uris": {"android": "https://dc.lft.to/lastmile_qr_scan", "ios": "https://dc.lft.to/lastmile_qr_scan"}, "lat": 38.8765235, "is_reserved": 0, "is_disabled": 0, "fusion_lat": 0.0}, {"fusion_lon": 0.0, "bike_id": "1b03bae75557a259bf2ac509414c14f0", "name": "1b03bae75557a259bf2ac509414c14f0", "type": "electric_scooter", "lon": -76.99260566666666, "rental_uris": {"android": "https://dc.lft.to/lastmile_qr_scan", "ios": "https://dc.lft.to/lastmile_qr_scan"}, "lat": 38.923232166666665, "is_reserved": 0, "is_disabled": 0, "fusion_lat": 0.0}, {"fusion_lon": 0.0, "bike_id": "56c66b2a457170e635a3b4c7043cdab9", "name": "56c66b2a457170e635a3b4c7043cdab9", "type": "electric_scooter", "lon": -77.0386275, "rental_uris": {"android": "https://dc.lft.to/lastmile_qr_scan", "ios": "https://dc.lft.to/lastmile_qr_scan"}, "lat": 38.9077885, "is_reserved": 0, "is_disabled": 0, "fusion_lat": 0.0}, {"fusion_lon": 0.0, "bike_id": "0f0e11f9788ac1f6f4e207580406a7c8", "name": "0f0e11f9788ac1f6f4e207580406a7c8", "type": "electric_scooter", "lon": -76.98592616666667, "rental_uris": {"android": "https://dc.lft.to/lastmile_qr_scan", "ios": "https://dc.lft.to/lastmile_qr_scan"}, "lat": 38.9065115, "is_reserved": 0, "is_disabled": 0, "fusion_lat": 0.0}, {"fusion_lon": 0.0, "bike_id": "beb94f443ff47d118bfef69946401b33", "name": "beb94f443ff47d118bfef69946401b33", "type": "electric_scooter", "lon": -77.03218516666666, "rental_uris": {"android": "https://dc.lft.to/lastmile_qr_scan", "ios": "https://dc.lft.to/lastmile_qr_scan"}, "lat": 38.90977866666667, "is_reserved": 0, "is_disabled": 0, "fusion_lat": 0.0}, {"fusion_lon": 0.0, "bike_id": "a195ae8cc25ba5a1da5631ac45dcc10a", "name": "a195ae8cc25ba5a1da5631ac45dcc10a", "type": "electric_scooter", "lon": -76.9984465, "rental_uris": {"android": "https://dc.lft.to/lastmile_qr_scan", "ios": "https://dc.lft.to/lastmile_qr_scan"}, "lat": 38.900353833333334, "is_reserved": 0, "is_disabled": 0, "fusion_lat": 0.0}, {"fusion_lon": 0.0, "bike_id": "299754ce25c270c5cc6d7d6506c839b3", "name": "299754ce25c270c5cc6d7d6506c839b3", "type": "electric_scooter", "lon": -77.027556, "rental_uris": {"android": "https://dc.lft.to/lastmile_qr_scan", "ios": "https://dc.lft.to/lastmile_qr_scan"}, "lat": 38.95417116666667, "is_reserved": 0, "is_disabled": 0, "fusion_lat": 0.0}, {"fusion_lon": 0.0, "bike_id": "ea1e74dcc0219f192c0026264a36fd50", "name": "ea1e74dcc0219f192c0026264a36fd50", "type": "electric_scooter", "lon": -77.04013933333333, "rental_uris": {"android": "https://dc.lft.to/lastmile_qr_scan", "ios": "https://dc.lft.to/lastmile_qr_scan"}, "lat": 38.913339, "is_reserved": 0, "is_disabled": 0, "fusion_lat": 0.0}, {"fusion_lon": 0.0, "bike_id": "f0c283fbdbf4af5db1dbb4aff467155c", "name": "f0c283fbdbf4af5db1dbb4aff467155c", "type": "electric_bike", "lon": -76.93412666666667, "rental_uris": {"android": "https://dc.lft.to/lastmile_qr_scan", "ios": "https://dc.lft.to/lastmile_qr_scan"}, "lat": 38.94625766666667, "is_reserved": 0, "is_disabled": 0, "fusion_lat": 0.0}, {"fusion_lon": 0.0, "bike_id": "eea3ef83d6547b3cbf807c7e28f94009", "name": "eea3ef83d6547b3cbf807c7e28f94009", "type": "electric_scooter", "lon": -77.02943333333333, "rental_uris": {"android": "https://dc.lft.to/lastmile_qr_scan", "ios": "https://dc.lft.to/lastmile_qr_scan"}, "lat": 38.905034666666666, "is_reserved": 0, "is_disabled": 0, "fusion_lat": 0.0}, {"fusion_lon": 0.0, "bike_id": "6aea28d51aa44cb555fcf2e687c464b7", "name": "6aea28d51aa44cb555fcf2e687c464b7", "type": "electric_scooter", "lon": -77.01256866666667, "rental_uris": {"android": "https://dc.lft.to/lastmile_qr_scan", "ios": "https://dc.lft.to/lastmile_qr_scan"}, "lat": 38.876353333333334, "is_reserved": 0, "is_disabled": 0, "fusion_lat": 0.0}, {"fusion_lon": 0.0, "bike_id": "30f364dddcb95e73f0f893c2d8f6c281", "name": "30f364dddcb95e73f0f893c2d8f6c281", "type": "electric_scooter", "lon": -77.02222833333333, "rental_uris": {"android": "https://dc.lft.to/lastmile_qr_scan", "ios": "https://dc.lft.to/lastmile_qr_scan"}, "lat": 38.9355635, "is_reserved": 0, "is_disabled": 0, "fusion_lat": 0.0}, {"fusion_lon": 0.0, "bike_id": "2d8465baa28e44ed3d6856ab03af0438", "name": "2d8465baa28e44ed3d6856ab03af0438", "type": "electric_scooter", "lon": -76.93744233333334, "rental_uris": {"android": "https://dc.lft.to/lastmile_qr_scan", "ios": "https://dc.lft.to/lastmile_qr_scan"}, "lat": 38.890044833333334, "is_reserved": 0, "is_disabled": 0, "fusion_lat": 0.0}, {"fusion_lon": 0.0, "bike_id": "b6202a7b904a95dee8838194d07392bf", "name": "b6202a7b904a95dee8838194d07392bf", "type": "electric_scooter", "lon": -77.01224066666667, "rental_uris": {"android": "https://dc.lft.to/lastmile_qr_scan", "ios": "https://dc.lft.to/lastmile_qr_scan"}, "lat": 38.8672275, "is_reserved": 0, "is_disabled": 0, "fusion_lat": 0.0}, {"fusion_lon": 0.0, "bike_id": "8b34b5f64044f922b7f4d65e5a48d699", "name": "8b34b5f64044f922b7f4d65e5a48d699", "type": "electric_scooter", "lon": -76.9654455, "rental_uris": {"android": "https://dc.lft.to/lastmile_qr_scan", "ios": "https://dc.lft.to/lastmile_qr_scan"}, "lat": 38.91880583333333, "is_reserved": 0, "is_disabled": 0, "fusion_lat": 0.0}, {"fusion_lon": 0.0, "bike_id": "255026ba61033ebf8b31aa756660c3ca", "name": "255026ba61033ebf8b31aa756660c3ca", "type": "electric_scooter", "lon": -77.01294533333333, "rental_uris": {"android": "https://dc.lft.to/lastmile_qr_scan", "ios": "https://dc.lft.to/lastmile_qr_scan"}, "lat": 38.90085633333333, "is_reserved": 0, "is_disabled": 0, "fusion_lat": 0.0}, {"fusion_lon": 0.0, "bike_id": "dc56b3c580efc8cfd202a782971a4ec7", "name": "dc56b3c580efc8cfd202a782971a4ec7", "type": "electric_scooter", "lon": -77.03945766666666, "rental_uris": {"android": "https://dc.lft.to/lastmile_qr_scan", "ios": "https://dc.lft.to/lastmile_qr_scan"}, "lat": 38.91818966666666, "is_reserved": 0, "is_disabled": 0, "fusion_lat": 0.0}, {"fusion_lon": 0.0, "bike_id": "946bcf75ef5996b842c8d91e0c467c27", "name": "946bcf75ef5996b842c8d91e0c467c27", "type": "electric_scooter", "lon": -77.0231975, "rental_uris": {"android": "https://dc.lft.to/lastmile_qr_scan", "ios": "https://dc.lft.to/lastmile_qr_scan"}, "lat": 38.90731316666667, "is_reserved": 0, "is_disabled": 0, "fusion_lat": 0.0}, {"fusion_lon": 0.0, "bike_id": "9a68915f6069a16e2877983ad8afb303", "name": "9a68915f6069a16e2877983ad8afb303", "type": "electric_scooter", "lon": -77.05990016666667, "rental_uris": {"android": "https://dc.lft.to/lastmile_qr_scan", "ios": "https://dc.lft.to/lastmile_qr_scan"}, "lat": 38.912067, "is_reserved": 0, "is_disabled": 0, "fusion_lat": 0.0}, {"fusion_lon": 0.0, "bike_id": "ed1b72f35e14e6dab1280dedcbdb4252", "name": "ed1b72f35e14e6dab1280dedcbdb4252", "type": "electric_scooter", "lon": -76.98197783333333, "rental_uris": {"android": "https://dc.lft.to/lastmile_qr_scan", "ios": "https://dc.lft.to/lastmile_qr_scan"}, "lat": 38.90208466666667, "is_reserved": 0, "is_disabled": 0, "fusion_lat": 0.0}, {"fusion_lon": 0.0, "bike_id": "f5f3d49b530196499f220dc074d6ddb4", "name": "f5f3d49b530196499f220dc074d6ddb4", "type": "electric_scooter", "lon": -77.0340725, "rental_uris": {"android": "https://dc.lft.to/lastmile_qr_scan", "ios": "https://dc.lft.to/lastmile_qr_scan"}, "lat": 38.921617166666664, "is_reserved": 0, "is_disabled": 0, "fusion_lat": 0.0}, {"fusion_lon": 0.0, "bike_id": "4d350355de08687b0a7ddc6bd5a34e4e", "name": "4d350355de08687b0a7ddc6bd5a34e4e", "type": "electric_scooter", "lon": -77.020065, "rental_uris": {"android": "https://dc.lft.to/lastmile_qr_scan", "ios": "https://dc.lft.to/lastmile_qr_scan"}, "lat": 38.87896166666667, "is_reserved": 0, "is_disabled": 0, "fusion_lat": 0.0}, {"fusion_lon": 0.0, "bike_id": "05aacb820b4f9462bd87e124184476a3", "name": "05aacb820b4f9462bd87e124184476a3", "type": "electric_scooter", "lon": -76.99602716666666, "rental_uris": {"android": "https://dc.lft.to/lastmile_qr_scan", "ios": "https://dc.lft.to/lastmile_qr_scan"}, "lat": 38.88491333333333, "is_reserved": 0, "is_disabled": 0, "fusion_lat": 0.0}, {"fusion_lon": 0.0, "bike_id": "564d10de870494fcf854f91a4411a1f5", "name": "564d10de870494fcf854f91a4411a1f5", "type": "electric_scooter", "lon": -76.99829683333333, "rental_uris": {"android": "https://dc.lft.to/lastmile_qr_scan", "ios": "https://dc.lft.to/lastmile_qr_scan"}, "lat": 38.908669, "is_reserved": 0, "is_disabled": 0, "fusion_lat": 0.0}, {"fusion_lon": 0.0, "bike_id": "fd5fd439a16aee3344de37998643c99d", "name": "fd5fd439a16aee3344de37998643c99d", "type": "electric_scooter", "lon": -77.03204016666666, "rental_uris": {"android": "https://dc.lft.to/lastmile_qr_scan", "ios": "https://dc.lft.to/lastmile_qr_scan"}, "lat": 38.919253499999996, "is_reserved": 0, "is_disabled": 0, "fusion_lat": 0.0}, {"fusion_lon": 0.0, "bike_id": "858de0dfb7801fecaa99f3bebc07e7a3", "name": "858de0dfb7801fecaa99f3bebc07e7a3", "type": "electric_scooter", "lon": -77.07224483333333, "rental_uris": {"android": "https://dc.lft.to/lastmile_qr_scan", "ios": "https://dc.lft.to/lastmile_qr_scan"}, "lat": 38.934597, "is_reserved": 0, "is_disabled": 0, "fusion_lat": 0.0}, {"fusion_lon": 0.0, "bike_id": "8736b25f2a6b8c2bb5e8099b35d61550", "name": "8736b25f2a6b8c2bb5e8099b35d61550", "type": "electric_scooter", "lon": -77.07915783333333, "rental_uris": {"android": "https://dc.lft.to/lastmile_qr_scan", "ios": "https://dc.lft.to/lastmile_qr_scan"}, "lat": 38.9479865, "is_reserved": 0, "is_disabled": 0, "fusion_lat": 0.0}, {"fusion_lon": 0.0, "bike_id": "4b245f98226d43e7eb3e2f01c8ea02cc", "name": "4b245f98226d43e7eb3e2f01c8ea02cc", "type": "electric_scooter", "lon": -77.04175233333333, "rental_uris": {"android": "https://dc.lft.to/lastmile_qr_scan", "ios": "https://dc.lft.to/lastmile_qr_scan"}, "lat": 38.91651483333333, "is_reserved": 0, "is_disabled": 0, "fusion_lat": 0.0}, {"fusion_lon": 0.0, "bike_id": "7daaaeca183bfe992f57a575392c5d33", "name": "7daaaeca183bfe992f57a575392c5d33", "type": "electric_scooter", "lon": -77.03856666666667, "rental_uris": {"android": "https://dc.lft.to/lastmile_qr_scan", "ios": "https://dc.lft.to/lastmile_qr_scan"}, "lat": 38.90798266666667, "is_reserved": 0, "is_disabled": 0, "fusion_lat": 0.0}, {"fusion_lon": 0.0, "bike_id": "1402588092467fcbf299173e6acfdf5b", "name": "1402588092467fcbf299173e6acfdf5b", "type": "electric_scooter", "lon": -77.04889183333333, "rental_uris": {"android": "https://dc.lft.to/lastmile_qr_scan", "ios": "https://dc.lft.to/lastmile_qr_scan"}, "lat": 38.89817466666667, "is_reserved": 0, "is_disabled": 0, "fusion_lat": 0.0}, {"fusion_lon": 0.0, "bike_id": "79d75b94a3b28a986acad04d8b8594c3", "name": "79d75b94a3b28a986acad04d8b8594c3", "type": "electric_bike", "lon": -76.93021683333333, "rental_uris": {"android": "https://dc.lft.to/lastmile_qr_scan", "ios": "https://dc.lft.to/lastmile_qr_scan"}, "lat": 38.966504, "is_reserved": 0, "is_disabled": 0, "fusion_lat": 0.0}, {"fusion_lon": 0.0, "bike_id": "34ec9304732aebed5222aa4cc43cd9c5", "name": "34ec9304732aebed5222aa4cc43cd9c5", "type": "electric_scooter", "lon": -76.91881633333334, "rental_uris": {"android": "https://dc.lft.to/lastmile_qr_scan", "ios": "https://dc.lft.to/lastmile_qr_scan"}, "lat": 38.89085266666667, "is_reserved": 0, "is_disabled": 0, "fusion_lat": 0.0}, {"fusion_lon": 0.0, "bike_id": "6dfd9ff9720a04fad8f9e208ea7f2832", "name": "6dfd9ff9720a04fad8f9e208ea7f2832", "type": "electric_scooter", "lon": -77.03261566666667, "rental_uris": {"android": "https://dc.lft.to/lastmile_qr_scan", "ios": "https://dc.lft.to/lastmile_qr_scan"}, "lat": 38.9192055, "is_reserved": 0, "is_disabled": 0, "fusion_lat": 0.0}, {"fusion_lon": 0.0, "bike_id": "210e36d3677a2d08e47d08049e798e33", "name": "210e36d3677a2d08e47d08049e798e33", "type": "electric_scooter", "lon": -77.00441116666667, "rental_uris": {"android": "https://dc.lft.to/lastmile_qr_scan", "ios": "https://dc.lft.to/lastmile_qr_scan"}, "lat": 38.911961, "is_reserved": 0, "is_disabled": 0, "fusion_lat": 0.0}, {"fusion_lon": 0.0, "bike_id": "f3ac4aaedfe2f41677c696672247a04a", "name": "f3ac4aaedfe2f41677c696672247a04a", "type": "electric_bike", "lon": -77.01799216666667, "rental_uris": {"android": "https://dc.lft.to/lastmile_qr_scan", "ios": "https://dc.lft.to/lastmile_qr_scan"}, "lat": 38.9899225, "is_reserved": 0, "is_disabled": 0, "fusion_lat": 0.0}, {"fusion_lon": 0.0, "bike_id": "34054720d4a12e49971090cf330969d9", "name": "34054720d4a12e49971090cf330969d9", "type": "electric_scooter", "lon": -76.99846633333334, "rental_uris": {"android": "https://dc.lft.to/lastmile_qr_scan", "ios": "https://dc.lft.to/lastmile_qr_scan"}, "lat": 38.900336333333335, "is_reserved": 0, "is_disabled": 0, "fusion_lat": 0.0}, {"fusion_lon": 0.0, "bike_id": "d20996cad62742db566ba181617bd988", "name": "d20996cad62742db566ba181617bd988", "type": "electric_scooter", "lon": -77.04066016666667, "rental_uris": {"android": "https://dc.lft.to/lastmile_qr_scan", "ios": "https://dc.lft.to/lastmile_qr_scan"}, "lat": 38.90142216666667, "is_reserved": 0, "is_disabled": 0, "fusion_lat": 0.0}, {"fusion_lon": 0.0, "bike_id": "95a24b4b0a88f44a68748c4e203fbd2c", "name": "95a24b4b0a88f44a68748c4e203fbd2c", "type": "electric_scooter", "lon": -77.04155066666667, "rental_uris": {"android": "https://dc.lft.to/lastmile_qr_scan", "ios": "https://dc.lft.to/lastmile_qr_scan"}, "lat": 38.916063333333334, "is_reserved": 0, "is_disabled": 0, "fusion_lat": 0.0}, {"fusion_lon": 0.0, "bike_id": "a5dd62a1f9df2d72271762bd59acc929", "name": "a5dd62a1f9df2d72271762bd59acc929", "type": "electric_scooter", "lon": -76.93431716666667, "rental_uris": {"android": "https://dc.lft.to/lastmile_qr_scan", "ios": "https://dc.lft.to/lastmile_qr_scan"}, "lat": 38.89965633333333, "is_reserved": 0, "is_disabled": 0, "fusion_lat": 0.0}, {"fusion_lon": 0.0, "bike_id": "2e219d401826976203e279d5f761aa99", "name": "2e219d401826976203e279d5f761aa99", "type": "electric_scooter", "lon": -77.02843016666667, "rental_uris": {"android": "https://dc.lft.to/lastmile_qr_scan", "ios": "https://dc.lft.to/lastmile_qr_scan"}, "lat": 38.922368166666665, "is_reserved": 0, "is_disabled": 0, "fusion_lat": 0.0}, {"fusion_lon": 0.0, "bike_id": "971b86efa823101565296d50fc654773", "name": "971b86efa823101565296d50fc654773", "type": "electric_scooter", "lon": -77.02289183333333, "rental_uris": {"android": "https://dc.lft.to/lastmile_qr_scan", "ios": "https://dc.lft.to/lastmile_qr_scan"}, "lat": 38.916924, "is_reserved": 0, "is_disabled": 0, "fusion_lat": 0.0}, {"fusion_lon": 0.0, "bike_id": "171403d8b5839b898bda6165b3e860ff", "name": "171403d8b5839b898bda6165b3e860ff", "type": "electric_scooter", "lon": -77.006034, "rental_uris": {"android": "https://dc.lft.to/lastmile_qr_scan", "ios": "https://dc.lft.to/lastmile_qr_scan"}, "lat": 38.8771545, "is_reserved": 0, "is_disabled": 0, "fusion_lat": 0.0}, {"fusion_lon": 0.0, "bike_id": "c2492ce16fa4e9833c765b90b9a4e103", "name": "c2492ce16fa4e9833c765b90b9a4e103", "type": "electric_scooter", "lon": -77.05296833333334, "rental_uris": {"android": "https://dc.lft.to/lastmile_qr_scan", "ios": "https://dc.lft.to/lastmile_qr_scan"}, "lat": 38.92796333333333, "is_reserved": 0, "is_disabled": 0, "fusion_lat": 0.0}, {"fusion_lon": 0.0, "bike_id": "d47786323092241c9862286ca7b9c01f", "name": "d47786323092241c9862286ca7b9c01f", "type": "electric_scooter", "lon": -77.02498033333333, "rental_uris": {"android": "https://dc.lft.to/lastmile_qr_scan", "ios": "https://dc.lft.to/lastmile_qr_scan"}, "lat": 38.91810016666667, "is_reserved": 0, "is_disabled": 0, "fusion_lat": 0.0}, {"fusion_lon": 0.0, "bike_id": "f68d7002d0905998bddb1fdf2d89ca92", "name": "f68d7002d0905998bddb1fdf2d89ca92", "type": "electric_scooter", "lon": -77.02498783333333, "rental_uris": {"android": "https://dc.lft.to/lastmile_qr_scan", "ios": "https://dc.lft.to/lastmile_qr_scan"}, "lat": 38.91938833333333, "is_reserved": 0, "is_disabled": 0, "fusion_lat": 0.0}, {"fusion_lon": 0.0, "bike_id": "cdedea5b7af79fda38324dc65949ae25", "name": "cdedea5b7af79fda38324dc65949ae25", "type": "electric_bike", "lon": -76.98330866666667, "rental_uris": {"android": "https://dc.lft.to/lastmile_qr_scan", "ios": "https://dc.lft.to/lastmile_qr_scan"}, "lat": 38.966057166666666, "is_reserved": 0, "is_disabled": 0, "fusion_lat": 0.0}, {"fusion_lon": 0.0, "bike_id": "7d7a536b15ae9916697009e2abff069d", "name": "7d7a536b15ae9916697009e2abff069d", "type": "electric_scooter", "lon": -76.99848066666667, "rental_uris": {"android": "https://dc.lft.to/lastmile_qr_scan", "ios": "https://dc.lft.to/lastmile_qr_scan"}, "lat": 38.90037, "is_reserved": 0, "is_disabled": 0, "fusion_lat": 0.0}, {"fusion_lon": 0.0, "bike_id": "dfdc37febab3bf120e7d521e762327b1", "name": "dfdc37febab3bf120e7d521e762327b1", "type": "electric_scooter", "lon": -76.9899915, "rental_uris": {"android": "https://dc.lft.to/lastmile_qr_scan", "ios": "https://dc.lft.to/lastmile_qr_scan"}, "lat": 38.865078833333335, "is_reserved": 0, "is_disabled": 0, "fusion_lat": 0.0}, {"fusion_lon": 0.0, "bike_id": "e150e366feac48df942f7f0d9fbd79e0", "name": "e150e366feac48df942f7f0d9fbd79e0", "type": "electric_scooter", "lon": -77.00214883333334, "rental_uris": {"android": "https://dc.lft.to/lastmile_qr_scan", "ios": "https://dc.lft.to/lastmile_qr_scan"}, "lat": 38.89090983333333, "is_reserved": 0, "is_disabled": 0, "fusion_lat": 0.0}, {"fusion_lon": 0.0, "bike_id": "23d3f2042092e8d89d1e80742c37d6c0", "name": "23d3f2042092e8d89d1e80742c37d6c0", "type": "electric_scooter", "lon": -77.02399733333333, "rental_uris": {"android": "https://dc.lft.to/lastmile_qr_scan", "ios": "https://dc.lft.to/lastmile_qr_scan"}, "lat": 38.91510433333333, "is_reserved": 0, "is_disabled": 0, "fusion_lat": 0.0}, {"fusion_lon": 0.0, "bike_id": "5a19e2093fd8c912945efb224861496d", "name": "5a19e2093fd8c912945efb224861496d", "type": "electric_scooter", "lon": -77.03992066666666, "rental_uris": {"android": "https://dc.lft.to/lastmile_qr_scan", "ios": "https://dc.lft.to/lastmile_qr_scan"}, "lat": 38.9133325, "is_reserved": 0, "is_disabled": 0, "fusion_lat": 0.0}, {"fusion_lon": 0.0, "bike_id": "db5142831478cc1b192db244be69e3c6", "name": "db5142831478cc1b192db244be69e3c6", "type": "electric_scooter", "lon": -77.02579833333333, "rental_uris": {"android": "https://dc.lft.to/lastmile_qr_scan", "ios": "https://dc.lft.to/lastmile_qr_scan"}, "lat": 38.89523883333333, "is_reserved": 0, "is_disabled": 0, "fusion_lat": 0.0}, {"fusion_lon": 0.0, "bike_id": "1c20f808a39ba343de23e4c4789a30da", "name": "1c20f808a39ba343de23e4c4789a30da", "type": "electric_scooter", "lon": -77.04194966666667, "rental_uris": {"android": "https://dc.lft.to/lastmile_qr_scan", "ios": "https://dc.lft.to/lastmile_qr_scan"}, "lat": 38.923405, "is_reserved": 0, "is_disabled": 0, "fusion_lat": 0.0}, {"fusion_lon": 0.0, "bike_id": "c3219c88309ebd41c9263fa100587225", "name": "c3219c88309ebd41c9263fa100587225", "type": "electric_scooter", "lon": -77.0710065, "rental_uris": {"android": "https://dc.lft.to/lastmile_qr_scan", "ios": "https://dc.lft.to/lastmile_qr_scan"}, "lat": 38.91984083333333, "is_reserved": 0, "is_disabled": 0, "fusion_lat": 0.0}, {"fusion_lon": 0.0, "bike_id": "2430c277a9e600092e28440e53ef9c25", "name": "2430c277a9e600092e28440e53ef9c25", "type": "electric_bike", "lon": -77.02308166666667, "rental_uris": {"android": "https://dc.lft.to/lastmile_qr_scan", "ios": "https://dc.lft.to/lastmile_qr_scan"}, "lat": 38.965612666666665, "is_reserved": 0, "is_disabled": 0, "fusion_lat": 0.0}, {"fusion_lon": 0.0, "bike_id": "91868ccd32cb81e7862b67971eb992f5", "name": "91868ccd32cb81e7862b67971eb992f5", "type": "electric_scooter", "lon": -77.03826816666667, "rental_uris": {"android": "https://dc.lft.to/lastmile_qr_scan", "ios": "https://dc.lft.to/lastmile_qr_scan"}, "lat": 38.931334166666666, "is_reserved": 0, "is_disabled": 0, "fusion_lat": 0.0}, {"fusion_lon": 0.0, "bike_id": "a5487f6ebe1269c6b642b012df2b10d7", "name": "a5487f6ebe1269c6b642b012df2b10d7", "type": "electric_scooter", "lon": -77.04876016666667, "rental_uris": {"android": "https://dc.lft.to/lastmile_qr_scan", "ios": "https://dc.lft.to/lastmile_qr_scan"}, "lat": 38.903619, "is_reserved": 0, "is_disabled": 0, "fusion_lat": 0.0}, {"fusion_lon": 0.0, "bike_id": "8c2317d07594ee1310d3b5885e7b6116", "name": "8c2317d07594ee1310d3b5885e7b6116", "type": "electric_scooter", "lon": -76.949932, "rental_uris": {"android": "https://dc.lft.to/lastmile_qr_scan", "ios": "https://dc.lft.to/lastmile_qr_scan"}, "lat": 38.89391666666667, "is_reserved": 0, "is_disabled": 0, "fusion_lat": 0.0}, {"fusion_lon": 0.0, "bike_id": "ddd65a2e241d5b9c3aca2daf7c8e06be", "name": "ddd65a2e241d5b9c3aca2daf7c8e06be", "type": "electric_bike", "lon": -77.12267366666667, "rental_uris": {"android": "https://dc.lft.to/lastmile_qr_scan", "ios": "https://dc.lft.to/lastmile_qr_scan"}, "lat": 38.897345333333334, "is_reserved": 0, "is_disabled": 0, "fusion_lat": 0.0}, {"fusion_lon": 0.0, "bike_id": "88413d1629a6e8a36a646584f7ced305", "name": "88413d1629a6e8a36a646584f7ced305", "type": "electric_bike", "lon": -76.91658933333333, "rental_uris": {"android": "https://dc.lft.to/lastmile_qr_scan", "ios": "https://dc.lft.to/lastmile_qr_scan"}, "lat": 38.86861066666667, "is_reserved": 0, "is_disabled": 0, "fusion_lat": 0.0}, {"fusion_lon": 0.0, "bike_id": "9dd4304d8a4b419cdd04da6d6f68c9fd", "name": "9dd4304d8a4b419cdd04da6d6f68c9fd", "type": "electric_scooter", "lon": -76.942467, "rental_uris": {"android": "https://dc.lft.to/lastmile_qr_scan", "ios": "https://dc.lft.to/lastmile_qr_scan"}, "lat": 38.89688066666667, "is_reserved": 0, "is_disabled": 0, "fusion_lat": 0.0}, {"fusion_lon": 0.0, "bike_id": "76614d46c5d72fc3370c34c963268c1c", "name": "76614d46c5d72fc3370c34c963268c1c", "type": "electric_scooter", "lon": -77.04872083333333, "rental_uris": {"android": "https://dc.lft.to/lastmile_qr_scan", "ios": "https://dc.lft.to/lastmile_qr_scan"}, "lat": 38.903637333333336, "is_reserved": 0, "is_disabled": 0, "fusion_lat": 0.0}, {"fusion_lon": 0.0, "bike_id": "bb8f52590f71c65172558f2bafc7780c", "name": "bb8f52590f71c65172558f2bafc7780c", "type": "electric_scooter", "lon": -77.01554133333333, "rental_uris": {"android": "https://dc.lft.to/lastmile_qr_scan", "ios": "https://dc.lft.to/lastmile_qr_scan"}, "lat": 38.87267133333334, "is_reserved": 0, "is_disabled": 0, "fusion_lat": 0.0}, {"fusion_lon": 0.0, "bike_id": "bc32905ef478af4898597afb5e6375c7", "name": "bc32905ef478af4898597afb5e6375c7", "type": "electric_scooter", "lon": -76.97551733333333, "rental_uris": {"android": "https://dc.lft.to/lastmile_qr_scan", "ios": "https://dc.lft.to/lastmile_qr_scan"}, "lat": 38.902584166666664, "is_reserved": 0, "is_disabled": 0, "fusion_lat": 0.0}, {"fusion_lon": 0.0, "bike_id": "d5198b226b9d68c2e8f4ccbb75b98afd", "name": "d5198b226b9d68c2e8f4ccbb75b98afd", "type": "electric_scooter", "lon": -77.0384985, "rental_uris": {"android": "https://dc.lft.to/lastmile_qr_scan", "ios": "https://dc.lft.to/lastmile_qr_scan"}, "lat": 38.91200883333333, "is_reserved": 0, "is_disabled": 0, "fusion_lat": 0.0}, {"fusion_lon": 0.0, "bike_id": "533b5beacd8153b88bade7c178e35304", "name": "533b5beacd8153b88bade7c178e35304", "type": "electric_scooter", "lon": -77.02400216666666, "rental_uris": {"android": "https://dc.lft.to/lastmile_qr_scan", "ios": "https://dc.lft.to/lastmile_qr_scan"}, "lat": 38.93113, "is_reserved": 0, "is_disabled": 0, "fusion_lat": 0.0}, {"fusion_lon": 0.0, "bike_id": "066829610d5de272302bd8b107f0e48d", "name": "066829610d5de272302bd8b107f0e48d", "type": "electric_bike", "lon": -77.03986733333333, "rental_uris": {"android": "https://dc.lft.to/lastmile_qr_scan", "ios": "https://dc.lft.to/lastmile_qr_scan"}, "lat": 38.803019, "is_reserved": 0, "is_disabled": 0, "fusion_lat": 0.0}, {"fusion_lon": 0.0, "bike_id": "397712ae25387db59d870af05a2a6311", "name": "397712ae25387db59d870af05a2a6311", "type": "electric_scooter", "lon": -77.0526075, "rental_uris": {"android": "https://dc.lft.to/lastmile_qr_scan", "ios": "https://dc.lft.to/lastmile_qr_scan"}, "lat": 38.92569133333333, "is_reserved": 0, "is_disabled": 0, "fusion_lat": 0.0}, {"fusion_lon": 0.0, "bike_id": "2215cb274d8316319aacd56f7800e7a1", "name": "2215cb274d8316319aacd56f7800e7a1", "type": "electric_scooter", "lon": -77.023957, "rental_uris": {"android": "https://dc.lft.to/lastmile_qr_scan", "ios": "https://dc.lft.to/lastmile_qr_scan"}, "lat": 38.907459, "is_reserved": 0, "is_disabled": 0, "fusion_lat": 0.0}, {"fusion_lon": 0.0, "bike_id": "3519a5cc87ea957b21ee6478d0509ad7", "name": "3519a5cc87ea957b21ee6478d0509ad7", "type": "electric_scooter", "lon": -77.0417045, "rental_uris": {"android": "https://dc.lft.to/lastmile_qr_scan", "ios": "https://dc.lft.to/lastmile_qr_scan"}, "lat": 38.907308, "is_reserved": 0, "is_disabled": 0, "fusion_lat": 0.0}, {"fusion_lon": 0.0, "bike_id": "2a9b907a06d20ac62f6e64bfe767cc3d", "name": "2a9b907a06d20ac62f6e64bfe767cc3d", "type": "electric_scooter", "lon": -77.00131116666667, "rental_uris": {"android": "https://dc.lft.to/lastmile_qr_scan", "ios": "https://dc.lft.to/lastmile_qr_scan"}, "lat": 38.907574833333335, "is_reserved": 0, "is_disabled": 0, "fusion_lat": 0.0}, {"fusion_lon": 0.0, "bike_id": "d90cb39c9bcb4e7c915798f9fb273041", "name": "d90cb39c9bcb4e7c915798f9fb273041", "type": "electric_scooter", "lon": -76.986111, "rental_uris": {"android": "https://dc.lft.to/lastmile_qr_scan", "ios": "https://dc.lft.to/lastmile_qr_scan"}, "lat": 38.85459783333334, "is_reserved": 0, "is_disabled": 0, "fusion_lat": 0.0}, {"fusion_lon": 0.0, "bike_id": "8f93228425e7ce70c2dba09611ca758a", "name": "8f93228425e7ce70c2dba09611ca758a", "type": "electric_scooter", "lon": -77.04564033333334, "rental_uris": {"android": "https://dc.lft.to/lastmile_qr_scan", "ios": "https://dc.lft.to/lastmile_qr_scan"}, "lat": 38.920763666666666, "is_reserved": 0, "is_disabled": 0, "fusion_lat": 0.0}, {"fusion_lon": 0.0, "bike_id": "6bdf6d096f21417adba74dc99bc83529", "name": "6bdf6d096f21417adba74dc99bc83529", "type": "electric_scooter", "lon": -77.00711266666667, "rental_uris": {"android": "https://dc.lft.to/lastmile_qr_scan", "ios": "https://dc.lft.to/lastmile_qr_scan"}, "lat": 38.884905333333336, "is_reserved": 0, "is_disabled": 0, "fusion_lat": 0.0}, {"fusion_lon": 0.0, "bike_id": "489ff89586732a13887569a4e7f9edef", "name": "489ff89586732a13887569a4e7f9edef", "type": "electric_scooter", "lon": -76.979728, "rental_uris": {"android": "https://dc.lft.to/lastmile_qr_scan", "ios": "https://dc.lft.to/lastmile_qr_scan"}, "lat": 38.887686, "is_reserved": 0, "is_disabled": 0, "fusion_lat": 0.0}, {"fusion_lon": 0.0, "bike_id": "d47fb06d7294deb8ebf5a658bb5dc10e", "name": "d47fb06d7294deb8ebf5a658bb5dc10e", "type": "electric_scooter", "lon": -77.0176725, "rental_uris": {"android": "https://dc.lft.to/lastmile_qr_scan", "ios": "https://dc.lft.to/lastmile_qr_scan"}, "lat": 38.902393000000004, "is_reserved": 0, "is_disabled": 0, "fusion_lat": 0.0}, {"fusion_lon": 0.0, "bike_id": "6d6dee04aef354345479436037f16f75", "name": "6d6dee04aef354345479436037f16f75", "type": "electric_scooter", "lon": -77.043724, "rental_uris": {"android": "https://dc.lft.to/lastmile_qr_scan", "ios": "https://dc.lft.to/lastmile_qr_scan"}, "lat": 38.910490333333335, "is_reserved": 0, "is_disabled": 0, "fusion_lat": 0.0}, {"fusion_lon": 0.0, "bike_id": "bea8df18f5da4a734c4c7586c5a56640", "name": "bea8df18f5da4a734c4c7586c5a56640", "type": "electric_scooter", "lon": -77.00226183333334, "rental_uris": {"android": "https://dc.lft.to/lastmile_qr_scan", "ios": "https://dc.lft.to/lastmile_qr_scan"}, "lat": 38.890916, "is_reserved": 0, "is_disabled": 0, "fusion_lat": 0.0}, {"fusion_lon": 0.0, "bike_id": "b74c061f8b08a3e235fd236fd75dcf0b", "name": "b74c061f8b08a3e235fd236fd75dcf0b", "type": "electric_scooter", "lon": -77.02712433333333, "rental_uris": {"android": "https://dc.lft.to/lastmile_qr_scan", "ios": "https://dc.lft.to/lastmile_qr_scan"}, "lat": 38.896195, "is_reserved": 0, "is_disabled": 0, "fusion_lat": 0.0}, {"fusion_lon": 0.0, "bike_id": "0307e016c89d5abc4ddc30d6a7dd3034", "name": "0307e016c89d5abc4ddc30d6a7dd3034", "type": "electric_scooter", "lon": -77.06179983333334, "rental_uris": {"android": "https://dc.lft.to/lastmile_qr_scan", "ios": "https://dc.lft.to/lastmile_qr_scan"}, "lat": 38.9409275, "is_reserved": 0, "is_disabled": 0, "fusion_lat": 0.0}, {"fusion_lon": 0.0, "bike_id": "f94a044e1fe4aa3921a06c55f883acd7", "name": "f94a044e1fe4aa3921a06c55f883acd7", "type": "electric_scooter", "lon": -77.00969983333333, "rental_uris": {"android": "https://dc.lft.to/lastmile_qr_scan", "ios": "https://dc.lft.to/lastmile_qr_scan"}, "lat": 38.907841833333336, "is_reserved": 0, "is_disabled": 0, "fusion_lat": 0.0}, {"fusion_lon": 0.0, "bike_id": "0a3b312ad5212d081f89abd6078d0301", "name": "0a3b312ad5212d081f89abd6078d0301", "type": "electric_scooter", "lon": -77.0160255, "rental_uris": {"android": "https://dc.lft.to/lastmile_qr_scan", "ios": "https://dc.lft.to/lastmile_qr_scan"}, "lat": 38.8997735, "is_reserved": 0, "is_disabled": 0, "fusion_lat": 0.0}, {"fusion_lon": 0.0, "bike_id": "1d259c14153e2818a53e4756d45ebc10", "name": "1d259c14153e2818a53e4756d45ebc10", "type": "electric_scooter", "lon": -77.019306, "rental_uris": {"android": "https://dc.lft.to/lastmile_qr_scan", "ios": "https://dc.lft.to/lastmile_qr_scan"}, "lat": 38.944827, "is_reserved": 0, "is_disabled": 0, "fusion_lat": 0.0}, {"fusion_lon": 0.0, "bike_id": "1bd66f0980cf7ffbd6505975069f72f5", "name": "1bd66f0980cf7ffbd6505975069f72f5", "type": "electric_scooter", "lon": -77.068621, "rental_uris": {"android": "https://dc.lft.to/lastmile_qr_scan", "ios": "https://dc.lft.to/lastmile_qr_scan"}, "lat": 38.95208783333333, "is_reserved": 0, "is_disabled": 0, "fusion_lat": 0.0}, {"fusion_lon": 0.0, "bike_id": "2098e224ac8a71989e5b0021052bf8c5", "name": "2098e224ac8a71989e5b0021052bf8c5", "type": "electric_scooter", "lon": -77.04396116666666, "rental_uris": {"android": "https://dc.lft.to/lastmile_qr_scan", "ios": "https://dc.lft.to/lastmile_qr_scan"}, "lat": 38.90890783333333, "is_reserved": 0, "is_disabled": 0, "fusion_lat": 0.0}, {"fusion_lon": 0.0, "bike_id": "42be427ba350927152318ca7539e437f", "name": "42be427ba350927152318ca7539e437f", "type": "electric_scooter", "lon": -77.0345645, "rental_uris": {"android": "https://dc.lft.to/lastmile_qr_scan", "ios": "https://dc.lft.to/lastmile_qr_scan"}, "lat": 38.92157733333333, "is_reserved": 0, "is_disabled": 0, "fusion_lat": 0.0}, {"fusion_lon": 0.0, "bike_id": "e8dd1628eed2a4490f5090c3164f8776", "name": "e8dd1628eed2a4490f5090c3164f8776", "type": "electric_scooter", "lon": -77.01479766666667, "rental_uris": {"android": "https://dc.lft.to/lastmile_qr_scan", "ios": "https://dc.lft.to/lastmile_qr_scan"}, "lat": 38.8763015, "is_reserved": 0, "is_disabled": 0, "fusion_lat": 0.0}, {"fusion_lon": 0.0, "bike_id": "936ec37f6620848eda86f73d363f58ec", "name": "936ec37f6620848eda86f73d363f58ec", "type": "electric_scooter", "lon": -77.03641266666666, "rental_uris": {"android": "https://dc.lft.to/lastmile_qr_scan", "ios": "https://dc.lft.to/lastmile_qr_scan"}, "lat": 38.924145833333334, "is_reserved": 0, "is_disabled": 0, "fusion_lat": 0.0}, {"fusion_lon": 0.0, "bike_id": "f2ecdac24a5045cdcbaeae7c36313011", "name": "f2ecdac24a5045cdcbaeae7c36313011", "type": "electric_scooter", "lon": -77.00114816666667, "rental_uris": {"android": "https://dc.lft.to/lastmile_qr_scan", "ios": "https://dc.lft.to/lastmile_qr_scan"}, "lat": 38.91714483333333, "is_reserved": 0, "is_disabled": 0, "fusion_lat": 0.0}, {"fusion_lon": 0.0, "bike_id": "45ee816bc24527433d34551d065ab062", "name": "45ee816bc24527433d34551d065ab062", "type": "electric_scooter", "lon": -76.9873105, "rental_uris": {"android": "https://dc.lft.to/lastmile_qr_scan", "ios": "https://dc.lft.to/lastmile_qr_scan"}, "lat": 38.86712766666667, "is_reserved": 0, "is_disabled": 0, "fusion_lat": 0.0}, {"fusion_lon": 0.0, "bike_id": "efd3c7e7c00d4561cda54f629d90b2db", "name": "efd3c7e7c00d4561cda54f629d90b2db", "type": "electric_scooter", "lon": -77.0232765, "rental_uris": {"android": "https://dc.lft.to/lastmile_qr_scan", "ios": "https://dc.lft.to/lastmile_qr_scan"}, "lat": 38.92410783333333, "is_reserved": 0, "is_disabled": 0, "fusion_lat": 0.0}, {"fusion_lon": 0.0, "bike_id": "319316ffbe11d698b6670fca62fcdf3c", "name": "319316ffbe11d698b6670fca62fcdf3c", "type": "electric_scooter", "lon": -76.97275383333333, "rental_uris": {"android": "https://dc.lft.to/lastmile_qr_scan", "ios": "https://dc.lft.to/lastmile_qr_scan"}, "lat": 38.930892, "is_reserved": 0, "is_disabled": 0, "fusion_lat": 0.0}, {"fusion_lon": 0.0, "bike_id": "fd6b679475699d66eced4408040eb7ec", "name": "fd6b679475699d66eced4408040eb7ec", "type": "electric_bike", "lon": -77.00602183333334, "rental_uris": {"android": "https://dc.lft.to/lastmile_qr_scan", "ios": "https://dc.lft.to/lastmile_qr_scan"}, "lat": 38.89819816666667, "is_reserved": 0, "is_disabled": 0, "fusion_lat": 0.0}, {"fusion_lon": 0.0, "bike_id": "69e3c38b86bcfed459e3fbd803a6701c", "name": "69e3c38b86bcfed459e3fbd803a6701c", "type": "electric_scooter", "lon": -77.0241695, "rental_uris": {"android": "https://dc.lft.to/lastmile_qr_scan", "ios": "https://dc.lft.to/lastmile_qr_scan"}, "lat": 38.95750483333333, "is_reserved": 0, "is_disabled": 0, "fusion_lat": 0.0}, {"fusion_lon": 0.0, "bike_id": "ef6f17e8fda199f661b7d612ecfb1d42", "name": "ef6f17e8fda199f661b7d612ecfb1d42", "type": "electric_scooter", "lon": -76.9415415, "rental_uris": {"android": "https://dc.lft.to/lastmile_qr_scan", "ios": "https://dc.lft.to/lastmile_qr_scan"}, "lat": 38.883635, "is_reserved": 0, "is_disabled": 0, "fusion_lat": 0.0}, {"fusion_lon": 0.0, "bike_id": "c7099e23766ce995209b6b1adcfc4af4", "name": "c7099e23766ce995209b6b1adcfc4af4", "type": "electric_scooter", "lon": -77.03118883333333, "rental_uris": {"android": "https://dc.lft.to/lastmile_qr_scan", "ios": "https://dc.lft.to/lastmile_qr_scan"}, "lat": 38.92020816666667, "is_reserved": 0, "is_disabled": 0, "fusion_lat": 0.0}, {"fusion_lon": 0.0, "bike_id": "8a63a0e0bf72308c5b2f295ecdc532a5", "name": "8a63a0e0bf72308c5b2f295ecdc532a5", "type": "electric_scooter", "lon": -77.029047, "rental_uris": {"android": "https://dc.lft.to/lastmile_qr_scan", "ios": "https://dc.lft.to/lastmile_qr_scan"}, "lat": 38.90453, "is_reserved": 0, "is_disabled": 0, "fusion_lat": 0.0}, {"fusion_lon": 0.0, "bike_id": "b471b5e2f45fd4de456b9428337d717a", "name": "b471b5e2f45fd4de456b9428337d717a", "type": "electric_scooter", "lon": -77.02483766666667, "rental_uris": {"android": "https://dc.lft.to/lastmile_qr_scan", "ios": "https://dc.lft.to/lastmile_qr_scan"}, "lat": 38.880118833333334, "is_reserved": 0, "is_disabled": 0, "fusion_lat": 0.0}, {"fusion_lon": 0.0, "bike_id": "cdff100ae795aa7fe5f00ad014d99eef", "name": "cdff100ae795aa7fe5f00ad014d99eef", "type": "electric_scooter", "lon": -76.99016216666666, "rental_uris": {"android": "https://dc.lft.to/lastmile_qr_scan", "ios": "https://dc.lft.to/lastmile_qr_scan"}, "lat": 38.9003805, "is_reserved": 0, "is_disabled": 0, "fusion_lat": 0.0}, {"fusion_lon": 0.0, "bike_id": "07894b4331eaf1b566fe89891cb636dc", "name": "07894b4331eaf1b566fe89891cb636dc", "type": "electric_scooter", "lon": -77.007442, "rental_uris": {"android": "https://dc.lft.to/lastmile_qr_scan", "ios": "https://dc.lft.to/lastmile_qr_scan"}, "lat": 38.876976666666664, "is_reserved": 0, "is_disabled": 0, "fusion_lat": 0.0}, {"fusion_lon": 0.0, "bike_id": "334a49272637e060e129bccbd3ef37c5", "name": "334a49272637e060e129bccbd3ef37c5", "type": "electric_scooter", "lon": -77.03461783333333, "rental_uris": {"android": "https://dc.lft.to/lastmile_qr_scan", "ios": "https://dc.lft.to/lastmile_qr_scan"}, "lat": 38.914947166666664, "is_reserved": 0, "is_disabled": 0, "fusion_lat": 0.0}, {"fusion_lon": 0.0, "bike_id": "29d866ba6466c1fea8e59d7194af09da", "name": "29d866ba6466c1fea8e59d7194af09da", "type": "electric_scooter", "lon": -77.02787833333333, "rental_uris": {"android": "https://dc.lft.to/lastmile_qr_scan", "ios": "https://dc.lft.to/lastmile_qr_scan"}, "lat": 38.9028105, "is_reserved": 0, "is_disabled": 0, "fusion_lat": 0.0}, {"fusion_lon": 0.0, "bike_id": "05241494a4143fdad726619a29c6735f", "name": "05241494a4143fdad726619a29c6735f", "type": "electric_scooter", "lon": -77.02974133333333, "rental_uris": {"android": "https://dc.lft.to/lastmile_qr_scan", "ios": "https://dc.lft.to/lastmile_qr_scan"}, "lat": 38.90731733333333, "is_reserved": 0, "is_disabled": 0, "fusion_lat": 0.0}, {"fusion_lon": 0.0, "bike_id": "3944ed31a4d01f512e05531302cf183a", "name": "3944ed31a4d01f512e05531302cf183a", "type": "electric_scooter", "lon": -77.054133, "rental_uris": {"android": "https://dc.lft.to/lastmile_qr_scan", "ios": "https://dc.lft.to/lastmile_qr_scan"}, "lat": 38.928309166666665, "is_reserved": 0, "is_disabled": 0, "fusion_lat": 0.0}, {"fusion_lon": 0.0, "bike_id": "6afa4f75c9ffa3a1446131ab6a9fe65f", "name": "6afa4f75c9ffa3a1446131ab6a9fe65f", "type": "electric_scooter", "lon": -77.04178333333333, "rental_uris": {"android": "https://dc.lft.to/lastmile_qr_scan", "ios": "https://dc.lft.to/lastmile_qr_scan"}, "lat": 38.89887216666666, "is_reserved": 0, "is_disabled": 0, "fusion_lat": 0.0}, {"fusion_lon": 0.0, "bike_id": "bcd38079429772574e5c16dfb96ca53c", "name": "bcd38079429772574e5c16dfb96ca53c", "type": "electric_scooter", "lon": -77.06348133333333, "rental_uris": {"android": "https://dc.lft.to/lastmile_qr_scan", "ios": "https://dc.lft.to/lastmile_qr_scan"}, "lat": 38.913397833333335, "is_reserved": 0, "is_disabled": 0, "fusion_lat": 0.0}, {"fusion_lon": 0.0, "bike_id": "e6f165b8a2cb98c3dbac175f4c9260bb", "name": "e6f165b8a2cb98c3dbac175f4c9260bb", "type": "electric_scooter", "lon": -77.02263566666667, "rental_uris": {"android": "https://dc.lft.to/lastmile_qr_scan", "ios": "https://dc.lft.to/lastmile_qr_scan"}, "lat": 38.927406166666664, "is_reserved": 0, "is_disabled": 0, "fusion_lat": 0.0}, {"fusion_lon": 0.0, "bike_id": "f06a94c5d1b379bc81eaf1141e42ed46", "name": "f06a94c5d1b379bc81eaf1141e42ed46", "type": "electric_scooter", "lon": -77.039928, "rental_uris": {"android": "https://dc.lft.to/lastmile_qr_scan", "ios": "https://dc.lft.to/lastmile_qr_scan"}, "lat": 38.914143, "is_reserved": 0, "is_disabled": 0, "fusion_lat": 0.0}, {"fusion_lon": 0.0, "bike_id": "dfe5bc2e9d5e31ea342e0ec0a7e45dc0", "name": "dfe5bc2e9d5e31ea342e0ec0a7e45dc0", "type": "electric_scooter", "lon": -77.03993383333334, "rental_uris": {"android": "https://dc.lft.to/lastmile_qr_scan", "ios": "https://dc.lft.to/lastmile_qr_scan"}, "lat": 38.90135566666667, "is_reserved": 0, "is_disabled": 0, "fusion_lat": 0.0}, {"fusion_lon": 0.0, "bike_id": "db39d59e2be16139e5fedebe906e8857", "name": "db39d59e2be16139e5fedebe906e8857", "type": "electric_scooter", "lon": -77.04508816666667, "rental_uris": {"android": "https://dc.lft.to/lastmile_qr_scan", "ios": "https://dc.lft.to/lastmile_qr_scan"}, "lat": 38.90675, "is_reserved": 0, "is_disabled": 0, "fusion_lat": 0.0}, {"fusion_lon": 0.0, "bike_id": "d82ca146f0433eae2506c9b12b37eecd", "name": "d82ca146f0433eae2506c9b12b37eecd", "type": "electric_scooter", "lon": -77.024761, "rental_uris": {"android": "https://dc.lft.to/lastmile_qr_scan", "ios": "https://dc.lft.to/lastmile_qr_scan"}, "lat": 38.939124, "is_reserved": 0, "is_disabled": 0, "fusion_lat": 0.0}, {"fusion_lon": 0.0, "bike_id": "db42c48531a67828c8d9c52673e966c6", "name": "db42c48531a67828c8d9c52673e966c6", "type": "electric_scooter", "lon": -76.99866116666666, "rental_uris": {"android": "https://dc.lft.to/lastmile_qr_scan", "ios": "https://dc.lft.to/lastmile_qr_scan"}, "lat": 38.90901, "is_reserved": 0, "is_disabled": 0, "fusion_lat": 0.0}, {"fusion_lon": 0.0, "bike_id": "5b7c1ac536d546a0156de0676f9bb38f", "name": "5b7c1ac536d546a0156de0676f9bb38f", "type": "electric_scooter", "lon": -76.94653233333334, "rental_uris": {"android": "https://dc.lft.to/lastmile_qr_scan", "ios": "https://dc.lft.to/lastmile_qr_scan"}, "lat": 38.89827783333333, "is_reserved": 0, "is_disabled": 0, "fusion_lat": 0.0}, {"fusion_lon": 0.0, "bike_id": "1995c797d058edcc873b126099d47ebb", "name": "1995c797d058edcc873b126099d47ebb", "type": "electric_scooter", "lon": -77.02303083333334, "rental_uris": {"android": "https://dc.lft.to/lastmile_qr_scan", "ios": "https://dc.lft.to/lastmile_qr_scan"}, "lat": 38.91766416666667, "is_reserved": 0, "is_disabled": 0, "fusion_lat": 0.0}, {"fusion_lon": 0.0, "bike_id": "5ed3839a42574d8b290ef2f812d004a6", "name": "5ed3839a42574d8b290ef2f812d004a6", "type": "electric_bike", "lon": -77.35307833333333, "rental_uris": {"android": "https://dc.lft.to/lastmile_qr_scan", "ios": "https://dc.lft.to/lastmile_qr_scan"}, "lat": 38.9500315, "is_reserved": 0, "is_disabled": 0, "fusion_lat": 0.0}, {"fusion_lon": 0.0, "bike_id": "ab99710c10a81d76107f25c709590552", "name": "ab99710c10a81d76107f25c709590552", "type": "electric_scooter", "lon": -77.0105045, "rental_uris": {"android": "https://dc.lft.to/lastmile_qr_scan", "ios": "https://dc.lft.to/lastmile_qr_scan"}, "lat": 38.87139783333333, "is_reserved": 0, "is_disabled": 0, "fusion_lat": 0.0}, {"fusion_lon": 0.0, "bike_id": "73e52820106efb0b3461e63debf02ae7", "name": "73e52820106efb0b3461e63debf02ae7", "type": "electric_scooter", "lon": -77.03639583333333, "rental_uris": {"android": "https://dc.lft.to/lastmile_qr_scan", "ios": "https://dc.lft.to/lastmile_qr_scan"}, "lat": 38.91275016666667, "is_reserved": 0, "is_disabled": 0, "fusion_lat": 0.0}, {"fusion_lon": 0.0, "bike_id": "e9df83030069b0e432b7bf1c2f941893", "name": "e9df83030069b0e432b7bf1c2f941893", "type": "electric_scooter", "lon": -77.04119266666666, "rental_uris": {"android": "https://dc.lft.to/lastmile_qr_scan", "ios": "https://dc.lft.to/lastmile_qr_scan"}, "lat": 38.91553283333333, "is_reserved": 0, "is_disabled": 0, "fusion_lat": 0.0}, {"fusion_lon": 0.0, "bike_id": "90a6e792e1c723f109a95d1b9106690a", "name": "90a6e792e1c723f109a95d1b9106690a", "type": "electric_scooter", "lon": -77.01654633333334, "rental_uris": {"android": "https://dc.lft.to/lastmile_qr_scan", "ios": "https://dc.lft.to/lastmile_qr_scan"}, "lat": 38.887514833333334, "is_reserved": 0, "is_disabled": 0, "fusion_lat": 0.0}, {"fusion_lon": 0.0, "bike_id": "c9d3436bc78359f784ffe7e3b18cfb73", "name": "c9d3436bc78359f784ffe7e3b18cfb73", "type": "electric_scooter", "lon": -77.03905933333333, "rental_uris": {"android": "https://dc.lft.to/lastmile_qr_scan", "ios": "https://dc.lft.to/lastmile_qr_scan"}, "lat": 38.91414133333333, "is_reserved": 0, "is_disabled": 0, "fusion_lat": 0.0}, {"fusion_lon": 0.0, "bike_id": "79fedc674ed3f0c3185363c7912f7995", "name": "79fedc674ed3f0c3185363c7912f7995", "type": "electric_scooter", "lon": -76.99060033333333, "rental_uris": {"android": "https://dc.lft.to/lastmile_qr_scan", "ios": "https://dc.lft.to/lastmile_qr_scan"}, "lat": 38.86362183333333, "is_reserved": 0, "is_disabled": 0, "fusion_lat": 0.0}, {"fusion_lon": 0.0, "bike_id": "6cde2353e6416b0a5be4ea6ee3a387df", "name": "6cde2353e6416b0a5be4ea6ee3a387df", "type": "electric_bike", "lon": -77.0063015, "rental_uris": {"android": "https://dc.lft.to/lastmile_qr_scan", "ios": "https://dc.lft.to/lastmile_qr_scan"}, "lat": 38.983656, "is_reserved": 0, "is_disabled": 0, "fusion_lat": 0.0}, {"fusion_lon": 0.0, "bike_id": "97b8533362c4ccd2bf846a3fa2f6cfc5", "name": "97b8533362c4ccd2bf846a3fa2f6cfc5", "type": "electric_scooter", "lon": -77.0058675, "rental_uris": {"android": "https://dc.lft.to/lastmile_qr_scan", "ios": "https://dc.lft.to/lastmile_qr_scan"}, "lat": 38.90565083333333, "is_reserved": 0, "is_disabled": 0, "fusion_lat": 0.0}, {"fusion_lon": 0.0, "bike_id": "3ea673aed8df862efbd09af1f2607790", "name": "3ea673aed8df862efbd09af1f2607790", "type": "electric_bike", "lon": -77.064744, "rental_uris": {"android": "https://dc.lft.to/lastmile_qr_scan", "ios": "https://dc.lft.to/lastmile_qr_scan"}, "lat": 38.97384616666667, "is_reserved": 0, "is_disabled": 0, "fusion_lat": 0.0}, {"fusion_lon": 0.0, "bike_id": "9b3da8fdc8b922acfd309314ce407eac", "name": "9b3da8fdc8b922acfd309314ce407eac", "type": "electric_scooter", "lon": -76.99608283333333, "rental_uris": {"android": "https://dc.lft.to/lastmile_qr_scan", "ios": "https://dc.lft.to/lastmile_qr_scan"}, "lat": 38.9262115, "is_reserved": 0, "is_disabled": 0, "fusion_lat": 0.0}, {"fusion_lon": 0.0, "bike_id": "e58f79c9cfa5f041ab712c0d1aad7882", "name": "e58f79c9cfa5f041ab712c0d1aad7882", "type": "electric_scooter", "lon": -77.02465916666667, "rental_uris": {"android": "https://dc.lft.to/lastmile_qr_scan", "ios": "https://dc.lft.to/lastmile_qr_scan"}, "lat": 38.90853766666667, "is_reserved": 0, "is_disabled": 0, "fusion_lat": 0.0}, {"fusion_lon": 0.0, "bike_id": "9c2a68aaab1f25fe62631b69202c500d", "name": "9c2a68aaab1f25fe62631b69202c500d", "type": "electric_scooter", "lon": -76.98566883333334, "rental_uris": {"android": "https://dc.lft.to/lastmile_qr_scan", "ios": "https://dc.lft.to/lastmile_qr_scan"}, "lat": 38.898874666666664, "is_reserved": 0, "is_disabled": 0, "fusion_lat": 0.0}, {"fusion_lon": 0.0, "bike_id": "435b3253b4f36b49cbdbabd9dfe74a3d", "name": "435b3253b4f36b49cbdbabd9dfe74a3d", "type": "electric_scooter", "lon": -77.010559, "rental_uris": {"android": "https://dc.lft.to/lastmile_qr_scan", "ios": "https://dc.lft.to/lastmile_qr_scan"}, "lat": 38.92990233333333, "is_reserved": 0, "is_disabled": 0, "fusion_lat": 0.0}, {"fusion_lon": 0.0, "bike_id": "2fc584c4411e67d75f377f923814988e", "name": "2fc584c4411e67d75f377f923814988e", "type": "electric_scooter", "lon": -77.04687616666666, "rental_uris": {"android": "https://dc.lft.to/lastmile_qr_scan", "ios": "https://dc.lft.to/lastmile_qr_scan"}, "lat": 38.915871, "is_reserved": 0, "is_disabled": 0, "fusion_lat": 0.0}, {"fusion_lon": 0.0, "bike_id": "f6c7d0d27d6efd2094f4430f00e53d16", "name": "f6c7d0d27d6efd2094f4430f00e53d16", "type": "electric_scooter", "lon": -77.01760283333333, "rental_uris": {"android": "https://dc.lft.to/lastmile_qr_scan", "ios": "https://dc.lft.to/lastmile_qr_scan"}, "lat": 38.8859395, "is_reserved": 0, "is_disabled": 0, "fusion_lat": 0.0}, {"fusion_lon": 0.0, "bike_id": "061c8c5df4e5682c53398416c392215b", "name": "061c8c5df4e5682c53398416c392215b", "type": "electric_bike", "lon": -76.96698333333333, "rental_uris": {"android": "https://dc.lft.to/lastmile_qr_scan", "ios": "https://dc.lft.to/lastmile_qr_scan"}, "lat": 38.868527666666665, "is_reserved": 0, "is_disabled": 0, "fusion_lat": 0.0}, {"fusion_lon": 0.0, "bike_id": "b863a6910c331791f583f857a3f0021b", "name": "b863a6910c331791f583f857a3f0021b", "type": "electric_scooter", "lon": -77.05597166666666, "rental_uris": {"android": "https://dc.lft.to/lastmile_qr_scan", "ios": "https://dc.lft.to/lastmile_qr_scan"}, "lat": 38.9370045, "is_reserved": 0, "is_disabled": 0, "fusion_lat": 0.0}, {"fusion_lon": 0.0, "bike_id": "3f4a79dd687765bf3836724d8126e2d7", "name": "3f4a79dd687765bf3836724d8126e2d7", "type": "electric_scooter", "lon": -77.002086, "rental_uris": {"android": "https://dc.lft.to/lastmile_qr_scan", "ios": "https://dc.lft.to/lastmile_qr_scan"}, "lat": 38.900347333333336, "is_reserved": 0, "is_disabled": 0, "fusion_lat": 0.0}, {"fusion_lon": 0.0, "bike_id": "588231f8a8442fbf7a37d5594e45edc0", "name": "588231f8a8442fbf7a37d5594e45edc0", "type": "electric_bike", "lon": -77.0497735, "rental_uris": {"android": "https://dc.lft.to/lastmile_qr_scan", "ios": "https://dc.lft.to/lastmile_qr_scan"}, "lat": 38.99243833333333, "is_reserved": 0, "is_disabled": 0, "fusion_lat": 0.0}, {"fusion_lon": 0.0, "bike_id": "86b5d14c5ba532773d016d1f0bd05dd7", "name": "86b5d14c5ba532773d016d1f0bd05dd7", "type": "electric_bike", "lon": -77.195488, "rental_uris": {"android": "https://dc.lft.to/lastmile_qr_scan", "ios": "https://dc.lft.to/lastmile_qr_scan"}, "lat": 39.11515683333333, "is_reserved": 0, "is_disabled": 0, "fusion_lat": 0.0}, {"fusion_lon": 0.0, "bike_id": "6f8df48517fa50f779b226f0ec8b49da", "name": "6f8df48517fa50f779b226f0ec8b49da", "type": "electric_scooter", "lon": -76.94652933333333, "rental_uris": {"android": "https://dc.lft.to/lastmile_qr_scan", "ios": "https://dc.lft.to/lastmile_qr_scan"}, "lat": 38.898269, "is_reserved": 0, "is_disabled": 0, "fusion_lat": 0.0}, {"fusion_lon": 0.0, "bike_id": "79bd18315268e71cd58c25de2ce01899", "name": "79bd18315268e71cd58c25de2ce01899", "type": "electric_scooter", "lon": -77.01760266666666, "rental_uris": {"android": "https://dc.lft.to/lastmile_qr_scan", "ios": "https://dc.lft.to/lastmile_qr_scan"}, "lat": 38.877243, "is_reserved": 0, "is_disabled": 0, "fusion_lat": 0.0}, {"fusion_lon": 0.0, "bike_id": "4ef4ae279dca7e2e1df388ecf210c146", "name": "4ef4ae279dca7e2e1df388ecf210c146", "type": "electric_scooter", "lon": -77.00069366666666, "rental_uris": {"android": "https://dc.lft.to/lastmile_qr_scan", "ios": "https://dc.lft.to/lastmile_qr_scan"}, "lat": 38.90136916666667, "is_reserved": 0, "is_disabled": 0, "fusion_lat": 0.0}, {"fusion_lon": 0.0, "bike_id": "e5eec5f7bcb09bea2acfdb89c010455b", "name": "e5eec5f7bcb09bea2acfdb89c010455b", "type": "electric_bike", "lon": -77.0852695, "rental_uris": {"android": "https://dc.lft.to/lastmile_qr_scan", "ios": "https://dc.lft.to/lastmile_qr_scan"}, "lat": 38.856495, "is_reserved": 0, "is_disabled": 0, "fusion_lat": 0.0}, {"fusion_lon": 0.0, "bike_id": "3e343405450d6784c196b31fc40ca931", "name": "3e343405450d6784c196b31fc40ca931", "type": "electric_bike", "lon": -77.026204, "rental_uris": {"android": "https://dc.lft.to/lastmile_qr_scan", "ios": "https://dc.lft.to/lastmile_qr_scan"}, "lat": 38.962233166666664, "is_reserved": 0, "is_disabled": 0, "fusion_lat": 0.0}, {"fusion_lon": 0.0, "bike_id": "cd89e2b5602e0c90e37e826d7d02e50c", "name": "cd89e2b5602e0c90e37e826d7d02e50c", "type": "electric_scooter", "lon": -77.0327665, "rental_uris": {"android": "https://dc.lft.to/lastmile_qr_scan", "ios": "https://dc.lft.to/lastmile_qr_scan"}, "lat": 38.904599, "is_reserved": 0, "is_disabled": 0, "fusion_lat": 0.0}, {"fusion_lon": 0.0, "bike_id": "2b34017a3650f0c7aa55339829c9ba55", "name": "2b34017a3650f0c7aa55339829c9ba55", "type": "electric_scooter", "lon": -77.031876, "rental_uris": {"android": "https://dc.lft.to/lastmile_qr_scan", "ios": "https://dc.lft.to/lastmile_qr_scan"}, "lat": 38.91194616666667, "is_reserved": 0, "is_disabled": 0, "fusion_lat": 0.0}, {"fusion_lon": 0.0, "bike_id": "f66f09e728c7c91cc51e293f8fb7d8c3", "name": "f66f09e728c7c91cc51e293f8fb7d8c3", "type": "electric_scooter", "lon": -77.01628966666667, "rental_uris": {"android": "https://dc.lft.to/lastmile_qr_scan", "ios": "https://dc.lft.to/lastmile_qr_scan"}, "lat": 38.87639516666667, "is_reserved": 0, "is_disabled": 0, "fusion_lat": 0.0}, {"fusion_lon": 0.0, "bike_id": "32a3e0d93da7476bf50a8894580e654e", "name": "32a3e0d93da7476bf50a8894580e654e", "type": "electric_scooter", "lon": -77.031747, "rental_uris": {"android": "https://dc.lft.to/lastmile_qr_scan", "ios": "https://dc.lft.to/lastmile_qr_scan"}, "lat": 38.8873845, "is_reserved": 0, "is_disabled": 0, "fusion_lat": 0.0}, {"fusion_lon": 0.0, "bike_id": "c58a019259f030c8b0bf722aff0100be", "name": "c58a019259f030c8b0bf722aff0100be", "type": "electric_scooter", "lon": -77.011124, "rental_uris": {"android": "https://dc.lft.to/lastmile_qr_scan", "ios": "https://dc.lft.to/lastmile_qr_scan"}, "lat": 38.90358166666667, "is_reserved": 0, "is_disabled": 0, "fusion_lat": 0.0}, {"fusion_lon": 0.0, "bike_id": "22f556d6ef8890262d56edb1210357cc", "name": "22f556d6ef8890262d56edb1210357cc", "type": "electric_scooter", "lon": -77.0338055, "rental_uris": {"android": "https://dc.lft.to/lastmile_qr_scan", "ios": "https://dc.lft.to/lastmile_qr_scan"}, "lat": 38.92154883333333, "is_reserved": 0, "is_disabled": 0, "fusion_lat": 0.0}, {"fusion_lon": 0.0, "bike_id": "33de24c954fde328d1c0642d909381c8", "name": "33de24c954fde328d1c0642d909381c8", "type": "electric_scooter", "lon": -77.01893983333333, "rental_uris": {"android": "https://dc.lft.to/lastmile_qr_scan", "ios": "https://dc.lft.to/lastmile_qr_scan"}, "lat": 38.9001035, "is_reserved": 0, "is_disabled": 0, "fusion_lat": 0.0}, {"fusion_lon": 0.0, "bike_id": "c6d4b92d333a440e7de3ccbb9e88618b", "name": "c6d4b92d333a440e7de3ccbb9e88618b", "type": "electric_scooter", "lon": -76.985577, "rental_uris": {"android": "https://dc.lft.to/lastmile_qr_scan", "ios": "https://dc.lft.to/lastmile_qr_scan"}, "lat": 38.92007666666667, "is_reserved": 0, "is_disabled": 0, "fusion_lat": 0.0}, {"fusion_lon": 0.0, "bike_id": "8f2de2b0d11cbb2e49c17b5bbeac0244", "name": "8f2de2b0d11cbb2e49c17b5bbeac0244", "type": "electric_scooter", "lon": -77.02275783333333, "rental_uris": {"android": "https://dc.lft.to/lastmile_qr_scan", "ios": "https://dc.lft.to/lastmile_qr_scan"}, "lat": 38.925060333333334, "is_reserved": 0, "is_disabled": 0, "fusion_lat": 0.0}, {"fusion_lon": 0.0, "bike_id": "a8d7f8bebc06643fa4b67b7aeb84f267", "name": "a8d7f8bebc06643fa4b67b7aeb84f267", "type": "electric_scooter", "lon": -76.937449, "rental_uris": {"android": "https://dc.lft.to/lastmile_qr_scan", "ios": "https://dc.lft.to/lastmile_qr_scan"}, "lat": 38.89008, "is_reserved": 0, "is_disabled": 0, "fusion_lat": 0.0}, {"fusion_lon": 0.0, "bike_id": "8696555480c558c8527fc46e171596dd", "name": "8696555480c558c8527fc46e171596dd", "type": "electric_scooter", "lon": -77.01042216666667, "rental_uris": {"android": "https://dc.lft.to/lastmile_qr_scan", "ios": "https://dc.lft.to/lastmile_qr_scan"}, "lat": 38.8845055, "is_reserved": 0, "is_disabled": 0, "fusion_lat": 0.0}, {"fusion_lon": 0.0, "bike_id": "8e659585c7c8c8e0d09bd86f99155f9c", "name": "8e659585c7c8c8e0d09bd86f99155f9c", "type": "electric_scooter", "lon": -77.03846033333333, "rental_uris": {"android": "https://dc.lft.to/lastmile_qr_scan", "ios": "https://dc.lft.to/lastmile_qr_scan"}, "lat": 38.916721, "is_reserved": 0, "is_disabled": 0, "fusion_lat": 0.0}, {"fusion_lon": 0.0, "bike_id": "82bd73035f7e0cec050fd460302847fb", "name": "82bd73035f7e0cec050fd460302847fb", "type": "electric_scooter", "lon": -77.01353, "rental_uris": {"android": "https://dc.lft.to/lastmile_qr_scan", "ios": "https://dc.lft.to/lastmile_qr_scan"}, "lat": 38.90391183333333, "is_reserved": 0, "is_disabled": 0, "fusion_lat": 0.0}, {"fusion_lon": 0.0, "bike_id": "5e0c9169e68f64ca51fe780709dd8deb", "name": "5e0c9169e68f64ca51fe780709dd8deb", "type": "electric_scooter", "lon": -77.03180616666667, "rental_uris": {"android": "https://dc.lft.to/lastmile_qr_scan", "ios": "https://dc.lft.to/lastmile_qr_scan"}, "lat": 38.919271333333334, "is_reserved": 0, "is_disabled": 0, "fusion_lat": 0.0}, {"fusion_lon": 0.0, "bike_id": "352a50c01c0337ce1795a3114b08f95c", "name": "352a50c01c0337ce1795a3114b08f95c", "type": "electric_scooter", "lon": -77.03210316666667, "rental_uris": {"android": "https://dc.lft.to/lastmile_qr_scan", "ios": "https://dc.lft.to/lastmile_qr_scan"}, "lat": 38.90768766666667, "is_reserved": 0, "is_disabled": 0, "fusion_lat": 0.0}, {"fusion_lon": 0.0, "bike_id": "a806a2041189fd183337cb8a24ba4297", "name": "a806a2041189fd183337cb8a24ba4297", "type": "electric_scooter", "lon": -77.05268816666667, "rental_uris": {"android": "https://dc.lft.to/lastmile_qr_scan", "ios": "https://dc.lft.to/lastmile_qr_scan"}, "lat": 38.9276395, "is_reserved": 0, "is_disabled": 0, "fusion_lat": 0.0}, {"fusion_lon": 0.0, "bike_id": "3d9a3a2a5420a76ac1a07736e878aa39", "name": "3d9a3a2a5420a76ac1a07736e878aa39", "type": "electric_scooter", "lon": -76.95754216666667, "rental_uris": {"android": "https://dc.lft.to/lastmile_qr_scan", "ios": "https://dc.lft.to/lastmile_qr_scan"}, "lat": 38.884340333333334, "is_reserved": 0, "is_disabled": 0, "fusion_lat": 0.0}, {"fusion_lon": 0.0, "bike_id": "2208812e40398763f82e042ccce104de", "name": "2208812e40398763f82e042ccce104de", "type": "electric_scooter", "lon": -76.98593883333334, "rental_uris": {"android": "https://dc.lft.to/lastmile_qr_scan", "ios": "https://dc.lft.to/lastmile_qr_scan"}, "lat": 38.88975816666667, "is_reserved": 0, "is_disabled": 0, "fusion_lat": 0.0}, {"fusion_lon": 0.0, "bike_id": "86774dfd5b76f070d13247e5076be48d", "name": "86774dfd5b76f070d13247e5076be48d", "type": "electric_scooter", "lon": -77.0434855, "rental_uris": {"android": "https://dc.lft.to/lastmile_qr_scan", "ios": "https://dc.lft.to/lastmile_qr_scan"}, "lat": 38.913651333333334, "is_reserved": 0, "is_disabled": 0, "fusion_lat": 0.0}, {"fusion_lon": 0.0, "bike_id": "4ed90cfa1020aae1d1ea0b9170dd88df", "name": "4ed90cfa1020aae1d1ea0b9170dd88df", "type": "electric_bike", "lon": -76.87496483333334, "rental_uris": {"android": "https://dc.lft.to/lastmile_qr_scan", "ios": "https://dc.lft.to/lastmile_qr_scan"}, "lat": 38.9909205, "is_reserved": 0, "is_disabled": 0, "fusion_lat": 0.0}, {"fusion_lon": 0.0, "bike_id": "0558fb06d240a3ede5773302ae5602be", "name": "0558fb06d240a3ede5773302ae5602be", "type": "electric_scooter", "lon": -77.0233315, "rental_uris": {"android": "https://dc.lft.to/lastmile_qr_scan", "ios": "https://dc.lft.to/lastmile_qr_scan"}, "lat": 38.91557666666667, "is_reserved": 0, "is_disabled": 0, "fusion_lat": 0.0}, {"fusion_lon": 0.0, "bike_id": "fd0f298858bb0aeb1522047ea40305f7", "name": "fd0f298858bb0aeb1522047ea40305f7", "type": "electric_scooter", "lon": -77.01471683333334, "rental_uris": {"android": "https://dc.lft.to/lastmile_qr_scan", "ios": "https://dc.lft.to/lastmile_qr_scan"}, "lat": 38.91766833333333, "is_reserved": 0, "is_disabled": 0, "fusion_lat": 0.0}, {"fusion_lon": 0.0, "bike_id": "6e60525ace64f041e7bf49e19e755067", "name": "6e60525ace64f041e7bf49e19e755067", "type": "electric_scooter", "lon": -77.03102683333333, "rental_uris": {"android": "https://dc.lft.to/lastmile_qr_scan", "ios": "https://dc.lft.to/lastmile_qr_scan"}, "lat": 38.92576233333333, "is_reserved": 0, "is_disabled": 0, "fusion_lat": 0.0}, {"fusion_lon": 0.0, "bike_id": "d14baa95b937fd04de6b9d522ea7cd8c", "name": "d14baa95b937fd04de6b9d522ea7cd8c", "type": "electric_scooter", "lon": -77.02100233333333, "rental_uris": {"android": "https://dc.lft.to/lastmile_qr_scan", "ios": "https://dc.lft.to/lastmile_qr_scan"}, "lat": 38.911097166666664, "is_reserved": 0, "is_disabled": 0, "fusion_lat": 0.0}, {"fusion_lon": 0.0, "bike_id": "79b1ee28bc497affc26e485da6b1c986", "name": "79b1ee28bc497affc26e485da6b1c986", "type": "electric_scooter", "lon": -77.050559, "rental_uris": {"android": "https://dc.lft.to/lastmile_qr_scan", "ios": "https://dc.lft.to/lastmile_qr_scan"}, "lat": 38.90083516666667, "is_reserved": 0, "is_disabled": 0, "fusion_lat": 0.0}, {"fusion_lon": 0.0, "bike_id": "fd2d9274410d895884128380691388bf", "name": "fd2d9274410d895884128380691388bf", "type": "electric_scooter", "lon": -77.0096745, "rental_uris": {"android": "https://dc.lft.to/lastmile_qr_scan", "ios": "https://dc.lft.to/lastmile_qr_scan"}, "lat": 38.907891166666666, "is_reserved": 0, "is_disabled": 0, "fusion_lat": 0.0}, {"fusion_lon": 0.0, "bike_id": "3d441284d06d6aabe55d18e1fe542923", "name": "3d441284d06d6aabe55d18e1fe542923", "type": "electric_scooter", "lon": -77.0007065, "rental_uris": {"android": "https://dc.lft.to/lastmile_qr_scan", "ios": "https://dc.lft.to/lastmile_qr_scan"}, "lat": 38.9014015, "is_reserved": 0, "is_disabled": 0, "fusion_lat": 0.0}, {"fusion_lon": 0.0, "bike_id": "55a948a3acb27ecbabe85f2c867aa3dc", "name": "55a948a3acb27ecbabe85f2c867aa3dc", "type": "electric_scooter", "lon": -76.97907966666666, "rental_uris": {"android": "https://dc.lft.to/lastmile_qr_scan", "ios": "https://dc.lft.to/lastmile_qr_scan"}, "lat": 38.894364833333334, "is_reserved": 0, "is_disabled": 0, "fusion_lat": 0.0}, {"fusion_lon": 0.0, "bike_id": "9b88a8147b7555dbe826843d80da39c3", "name": "9b88a8147b7555dbe826843d80da39c3", "type": "electric_bike", "lon": -76.987499, "rental_uris": {"android": "https://dc.lft.to/lastmile_qr_scan", "ios": "https://dc.lft.to/lastmile_qr_scan"}, "lat": 38.857853666666664, "is_reserved": 0, "is_disabled": 0, "fusion_lat": 0.0}, {"fusion_lon": 0.0, "bike_id": "8e7361c8856b1a0c6e011c95a3edb2f3", "name": "8e7361c8856b1a0c6e011c95a3edb2f3", "type": "electric_scooter", "lon": -77.013965, "rental_uris": {"android": "https://dc.lft.to/lastmile_qr_scan", "ios": "https://dc.lft.to/lastmile_qr_scan"}, "lat": 38.88031266666667, "is_reserved": 0, "is_disabled": 0, "fusion_lat": 0.0}, {"fusion_lon": 0.0, "bike_id": "265946aa5a5f913297b4322dd7af2e3b", "name": "265946aa5a5f913297b4322dd7af2e3b", "type": "electric_scooter", "lon": -77.04168983333334, "rental_uris": {"android": "https://dc.lft.to/lastmile_qr_scan", "ios": "https://dc.lft.to/lastmile_qr_scan"}, "lat": 38.91340266666667, "is_reserved": 0, "is_disabled": 0, "fusion_lat": 0.0}, {"fusion_lon": 0.0, "bike_id": "9540f99eaf254b8fceb754a9b5cd2a04", "name": "9540f99eaf254b8fceb754a9b5cd2a04", "type": "electric_bike", "lon": -77.1068655, "rental_uris": {"android": "https://dc.lft.to/lastmile_qr_scan", "ios": "https://dc.lft.to/lastmile_qr_scan"}, "lat": 38.93585683333333, "is_reserved": 0, "is_disabled": 0, "fusion_lat": 0.0}, {"fusion_lon": 0.0, "bike_id": "c7e40da86b61daeb18a252a5fe7ef5f9", "name": "c7e40da86b61daeb18a252a5fe7ef5f9", "type": "electric_scooter", "lon": -77.05287366666667, "rental_uris": {"android": "https://dc.lft.to/lastmile_qr_scan", "ios": "https://dc.lft.to/lastmile_qr_scan"}, "lat": 38.91017216666667, "is_reserved": 0, "is_disabled": 0, "fusion_lat": 0.0}, {"fusion_lon": 0.0, "bike_id": "1801edff3e77379ae9aba601e64003a2", "name": "1801edff3e77379ae9aba601e64003a2", "type": "electric_scooter", "lon": -77.04290283333333, "rental_uris": {"android": "https://dc.lft.to/lastmile_qr_scan", "ios": "https://dc.lft.to/lastmile_qr_scan"}, "lat": 38.91789833333333, "is_reserved": 0, "is_disabled": 0, "fusion_lat": 0.0}, {"fusion_lon": 0.0, "bike_id": "a80f38821f6d9c0c1e6dc0e46b0da609", "name": "a80f38821f6d9c0c1e6dc0e46b0da609", "type": "electric_scooter", "lon": -77.03861766666667, "rental_uris": {"android": "https://dc.lft.to/lastmile_qr_scan", "ios": "https://dc.lft.to/lastmile_qr_scan"}, "lat": 38.910182666666664, "is_reserved": 0, "is_disabled": 0, "fusion_lat": 0.0}, {"fusion_lon": 0.0, "bike_id": "f8e66583175a8666263d548f9b164bce", "name": "f8e66583175a8666263d548f9b164bce", "type": "electric_scooter", "lon": -77.04682233333334, "rental_uris": {"android": "https://dc.lft.to/lastmile_qr_scan", "ios": "https://dc.lft.to/lastmile_qr_scan"}, "lat": 38.8982915, "is_reserved": 0, "is_disabled": 0, "fusion_lat": 0.0}, {"fusion_lon": 0.0, "bike_id": "9edc5f582b05cf396da45d019f43feb7", "name": "9edc5f582b05cf396da45d019f43feb7", "type": "electric_scooter", "lon": -77.0342035, "rental_uris": {"android": "https://dc.lft.to/lastmile_qr_scan", "ios": "https://dc.lft.to/lastmile_qr_scan"}, "lat": 38.907992166666666, "is_reserved": 0, "is_disabled": 0, "fusion_lat": 0.0}, {"fusion_lon": 0.0, "bike_id": "27a7335d41a139116eab3cd568e453af", "name": "27a7335d41a139116eab3cd568e453af", "type": "electric_scooter", "lon": -77.037147, "rental_uris": {"android": "https://dc.lft.to/lastmile_qr_scan", "ios": "https://dc.lft.to/lastmile_qr_scan"}, "lat": 38.91809766666667, "is_reserved": 0, "is_disabled": 0, "fusion_lat": 0.0}, {"fusion_lon": 0.0, "bike_id": "f75c15a5781b9a87dce29e61cd25ee13", "name": "f75c15a5781b9a87dce29e61cd25ee13", "type": "electric_scooter", "lon": -77.00859133333333, "rental_uris": {"android": "https://dc.lft.to/lastmile_qr_scan", "ios": "https://dc.lft.to/lastmile_qr_scan"}, "lat": 38.8765715, "is_reserved": 0, "is_disabled": 0, "fusion_lat": 0.0}, {"fusion_lon": 0.0, "bike_id": "e1bccb0597b0a92dfb12657cd821f288", "name": "e1bccb0597b0a92dfb12657cd821f288", "type": "electric_scooter", "lon": -77.08611916666666, "rental_uris": {"android": "https://dc.lft.to/lastmile_qr_scan", "ios": "https://dc.lft.to/lastmile_qr_scan"}, "lat": 38.95873383333333, "is_reserved": 0, "is_disabled": 0, "fusion_lat": 0.0}, {"fusion_lon": 0.0, "bike_id": "d7a4061d3c4b04a1943eef39c0404949", "name": "d7a4061d3c4b04a1943eef39c0404949", "type": "electric_scooter", "lon": -76.98657916666667, "rental_uris": {"android": "https://dc.lft.to/lastmile_qr_scan", "ios": "https://dc.lft.to/lastmile_qr_scan"}, "lat": 38.913119, "is_reserved": 0, "is_disabled": 0, "fusion_lat": 0.0}, {"fusion_lon": 0.0, "bike_id": "f825e8aa83b59211e902a50edd5c5293", "name": "f825e8aa83b59211e902a50edd5c5293", "type": "electric_scooter", "lon": -76.99897783333333, "rental_uris": {"android": "https://dc.lft.to/lastmile_qr_scan", "ios": "https://dc.lft.to/lastmile_qr_scan"}, "lat": 38.9565295, "is_reserved": 0, "is_disabled": 0, "fusion_lat": 0.0}, {"fusion_lon": 0.0, "bike_id": "c99b846cdac04a9dfd87fdf667ae6e6d", "name": "c99b846cdac04a9dfd87fdf667ae6e6d", "type": "electric_scooter", "lon": -76.99810216666667, "rental_uris": {"android": "https://dc.lft.to/lastmile_qr_scan", "ios": "https://dc.lft.to/lastmile_qr_scan"}, "lat": 38.8768745, "is_reserved": 0, "is_disabled": 0, "fusion_lat": 0.0}, {"fusion_lon": 0.0, "bike_id": "24e092a8f1cf244162b3b9b122b73aef", "name": "24e092a8f1cf244162b3b9b122b73aef", "type": "electric_scooter", "lon": -76.94899783333334, "rental_uris": {"android": "https://dc.lft.to/lastmile_qr_scan", "ios": "https://dc.lft.to/lastmile_qr_scan"}, "lat": 38.895332833333335, "is_reserved": 0, "is_disabled": 0, "fusion_lat": 0.0}, {"fusion_lon": 0.0, "bike_id": "d2cba0636fa05ce381efa03da69e60ba", "name": "d2cba0636fa05ce381efa03da69e60ba", "type": "electric_bike", "lon": -76.95999083333334, "rental_uris": {"android": "https://dc.lft.to/lastmile_qr_scan", "ios": "https://dc.lft.to/lastmile_qr_scan"}, "lat": 38.870088333333335, "is_reserved": 0, "is_disabled": 0, "fusion_lat": 0.0}, {"fusion_lon": 0.0, "bike_id": "ad625716402d4842a45b0b0e9aac0a5d", "name": "ad625716402d4842a45b0b0e9aac0a5d", "type": "electric_scooter", "lon": -77.03151766666667, "rental_uris": {"android": "https://dc.lft.to/lastmile_qr_scan", "ios": "https://dc.lft.to/lastmile_qr_scan"}, "lat": 38.88307116666667, "is_reserved": 0, "is_disabled": 0, "fusion_lat": 0.0}, {"fusion_lon": 0.0, "bike_id": "b973540ca7408a6c8909e56ed29c5474", "name": "b973540ca7408a6c8909e56ed29c5474", "type": "electric_scooter", "lon": -77.0229895, "rental_uris": {"android": "https://dc.lft.to/lastmile_qr_scan", "ios": "https://dc.lft.to/lastmile_qr_scan"}, "lat": 38.917179833333336, "is_reserved": 0, "is_disabled": 0, "fusion_lat": 0.0}, {"fusion_lon": 0.0, "bike_id": "bd77d82ae3482181659e07a5cf00c05c", "name": "bd77d82ae3482181659e07a5cf00c05c", "type": "electric_scooter", "lon": -77.04391366666667, "rental_uris": {"android": "https://dc.lft.to/lastmile_qr_scan", "ios": "https://dc.lft.to/lastmile_qr_scan"}, "lat": 38.91088116666667, "is_reserved": 0, "is_disabled": 0, "fusion_lat": 0.0}, {"fusion_lon": 0.0, "bike_id": "35bfe876a64087a820ac0b242d6f8799", "name": "35bfe876a64087a820ac0b242d6f8799", "type": "electric_scooter", "lon": -77.04896533333333, "rental_uris": {"android": "https://dc.lft.to/lastmile_qr_scan", "ios": "https://dc.lft.to/lastmile_qr_scan"}, "lat": 38.89232233333333, "is_reserved": 0, "is_disabled": 0, "fusion_lat": 0.0}, {"fusion_lon": 0.0, "bike_id": "e18c47eb46fa8fcd39a229e7836d779c", "name": "e18c47eb46fa8fcd39a229e7836d779c", "type": "electric_scooter", "lon": -77.04082616666666, "rental_uris": {"android": "https://dc.lft.to/lastmile_qr_scan", "ios": "https://dc.lft.to/lastmile_qr_scan"}, "lat": 38.9079625, "is_reserved": 0, "is_disabled": 0, "fusion_lat": 0.0}, {"fusion_lon": 0.0, "bike_id": "5f658d03fa78b2eac0d34d7b7657e07d", "name": "5f658d03fa78b2eac0d34d7b7657e07d", "type": "electric_bike", "lon": -76.96558733333333, "rental_uris": {"android": "https://dc.lft.to/lastmile_qr_scan", "ios": "https://dc.lft.to/lastmile_qr_scan"}, "lat": 38.950932, "is_reserved": 0, "is_disabled": 0, "fusion_lat": 0.0}, {"fusion_lon": 0.0, "bike_id": "c9ba7960819f3fb947035b9790906107", "name": "c9ba7960819f3fb947035b9790906107", "type": "electric_scooter", "lon": -77.03345166666666, "rental_uris": {"android": "https://dc.lft.to/lastmile_qr_scan", "ios": "https://dc.lft.to/lastmile_qr_scan"}, "lat": 38.900307, "is_reserved": 0, "is_disabled": 0, "fusion_lat": 0.0}, {"fusion_lon": 0.0, "bike_id": "9b5ad7c28aa36a20a822681cfa651d84", "name": "9b5ad7c28aa36a20a822681cfa651d84", "type": "electric_scooter", "lon": -77.07230966666667, "rental_uris": {"android": "https://dc.lft.to/lastmile_qr_scan", "ios": "https://dc.lft.to/lastmile_qr_scan"}, "lat": 38.934569333333336, "is_reserved": 0, "is_disabled": 0, "fusion_lat": 0.0}, {"fusion_lon": 0.0, "bike_id": "bfdff30d665152378d467929a52ed2d0", "name": "bfdff30d665152378d467929a52ed2d0", "type": "electric_scooter", "lon": -77.04597266666667, "rental_uris": {"android": "https://dc.lft.to/lastmile_qr_scan", "ios": "https://dc.lft.to/lastmile_qr_scan"}, "lat": 38.916949, "is_reserved": 0, "is_disabled": 0, "fusion_lat": 0.0}, {"fusion_lon": 0.0, "bike_id": "6915f36aa3b4d6ef524f41e95142a0b4", "name": "6915f36aa3b4d6ef524f41e95142a0b4", "type": "electric_scooter", "lon": -77.02786883333333, "rental_uris": {"android": "https://dc.lft.to/lastmile_qr_scan", "ios": "https://dc.lft.to/lastmile_qr_scan"}, "lat": 38.89224383333333, "is_reserved": 0, "is_disabled": 0, "fusion_lat": 0.0}, {"fusion_lon": 0.0, "bike_id": "49c7fbba7d8a14c99edcc1f3903dc0d1", "name": "49c7fbba7d8a14c99edcc1f3903dc0d1", "type": "electric_scooter", "lon": -77.04338983333334, "rental_uris": {"android": "https://dc.lft.to/lastmile_qr_scan", "ios": "https://dc.lft.to/lastmile_qr_scan"}, "lat": 38.922087833333336, "is_reserved": 0, "is_disabled": 0, "fusion_lat": 0.0}, {"fusion_lon": 0.0, "bike_id": "21650660cc8e66a46602f93437b8de2e", "name": "21650660cc8e66a46602f93437b8de2e", "type": "electric_scooter", "lon": -77.0201245, "rental_uris": {"android": "https://dc.lft.to/lastmile_qr_scan", "ios": "https://dc.lft.to/lastmile_qr_scan"}, "lat": 38.92428433333333, "is_reserved": 0, "is_disabled": 0, "fusion_lat": 0.0}, {"fusion_lon": 0.0, "bike_id": "6db54fe9d2eafaa9fa8e25e575d98734", "name": "6db54fe9d2eafaa9fa8e25e575d98734", "type": "electric_scooter", "lon": -76.98109666666667, "rental_uris": {"android": "https://dc.lft.to/lastmile_qr_scan", "ios": "https://dc.lft.to/lastmile_qr_scan"}, "lat": 38.90571766666667, "is_reserved": 0, "is_disabled": 0, "fusion_lat": 0.0}, {"fusion_lon": 0.0, "bike_id": "06405362687858113aa16868a85c0e15", "name": "06405362687858113aa16868a85c0e15", "type": "electric_scooter", "lon": -77.00331883333334, "rental_uris": {"android": "https://dc.lft.to/lastmile_qr_scan", "ios": "https://dc.lft.to/lastmile_qr_scan"}, "lat": 38.874996, "is_reserved": 0, "is_disabled": 0, "fusion_lat": 0.0}, {"fusion_lon": 0.0, "bike_id": "d71ab72789e5f2b1f8f57d06f15cffbd", "name": "d71ab72789e5f2b1f8f57d06f15cffbd", "type": "electric_scooter", "lon": -77.032022, "rental_uris": {"android": "https://dc.lft.to/lastmile_qr_scan", "ios": "https://dc.lft.to/lastmile_qr_scan"}, "lat": 38.91799616666667, "is_reserved": 0, "is_disabled": 0, "fusion_lat": 0.0}, {"fusion_lon": 0.0, "bike_id": "4b70ce0f838b03cdc5512da78ebf41d1", "name": "4b70ce0f838b03cdc5512da78ebf41d1", "type": "electric_scooter", "lon": -77.07691683333333, "rental_uris": {"android": "https://dc.lft.to/lastmile_qr_scan", "ios": "https://dc.lft.to/lastmile_qr_scan"}, "lat": 38.92170616666667, "is_reserved": 0, "is_disabled": 0, "fusion_lat": 0.0}, {"fusion_lon": 0.0, "bike_id": "0318c305588926c9d907ba7db4441b89", "name": "0318c305588926c9d907ba7db4441b89", "type": "electric_scooter", "lon": -77.03471083333334, "rental_uris": {"android": "https://dc.lft.to/lastmile_qr_scan", "ios": "https://dc.lft.to/lastmile_qr_scan"}, "lat": 38.918124666666664, "is_reserved": 0, "is_disabled": 0, "fusion_lat": 0.0}, {"fusion_lon": 0.0, "bike_id": "cdf788cbe5971bba769fd5500a332fb3", "name": "cdf788cbe5971bba769fd5500a332fb3", "type": "electric_scooter", "lon": -77.041495, "rental_uris": {"android": "https://dc.lft.to/lastmile_qr_scan", "ios": "https://dc.lft.to/lastmile_qr_scan"}, "lat": 38.91452066666667, "is_reserved": 0, "is_disabled": 0, "fusion_lat": 0.0}, {"fusion_lon": 0.0, "bike_id": "7b48dc50ec8411bb3410378938462e21", "name": "7b48dc50ec8411bb3410378938462e21", "type": "electric_scooter", "lon": -76.99207833333334, "rental_uris": {"android": "https://dc.lft.to/lastmile_qr_scan", "ios": "https://dc.lft.to/lastmile_qr_scan"}, "lat": 38.895193166666665, "is_reserved": 0, "is_disabled": 0, "fusion_lat": 0.0}, {"fusion_lon": 0.0, "bike_id": "e6544a7423ab264aac4a403a92fff005", "name": "e6544a7423ab264aac4a403a92fff005", "type": "electric_scooter", "lon": -77.06618416666667, "rental_uris": {"android": "https://dc.lft.to/lastmile_qr_scan", "ios": "https://dc.lft.to/lastmile_qr_scan"}, "lat": 38.90456666666667, "is_reserved": 0, "is_disabled": 0, "fusion_lat": 0.0}, {"fusion_lon": 0.0, "bike_id": "eb4f40f7ed537ce6b542437b3507f8fc", "name": "eb4f40f7ed537ce6b542437b3507f8fc", "type": "electric_scooter", "lon": -77.02097233333333, "rental_uris": {"android": "https://dc.lft.to/lastmile_qr_scan", "ios": "https://dc.lft.to/lastmile_qr_scan"}, "lat": 38.897451833333335, "is_reserved": 0, "is_disabled": 0, "fusion_lat": 0.0}, {"fusion_lon": 0.0, "bike_id": "d1e82038d547a8c9eef05f6a3e5f3154", "name": "d1e82038d547a8c9eef05f6a3e5f3154", "type": "electric_scooter", "lon": -77.03182983333333, "rental_uris": {"android": "https://dc.lft.to/lastmile_qr_scan", "ios": "https://dc.lft.to/lastmile_qr_scan"}, "lat": 38.913545666666664, "is_reserved": 0, "is_disabled": 0, "fusion_lat": 0.0}, {"fusion_lon": 0.0, "bike_id": "4d2a6cd851ebe5e1754a9caec0cf46ab", "name": "4d2a6cd851ebe5e1754a9caec0cf46ab", "type": "electric_scooter", "lon": -77.00539266666667, "rental_uris": {"android": "https://dc.lft.to/lastmile_qr_scan", "ios": "https://dc.lft.to/lastmile_qr_scan"}, "lat": 38.902450333333334, "is_reserved": 0, "is_disabled": 0, "fusion_lat": 0.0}, {"fusion_lon": 0.0, "bike_id": "2dd5898d6b2e664675ca25a988c4271d", "name": "2dd5898d6b2e664675ca25a988c4271d", "type": "electric_scooter", "lon": -77.013848, "rental_uris": {"android": "https://dc.lft.to/lastmile_qr_scan", "ios": "https://dc.lft.to/lastmile_qr_scan"}, "lat": 38.91013066666667, "is_reserved": 0, "is_disabled": 0, "fusion_lat": 0.0}, {"fusion_lon": 0.0, "bike_id": "0d0e942cee85d40298a9df0c0968dca2", "name": "0d0e942cee85d40298a9df0c0968dca2", "type": "electric_scooter", "lon": -77.02183033333333, "rental_uris": {"android": "https://dc.lft.to/lastmile_qr_scan", "ios": "https://dc.lft.to/lastmile_qr_scan"}, "lat": 38.879222666666664, "is_reserved": 0, "is_disabled": 0, "fusion_lat": 0.0}, {"fusion_lon": 0.0, "bike_id": "fa8ea52af3ede480c857f0ec8b5459db", "name": "fa8ea52af3ede480c857f0ec8b5459db", "type": "electric_scooter", "lon": -77.02156916666667, "rental_uris": {"android": "https://dc.lft.to/lastmile_qr_scan", "ios": "https://dc.lft.to/lastmile_qr_scan"}, "lat": 38.926057, "is_reserved": 0, "is_disabled": 0, "fusion_lat": 0.0}, {"fusion_lon": 0.0, "bike_id": "c18a85956969622e034c3a977fc44a27", "name": "c18a85956969622e034c3a977fc44a27", "type": "electric_scooter", "lon": -77.01553316666667, "rental_uris": {"android": "https://dc.lft.to/lastmile_qr_scan", "ios": "https://dc.lft.to/lastmile_qr_scan"}, "lat": 38.91371733333333, "is_reserved": 0, "is_disabled": 0, "fusion_lat": 0.0}, {"fusion_lon": 0.0, "bike_id": "49ac31a0273c89ae780ccbe303b1d3ba", "name": "49ac31a0273c89ae780ccbe303b1d3ba", "type": "electric_scooter", "lon": -77.02900966666667, "rental_uris": {"android": "https://dc.lft.to/lastmile_qr_scan", "ios": "https://dc.lft.to/lastmile_qr_scan"}, "lat": 38.90459033333333, "is_reserved": 0, "is_disabled": 0, "fusion_lat": 0.0}, {"fusion_lon": 0.0, "bike_id": "693249dad34bd59cfe20418030db5078", "name": "693249dad34bd59cfe20418030db5078", "type": "electric_scooter", "lon": -77.0469995, "rental_uris": {"android": "https://dc.lft.to/lastmile_qr_scan", "ios": "https://dc.lft.to/lastmile_qr_scan"}, "lat": 38.91680983333333, "is_reserved": 0, "is_disabled": 0, "fusion_lat": 0.0}, {"fusion_lon": 0.0, "bike_id": "39fe10f57dcce01a4de246eadbed1710", "name": "39fe10f57dcce01a4de246eadbed1710", "type": "electric_scooter", "lon": -77.03517133333334, "rental_uris": {"android": "https://dc.lft.to/lastmile_qr_scan", "ios": "https://dc.lft.to/lastmile_qr_scan"}, "lat": 38.91838416666667, "is_reserved": 0, "is_disabled": 0, "fusion_lat": 0.0}, {"fusion_lon": 0.0, "bike_id": "24a2a63f9778d0fc9a264c543e12a68c", "name": "24a2a63f9778d0fc9a264c543e12a68c", "type": "electric_scooter", "lon": -77.05074966666666, "rental_uris": {"android": "https://dc.lft.to/lastmile_qr_scan", "ios": "https://dc.lft.to/lastmile_qr_scan"}, "lat": 38.905109333333336, "is_reserved": 0, "is_disabled": 0, "fusion_lat": 0.0}, {"fusion_lon": 0.0, "bike_id": "3c134854b3a9987a018d9c2e68aa2a64", "name": "3c134854b3a9987a018d9c2e68aa2a64", "type": "electric_scooter", "lon": -77.06042733333334, "rental_uris": {"android": "https://dc.lft.to/lastmile_qr_scan", "ios": "https://dc.lft.to/lastmile_qr_scan"}, "lat": 38.9391685, "is_reserved": 0, "is_disabled": 0, "fusion_lat": 0.0}, {"fusion_lon": 0.0, "bike_id": "eca04511c70eb54308c6cd4cabfb6cb8", "name": "eca04511c70eb54308c6cd4cabfb6cb8", "type": "electric_scooter", "lon": -77.03934916666667, "rental_uris": {"android": "https://dc.lft.to/lastmile_qr_scan", "ios": "https://dc.lft.to/lastmile_qr_scan"}, "lat": 38.90959383333333, "is_reserved": 0, "is_disabled": 0, "fusion_lat": 0.0}, {"fusion_lon": 0.0, "bike_id": "380cdc55af2fde38be8cb97ce3866ffd", "name": "380cdc55af2fde38be8cb97ce3866ffd", "type": "electric_scooter", "lon": -77.0272515, "rental_uris": {"android": "https://dc.lft.to/lastmile_qr_scan", "ios": "https://dc.lft.to/lastmile_qr_scan"}, "lat": 38.94090416666667, "is_reserved": 0, "is_disabled": 0, "fusion_lat": 0.0}, {"fusion_lon": 0.0, "bike_id": "0d795bdd808c74489ec98efe8388a9cc", "name": "0d795bdd808c74489ec98efe8388a9cc", "type": "electric_bike", "lon": -77.12895516666667, "rental_uris": {"android": "https://dc.lft.to/lastmile_qr_scan", "ios": "https://dc.lft.to/lastmile_qr_scan"}, "lat": 38.86380033333333, "is_reserved": 0, "is_disabled": 0, "fusion_lat": 0.0}, {"fusion_lon": 0.0, "bike_id": "fea1875f6df51c58a8c0f8a7a3ccf8f5", "name": "fea1875f6df51c58a8c0f8a7a3ccf8f5", "type": "electric_scooter", "lon": -77.0477155, "rental_uris": {"android": "https://dc.lft.to/lastmile_qr_scan", "ios": "https://dc.lft.to/lastmile_qr_scan"}, "lat": 38.9022605, "is_reserved": 0, "is_disabled": 0, "fusion_lat": 0.0}, {"fusion_lon": 0.0, "bike_id": "0fb1fd9b212faccce7d2b3b2e990399f", "name": "0fb1fd9b212faccce7d2b3b2e990399f", "type": "electric_scooter", "lon": -77.074294, "rental_uris": {"android": "https://dc.lft.to/lastmile_qr_scan", "ios": "https://dc.lft.to/lastmile_qr_scan"}, "lat": 38.91095383333333, "is_reserved": 0, "is_disabled": 0, "fusion_lat": 0.0}, {"fusion_lon": 0.0, "bike_id": "f57e64a3daa7bb5b251c4cfd149bfbcb", "name": "f57e64a3daa7bb5b251c4cfd149bfbcb", "type": "electric_scooter", "lon": -77.00915683333334, "rental_uris": {"android": "https://dc.lft.to/lastmile_qr_scan", "ios": "https://dc.lft.to/lastmile_qr_scan"}, "lat": 38.959526833333335, "is_reserved": 0, "is_disabled": 0, "fusion_lat": 0.0}, {"fusion_lon": 0.0, "bike_id": "5ef87347eafbd43cae97b730c261ec1d", "name": "5ef87347eafbd43cae97b730c261ec1d", "type": "electric_scooter", "lon": -77.0308145, "rental_uris": {"android": "https://dc.lft.to/lastmile_qr_scan", "ios": "https://dc.lft.to/lastmile_qr_scan"}, "lat": 38.9170345, "is_reserved": 0, "is_disabled": 0, "fusion_lat": 0.0}, {"fusion_lon": 0.0, "bike_id": "a537e09a341bea78c1740208428d220b", "name": "a537e09a341bea78c1740208428d220b", "type": "electric_scooter", "lon": -76.99955933333334, "rental_uris": {"android": "https://dc.lft.to/lastmile_qr_scan", "ios": "https://dc.lft.to/lastmile_qr_scan"}, "lat": 38.903864666666664, "is_reserved": 0, "is_disabled": 0, "fusion_lat": 0.0}, {"fusion_lon": 0.0, "bike_id": "f86ab4c90be3d62bc8c57f23a97bb1da", "name": "f86ab4c90be3d62bc8c57f23a97bb1da", "type": "electric_scooter", "lon": -76.9657475, "rental_uris": {"android": "https://dc.lft.to/lastmile_qr_scan", "ios": "https://dc.lft.to/lastmile_qr_scan"}, "lat": 38.871401166666665, "is_reserved": 0, "is_disabled": 0, "fusion_lat": 0.0}, {"fusion_lon": 0.0, "bike_id": "72faf8f8009325087631b9d1e61dc93a", "name": "72faf8f8009325087631b9d1e61dc93a", "type": "electric_scooter", "lon": -77.01146116666666, "rental_uris": {"android": "https://dc.lft.to/lastmile_qr_scan", "ios": "https://dc.lft.to/lastmile_qr_scan"}, "lat": 38.89616, "is_reserved": 0, "is_disabled": 0, "fusion_lat": 0.0}, {"fusion_lon": 0.0, "bike_id": "6a47dd83e2cfb927466f6b9836644b43", "name": "6a47dd83e2cfb927466f6b9836644b43", "type": "electric_scooter", "lon": -76.99628933333334, "rental_uris": {"android": "https://dc.lft.to/lastmile_qr_scan", "ios": "https://dc.lft.to/lastmile_qr_scan"}, "lat": 38.846257, "is_reserved": 0, "is_disabled": 0, "fusion_lat": 0.0}, {"fusion_lon": 0.0, "bike_id": "5b4f5ce7cbe4d8fbb48f212e1c7a5ac1", "name": "5b4f5ce7cbe4d8fbb48f212e1c7a5ac1", "type": "electric_scooter", "lon": -77.02364683333333, "rental_uris": {"android": "https://dc.lft.to/lastmile_qr_scan", "ios": "https://dc.lft.to/lastmile_qr_scan"}, "lat": 38.91972616666666, "is_reserved": 0, "is_disabled": 0, "fusion_lat": 0.0}, {"fusion_lon": 0.0, "bike_id": "58bbb131fd791e03061b25460322ab3b", "name": "58bbb131fd791e03061b25460322ab3b", "type": "electric_scooter", "lon": -76.957546, "rental_uris": {"android": "https://dc.lft.to/lastmile_qr_scan", "ios": "https://dc.lft.to/lastmile_qr_scan"}, "lat": 38.884394666666665, "is_reserved": 0, "is_disabled": 0, "fusion_lat": 0.0}, {"fusion_lon": 0.0, "bike_id": "1e43790fe305da2e1e6b93090a885b36", "name": "1e43790fe305da2e1e6b93090a885b36", "type": "electric_scooter", "lon": -77.042234, "rental_uris": {"android": "https://dc.lft.to/lastmile_qr_scan", "ios": "https://dc.lft.to/lastmile_qr_scan"}, "lat": 38.9206585, "is_reserved": 0, "is_disabled": 0, "fusion_lat": 0.0}, {"fusion_lon": 0.0, "bike_id": "dab6673348ff465029344b14fd680d73", "name": "dab6673348ff465029344b14fd680d73", "type": "electric_scooter", "lon": -77.02492966666667, "rental_uris": {"android": "https://dc.lft.to/lastmile_qr_scan", "ios": "https://dc.lft.to/lastmile_qr_scan"}, "lat": 38.9418315, "is_reserved": 0, "is_disabled": 0, "fusion_lat": 0.0}, {"fusion_lon": 0.0, "bike_id": "41486e70f3c09bd7c5a09911e0fbe22d", "name": "41486e70f3c09bd7c5a09911e0fbe22d", "type": "electric_bike", "lon": -77.024897, "rental_uris": {"android": "https://dc.lft.to/lastmile_qr_scan", "ios": "https://dc.lft.to/lastmile_qr_scan"}, "lat": 38.9737045, "is_reserved": 0, "is_disabled": 0, "fusion_lat": 0.0}, {"fusion_lon": 0.0, "bike_id": "da6bcbbf4686ddc01e4707664253a4a4", "name": "da6bcbbf4686ddc01e4707664253a4a4", "type": "electric_scooter", "lon": -76.9901775, "rental_uris": {"android": "https://dc.lft.to/lastmile_qr_scan", "ios": "https://dc.lft.to/lastmile_qr_scan"}, "lat": 38.86110583333333, "is_reserved": 0, "is_disabled": 0, "fusion_lat": 0.0}, {"fusion_lon": 0.0, "bike_id": "b16e348253e2db6f308bb465a2cc738c", "name": "b16e348253e2db6f308bb465a2cc738c", "type": "electric_scooter", "lon": -77.04510233333333, "rental_uris": {"android": "https://dc.lft.to/lastmile_qr_scan", "ios": "https://dc.lft.to/lastmile_qr_scan"}, "lat": 38.90784033333333, "is_reserved": 0, "is_disabled": 0, "fusion_lat": 0.0}, {"fusion_lon": 0.0, "bike_id": "d637734323ab8fb7eb2d0ae95f076a56", "name": "d637734323ab8fb7eb2d0ae95f076a56", "type": "electric_scooter", "lon": -76.99390316666667, "rental_uris": {"android": "https://dc.lft.to/lastmile_qr_scan", "ios": "https://dc.lft.to/lastmile_qr_scan"}, "lat": 38.884521166666666, "is_reserved": 0, "is_disabled": 0, "fusion_lat": 0.0}, {"fusion_lon": 0.0, "bike_id": "672814026a08905f9135759d02e0aefd", "name": "672814026a08905f9135759d02e0aefd", "type": "electric_scooter", "lon": -77.070908, "rental_uris": {"android": "https://dc.lft.to/lastmile_qr_scan", "ios": "https://dc.lft.to/lastmile_qr_scan"}, "lat": 38.9198215, "is_reserved": 0, "is_disabled": 0, "fusion_lat": 0.0}, {"fusion_lon": 0.0, "bike_id": "a37cdb6357363ace1e36b458826dc526", "name": "a37cdb6357363ace1e36b458826dc526", "type": "electric_scooter", "lon": -77.038779, "rental_uris": {"android": "https://dc.lft.to/lastmile_qr_scan", "ios": "https://dc.lft.to/lastmile_qr_scan"}, "lat": 38.934320666666665, "is_reserved": 0, "is_disabled": 0, "fusion_lat": 0.0}, {"fusion_lon": 0.0, "bike_id": "bd0cf095afb175386de7c06823039d0b", "name": "bd0cf095afb175386de7c06823039d0b", "type": "electric_bike", "lon": -77.05108483333333, "rental_uris": {"android": "https://dc.lft.to/lastmile_qr_scan", "ios": "https://dc.lft.to/lastmile_qr_scan"}, "lat": 38.9456775, "is_reserved": 0, "is_disabled": 0, "fusion_lat": 0.0}, {"fusion_lon": 0.0, "bike_id": "a63009ad93b911472e31ccdfb20a7f86", "name": "a63009ad93b911472e31ccdfb20a7f86", "type": "electric_bike", "lon": -77.00008716666666, "rental_uris": {"android": "https://dc.lft.to/lastmile_qr_scan", "ios": "https://dc.lft.to/lastmile_qr_scan"}, "lat": 38.92395483333333, "is_reserved": 0, "is_disabled": 0, "fusion_lat": 0.0}, {"fusion_lon": 0.0, "bike_id": "1d881867510213c7b320b7f0dfd0109b", "name": "1d881867510213c7b320b7f0dfd0109b", "type": "electric_scooter", "lon": -77.03931583333333, "rental_uris": {"android": "https://dc.lft.to/lastmile_qr_scan", "ios": "https://dc.lft.to/lastmile_qr_scan"}, "lat": 38.92492983333333, "is_reserved": 0, "is_disabled": 0, "fusion_lat": 0.0}, {"fusion_lon": 0.0, "bike_id": "4d84ef5b4a8da368fe977fe6df188b87", "name": "4d84ef5b4a8da368fe977fe6df188b87", "type": "electric_scooter", "lon": -77.0636155, "rental_uris": {"android": "https://dc.lft.to/lastmile_qr_scan", "ios": "https://dc.lft.to/lastmile_qr_scan"}, "lat": 38.944203333333334, "is_reserved": 0, "is_disabled": 0, "fusion_lat": 0.0}, {"fusion_lon": 0.0, "bike_id": "748ebd2ccf1fbf204833028b67d22278", "name": "748ebd2ccf1fbf204833028b67d22278", "type": "electric_scooter", "lon": -77.03217133333334, "rental_uris": {"android": "https://dc.lft.to/lastmile_qr_scan", "ios": "https://dc.lft.to/lastmile_qr_scan"}, "lat": 38.91259633333333, "is_reserved": 0, "is_disabled": 0, "fusion_lat": 0.0}, {"fusion_lon": 0.0, "bike_id": "bb66236481190fc8a872a7744dad3284", "name": "bb66236481190fc8a872a7744dad3284", "type": "electric_bike", "lon": -77.0541355, "rental_uris": {"android": "https://dc.lft.to/lastmile_qr_scan", "ios": "https://dc.lft.to/lastmile_qr_scan"}, "lat": 38.84887766666667, "is_reserved": 0, "is_disabled": 0, "fusion_lat": 0.0}, {"fusion_lon": 0.0, "bike_id": "093841e66c748cab285158e29dc4c637", "name": "093841e66c748cab285158e29dc4c637", "type": "electric_bike", "lon": -77.1072365, "rental_uris": {"android": "https://dc.lft.to/lastmile_qr_scan", "ios": "https://dc.lft.to/lastmile_qr_scan"}, "lat": 38.855386833333334, "is_reserved": 0, "is_disabled": 0, "fusion_lat": 0.0}, {"fusion_lon": 0.0, "bike_id": "ae358eddbebef49a243a5581aba156c9", "name": "ae358eddbebef49a243a5581aba156c9", "type": "electric_scooter", "lon": -77.04450233333333, "rental_uris": {"android": "https://dc.lft.to/lastmile_qr_scan", "ios": "https://dc.lft.to/lastmile_qr_scan"}, "lat": 38.90992416666667, "is_reserved": 0, "is_disabled": 0, "fusion_lat": 0.0}, {"fusion_lon": 0.0, "bike_id": "ae4da44921b8fe8f3ce36164ec0411f9", "name": "ae4da44921b8fe8f3ce36164ec0411f9", "type": "electric_scooter", "lon": -77.02779833333334, "rental_uris": {"android": "https://dc.lft.to/lastmile_qr_scan", "ios": "https://dc.lft.to/lastmile_qr_scan"}, "lat": 38.892245, "is_reserved": 0, "is_disabled": 0, "fusion_lat": 0.0}, {"fusion_lon": 0.0, "bike_id": "1a153af7328fa658285f9b5bfc678fa3", "name": "1a153af7328fa658285f9b5bfc678fa3", "type": "electric_scooter", "lon": -77.04148983333333, "rental_uris": {"android": "https://dc.lft.to/lastmile_qr_scan", "ios": "https://dc.lft.to/lastmile_qr_scan"}, "lat": 38.915646833333334, "is_reserved": 0, "is_disabled": 0, "fusion_lat": 0.0},