{"data": {"bikes": [{"name": "0e5fd31c6826713a86b970a5dd6977c6", "fusion_lon": 0.0, "lat": 38.920475333333336, "is_reserved": 0, "type": "electric_scooter", "bike_id": "0e5fd31c6826713a86b970a5dd6977c6", "is_disabled": 0, "rental_uris": {"android": "https://dc.lft.to/lastmile_qr_scan", "ios": "https://dc.lft.to/lastmile_qr_scan"}, "lon": -76.9893875, "fusion_lat": 0.0}, {"name": "12ca5025c651ab15bdca98613da15b05", "fusion_lon": 0.0, "lat": 38.92145583333333, "is_reserved": 0, "type": "electric_scooter", "bike_id": "12ca5025c651ab15bdca98613da15b05", "is_disabled": 0, "rental_uris": {"android": "https://dc.lft.to/lastmile_qr_scan", "ios": "https://dc.lft.to/lastmile_qr_scan"}, "lon": -77.04342216666667, "fusion_lat": 0.0}, {"name": "b4cfc0c55fc24381faccae0e134e8668", "fusion_lon": 0.0, "lat": 38.9181565, "is_reserved": 0, "type": "electric_scooter", "bike_id": "b4cfc0c55fc24381faccae0e134e8668", "is_disabled": 0, "rental_uris": {"android": "https://dc.lft.to/lastmile_qr_scan", "ios": "https://dc.lft.to/lastmile_qr_scan"}, "lon": -77.04002183333333, "fusion_lat": 0.0}, {"name": "38e9e813d6218020cbe114bfac8d9c61", "fusion_lon": 0.0, "lat": 38.829496, "is_reserved": 0, "type": "electric_bike", "bike_id": "38e9e813d6218020cbe114bfac8d9c61", "is_disabled": 0, "rental_uris": {"android": "https://dc.lft.to/lastmile_qr_scan", "ios": "https://dc.lft.to/lastmile_qr_scan"}, "lon": -77.12357333333334, "fusion_lat": 0.0}, {"name": "1490ab3adcf875baf13710ca397ea3c8", "fusion_lon": 0.0, "lat": 38.912061, "is_reserved": 0, "type": "electric_scooter", "bike_id": "1490ab3adcf875baf13710ca397ea3c8", "is_disabled": 0, "rental_uris": {"android": "https://dc.lft.to/lastmile_qr_scan", "ios": "https://dc.lft.to/lastmile_qr_scan"}, "lon": -77.03832983333334, "fusion_lat": 0.0}, {"name": "3c70718e25448819fff425642286eded", "fusion_lon": 0.0, "lat": 38.90769783333333, "is_reserved": 0, "type": "electric_scooter", "bike_id": "3c70718e25448819fff425642286eded", "is_disabled": 0, "rental_uris": {"android": "https://dc.lft.to/lastmile_qr_scan", "ios": "https://dc.lft.to/lastmile_qr_scan"}, "lon": -77.01207116666667, "fusion_lat": 0.0}, {"name": "4e5b4d193fc017d5c66a9a88de0a6c08", "fusion_lon": 0.0, "lat": 38.90816016666667, "is_reserved": 0, "type": "electric_scooter", "bike_id": "4e5b4d193fc017d5c66a9a88de0a6c08", "is_disabled": 0, "rental_uris": {"android": "https://dc.lft.to/lastmile_qr_scan", "ios": "https://dc.lft.to/lastmile_qr_scan"}, "lon": -77.0842425, "fusion_lat": 0.0}, {"name": "7ac31a7664288e0d701ad198f7cee7fd", "fusion_lon": 0.0, "lat": 38.9056625, "is_reserved": 0, "type": "electric_scooter", "bike_id": "7ac31a7664288e0d701ad198f7cee7fd", "is_disabled": 0, "rental_uris": {"android": "https://dc.lft.to/lastmile_qr_scan", "ios": "https://dc.lft.to/lastmile_qr_scan"}, "lon": -77.04335933333333, "fusion_lat": 0.0}, {"name": "bb9fe98a433de86ffe5df6d1aa99a8f7", "fusion_lon": 0.0, "lat": 38.92692516666666, "is_reserved": 0, "type": "electric_scooter", "bike_id": "bb9fe98a433de86ffe5df6d1aa99a8f7", "is_disabled": 0, "rental_uris": {"android": "https://dc.lft.to/lastmile_qr_scan", "ios": "https://dc.lft.to/lastmile_qr_scan"}, "lon": -77.02131633333333, "fusion_lat": 0.0}, {"name": "dc6da7dac312c2ae0fd4e64998776c23", "fusion_lon": 0.0, "lat": 38.903482833333335, "is_reserved": 0, "type": "electric_scooter", "bike_id": "dc6da7dac312c2ae0fd4e64998776c23", "is_disabled": 0, "rental_uris": {"android": "https://dc.lft.to/lastmile_qr_scan", "ios": "https://dc.lft.to/lastmile_qr_scan"}, "lon": -77.03975333333334, "fusion_lat": 0.0}, {"name": "089d837aaa0891fa5387a907482635cf", "fusion_lon": 0.0, "lat": 38.85919916666667, "is_reserved": 0, "type": "electric_scooter", "bike_id": "089d837aaa0891fa5387a907482635cf", "is_disabled": 0, "rental_uris": {"android": "https://dc.lft.to/lastmile_qr_scan", "ios": "https://dc.lft.to/lastmile_qr_scan"}, "lon": -76.9897135, "fusion_lat": 0.0}, {"name": "644dd3143e1366049bbb5f7f90565f25", "fusion_lon": 0.0, "lat": 38.91818933333333, "is_reserved": 0, "type": "electric_scooter", "bike_id": "644dd3143e1366049bbb5f7f90565f25", "is_disabled": 0, "rental_uris": {"android": "https://dc.lft.to/lastmile_qr_scan", "ios": "https://dc.lft.to/lastmile_qr_scan"}, "lon": -77.03660483333333, "fusion_lat": 0.0}, {"name": "777da054a56c14047544059e4268077d", "fusion_lon": 0.0, "lat": 38.9584975, "is_reserved": 0, "type": "electric_scooter", "bike_id": "777da054a56c14047544059e4268077d", "is_disabled": 0, "rental_uris": {"android": "https://dc.lft.to/lastmile_qr_scan", "ios": "https://dc.lft.to/lastmile_qr_scan"}, "lon": -77.02741483333334, "fusion_lat": 0.0}, {"name": "8e07bd96675060228b2e1ee6b52faff7", "fusion_lon": 0.0, "lat": 38.82366866666667, "is_reserved": 0, "type": "electric_bike", "bike_id": "8e07bd96675060228b2e1ee6b52faff7", "is_disabled": 0, "rental_uris": {"android": "https://dc.lft.to/lastmile_qr_scan", "ios": "https://dc.lft.to/lastmile_qr_scan"}, "lon": -77.00214683333333, "fusion_lat": 0.0}, {"name": "cabe806f1521fc5dd5410d773e9683be", "fusion_lon": 0.0, "lat": 38.918751, "is_reserved": 0, "type": "electric_scooter", "bike_id": "cabe806f1521fc5dd5410d773e9683be", "is_disabled": 0, "rental_uris": {"android": "https://dc.lft.to/lastmile_qr_scan", "ios": "https://dc.lft.to/lastmile_qr_scan"}, "lon": -77.043836, "fusion_lat": 0.0}, {"name": "0188c8589bfafc3ed87fe25d612eee4d", "fusion_lon": 0.0, "lat": 38.922269666666665, "is_reserved": 0, "type": "electric_scooter", "bike_id": "0188c8589bfafc3ed87fe25d612eee4d", "is_disabled": 0, "rental_uris": {"android": "https://dc.lft.to/lastmile_qr_scan", "ios": "https://dc.lft.to/lastmile_qr_scan"}, "lon": -77.04701066666667, "fusion_lat": 0.0}, {"name": "12ab1db775ad57707a177dab9e524430", "fusion_lon": 0.0, "lat": 38.88607283333333, "is_reserved": 0, "type": "electric_scooter", "bike_id": "12ab1db775ad57707a177dab9e524430", "is_disabled": 0, "rental_uris": {"android": "https://dc.lft.to/lastmile_qr_scan", "ios": "https://dc.lft.to/lastmile_qr_scan"}, "lon": -77.001336, "fusion_lat": 0.0}, {"name": "77dd1579a176db768920f9b23fc59663", "fusion_lon": 0.0, "lat": 38.9498825, "is_reserved": 0, "type": "electric_scooter", "bike_id": "77dd1579a176db768920f9b23fc59663", "is_disabled": 0, "rental_uris": {"android": "https://dc.lft.to/lastmile_qr_scan", "ios": "https://dc.lft.to/lastmile_qr_scan"}, "lon": -77.0265205, "fusion_lat": 0.0}, {"name": "6adf4080b05af0a733c0c887baf3c2c1", "fusion_lon": 0.0, "lat": 38.917148833333336, "is_reserved": 0, "type": "electric_scooter", "bike_id": "6adf4080b05af0a733c0c887baf3c2c1", "is_disabled": 0, "rental_uris": {"android": "https://dc.lft.to/lastmile_qr_scan", "ios": "https://dc.lft.to/lastmile_qr_scan"}, "lon": -77.03850866666667, "fusion_lat": 0.0}, {"name": "4f85ce167bc302d9bdada5e4934565d2", "fusion_lon": 0.0, "lat": 38.90001683333333, "is_reserved": 0, "type": "electric_scooter", "bike_id": "4f85ce167bc302d9bdada5e4934565d2", "is_disabled": 0, "rental_uris": {"android": "https://dc.lft.to/lastmile_qr_scan", "ios": "https://dc.lft.to/lastmile_qr_scan"}, "lon": -76.99613016666666, "fusion_lat": 0.0}, {"name": "d83609f2053114605e80ecb54fea6890", "fusion_lon": 0.0, "lat": 38.9086225, "is_reserved": 0, "type": "electric_scooter", "bike_id": "d83609f2053114605e80ecb54fea6890", "is_disabled": 0, "rental_uris": {"android": "https://dc.lft.to/lastmile_qr_scan", "ios": "https://dc.lft.to/lastmile_qr_scan"}, "lon": -77.02409766666666, "fusion_lat": 0.0}, {"name": "4eb22aa67ebb5a1b2eff829c8cfaa166", "fusion_lon": 0.0, "lat": 38.90659616666667, "is_reserved": 0, "type": "electric_scooter", "bike_id": "4eb22aa67ebb5a1b2eff829c8cfaa166", "is_disabled": 0, "rental_uris": {"android": "https://dc.lft.to/lastmile_qr_scan", "ios": "https://dc.lft.to/lastmile_qr_scan"}, "lon": -77.07125533333334, "fusion_lat": 0.0}, {"name": "640a8723c1bdbe042eb4f81e7d70b53c", "fusion_lon": 0.0, "lat": 38.892214333333335, "is_reserved": 0, "type": "electric_scooter", "bike_id": "640a8723c1bdbe042eb4f81e7d70b53c", "is_disabled": 0, "rental_uris": {"android": "https://dc.lft.to/lastmile_qr_scan", "ios": "https://dc.lft.to/lastmile_qr_scan"}, "lon": -77.04686966666667, "fusion_lat": 0.0}, {"name": "83e76c649893babd33b5bc9ff7bdced8", "fusion_lon": 0.0, "lat": 38.91981216666667, "is_reserved": 0, "type": "electric_scooter", "bike_id": "83e76c649893babd33b5bc9ff7bdced8", "is_disabled": 0, "rental_uris": {"android": "https://dc.lft.to/lastmile_qr_scan", "ios": "https://dc.lft.to/lastmile_qr_scan"}, "lon": -77.04173166666666, "fusion_lat": 0.0}, {"name": "58449c6b1f2a712bb909a699eb3b7cdc", "fusion_lon": 0.0, "lat": 38.922124, "is_reserved": 0, "type": "electric_scooter", "bike_id": "58449c6b1f2a712bb909a699eb3b7cdc", "is_disabled": 0, "rental_uris": {"android": "https://dc.lft.to/lastmile_qr_scan", "ios": "https://dc.lft.to/lastmile_qr_scan"}, "lon": -77.03652433333333, "fusion_lat": 0.0}, {"name": "a9287b8bc4378eabb283f10bb8090469", "fusion_lon": 0.0, "lat": 38.912586166666664, "is_reserved": 0, "type": "electric_scooter", "bike_id": "a9287b8bc4378eabb283f10bb8090469", "is_disabled": 0, "rental_uris": {"android": "https://dc.lft.to/lastmile_qr_scan", "ios": "https://dc.lft.to/lastmile_qr_scan"}, "lon": -77.03798583333334, "fusion_lat": 0.0}, {"name": "3f23cc243dfc3a43506eb750f21edcfc", "fusion_lon": 0.0, "lat": 38.91544866666667, "is_reserved": 0, "type": "electric_scooter", "bike_id": "3f23cc243dfc3a43506eb750f21edcfc", "is_disabled": 0, "rental_uris": {"android": "https://dc.lft.to/lastmile_qr_scan", "ios": "https://dc.lft.to/lastmile_qr_scan"}, "lon": -76.9700875, "fusion_lat": 0.0}, {"name": "9b7a193ffdc7ce32dfda1d901edbb64c", "fusion_lon": 0.0, "lat": 38.91010583333333, "is_reserved": 0, "type": "electric_scooter", "bike_id": "9b7a193ffdc7ce32dfda1d901edbb64c", "is_disabled": 0, "rental_uris": {"android": "https://dc.lft.to/lastmile_qr_scan", "ios": "https://dc.lft.to/lastmile_qr_scan"}, "lon": -77.009072, "fusion_lat": 0.0}, {"name": "8cb0d049b479642036d663d14fc1143e", "fusion_lon": 0.0, "lat": 38.921725, "is_reserved": 0, "type": "electric_scooter", "bike_id": "8cb0d049b479642036d663d14fc1143e", "is_disabled": 0, "rental_uris": {"android": "https://dc.lft.to/lastmile_qr_scan", "ios": "https://dc.lft.to/lastmile_qr_scan"}, "lon": -77.032565, "fusion_lat": 0.0}, {"name": "55eef563f2268e29b29fe946a5604b0e", "fusion_lon": 0.0, "lat": 38.905047, "is_reserved": 0, "type": "electric_bike", "bike_id": "55eef563f2268e29b29fe946a5604b0e", "is_disabled": 0, "rental_uris": {"android": "https://dc.lft.to/lastmile_qr_scan", "ios": "https://dc.lft.to/lastmile_qr_scan"}, "lon": -77.0601035, "fusion_lat": 0.0}, {"name": "60f01be63bddbca13ca5d3b118425180", "fusion_lon": 0.0, "lat": 38.90014766666667, "is_reserved": 0, "type": "electric_scooter", "bike_id": "60f01be63bddbca13ca5d3b118425180", "is_disabled": 0, "rental_uris": {"android": "https://dc.lft.to/lastmile_qr_scan", "ios": "https://dc.lft.to/lastmile_qr_scan"}, "lon": -76.99731266666667, "fusion_lat": 0.0}, {"name": "a3daff4ce816a23c70b83e5af4f84386", "fusion_lon": 0.0, "lat": 38.8935795, "is_reserved": 0, "type": "electric_scooter", "bike_id": "a3daff4ce816a23c70b83e5af4f84386", "is_disabled": 0, "rental_uris": {"android": "https://dc.lft.to/lastmile_qr_scan", "ios": "https://dc.lft.to/lastmile_qr_scan"}, "lon": -76.94935, "fusion_lat": 0.0}, {"name": "2000c03ba7385b2bcd31ef677e28e8e2", "fusion_lon": 0.0, "lat": 38.9088355, "is_reserved": 0, "type": "electric_scooter", "bike_id": "2000c03ba7385b2bcd31ef677e28e8e2", "is_disabled": 0, "rental_uris": {"android": "https://dc.lft.to/lastmile_qr_scan", "ios": "https://dc.lft.to/lastmile_qr_scan"}, "lon": -77.03815016666667, "fusion_lat": 0.0}, {"name": "b34652ab7af9d3cc5d018b55593e71e0", "fusion_lon": 0.0, "lat": 38.86057516666666, "is_reserved": 0, "type": "electric_scooter", "bike_id": "b34652ab7af9d3cc5d018b55593e71e0", "is_disabled": 0, "rental_uris": {"android": "https://dc.lft.to/lastmile_qr_scan", "ios": "https://dc.lft.to/lastmile_qr_scan"}, "lon": -76.98503833333334, "fusion_lat": 0.0}, {"name": "6ea2e3d52e87607cbb3c4c6350870e94", "fusion_lon": 0.0, "lat": 38.823775833333336, "is_reserved": 0, "type": "electric_bike", "bike_id": "6ea2e3d52e87607cbb3c4c6350870e94", "is_disabled": 0, "rental_uris": {"android": "https://dc.lft.to/lastmile_qr_scan", "ios": "https://dc.lft.to/lastmile_qr_scan"}, "lon": -77.00222483333333, "fusion_lat": 0.0}, {"name": "811ef11734d65f2f2b7d649936f5e220", "fusion_lon": 0.0, "lat": 39.0429875, "is_reserved": 0, "type": "electric_bike", "bike_id": "811ef11734d65f2f2b7d649936f5e220", "is_disabled": 0, "rental_uris": {"android": "https://dc.lft.to/lastmile_qr_scan", "ios": "https://dc.lft.to/lastmile_qr_scan"}, "lon": -77.05154383333333, "fusion_lat": 0.0}, {"name": "bd68723b42479850894a7d9ac8ebbe83", "fusion_lon": 0.0, "lat": 38.9023115, "is_reserved": 0, "type": "electric_scooter", "bike_id": "bd68723b42479850894a7d9ac8ebbe83", "is_disabled": 0, "rental_uris": {"android": "https://dc.lft.to/lastmile_qr_scan", "ios": "https://dc.lft.to/lastmile_qr_scan"}, "lon": -77.00889133333334, "fusion_lat": 0.0}, {"name": "e091b62d2421c5a8e7184f544343a8db", "fusion_lon": 0.0, "lat": 38.935440666666665, "is_reserved": 0, "type": "electric_scooter", "bike_id": "e091b62d2421c5a8e7184f544343a8db", "is_disabled": 0, "rental_uris": {"android": "https://dc.lft.to/lastmile_qr_scan", "ios": "https://dc.lft.to/lastmile_qr_scan"}, "lon": -77.0585155, "fusion_lat": 0.0}, {"name": "7a5ebbe3225f2e2bd692547537b244f0", "fusion_lon": 0.0, "lat": 38.91569966666667, "is_reserved": 0, "type": "electric_scooter", "bike_id": "7a5ebbe3225f2e2bd692547537b244f0", "is_disabled": 0, "rental_uris": {"android": "https://dc.lft.to/lastmile_qr_scan", "ios": "https://dc.lft.to/lastmile_qr_scan"}, "lon": -77.0228615, "fusion_lat": 0.0}, {"name": "e2b2a37b6b1a6f4fc2962a581054b447", "fusion_lon": 0.0, "lat": 38.904951833333335, "is_reserved": 0, "type": "electric_scooter", "bike_id": "e2b2a37b6b1a6f4fc2962a581054b447", "is_disabled": 0, "rental_uris": {"android": "https://dc.lft.to/lastmile_qr_scan", "ios": "https://dc.lft.to/lastmile_qr_scan"}, "lon": -77.02946983333334, "fusion_lat": 0.0}, {"name": "8743e50aebaf07872efa429f42319ed2", "fusion_lon": 0.0, "lat": 38.916883166666665, "is_reserved": 0, "type": "electric_scooter", "bike_id": "8743e50aebaf07872efa429f42319ed2", "is_disabled": 0, "rental_uris": {"android": "https://dc.lft.to/lastmile_qr_scan", "ios": "https://dc.lft.to/lastmile_qr_scan"}, "lon": -77.03152233333333, "fusion_lat": 0.0}, {"name": "f36f7096be42942f590c26ae221366d3", "fusion_lon": 0.0, "lat": 38.864687333333336, "is_reserved": 0, "type": "electric_scooter", "bike_id": "f36f7096be42942f590c26ae221366d3", "is_disabled": 0, "rental_uris": {"android": "https://dc.lft.to/lastmile_qr_scan", "ios": "https://dc.lft.to/lastmile_qr_scan"}, "lon": -76.97746983333333, "fusion_lat": 0.0}, {"name": "040fa82d35f90fa538ae3278ab5e58fb", "fusion_lon": 0.0, "lat": 38.93083166666667, "is_reserved": 0, "type": "electric_scooter", "bike_id": "040fa82d35f90fa538ae3278ab5e58fb", "is_disabled": 0, "rental_uris": {"android": "https://dc.lft.to/lastmile_qr_scan", "ios": "https://dc.lft.to/lastmile_qr_scan"}, "lon": -76.99607333333333, "fusion_lat": 0.0}, {"name": "390e857d6d38d4c36f40c0b6285d6757", "fusion_lon": 0.0, "lat": 38.92316983333333, "is_reserved": 0, "type": "electric_scooter", "bike_id": "390e857d6d38d4c36f40c0b6285d6757", "is_disabled": 0, "rental_uris": {"android": "https://dc.lft.to/lastmile_qr_scan", "ios": "https://dc.lft.to/lastmile_qr_scan"}, "lon": -77.04111766666666, "fusion_lat": 0.0}, {"name": "4e89e1679f24dec582a023a870515765", "fusion_lon": 0.0, "lat": 38.90782216666667, "is_reserved": 0, "type": "electric_scooter", "bike_id": "4e89e1679f24dec582a023a870515765", "is_disabled": 0, "rental_uris": {"android": "https://dc.lft.to/lastmile_qr_scan", "ios": "https://dc.lft.to/lastmile_qr_scan"}, "lon": -77.02386533333333, "fusion_lat": 0.0}, {"name": "64044a61a2594566291226a14b85c684", "fusion_lon": 0.0, "lat": 38.91179983333333, "is_reserved": 0, "type": "electric_scooter", "bike_id": "64044a61a2594566291226a14b85c684", "is_disabled": 0, "rental_uris": {"android": "https://dc.lft.to/lastmile_qr_scan", "ios": "https://dc.lft.to/lastmile_qr_scan"}, "lon": -77.010142, "fusion_lat": 0.0}, {"name": "0618e67e9073152fd9a09cf4e857afb3", "fusion_lon": 0.0, "lat": 38.8935975, "is_reserved": 0, "type": "electric_scooter", "bike_id": "0618e67e9073152fd9a09cf4e857afb3", "is_disabled": 0, "rental_uris": {"android": "https://dc.lft.to/lastmile_qr_scan", "ios": "https://dc.lft.to/lastmile_qr_scan"}, "lon": -76.949343, "fusion_lat": 0.0}, {"name": "c7e4e81e1d4c792e535eb027ca041085", "fusion_lon": 0.0, "lat": 38.969619, "is_reserved": 0, "type": "electric_bike", "bike_id": "c7e4e81e1d4c792e535eb027ca041085", "is_disabled": 0, "rental_uris": {"android": "https://dc.lft.to/lastmile_qr_scan", "ios": "https://dc.lft.to/lastmile_qr_scan"}, "lon": -76.95749383333333, "fusion_lat": 0.0}, {"name": "52b5ee60ed2fc2bbe188fa3c6b2ef432", "fusion_lon": 0.0, "lat": 38.911042, "is_reserved": 0, "type": "electric_bike", "bike_id": "52b5ee60ed2fc2bbe188fa3c6b2ef432", "is_disabled": 0, "rental_uris": {"android": "https://dc.lft.to/lastmile_qr_scan", "ios": "https://dc.lft.to/lastmile_qr_scan"}, "lon": -77.0149835, "fusion_lat": 0.0}, {"name": "e989617db08381301571767eaf0ab757", "fusion_lon": 0.0, "lat": 38.92863933333334, "is_reserved": 0, "type": "electric_scooter", "bike_id": "e989617db08381301571767eaf0ab757", "is_disabled": 0, "rental_uris": {"android": "https://dc.lft.to/lastmile_qr_scan", "ios": "https://dc.lft.to/lastmile_qr_scan"}, "lon": -77.0280045, "fusion_lat": 0.0}, {"name": "9ccf9d30d7b1898545e1430e57d56bef", "fusion_lon": 0.0, "lat": 38.93527866666667, "is_reserved": 0, "type": "electric_scooter", "bike_id": "9ccf9d30d7b1898545e1430e57d56bef", "is_disabled": 0, "rental_uris": {"android": "https://dc.lft.to/lastmile_qr_scan", "ios": "https://dc.lft.to/lastmile_qr_scan"}, "lon": -77.02347116666667, "fusion_lat": 0.0}, {"name": "6e2a67d9be7cf52d8fd6c9d823ed65c5", "fusion_lon": 0.0, "lat": 38.92181433333333, "is_reserved": 0, "type": "electric_scooter", "bike_id": "6e2a67d9be7cf52d8fd6c9d823ed65c5", "is_disabled": 0, "rental_uris": {"android": "https://dc.lft.to/lastmile_qr_scan", "ios": "https://dc.lft.to/lastmile_qr_scan"}, "lon": -77.02664283333333, "fusion_lat": 0.0}, {"name": "d1a440e5c1d94de8d9e3591cd349648b", "fusion_lon": 0.0, "lat": 38.91684333333333, "is_reserved": 0, "type": "electric_scooter", "bike_id": "d1a440e5c1d94de8d9e3591cd349648b", "is_disabled": 0, "rental_uris": {"android": "https://dc.lft.to/lastmile_qr_scan", "ios": "https://dc.lft.to/lastmile_qr_scan"}, "lon": -77.02698733333334, "fusion_lat": 0.0}, {"name": "ec44226f412bbbf85668c02118bec7fd", "fusion_lon": 0.0, "lat": 38.93164, "is_reserved": 0, "type": "electric_bike", "bike_id": "ec44226f412bbbf85668c02118bec7fd", "is_disabled": 0, "rental_uris": {"android": "https://dc.lft.to/lastmile_qr_scan", "ios": "https://dc.lft.to/lastmile_qr_scan"}, "lon": -76.97628583333334, "fusion_lat": 0.0}, {"name": "e4dce7367ec1d9a3438bd0b698de7126", "fusion_lon": 0.0, "lat": 38.918124166666665, "is_reserved": 0, "type": "electric_scooter", "bike_id": "e4dce7367ec1d9a3438bd0b698de7126", "is_disabled": 0, "rental_uris": {"android": "https://dc.lft.to/lastmile_qr_scan", "ios": "https://dc.lft.to/lastmile_qr_scan"}, "lon": -77.0895695, "fusion_lat": 0.0}, {"name": "84ff2accdbf39695459ab3d23392e47d", "fusion_lon": 0.0, "lat": 38.89605683333333, "is_reserved": 0, "type": "electric_scooter", "bike_id": "84ff2accdbf39695459ab3d23392e47d", "is_disabled": 0, "rental_uris": {"android": "https://dc.lft.to/lastmile_qr_scan", "ios": "https://dc.lft.to/lastmile_qr_scan"}, "lon": -77.02201833333334, "fusion_lat": 0.0}, {"name": "613905561164341360552ad685f79aea", "fusion_lon": 0.0, "lat": 38.904573666666664, "is_reserved": 0, "type": "electric_scooter", "bike_id": "613905561164341360552ad685f79aea", "is_disabled": 0, "rental_uris": {"android": "https://dc.lft.to/lastmile_qr_scan", "ios": "https://dc.lft.to/lastmile_qr_scan"}, "lon": -77.04153933333333, "fusion_lat": 0.0}, {"name": "564ea711db0cdc24407225db8914da8a", "fusion_lon": 0.0, "lat": 38.917405333333335, "is_reserved": 0, "type": "electric_scooter", "bike_id": "564ea711db0cdc24407225db8914da8a", "is_disabled": 0, "rental_uris": {"android": "https://dc.lft.to/lastmile_qr_scan", "ios": "https://dc.lft.to/lastmile_qr_scan"}, "lon": -77.03463116666667, "fusion_lat": 0.0}, {"name": "09d4a876ff569f4f5ce9e1316f58ebe8", "fusion_lon": 0.0, "lat": 38.938536166666665, "is_reserved": 0, "type": "electric_scooter", "bike_id": "09d4a876ff569f4f5ce9e1316f58ebe8", "is_disabled": 0, "rental_uris": {"android": "https://dc.lft.to/lastmile_qr_scan", "ios": "https://dc.lft.to/lastmile_qr_scan"}, "lon": -77.02588, "fusion_lat": 0.0}, {"name": "104b74227bee9e41a925d92f64c6014a", "fusion_lon": 0.0, "lat": 38.96309016666667, "is_reserved": 0, "type": "electric_bike", "bike_id": "104b74227bee9e41a925d92f64c6014a", "is_disabled": 0, "rental_uris": {"android": "https://dc.lft.to/lastmile_qr_scan", "ios": "https://dc.lft.to/lastmile_qr_scan"}, "lon": -77.01102566666667, "fusion_lat": 0.0}, {"name": "349d423f613f928ff5dc75a93b387227", "fusion_lon": 0.0, "lat": 38.96323266666667, "is_reserved": 0, "type": "electric_bike", "bike_id": "349d423f613f928ff5dc75a93b387227", "is_disabled": 0, "rental_uris": {"android": "https://dc.lft.to/lastmile_qr_scan", "ios": "https://dc.lft.to/lastmile_qr_scan"}, "lon": -76.97356616666667, "fusion_lat": 0.0}, {"name": "dd15a3436c24b36fe2f2d5a0fe9fbf0e", "fusion_lon": 0.0, "lat": 38.914747166666665, "is_reserved": 0, "type": "electric_scooter", "bike_id": "dd15a3436c24b36fe2f2d5a0fe9fbf0e", "is_disabled": 0, "rental_uris": {"android": "https://dc.lft.to/lastmile_qr_scan", "ios": "https://dc.lft.to/lastmile_qr_scan"}, "lon": -77.0318145, "fusion_lat": 0.0}, {"name": "356eabb01aede3f303ca17492de182fc", "fusion_lon": 0.0, "lat": 38.912708, "is_reserved": 0, "type": "electric_scooter", "bike_id": "356eabb01aede3f303ca17492de182fc", "is_disabled": 0, "rental_uris": {"android": "https://dc.lft.to/lastmile_qr_scan", "ios": "https://dc.lft.to/lastmile_qr_scan"}, "lon": -77.02223233333333, "fusion_lat": 0.0}, {"name": "1e2c1545ae0359c1c89ce3a1b048e024", "fusion_lon": 0.0, "lat": 38.929686833333335, "is_reserved": 0, "type": "electric_scooter", "bike_id": "1e2c1545ae0359c1c89ce3a1b048e024", "is_disabled": 0, "rental_uris": {"android": "https://dc.lft.to/lastmile_qr_scan", "ios": "https://dc.lft.to/lastmile_qr_scan"}, "lon": -77.01689716666667, "fusion_lat": 0.0}, {"name": "440f9eb0bcb98b525dd5d9fe101874d1", "fusion_lon": 0.0, "lat": 38.91908, "is_reserved": 0, "type": "electric_scooter", "bike_id": "440f9eb0bcb98b525dd5d9fe101874d1", "is_disabled": 0, "rental_uris": {"android": "https://dc.lft.to/lastmile_qr_scan", "ios": "https://dc.lft.to/lastmile_qr_scan"}, "lon": -77.01534733333334, "fusion_lat": 0.0}, {"name": "2d37082b2599b92cffccc34bcb724555", "fusion_lon": 0.0, "lat": 38.9237035, "is_reserved": 0, "type": "electric_scooter", "bike_id": "2d37082b2599b92cffccc34bcb724555", "is_disabled": 0, "rental_uris": {"android": "https://dc.lft.to/lastmile_qr_scan", "ios": "https://dc.lft.to/lastmile_qr_scan"}, "lon": -77.03524083333333, "fusion_lat": 0.0}, {"name": "75c0cfb459cd34a399ed3dff005bdae7", "fusion_lon": 0.0, "lat": 38.95352333333334, "is_reserved": 0, "type": "electric_bike", "bike_id": "75c0cfb459cd34a399ed3dff005bdae7", "is_disabled": 0, "rental_uris": {"android": "https://dc.lft.to/lastmile_qr_scan", "ios": "https://dc.lft.to/lastmile_qr_scan"}, "lon": -76.98085766666667, "fusion_lat": 0.0}, {"name": "ea1ad245ec7ee09ddf63079cb1d84917", "fusion_lon": 0.0, "lat": 38.905064333333335, "is_reserved": 0, "type": "electric_scooter", "bike_id": "ea1ad245ec7ee09ddf63079cb1d84917", "is_disabled": 0, "rental_uris": {"android": "https://dc.lft.to/lastmile_qr_scan", "ios": "https://dc.lft.to/lastmile_qr_scan"}, "lon": -77.07013616666667, "fusion_lat": 0.0}, {"name": "5c1348c8cfc97dcabe6140ef10cd017c", "fusion_lon": 0.0, "lat": 38.9072665, "is_reserved": 0, "type": "electric_scooter", "bike_id": "5c1348c8cfc97dcabe6140ef10cd017c", "is_disabled": 0, "rental_uris": {"android": "https://dc.lft.to/lastmile_qr_scan", "ios": "https://dc.lft.to/lastmile_qr_scan"}, "lon": -77.04321133333333, "fusion_lat": 0.0}, {"name": "43defa41bf3c936f5df306b43c807a1f", "fusion_lon": 0.0, "lat": 38.905669, "is_reserved": 0, "type": "electric_scooter", "bike_id": "43defa41bf3c936f5df306b43c807a1f", "is_disabled": 0, "rental_uris": {"android": "https://dc.lft.to/lastmile_qr_scan", "ios": "https://dc.lft.to/lastmile_qr_scan"}, "lon": -77.04462166666667, "fusion_lat": 0.0}, {"name": "51fbec6984f44f223ac93d18589efd44", "fusion_lon": 0.0, "lat": 38.87006616666667, "is_reserved": 0, "type": "electric_bike", "bike_id": "51fbec6984f44f223ac93d18589efd44", "is_disabled": 0, "rental_uris": {"android": "https://dc.lft.to/lastmile_qr_scan", "ios": "https://dc.lft.to/lastmile_qr_scan"}, "lon": -77.22975066666666, "fusion_lat": 0.0}, {"name": "ac7f86b235e03d763d2c2f03d9da8d2b", "fusion_lon": 0.0, "lat": 38.902885, "is_reserved": 0, "type": "electric_scooter", "bike_id": "ac7f86b235e03d763d2c2f03d9da8d2b", "is_disabled": 0, "rental_uris": {"android": "https://dc.lft.to/lastmile_qr_scan", "ios": "https://dc.lft.to/lastmile_qr_scan"}, "lon": -77.01797866666666, "fusion_lat": 0.0}, {"name": "d3ee3456991d79c85bb1f89e89377e90", "fusion_lon": 0.0, "lat": 38.9352425, "is_reserved": 0, "type": "electric_scooter", "bike_id": "d3ee3456991d79c85bb1f89e89377e90", "is_disabled": 0, "rental_uris": {"android": "https://dc.lft.to/lastmile_qr_scan", "ios": "https://dc.lft.to/lastmile_qr_scan"}, "lon": -77.03261166666667, "fusion_lat": 0.0}, {"name": "56c1264338785ac0cfb71c7a7e6b17ee", "fusion_lon": 0.0, "lat": 38.90550283333334, "is_reserved": 0, "type": "electric_scooter", "bike_id": "56c1264338785ac0cfb71c7a7e6b17ee", "is_disabled": 0, "rental_uris": {"android": "https://dc.lft.to/lastmile_qr_scan", "ios": "https://dc.lft.to/lastmile_qr_scan"}, "lon": -77.04653683333333, "fusion_lat": 0.0}, {"name": "470165f8a70505b5483b23a4b145a782", "fusion_lon": 0.0, "lat": 39.02436, "is_reserved": 0, "type": "electric_bike", "bike_id": "470165f8a70505b5483b23a4b145a782", "is_disabled": 0, "rental_uris": {"android": "https://dc.lft.to/lastmile_qr_scan", "ios": "https://dc.lft.to/lastmile_qr_scan"}, "lon": -77.13099066666666, "fusion_lat": 0.0}, {"name": "f0e63d15bf5d44f1d104e78960a8651b", "fusion_lon": 0.0, "lat": 38.92231, "is_reserved": 0, "type": "electric_scooter", "bike_id": "f0e63d15bf5d44f1d104e78960a8651b", "is_disabled": 0, "rental_uris": {"android": "https://dc.lft.to/lastmile_qr_scan", "ios": "https://dc.lft.to/lastmile_qr_scan"}, "lon": -77.02331433333333, "fusion_lat": 0.0}, {"name": "c16c539c5c3dd4d69599eb24e7d34cc4", "fusion_lon": 0.0, "lat": 38.91423266666666, "is_reserved": 0, "type": "electric_scooter", "bike_id": "c16c539c5c3dd4d69599eb24e7d34cc4", "is_disabled": 0, "rental_uris": {"android": "https://dc.lft.to/lastmile_qr_scan", "ios": "https://dc.lft.to/lastmile_qr_scan"}, "lon": -77.044854, "fusion_lat": 0.0}, {"name": "668792298f1f1d78123b50a25dfc1dd3", "fusion_lon": 0.0, "lat": 38.9200815, "is_reserved": 0, "type": "electric_scooter", "bike_id": "668792298f1f1d78123b50a25dfc1dd3", "is_disabled": 0, "rental_uris": {"android": "https://dc.lft.to/lastmile_qr_scan", "ios": "https://dc.lft.to/lastmile_qr_scan"}, "lon": -77.032142, "fusion_lat": 0.0}, {"name": "66bde6c2c49df61f60c7cac2f1aad8c6", "fusion_lon": 0.0, "lat": 38.917060666666664, "is_reserved": 0, "type": "electric_scooter", "bike_id": "66bde6c2c49df61f60c7cac2f1aad8c6", "is_disabled": 0, "rental_uris": {"android": "https://dc.lft.to/lastmile_qr_scan", "ios": "https://dc.lft.to/lastmile_qr_scan"}, "lon": -77.03473533333333, "fusion_lat": 0.0}, {"name": "06b28cbae2521446c218c40ceb766879", "fusion_lon": 0.0, "lat": 38.86411833333333, "is_reserved": 0, "type": "electric_scooter", "bike_id": "06b28cbae2521446c218c40ceb766879", "is_disabled": 0, "rental_uris": {"android": "https://dc.lft.to/lastmile_qr_scan", "ios": "https://dc.lft.to/lastmile_qr_scan"}, "lon": -76.97449633333333, "fusion_lat": 0.0}, {"name": "c4a6964cf02d1e21ae2754c73dd185a6", "fusion_lon": 0.0, "lat": 38.947823, "is_reserved": 0, "type": "electric_bike", "bike_id": "c4a6964cf02d1e21ae2754c73dd185a6", "is_disabled": 0, "rental_uris": {"android": "https://dc.lft.to/lastmile_qr_scan", "ios": "https://dc.lft.to/lastmile_qr_scan"}, "lon": -76.972111, "fusion_lat": 0.0}, {"name": "567a1b0f72c60c3e5863c592f4525c0a", "fusion_lon": 0.0, "lat": 38.88763333333333, "is_reserved": 0, "type": "electric_scooter", "bike_id": "567a1b0f72c60c3e5863c592f4525c0a", "is_disabled": 0, "rental_uris": {"android": "https://dc.lft.to/lastmile_qr_scan", "ios": "https://dc.lft.to/lastmile_qr_scan"}, "lon": -76.9559235, "fusion_lat": 0.0}, {"name": "5e7667719dcf24ce38442f8a79f9fef3", "fusion_lon": 0.0, "lat": 38.90938766666667, "is_reserved": 0, "type": "electric_scooter", "bike_id": "5e7667719dcf24ce38442f8a79f9fef3", "is_disabled": 0, "rental_uris": {"android": "https://dc.lft.to/lastmile_qr_scan", "ios": "https://dc.lft.to/lastmile_qr_scan"}, "lon": -77.034504, "fusion_lat": 0.0}, {"name": "fd30f2f641c9b3e4fbbb02a879f74eea", "fusion_lon": 0.0, "lat": 38.8999235, "is_reserved": 0, "type": "electric_scooter", "bike_id": "fd30f2f641c9b3e4fbbb02a879f74eea", "is_disabled": 0, "rental_uris": {"android": "https://dc.lft.to/lastmile_qr_scan", "ios": "https://dc.lft.to/lastmile_qr_scan"}, "lon": -76.99598566666667, "fusion_lat": 0.0}, {"name": "fe67735cd8c9dbbaa5cd2fbb3be9fe3b", "fusion_lon": 0.0, "lat": 38.9170955, "is_reserved": 0, "type": "electric_scooter", "bike_id": "fe67735cd8c9dbbaa5cd2fbb3be9fe3b", "is_disabled": 0, "rental_uris": {"android": "https://dc.lft.to/lastmile_qr_scan", "ios": "https://dc.lft.to/lastmile_qr_scan"}, "lon": -77.01335633333333, "fusion_lat": 0.0}, {"name": "9f75705fa776133b58f8dd3e5ae36249", "fusion_lon": 0.0, "lat": 38.8961375, "is_reserved": 0, "type": "electric_scooter", "bike_id": "9f75705fa776133b58f8dd3e5ae36249", "is_disabled": 0, "rental_uris": {"android": "https://dc.lft.to/lastmile_qr_scan", "ios": "https://dc.lft.to/lastmile_qr_scan"}, "lon": -76.981095, "fusion_lat": 0.0}, {"name": "3d47817cd78bdea0d42d879920ed557a", "fusion_lon": 0.0, "lat": 38.912887166666664, "is_reserved": 0, "type": "electric_scooter", "bike_id": "3d47817cd78bdea0d42d879920ed557a", "is_disabled": 0, "rental_uris": {"android": "https://dc.lft.to/lastmile_qr_scan", "ios": "https://dc.lft.to/lastmile_qr_scan"}, "lon": -77.02376783333334, "fusion_lat": 0.0}, {"name": "088f6c3a6176b77f8ed08a70cae31083", "fusion_lon": 0.0, "lat": 38.89612666666667, "is_reserved": 0, "type": "electric_scooter", "bike_id": "088f6c3a6176b77f8ed08a70cae31083", "is_disabled": 0, "rental_uris": {"android": "https://dc.lft.to/lastmile_qr_scan", "ios": "https://dc.lft.to/lastmile_qr_scan"}, "lon": -77.01594166666666, "fusion_lat": 0.0}, {"name": "4734a7b414510c32822e2c659a97c011", "fusion_lon": 0.0, "lat": 38.896073333333334, "is_reserved": 0, "type": "electric_scooter", "bike_id": "4734a7b414510c32822e2c659a97c011", "is_disabled": 0, "rental_uris": {"android": "https://dc.lft.to/lastmile_qr_scan", "ios": "https://dc.lft.to/lastmile_qr_scan"}, "lon": -77.02202066666666, "fusion_lat": 0.0}, {"name": "574c1fc52f62d7db8873823fcb0d1f05", "fusion_lon": 0.0, "lat": 38.9101315, "is_reserved": 0, "type": "electric_scooter", "bike_id": "574c1fc52f62d7db8873823fcb0d1f05", "is_disabled": 0, "rental_uris": {"android": "https://dc.lft.to/lastmile_qr_scan", "ios": "https://dc.lft.to/lastmile_qr_scan"}, "lon": -77.0527045, "fusion_lat": 0.0}, {"name": "331956d7d922488d4b5446d0edc1cd47", "fusion_lon": 0.0, "lat": 38.89731033333333, "is_reserved": 0, "type": "electric_scooter", "bike_id": "331956d7d922488d4b5446d0edc1cd47", "is_disabled": 0, "rental_uris": {"android": "https://dc.lft.to/lastmile_qr_scan", "ios": "https://dc.lft.to/lastmile_qr_scan"}, "lon": -77.02169166666667, "fusion_lat": 0.0}, {"name": "39e61a5263e8c17eb408ebd829f5e9ed", "fusion_lon": 0.0, "lat": 38.874393, "is_reserved": 0, "type": "electric_scooter", "bike_id": "39e61a5263e8c17eb408ebd829f5e9ed", "is_disabled": 0, "rental_uris": {"android": "https://dc.lft.to/lastmile_qr_scan", "ios": "https://dc.lft.to/lastmile_qr_scan"}, "lon": -77.00555416666667, "fusion_lat": 0.0}, {"name": "c15443fb710289da916ceb26f530e199", "fusion_lon": 0.0, "lat": 38.94200983333333, "is_reserved": 0, "type": "electric_scooter", "bike_id": "c15443fb710289da916ceb26f530e199", "is_disabled": 0, "rental_uris": {"android": "https://dc.lft.to/lastmile_qr_scan", "ios": "https://dc.lft.to/lastmile_qr_scan"}, "lon": -77.0251165, "fusion_lat": 0.0}, {"name": "969b0288857e69d0ac08f66d4176c909", "fusion_lon": 0.0, "lat": 38.934429333333334, "is_reserved": 0, "type": "electric_scooter", "bike_id": "969b0288857e69d0ac08f66d4176c909", "is_disabled": 0, "rental_uris": {"android": "https://dc.lft.to/lastmile_qr_scan", "ios": "https://dc.lft.to/lastmile_qr_scan"}, "lon": -77.03282516666667, "fusion_lat": 0.0}, {"name": "911114bd21ad0d311e985771c34db2de", "fusion_lon": 0.0, "lat": 38.90934516666667, "is_reserved": 0, "type": "electric_scooter", "bike_id": "911114bd21ad0d311e985771c34db2de", "is_disabled": 0, "rental_uris": {"android": "https://dc.lft.to/lastmile_qr_scan", "ios": "https://dc.lft.to/lastmile_qr_scan"}, "lon": -77.02686033333333, "fusion_lat": 0.0}, {"name": "d02641cf000bdc7eb03f579dabca8697", "fusion_lon": 0.0, "lat": 38.896076666666666, "is_reserved": 0, "type": "electric_scooter", "bike_id": "d02641cf000bdc7eb03f579dabca8697", "is_disabled": 0, "rental_uris": {"android": "https://dc.lft.to/lastmile_qr_scan", "ios": "https://dc.lft.to/lastmile_qr_scan"}, "lon": -77.05056616666667, "fusion_lat": 0.0}, {"name": "5d98bca9e624f9d5c2cd1c8dc8a1f6a8", "fusion_lon": 0.0, "lat": 38.91550066666667, "is_reserved": 0, "type": "electric_scooter", "bike_id": "5d98bca9e624f9d5c2cd1c8dc8a1f6a8", "is_disabled": 0, "rental_uris": {"android": "https://dc.lft.to/lastmile_qr_scan", "ios": "https://dc.lft.to/lastmile_qr_scan"}, "lon": -77.03862016666666, "fusion_lat": 0.0}, {"name": "04e597798770b91f3f7b71c5a647c7a9", "fusion_lon": 0.0, "lat": 38.90263616666667, "is_reserved": 0, "type": "electric_scooter", "bike_id": "04e597798770b91f3f7b71c5a647c7a9", "is_disabled": 0, "rental_uris": {"android": "https://dc.lft.to/lastmile_qr_scan", "ios": "https://dc.lft.to/lastmile_qr_scan"}, "lon": -77.00329716666667, "fusion_lat": 0.0}, {"name": "570f430dbe7840179fdba559e9655323", "fusion_lon": 0.0, "lat": 38.892230833333336, "is_reserved": 0, "type": "electric_scooter", "bike_id": "570f430dbe7840179fdba559e9655323", "is_disabled": 0, "rental_uris": {"android": "https://dc.lft.to/lastmile_qr_scan", "ios": "https://dc.lft.to/lastmile_qr_scan"}, "lon": -77.04858966666667, "fusion_lat": 0.0}, {"name": "fb58da51a32400d9d0098b2db4637124", "fusion_lon": 0.0, "lat": 38.87627583333333, "is_reserved": 0, "type": "electric_scooter", "bike_id": "fb58da51a32400d9d0098b2db4637124", "is_disabled": 0, "rental_uris": {"android": "https://dc.lft.to/lastmile_qr_scan", "ios": "https://dc.lft.to/lastmile_qr_scan"}, "lon": -77.00270183333333, "fusion_lat": 0.0}, {"name": "7914a985cfcbdf19c517ac2e1f60fa83", "fusion_lon": 0.0, "lat": 38.92727133333333, "is_reserved": 0, "type": "electric_scooter", "bike_id": "7914a985cfcbdf19c517ac2e1f60fa83", "is_disabled": 0, "rental_uris": {"android": "https://dc.lft.to/lastmile_qr_scan", "ios": "https://dc.lft.to/lastmile_qr_scan"}, "lon": -77.022988, "fusion_lat": 0.0}, {"name": "a713e281f442ae66d08604b6efd46625", "fusion_lon": 0.0, "lat": 38.902516166666665, "is_reserved": 0, "type": "electric_scooter", "bike_id": "a713e281f442ae66d08604b6efd46625", "is_disabled": 0, "rental_uris": {"android": "https://dc.lft.to/lastmile_qr_scan", "ios": "https://dc.lft.to/lastmile_qr_scan"}, "lon": -77.02837716666667, "fusion_lat": 0.0}, {"name": "a0b1bc42b80e018e217adc041ae3baa2", "fusion_lon": 0.0, "lat": 38.87858966666667, "is_reserved": 0, "type": "electric_scooter", "bike_id": "a0b1bc42b80e018e217adc041ae3baa2", "is_disabled": 0, "rental_uris": {"android": "https://dc.lft.to/lastmile_qr_scan", "ios": "https://dc.lft.to/lastmile_qr_scan"}, "lon": -77.00837483333333, "fusion_lat": 0.0}, {"name": "8fb8595130fd69f6de7ede5fa05d1ffa", "fusion_lon": 0.0, "lat": 38.9031795, "is_reserved": 0, "type": "electric_scooter", "bike_id": "8fb8595130fd69f6de7ede5fa05d1ffa", "is_disabled": 0, "rental_uris": {"android": "https://dc.lft.to/lastmile_qr_scan", "ios": "https://dc.lft.to/lastmile_qr_scan"}, "lon": -76.97546916666667, "fusion_lat": 0.0}, {"name": "d655ad06885305783391d29d8c83c86f", "fusion_lon": 0.0, "lat": 38.86515433333334, "is_reserved": 0, "type": "electric_scooter", "bike_id": "d655ad06885305783391d29d8c83c86f", "is_disabled": 0, "rental_uris": {"android": "https://dc.lft.to/lastmile_qr_scan", "ios": "https://dc.lft.to/lastmile_qr_scan"}, "lon": -76.99017266666667, "fusion_lat": 0.0}, {"name": "d5327c5f5c01ee305a9e4e31ed2099bd", "fusion_lon": 0.0, "lat": 38.9078405, "is_reserved": 0, "type": "electric_scooter", "bike_id": "d5327c5f5c01ee305a9e4e31ed2099bd", "is_disabled": 0, "rental_uris": {"android": "https://dc.lft.to/lastmile_qr_scan", "ios": "https://dc.lft.to/lastmile_qr_scan"}, "lon": -77.03865183333333, "fusion_lat": 0.0}, {"name": "0911e3f20f67e4a055c6f0fe9d167b22", "fusion_lon": 0.0, "lat": 38.863883333333334, "is_reserved": 0, "type": "electric_scooter", "bike_id": "0911e3f20f67e4a055c6f0fe9d167b22", "is_disabled": 0, "rental_uris": {"android": "https://dc.lft.to/lastmile_qr_scan", "ios": "https://dc.lft.to/lastmile_qr_scan"}, "lon": -76.99039266666666, "fusion_lat": 0.0}, {"name": "6ad943c938b9e983915eec9bf625b5a8", "fusion_lon": 0.0, "lat": 38.9234165, "is_reserved": 0, "type": "electric_scooter", "bike_id": "6ad943c938b9e983915eec9bf625b5a8", "is_disabled": 0, "rental_uris": {"android": "https://dc.lft.to/lastmile_qr_scan", "ios": "https://dc.lft.to/lastmile_qr_scan"}, "lon": -77.05076816666667, "fusion_lat": 0.0}, {"name": "634599b6456ce728b72e0c131bdb94c8", "fusion_lon": 0.0, "lat": 38.88745616666667, "is_reserved": 0, "type": "electric_scooter", "bike_id": "634599b6456ce728b72e0c131bdb94c8", "is_disabled": 0, "rental_uris": {"android": "https://dc.lft.to/lastmile_qr_scan", "ios": "https://dc.lft.to/lastmile_qr_scan"}, "lon": -77.02728216666667, "fusion_lat": 0.0}, {"name": "ab5bedd2d84c705b6130b2198e4fbedd", "fusion_lon": 0.0, "lat": 38.80704716666666, "is_reserved": 0, "type": "electric_bike", "bike_id": "ab5bedd2d84c705b6130b2198e4fbedd", "is_disabled": 0, "rental_uris": {"android": "https://dc.lft.to/lastmile_qr_scan", "ios": "https://dc.lft.to/lastmile_qr_scan"}, "lon": -77.06168383333333, "fusion_lat": 0.0}, {"name": "86f03f423c2234e315999babf56c784b", "fusion_lon": 0.0, "lat": 38.898509, "is_reserved": 0, "type": "electric_scooter", "bike_id": "86f03f423c2234e315999babf56c784b", "is_disabled": 0, "rental_uris": {"android": "https://dc.lft.to/lastmile_qr_scan", "ios": "https://dc.lft.to/lastmile_qr_scan"}, "lon": -76.9816925, "fusion_lat": 0.0}, {"name": "3a6998c30c60405eabd1513b19e45447", "fusion_lon": 0.0, "lat": 38.91727616666667, "is_reserved": 0, "type": "electric_scooter", "bike_id": "3a6998c30c60405eabd1513b19e45447", "is_disabled": 0, "rental_uris": {"android": "https://dc.lft.to/lastmile_qr_scan", "ios": "https://dc.lft.to/lastmile_qr_scan"}, "lon": -77.036507, "fusion_lat": 0.0}, {"name": "fcd40a27d7389e3327061e587e77d0d0", "fusion_lon": 0.0, "lat": 38.92212633333333, "is_reserved": 0, "type": "electric_scooter", "bike_id": "fcd40a27d7389e3327061e587e77d0d0", "is_disabled": 0, "rental_uris": {"android": "https://dc.lft.to/lastmile_qr_scan", "ios": "https://dc.lft.to/lastmile_qr_scan"}, "lon": -77.03449083333334, "fusion_lat": 0.0}, {"name": "35fea5190d236a2865f99a855b65b6d4", "fusion_lon": 0.0, "lat": 38.927969166666664, "is_reserved": 0, "type": "electric_scooter", "bike_id": "35fea5190d236a2865f99a855b65b6d4", "is_disabled": 0, "rental_uris": {"android": "https://dc.lft.to/lastmile_qr_scan", "ios": "https://dc.lft.to/lastmile_qr_scan"}, "lon": -77.013975, "fusion_lat": 0.0}, {"name": "0b2f2a5e62b32f47d91f002191e0fb10", "fusion_lon": 0.0, "lat": 38.88616316666667, "is_reserved": 0, "type": "electric_scooter", "bike_id": "0b2f2a5e62b32f47d91f002191e0fb10", "is_disabled": 0, "rental_uris": {"android": "https://dc.lft.to/lastmile_qr_scan", "ios": "https://dc.lft.to/lastmile_qr_scan"}, "lon": -76.9558075, "fusion_lat": 0.0}, {"name": "3a3caeee52aede10a6790ef186a4c6c4", "fusion_lon": 0.0, "lat": 38.80900366666667, "is_reserved": 0, "type": "electric_bike", "bike_id": "3a3caeee52aede10a6790ef186a4c6c4", "is_disabled": 0, "rental_uris": {"android": "https://dc.lft.to/lastmile_qr_scan", "ios": "https://dc.lft.to/lastmile_qr_scan"}, "lon": -77.08671533333333, "fusion_lat": 0.0}, {"name": "2ce5e444d36dfc3efdafafa83d421606", "fusion_lon": 0.0, "lat": 38.884679166666665, "is_reserved": 0, "type": "electric_scooter", "bike_id": "2ce5e444d36dfc3efdafafa83d421606", "is_disabled": 0, "rental_uris": {"android": "https://dc.lft.to/lastmile_qr_scan", "ios": "https://dc.lft.to/lastmile_qr_scan"}, "lon": -77.03197166666666, "fusion_lat": 0.0}, {"name": "6cb605c6edb80c951c1c85b1e1021f12", "fusion_lon": 0.0, "lat": 38.90396233333333, "is_reserved": 0, "type": "electric_scooter", "bike_id": "6cb605c6edb80c951c1c85b1e1021f12", "is_disabled": 0, "rental_uris": {"android": "https://dc.lft.to/lastmile_qr_scan", "ios": "https://dc.lft.to/lastmile_qr_scan"}, "lon": -77.06295716666666, "fusion_lat": 0.0}, {"name": "bfb6f3206517ee0a4e28cde26eb68b16", "fusion_lon": 0.0, "lat": 38.9000715, "is_reserved": 0, "type": "electric_scooter", "bike_id": "bfb6f3206517ee0a4e28cde26eb68b16", "is_disabled": 0, "rental_uris": {"android": "https://dc.lft.to/lastmile_qr_scan", "ios": "https://dc.lft.to/lastmile_qr_scan"}, "lon": -77.04468816666666, "fusion_lat": 0.0}, {"name": "bd0682944e1f702b1b07579813ecba54", "fusion_lon": 0.0, "lat": 38.91913916666667, "is_reserved": 0, "type": "electric_scooter", "bike_id": "bd0682944e1f702b1b07579813ecba54", "is_disabled": 0, "rental_uris": {"android": "https://dc.lft.to/lastmile_qr_scan", "ios": "https://dc.lft.to/lastmile_qr_scan"}, "lon": -77.047958, "fusion_lat": 0.0}, {"name": "26f07476fe8efc67d4e7543d090b8cb4", "fusion_lon": 0.0, "lat": 38.945094, "is_reserved": 0, "type": "electric_scooter", "bike_id": "26f07476fe8efc67d4e7543d090b8cb4", "is_disabled": 0, "rental_uris": {"android": "https://dc.lft.to/lastmile_qr_scan", "ios": "https://dc.lft.to/lastmile_qr_scan"}, "lon": -77.033131, "fusion_lat": 0.0}, {"name": "d500e1ec11116c28e0125df4a00f1f1e", "fusion_lon": 0.0, "lat": 38.909453, "is_reserved": 0, "type": "electric_scooter", "bike_id": "d500e1ec11116c28e0125df4a00f1f1e", "is_disabled": 0, "rental_uris": {"android": "https://dc.lft.to/lastmile_qr_scan", "ios": "https://dc.lft.to/lastmile_qr_scan"}, "lon": -77.0424915, "fusion_lat": 0.0}, {"name": "847568d25f372d4bffa5c51a69081fb7", "fusion_lon": 0.0, "lat": 38.88453166666667, "is_reserved": 0, "type": "electric_scooter", "bike_id": "847568d25f372d4bffa5c51a69081fb7", "is_disabled": 0, "rental_uris": {"android": "https://dc.lft.to/lastmile_qr_scan", "ios": "https://dc.lft.to/lastmile_qr_scan"}, "lon": -76.9574435, "fusion_lat": 0.0}, {"name": "8df8aaf146664c96adae3cebb48a8dea", "fusion_lon": 0.0, "lat": 38.907254333333334, "is_reserved": 0, "type": "electric_scooter", "bike_id": "8df8aaf146664c96adae3cebb48a8dea", "is_disabled": 0, "rental_uris": {"android": "https://dc.lft.to/lastmile_qr_scan", "ios": "https://dc.lft.to/lastmile_qr_scan"}, "lon": -77.01136333333334, "fusion_lat": 0.0}, {"name": "0bb9b53882d4b087750f369a493b8fe4", "fusion_lon": 0.0, "lat": 38.9085925, "is_reserved": 0, "type": "electric_scooter", "bike_id": "0bb9b53882d4b087750f369a493b8fe4", "is_disabled": 0, "rental_uris": {"android": "https://dc.lft.to/lastmile_qr_scan", "ios": "https://dc.lft.to/lastmile_qr_scan"}, "lon": -77.02412933333333, "fusion_lat": 0.0}, {"name": "ea45c014fb284595d36f1b73ae8af05a", "fusion_lon": 0.0, "lat": 38.8958745, "is_reserved": 0, "type": "electric_bike", "bike_id": "ea45c014fb284595d36f1b73ae8af05a", "is_disabled": 0, "rental_uris": {"android": "https://dc.lft.to/lastmile_qr_scan", "ios": "https://dc.lft.to/lastmile_qr_scan"}, "lon": -77.07304133333334, "fusion_lat": 0.0}, {"name": "e5480a0b73c6c0d0dd699d92b81171da", "fusion_lon": 0.0, "lat": 38.92046583333333, "is_reserved": 0, "type": "electric_scooter", "bike_id": "e5480a0b73c6c0d0dd699d92b81171da", "is_disabled": 0, "rental_uris": {"android": "https://dc.lft.to/lastmile_qr_scan", "ios": "https://dc.lft.to/lastmile_qr_scan"}, "lon": -77.041835, "fusion_lat": 0.0}, {"name": "1eb7f541a80ebdec974ffcf121d241a6", "fusion_lon": 0.0, "lat": 38.91907666666667, "is_reserved": 0, "type": "electric_scooter", "bike_id": "1eb7f541a80ebdec974ffcf121d241a6", "is_disabled": 0, "rental_uris": {"android": "https://dc.lft.to/lastmile_qr_scan", "ios": "https://dc.lft.to/lastmile_qr_scan"}, "lon": -77.009863, "fusion_lat": 0.0}, {"name": "6f7129ffcbfb613b52b70ddcb4cc1976", "fusion_lon": 0.0, "lat": 38.903802, "is_reserved": 0, "type": "electric_scooter", "bike_id": "6f7129ffcbfb613b52b70ddcb4cc1976", "is_disabled": 0, "rental_uris": {"android": "https://dc.lft.to/lastmile_qr_scan", "ios": "https://dc.lft.to/lastmile_qr_scan"}, "lon": -77.03635516666667, "fusion_lat": 0.0}, {"name": "b884b98bc6eeb07e1a435a391be54324", "fusion_lon": 0.0, "lat": 38.858928666666664, "is_reserved": 0, "type": "electric_bike", "bike_id": "b884b98bc6eeb07e1a435a391be54324", "is_disabled": 0, "rental_uris": {"android": "https://dc.lft.to/lastmile_qr_scan", "ios": "https://dc.lft.to/lastmile_qr_scan"}, "lon": -77.1186125, "fusion_lat": 0.0}, {"name": "267a9f939201f7bd67e13542d24106f5", "fusion_lon": 0.0, "lat": 38.90316083333333, "is_reserved": 0, "type": "electric_scooter", "bike_id": "267a9f939201f7bd67e13542d24106f5", "is_disabled": 0, "rental_uris": {"android": "https://dc.lft.to/lastmile_qr_scan", "ios": "https://dc.lft.to/lastmile_qr_scan"}, "lon": -76.97798733333333, "fusion_lat": 0.0}, {"name": "047479bf4235579dadd445ce2dafe8c0", "fusion_lon": 0.0, "lat": 38.92648066666667, "is_reserved": 0, "type": "electric_scooter", "bike_id": "047479bf4235579dadd445ce2dafe8c0", "is_disabled": 0, "rental_uris": {"android": "https://dc.lft.to/lastmile_qr_scan", "ios": "https://dc.lft.to/lastmile_qr_scan"}, "lon": -77.03703066666667, "fusion_lat": 0.0}, {"name": "722290789d5f0af2a27e7d3bf94e4b03", "fusion_lon": 0.0, "lat": 38.889106, "is_reserved": 0, "type": "electric_scooter", "bike_id": "722290789d5f0af2a27e7d3bf94e4b03", "is_disabled": 0, "rental_uris": {"android": "https://dc.lft.to/lastmile_qr_scan", "ios": "https://dc.lft.to/lastmile_qr_scan"}, "lon": -77.0521905, "fusion_lat": 0.0}, {"name": "fff411baab2c29d66b9ae9e8e5ddced0", "fusion_lon": 0.0, "lat": 38.89858433333333, "is_reserved": 0, "type": "electric_scooter", "bike_id": "fff411baab2c29d66b9ae9e8e5ddced0", "is_disabled": 0, "rental_uris": {"android": "https://dc.lft.to/lastmile_qr_scan", "ios": "https://dc.lft.to/lastmile_qr_scan"}, "lon": -77.02281216666667, "fusion_lat": 0.0}, {"name": "0a66208feda86296559fe1164163ca78", "fusion_lon": 0.0, "lat": 38.9186995, "is_reserved": 0, "type": "electric_scooter", "bike_id": "0a66208feda86296559fe1164163ca78", "is_disabled": 0, "rental_uris": {"android": "https://dc.lft.to/lastmile_qr_scan", "ios": "https://dc.lft.to/lastmile_qr_scan"}, "lon": -77.04444683333334, "fusion_lat": 0.0}, {"name": "286e871827e77ee1cf8d775933c2373f", "fusion_lon": 0.0, "lat": 38.906003166666665, "is_reserved": 0, "type": "electric_scooter", "bike_id": "286e871827e77ee1cf8d775933c2373f", "is_disabled": 0, "rental_uris": {"android": "https://dc.lft.to/lastmile_qr_scan", "ios": "https://dc.lft.to/lastmile_qr_scan"}, "lon": -76.99267316666666, "fusion_lat": 0.0}, {"name": "7674f9720dfbf2d1b78d537a2f81b93e", "fusion_lon": 0.0, "lat": 38.927718666666664, "is_reserved": 0, "type": "electric_scooter", "bike_id": "7674f9720dfbf2d1b78d537a2f81b93e", "is_disabled": 0, "rental_uris": {"android": "https://dc.lft.to/lastmile_qr_scan", "ios": "https://dc.lft.to/lastmile_qr_scan"}, "lon": -77.030595, "fusion_lat": 0.0}, {"name": "8ea4958f7077564a887d87e6df531923", "fusion_lon": 0.0, "lat": 38.893427333333335, "is_reserved": 0, "type": "electric_scooter", "bike_id": "8ea4958f7077564a887d87e6df531923", "is_disabled": 0, "rental_uris": {"android": "https://dc.lft.to/lastmile_qr_scan", "ios": "https://dc.lft.to/lastmile_qr_scan"}, "lon": -77.01714683333333, "fusion_lat": 0.0}, {"name": "3cd48599fc431f15d9961aaf6ec5d57a", "fusion_lon": 0.0, "lat": 38.95175016666666, "is_reserved": 0, "type": "electric_scooter", "bike_id": "3cd48599fc431f15d9961aaf6ec5d57a", "is_disabled": 0, "rental_uris": {"android": "https://dc.lft.to/lastmile_qr_scan", "ios": "https://dc.lft.to/lastmile_qr_scan"}, "lon": -77.02724433333333, "fusion_lat": 0.0}, {"name": "1bf56e67a1d6eb6dbd2cd70be1b3cd25", "fusion_lon": 0.0, "lat": 38.899159833333336, "is_reserved": 0, "type": "electric_scooter", "bike_id": "1bf56e67a1d6eb6dbd2cd70be1b3cd25", "is_disabled": 0, "rental_uris": {"android": "https://dc.lft.to/lastmile_qr_scan", "ios": "https://dc.lft.to/lastmile_qr_scan"}, "lon": -76.97706633333334, "fusion_lat": 0.0}, {"name": "af4e571ff53dec1e4718c3b59aa349e2", "fusion_lon": 0.0, "lat": 38.955298666666664, "is_reserved": 0, "type": "electric_scooter", "bike_id": "af4e571ff53dec1e4718c3b59aa349e2", "is_disabled": 0, "rental_uris": {"android": "https://dc.lft.to/lastmile_qr_scan", "ios": "https://dc.lft.to/lastmile_qr_scan"}, "lon": -77.027772, "fusion_lat": 0.0}, {"name": "38ce443b11e81b4afdd2034051cfa6dd", "fusion_lon": 0.0, "lat": 38.92410516666666, "is_reserved": 0, "type": "electric_scooter", "bike_id": "38ce443b11e81b4afdd2034051cfa6dd", "is_disabled": 0, "rental_uris": {"android": "https://dc.lft.to/lastmile_qr_scan", "ios": "https://dc.lft.to/lastmile_qr_scan"}, "lon": -77.03547533333334, "fusion_lat": 0.0}, {"name": "ea8c6c16e9ecf8f6e4b2e74d040e1265", "fusion_lon": 0.0, "lat": 38.9301695, "is_reserved": 0, "type": "electric_scooter", "bike_id": "ea8c6c16e9ecf8f6e4b2e74d040e1265", "is_disabled": 0, "rental_uris": {"android": "https://dc.lft.to/lastmile_qr_scan", "ios": "https://dc.lft.to/lastmile_qr_scan"}, "lon": -77.06085583333333, "fusion_lat": 0.0}, {"name": "7b484d306c6407893fd962bef7e33c25", "fusion_lon": 0.0, "lat": 38.907934, "is_reserved": 0, "type": "electric_scooter", "bike_id": "7b484d306c6407893fd962bef7e33c25", "is_disabled": 0, "rental_uris": {"android": "https://dc.lft.to/lastmile_qr_scan", "ios": "https://dc.lft.to/lastmile_qr_scan"}, "lon": -77.0366255, "fusion_lat": 0.0}, {"name": "f21247b6b42a64b8300c42ffdd03270e", "fusion_lon": 0.0, "lat": 38.91921383333333, "is_reserved": 0, "type": "electric_scooter", "bike_id": "f21247b6b42a64b8300c42ffdd03270e", "is_disabled": 0, "rental_uris": {"android": "https://dc.lft.to/lastmile_qr_scan", "ios": "https://dc.lft.to/lastmile_qr_scan"}, "lon": -77.02485533333333, "fusion_lat": 0.0}, {"name": "42ac03e7447ddfedda4508aff6e14ebc", "fusion_lon": 0.0, "lat": 38.871772166666666, "is_reserved": 0, "type": "electric_scooter", "bike_id": "42ac03e7447ddfedda4508aff6e14ebc", "is_disabled": 0, "rental_uris": {"android": "https://dc.lft.to/lastmile_qr_scan", "ios": "https://dc.lft.to/lastmile_qr_scan"}, "lon": -77.00610033333334, "fusion_lat": 0.0}, {"name": "9a70b1209750302f106b05d15def405a", "fusion_lon": 0.0, "lat": 38.838101, "is_reserved": 0, "type": "electric_bike", "bike_id": "9a70b1209750302f106b05d15def405a", "is_disabled": 0, "rental_uris": {"android": "https://dc.lft.to/lastmile_qr_scan", "ios": "https://dc.lft.to/lastmile_qr_scan"}, "lon": -77.09522666666666, "fusion_lat": 0.0}, {"name": "0629540fbbfd5ab3608c0a4d2241e862", "fusion_lon": 0.0, "lat": 38.8576825, "is_reserved": 0, "type": "electric_bike", "bike_id": "0629540fbbfd5ab3608c0a4d2241e862", "is_disabled": 0, "rental_uris": {"android": "https://dc.lft.to/lastmile_qr_scan", "ios": "https://dc.lft.to/lastmile_qr_scan"}, "lon": -76.987621, "fusion_lat": 0.0}, {"name": "213ef78c7e38473ce441698c543825c2", "fusion_lon": 0.0, "lat": 38.90962666666667, "is_reserved": 0, "type": "electric_scooter", "bike_id": "213ef78c7e38473ce441698c543825c2", "is_disabled": 0, "rental_uris": {"android": "https://dc.lft.to/lastmile_qr_scan", "ios": "https://dc.lft.to/lastmile_qr_scan"}, "lon": -77.02689166666667, "fusion_lat": 0.0}, {"name": "55a492e52c880ad78130303fd5b3caf7", "fusion_lon": 0.0, "lat": 38.904885666666665, "is_reserved": 0, "type": "electric_scooter", "bike_id": "55a492e52c880ad78130303fd5b3caf7", "is_disabled": 0, "rental_uris": {"android": "https://dc.lft.to/lastmile_qr_scan", "ios": "https://dc.lft.to/lastmile_qr_scan"}, "lon": -76.94954316666667, "fusion_lat": 0.0}, {"name": "db15a290bb48cd6021af248a45ae187b", "fusion_lon": 0.0, "lat": 38.9517395, "is_reserved": 0, "type": "electric_bike", "bike_id": "db15a290bb48cd6021af248a45ae187b", "is_disabled": 0, "rental_uris": {"android": "https://dc.lft.to/lastmile_qr_scan", "ios": "https://dc.lft.to/lastmile_qr_scan"}, "lon": -76.97727566666667, "fusion_lat": 0.0}, {"name": "cf6c8829108e39f208f7268af3161bf2", "fusion_lon": 0.0, "lat": 38.962774333333336, "is_reserved": 0, "type": "electric_bike", "bike_id": "cf6c8829108e39f208f7268af3161bf2", "is_disabled": 0, "rental_uris": {"android": "https://dc.lft.to/lastmile_qr_scan", "ios": "https://dc.lft.to/lastmile_qr_scan"}, "lon": -77.01454683333333, "fusion_lat": 0.0}, {"name": "c2206193ab0eb2e3ff3b56fae86ae9ef", "fusion_lon": 0.0, "lat": 38.9285295, "is_reserved": 0, "type": "electric_scooter", "bike_id": "c2206193ab0eb2e3ff3b56fae86ae9ef", "is_disabled": 0, "rental_uris": {"android": "https://dc.lft.to/lastmile_qr_scan", "ios": "https://dc.lft.to/lastmile_qr_scan"}, "lon": -77.01399766666667, "fusion_lat": 0.0}, {"name": "402cc39ecfcc875e10e0d29364830c0c", "fusion_lon": 0.0, "lat": 38.918406166666664, "is_reserved": 0, "type": "electric_scooter", "bike_id": "402cc39ecfcc875e10e0d29364830c0c", "is_disabled": 0, "rental_uris": {"android": "https://dc.lft.to/lastmile_qr_scan", "ios": "https://dc.lft.to/lastmile_qr_scan"}, "lon": -77.02282216666667, "fusion_lat": 0.0}, {"name": "6eef135446961cdfe996f769538190fb", "fusion_lon": 0.0, "lat": 38.90057266666667, "is_reserved": 0, "type": "electric_scooter", "bike_id": "6eef135446961cdfe996f769538190fb", "is_disabled": 0, "rental_uris": {"android": "https://dc.lft.to/lastmile_qr_scan", "ios": "https://dc.lft.to/lastmile_qr_scan"}, "lon": -76.93473783333333, "fusion_lat": 0.0}, {"name": "d145699fc9b5c38ee964bf4ceb9b1f81", "fusion_lon": 0.0, "lat": 38.9300945, "is_reserved": 0, "type": "electric_scooter", "bike_id": "d145699fc9b5c38ee964bf4ceb9b1f81", "is_disabled": 0, "rental_uris": {"android": "https://dc.lft.to/lastmile_qr_scan", "ios": "https://dc.lft.to/lastmile_qr_scan"}, "lon": -77.01430016666667, "fusion_lat": 0.0}, {"name": "a9813f0bfaa9d9af520906ee9679a870", "fusion_lon": 0.0, "lat": 38.856947166666664, "is_reserved": 0, "type": "electric_scooter", "bike_id": "a9813f0bfaa9d9af520906ee9679a870", "is_disabled": 0, "rental_uris": {"android": "https://dc.lft.to/lastmile_qr_scan", "ios": "https://dc.lft.to/lastmile_qr_scan"}, "lon": -76.98958916666666, "fusion_lat": 0.0}, {"name": "74b84361ef8840e6fd20140f89544804", "fusion_lon": 0.0, "lat": 38.920676, "is_reserved": 0, "type": "electric_scooter", "bike_id": "74b84361ef8840e6fd20140f89544804", "is_disabled": 0, "rental_uris": {"android": "https://dc.lft.to/lastmile_qr_scan", "ios": "https://dc.lft.to/lastmile_qr_scan"}, "lon": -77.02413883333334, "fusion_lat": 0.0}, {"name": "024704bf84e34be990db4f36020e4c6f", "fusion_lon": 0.0, "lat": 38.844249833333336, "is_reserved": 0, "type": "electric_scooter", "bike_id": "024704bf84e34be990db4f36020e4c6f", "is_disabled": 0, "rental_uris": {"android": "https://dc.lft.to/lastmile_qr_scan", "ios": "https://dc.lft.to/lastmile_qr_scan"}, "lon": -76.99779833333334, "fusion_lat": 0.0}, {"name": "53739a572d4e401db2f635b6989d4ed9", "fusion_lon": 0.0, "lat": 39.057872833333334, "is_reserved": 0, "type": "electric_bike", "bike_id": "53739a572d4e401db2f635b6989d4ed9", "is_disabled": 0, "rental_uris": {"android": "https://dc.lft.to/lastmile_qr_scan", "ios": "https://dc.lft.to/lastmile_qr_scan"}, "lon": -77.1501735, "fusion_lat": 0.0}, {"name": "8eb29b39b932790968d3030ec3715b8f", "fusion_lon": 0.0, "lat": 38.9089385, "is_reserved": 0, "type": "electric_scooter", "bike_id": "8eb29b39b932790968d3030ec3715b8f", "is_disabled": 0, "rental_uris": {"android": "https://dc.lft.to/lastmile_qr_scan", "ios": "https://dc.lft.to/lastmile_qr_scan"}, "lon": -77.07270733333333, "fusion_lat": 0.0}, {"name": "07b5d00861e57a481ec3f7968a724675", "fusion_lon": 0.0, "lat": 38.90278166666667, "is_reserved": 0, "type": "electric_scooter", "bike_id": "07b5d00861e57a481ec3f7968a724675", "is_disabled": 0, "rental_uris": {"android": "https://dc.lft.to/lastmile_qr_scan", "ios": "https://dc.lft.to/lastmile_qr_scan"}, "lon": -77.05807933333334, "fusion_lat": 0.0}, {"name": "636b3c0d2a6a6edda03b0c3e789881d5", "fusion_lon": 0.0, "lat": 38.93274866666667, "is_reserved": 0, "type": "electric_scooter", "bike_id": "636b3c0d2a6a6edda03b0c3e789881d5", "is_disabled": 0, "rental_uris": {"android": "https://dc.lft.to/lastmile_qr_scan", "ios": "https://dc.lft.to/lastmile_qr_scan"}, "lon": -77.028671, "fusion_lat": 0.0}, {"name": "52234dd8f3e2936517afe3bea476f69a", "fusion_lon": 0.0, "lat": 38.92125883333333, "is_reserved": 0, "type": "electric_scooter", "bike_id": "52234dd8f3e2936517afe3bea476f69a", "is_disabled": 0, "rental_uris": {"android": "https://dc.lft.to/lastmile_qr_scan", "ios": "https://dc.lft.to/lastmile_qr_scan"}, "lon": -77.044245, "fusion_lat": 0.0}, {"name": "b975874416e63b26e0db6864f2404276", "fusion_lon": 0.0, "lat": 38.923238, "is_reserved": 0, "type": "electric_scooter", "bike_id": "b975874416e63b26e0db6864f2404276", "is_disabled": 0, "rental_uris": {"android": "https://dc.lft.to/lastmile_qr_scan", "ios": "https://dc.lft.to/lastmile_qr_scan"}, "lon": -77.0211975, "fusion_lat": 0.0}, {"name": "88479a3af5a5b48d4354eb87eeb8daa8", "fusion_lon": 0.0, "lat": 38.91271316666667, "is_reserved": 0, "type": "electric_scooter", "bike_id": "88479a3af5a5b48d4354eb87eeb8daa8", "is_disabled": 0, "rental_uris": {"android": "https://dc.lft.to/lastmile_qr_scan", "ios": "https://dc.lft.to/lastmile_qr_scan"}, "lon": -77.02226616666667, "fusion_lat": 0.0}, {"name": "568e444ff5b6afab8ace2f5a375f4100", "fusion_lon": 0.0, "lat": 38.91054966666667, "is_reserved": 0, "type": "electric_scooter", "bike_id": "568e444ff5b6afab8ace2f5a375f4100", "is_disabled": 0, "rental_uris": {"android": "https://dc.lft.to/lastmile_qr_scan", "ios": "https://dc.lft.to/lastmile_qr_scan"}, "lon": -77.04489266666667, "fusion_lat": 0.0}, {"name": "aa197342f11a6134481a9b65d6e1762c", "fusion_lon": 0.0, "lat": 38.93477683333333, "is_reserved": 0, "type": "electric_scooter", "bike_id": "aa197342f11a6134481a9b65d6e1762c", "is_disabled": 0, "rental_uris": {"android": "https://dc.lft.to/lastmile_qr_scan", "ios": "https://dc.lft.to/lastmile_qr_scan"}, "lon": -77.03577116666666, "fusion_lat": 0.0}, {"name": "c987587d10e83f5839ae892f7ba96f63", "fusion_lon": 0.0, "lat": 38.91880166666667, "is_reserved": 0, "type": "electric_scooter", "bike_id": "c987587d10e83f5839ae892f7ba96f63", "is_disabled": 0, "rental_uris": {"android": "https://dc.lft.to/lastmile_qr_scan", "ios": "https://dc.lft.to/lastmile_qr_scan"}, "lon": -77.03503216666667, "fusion_lat": 0.0}, {"name": "7e0f1d005411f5b43c0afed23875bbdc", "fusion_lon": 0.0, "lat": 38.92388783333333, "is_reserved": 0, "type": "electric_scooter", "bike_id": "7e0f1d005411f5b43c0afed23875bbdc", "is_disabled": 0, "rental_uris": {"android": "https://dc.lft.to/lastmile_qr_scan", "ios": "https://dc.lft.to/lastmile_qr_scan"}, "lon": -77.04057216666666, "fusion_lat": 0.0}, {"name": "29b19c7cc47cd1bd3fd4d662b4ce50d1", "fusion_lon": 0.0, "lat": 38.9111735, "is_reserved": 0, "type": "electric_scooter", "bike_id": "29b19c7cc47cd1bd3fd4d662b4ce50d1", "is_disabled": 0, "rental_uris": {"android": "https://dc.lft.to/lastmile_qr_scan", "ios": "https://dc.lft.to/lastmile_qr_scan"}, "lon": -77.021312, "fusion_lat": 0.0}, {"name": "bba89070db42ad43734176aba0d0932a", "fusion_lon": 0.0, "lat": 38.896300833333335, "is_reserved": 0, "type": "electric_scooter", "bike_id": "bba89070db42ad43734176aba0d0932a", "is_disabled": 0, "rental_uris": {"android": "https://dc.lft.to/lastmile_qr_scan", "ios": "https://dc.lft.to/lastmile_qr_scan"}, "lon": -77.0213965, "fusion_lat": 0.0}, {"name": "03cb1344ac4cef3ec13dbc0f8d1fa67b", "fusion_lon": 0.0, "lat": 38.80754316666667, "is_reserved": 0, "type": "electric_bike", "bike_id": "03cb1344ac4cef3ec13dbc0f8d1fa67b", "is_disabled": 0, "rental_uris": {"android": "https://dc.lft.to/lastmile_qr_scan", "ios": "https://dc.lft.to/lastmile_qr_scan"}, "lon": -77.09452633333333, "fusion_lat": 0.0}, {"name": "047c84585c39925fa1771d6eb9193a0b", "fusion_lon": 0.0, "lat": 38.92768083333333, "is_reserved": 0, "type": "electric_scooter", "bike_id": "047c84585c39925fa1771d6eb9193a0b", "is_disabled": 0, "rental_uris": {"android": "https://dc.lft.to/lastmile_qr_scan", "ios": "https://dc.lft.to/lastmile_qr_scan"}, "lon": -77.02605033333333, "fusion_lat": 0.0}, {"name": "1062ac14912a82f651759185fde2425f", "fusion_lon": 0.0, "lat": 38.907757333333336, "is_reserved": 0, "type": "electric_scooter", "bike_id": "1062ac14912a82f651759185fde2425f", "is_disabled": 0, "rental_uris": {"android": "https://dc.lft.to/lastmile_qr_scan", "ios": "https://dc.lft.to/lastmile_qr_scan"}, "lon": -77.03828616666667, "fusion_lat": 0.0}, {"name": "2f683ef9286d55383559eea3e6b38d72", "fusion_lon": 0.0, "lat": 38.907373666666665, "is_reserved": 0, "type": "electric_scooter", "bike_id": "2f683ef9286d55383559eea3e6b38d72", "is_disabled": 0, "rental_uris": {"android": "https://dc.lft.to/lastmile_qr_scan", "ios": "https://dc.lft.to/lastmile_qr_scan"}, "lon": -77.043453, "fusion_lat": 0.0}, {"name": "ba4a3c2b12c40cba6e9d79e1f5bb07cf", "fusion_lon": 0.0, "lat": 38.91553616666667, "is_reserved": 0, "type": "electric_scooter", "bike_id": "ba4a3c2b12c40cba6e9d79e1f5bb07cf", "is_disabled": 0, "rental_uris": {"android": "https://dc.lft.to/lastmile_qr_scan", "ios": "https://dc.lft.to/lastmile_qr_scan"}, "lon": -77.02553616666667, "fusion_lat": 0.0}, {"name": "93f06541ba88b6376b62ed80c31c692c", "fusion_lon": 0.0, "lat": 38.920668666666664, "is_reserved": 0, "type": "electric_scooter", "bike_id": "93f06541ba88b6376b62ed80c31c692c", "is_disabled": 0, "rental_uris": {"android": "https://dc.lft.to/lastmile_qr_scan", "ios": "https://dc.lft.to/lastmile_qr_scan"}, "lon": -77.03209866666667, "fusion_lat": 0.0}, {"name": "3628b564de381bd0e84dfc1f6be887dd", "fusion_lon": 0.0, "lat": 38.896261, "is_reserved": 0, "type": "electric_scooter", "bike_id": "3628b564de381bd0e84dfc1f6be887dd", "is_disabled": 0, "rental_uris": {"android": "https://dc.lft.to/lastmile_qr_scan", "ios": "https://dc.lft.to/lastmile_qr_scan"}, "lon": -77.02590783333333, "fusion_lat": 0.0}, {"name": "0b0a2b76eb1b0b69fda47f5aeb16a249", "fusion_lon": 0.0, "lat": 38.912436166666666, "is_reserved": 0, "type": "electric_scooter", "bike_id": "0b0a2b76eb1b0b69fda47f5aeb16a249", "is_disabled": 0, "rental_uris": {"android": "https://dc.lft.to/lastmile_qr_scan", "ios": "https://dc.lft.to/lastmile_qr_scan"}, "lon": -77.03405733333334, "fusion_lat": 0.0}, {"name": "ba318ae2fa80d647f4f7c2deb21e09c4", "fusion_lon": 0.0, "lat": 38.904928166666664, "is_reserved": 0, "type": "electric_scooter", "bike_id": "ba318ae2fa80d647f4f7c2deb21e09c4", "is_disabled": 0, "rental_uris": {"android": "https://dc.lft.to/lastmile_qr_scan", "ios": "https://dc.lft.to/lastmile_qr_scan"}, "lon": -77.03830383333333, "fusion_lat": 0.0}, {"name": "058c573f94b32d085e2b1c51024455bc", "fusion_lon": 0.0, "lat": 38.865155333333334, "is_reserved": 0, "type": "electric_scooter", "bike_id": "058c573f94b32d085e2b1c51024455bc", "is_disabled": 0, "rental_uris": {"android": "https://dc.lft.to/lastmile_qr_scan", "ios": "https://dc.lft.to/lastmile_qr_scan"}, "lon": -76.97345833333333, "fusion_lat": 0.0}, {"name": "1113f3885f07b30d8119358d37c0c58c", "fusion_lon": 0.0, "lat": 38.9247365, "is_reserved": 0, "type": "electric_scooter", "bike_id": "1113f3885f07b30d8119358d37c0c58c", "is_disabled": 0, "rental_uris": {"android": "https://dc.lft.to/lastmile_qr_scan", "ios": "https://dc.lft.to/lastmile_qr_scan"}, "lon": -77.03498516666667, "fusion_lat": 0.0}, {"name": "c535b6dfdf06230edf5d2f9471abc1a9", "fusion_lon": 0.0, "lat": 38.849227, "is_reserved": 0, "type": "electric_bike", "bike_id": "c535b6dfdf06230edf5d2f9471abc1a9", "is_disabled": 0, "rental_uris": {"android": "https://dc.lft.to/lastmile_qr_scan", "ios": "https://dc.lft.to/lastmile_qr_scan"}, "lon": -77.0778905, "fusion_lat": 0.0}, {"name": "d1992419702396a8af5a0a5669c7702e", "fusion_lon": 0.0, "lat": 38.89376216666667, "is_reserved": 0, "type": "electric_scooter", "bike_id": "d1992419702396a8af5a0a5669c7702e", "is_disabled": 0, "rental_uris": {"android": "https://dc.lft.to/lastmile_qr_scan", "ios": "https://dc.lft.to/lastmile_qr_scan"}, "lon": -77.01555966666666, "fusion_lat": 0.0}, {"name": "50c847b6c4ecfac48f74737da315b256", "fusion_lon": 0.0, "lat": 38.905121333333334, "is_reserved": 0, "type": "electric_scooter", "bike_id": "50c847b6c4ecfac48f74737da315b256", "is_disabled": 0, "rental_uris": {"android": "https://dc.lft.to/lastmile_qr_scan", "ios": "https://dc.lft.to/lastmile_qr_scan"}, "lon": -77.00124633333333, "fusion_lat": 0.0}, {"name": "75c30d7d81942aefedcaf5288fff7d88", "fusion_lon": 0.0, "lat": 38.91684933333333, "is_reserved": 0, "type": "electric_scooter", "bike_id": "75c30d7d81942aefedcaf5288fff7d88", "is_disabled": 0, "rental_uris": {"android": "https://dc.lft.to/lastmile_qr_scan", "ios": "https://dc.lft.to/lastmile_qr_scan"}, "lon": -77.04141916666667, "fusion_lat": 0.0}, {"name": "014aa15de73e3f2790605b2b3c659175", "fusion_lon": 0.0, "lat": 38.956482666666666, "is_reserved": 0, "type": "electric_bike", "bike_id": "014aa15de73e3f2790605b2b3c659175", "is_disabled": 0, "rental_uris": {"android": "https://dc.lft.to/lastmile_qr_scan", "ios": "https://dc.lft.to/lastmile_qr_scan"}, "lon": -77.01277716666667, "fusion_lat": 0.0}, {"name": "4fe1e77a7f5e64a040a4aeec97959633", "fusion_lon": 0.0, "lat": 38.9066435, "is_reserved": 0, "type": "electric_scooter", "bike_id": "4fe1e77a7f5e64a040a4aeec97959633", "is_disabled": 0, "rental_uris": {"android": "https://dc.lft.to/lastmile_qr_scan", "ios": "https://dc.lft.to/lastmile_qr_scan"}, "lon": -77.07130666666667, "fusion_lat": 0.0}, {"name": "0e71137452a2d6c0512ec58deeb81b6a", "fusion_lon": 0.0, "lat": 38.90189433333333, "is_reserved": 0, "type": "electric_scooter", "bike_id": "0e71137452a2d6c0512ec58deeb81b6a", "is_disabled": 0, "rental_uris": {"android": "https://dc.lft.to/lastmile_qr_scan", "ios": "https://dc.lft.to/lastmile_qr_scan"}, "lon": -77.0216715, "fusion_lat": 0.0}, {"name": "ccb3f3c54de7a64f569406d81d2c214f", "fusion_lon": 0.0, "lat": 38.866577666666664, "is_reserved": 0, "type": "electric_scooter", "bike_id": "ccb3f3c54de7a64f569406d81d2c214f", "is_disabled": 0, "rental_uris": {"android": "https://dc.lft.to/lastmile_qr_scan", "ios": "https://dc.lft.to/lastmile_qr_scan"}, "lon": -76.98888966666667, "fusion_lat": 0.0}, {"name": "b20d77027b7576dd3ac6d3c872601d60", "fusion_lon": 0.0, "lat": 38.86241483333333, "is_reserved": 0, "type": "electric_scooter", "bike_id": "b20d77027b7576dd3ac6d3c872601d60", "is_disabled": 0, "rental_uris": {"android": "https://dc.lft.to/lastmile_qr_scan", "ios": "https://dc.lft.to/lastmile_qr_scan"}, "lon": -76.9948705, "fusion_lat": 0.0}, {"name": "f11be097c21b04574c531bc8694403b6", "fusion_lon": 0.0, "lat": 38.989983333333335, "is_reserved": 0, "type": "electric_bike", "bike_id": "f11be097c21b04574c531bc8694403b6", "is_disabled": 0, "rental_uris": {"android": "https://dc.lft.to/lastmile_qr_scan", "ios": "https://dc.lft.to/lastmile_qr_scan"}, "lon": -77.0042995, "fusion_lat": 0.0}, {"name": "5d6fc4d6b33e64cf1dd10630bc29fab3", "fusion_lon": 0.0, "lat": 38.92548883333333, "is_reserved": 0, "type": "electric_scooter", "bike_id": "5d6fc4d6b33e64cf1dd10630bc29fab3", "is_disabled": 0, "rental_uris": {"android": "https://dc.lft.to/lastmile_qr_scan", "ios": "https://dc.lft.to/lastmile_qr_scan"}, "lon": -77.03307216666667, "fusion_lat": 0.0}, {"name": "aee719ca0a806847f82be461aada2352", "fusion_lon": 0.0, "lat": 38.897637833333334, "is_reserved": 0, "type": "electric_scooter", "bike_id": "aee719ca0a806847f82be461aada2352", "is_disabled": 0, "rental_uris": {"android": "https://dc.lft.to/lastmile_qr_scan", "ios": "https://dc.lft.to/lastmile_qr_scan"}, "lon": -77.05140416666667, "fusion_lat": 0.0}, {"name": "180b94e96342fd024bac2cf1bcd557c5", "fusion_lon": 0.0, "lat": 38.94625583333333, "is_reserved": 0, "type": "electric_scooter", "bike_id": "180b94e96342fd024bac2cf1bcd557c5", "is_disabled": 0, "rental_uris": {"android": "https://dc.lft.to/lastmile_qr_scan", "ios": "https://dc.lft.to/lastmile_qr_scan"}, "lon": -77.01837133333333, "fusion_lat": 0.0}, {"name": "a52ffe74f28bebef0b64be8651c989e3", "fusion_lon": 0.0, "lat": 38.90421933333333, "is_reserved": 0, "type": "electric_scooter", "bike_id": "a52ffe74f28bebef0b64be8651c989e3", "is_disabled": 0, "rental_uris": {"android": "https://dc.lft.to/lastmile_qr_scan", "ios": "https://dc.lft.to/lastmile_qr_scan"}, "lon": -77.02523233333334, "fusion_lat": 0.0}, {"name": "4fe697d34612d82fae0838980105f94f", "fusion_lon": 0.0, "lat": 38.91683866666666, "is_reserved": 0, "type": "electric_scooter", "bike_id": "4fe697d34612d82fae0838980105f94f", "is_disabled": 0, "rental_uris": {"android": "https://dc.lft.to/lastmile_qr_scan", "ios": "https://dc.lft.to/lastmile_qr_scan"}, "lon": -77.03115716666667, "fusion_lat": 0.0}, {"name": "942ef58f1527acf75d2aa2b55ac75e2e", "fusion_lon": 0.0, "lat": 38.90080366666667, "is_reserved": 0, "type": "electric_scooter", "bike_id": "942ef58f1527acf75d2aa2b55ac75e2e", "is_disabled": 0, "rental_uris": {"android": "https://dc.lft.to/lastmile_qr_scan", "ios": "https://dc.lft.to/lastmile_qr_scan"}, "lon": -77.04692183333333, "fusion_lat": 0.0}, {"name": "7a93ebd85dc4d395ad173381596b72ca", "fusion_lon": 0.0, "lat": 38.89870066666667, "is_reserved": 0, "type": "electric_scooter", "bike_id": "7a93ebd85dc4d395ad173381596b72ca", "is_disabled": 0, "rental_uris": {"android": "https://dc.lft.to/lastmile_qr_scan", "ios": "https://dc.lft.to/lastmile_qr_scan"}, "lon": -76.94662816666667, "fusion_lat": 0.0}, {"name": "003b7c7cf229aade87633835c83b7a41", "fusion_lon": 0.0, "lat": 38.919002, "is_reserved": 0, "type": "electric_scooter", "bike_id": "003b7c7cf229aade87633835c83b7a41", "is_disabled": 0, "rental_uris": {"android": "https://dc.lft.to/lastmile_qr_scan", "ios": "https://dc.lft.to/lastmile_qr_scan"}, "lon": -76.98743266666666, "fusion_lat": 0.0}, {"name": "42f7e9f0a21b502f7139ebf09540b941", "fusion_lon": 0.0, "lat": 38.89221716666667, "is_reserved": 0, "type": "electric_scooter", "bike_id": "42f7e9f0a21b502f7139ebf09540b941", "is_disabled": 0, "rental_uris": {"android": "https://dc.lft.to/lastmile_qr_scan", "ios": "https://dc.lft.to/lastmile_qr_scan"}, "lon": -77.023595, "fusion_lat": 0.0}, {"name": "4526a90ddd0026937e755109af8e2814", "fusion_lon": 0.0, "lat": 38.91889833333333, "is_reserved": 0, "type": "electric_scooter", "bike_id": "4526a90ddd0026937e755109af8e2814", "is_disabled": 0, "rental_uris": {"android": "https://dc.lft.to/lastmile_qr_scan", "ios": "https://dc.lft.to/lastmile_qr_scan"}, "lon": -77.02290516666666, "fusion_lat": 0.0}, {"name": "665b69fe4e55a2a87833c197ff3925e3", "fusion_lon": 0.0, "lat": 38.91844233333333, "is_reserved": 0, "type": "electric_scooter", "bike_id": "665b69fe4e55a2a87833c197ff3925e3", "is_disabled": 0, "rental_uris": {"android": "https://dc.lft.to/lastmile_qr_scan", "ios": "https://dc.lft.to/lastmile_qr_scan"}, "lon": -77.03875716666667, "fusion_lat": 0.0}, {"name": "c318d956bbd61463b63af8b22db7da2d", "fusion_lon": 0.0, "lat": 38.913129, "is_reserved": 0, "type": "electric_scooter", "bike_id": "c318d956bbd61463b63af8b22db7da2d", "is_disabled": 0, "rental_uris": {"android": "https://dc.lft.to/lastmile_qr_scan", "ios": "https://dc.lft.to/lastmile_qr_scan"}, "lon": -77.01431183333334, "fusion_lat": 0.0}, {"name": "1896c1c3384be23cbe14f0e1c3cecaea", "fusion_lon": 0.0, "lat": 38.90768383333333, "is_reserved": 0, "type": "electric_scooter", "bike_id": "1896c1c3384be23cbe14f0e1c3cecaea", "is_disabled": 0, "rental_uris": {"android": "https://dc.lft.to/lastmile_qr_scan", "ios": "https://dc.lft.to/lastmile_qr_scan"}, "lon": -76.9782145, "fusion_lat": 0.0}, {"name": "f1175afce6d2bc00e5079f75b821c399", "fusion_lon": 0.0, "lat": 38.860601333333335, "is_reserved": 0, "type": "electric_scooter", "bike_id": "f1175afce6d2bc00e5079f75b821c399", "is_disabled": 0, "rental_uris": {"android": "https://dc.lft.to/lastmile_qr_scan", "ios": "https://dc.lft.to/lastmile_qr_scan"}, "lon": -76.98420616666667, "fusion_lat": 0.0}, {"name": "5098020c1d35a2c98dac4ac3a6494da9", "fusion_lon": 0.0, "lat": 38.875724, "is_reserved": 0, "type": "electric_scooter", "bike_id": "5098020c1d35a2c98dac4ac3a6494da9", "is_disabled": 0, "rental_uris": {"android": "https://dc.lft.to/lastmile_qr_scan", "ios": "https://dc.lft.to/lastmile_qr_scan"}, "lon": -77.0056385, "fusion_lat": 0.0}, {"name": "e2ff56cd2133af9fb4da8db6b7fbb8be", "fusion_lon": 0.0, "lat": 38.899766, "is_reserved": 0, "type": "electric_scooter", "bike_id": "e2ff56cd2133af9fb4da8db6b7fbb8be", "is_disabled": 0, "rental_uris": {"android": "https://dc.lft.to/lastmile_qr_scan", "ios": "https://dc.lft.to/lastmile_qr_scan"}, "lon": -77.0163635, "fusion_lat": 0.0}, {"name": "cd17048ec0d6be17d43d3d160df16d4c", "fusion_lon": 0.0, "lat": 38.93092016666667, "is_reserved": 0, "type": "electric_scooter", "bike_id": "cd17048ec0d6be17d43d3d160df16d4c", "is_disabled": 0, "rental_uris": {"android": "https://dc.lft.to/lastmile_qr_scan", "ios": "https://dc.lft.to/lastmile_qr_scan"}, "lon": -77.03439, "fusion_lat": 0.0}, {"name": "d49674e9cfee42e0a74401006c290ebb", "fusion_lon": 0.0, "lat": 38.89352183333333, "is_reserved": 0, "type": "electric_scooter", "bike_id": "d49674e9cfee42e0a74401006c290ebb", "is_disabled": 0, "rental_uris": {"android": "https://dc.lft.to/lastmile_qr_scan", "ios": "https://dc.lft.to/lastmile_qr_scan"}, "lon": -77.00329966666666, "fusion_lat": 0.0}, {"name": "ee59a57326628e6b92d24c966aefcd6c", "fusion_lon": 0.0, "lat": 38.90374383333333, "is_reserved": 0, "type": "electric_scooter", "bike_id": "ee59a57326628e6b92d24c966aefcd6c", "is_disabled": 0, "rental_uris": {"android": "https://dc.lft.to/lastmile_qr_scan", "ios": "https://dc.lft.to/lastmile_qr_scan"}, "lon": -77.03816216666667, "fusion_lat": 0.0}, {"name": "61cab1bb9db0e95a24d68c7b641a1b26", "fusion_lon": 0.0, "lat": 38.916849, "is_reserved": 0, "type": "electric_scooter", "bike_id": "61cab1bb9db0e95a24d68c7b641a1b26", "is_disabled": 0, "rental_uris": {"android": "https://dc.lft.to/lastmile_qr_scan", "ios": "https://dc.lft.to/lastmile_qr_scan"}, "lon": -77.0252465, "fusion_lat": 0.0}, {"name": "10acadde73ce9b93d3fa5ebe5668a2dd", "fusion_lon": 0.0, "lat": 38.905615833333336, "is_reserved": 0, "type": "electric_scooter", "bike_id": "10acadde73ce9b93d3fa5ebe5668a2dd", "is_disabled": 0, "rental_uris": {"android": "https://dc.lft.to/lastmile_qr_scan", "ios": "https://dc.lft.to/lastmile_qr_scan"}, "lon": -77.00589966666666, "fusion_lat": 0.0}, {"name": "567289f04bd5ffe11b4392e822caefa4", "fusion_lon": 0.0, "lat": 38.9189135, "is_reserved": 0, "type": "electric_scooter", "bike_id": "567289f04bd5ffe11b4392e822caefa4", "is_disabled": 0, "rental_uris": {"android": "https://dc.lft.to/lastmile_qr_scan", "ios": "https://dc.lft.to/lastmile_qr_scan"}, "lon": -77.0349865, "fusion_lat": 0.0}, {"name": "86da7ca0616396f1e1914f85b9440087", "fusion_lon": 0.0, "lat": 38.8624185, "is_reserved": 0, "type": "electric_scooter", "bike_id": "86da7ca0616396f1e1914f85b9440087", "is_disabled": 0, "rental_uris": {"android": "https://dc.lft.to/lastmile_qr_scan", "ios": "https://dc.lft.to/lastmile_qr_scan"}, "lon": -76.9949275, "fusion_lat": 0.0}, {"name": "7193c039092ad76c252764075777d545", "fusion_lon": 0.0, "lat": 38.92459683333333, "is_reserved": 0, "type": "electric_scooter", "bike_id": "7193c039092ad76c252764075777d545", "is_disabled": 0, "rental_uris": {"android": "https://dc.lft.to/lastmile_qr_scan", "ios": "https://dc.lft.to/lastmile_qr_scan"}, "lon": -77.03998516666667, "fusion_lat": 0.0}, {"name": "adcf8e5fdf22e90eed8a67acacfdb40f", "fusion_lon": 0.0, "lat": 38.893634166666665, "is_reserved": 0, "type": "electric_scooter", "bike_id": "adcf8e5fdf22e90eed8a67acacfdb40f", "is_disabled": 0, "rental_uris": {"android": "https://dc.lft.to/lastmile_qr_scan", "ios": "https://dc.lft.to/lastmile_qr_scan"}, "lon": -77.03158383333333, "fusion_lat": 0.0}, {"name": "c5be26222aa431e8ecc2218e24d2196c", "fusion_lon": 0.0, "lat": 38.8946155, "is_reserved": 0, "type": "electric_scooter", "bike_id": "c5be26222aa431e8ecc2218e24d2196c", "is_disabled": 0, "rental_uris": {"android": "https://dc.lft.to/lastmile_qr_scan", "ios": "https://dc.lft.to/lastmile_qr_scan"}, "lon": -77.02824366666667, "fusion_lat": 0.0}, {"name": "0038ad5172ecc9ef29a05b6a72f2d384", "fusion_lon": 0.0, "lat": 38.8877705, "is_reserved": 0, "type": "electric_scooter", "bike_id": "0038ad5172ecc9ef29a05b6a72f2d384", "is_disabled": 0, "rental_uris": {"android": "https://dc.lft.to/lastmile_qr_scan", "ios": "https://dc.lft.to/lastmile_qr_scan"}, "lon": -76.95523166666666, "fusion_lat": 0.0}, {"name": "f9c28d109bb4b4430158b21cb7469ba9", "fusion_lon": 0.0, "lat": 38.905358166666666, "is_reserved": 0, "type": "electric_scooter", "bike_id": "f9c28d109bb4b4430158b21cb7469ba9", "is_disabled": 0, "rental_uris": {"android": "https://dc.lft.to/lastmile_qr_scan", "ios": "https://dc.lft.to/lastmile_qr_scan"}, "lon": -76.98102866666666, "fusion_lat": 0.0}, {"name": "7a9c6b4bd973b8250236bfccad6abaab", "fusion_lon": 0.0, "lat": 38.87640316666667, "is_reserved": 0, "type": "electric_scooter", "bike_id": "7a9c6b4bd973b8250236bfccad6abaab", "is_disabled": 0, "rental_uris": {"android": "https://dc.lft.to/lastmile_qr_scan", "ios": "https://dc.lft.to/lastmile_qr_scan"}, "lon": -77.004513, "fusion_lat": 0.0}, {"name": "6c2862b7d1bc7f829969a2fda602b9e4", "fusion_lon": 0.0, "lat": 38.851765666666665, "is_reserved": 0, "type": "electric_scooter", "bike_id": "6c2862b7d1bc7f829969a2fda602b9e4", "is_disabled": 0, "rental_uris": {"android": "https://dc.lft.to/lastmile_qr_scan", "ios": "https://dc.lft.to/lastmile_qr_scan"}, "lon": -76.99579316666667, "fusion_lat": 0.0}, {"name": "4186ab2c4be8dd7a5962ee5442dbd205", "fusion_lon": 0.0, "lat": 38.93538733333333, "is_reserved": 0, "type": "electric_scooter", "bike_id": "4186ab2c4be8dd7a5962ee5442dbd205", "is_disabled": 0, "rental_uris": {"android": "https://dc.lft.to/lastmile_qr_scan", "ios": "https://dc.lft.to/lastmile_qr_scan"}, "lon": -77.05448566666666, "fusion_lat": 0.0}, {"name": "b32521e2906a269014de2941d906440e", "fusion_lon": 0.0, "lat": 38.906453, "is_reserved": 0, "type": "electric_scooter", "bike_id": "b32521e2906a269014de2941d906440e", "is_disabled": 0, "rental_uris": {"android": "https://dc.lft.to/lastmile_qr_scan", "ios": "https://dc.lft.to/lastmile_qr_scan"}, "lon": -77.02492783333334, "fusion_lat": 0.0}, {"name": "d66872caa59276322a6c2ddf265aab31", "fusion_lon": 0.0, "lat": 38.892232666666665, "is_reserved": 0, "type": "electric_scooter", "bike_id": "d66872caa59276322a6c2ddf265aab31", "is_disabled": 0, "rental_uris": {"android": "https://dc.lft.to/lastmile_qr_scan", "ios": "https://dc.lft.to/lastmile_qr_scan"}, "lon": -77.0437505, "fusion_lat": 0.0}, {"name": "1ccae9f3b771c6ad19813d381591e79d", "fusion_lon": 0.0, "lat": 38.90193633333333, "is_reserved": 0, "type": "electric_scooter", "bike_id": "1ccae9f3b771c6ad19813d381591e79d", "is_disabled": 0, "rental_uris": {"android": "https://dc.lft.to/lastmile_qr_scan", "ios": "https://dc.lft.to/lastmile_qr_scan"}, "lon": -77.02371233333334, "fusion_lat": 0.0}, {"name": "ee4df6f3473c328d78732ad93944fdab", "fusion_lon": 0.0, "lat": 38.89519333333333, "is_reserved": 0, "type": "electric_scooter", "bike_id": "ee4df6f3473c328d78732ad93944fdab", "is_disabled": 0, "rental_uris": {"android": "https://dc.lft.to/lastmile_qr_scan", "ios": "https://dc.lft.to/lastmile_qr_scan"}, "lon": -76.9881885, "fusion_lat": 0.0}, {"name": "8f72af7f9ef57d131a60a99a3a6ce11f", "fusion_lon": 0.0, "lat": 38.9148035, "is_reserved": 0, "type": "electric_scooter", "bike_id": "8f72af7f9ef57d131a60a99a3a6ce11f", "is_disabled": 0, "rental_uris": {"android": "https://dc.lft.to/lastmile_qr_scan", "ios": "https://dc.lft.to/lastmile_qr_scan"}, "lon": -76.9856875, "fusion_lat": 0.0}, {"name": "51d12734e51e917f48c8db5a2cbb7107", "fusion_lon": 0.0, "lat": 38.8745545, "is_reserved": 0, "type": "electric_scooter", "bike_id": "51d12734e51e917f48c8db5a2cbb7107", "is_disabled": 0, "rental_uris": {"android": "https://dc.lft.to/lastmile_qr_scan", "ios": "https://dc.lft.to/lastmile_qr_scan"}, "lon": -77.005374, "fusion_lat": 0.0}, {"name": "5106be3483101933663e807e269d99a2", "fusion_lon": 0.0, "lat": 38.92355366666666, "is_reserved": 0, "type": "electric_scooter", "bike_id": "5106be3483101933663e807e269d99a2", "is_disabled": 0, "rental_uris": {"android": "https://dc.lft.to/lastmile_qr_scan", "ios": "https://dc.lft.to/lastmile_qr_scan"}, "lon": -77.050751, "fusion_lat": 0.0}, {"name": "794f2b930ef56019b59f5e1479ef0220", "fusion_lon": 0.0, "lat": 38.90795033333333, "is_reserved": 0, "type": "electric_scooter", "bike_id": "794f2b930ef56019b59f5e1479ef0220", "is_disabled": 0, "rental_uris": {"android": "https://dc.lft.to/lastmile_qr_scan", "ios": "https://dc.lft.to/lastmile_qr_scan"}, "lon": -77.03821583333334, "fusion_lat": 0.0}, {"name": "7eb133c124b89b6e649ac591fe0add69", "fusion_lon": 0.0, "lat": 38.91769133333333, "is_reserved": 0, "type": "electric_scooter", "bike_id": "7eb133c124b89b6e649ac591fe0add69", "is_disabled": 0, "rental_uris": {"android": "https://dc.lft.to/lastmile_qr_scan", "ios": "https://dc.lft.to/lastmile_qr_scan"}, "lon": -77.03197833333333, "fusion_lat": 0.0}, {"name": "9232e703540bc46071d5b61c51b735e5", "fusion_lon": 0.0, "lat": 38.902377333333334, "is_reserved": 0, "type": "electric_scooter", "bike_id": "9232e703540bc46071d5b61c51b735e5", "is_disabled": 0, "rental_uris": {"android": "https://dc.lft.to/lastmile_qr_scan", "ios": "https://dc.lft.to/lastmile_qr_scan"}, "lon": -76.97411033333333, "fusion_lat": 0.0}, {"name": "0b4462f48bfd16e5d810ef8052fa79d7", "fusion_lon": 0.0, "lat": 38.9250425, "is_reserved": 0, "type": "electric_scooter", "bike_id": "0b4462f48bfd16e5d810ef8052fa79d7", "is_disabled": 0, "rental_uris": {"android": "https://dc.lft.to/lastmile_qr_scan", "ios": "https://dc.lft.to/lastmile_qr_scan"}, "lon": -77.00887816666666, "fusion_lat": 0.0}, {"name": "a1b4abb0f350979ed55e0f49bf254fa9", "fusion_lon": 0.0, "lat": 38.91982316666667, "is_reserved": 0, "type": "electric_scooter", "bike_id": "a1b4abb0f350979ed55e0f49bf254fa9", "is_disabled": 0, "rental_uris": {"android": "https://dc.lft.to/lastmile_qr_scan", "ios": "https://dc.lft.to/lastmile_qr_scan"}, "lon": -76.97302066666667, "fusion_lat": 0.0}, {"name": "ba0cbf0bc1c283c12a04413f7c7b7ca9", "fusion_lon": 0.0, "lat": 38.907718, "is_reserved": 0, "type": "electric_scooter", "bike_id": "ba0cbf0bc1c283c12a04413f7c7b7ca9", "is_disabled": 0, "rental_uris": {"android": "https://dc.lft.to/lastmile_qr_scan", "ios": "https://dc.lft.to/lastmile_qr_scan"}, "lon": -77.03817983333333, "fusion_lat": 0.0}, {"name": "7253fe055b0a81c4d14698e979a091a4", "fusion_lon": 0.0, "lat": 38.921143, "is_reserved": 0, "type": "electric_scooter", "bike_id": "7253fe055b0a81c4d14698e979a091a4", "is_disabled": 0, "rental_uris": {"android": "https://dc.lft.to/lastmile_qr_scan", "ios": "https://dc.lft.to/lastmile_qr_scan"}, "lon": -77.03324133333334, "fusion_lat": 0.0}, {"name": "f148361bb6e9fba3cce827d7c5659a86", "fusion_lon": 0.0, "lat": 38.9231055, "is_reserved": 0, "type": "electric_scooter", "bike_id": "f148361bb6e9fba3cce827d7c5659a86", "is_disabled": 0, "rental_uris": {"android": "https://dc.lft.to/lastmile_qr_scan", "ios": "https://dc.lft.to/lastmile_qr_scan"}, "lon": -77.02751783333333, "fusion_lat": 0.0}, {"name": "a8b640e23196ebc48300fb71555acfee", "fusion_lon": 0.0, "lat": 38.87611583333333, "is_reserved": 0, "type": "electric_scooter", "bike_id": "a8b640e23196ebc48300fb71555acfee", "is_disabled": 0, "rental_uris": {"android": "https://dc.lft.to/lastmile_qr_scan", "ios": "https://dc.lft.to/lastmile_qr_scan"}, "lon": -77.00047966666666, "fusion_lat": 0.0}, {"name": "ec1bef4dce233ea62312cc2b7dd3223c", "fusion_lon": 0.0, "lat": 38.94204516666667, "is_reserved": 0, "type": "electric_scooter", "bike_id": "ec1bef4dce233ea62312cc2b7dd3223c", "is_disabled": 0, "rental_uris": {"android": "https://dc.lft.to/lastmile_qr_scan", "ios": "https://dc.lft.to/lastmile_qr_scan"}, "lon": -77.02501866666667, "fusion_lat": 0.0}, {"name": "1a96c7d899ea0577915d15b4102be782", "fusion_lon": 0.0, "lat": 38.89836833333333, "is_reserved": 0, "type": "electric_scooter", "bike_id": "1a96c7d899ea0577915d15b4102be782", "is_disabled": 0, "rental_uris": {"android": "https://dc.lft.to/lastmile_qr_scan", "ios": "https://dc.lft.to/lastmile_qr_scan"}, "lon": -77.03339416666667, "fusion_lat": 0.0}, {"name": "26ad4b45b55fe379aa1a1f3424e5ee73", "fusion_lon": 0.0, "lat": 38.86350683333333, "is_reserved": 0, "type": "electric_scooter", "bike_id": "26ad4b45b55fe379aa1a1f3424e5ee73", "is_disabled": 0, "rental_uris": {"android": "https://dc.lft.to/lastmile_qr_scan", "ios": "https://dc.lft.to/lastmile_qr_scan"}, "lon": -76.98700483333333, "fusion_lat": 0.0}, {"name": "9e59669294161c5ae02569e4c12e3e94", "fusion_lon": 0.0, "lat": 38.910121, "is_reserved": 0, "type": "electric_bike", "bike_id": "9e59669294161c5ae02569e4c12e3e94", "is_disabled": 0, "rental_uris": {"android": "https://dc.lft.to/lastmile_qr_scan", "ios": "https://dc.lft.to/lastmile_qr_scan"}, "lon": -77.22794416666666, "fusion_lat": 0.0}, {"name": "0fc4c5d0663f9e8ca92ed6a542021855", "fusion_lon": 0.0, "lat": 38.87273, "is_reserved": 0, "type": "electric_bike", "bike_id": "0fc4c5d0663f9e8ca92ed6a542021855", "is_disabled": 0, "rental_uris": {"android": "https://dc.lft.to/lastmile_qr_scan", "ios": "https://dc.lft.to/lastmile_qr_scan"}, "lon": -77.233098, "fusion_lat": 0.0}, {"name": "f50615a26e4929ae0c915a6442cec644", "fusion_lon": 0.0, "lat": 38.900146666666664, "is_reserved": 0, "type": "electric_scooter", "bike_id": "f50615a26e4929ae0c915a6442cec644", "is_disabled": 0, "rental_uris": {"android": "https://dc.lft.to/lastmile_qr_scan", "ios": "https://dc.lft.to/lastmile_qr_scan"}, "lon": -77.01199366666667, "fusion_lat": 0.0}, {"name": "87a6d03818458595a1f6806d1d1aed95", "fusion_lon": 0.0, "lat": 38.90375183333333, "is_reserved": 0, "type": "electric_scooter", "bike_id": "87a6d03818458595a1f6806d1d1aed95", "is_disabled": 0, "rental_uris": {"android": "https://dc.lft.to/lastmile_qr_scan", "ios": "https://dc.lft.to/lastmile_qr_scan"}, "lon": -77.038205, "fusion_lat": 0.0}, {"name": "f7ee237fae8c3737503fb6665fb2b6a0", "fusion_lon": 0.0, "lat": 38.9151695, "is_reserved": 0, "type": "electric_scooter", "bike_id": "f7ee237fae8c3737503fb6665fb2b6a0", "is_disabled": 0, "rental_uris": {"android": "https://dc.lft.to/lastmile_qr_scan", "ios": "https://dc.lft.to/lastmile_qr_scan"}, "lon": -77.03177983333333, "fusion_lat": 0.0}, {"name": "90b62e8a82516bfeba7104c8694e5802", "fusion_lon": 0.0, "lat": 38.880601666666664, "is_reserved": 0, "type": "electric_bike", "bike_id": "90b62e8a82516bfeba7104c8694e5802", "is_disabled": 0, "rental_uris": {"android": "https://dc.lft.to/lastmile_qr_scan", "ios": "https://dc.lft.to/lastmile_qr_scan"}, "lon": -76.96231583333334, "fusion_lat": 0.0}, {"name": "b13fe73746bf938d57a82d992516dc79", "fusion_lon": 0.0, "lat": 38.906001333333336, "is_reserved": 0, "type": "electric_scooter", "bike_id": "b13fe73746bf938d57a82d992516dc79", "is_disabled": 0, "rental_uris": {"android": "https://dc.lft.to/lastmile_qr_scan", "ios": "https://dc.lft.to/lastmile_qr_scan"}, "lon": -77.056839, "fusion_lat": 0.0}, {"name": "57794cc9209919b9152d82b44d14a406", "fusion_lon": 0.0, "lat": 38.8695475, "is_reserved": 0, "type": "electric_scooter", "bike_id": "57794cc9209919b9152d82b44d14a406", "is_disabled": 0, "rental_uris": {"android": "https://dc.lft.to/lastmile_qr_scan", "ios": "https://dc.lft.to/lastmile_qr_scan"}, "lon": -76.98171283333333, "fusion_lat": 0.0}, {"name": "b98f0166cc82dc93bc4b2f7629d68444", "fusion_lon": 0.0, "lat": 38.89319783333333, "is_reserved": 0, "type": "electric_scooter", "bike_id": "b98f0166cc82dc93bc4b2f7629d68444", "is_disabled": 0, "rental_uris": {"android": "https://dc.lft.to/lastmile_qr_scan", "ios": "https://dc.lft.to/lastmile_qr_scan"}, "lon": -77.04871366666667, "fusion_lat": 0.0}, {"name": "66016a9474b9d6c7efc0a65422b3b3a3", "fusion_lon": 0.0, "lat": 38.923987333333336, "is_reserved": 0, "type": "electric_scooter", "bike_id": "66016a9474b9d6c7efc0a65422b3b3a3", "is_disabled": 0, "rental_uris": {"android": "https://dc.lft.to/lastmile_qr_scan", "ios": "https://dc.lft.to/lastmile_qr_scan"}, "lon": -77.02140766666666, "fusion_lat": 0.0}, {"name": "006569b1ac0be47a120ea8356e474d88", "fusion_lon": 0.0, "lat": 38.916134, "is_reserved": 0, "type": "electric_scooter", "bike_id": "006569b1ac0be47a120ea8356e474d88", "is_disabled": 0, "rental_uris": {"android": "https://dc.lft.to/lastmile_qr_scan", "ios": "https://dc.lft.to/lastmile_qr_scan"}, "lon": -77.0484875, "fusion_lat": 0.0}, {"name": "a4d7e47b71cdff6fdf65407a96aaeff9", "fusion_lon": 0.0, "lat": 38.9237245, "is_reserved": 0, "type": "electric_scooter", "bike_id": "a4d7e47b71cdff6fdf65407a96aaeff9", "is_disabled": 0, "rental_uris": {"android": "https://dc.lft.to/lastmile_qr_scan", "ios": "https://dc.lft.to/lastmile_qr_scan"}, "lon": -77.03051983333333, "fusion_lat": 0.0}, {"name": "f8a61de5f01bc07a140f0519344e0ff0", "fusion_lon": 0.0, "lat": 38.88269566666666, "is_reserved": 0, "type": "electric_scooter", "bike_id": "f8a61de5f01bc07a140f0519344e0ff0", "is_disabled": 0, "rental_uris": {"android": "https://dc.lft.to/lastmile_qr_scan", "ios": "https://dc.lft.to/lastmile_qr_scan"}, "lon": -76.992503, "fusion_lat": 0.0}, {"name": "9c7f1f42af2409892923d8cfb07cc55b", "fusion_lon": 0.0, "lat": 38.90847383333333, "is_reserved": 0, "type": "electric_scooter", "bike_id": "9c7f1f42af2409892923d8cfb07cc55b", "is_disabled": 0, "rental_uris": {"android": "https://dc.lft.to/lastmile_qr_scan", "ios": "https://dc.lft.to/lastmile_qr_scan"}, "lon": -77.023884, "fusion_lat": 0.0}, {"name": "69ddb7c56377c1b6f919ebe8857448c6", "fusion_lon": 0.0, "lat": 38.907348166666665, "is_reserved": 0, "type": "electric_scooter", "bike_id": "69ddb7c56377c1b6f919ebe8857448c6", "is_disabled": 0, "rental_uris": {"android": "https://dc.lft.to/lastmile_qr_scan", "ios": "https://dc.lft.to/lastmile_qr_scan"}, "lon": -77.04185866666667, "fusion_lat": 0.0}, {"name": "c8ab5936c1e49e19d3dddb04af6ee833", "fusion_lon": 0.0, "lat": 38.91634333333333, "is_reserved": 0, "type": "electric_scooter", "bike_id": "c8ab5936c1e49e19d3dddb04af6ee833", "is_disabled": 0, "rental_uris": {"android": "https://dc.lft.to/lastmile_qr_scan", "ios": "https://dc.lft.to/lastmile_qr_scan"}, "lon": -77.0398875, "fusion_lat": 0.0}, {"name": "3965c1b2957ec367c1f7f83070023097", "fusion_lon": 0.0, "lat": 38.92283066666667, "is_reserved": 0, "type": "electric_scooter", "bike_id": "3965c1b2957ec367c1f7f83070023097", "is_disabled": 0, "rental_uris": {"android": "https://dc.lft.to/lastmile_qr_scan", "ios": "https://dc.lft.to/lastmile_qr_scan"}, "lon": -77.03633083333334, "fusion_lat": 0.0}, {"name": "c737177cddba07344b3823924608b4c8", "fusion_lon": 0.0, "lat": 38.9145645, "is_reserved": 0, "type": "electric_scooter", "bike_id": "c737177cddba07344b3823924608b4c8", "is_disabled": 0, "rental_uris": {"android": "https://dc.lft.to/lastmile_qr_scan", "ios": "https://dc.lft.to/lastmile_qr_scan"}, "lon": -77.07128966666667, "fusion_lat": 0.0}, {"name": "b4fac9668dae79106ab4a19bca6c5edf", "fusion_lon": 0.0, "lat": 38.88459433333333, "is_reserved": 0, "type": "electric_scooter", "bike_id": "b4fac9668dae79106ab4a19bca6c5edf", "is_disabled": 0, "rental_uris": {"android": "https://dc.lft.to/lastmile_qr_scan", "ios": "https://dc.lft.to/lastmile_qr_scan"}, "lon": -76.95742683333333, "fusion_lat": 0.0}, {"name": "777af64bb2bb4e67b9a9f6fda981246d", "fusion_lon": 0.0, "lat": 38.926607, "is_reserved": 0, "type": "electric_scooter", "bike_id": "777af64bb2bb4e67b9a9f6fda981246d", "is_disabled": 0, "rental_uris": {"android": "https://dc.lft.to/lastmile_qr_scan", "ios": "https://dc.lft.to/lastmile_qr_scan"}, "lon": -77.0086735, "fusion_lat": 0.0}, {"name": "31955c871bb2274e4c5a80f8e71ead05", "fusion_lon": 0.0, "lat": 39.03434583333333, "is_reserved": 0, "type": "electric_bike", "bike_id": "31955c871bb2274e4c5a80f8e71ead05", "is_disabled": 0, "rental_uris": {"android": "https://dc.lft.to/lastmile_qr_scan", "ios": "https://dc.lft.to/lastmile_qr_scan"}, "lon": -77.04240233333333, "fusion_lat": 0.0}, {"name": "2e3425bc24ff7c4d0fcec77f4e470e80", "fusion_lon": 0.0, "lat": 38.914051, "is_reserved": 0, "type": "electric_scooter", "bike_id": "2e3425bc24ff7c4d0fcec77f4e470e80", "is_disabled": 0, "rental_uris": {"android": "https://dc.lft.to/lastmile_qr_scan", "ios": "https://dc.lft.to/lastmile_qr_scan"}, "lon": -77.03220883333333, "fusion_lat": 0.0}, {"name": "993b35d97c306721da561dcd2dac457b", "fusion_lon": 0.0, "lat": 38.8813215, "is_reserved": 0, "type": "electric_scooter", "bike_id": "993b35d97c306721da561dcd2dac457b", "is_disabled": 0, "rental_uris": {"android": "https://dc.lft.to/lastmile_qr_scan", "ios": "https://dc.lft.to/lastmile_qr_scan"}, "lon": -76.99573283333334, "fusion_lat": 0.0}, {"name": "0aad9ffdc75c059e92bb0933a75a8ebb", "fusion_lon": 0.0, "lat": 38.9240875, "is_reserved": 0, "type": "electric_scooter", "bike_id": "0aad9ffdc75c059e92bb0933a75a8ebb", "is_disabled": 0, "rental_uris": {"android": "https://dc.lft.to/lastmile_qr_scan", "ios": "https://dc.lft.to/lastmile_qr_scan"}, "lon": -77.022684, "fusion_lat": 0.0}, {"name": "931d21f6b714b7aa2817de10aa278f25", "fusion_lon": 0.0, "lat": 38.87968083333333, "is_reserved": 0, "type": "electric_bike", "bike_id": "931d21f6b714b7aa2817de10aa278f25", "is_disabled": 0, "rental_uris": {"android": "https://dc.lft.to/lastmile_qr_scan", "ios": "https://dc.lft.to/lastmile_qr_scan"}, "lon": -76.91604333333333, "fusion_lat": 0.0}, {"name": "f5d15d8587169723d40f89eae6334889", "fusion_lon": 0.0, "lat": 39.054955666666665, "is_reserved": 0, "type": "electric_bike", "bike_id": "f5d15d8587169723d40f89eae6334889", "is_disabled": 0, "rental_uris": {"android": "https://dc.lft.to/lastmile_qr_scan", "ios": "https://dc.lft.to/lastmile_qr_scan"}, "lon": -77.117849, "fusion_lat": 0.0}, {"name": "ce118e99dd020c6ba3131a75911ccbd0", "fusion_lon": 0.0, "lat": 38.90468, "is_reserved": 0, "type": "electric_scooter", "bike_id": "ce118e99dd020c6ba3131a75911ccbd0", "is_disabled": 0, "rental_uris": {"android": "https://dc.lft.to/lastmile_qr_scan", "ios": "https://dc.lft.to/lastmile_qr_scan"}, "lon": -77.0269315, "fusion_lat": 0.0}, {"name": "833b2461dff97685661ee813f0514c64", "fusion_lon": 0.0, "lat": 38.90008783333333, "is_reserved": 0, "type": "electric_scooter", "bike_id": "833b2461dff97685661ee813f0514c64", "is_disabled": 0, "rental_uris": {"android": "https://dc.lft.to/lastmile_qr_scan", "ios": "https://dc.lft.to/lastmile_qr_scan"}, "lon": -76.99344733333334, "fusion_lat": 0.0}, {"name": "4ed5197cd91b3fd82c409f6d74ca77a7", "fusion_lon": 0.0, "lat": 38.89543333333334, "is_reserved": 0, "type": "electric_scooter", "bike_id": "4ed5197cd91b3fd82c409f6d74ca77a7", "is_disabled": 0, "rental_uris": {"android": "https://dc.lft.to/lastmile_qr_scan", "ios": "https://dc.lft.to/lastmile_qr_scan"}, "lon": -77.0566285, "fusion_lat": 0.0}, {"name": "c841f144401c97b35232757496b72d35", "fusion_lon": 0.0, "lat": 38.91064883333333, "is_reserved": 0, "type": "electric_scooter", "bike_id": "c841f144401c97b35232757496b72d35", "is_disabled": 0, "rental_uris": {"android": "https://dc.lft.to/lastmile_qr_scan", "ios": "https://dc.lft.to/lastmile_qr_scan"}, "lon": -77.07409516666667, "fusion_lat": 0.0}, {"name": "2133b0e25b523d3fbc808003ecf4f470", "fusion_lon": 0.0, "lat": 38.90215533333333, "is_reserved": 0, "type": "electric_scooter", "bike_id": "2133b0e25b523d3fbc808003ecf4f470", "is_disabled": 0, "rental_uris": {"android": "https://dc.lft.to/lastmile_qr_scan", "ios": "https://dc.lft.to/lastmile_qr_scan"}, "lon": -77.02169033333334, "fusion_lat": 0.0}, {"name": "109be1e6b56db14844606a03fcffd2b3", "fusion_lon": 0.0, "lat": 38.908490666666665, "is_reserved": 0, "type": "electric_scooter", "bike_id": "109be1e6b56db14844606a03fcffd2b3", "is_disabled": 0, "rental_uris": {"android": "https://dc.lft.to/lastmile_qr_scan", "ios": "https://dc.lft.to/lastmile_qr_scan"}, "lon": -77.01012833333333, "fusion_lat": 0.0}, {"name": "50af39ca1ad2ca6ebb6110cf61d5af83", "fusion_lon": 0.0, "lat": 38.92057483333333, "is_reserved": 0, "type": "electric_scooter", "bike_id": "50af39ca1ad2ca6ebb6110cf61d5af83", "is_disabled": 0, "rental_uris": {"android": "https://dc.lft.to/lastmile_qr_scan", "ios": "https://dc.lft.to/lastmile_qr_scan"}, "lon": -77.034675, "fusion_lat": 0.0}, {"name": "0fea0fb6c4e9b765f646f51dabd847d1", "fusion_lon": 0.0, "lat": 38.9388145, "is_reserved": 0, "type": "electric_scooter", "bike_id": "0fea0fb6c4e9b765f646f51dabd847d1", "is_disabled": 0, "rental_uris": {"android": "https://dc.lft.to/lastmile_qr_scan", "ios": "https://dc.lft.to/lastmile_qr_scan"}, "lon": -77.0247895, "fusion_lat": 0.0}, {"name": "7892d26049077f964dcec392f106752f", "fusion_lon": 0.0, "lat": 38.94282666666667, "is_reserved": 0, "type": "electric_bike", "bike_id": "7892d26049077f964dcec392f106752f", "is_disabled": 0, "rental_uris": {"android": "https://dc.lft.to/lastmile_qr_scan", "ios": "https://dc.lft.to/lastmile_qr_scan"}, "lon": -76.98784633333334, "fusion_lat": 0.0}, {"name": "9905a240a23a13dce3e24c3549c5e0da", "fusion_lon": 0.0, "lat": 38.88238716666667, "is_reserved": 0, "type": "electric_scooter", "bike_id": "9905a240a23a13dce3e24c3549c5e0da", "is_disabled": 0, "rental_uris": {"android": "https://dc.lft.to/lastmile_qr_scan", "ios": "https://dc.lft.to/lastmile_qr_scan"}, "lon": -77.00858033333333, "fusion_lat": 0.0}, {"name": "dc3f3be7f42b96a84dc460953ffab3a5", "fusion_lon": 0.0, "lat": 38.92317116666667, "is_reserved": 0, "type": "electric_scooter", "bike_id": "dc3f3be7f42b96a84dc460953ffab3a5", "is_disabled": 0, "rental_uris": {"android": "https://dc.lft.to/lastmile_qr_scan", "ios": "https://dc.lft.to/lastmile_qr_scan"}, "lon": -77.0417515, "fusion_lat": 0.0}, {"name": "518c1447b87673de8c101474f1aafad8", "fusion_lon": 0.0, "lat": 38.91777283333333, "is_reserved": 0, "type": "electric_scooter", "bike_id": "518c1447b87673de8c101474f1aafad8", "is_disabled": 0, "rental_uris": {"android": "https://dc.lft.to/lastmile_qr_scan", "ios": "https://dc.lft.to/lastmile_qr_scan"}, "lon": -77.01790233333334, "fusion_lat": 0.0}, {"name": "62573226b54d97e1b5948f4e558dfcaa", "fusion_lon": 0.0, "lat": 38.911004166666665, "is_reserved": 0, "type": "electric_scooter", "bike_id": "62573226b54d97e1b5948f4e558dfcaa", "is_disabled": 0, "rental_uris": {"android": "https://dc.lft.to/lastmile_qr_scan", "ios": "https://dc.lft.to/lastmile_qr_scan"}, "lon": -77.04805083333333, "fusion_lat": 0.0},