{"data": {"bikes": [{"type": "electric_bike", "fusion_lon": 0.0, "bike_id": "64aeea86d04e20789402fa1afbdb3c64", "is_disabled": 0, "lat": 38.807368333333336, "rental_uris": {"ios": "https://dc.lft.to/lastmile_qr_scan", "android": "https://dc.lft.to/lastmile_qr_scan"}, "is_reserved": 0, "lon": -77.09724766666666, "fusion_lat": 0.0, "name": "64aeea86d04e20789402fa1afbdb3c64"}, {"type": "electric_scooter", "fusion_lon": 0.0, "bike_id": "bead663af26e392cbf136a0c48c97985", "is_disabled": 0, "lat": 38.93300983333334, "rental_uris": {"ios": "https://dc.lft.to/lastmile_qr_scan", "android": "https://dc.lft.to/lastmile_qr_scan"}, "is_reserved": 0, "lon": -77.0326495, "fusion_lat": 0.0, "name": "bead663af26e392cbf136a0c48c97985"}, {"type": "electric_scooter", "fusion_lon": 0.0, "bike_id": "0fb825f4e5b7845f29f65e2cb69fe3dd", "is_disabled": 0, "lat": 38.9170395, "rental_uris": {"ios": "https://dc.lft.to/lastmile_qr_scan", "android": "https://dc.lft.to/lastmile_qr_scan"}, "is_reserved": 0, "lon": -77.03467933333333, "fusion_lat": 0.0, "name": "0fb825f4e5b7845f29f65e2cb69fe3dd"}, {"type": "electric_scooter", "fusion_lon": 0.0, "bike_id": "7f4195c19fc4ab150f51a50f28917a1a", "is_disabled": 0, "lat": 38.9161395, "rental_uris": {"ios": "https://dc.lft.to/lastmile_qr_scan", "android": "https://dc.lft.to/lastmile_qr_scan"}, "is_reserved": 0, "lon": -77.04881333333333, "fusion_lat": 0.0, "name": "7f4195c19fc4ab150f51a50f28917a1a"}, {"type": "electric_bike", "fusion_lon": 0.0, "bike_id": "c2d34c6388c73f5f409c0779a2aaf6e0", "is_disabled": 0, "lat": 38.86262266666667, "rental_uris": {"ios": "https://dc.lft.to/lastmile_qr_scan", "android": "https://dc.lft.to/lastmile_qr_scan"}, "is_reserved": 0, "lon": -76.98360433333333, "fusion_lat": 0.0, "name": "c2d34c6388c73f5f409c0779a2aaf6e0"}, {"type": "electric_scooter", "fusion_lon": 0.0, "bike_id": "5f376bbe15d2b5105a5e5bce633effc4", "is_disabled": 0, "lat": 38.881775166666664, "rental_uris": {"ios": "https://dc.lft.to/lastmile_qr_scan", "android": "https://dc.lft.to/lastmile_qr_scan"}, "is_reserved": 0, "lon": -77.02196066666667, "fusion_lat": 0.0, "name": "5f376bbe15d2b5105a5e5bce633effc4"}, {"type": "electric_scooter", "fusion_lon": 0.0, "bike_id": "93139df2fd8aa7345087d595e31a0447", "is_disabled": 0, "lat": 38.903767, "rental_uris": {"ios": "https://dc.lft.to/lastmile_qr_scan", "android": "https://dc.lft.to/lastmile_qr_scan"}, "is_reserved": 0, "lon": -77.0184105, "fusion_lat": 0.0, "name": "93139df2fd8aa7345087d595e31a0447"}, {"type": "electric_scooter", "fusion_lon": 0.0, "bike_id": "fd52e47122fd3bf9b6fbc2ff6963469a", "is_disabled": 0, "lat": 38.9384815, "rental_uris": {"ios": "https://dc.lft.to/lastmile_qr_scan", "android": "https://dc.lft.to/lastmile_qr_scan"}, "is_reserved": 0, "lon": -77.03388933333333, "fusion_lat": 0.0, "name": "fd52e47122fd3bf9b6fbc2ff6963469a"}, {"type": "electric_scooter", "fusion_lon": 0.0, "bike_id": "dd38fb773378c82b419c6722b36c244a", "is_disabled": 0, "lat": 38.9181205, "rental_uris": {"ios": "https://dc.lft.to/lastmile_qr_scan", "android": "https://dc.lft.to/lastmile_qr_scan"}, "is_reserved": 0, "lon": -77.00577983333334, "fusion_lat": 0.0, "name": "dd38fb773378c82b419c6722b36c244a"}, {"type": "electric_scooter", "fusion_lon": 0.0, "bike_id": "e3ceadc95bfa8c73c054e91588299c96", "is_disabled": 0, "lat": 38.885163166666665, "rental_uris": {"ios": "https://dc.lft.to/lastmile_qr_scan", "android": "https://dc.lft.to/lastmile_qr_scan"}, "is_reserved": 0, "lon": -77.02823416666666, "fusion_lat": 0.0, "name": "e3ceadc95bfa8c73c054e91588299c96"}, {"type": "electric_scooter", "fusion_lon": 0.0, "bike_id": "ce297af6325bd421d9f49b22d4db0851", "is_disabled": 0, "lat": 38.9175785, "rental_uris": {"ios": "https://dc.lft.to/lastmile_qr_scan", "android": "https://dc.lft.to/lastmile_qr_scan"}, "is_reserved": 0, "lon": -77.04066433333334, "fusion_lat": 0.0, "name": "ce297af6325bd421d9f49b22d4db0851"}, {"type": "electric_scooter", "fusion_lon": 0.0, "bike_id": "46240503488cbb5f3a009fcaa35f1049", "is_disabled": 0, "lat": 38.90764566666667, "rental_uris": {"ios": "https://dc.lft.to/lastmile_qr_scan", "android": "https://dc.lft.to/lastmile_qr_scan"}, "is_reserved": 0, "lon": -77.00922816666667, "fusion_lat": 0.0, "name": "46240503488cbb5f3a009fcaa35f1049"}, {"type": "electric_scooter", "fusion_lon": 0.0, "bike_id": "931c7adfb38e64c45a2cc85a948308e2", "is_disabled": 0, "lat": 38.92063, "rental_uris": {"ios": "https://dc.lft.to/lastmile_qr_scan", "android": "https://dc.lft.to/lastmile_qr_scan"}, "is_reserved": 0, "lon": -77.02950766666666, "fusion_lat": 0.0, "name": "931c7adfb38e64c45a2cc85a948308e2"}, {"type": "electric_scooter", "fusion_lon": 0.0, "bike_id": "1bd5228a007fa1b4fddcd8f261811c7b", "is_disabled": 0, "lat": 38.9190425, "rental_uris": {"ios": "https://dc.lft.to/lastmile_qr_scan", "android": "https://dc.lft.to/lastmile_qr_scan"}, "is_reserved": 0, "lon": -77.03371583333333, "fusion_lat": 0.0, "name": "1bd5228a007fa1b4fddcd8f261811c7b"}, {"type": "electric_scooter", "fusion_lon": 0.0, "bike_id": "5e3740e78dd565a79925a965865c4991", "is_disabled": 0, "lat": 38.9279005, "rental_uris": {"ios": "https://dc.lft.to/lastmile_qr_scan", "android": "https://dc.lft.to/lastmile_qr_scan"}, "is_reserved": 0, "lon": -77.023902, "fusion_lat": 0.0, "name": "5e3740e78dd565a79925a965865c4991"}, {"type": "electric_scooter", "fusion_lon": 0.0, "bike_id": "7294fabe332a66283e5019f11f2b507d", "is_disabled": 0, "lat": 38.8921855, "rental_uris": {"ios": "https://dc.lft.to/lastmile_qr_scan", "android": "https://dc.lft.to/lastmile_qr_scan"}, "is_reserved": 0, "lon": -77.02013633333334, "fusion_lat": 0.0, "name": "7294fabe332a66283e5019f11f2b507d"}, {"type": "electric_scooter", "fusion_lon": 0.0, "bike_id": "e7cad0f2a0ac5d5fc07b4b19b473d80e", "is_disabled": 0, "lat": 38.920703833333334, "rental_uris": {"ios": "https://dc.lft.to/lastmile_qr_scan", "android": "https://dc.lft.to/lastmile_qr_scan"}, "is_reserved": 0, "lon": -77.02499816666666, "fusion_lat": 0.0, "name": "e7cad0f2a0ac5d5fc07b4b19b473d80e"}, {"type": "electric_bike", "fusion_lon": 0.0, "bike_id": "d0f307c793173ab61c2c2939e4794bca", "is_disabled": 0, "lat": 38.863239166666666, "rental_uris": {"ios": "https://dc.lft.to/lastmile_qr_scan", "android": "https://dc.lft.to/lastmile_qr_scan"}, "is_reserved": 0, "lon": -76.9872445, "fusion_lat": 0.0, "name": "d0f307c793173ab61c2c2939e4794bca"}, {"type": "electric_scooter", "fusion_lon": 0.0, "bike_id": "4fa2122c14b7a05dd4683cb18413f158", "is_disabled": 0, "lat": 38.92819883333333, "rental_uris": {"ios": "https://dc.lft.to/lastmile_qr_scan", "android": "https://dc.lft.to/lastmile_qr_scan"}, "is_reserved": 0, "lon": -77.02261566666667, "fusion_lat": 0.0, "name": "4fa2122c14b7a05dd4683cb18413f158"}, {"type": "electric_scooter", "fusion_lon": 0.0, "bike_id": "23b0519a815fdd34e0bb07920f46753d", "is_disabled": 0, "lat": 38.909797, "rental_uris": {"ios": "https://dc.lft.to/lastmile_qr_scan", "android": "https://dc.lft.to/lastmile_qr_scan"}, "is_reserved": 0, "lon": -77.0344315, "fusion_lat": 0.0, "name": "23b0519a815fdd34e0bb07920f46753d"}, {"type": "electric_scooter", "fusion_lon": 0.0, "bike_id": "cdc7ccf5b37bb54231aa6d793ad7bd88", "is_disabled": 0, "lat": 38.92268216666667, "rental_uris": {"ios": "https://dc.lft.to/lastmile_qr_scan", "android": "https://dc.lft.to/lastmile_qr_scan"}, "is_reserved": 0, "lon": -77.01918516666667, "fusion_lat": 0.0, "name": "cdc7ccf5b37bb54231aa6d793ad7bd88"}, {"type": "electric_scooter", "fusion_lon": 0.0, "bike_id": "a4bdab82c3781d3ea432377c9f449fc5", "is_disabled": 0, "lat": 38.90970166666666, "rental_uris": {"ios": "https://dc.lft.to/lastmile_qr_scan", "android": "https://dc.lft.to/lastmile_qr_scan"}, "is_reserved": 0, "lon": -77.03846133333333, "fusion_lat": 0.0, "name": "a4bdab82c3781d3ea432377c9f449fc5"}, {"type": "electric_scooter", "fusion_lon": 0.0, "bike_id": "f80e7e75e8d85c6eb20e93a7c699ee62", "is_disabled": 0, "lat": 38.8935915, "rental_uris": {"ios": "https://dc.lft.to/lastmile_qr_scan", "android": "https://dc.lft.to/lastmile_qr_scan"}, "is_reserved": 0, "lon": -76.98659133333334, "fusion_lat": 0.0, "name": "f80e7e75e8d85c6eb20e93a7c699ee62"}, {"type": "electric_scooter", "fusion_lon": 0.0, "bike_id": "1c2c9355c57880a35f519453c1d8e36e", "is_disabled": 0, "lat": 38.90846033333333, "rental_uris": {"ios": "https://dc.lft.to/lastmile_qr_scan", "android": "https://dc.lft.to/lastmile_qr_scan"}, "is_reserved": 0, "lon": -77.03634883333334, "fusion_lat": 0.0, "name": "1c2c9355c57880a35f519453c1d8e36e"}, {"type": "electric_scooter", "fusion_lon": 0.0, "bike_id": "e582038d3ebffc9594a41630a2ec74bf", "is_disabled": 0, "lat": 38.89222516666667, "rental_uris": {"ios": "https://dc.lft.to/lastmile_qr_scan", "android": "https://dc.lft.to/lastmile_qr_scan"}, "is_reserved": 0, "lon": -77.0486025, "fusion_lat": 0.0, "name": "e582038d3ebffc9594a41630a2ec74bf"}, {"type": "electric_scooter", "fusion_lon": 0.0, "bike_id": "89051dd8375fc08c14841aafc80de38e", "is_disabled": 0, "lat": 38.91947566666666, "rental_uris": {"ios": "https://dc.lft.to/lastmile_qr_scan", "android": "https://dc.lft.to/lastmile_qr_scan"}, "is_reserved": 0, "lon": -77.024939, "fusion_lat": 0.0, "name": "89051dd8375fc08c14841aafc80de38e"}, {"type": "electric_scooter", "fusion_lon": 0.0, "bike_id": "59433120beab0d160e23db754343f4f5", "is_disabled": 0, "lat": 38.92003066666667, "rental_uris": {"ios": "https://dc.lft.to/lastmile_qr_scan", "android": "https://dc.lft.to/lastmile_qr_scan"}, "is_reserved": 0, "lon": -77.031487, "fusion_lat": 0.0, "name": "59433120beab0d160e23db754343f4f5"}, {"type": "electric_scooter", "fusion_lon": 0.0, "bike_id": "bd774cdc493791dab625f4d236d1b50f", "is_disabled": 0, "lat": 38.924591666666664, "rental_uris": {"ios": "https://dc.lft.to/lastmile_qr_scan", "android": "https://dc.lft.to/lastmile_qr_scan"}, "is_reserved": 0, "lon": -77.03295233333333, "fusion_lat": 0.0, "name": "bd774cdc493791dab625f4d236d1b50f"}, {"type": "electric_scooter", "fusion_lon": 0.0, "bike_id": "76428e86118991126a8ff375361c7059", "is_disabled": 0, "lat": 38.88678183333333, "rental_uris": {"ios": "https://dc.lft.to/lastmile_qr_scan", "android": "https://dc.lft.to/lastmile_qr_scan"}, "is_reserved": 0, "lon": -77.00200816666667, "fusion_lat": 0.0, "name": "76428e86118991126a8ff375361c7059"}, {"type": "electric_scooter", "fusion_lon": 0.0, "bike_id": "9d12d0cba3d0ba80a08749c9875c889b", "is_disabled": 0, "lat": 38.920499, "rental_uris": {"ios": "https://dc.lft.to/lastmile_qr_scan", "android": "https://dc.lft.to/lastmile_qr_scan"}, "is_reserved": 0, "lon": -77.02450566666667, "fusion_lat": 0.0, "name": "9d12d0cba3d0ba80a08749c9875c889b"}, {"type": "electric_scooter", "fusion_lon": 0.0, "bike_id": "05b2d2c944ff822ce238ca4f9aa160af", "is_disabled": 0, "lat": 38.95800466666667, "rental_uris": {"ios": "https://dc.lft.to/lastmile_qr_scan", "android": "https://dc.lft.to/lastmile_qr_scan"}, "is_reserved": 0, "lon": -77.015143, "fusion_lat": 0.0, "name": "05b2d2c944ff822ce238ca4f9aa160af"}, {"type": "electric_scooter", "fusion_lon": 0.0, "bike_id": "e45a0e2db011ec9194c3df67de7c7efc", "is_disabled": 0, "lat": 38.885026833333335, "rental_uris": {"ios": "https://dc.lft.to/lastmile_qr_scan", "android": "https://dc.lft.to/lastmile_qr_scan"}, "is_reserved": 0, "lon": -77.02088966666666, "fusion_lat": 0.0, "name": "e45a0e2db011ec9194c3df67de7c7efc"}, {"type": "electric_scooter", "fusion_lon": 0.0, "bike_id": "843aa27324f096fb97c84579df20efc9", "is_disabled": 0, "lat": 38.92013633333333, "rental_uris": {"ios": "https://dc.lft.to/lastmile_qr_scan", "android": "https://dc.lft.to/lastmile_qr_scan"}, "is_reserved": 0, "lon": -77.03220883333333, "fusion_lat": 0.0, "name": "843aa27324f096fb97c84579df20efc9"}, {"type": "electric_scooter", "fusion_lon": 0.0, "bike_id": "14d3d9a8a6bfb8fc5dfce1af1a74b304", "is_disabled": 0, "lat": 38.9172185, "rental_uris": {"ios": "https://dc.lft.to/lastmile_qr_scan", "android": "https://dc.lft.to/lastmile_qr_scan"}, "is_reserved": 0, "lon": -77.04598016666667, "fusion_lat": 0.0, "name": "14d3d9a8a6bfb8fc5dfce1af1a74b304"}, {"type": "electric_scooter", "fusion_lon": 0.0, "bike_id": "5f7127ad80cc1aa9aba316b35872dd9e", "is_disabled": 0, "lat": 38.87853783333333, "rental_uris": {"ios": "https://dc.lft.to/lastmile_qr_scan", "android": "https://dc.lft.to/lastmile_qr_scan"}, "is_reserved": 0, "lon": -77.00609766666666, "fusion_lat": 0.0, "name": "5f7127ad80cc1aa9aba316b35872dd9e"}, {"type": "electric_scooter", "fusion_lon": 0.0, "bike_id": "82cd56252531b6fc5fcc638a680a0181", "is_disabled": 0, "lat": 38.92263466666667, "rental_uris": {"ios": "https://dc.lft.to/lastmile_qr_scan", "android": "https://dc.lft.to/lastmile_qr_scan"}, "is_reserved": 0, "lon": -77.03666416666667, "fusion_lat": 0.0, "name": "82cd56252531b6fc5fcc638a680a0181"}, {"type": "electric_scooter", "fusion_lon": 0.0, "bike_id": "ee440525b39ea5477a165b65088cd5b6", "is_disabled": 0, "lat": 38.92076683333333, "rental_uris": {"ios": "https://dc.lft.to/lastmile_qr_scan", "android": "https://dc.lft.to/lastmile_qr_scan"}, "is_reserved": 0, "lon": -77.0252795, "fusion_lat": 0.0, "name": "ee440525b39ea5477a165b65088cd5b6"}, {"type": "electric_scooter", "fusion_lon": 0.0, "bike_id": "ebd2ae9c3c96a052f8d7b4c6bf1adbfd", "is_disabled": 0, "lat": 38.86215816666667, "rental_uris": {"ios": "https://dc.lft.to/lastmile_qr_scan", "android": "https://dc.lft.to/lastmile_qr_scan"}, "is_reserved": 0, "lon": -76.99479333333333, "fusion_lat": 0.0, "name": "ebd2ae9c3c96a052f8d7b4c6bf1adbfd"}, {"type": "electric_scooter", "fusion_lon": 0.0, "bike_id": "14b0b571a1cff5730cfb9cc85d01bf38", "is_disabled": 0, "lat": 38.8849015, "rental_uris": {"ios": "https://dc.lft.to/lastmile_qr_scan", "android": "https://dc.lft.to/lastmile_qr_scan"}, "is_reserved": 0, "lon": -77.03479416666667, "fusion_lat": 0.0, "name": "14b0b571a1cff5730cfb9cc85d01bf38"}, {"type": "electric_scooter", "fusion_lon": 0.0, "bike_id": "79aa2805c75b2c886cc168a61553870f", "is_disabled": 0, "lat": 38.9417915, "rental_uris": {"ios": "https://dc.lft.to/lastmile_qr_scan", "android": "https://dc.lft.to/lastmile_qr_scan"}, "is_reserved": 0, "lon": -76.99441283333333, "fusion_lat": 0.0, "name": "79aa2805c75b2c886cc168a61553870f"}, {"type": "electric_scooter", "fusion_lon": 0.0, "bike_id": "e4b5209ddbe7b484ef38344f01789b0f", "is_disabled": 0, "lat": 38.894902, "rental_uris": {"ios": "https://dc.lft.to/lastmile_qr_scan", "android": "https://dc.lft.to/lastmile_qr_scan"}, "is_reserved": 0, "lon": -77.02315116666666, "fusion_lat": 0.0, "name": "e4b5209ddbe7b484ef38344f01789b0f"}, {"type": "electric_scooter", "fusion_lon": 0.0, "bike_id": "33ce7caedfadd096c82bd200bdff9e68", "is_disabled": 0, "lat": 38.91849066666666, "rental_uris": {"ios": "https://dc.lft.to/lastmile_qr_scan", "android": "https://dc.lft.to/lastmile_qr_scan"}, "is_reserved": 0, "lon": -76.96552333333334, "fusion_lat": 0.0, "name": "33ce7caedfadd096c82bd200bdff9e68"}, {"type": "electric_scooter", "fusion_lon": 0.0, "bike_id": "1a01e1e6ea9533a0cb206257e9c4504c", "is_disabled": 0, "lat": 38.92485166666667, "rental_uris": {"ios": "https://dc.lft.to/lastmile_qr_scan", "android": "https://dc.lft.to/lastmile_qr_scan"}, "is_reserved": 0, "lon": -77.03179383333334, "fusion_lat": 0.0, "name": "1a01e1e6ea9533a0cb206257e9c4504c"}, {"type": "electric_scooter", "fusion_lon": 0.0, "bike_id": "73dbe28f8a62c79c6708f79824ad22c5", "is_disabled": 0, "lat": 38.9102275, "rental_uris": {"ios": "https://dc.lft.to/lastmile_qr_scan", "android": "https://dc.lft.to/lastmile_qr_scan"}, "is_reserved": 0, "lon": -77.04329566666667, "fusion_lat": 0.0, "name": "73dbe28f8a62c79c6708f79824ad22c5"}, {"type": "electric_scooter", "fusion_lon": 0.0, "bike_id": "ec12b1c8c225e6acc2d285d433f53770", "is_disabled": 0, "lat": 38.872896833333336, "rental_uris": {"ios": "https://dc.lft.to/lastmile_qr_scan", "android": "https://dc.lft.to/lastmile_qr_scan"}, "is_reserved": 0, "lon": -77.009851, "fusion_lat": 0.0, "name": "ec12b1c8c225e6acc2d285d433f53770"}, {"type": "electric_scooter", "fusion_lon": 0.0, "bike_id": "c9caab789b88160f882c32f83e3a5051", "is_disabled": 0, "lat": 38.908373166666664, "rental_uris": {"ios": "https://dc.lft.to/lastmile_qr_scan", "android": "https://dc.lft.to/lastmile_qr_scan"}, "is_reserved": 0, "lon": -77.04340083333334, "fusion_lat": 0.0, "name": "c9caab789b88160f882c32f83e3a5051"}, {"type": "electric_bike", "fusion_lon": 0.0, "bike_id": "e25be59dbed944851f5cd7cd8fa32d4b", "is_disabled": 0, "lat": 38.856188833333334, "rental_uris": {"ios": "https://dc.lft.to/lastmile_qr_scan", "android": "https://dc.lft.to/lastmile_qr_scan"}, "is_reserved": 0, "lon": -76.96160033333334, "fusion_lat": 0.0, "name": "e25be59dbed944851f5cd7cd8fa32d4b"}, {"type": "electric_scooter", "fusion_lon": 0.0, "bike_id": "fbad2881125efc2d6777c2683cad7baa", "is_disabled": 0, "lat": 38.927149666666665, "rental_uris": {"ios": "https://dc.lft.to/lastmile_qr_scan", "android": "https://dc.lft.to/lastmile_qr_scan"}, "is_reserved": 0, "lon": -77.02086733333333, "fusion_lat": 0.0, "name": "fbad2881125efc2d6777c2683cad7baa"}, {"type": "electric_scooter", "fusion_lon": 0.0, "bike_id": "f049cdbe03a73f007728aea60b116c51", "is_disabled": 0, "lat": 38.906309666666665, "rental_uris": {"ios": "https://dc.lft.to/lastmile_qr_scan", "android": "https://dc.lft.to/lastmile_qr_scan"}, "is_reserved": 0, "lon": -77.04673933333333, "fusion_lat": 0.0, "name": "f049cdbe03a73f007728aea60b116c51"}, {"type": "electric_scooter", "fusion_lon": 0.0, "bike_id": "0e4520f540810dc34cce8ff3d389abed", "is_disabled": 0, "lat": 38.9001315, "rental_uris": {"ios": "https://dc.lft.to/lastmile_qr_scan", "android": "https://dc.lft.to/lastmile_qr_scan"}, "is_reserved": 0, "lon": -77.012621, "fusion_lat": 0.0, "name": "0e4520f540810dc34cce8ff3d389abed"}, {"type": "electric_scooter", "fusion_lon": 0.0, "bike_id": "bfbfda003af8e0f0fd94439c25652314", "is_disabled": 0, "lat": 38.913917, "rental_uris": {"ios": "https://dc.lft.to/lastmile_qr_scan", "android": "https://dc.lft.to/lastmile_qr_scan"}, "is_reserved": 0, "lon": -77.034486, "fusion_lat": 0.0, "name": "bfbfda003af8e0f0fd94439c25652314"}, {"type": "electric_scooter", "fusion_lon": 0.0, "bike_id": "7cb6c900f4a6b7061d651dff30df326c", "is_disabled": 0, "lat": 38.927646833333334, "rental_uris": {"ios": "https://dc.lft.to/lastmile_qr_scan", "android": "https://dc.lft.to/lastmile_qr_scan"}, "is_reserved": 0, "lon": -77.0324375, "fusion_lat": 0.0, "name": "7cb6c900f4a6b7061d651dff30df326c"}, {"type": "electric_scooter", "fusion_lon": 0.0, "bike_id": "0a4a8b231e407d5941ca5f3be22ec1b2", "is_disabled": 0, "lat": 38.919326833333336, "rental_uris": {"ios": "https://dc.lft.to/lastmile_qr_scan", "android": "https://dc.lft.to/lastmile_qr_scan"}, "is_reserved": 0, "lon": -77.02466233333334, "fusion_lat": 0.0, "name": "0a4a8b231e407d5941ca5f3be22ec1b2"}, {"type": "electric_scooter", "fusion_lon": 0.0, "bike_id": "5187173cf4804f59dd7715a15e4917de", "is_disabled": 0, "lat": 38.92716016666667, "rental_uris": {"ios": "https://dc.lft.to/lastmile_qr_scan", "android": "https://dc.lft.to/lastmile_qr_scan"}, "is_reserved": 0, "lon": -77.02073133333333, "fusion_lat": 0.0, "name": "5187173cf4804f59dd7715a15e4917de"}, {"type": "electric_scooter", "fusion_lon": 0.0, "bike_id": "bccdfb255deb160e248a7073a42938be", "is_disabled": 0, "lat": 38.9134465, "rental_uris": {"ios": "https://dc.lft.to/lastmile_qr_scan", "android": "https://dc.lft.to/lastmile_qr_scan"}, "is_reserved": 0, "lon": -77.0149875, "fusion_lat": 0.0, "name": "bccdfb255deb160e248a7073a42938be"}, {"type": "electric_scooter", "fusion_lon": 0.0, "bike_id": "712f7da1d1dcb2532d60e0e29ad26a10", "is_disabled": 0, "lat": 38.874036833333335, "rental_uris": {"ios": "https://dc.lft.to/lastmile_qr_scan", "android": "https://dc.lft.to/lastmile_qr_scan"}, "is_reserved": 0, "lon": -77.00203383333333, "fusion_lat": 0.0, "name": "712f7da1d1dcb2532d60e0e29ad26a10"}, {"type": "electric_scooter", "fusion_lon": 0.0, "bike_id": "110a0508cdebf5be5f439eb10e542c9d", "is_disabled": 0, "lat": 38.88560583333334, "rental_uris": {"ios": "https://dc.lft.to/lastmile_qr_scan", "android": "https://dc.lft.to/lastmile_qr_scan"}, "is_reserved": 0, "lon": -76.99800083333334, "fusion_lat": 0.0, "name": "110a0508cdebf5be5f439eb10e542c9d"}, {"type": "electric_scooter", "fusion_lon": 0.0, "bike_id": "0f0830c958477c67ccf1b39b32b90a85", "is_disabled": 0, "lat": 38.89835516666667, "rental_uris": {"ios": "https://dc.lft.to/lastmile_qr_scan", "android": "https://dc.lft.to/lastmile_qr_scan"}, "is_reserved": 0, "lon": -77.028039, "fusion_lat": 0.0, "name": "0f0830c958477c67ccf1b39b32b90a85"}, {"type": "electric_scooter", "fusion_lon": 0.0, "bike_id": "f9366b8dfa5b41d97094d558a3a49302", "is_disabled": 0, "lat": 38.899771333333334, "rental_uris": {"ios": "https://dc.lft.to/lastmile_qr_scan", "android": "https://dc.lft.to/lastmile_qr_scan"}, "is_reserved": 0, "lon": -76.99261466666667, "fusion_lat": 0.0, "name": "f9366b8dfa5b41d97094d558a3a49302"}, {"type": "electric_scooter", "fusion_lon": 0.0, "bike_id": "889a4a98f56c8599757b999013d98c2d", "is_disabled": 0, "lat": 38.871713, "rental_uris": {"ios": "https://dc.lft.to/lastmile_qr_scan", "android": "https://dc.lft.to/lastmile_qr_scan"}, "is_reserved": 0, "lon": -77.00627716666666, "fusion_lat": 0.0, "name": "889a4a98f56c8599757b999013d98c2d"}, {"type": "electric_scooter", "fusion_lon": 0.0, "bike_id": "efdf249cd2398105df3c4542efc1b910", "is_disabled": 0, "lat": 38.892346333333336, "rental_uris": {"ios": "https://dc.lft.to/lastmile_qr_scan", "android": "https://dc.lft.to/lastmile_qr_scan"}, "is_reserved": 0, "lon": -77.0416025, "fusion_lat": 0.0, "name": "efdf249cd2398105df3c4542efc1b910"}, {"type": "electric_bike", "fusion_lon": 0.0, "bike_id": "b95a0c640f3c43c295178976caeeda51", "is_disabled": 0, "lat": 38.8315905, "rental_uris": {"ios": "https://dc.lft.to/lastmile_qr_scan", "android": "https://dc.lft.to/lastmile_qr_scan"}, "is_reserved": 0, "lon": -76.99573583333333, "fusion_lat": 0.0, "name": "b95a0c640f3c43c295178976caeeda51"}, {"type": "electric_scooter", "fusion_lon": 0.0, "bike_id": "619cc2ff06d3d49ec59c4729b42fa198", "is_disabled": 0, "lat": 38.88730183333333, "rental_uris": {"ios": "https://dc.lft.to/lastmile_qr_scan", "android": "https://dc.lft.to/lastmile_qr_scan"}, "is_reserved": 0, "lon": -76.9836535, "fusion_lat": 0.0, "name": "619cc2ff06d3d49ec59c4729b42fa198"}, {"type": "electric_scooter", "fusion_lon": 0.0, "bike_id": "1e3bf0eefc4617e38c4e0359861e40f0", "is_disabled": 0, "lat": 38.9099075, "rental_uris": {"ios": "https://dc.lft.to/lastmile_qr_scan", "android": "https://dc.lft.to/lastmile_qr_scan"}, "is_reserved": 0, "lon": -77.00891416666667, "fusion_lat": 0.0, "name": "1e3bf0eefc4617e38c4e0359861e40f0"}, {"type": "electric_scooter", "fusion_lon": 0.0, "bike_id": "15af8cf2b67784f9d5dc85e99b6e8f10", "is_disabled": 0, "lat": 38.887382, "rental_uris": {"ios": "https://dc.lft.to/lastmile_qr_scan", "android": "https://dc.lft.to/lastmile_qr_scan"}, "is_reserved": 0, "lon": -77.02385033333333, "fusion_lat": 0.0, "name": "15af8cf2b67784f9d5dc85e99b6e8f10"}, {"type": "electric_scooter", "fusion_lon": 0.0, "bike_id": "3702aa0303671d84d7ea3cb98ff45a8f", "is_disabled": 0, "lat": 38.94192066666667, "rental_uris": {"ios": "https://dc.lft.to/lastmile_qr_scan", "android": "https://dc.lft.to/lastmile_qr_scan"}, "is_reserved": 0, "lon": -77.03846533333333, "fusion_lat": 0.0, "name": "3702aa0303671d84d7ea3cb98ff45a8f"}, {"type": "electric_scooter", "fusion_lon": 0.0, "bike_id": "eca7f402241adea56aafc2ce03fbe3ee", "is_disabled": 0, "lat": 38.9069315, "rental_uris": {"ios": "https://dc.lft.to/lastmile_qr_scan", "android": "https://dc.lft.to/lastmile_qr_scan"}, "is_reserved": 0, "lon": -76.98509766666666, "fusion_lat": 0.0, "name": "eca7f402241adea56aafc2ce03fbe3ee"}, {"type": "electric_scooter", "fusion_lon": 0.0, "bike_id": "15787f3e3aa3823a0e8dcffc4dd2d293", "is_disabled": 0, "lat": 38.9354095, "rental_uris": {"ios": "https://dc.lft.to/lastmile_qr_scan", "android": "https://dc.lft.to/lastmile_qr_scan"}, "is_reserved": 0, "lon": -77.03427733333334, "fusion_lat": 0.0, "name": "15787f3e3aa3823a0e8dcffc4dd2d293"}, {"type": "electric_scooter", "fusion_lon": 0.0, "bike_id": "7f2840bf88c702f58512456fb9ad972d", "is_disabled": 0, "lat": 38.911895333333334, "rental_uris": {"ios": "https://dc.lft.to/lastmile_qr_scan", "android": "https://dc.lft.to/lastmile_qr_scan"}, "is_reserved": 0, "lon": -77.03802516666667, "fusion_lat": 0.0, "name": "7f2840bf88c702f58512456fb9ad972d"}, {"type": "electric_scooter", "fusion_lon": 0.0, "bike_id": "ed0cc6d3aa248fc91ceacfeee3199f37", "is_disabled": 0, "lat": 38.92339, "rental_uris": {"ios": "https://dc.lft.to/lastmile_qr_scan", "android": "https://dc.lft.to/lastmile_qr_scan"}, "is_reserved": 0, "lon": -77.035491, "fusion_lat": 0.0, "name": "ed0cc6d3aa248fc91ceacfeee3199f37"}, {"type": "electric_scooter", "fusion_lon": 0.0, "bike_id": "fb923d2cd532853a6a38f57a39bdbb59", "is_disabled": 0, "lat": 38.897074833333335, "rental_uris": {"ios": "https://dc.lft.to/lastmile_qr_scan", "android": "https://dc.lft.to/lastmile_qr_scan"}, "is_reserved": 0, "lon": -77.01984416666667, "fusion_lat": 0.0, "name": "fb923d2cd532853a6a38f57a39bdbb59"}, {"type": "electric_scooter", "fusion_lon": 0.0, "bike_id": "c8ec01c34e9c3d47e1f363e11a1a4219", "is_disabled": 0, "lat": 38.9421655, "rental_uris": {"ios": "https://dc.lft.to/lastmile_qr_scan", "android": "https://dc.lft.to/lastmile_qr_scan"}, "is_reserved": 0, "lon": -77.0135495, "fusion_lat": 0.0, "name": "c8ec01c34e9c3d47e1f363e11a1a4219"}, {"type": "electric_scooter", "fusion_lon": 0.0, "bike_id": "c1ba29dd60897220d317b3bde216ae08", "is_disabled": 0, "lat": 38.89438083333334, "rental_uris": {"ios": "https://dc.lft.to/lastmile_qr_scan", "android": "https://dc.lft.to/lastmile_qr_scan"}, "is_reserved": 0, "lon": -77.01082, "fusion_lat": 0.0, "name": "c1ba29dd60897220d317b3bde216ae08"}, {"type": "electric_bike", "fusion_lon": 0.0, "bike_id": "5d004e1f80dacd30b7b8a55ad7409c1e", "is_disabled": 0, "lat": 38.9725345, "rental_uris": {"ios": "https://dc.lft.to/lastmile_qr_scan", "android": "https://dc.lft.to/lastmile_qr_scan"}, "is_reserved": 0, "lon": -76.98060716666667, "fusion_lat": 0.0, "name": "5d004e1f80dacd30b7b8a55ad7409c1e"}, {"type": "electric_scooter", "fusion_lon": 0.0, "bike_id": "503c810423083c349e05b86ea2f631cf", "is_disabled": 0, "lat": 38.878336166666664, "rental_uris": {"ios": "https://dc.lft.to/lastmile_qr_scan", "android": "https://dc.lft.to/lastmile_qr_scan"}, "is_reserved": 0, "lon": -77.00454366666666, "fusion_lat": 0.0, "name": "503c810423083c349e05b86ea2f631cf"}, {"type": "electric_scooter", "fusion_lon": 0.0, "bike_id": "a004d8cdd13bbc16cbbfc7919e72579d", "is_disabled": 0, "lat": 38.92339716666667, "rental_uris": {"ios": "https://dc.lft.to/lastmile_qr_scan", "android": "https://dc.lft.to/lastmile_qr_scan"}, "is_reserved": 0, "lon": -77.05174983333333, "fusion_lat": 0.0, "name": "a004d8cdd13bbc16cbbfc7919e72579d"}, {"type": "electric_scooter", "fusion_lon": 0.0, "bike_id": "5911149c88d7bb546d76383391dc748d", "is_disabled": 0, "lat": 38.884973, "rental_uris": {"ios": "https://dc.lft.to/lastmile_qr_scan", "android": "https://dc.lft.to/lastmile_qr_scan"}, "is_reserved": 0, "lon": -77.008867, "fusion_lat": 0.0, "name": "5911149c88d7bb546d76383391dc748d"}, {"type": "electric_scooter", "fusion_lon": 0.0, "bike_id": "53177ab72bbf6bfdca85d714dd7bc966", "is_disabled": 0, "lat": 38.9228335, "rental_uris": {"ios": "https://dc.lft.to/lastmile_qr_scan", "android": "https://dc.lft.to/lastmile_qr_scan"}, "is_reserved": 0, "lon": -77.03658916666667, "fusion_lat": 0.0, "name": "53177ab72bbf6bfdca85d714dd7bc966"}, {"type": "electric_scooter", "fusion_lon": 0.0, "bike_id": "c354331ee03504ee7234ad63015cb3a6", "is_disabled": 0, "lat": 38.938634, "rental_uris": {"ios": "https://dc.lft.to/lastmile_qr_scan", "android": "https://dc.lft.to/lastmile_qr_scan"}, "is_reserved": 0, "lon": -77.02662033333333, "fusion_lat": 0.0, "name": "c354331ee03504ee7234ad63015cb3a6"}, {"type": "electric_scooter", "fusion_lon": 0.0, "bike_id": "69017c7cba1dc2fbc94ddd3afd9a0044", "is_disabled": 0, "lat": 38.91067816666666, "rental_uris": {"ios": "https://dc.lft.to/lastmile_qr_scan", "android": "https://dc.lft.to/lastmile_qr_scan"}, "is_reserved": 0, "lon": -77.02711666666667, "fusion_lat": 0.0, "name": "69017c7cba1dc2fbc94ddd3afd9a0044"}, {"type": "electric_scooter", "fusion_lon": 0.0, "bike_id": "4cc965eaaa96d63657dcd6d3563a5ab3", "is_disabled": 0, "lat": 38.89969583333333, "rental_uris": {"ios": "https://dc.lft.to/lastmile_qr_scan", "android": "https://dc.lft.to/lastmile_qr_scan"}, "is_reserved": 0, "lon": -77.04783266666666, "fusion_lat": 0.0, "name": "4cc965eaaa96d63657dcd6d3563a5ab3"}, {"type": "electric_scooter", "fusion_lon": 0.0, "bike_id": "3fdd1e643adb5c3fdfdd65a302a0c78b", "is_disabled": 0, "lat": 38.9133725, "rental_uris": {"ios": "https://dc.lft.to/lastmile_qr_scan", "android": "https://dc.lft.to/lastmile_qr_scan"}, "is_reserved": 0, "lon": -77.06325716666667, "fusion_lat": 0.0, "name": "3fdd1e643adb5c3fdfdd65a302a0c78b"}, {"type": "electric_bike", "fusion_lon": 0.0, "bike_id": "bb552965ada23d3d064e9a5c36d8a3bd", "is_disabled": 0, "lat": 38.9359245, "rental_uris": {"ios": "https://dc.lft.to/lastmile_qr_scan", "android": "https://dc.lft.to/lastmile_qr_scan"}, "is_reserved": 0, "lon": -77.03752633333333, "fusion_lat": 0.0, "name": "bb552965ada23d3d064e9a5c36d8a3bd"}, {"type": "electric_scooter", "fusion_lon": 0.0, "bike_id": "b50ce6f20ebe73670a64ae2173741298", "is_disabled": 0, "lat": 38.90973816666666, "rental_uris": {"ios": "https://dc.lft.to/lastmile_qr_scan", "android": "https://dc.lft.to/lastmile_qr_scan"}, "is_reserved": 0, "lon": -77.03843583333334, "fusion_lat": 0.0, "name": "b50ce6f20ebe73670a64ae2173741298"}, {"type": "electric_bike", "fusion_lon": 0.0, "bike_id": "fcac7055c33dd88e6acbf82ab326de3d", "is_disabled": 0, "lat": 38.90000533333333, "rental_uris": {"ios": "https://dc.lft.to/lastmile_qr_scan", "android": "https://dc.lft.to/lastmile_qr_scan"}, "is_reserved": 0, "lon": -77.00546083333333, "fusion_lat": 0.0, "name": "fcac7055c33dd88e6acbf82ab326de3d"}, {"type": "electric_scooter", "fusion_lon": 0.0, "bike_id": "084603c94e515e70bd9a0df557f7c378", "is_disabled": 0, "lat": 38.90338066666666, "rental_uris": {"ios": "https://dc.lft.to/lastmile_qr_scan", "android": "https://dc.lft.to/lastmile_qr_scan"}, "is_reserved": 0, "lon": -77.0493505, "fusion_lat": 0.0, "name": "084603c94e515e70bd9a0df557f7c378"}, {"type": "electric_scooter", "fusion_lon": 0.0, "bike_id": "3484817f5d73f0f4f39d74c18696c6da", "is_disabled": 0, "lat": 38.90777633333333, "rental_uris": {"ios": "https://dc.lft.to/lastmile_qr_scan", "android": "https://dc.lft.to/lastmile_qr_scan"}, "is_reserved": 0, "lon": -77.02969366666666, "fusion_lat": 0.0, "name": "3484817f5d73f0f4f39d74c18696c6da"}, {"type": "electric_scooter", "fusion_lon": 0.0, "bike_id": "79a963a4fb686c42fcd0d793b9240638", "is_disabled": 0, "lat": 38.92894033333334, "rental_uris": {"ios": "https://dc.lft.to/lastmile_qr_scan", "android": "https://dc.lft.to/lastmile_qr_scan"}, "is_reserved": 0, "lon": -77.05805933333333, "fusion_lat": 0.0, "name": "79a963a4fb686c42fcd0d793b9240638"}, {"type": "electric_scooter", "fusion_lon": 0.0, "bike_id": "e9180e13b2c7d0e80b719cba6e0f9f01", "is_disabled": 0, "lat": 38.91348516666667, "rental_uris": {"ios": "https://dc.lft.to/lastmile_qr_scan", "android": "https://dc.lft.to/lastmile_qr_scan"}, "is_reserved": 0, "lon": -77.02942716666666, "fusion_lat": 0.0, "name": "e9180e13b2c7d0e80b719cba6e0f9f01"}, {"type": "electric_scooter", "fusion_lon": 0.0, "bike_id": "206094b3b48102bf1506f95f5fe8d4b8", "is_disabled": 0, "lat": 38.92457516666666, "rental_uris": {"ios": "https://dc.lft.to/lastmile_qr_scan", "android": "https://dc.lft.to/lastmile_qr_scan"}, "is_reserved": 0, "lon": -77.03284883333333, "fusion_lat": 0.0, "name": "206094b3b48102bf1506f95f5fe8d4b8"}, {"type": "electric_scooter", "fusion_lon": 0.0, "bike_id": "7023dfb45f52ea74b02c6b72c5fd9355", "is_disabled": 0, "lat": 38.908754, "rental_uris": {"ios": "https://dc.lft.to/lastmile_qr_scan", "android": "https://dc.lft.to/lastmile_qr_scan"}, "is_reserved": 0, "lon": -77.03509633333333, "fusion_lat": 0.0, "name": "7023dfb45f52ea74b02c6b72c5fd9355"}, {"type": "electric_bike", "fusion_lon": 0.0, "bike_id": "5b71c2f3f77c3f6a00c049e27e668c70", "is_disabled": 0, "lat": 38.831043, "rental_uris": {"ios": "https://dc.lft.to/lastmile_qr_scan", "android": "https://dc.lft.to/lastmile_qr_scan"}, "is_reserved": 0, "lon": -77.11285483333333, "fusion_lat": 0.0, "name": "5b71c2f3f77c3f6a00c049e27e668c70"}, {"type": "electric_scooter", "fusion_lon": 0.0, "bike_id": "477764f6252cb2190a9d27c45077f6fc", "is_disabled": 0, "lat": 38.895547, "rental_uris": {"ios": "https://dc.lft.to/lastmile_qr_scan", "android": "https://dc.lft.to/lastmile_qr_scan"}, "is_reserved": 0, "lon": -76.94875566666667, "fusion_lat": 0.0, "name": "477764f6252cb2190a9d27c45077f6fc"}, {"type": "electric_scooter", "fusion_lon": 0.0, "bike_id": "9cf1f9c14e1afecc893e008e0ffb4c24", "is_disabled": 0, "lat": 38.9037825, "rental_uris": {"ios": "https://dc.lft.to/lastmile_qr_scan", "android": "https://dc.lft.to/lastmile_qr_scan"}, "is_reserved": 0, "lon": -77.04021616666667, "fusion_lat": 0.0, "name": "9cf1f9c14e1afecc893e008e0ffb4c24"}, {"type": "electric_scooter", "fusion_lon": 0.0, "bike_id": "48f6ede8b6bfdca48365a40b986c6724", "is_disabled": 0, "lat": 38.892382833333336, "rental_uris": {"ios": "https://dc.lft.to/lastmile_qr_scan", "android": "https://dc.lft.to/lastmile_qr_scan"}, "is_reserved": 0, "lon": -77.04161233333333, "fusion_lat": 0.0, "name": "48f6ede8b6bfdca48365a40b986c6724"}, {"type": "electric_scooter", "fusion_lon": 0.0, "bike_id": "290daef881a1ff57164952f10b88b549", "is_disabled": 0, "lat": 38.953002833333336, "rental_uris": {"ios": "https://dc.lft.to/lastmile_qr_scan", "android": "https://dc.lft.to/lastmile_qr_scan"}, "is_reserved": 0, "lon": -77.06979933333334, "fusion_lat": 0.0, "name": "290daef881a1ff57164952f10b88b549"}, {"type": "electric_scooter", "fusion_lon": 0.0, "bike_id": "4b421ea595b4db3ef575efa07e574e2f", "is_disabled": 0, "lat": 38.909768, "rental_uris": {"ios": "https://dc.lft.to/lastmile_qr_scan", "android": "https://dc.lft.to/lastmile_qr_scan"}, "is_reserved": 0, "lon": -77.03450333333333, "fusion_lat": 0.0, "name": "4b421ea595b4db3ef575efa07e574e2f"}, {"type": "electric_bike", "fusion_lon": 0.0, "bike_id": "55e0fdf1306973320bba0de6d5f2ae93", "is_disabled": 0, "lat": 38.89247116666667, "rental_uris": {"ios": "https://dc.lft.to/lastmile_qr_scan", "android": "https://dc.lft.to/lastmile_qr_scan"}, "is_reserved": 0, "lon": -76.98544466666667, "fusion_lat": 0.0, "name": "55e0fdf1306973320bba0de6d5f2ae93"}, {"type": "electric_bike", "fusion_lon": 0.0, "bike_id": "a19735003f30e7b665c0a0acfcc85a4e", "is_disabled": 0, "lat": 38.819096333333334, "rental_uris": {"ios": "https://dc.lft.to/lastmile_qr_scan", "android": "https://dc.lft.to/lastmile_qr_scan"}, "is_reserved": 0, "lon": -77.12653216666666, "fusion_lat": 0.0, "name": "a19735003f30e7b665c0a0acfcc85a4e"}, {"type": "electric_scooter", "fusion_lon": 0.0, "bike_id": "297b968ecf083faf44a7a4db32c2db76", "is_disabled": 0, "lat": 38.920498, "rental_uris": {"ios": "https://dc.lft.to/lastmile_qr_scan", "android": "https://dc.lft.to/lastmile_qr_scan"}, "is_reserved": 0, "lon": -77.041855, "fusion_lat": 0.0, "name": "297b968ecf083faf44a7a4db32c2db76"}, {"type": "electric_scooter", "fusion_lon": 0.0, "bike_id": "9286b832e2d1aa9a3bc5a6ac6f9928c0", "is_disabled": 0, "lat": 38.9061445, "rental_uris": {"ios": "https://dc.lft.to/lastmile_qr_scan", "android": "https://dc.lft.to/lastmile_qr_scan"}, "is_reserved": 0, "lon": -77.01283133333334, "fusion_lat": 0.0, "name": "9286b832e2d1aa9a3bc5a6ac6f9928c0"}, {"type": "electric_scooter", "fusion_lon": 0.0, "bike_id": "3557b50b023c07cc6a20fa885ddc5bd0", "is_disabled": 0, "lat": 38.928960833333335, "rental_uris": {"ios": "https://dc.lft.to/lastmile_qr_scan", "android": "https://dc.lft.to/lastmile_qr_scan"}, "is_reserved": 0, "lon": -77.0327205, "fusion_lat": 0.0, "name": "3557b50b023c07cc6a20fa885ddc5bd0"}, {"type": "electric_scooter", "fusion_lon": 0.0, "bike_id": "25a03306e63bce4961bf385d67b539fb", "is_disabled": 0, "lat": 38.93559166666667, "rental_uris": {"ios": "https://dc.lft.to/lastmile_qr_scan", "android": "https://dc.lft.to/lastmile_qr_scan"}, "is_reserved": 0, "lon": -77.06369266666667, "fusion_lat": 0.0, "name": "25a03306e63bce4961bf385d67b539fb"}, {"type": "electric_scooter", "fusion_lon": 0.0, "bike_id": "f6bb9aff07fae2f01a6b75f494bb0e74", "is_disabled": 0, "lat": 38.901809, "rental_uris": {"ios": "https://dc.lft.to/lastmile_qr_scan", "android": "https://dc.lft.to/lastmile_qr_scan"}, "is_reserved": 0, "lon": -76.92827916666667, "fusion_lat": 0.0, "name": "f6bb9aff07fae2f01a6b75f494bb0e74"}, {"type": "electric_scooter", "fusion_lon": 0.0, "bike_id": "923a3a98fd9fcee07bed0f7cd56ec1bd", "is_disabled": 0, "lat": 38.914140833333335, "rental_uris": {"ios": "https://dc.lft.to/lastmile_qr_scan", "android": "https://dc.lft.to/lastmile_qr_scan"}, "is_reserved": 0, "lon": -77.04159, "fusion_lat": 0.0, "name": "923a3a98fd9fcee07bed0f7cd56ec1bd"}, {"type": "electric_scooter", "fusion_lon": 0.0, "bike_id": "06b80858f52010e20bf9509eaa06ebf8", "is_disabled": 0, "lat": 38.899706, "rental_uris": {"ios": "https://dc.lft.to/lastmile_qr_scan", "android": "https://dc.lft.to/lastmile_qr_scan"}, "is_reserved": 0, "lon": -77.01997383333334, "fusion_lat": 0.0, "name": "06b80858f52010e20bf9509eaa06ebf8"}, {"type": "electric_scooter", "fusion_lon": 0.0, "bike_id": "399f9d3ee523d12a1aa8124bf72743de", "is_disabled": 0, "lat": 38.8921945, "rental_uris": {"ios": "https://dc.lft.to/lastmile_qr_scan", "android": "https://dc.lft.to/lastmile_qr_scan"}, "is_reserved": 0, "lon": -77.02221583333333, "fusion_lat": 0.0, "name": "399f9d3ee523d12a1aa8124bf72743de"}, {"type": "electric_scooter", "fusion_lon": 0.0, "bike_id": "17a6d495346ef3444c29f60e394811ad", "is_disabled": 0, "lat": 38.927449833333334, "rental_uris": {"ios": "https://dc.lft.to/lastmile_qr_scan", "android": "https://dc.lft.to/lastmile_qr_scan"}, "is_reserved": 0, "lon": -77.02719983333333, "fusion_lat": 0.0, "name": "17a6d495346ef3444c29f60e394811ad"}, {"type": "electric_scooter", "fusion_lon": 0.0, "bike_id": "e487807bec4deaa81a08735621426d7a", "is_disabled": 0, "lat": 38.92072566666667, "rental_uris": {"ios": "https://dc.lft.to/lastmile_qr_scan", "android": "https://dc.lft.to/lastmile_qr_scan"}, "is_reserved": 0, "lon": -77.01450816666667, "fusion_lat": 0.0, "name": "e487807bec4deaa81a08735621426d7a"}, {"type": "electric_scooter", "fusion_lon": 0.0, "bike_id": "7e9bc60a4cd83e2cfa3281c70fdc11b5", "is_disabled": 0, "lat": 38.896419333333334, "rental_uris": {"ios": "https://dc.lft.to/lastmile_qr_scan", "android": "https://dc.lft.to/lastmile_qr_scan"}, "is_reserved": 0, "lon": -77.003437, "fusion_lat": 0.0, "name": "7e9bc60a4cd83e2cfa3281c70fdc11b5"}, {"type": "electric_scooter", "fusion_lon": 0.0, "bike_id": "2945c3a1e0bc0dcbd96c381b2d6f84d8", "is_disabled": 0, "lat": 38.91711133333333, "rental_uris": {"ios": "https://dc.lft.to/lastmile_qr_scan", "android": "https://dc.lft.to/lastmile_qr_scan"}, "is_reserved": 0, "lon": -77.03334916666667, "fusion_lat": 0.0, "name": "2945c3a1e0bc0dcbd96c381b2d6f84d8"}, {"type": "electric_scooter", "fusion_lon": 0.0, "bike_id": "37e93f69f5df2cf1ba2432dc10130706", "is_disabled": 0, "lat": 38.9016195, "rental_uris": {"ios": "https://dc.lft.to/lastmile_qr_scan", "android": "https://dc.lft.to/lastmile_qr_scan"}, "is_reserved": 0, "lon": -77.03937183333333, "fusion_lat": 0.0, "name": "37e93f69f5df2cf1ba2432dc10130706"}, {"type": "electric_scooter", "fusion_lon": 0.0, "bike_id": "a11f0aac563f152bdaba0faef8cc2f4a", "is_disabled": 0, "lat": 38.9181315, "rental_uris": {"ios": "https://dc.lft.to/lastmile_qr_scan", "android": "https://dc.lft.to/lastmile_qr_scan"}, "is_reserved": 0, "lon": -77.0318255, "fusion_lat": 0.0, "name": "a11f0aac563f152bdaba0faef8cc2f4a"}, {"type": "electric_scooter", "fusion_lon": 0.0, "bike_id": "0dd41070cd5024047deaad7c99877d78", "is_disabled": 0, "lat": 38.9171535, "rental_uris": {"ios": "https://dc.lft.to/lastmile_qr_scan", "android": "https://dc.lft.to/lastmile_qr_scan"}, "is_reserved": 0, "lon": -77.02406366666666, "fusion_lat": 0.0, "name": "0dd41070cd5024047deaad7c99877d78"}, {"type": "electric_scooter", "fusion_lon": 0.0, "bike_id": "445f6435f30e973e455fa85f0324f486", "is_disabled": 0, "lat": 38.93797266666667, "rental_uris": {"ios": "https://dc.lft.to/lastmile_qr_scan", "android": "https://dc.lft.to/lastmile_qr_scan"}, "is_reserved": 0, "lon": -77.03280983333333, "fusion_lat": 0.0, "name": "445f6435f30e973e455fa85f0324f486"}, {"type": "electric_scooter", "fusion_lon": 0.0, "bike_id": "efe4334f0d115e91319bded968c14f04", "is_disabled": 0, "lat": 38.9560665, "rental_uris": {"ios": "https://dc.lft.to/lastmile_qr_scan", "android": "https://dc.lft.to/lastmile_qr_scan"}, "is_reserved": 0, "lon": -77.08068566666667, "fusion_lat": 0.0, "name": "efe4334f0d115e91319bded968c14f04"}, {"type": "electric_scooter", "fusion_lon": 0.0, "bike_id": "1ce9da0442f97a0e9de3d35827254c56", "is_disabled": 0, "lat": 38.88424116666667, "rental_uris": {"ios": "https://dc.lft.to/lastmile_qr_scan", "android": "https://dc.lft.to/lastmile_qr_scan"}, "is_reserved": 0, "lon": -76.95754633333334, "fusion_lat": 0.0, "name": "1ce9da0442f97a0e9de3d35827254c56"}, {"type": "electric_bike", "fusion_lon": 0.0, "bike_id": "2586561b34ab9d441d4b490cd73c19d0", "is_disabled": 0, "lat": 38.865898333333334, "rental_uris": {"ios": "https://dc.lft.to/lastmile_qr_scan", "android": "https://dc.lft.to/lastmile_qr_scan"}, "is_reserved": 0, "lon": -76.9805545, "fusion_lat": 0.0, "name": "2586561b34ab9d441d4b490cd73c19d0"}, {"type": "electric_scooter", "fusion_lon": 0.0, "bike_id": "bc6593cbe70bc45aaba004c8c608f4c2", "is_disabled": 0, "lat": 38.927772, "rental_uris": {"ios": "https://dc.lft.to/lastmile_qr_scan", "android": "https://dc.lft.to/lastmile_qr_scan"}, "is_reserved": 0, "lon": -77.0269645, "fusion_lat": 0.0, "name": "bc6593cbe70bc45aaba004c8c608f4c2"}, {"type": "electric_scooter", "fusion_lon": 0.0, "bike_id": "72b6366517b1d9bbad6e0234be4e8dce", "is_disabled": 0, "lat": 38.940888, "rental_uris": {"ios": "https://dc.lft.to/lastmile_qr_scan", "android": "https://dc.lft.to/lastmile_qr_scan"}, "is_reserved": 0, "lon": -77.02730383333333, "fusion_lat": 0.0, "name": "72b6366517b1d9bbad6e0234be4e8dce"}, {"type": "electric_scooter", "fusion_lon": 0.0, "bike_id": "ce31446c0b43482680b1e0a7a2196c01", "is_disabled": 0, "lat": 38.89221716666667, "rental_uris": {"ios": "https://dc.lft.to/lastmile_qr_scan", "android": "https://dc.lft.to/lastmile_qr_scan"}, "is_reserved": 0, "lon": -77.03214783333334, "fusion_lat": 0.0, "name": "ce31446c0b43482680b1e0a7a2196c01"}, {"type": "electric_scooter", "fusion_lon": 0.0, "bike_id": "9aeb63faf6cd2c48710155beef768e66", "is_disabled": 0, "lat": 38.91633916666667, "rental_uris": {"ios": "https://dc.lft.to/lastmile_qr_scan", "android": "https://dc.lft.to/lastmile_qr_scan"}, "is_reserved": 0, "lon": -77.05068233333333, "fusion_lat": 0.0, "name": "9aeb63faf6cd2c48710155beef768e66"}, {"type": "electric_scooter", "fusion_lon": 0.0, "bike_id": "afb514e9fe35d18fbbcfe7ae7d8c635c", "is_disabled": 0, "lat": 38.91632, "rental_uris": {"ios": "https://dc.lft.to/lastmile_qr_scan", "android": "https://dc.lft.to/lastmile_qr_scan"}, "is_reserved": 0, "lon": -77.0460285, "fusion_lat": 0.0, "name": "afb514e9fe35d18fbbcfe7ae7d8c635c"}, {"type": "electric_scooter", "fusion_lon": 0.0, "bike_id": "24b27ab75ba93d9cf6d08a9646060b8f", "is_disabled": 0, "lat": 38.93352, "rental_uris": {"ios": "https://dc.lft.to/lastmile_qr_scan", "android": "https://dc.lft.to/lastmile_qr_scan"}, "is_reserved": 0, "lon": -77.0298215, "fusion_lat": 0.0, "name": "24b27ab75ba93d9cf6d08a9646060b8f"}, {"type": "electric_scooter", "fusion_lon": 0.0, "bike_id": "cf9009d2a2abaf46d026cf6d6a32bf81", "is_disabled": 0, "lat": 38.91081783333333, "rental_uris": {"ios": "https://dc.lft.to/lastmile_qr_scan", "android": "https://dc.lft.to/lastmile_qr_scan"}, "is_reserved": 0, "lon": -77.00155283333334, "fusion_lat": 0.0, "name": "cf9009d2a2abaf46d026cf6d6a32bf81"}, {"type": "electric_scooter", "fusion_lon": 0.0, "bike_id": "b549a6ea2b81a26a1972eb7908184b11", "is_disabled": 0, "lat": 38.90161583333333, "rental_uris": {"ios": "https://dc.lft.to/lastmile_qr_scan", "android": "https://dc.lft.to/lastmile_qr_scan"}, "is_reserved": 0, "lon": -76.98069283333334, "fusion_lat": 0.0, "name": "b549a6ea2b81a26a1972eb7908184b11"}, {"type": "electric_bike", "fusion_lon": 0.0, "bike_id": "ec028e518e289e4a177fe70b51bd297a", "is_disabled": 0, "lat": 38.974655166666665, "rental_uris": {"ios": "https://dc.lft.to/lastmile_qr_scan", "android": "https://dc.lft.to/lastmile_qr_scan"}, "is_reserved": 0, "lon": -77.0120805, "fusion_lat": 0.0, "name": "ec028e518e289e4a177fe70b51bd297a"}, {"type": "electric_scooter", "fusion_lon": 0.0, "bike_id": "bbb397731397f306ffb85c0282402982", "is_disabled": 0, "lat": 38.89470516666667, "rental_uris": {"ios": "https://dc.lft.to/lastmile_qr_scan", "android": "https://dc.lft.to/lastmile_qr_scan"}, "is_reserved": 0, "lon": -77.01864983333333, "fusion_lat": 0.0, "name": "bbb397731397f306ffb85c0282402982"}, {"type": "electric_scooter", "fusion_lon": 0.0, "bike_id": "82c1241b96608074c604acd156f49cac", "is_disabled": 0, "lat": 38.87405283333333, "rental_uris": {"ios": "https://dc.lft.to/lastmile_qr_scan", "android": "https://dc.lft.to/lastmile_qr_scan"}, "is_reserved": 0, "lon": -76.96983583333333, "fusion_lat": 0.0, "name": "82c1241b96608074c604acd156f49cac"}, {"type": "electric_scooter", "fusion_lon": 0.0, "bike_id": "1cde4cb24399444bc418154d43155ca7", "is_disabled": 0, "lat": 38.9219665, "rental_uris": {"ios": "https://dc.lft.to/lastmile_qr_scan", "android": "https://dc.lft.to/lastmile_qr_scan"}, "is_reserved": 0, "lon": -77.04693533333334, "fusion_lat": 0.0, "name": "1cde4cb24399444bc418154d43155ca7"}, {"type": "electric_scooter", "fusion_lon": 0.0, "bike_id": "dc0c0d2dee279dc60df8e7fb143b6d77", "is_disabled": 0, "lat": 38.923078833333335, "rental_uris": {"ios": "https://dc.lft.to/lastmile_qr_scan", "android": "https://dc.lft.to/lastmile_qr_scan"}, "is_reserved": 0, "lon": -77.04267933333334, "fusion_lat": 0.0, "name": "dc0c0d2dee279dc60df8e7fb143b6d77"}, {"type": "electric_scooter", "fusion_lon": 0.0, "bike_id": "830b2a041c5192c4973e5dd1acf036ae", "is_disabled": 0, "lat": 38.9214485, "rental_uris": {"ios": "https://dc.lft.to/lastmile_qr_scan", "android": "https://dc.lft.to/lastmile_qr_scan"}, "is_reserved": 0, "lon": -77.0740495, "fusion_lat": 0.0, "name": "830b2a041c5192c4973e5dd1acf036ae"}, {"type": "electric_scooter", "fusion_lon": 0.0, "bike_id": "7a3747cd1aef4296638402c69bac5059", "is_disabled": 0, "lat": 38.903791, "rental_uris": {"ios": "https://dc.lft.to/lastmile_qr_scan", "android": "https://dc.lft.to/lastmile_qr_scan"}, "is_reserved": 0, "lon": -76.99514933333333, "fusion_lat": 0.0, "name": "7a3747cd1aef4296638402c69bac5059"}, {"type": "electric_scooter", "fusion_lon": 0.0, "bike_id": "8344384dcbe1ae35ac979e671993ef20", "is_disabled": 0, "lat": 38.878006666666664, "rental_uris": {"ios": "https://dc.lft.to/lastmile_qr_scan", "android": "https://dc.lft.to/lastmile_qr_scan"}, "is_reserved": 0, "lon": -77.00734783333333, "fusion_lat": 0.0, "name": "8344384dcbe1ae35ac979e671993ef20"}, {"type": "electric_scooter", "fusion_lon": 0.0, "bike_id": "9bad59777fe0d2ee866d0d103e19bb74", "is_disabled": 0, "lat": 38.91997383333333, "rental_uris": {"ios": "https://dc.lft.to/lastmile_qr_scan", "android": "https://dc.lft.to/lastmile_qr_scan"}, "is_reserved": 0, "lon": -77.01784983333333, "fusion_lat": 0.0, "name": "9bad59777fe0d2ee866d0d103e19bb74"}, {"type": "electric_scooter", "fusion_lon": 0.0, "bike_id": "8b207860bca871b92b8228dbc3d2c73a", "is_disabled": 0, "lat": 38.9073515, "rental_uris": {"ios": "https://dc.lft.to/lastmile_qr_scan", "android": "https://dc.lft.to/lastmile_qr_scan"}, "is_reserved": 0, "lon": -77.044869, "fusion_lat": 0.0, "name": "8b207860bca871b92b8228dbc3d2c73a"}, {"type": "electric_scooter", "fusion_lon": 0.0, "bike_id": "41b200c4be799f99e4459fe550f3c54b", "is_disabled": 0, "lat": 38.87545216666667, "rental_uris": {"ios": "https://dc.lft.to/lastmile_qr_scan", "android": "https://dc.lft.to/lastmile_qr_scan"}, "is_reserved": 0, "lon": -77.00536766666667, "fusion_lat": 0.0, "name": "41b200c4be799f99e4459fe550f3c54b"}, {"type": "electric_scooter", "fusion_lon": 0.0, "bike_id": "bbc13f30e5d432bbeca8cdb165fc00b8", "is_disabled": 0, "lat": 38.912576, "rental_uris": {"ios": "https://dc.lft.to/lastmile_qr_scan", "android": "https://dc.lft.to/lastmile_qr_scan"}, "is_reserved": 0, "lon": -77.038617, "fusion_lat": 0.0, "name": "bbc13f30e5d432bbeca8cdb165fc00b8"}, {"type": "electric_scooter", "fusion_lon": 0.0, "bike_id": "24f5f44a5ee0d9fbdc4a92bcec90c224", "is_disabled": 0, "lat": 38.91490116666667, "rental_uris": {"ios": "https://dc.lft.to/lastmile_qr_scan", "android": "https://dc.lft.to/lastmile_qr_scan"}, "is_reserved": 0, "lon": -77.02593633333333, "fusion_lat": 0.0, "name": "24f5f44a5ee0d9fbdc4a92bcec90c224"}, {"type": "electric_scooter", "fusion_lon": 0.0, "bike_id": "7cce9645ea8189d473afe25fb8b4fcd3", "is_disabled": 0, "lat": 38.92700416666667, "rental_uris": {"ios": "https://dc.lft.to/lastmile_qr_scan", "android": "https://dc.lft.to/lastmile_qr_scan"}, "is_reserved": 0, "lon": -77.02388983333333, "fusion_lat": 0.0, "name": "7cce9645ea8189d473afe25fb8b4fcd3"}, {"type": "electric_scooter", "fusion_lon": 0.0, "bike_id": "d6faad213efc8830dd4c9408943ff3d5", "is_disabled": 0, "lat": 38.8844955, "rental_uris": {"ios": "https://dc.lft.to/lastmile_qr_scan", "android": "https://dc.lft.to/lastmile_qr_scan"}, "is_reserved": 0, "lon": -76.942249, "fusion_lat": 0.0, "name": "d6faad213efc8830dd4c9408943ff3d5"}, {"type": "electric_scooter", "fusion_lon": 0.0, "bike_id": "7257a76c7ce62b7bdac2945ab8010f9d", "is_disabled": 0, "lat": 38.917707666666665, "rental_uris": {"ios": "https://dc.lft.to/lastmile_qr_scan", "android": "https://dc.lft.to/lastmile_qr_scan"}, "is_reserved": 0, "lon": -77.022967, "fusion_lat": 0.0, "name": "7257a76c7ce62b7bdac2945ab8010f9d"}, {"type": "electric_scooter", "fusion_lon": 0.0, "bike_id": "a2b75206ebbc33f1e314654bc952b5cd", "is_disabled": 0, "lat": 38.921399, "rental_uris": {"ios": "https://dc.lft.to/lastmile_qr_scan", "android": "https://dc.lft.to/lastmile_qr_scan"}, "is_reserved": 0, "lon": -77.03511116666667, "fusion_lat": 0.0, "name": "a2b75206ebbc33f1e314654bc952b5cd"}, {"type": "electric_scooter", "fusion_lon": 0.0, "bike_id": "9a0ebbefdc182fa8b6ab8aadd65e982c", "is_disabled": 0, "lat": 38.96084066666667, "rental_uris": {"ios": "https://dc.lft.to/lastmile_qr_scan", "android": "https://dc.lft.to/lastmile_qr_scan"}, "is_reserved": 0, "lon": -77.0288435, "fusion_lat": 0.0, "name": "9a0ebbefdc182fa8b6ab8aadd65e982c"}, {"type": "electric_scooter", "fusion_lon": 0.0, "bike_id": "4c806f5a2a68852d42232caef3a57d09", "is_disabled": 0, "lat": 38.9156535, "rental_uris": {"ios": "https://dc.lft.to/lastmile_qr_scan", "android": "https://dc.lft.to/lastmile_qr_scan"}, "is_reserved": 0, "lon": -77.02005766666667, "fusion_lat": 0.0, "name": "4c806f5a2a68852d42232caef3a57d09"}, {"type": "electric_scooter", "fusion_lon": 0.0, "bike_id": "2133dde5fe1cc0c03b97c613a1eed4d4", "is_disabled": 0, "lat": 38.918241, "rental_uris": {"ios": "https://dc.lft.to/lastmile_qr_scan", "android": "https://dc.lft.to/lastmile_qr_scan"}, "is_reserved": 0, "lon": -77.02717, "fusion_lat": 0.0, "name": "2133dde5fe1cc0c03b97c613a1eed4d4"}, {"type": "electric_scooter", "fusion_lon": 0.0, "bike_id": "30f4b5fb9b09454b96976406883963d4", "is_disabled": 0, "lat": 38.92898533333333, "rental_uris": {"ios": "https://dc.lft.to/lastmile_qr_scan", "android": "https://dc.lft.to/lastmile_qr_scan"}, "is_reserved": 0, "lon": -77.03262316666667, "fusion_lat": 0.0, "name": "30f4b5fb9b09454b96976406883963d4"}, {"type": "electric_bike", "fusion_lon": 0.0, "bike_id": "c033121dcc2cb508e140d487bd602567", "is_disabled": 0, "lat": 38.89618333333333, "rental_uris": {"ios": "https://dc.lft.to/lastmile_qr_scan", "android": "https://dc.lft.to/lastmile_qr_scan"}, "is_reserved": 0, "lon": -76.90739833333333, "fusion_lat": 0.0, "name": "c033121dcc2cb508e140d487bd602567"}, {"type": "electric_scooter", "fusion_lon": 0.0, "bike_id": "90ce2357581b57caaa0bc8a7455957ce", "is_disabled": 0, "lat": 38.92080216666667, "rental_uris": {"ios": "https://dc.lft.to/lastmile_qr_scan", "android": "https://dc.lft.to/lastmile_qr_scan"}, "is_reserved": 0, "lon": -77.03264866666666, "fusion_lat": 0.0, "name": "90ce2357581b57caaa0bc8a7455957ce"}, {"type": "electric_scooter", "fusion_lon": 0.0, "bike_id": "0199e33380282ca2c50bef4067272c77", "is_disabled": 0, "lat": 38.8921885, "rental_uris": {"ios": "https://dc.lft.to/lastmile_qr_scan", "android": "https://dc.lft.to/lastmile_qr_scan"}, "is_reserved": 0, "lon": -77.04335466666667, "fusion_lat": 0.0, "name": "0199e33380282ca2c50bef4067272c77"}, {"type": "electric_scooter", "fusion_lon": 0.0, "bike_id": "33a4b20e3cbb41ce123a05756c4ae144", "is_disabled": 0, "lat": 38.92347983333333, "rental_uris": {"ios": "https://dc.lft.to/lastmile_qr_scan", "android": "https://dc.lft.to/lastmile_qr_scan"}, "is_reserved": 0, "lon": -77.03629816666667, "fusion_lat": 0.0, "name": "33a4b20e3cbb41ce123a05756c4ae144"}, {"type": "electric_scooter", "fusion_lon": 0.0, "bike_id": "0b05dec82d138045347df82a4249ccb8", "is_disabled": 0, "lat": 38.9267335, "rental_uris": {"ios": "https://dc.lft.to/lastmile_qr_scan", "android": "https://dc.lft.to/lastmile_qr_scan"}, "is_reserved": 0, "lon": -77.03602133333334, "fusion_lat": 0.0, "name": "0b05dec82d138045347df82a4249ccb8"}, {"type": "electric_scooter", "fusion_lon": 0.0, "bike_id": "9cffac77a345ea4fbc3f0689b5e13ded", "is_disabled": 0, "lat": 38.92162533333333, "rental_uris": {"ios": "https://dc.lft.to/lastmile_qr_scan", "android": "https://dc.lft.to/lastmile_qr_scan"}, "is_reserved": 0, "lon": -77.0469895, "fusion_lat": 0.0, "name": "9cffac77a345ea4fbc3f0689b5e13ded"}, {"type": "electric_scooter", "fusion_lon": 0.0, "bike_id": "d003577cf24dc90c8fc3857e40855a9d", "is_disabled": 0, "lat": 38.9423115, "rental_uris": {"ios": "https://dc.lft.to/lastmile_qr_scan", "android": "https://dc.lft.to/lastmile_qr_scan"}, "is_reserved": 0, "lon": -77.03872416666667, "fusion_lat": 0.0, "name": "d003577cf24dc90c8fc3857e40855a9d"}, {"type": "electric_bike", "fusion_lon": 0.0, "bike_id": "2988d5852405f5182e64ada27bf736cd", "is_disabled": 0, "lat": 38.884894333333335, "rental_uris": {"ios": "https://dc.lft.to/lastmile_qr_scan", "android": "https://dc.lft.to/lastmile_qr_scan"}, "is_reserved": 0, "lon": -76.95761666666667, "fusion_lat": 0.0, "name": "2988d5852405f5182e64ada27bf736cd"}, {"type": "electric_scooter", "fusion_lon": 0.0, "bike_id": "a1e3cd8d180ff9f3120e6f69ec80902c", "is_disabled": 0, "lat": 38.91348333333333, "rental_uris": {"ios": "https://dc.lft.to/lastmile_qr_scan", "android": "https://dc.lft.to/lastmile_qr_scan"}, "is_reserved": 0, "lon": -77.0320465, "fusion_lat": 0.0, "name": "a1e3cd8d180ff9f3120e6f69ec80902c"}, {"type": "electric_scooter", "fusion_lon": 0.0, "bike_id": "cc87c0bc1b141885fb26d550670fabf5", "is_disabled": 0, "lat": 38.923974333333334, "rental_uris": {"ios": "https://dc.lft.to/lastmile_qr_scan", "android": "https://dc.lft.to/lastmile_qr_scan"}, "is_reserved": 0, "lon": -77.034002, "fusion_lat": 0.0, "name": "cc87c0bc1b141885fb26d550670fabf5"}, {"type": "electric_bike", "fusion_lon": 0.0, "bike_id": "bcc0391b3ac86081992548dbd94dc0d9", "is_disabled": 0, "lat": 38.934835166666666, "rental_uris": {"ios": "https://dc.lft.to/lastmile_qr_scan", "android": "https://dc.lft.to/lastmile_qr_scan"}, "is_reserved": 0, "lon": -77.03019316666666, "fusion_lat": 0.0, "name": "bcc0391b3ac86081992548dbd94dc0d9"}, {"type": "electric_scooter", "fusion_lon": 0.0, "bike_id": "e983f70e1016c2c9c4c7509a24a50203", "is_disabled": 0, "lat": 38.887135666666666, "rental_uris": {"ios": "https://dc.lft.to/lastmile_qr_scan", "android": "https://dc.lft.to/lastmile_qr_scan"}, "is_reserved": 0, "lon": -77.022008, "fusion_lat": 0.0, "name": "e983f70e1016c2c9c4c7509a24a50203"}, {"type": "electric_bike", "fusion_lon": 0.0, "bike_id": "98bc9c85c2cb6ed4d4ac18d4afc7d922", "is_disabled": 0, "lat": 39.000043166666664, "rental_uris": {"ios": "https://dc.lft.to/lastmile_qr_scan", "android": "https://dc.lft.to/lastmile_qr_scan"}, "is_reserved": 0, "lon": -76.91805183333334, "fusion_lat": 0.0, "name": "98bc9c85c2cb6ed4d4ac18d4afc7d922"}, {"type": "electric_scooter", "fusion_lon": 0.0, "bike_id": "84fb7e04f7f2d451defbbecb82dbfead", "is_disabled": 0, "lat": 38.90564783333333, "rental_uris": {"ios": "https://dc.lft.to/lastmile_qr_scan", "android": "https://dc.lft.to/lastmile_qr_scan"}, "is_reserved": 0, "lon": -77.034839, "fusion_lat": 0.0, "name": "84fb7e04f7f2d451defbbecb82dbfead"}, {"type": "electric_scooter", "fusion_lon": 0.0, "bike_id": "27a9a59b1a1556575c33bfdef14f1900", "is_disabled": 0, "lat": 38.9182125, "rental_uris": {"ios": "https://dc.lft.to/lastmile_qr_scan", "android": "https://dc.lft.to/lastmile_qr_scan"}, "is_reserved": 0, "lon": -77.0026045, "fusion_lat": 0.0, "name": "27a9a59b1a1556575c33bfdef14f1900"}, {"type": "electric_scooter", "fusion_lon": 0.0, "bike_id": "cdfe3137cd99439c33c57934888b42f3", "is_disabled": 0, "lat": 38.90140233333333, "rental_uris": {"ios": "https://dc.lft.to/lastmile_qr_scan", "android": "https://dc.lft.to/lastmile_qr_scan"}, "is_reserved": 0, "lon": -77.04434383333333, "fusion_lat": 0.0, "name": "cdfe3137cd99439c33c57934888b42f3"}, {"type": "electric_scooter", "fusion_lon": 0.0, "bike_id": "2dc9514ee50a79f00d8a6a0ebbfe13ea", "is_disabled": 0, "lat": 38.92679483333333, "rental_uris": {"ios": "https://dc.lft.to/lastmile_qr_scan", "android": "https://dc.lft.to/lastmile_qr_scan"}, "is_reserved": 0, "lon": -77.02262216666666, "fusion_lat": 0.0, "name": "2dc9514ee50a79f00d8a6a0ebbfe13ea"}, {"type": "electric_scooter", "fusion_lon": 0.0, "bike_id": "cb90e9b332973dd469c6af836be55d90", "is_disabled": 0, "lat": 38.91209333333333, "rental_uris": {"ios": "https://dc.lft.to/lastmile_qr_scan", "android": "https://dc.lft.to/lastmile_qr_scan"}, "is_reserved": 0, "lon": -77.00191016666666, "fusion_lat": 0.0, "name": "cb90e9b332973dd469c6af836be55d90"}, {"type": "electric_scooter", "fusion_lon": 0.0, "bike_id": "e8920d62952d3717f886a450c68c44a1", "is_disabled": 0, "lat": 38.91017516666667, "rental_uris": {"ios": "https://dc.lft.to/lastmile_qr_scan", "android": "https://dc.lft.to/lastmile_qr_scan"}, "is_reserved": 0, "lon": -77.03855133333333, "fusion_lat": 0.0, "name": "e8920d62952d3717f886a450c68c44a1"}, {"type": "electric_scooter", "fusion_lon": 0.0, "bike_id": "82ca596c42ac898f899656f9b1ea6f46", "is_disabled": 0, "lat": 38.93558016666667, "rental_uris": {"ios": "https://dc.lft.to/lastmile_qr_scan", "android": "https://dc.lft.to/lastmile_qr_scan"}, "is_reserved": 0, "lon": -77.07460933333333, "fusion_lat": 0.0, "name": "82ca596c42ac898f899656f9b1ea6f46"}, {"type": "electric_scooter", "fusion_lon": 0.0, "bike_id": "7d1db3eb52903737abb96ab7c98a60b0", "is_disabled": 0, "lat": 38.91279183333333, "rental_uris": {"ios": "https://dc.lft.to/lastmile_qr_scan", "android": "https://dc.lft.to/lastmile_qr_scan"}, "is_reserved": 0, "lon": -77.02969266666666, "fusion_lat": 0.0, "name": "7d1db3eb52903737abb96ab7c98a60b0"}, {"type": "electric_scooter", "fusion_lon": 0.0, "bike_id": "336558dca805e9230e1e13f6e3c09f12", "is_disabled": 0, "lat": 38.921437833333336, "rental_uris": {"ios": "https://dc.lft.to/lastmile_qr_scan", "android": "https://dc.lft.to/lastmile_qr_scan"}, "is_reserved": 0, "lon": -77.04130133333334, "fusion_lat": 0.0, "name": "336558dca805e9230e1e13f6e3c09f12"}, {"type": "electric_scooter", "fusion_lon": 0.0, "bike_id": "d5393a2c67c073c4c67385edc625b9a7", "is_disabled": 0, "lat": 38.89229266666667, "rental_uris": {"ios": "https://dc.lft.to/lastmile_qr_scan", "android": "https://dc.lft.to/lastmile_qr_scan"}, "is_reserved": 0, "lon": -77.028264, "fusion_lat": 0.0, "name": "d5393a2c67c073c4c67385edc625b9a7"}, {"type": "electric_scooter", "fusion_lon": 0.0, "bike_id": "7e6008a83ad3ca917102a82cc14ce3fb", "is_disabled": 0, "lat": 38.891308333333335, "rental_uris": {"ios": "https://dc.lft.to/lastmile_qr_scan", "android": "https://dc.lft.to/lastmile_qr_scan"}, "is_reserved": 0, "lon": -76.9889075, "fusion_lat": 0.0, "name": "7e6008a83ad3ca917102a82cc14ce3fb"}, {"type": "electric_scooter", "fusion_lon": 0.0, "bike_id": "9f9d13aa78e8665b2cd3f73297eff49f", "is_disabled": 0, "lat": 38.922878, "rental_uris": {"ios": "https://dc.lft.to/lastmile_qr_scan", "android": "https://dc.lft.to/lastmile_qr_scan"}, "is_reserved": 0, "lon": -77.03196883333334, "fusion_lat": 0.0, "name": "9f9d13aa78e8665b2cd3f73297eff49f"}, {"type": "electric_scooter", "fusion_lon": 0.0, "bike_id": "4fbff40016e5e8179e393f93c8fa6ca4", "is_disabled": 0, "lat": 38.90024966666667, "rental_uris": {"ios": "https://dc.lft.to/lastmile_qr_scan", "android": "https://dc.lft.to/lastmile_qr_scan"}, "is_reserved": 0, "lon": -77.02604783333334, "fusion_lat": 0.0, "name": "4fbff40016e5e8179e393f93c8fa6ca4"}, {"type": "electric_scooter", "fusion_lon": 0.0, "bike_id": "fdae5352e8129673e4dbbda417d36cbc", "is_disabled": 0, "lat": 38.941941666666665, "rental_uris": {"ios": "https://dc.lft.to/lastmile_qr_scan", "android": "https://dc.lft.to/lastmile_qr_scan"}, "is_reserved": 0, "lon": -77.03328283333333, "fusion_lat": 0.0, "name": "fdae5352e8129673e4dbbda417d36cbc"}, {"type": "electric_scooter", "fusion_lon": 0.0, "bike_id": "726910bfdbecf5e0462324c25e538ddf", "is_disabled": 0, "lat": 38.8952195, "rental_uris": {"ios": "https://dc.lft.to/lastmile_qr_scan", "android": "https://dc.lft.to/lastmile_qr_scan"}, "is_reserved": 0, "lon": -77.03935733333333, "fusion_lat": 0.0, "name": "726910bfdbecf5e0462324c25e538ddf"}, {"type": "electric_scooter", "fusion_lon": 0.0, "bike_id": "0da9a8ec19778240a8fbe1773f24463f", "is_disabled": 0, "lat": 38.9003105, "rental_uris": {"ios": "https://dc.lft.to/lastmile_qr_scan", "android": "https://dc.lft.to/lastmile_qr_scan"}, "is_reserved": 0, "lon": -77.03714933333333, "fusion_lat": 0.0, "name": "0da9a8ec19778240a8fbe1773f24463f"}, {"type": "electric_scooter", "fusion_lon": 0.0, "bike_id": "545fa35ad790f602e0a8bb205f8b20a6", "is_disabled": 0, "lat": 38.91836683333333, "rental_uris": {"ios": "https://dc.lft.to/lastmile_qr_scan", "android": "https://dc.lft.to/lastmile_qr_scan"}, "is_reserved": 0, "lon": -77.04542216666667, "fusion_lat": 0.0, "name": "545fa35ad790f602e0a8bb205f8b20a6"}, {"type": "electric_scooter", "fusion_lon": 0.0, "bike_id": "8214e57f18119b5be2bbcb7c49d78b0b", "is_disabled": 0, "lat": 38.984296, "rental_uris": {"ios": "https://dc.lft.to/lastmile_qr_scan", "android": "https://dc.lft.to/lastmile_qr_scan"}, "is_reserved": 0, "lon": -77.0267225, "fusion_lat": 0.0, "name": "8214e57f18119b5be2bbcb7c49d78b0b"}, {"type": "electric_scooter", "fusion_lon": 0.0, "bike_id": "d2631b1694aadc22bd1b4105ed80bbff", "is_disabled": 0, "lat": 38.89341233333333, "rental_uris": {"ios": "https://dc.lft.to/lastmile_qr_scan", "android": "https://dc.lft.to/lastmile_qr_scan"}, "is_reserved": 0, "lon": -76.99159466666667, "fusion_lat": 0.0, "name": "d2631b1694aadc22bd1b4105ed80bbff"}, {"type": "electric_scooter", "fusion_lon": 0.0, "bike_id": "0fd6249dd9120133928801737a7c377c", "is_disabled": 0, "lat": 38.93659516666666, "rental_uris": {"ios": "https://dc.lft.to/lastmile_qr_scan", "android": "https://dc.lft.to/lastmile_qr_scan"}, "is_reserved": 0, "lon": -77.03659333333333, "fusion_lat": 0.0, "name": "0fd6249dd9120133928801737a7c377c"}, {"type": "electric_scooter", "fusion_lon": 0.0, "bike_id": "4b4d46ddd20723df62b7ac404b751773", "is_disabled": 0, "lat": 38.92759683333333, "rental_uris": {"ios": "https://dc.lft.to/lastmile_qr_scan", "android": "https://dc.lft.to/lastmile_qr_scan"}, "is_reserved": 0, "lon": -77.03274466666667, "fusion_lat": 0.0, "name": "4b4d46ddd20723df62b7ac404b751773"}, {"type": "electric_scooter", "fusion_lon": 0.0, "bike_id": "20f3ae1863129b58ad6ee080ff84bc27", "is_disabled": 0, "lat": 38.937461166666665, "rental_uris": {"ios": "https://dc.lft.to/lastmile_qr_scan", "android": "https://dc.lft.to/lastmile_qr_scan"}, "is_reserved": 0, "lon": -77.06871633333333, "fusion_lat": 0.0, "name": "20f3ae1863129b58ad6ee080ff84bc27"}, {"type": "electric_scooter", "fusion_lon": 0.0, "bike_id": "e0b585083e685e7b8fc969c4541c0365", "is_disabled": 0, "lat": 38.909721166666664, "rental_uris": {"ios": "https://dc.lft.to/lastmile_qr_scan", "android": "https://dc.lft.to/lastmile_qr_scan"}, "is_reserved": 0, "lon": -77.01717783333334, "fusion_lat": 0.0, "name": "e0b585083e685e7b8fc969c4541c0365"}, {"type": "electric_scooter", "fusion_lon": 0.0, "bike_id": "fd6f1d469a74990ef12bdd68a52e30ce", "is_disabled": 0, "lat": 38.916008833333336, "rental_uris": {"ios": "https://dc.lft.to/lastmile_qr_scan", "android": "https://dc.lft.to/lastmile_qr_scan"}, "is_reserved": 0, "lon": -77.04358166666667, "fusion_lat": 0.0, "name": "fd6f1d469a74990ef12bdd68a52e30ce"}, {"type": "electric_scooter", "fusion_lon": 0.0, "bike_id": "c1e21c71a67f2e5d347010a99bf1722e", "is_disabled": 0, "lat": 38.860135166666666, "rental_uris": {"ios": "https://dc.lft.to/lastmile_qr_scan", "android": "https://dc.lft.to/lastmile_qr_scan"}, "is_reserved": 0, "lon": -76.96705983333334, "fusion_lat": 0.0, "name": "c1e21c71a67f2e5d347010a99bf1722e"}, {"type": "electric_scooter", "fusion_lon": 0.0, "bike_id": "9889679e724b917bd36b65f2028d1d00", "is_disabled": 0, "lat": 38.892234333333334, "rental_uris": {"ios": "https://dc.lft.to/lastmile_qr_scan", "android": "https://dc.lft.to/lastmile_qr_scan"}, "is_reserved": 0, "lon": -77.04863566666667, "fusion_lat": 0.0, "name": "9889679e724b917bd36b65f2028d1d00"}, {"type": "electric_scooter", "fusion_lon": 0.0, "bike_id": "a674478736ae45a510c3ac7e49212a87", "is_disabled": 0, "lat": 38.91565533333333, "rental_uris": {"ios": "https://dc.lft.to/lastmile_qr_scan", "android": "https://dc.lft.to/lastmile_qr_scan"}, "is_reserved": 0, "lon": -77.0372475, "fusion_lat": 0.0, "name": "a674478736ae45a510c3ac7e49212a87"}, {"type": "electric_scooter", "fusion_lon": 0.0, "bike_id": "3103ee4df68f1c71ce7cc5f31141c826", "is_disabled": 0, "lat": 38.927050666666666, "rental_uris": {"ios": "https://dc.lft.to/lastmile_qr_scan", "android": "https://dc.lft.to/lastmile_qr_scan"}, "is_reserved": 0, "lon": -77.03761816666666, "fusion_lat": 0.0, "name": "3103ee4df68f1c71ce7cc5f31141c826"}, {"type": "electric_scooter", "fusion_lon": 0.0, "bike_id": "5b34b3394505d3da305ec4a18c851daa", "is_disabled": 0, "lat": 38.90725833333333, "rental_uris": {"ios": "https://dc.lft.to/lastmile_qr_scan", "android": "https://dc.lft.to/lastmile_qr_scan"}, "is_reserved": 0, "lon": -77.03206083333333, "fusion_lat": 0.0, "name": "5b34b3394505d3da305ec4a18c851daa"}, {"type": "electric_scooter", "fusion_lon": 0.0, "bike_id": "c100ed211e56352574a1d6da208f672f", "is_disabled": 0, "lat": 38.89232166666667, "rental_uris": {"ios": "https://dc.lft.to/lastmile_qr_scan", "android": "https://dc.lft.to/lastmile_qr_scan"}, "is_reserved": 0, "lon": -77.00290566666666, "fusion_lat": 0.0, "name": "c100ed211e56352574a1d6da208f672f"}, {"type": "electric_bike", "fusion_lon": 0.0, "bike_id": "2ea29ee7c29096ca34dd4f79929a4390", "is_disabled": 0, "lat": 38.881367166666664, "rental_uris": {"ios": "https://dc.lft.to/lastmile_qr_scan", "android": "https://dc.lft.to/lastmile_qr_scan"}, "is_reserved": 0, "lon": -77.01665883333334, "fusion_lat": 0.0, "name": "2ea29ee7c29096ca34dd4f79929a4390"}, {"type": "electric_scooter", "fusion_lon": 0.0, "bike_id": "984480576279ad07f946d4087f813c85", "is_disabled": 0, "lat": 38.9041205, "rental_uris": {"ios": "https://dc.lft.to/lastmile_qr_scan", "android": "https://dc.lft.to/lastmile_qr_scan"}, "is_reserved": 0, "lon": -76.97327566666667, "fusion_lat": 0.0, "name": "984480576279ad07f946d4087f813c85"}, {"type": "electric_scooter", "fusion_lon": 0.0, "bike_id": "9b19a6ed0529cc91f84585163eae2569", "is_disabled": 0, "lat": 38.92227833333333, "rental_uris": {"ios": "https://dc.lft.to/lastmile_qr_scan", "android": "https://dc.lft.to/lastmile_qr_scan"}, "is_reserved": 0, "lon": -77.04700433333333, "fusion_lat": 0.0, "name": "9b19a6ed0529cc91f84585163eae2569"}, {"type": "electric_scooter", "fusion_lon": 0.0, "bike_id": "3f3f1cb9e90752e799109025f1fbc6d2", "is_disabled": 0, "lat": 38.92265183333333, "rental_uris": {"ios": "https://dc.lft.to/lastmile_qr_scan", "android": "https://dc.lft.to/lastmile_qr_scan"}, "is_reserved": 0, "lon": -77.01831433333334, "fusion_lat": 0.0, "name": "3f3f1cb9e90752e799109025f1fbc6d2"}, {"type": "electric_scooter", "fusion_lon": 0.0, "bike_id": "12c4881bd05b6f4bec26c8e767d2bdfc", "is_disabled": 0, "lat": 38.8840285, "rental_uris": {"ios": "https://dc.lft.to/lastmile_qr_scan", "android": "https://dc.lft.to/lastmile_qr_scan"}, "is_reserved": 0, "lon": -77.02959016666667, "fusion_lat": 0.0, "name": "12c4881bd05b6f4bec26c8e767d2bdfc"}, {"type": "electric_bike", "fusion_lon": 0.0, "bike_id": "d6757d2e44237e83a975d4ad53d991d5", "is_disabled": 0, "lat": 38.9256605, "rental_uris": {"ios": "https://dc.lft.to/lastmile_qr_scan", "android": "https://dc.lft.to/lastmile_qr_scan"}, "is_reserved": 0, "lon": -76.95979433333333, "fusion_lat": 0.0, "name": "d6757d2e44237e83a975d4ad53d991d5"}, {"type": "electric_scooter", "fusion_lon": 0.0, "bike_id": "2e4db428d8ef48f965b015fededf6497", "is_disabled": 0, "lat": 38.9102795, "rental_uris": {"ios": "https://dc.lft.to/lastmile_qr_scan", "android": "https://dc.lft.to/lastmile_qr_scan"}, "is_reserved": 0, "lon": -77.04639416666667, "fusion_lat": 0.0, "name": "2e4db428d8ef48f965b015fededf6497"}, {"type": "electric_scooter", "fusion_lon": 0.0, "bike_id": "808fe0a4f43401e5ee809872917e9aaf", "is_disabled": 0, "lat": 38.885385166666666, "rental_uris": {"ios": "https://dc.lft.to/lastmile_qr_scan", "android": "https://dc.lft.to/lastmile_qr_scan"}, "is_reserved": 0, "lon": -77.011004, "fusion_lat": 0.0, "name": "808fe0a4f43401e5ee809872917e9aaf"}, {"type": "electric_scooter", "fusion_lon": 0.0, "bike_id": "19fb5c4af6c0b4ce139d52421aef3db7", "is_disabled": 0, "lat": 38.88735066666667, "rental_uris": {"ios": "https://dc.lft.to/lastmile_qr_scan", "android": "https://dc.lft.to/lastmile_qr_scan"}, "is_reserved": 0, "lon": -77.03175333333333, "fusion_lat": 0.0, "name": "19fb5c4af6c0b4ce139d52421aef3db7"}, {"type": "electric_scooter", "fusion_lon": 0.0, "bike_id": "b2e426a7d64ae519889af045a8da13ef", "is_disabled": 0, "lat": 38.914398166666665, "rental_uris": {"ios": "https://dc.lft.to/lastmile_qr_scan", "android": "https://dc.lft.to/lastmile_qr_scan"}, "is_reserved": 0, "lon": -77.04180966666667, "fusion_lat": 0.0, "name": "b2e426a7d64ae519889af045a8da13ef"}, {"type": "electric_scooter", "fusion_lon": 0.0, "bike_id": "800511bf850ac1e64c26d2b06ef091b8", "is_disabled": 0, "lat": 38.93363516666667, "rental_uris": {"ios": "https://dc.lft.to/lastmile_qr_scan", "android": "https://dc.lft.to/lastmile_qr_scan"}, "is_reserved": 0, "lon": -77.0264325, "fusion_lat": 0.0, "name": "800511bf850ac1e64c26d2b06ef091b8"}, {"type": "electric_scooter", "fusion_lon": 0.0, "bike_id": "0c788c23ff35e89a816bf48de6f2d322", "is_disabled": 0, "lat": 38.9335365, "rental_uris": {"ios": "https://dc.lft.to/lastmile_qr_scan", "android": "https://dc.lft.to/lastmile_qr_scan"}, "is_reserved": 0, "lon": -77.03656783333334, "fusion_lat": 0.0, "name": "0c788c23ff35e89a816bf48de6f2d322"}, {"type": "electric_scooter", "fusion_lon": 0.0, "bike_id": "765d63d93d50583599f1bc2bb93bbbb7", "is_disabled": 0, "lat": 38.91701483333333, "rental_uris": {"ios": "https://dc.lft.to/lastmile_qr_scan", "android": "https://dc.lft.to/lastmile_qr_scan"}, "is_reserved": 0, "lon": -77.03470716666666, "fusion_lat": 0.0, "name": "765d63d93d50583599f1bc2bb93bbbb7"}, {"type": "electric_scooter", "fusion_lon": 0.0, "bike_id": "0baf1e9dc73ffc2f455cd27097fad57e", "is_disabled": 0, "lat": 38.870843666666666, "rental_uris": {"ios": "https://dc.lft.to/lastmile_qr_scan", "android": "https://dc.lft.to/lastmile_qr_scan"}, "is_reserved": 0, "lon": -76.9656585, "fusion_lat": 0.0, "name": "0baf1e9dc73ffc2f455cd27097fad57e"}, {"type": "electric_scooter", "fusion_lon": 0.0, "bike_id": "44948f89db30e3e38911db7b3f9c050f", "is_disabled": 0, "lat": 38.91544583333334, "rental_uris": {"ios": "https://dc.lft.to/lastmile_qr_scan", "android": "https://dc.lft.to/lastmile_qr_scan"}, "is_reserved": 0, "lon": -77.03853666666667, "fusion_lat": 0.0, "name": "44948f89db30e3e38911db7b3f9c050f"}, {"type": "electric_scooter", "fusion_lon": 0.0, "bike_id": "204ed1de983eb8f13423c793ffc74560", "is_disabled": 0, "lat": 38.89726366666667, "rental_uris": {"ios": "https://dc.lft.to/lastmile_qr_scan", "android": "https://dc.lft.to/lastmile_qr_scan"}, "is_reserved": 0, "lon": -77.02493533333333, "fusion_lat": 0.0, "name": "204ed1de983eb8f13423c793ffc74560"}, {"type": "electric_scooter", "fusion_lon": 0.0, "bike_id": "89b523e00f854c0632b2b217923846dc", "is_disabled": 0, "lat": 38.925130333333335, "rental_uris": {"ios": "https://dc.lft.to/lastmile_qr_scan", "android": "https://dc.lft.to/lastmile_qr_scan"}, "is_reserved": 0, "lon": -77.02257666666667, "fusion_lat": 0.0, "name": "89b523e00f854c0632b2b217923846dc"}, {"type": "electric_scooter", "fusion_lon": 0.0, "bike_id": "96efe395f04835595123d0cbdb0062f4", "is_disabled": 0, "lat": 38.9156865, "rental_uris": {"ios": "https://dc.lft.to/lastmile_qr_scan", "android": "https://dc.lft.to/lastmile_qr_scan"}, "is_reserved": 0, "lon": -77.03321616666666, "fusion_lat": 0.0, "name": "96efe395f04835595123d0cbdb0062f4"}, {"type": "electric_scooter", "fusion_lon": 0.0, "bike_id": "f262696e65a337aec33971cb63854c3b", "is_disabled": 0, "lat": 38.892204, "rental_uris": {"ios": "https://dc.lft.to/lastmile_qr_scan", "android": "https://dc.lft.to/lastmile_qr_scan"}, "is_reserved": 0, "lon": -77.04865266666667, "fusion_lat": 0.0, "name": "f262696e65a337aec33971cb63854c3b"}, {"type": "electric_scooter", "fusion_lon": 0.0, "bike_id": "5e47cbac5ad9eb53e9548795c0f7e64a", "is_disabled": 0, "lat": 38.892663, "rental_uris": {"ios": "https://dc.lft.to/lastmile_qr_scan", "android": "https://dc.lft.to/lastmile_qr_scan"}, "is_reserved": 0, "lon": -77.04205733333333, "fusion_lat": 0.0, "name": "5e47cbac5ad9eb53e9548795c0f7e64a"}, {"type": "electric_bike", "fusion_lon": 0.0, "bike_id": "d09592aee0186f0cf5cd350d82998907", "is_disabled": 0, "lat": 38.94507183333333, "rental_uris": {"ios": "https://dc.lft.to/lastmile_qr_scan", "android": "https://dc.lft.to/lastmile_qr_scan"}, "is_reserved": 0, "lon": -77.00665566666666, "fusion_lat": 0.0, "name": "d09592aee0186f0cf5cd350d82998907"}, {"type": "electric_scooter", "fusion_lon": 0.0, "bike_id": "6a5490e629d4177aced48d368b895161", "is_disabled": 0, "lat": 38.8755385, "rental_uris": {"ios": "https://dc.lft.to/lastmile_qr_scan", "android": "https://dc.lft.to/lastmile_qr_scan"}, "is_reserved": 0, "lon": -76.964933, "fusion_lat": 0.0, "name": "6a5490e629d4177aced48d368b895161"}, {"type": "electric_scooter", "fusion_lon": 0.0, "bike_id": "9ae90ab13d81a49ee89a10a2799f7372", "is_disabled": 0, "lat": 38.91413416666666, "rental_uris": {"ios": "https://dc.lft.to/lastmile_qr_scan", "android": "https://dc.lft.to/lastmile_qr_scan"}, "is_reserved": 0, "lon": -77.03812616666667, "fusion_lat": 0.0, "name": "9ae90ab13d81a49ee89a10a2799f7372"}, {"type": "electric_scooter", "fusion_lon": 0.0, "bike_id": "0debfb728875aa6e6944ba1ce45a1a02", "is_disabled": 0, "lat": 38.91816816666667, "rental_uris": {"ios": "https://dc.lft.to/lastmile_qr_scan", "android": "https://dc.lft.to/lastmile_qr_scan"}, "is_reserved": 0, "lon": -77.03449533333334, "fusion_lat": 0.0, "name": "0debfb728875aa6e6944ba1ce45a1a02"}, {"type": "electric_scooter", "fusion_lon": 0.0, "bike_id": "e040daebe89c07e3f8dd696016eb0c49", "is_disabled": 0, "lat": 38.914212, "rental_uris": {"ios": "https://dc.lft.to/lastmile_qr_scan", "android": "https://dc.lft.to/lastmile_qr_scan"}, "is_reserved": 0, "lon": -77.045007, "fusion_lat": 0.0, "name": "e040daebe89c07e3f8dd696016eb0c49"}, {"type": "electric_scooter", "fusion_lon": 0.0, "bike_id": "ade8d4440ea4ca5f5d4c0b3f141c029a", "is_disabled": 0, "lat": 38.917094, "rental_uris": {"ios": "https://dc.lft.to/lastmile_qr_scan", "android": "https://dc.lft.to/lastmile_qr_scan"}, "is_reserved": 0, "lon": -77.0386485, "fusion_lat": 0.0, "name": "ade8d4440ea4ca5f5d4c0b3f141c029a"}, {"type": "electric_scooter", "fusion_lon": 0.0, "bike_id": "9949679e876ff919a78ce076871d99e5", "is_disabled": 0, "lat": 38.875728, "rental_uris": {"ios": "https://dc.lft.to/lastmile_qr_scan", "android": "https://dc.lft.to/lastmile_qr_scan"}, "is_reserved": 0, "lon": -77.006087, "fusion_lat": 0.0, "name": "9949679e876ff919a78ce076871d99e5"}, {"type": "electric_scooter", "fusion_lon": 0.0, "bike_id": "9c1f2ee754abbc6230fff9460fa3b2b4", "is_disabled": 0, "lat": 38.915503, "rental_uris": {"ios": "https://dc.lft.to/lastmile_qr_scan", "android": "https://dc.lft.to/lastmile_qr_scan"}, "is_reserved": 0, "lon": -77.01180966666666, "fusion_lat": 0.0, "name": "9c1f2ee754abbc6230fff9460fa3b2b4"}, {"type": "electric_scooter", "fusion_lon": 0.0, "bike_id": "30e49b578c40e1dd397ec6adaaa16b96", "is_disabled": 0, "lat": 38.9305955, "rental_uris": {"ios": "https://dc.lft.to/lastmile_qr_scan", "android": "https://dc.lft.to/lastmile_qr_scan"}, "is_reserved": 0, "lon": -77.0584185, "fusion_lat": 0.0, "name": "30e49b578c40e1dd397ec6adaaa16b96"}, {"type": "electric_scooter", "fusion_lon": 0.0, "bike_id": "a116d23864d457f3ffea789cb8a24f98", "is_disabled": 0, "lat": 38.935229, "rental_uris": {"ios": "https://dc.lft.to/lastmile_qr_scan", "android": "https://dc.lft.to/lastmile_qr_scan"}, "is_reserved": 0, "lon": -77.03261366666666, "fusion_lat": 0.0, "name": "a116d23864d457f3ffea789cb8a24f98"}, {"type": "electric_scooter", "fusion_lon": 0.0, "bike_id": "5ec4eed43ce15a579d5a566a765221d3", "is_disabled": 0, "lat": 38.907884, "rental_uris": {"ios": "https://dc.lft.to/lastmile_qr_scan", "android": "https://dc.lft.to/lastmile_qr_scan"}, "is_reserved": 0, "lon": -77.03197683333333, "fusion_lat": 0.0, "name": "5ec4eed43ce15a579d5a566a765221d3"}, {"type": "electric_scooter", "fusion_lon": 0.0, "bike_id": "0228645e2bb081ce0e95190fad465bce", "is_disabled": 0, "lat": 38.91708033333333, "rental_uris": {"ios": "https://dc.lft.to/lastmile_qr_scan", "android": "https://dc.lft.to/lastmile_qr_scan"}, "is_reserved": 0, "lon": -77.02894283333333, "fusion_lat": 0.0, "name": "0228645e2bb081ce0e95190fad465bce"}, {"type": "electric_scooter", "fusion_lon": 0.0, "bike_id": "b20b96e0553ae06c921030a79e98858b", "is_disabled": 0, "lat": 38.91947, "rental_uris": {"ios": "https://dc.lft.to/lastmile_qr_scan", "android": "https://dc.lft.to/lastmile_qr_scan"}, "is_reserved": 0, "lon": -77.031857, "fusion_lat": 0.0, "name": "b20b96e0553ae06c921030a79e98858b"}, {"type": "electric_scooter", "fusion_lon": 0.0, "bike_id": "27d42ee55f6e6c1ce437420c92b15da8", "is_disabled": 0, "lat": 38.899282666666664, "rental_uris": {"ios": "https://dc.lft.to/lastmile_qr_scan", "android": "https://dc.lft.to/lastmile_qr_scan"}, "is_reserved": 0, "lon": -77.05302266666666, "fusion_lat": 0.0, "name": "27d42ee55f6e6c1ce437420c92b15da8"}, {"type": "electric_scooter", "fusion_lon": 0.0, "bike_id": "7ecfb83ee9993e2dcf0b16671240a5d8", "is_disabled": 0, "lat": 38.92979716666667, "rental_uris": {"ios": "https://dc.lft.to/lastmile_qr_scan", "android": "https://dc.lft.to/lastmile_qr_scan"}, "is_reserved": 0, "lon": -77.03656016666666, "fusion_lat": 0.0, "name": "7ecfb83ee9993e2dcf0b16671240a5d8"}, {"type": "electric_bike", "fusion_lon": 0.0, "bike_id": "09cea8c7ed18cfd64856e11b28afb705", "is_disabled": 0, "lat": 38.97059683333333, "rental_uris": {"ios": "https://dc.lft.to/lastmile_qr_scan", "android": "https://dc.lft.to/lastmile_qr_scan"}, "is_reserved": 0, "lon": -76.93618483333333, "fusion_lat": 0.0, "name": "09cea8c7ed18cfd64856e11b28afb705"}, {"type": "electric_scooter", "fusion_lon": 0.0, "bike_id": "4c81d977aa9b444e923e02ac18f440c9", "is_disabled": 0, "lat": 38.87763316666667, "rental_uris": {"ios": "https://dc.lft.to/lastmile_qr_scan", "android": "https://dc.lft.to/lastmile_qr_scan"}, "is_reserved": 0, "lon": -77.007516, "fusion_lat": 0.0, "name": "4c81d977aa9b444e923e02ac18f440c9"}, {"type": "electric_bike", "fusion_lon": 0.0, "bike_id": "6a0c67e0a82fa2d976286581b5b007ca", "is_disabled": 0, "lat": 38.88300066666667, "rental_uris": {"ios": "https://dc.lft.to/lastmile_qr_scan", "android": "https://dc.lft.to/lastmile_qr_scan"}, "is_reserved": 0, "lon": -76.94976666666666, "fusion_lat": 0.0, "name": "6a0c67e0a82fa2d976286581b5b007ca"}, {"type": "electric_scooter", "fusion_lon": 0.0, "bike_id": "527ebbccae9345669fa8aeb64660b453", "is_disabled": 0, "lat": 38.910559166666665, "rental_uris": {"ios": "https://dc.lft.to/lastmile_qr_scan", "android": "https://dc.lft.to/lastmile_qr_scan"}, "is_reserved": 0, "lon": -77.026551, "fusion_lat": 0.0, "name": "527ebbccae9345669fa8aeb64660b453"}, {"type": "electric_scooter", "fusion_lon": 0.0, "bike_id": "9db2d9c1c7dfae1eb4b6da48f475e69c", "is_disabled": 0, "lat": 38.859448, "rental_uris": {"ios": "https://dc.lft.to/lastmile_qr_scan", "android": "https://dc.lft.to/lastmile_qr_scan"}, "is_reserved": 0, "lon": -76.958836, "fusion_lat": 0.0, "name": "9db2d9c1c7dfae1eb4b6da48f475e69c"}, {"type": "electric_scooter", "fusion_lon": 0.0, "bike_id": "9190d0c21c987d4bfdde5a688c2967fc", "is_disabled": 0, "lat": 38.921111333333336, "rental_uris": {"ios": "https://dc.lft.to/lastmile_qr_scan", "android": "https://dc.lft.to/lastmile_qr_scan"}, "is_reserved": 0, "lon": -77.04827183333333, "fusion_lat": 0.0, "name": "9190d0c21c987d4bfdde5a688c2967fc"}, {"type": "electric_scooter", "fusion_lon": 0.0, "bike_id": "f3f0f55cd84d8979fdd12b3dba85a9b9", "is_disabled": 0, "lat": 38.920845, "rental_uris": {"ios": "https://dc.lft.to/lastmile_qr_scan", "android": "https://dc.lft.to/lastmile_qr_scan"}, "is_reserved": 0, "lon": -77.02296766666667, "fusion_lat": 0.0, "name": "f3f0f55cd84d8979fdd12b3dba85a9b9"}, {"type": "electric_scooter", "fusion_lon": 0.0, "bike_id": "652f2f53a307059699526a029fe4f6f4", "is_disabled": 0, "lat": 38.93221, "rental_uris": {"ios": "https://dc.lft.to/lastmile_qr_scan", "android": "https://dc.lft.to/lastmile_qr_scan"}, "is_reserved": 0, "lon": -77.02381166666666, "fusion_lat": 0.0, "name": "652f2f53a307059699526a029fe4f6f4"}, {"type": "electric_scooter", "fusion_lon": 0.0, "bike_id": "31fffbf19a01dc08cb27ad4159e2b8fa", "is_disabled": 0, "lat": 38.91257566666667, "rental_uris": {"ios": "https://dc.lft.to/lastmile_qr_scan", "android": "https://dc.lft.to/lastmile_qr_scan"}, "is_reserved": 0, "lon": -77.03861066666667, "fusion_lat": 0.0, "name": "31fffbf19a01dc08cb27ad4159e2b8fa"}, {"type": "electric_scooter", "fusion_lon": 0.0, "bike_id": "726cc8b9236c31db0b85bd5dd2c84da1", "is_disabled": 0, "lat": 38.9251435, "rental_uris": {"ios": "https://dc.lft.to/lastmile_qr_scan", "android": "https://dc.lft.to/lastmile_qr_scan"}, "is_reserved": 0, "lon": -77.021644, "fusion_lat": 0.0, "name": "726cc8b9236c31db0b85bd5dd2c84da1"}, {"type": "electric_scooter", "fusion_lon": 0.0, "bike_id": "553ce85a791410cbde14892f85c78d41", "is_disabled": 0, "lat": 38.9065085, "rental_uris": {"ios": "https://dc.lft.to/lastmile_qr_scan", "android": "https://dc.lft.to/lastmile_qr_scan"}, "is_reserved": 0, "lon": -77.011423, "fusion_lat": 0.0, "name": "553ce85a791410cbde14892f85c78d41"}, {"type": "electric_scooter", "fusion_lon": 0.0, "bike_id": "3ba583d8816b017e5c366bf24a48ecbc", "is_disabled": 0, "lat": 38.944140166666664, "rental_uris": {"ios": "https://dc.lft.to/lastmile_qr_scan", "android": "https://dc.lft.to/lastmile_qr_scan"}, "is_reserved": 0, "lon": -77.0049965, "fusion_lat": 0.0, "name": "3ba583d8816b017e5c366bf24a48ecbc"}, {"type": "electric_scooter", "fusion_lon": 0.0, "bike_id": "a9bb31b1e22501d3ade0dc02f02e07bf", "is_disabled": 0, "lat": 38.914621333333336, "rental_uris": {"ios": "https://dc.lft.to/lastmile_qr_scan", "android": "https://dc.lft.to/lastmile_qr_scan"}, "is_reserved": 0, "lon": -77.0148905, "fusion_lat": 0.0, "name": "a9bb31b1e22501d3ade0dc02f02e07bf"}, {"type": "electric_scooter", "fusion_lon": 0.0, "bike_id": "28ed5148cf4c6252c8b9591191934545", "is_disabled": 0, "lat": 38.936681166666666, "rental_uris": {"ios": "https://dc.lft.to/lastmile_qr_scan", "android": "https://dc.lft.to/lastmile_qr_scan"}, "is_reserved": 0, "lon": -77.03396016666666, "fusion_lat": 0.0, "name": "28ed5148cf4c6252c8b9591191934545"}, {"type": "electric_scooter", "fusion_lon": 0.0, "bike_id": "3e41d9f5a3c49d2fb205f92c52913bc4", "is_disabled": 0, "lat": 38.90867466666667, "rental_uris": {"ios": "https://dc.lft.to/lastmile_qr_scan", "android": "https://dc.lft.to/lastmile_qr_scan"}, "is_reserved": 0, "lon": -77.04086133333334, "fusion_lat": 0.0, "name": "3e41d9f5a3c49d2fb205f92c52913bc4"}, {"type": "electric_scooter", "fusion_lon": 0.0, "bike_id": "4df968c5cc61b3db18315cc95ab1123f", "is_disabled": 0, "lat": 38.92566016666667, "rental_uris": {"ios": "https://dc.lft.to/lastmile_qr_scan", "android": "https://dc.lft.to/lastmile_qr_scan"}, "is_reserved": 0, "lon": -77.02843566666667, "fusion_lat": 0.0, "name": "4df968c5cc61b3db18315cc95ab1123f"}, {"type": "electric_scooter", "fusion_lon": 0.0, "bike_id": "2277a22b0963131582b94904bcae7435", "is_disabled": 0, "lat": 38.885391, "rental_uris": {"ios": "https://dc.lft.to/lastmile_qr_scan", "android": "https://dc.lft.to/lastmile_qr_scan"}, "is_reserved": 0, "lon": -76.97891266666667, "fusion_lat": 0.0, "name": "2277a22b0963131582b94904bcae7435"}, {"type": "electric_bike", "fusion_lon": 0.0, "bike_id": "3e785eed105af20d54397772bbe3500e", "is_disabled": 0, "lat": 38.86621816666667, "rental_uris": {"ios": "https://dc.lft.to/lastmile_qr_scan", "android": "https://dc.lft.to/lastmile_qr_scan"}, "is_reserved": 0, "lon": -76.9457515, "fusion_lat": 0.0, "name": "3e785eed105af20d54397772bbe3500e"}, {"type": "electric_scooter", "fusion_lon": 0.0, "bike_id": "529926fd5066872f3b15f37cd7c9217f", "is_disabled": 0, "lat": 38.899565333333335, "rental_uris": {"ios": "https://dc.lft.to/lastmile_qr_scan", "android": "https://dc.lft.to/lastmile_qr_scan"}, "is_reserved": 0, "lon": -77.01616733333333, "fusion_lat": 0.0, "name": "529926fd5066872f3b15f37cd7c9217f"}, {"type": "electric_scooter", "fusion_lon": 0.0, "bike_id": "52f6a850b51e29b8876af21f6f30affb", "is_disabled": 0, "lat": 38.89472083333333, "rental_uris": {"ios": "https://dc.lft.to/lastmile_qr_scan", "android": "https://dc.lft.to/lastmile_qr_scan"}, "is_reserved": 0, "lon": -77.01863483333334, "fusion_lat": 0.0, "name": "52f6a850b51e29b8876af21f6f30affb"}, {"type": "electric_bike", "fusion_lon": 0.0, "bike_id": "3f7f7fe06bbb8dbe9eb7d82e3eda9f18", "is_disabled": 0, "lat": 38.99783466666667, "rental_uris": {"ios": "https://dc.lft.to/lastmile_qr_scan", "android": "https://dc.lft.to/lastmile_qr_scan"}, "is_reserved": 0, "lon": -77.00762833333333, "fusion_lat": 0.0, "name": "3f7f7fe06bbb8dbe9eb7d82e3eda9f18"}, {"type": "electric_scooter", "fusion_lon": 0.0, "bike_id": "9bc6b654d341194bd9f7ba622c18e020", "is_disabled": 0, "lat": 38.90955783333333, "rental_uris": {"ios": "https://dc.lft.to/lastmile_qr_scan", "android": "https://dc.lft.to/lastmile_qr_scan"}, "is_reserved": 0, "lon": -77.04647983333334, "fusion_lat": 0.0, "name": "9bc6b654d341194bd9f7ba622c18e020"}, {"type": "electric_scooter", "fusion_lon": 0.0, "bike_id": "4fb029cca23e1222704d98b0cdff28d1", "is_disabled": 0, "lat": 38.892912, "rental_uris": {"ios": "https://dc.lft.to/lastmile_qr_scan", "android": "https://dc.lft.to/lastmile_qr_scan"}, "is_reserved": 0, "lon": -77.0020335, "fusion_lat": 0.0, "name": "4fb029cca23e1222704d98b0cdff28d1"}, {"type": "electric_scooter", "fusion_lon": 0.0, "bike_id": "f3bb12da44891af729cb321c87f10d08", "is_disabled": 0, "lat": 38.92967433333333, "rental_uris": {"ios": "https://dc.lft.to/lastmile_qr_scan", "android": "https://dc.lft.to/lastmile_qr_scan"}, "is_reserved": 0, "lon": -77.0310295, "fusion_lat": 0.0, "name": "f3bb12da44891af729cb321c87f10d08"}, {"type": "electric_scooter", "fusion_lon": 0.0, "bike_id": "282c892fb909925fc0e124a5c50f1e2b", "is_disabled": 0, "lat": 38.942808, "rental_uris": {"ios": "https://dc.lft.to/lastmile_qr_scan", "android": "https://dc.lft.to/lastmile_qr_scan"}, "is_reserved": 0, "lon": -77.02933266666666, "fusion_lat": 0.0, "name": "282c892fb909925fc0e124a5c50f1e2b"}, {"type": "electric_scooter", "fusion_lon": 0.0, "bike_id": "73a9949a4e6fc6c021c50e59891b4643", "is_disabled": 0, "lat": 38.899108166666664, "rental_uris": {"ios": "https://dc.lft.to/lastmile_qr_scan", "android": "https://dc.lft.to/lastmile_qr_scan"}, "is_reserved": 0, "lon": -76.9338665, "fusion_lat": 0.0, "name": "73a9949a4e6fc6c021c50e59891b4643"}, {"type": "electric_scooter", "fusion_lon": 0.0, "bike_id": "1dee3455b9ddcbd68a16c922d238417d", "is_disabled": 0, "lat": 38.91129333333333, "rental_uris": {"ios": "https://dc.lft.to/lastmile_qr_scan", "android": "https://dc.lft.to/lastmile_qr_scan"}, "is_reserved": 0, "lon": -77.0219785, "fusion_lat": 0.0, "name": "1dee3455b9ddcbd68a16c922d238417d"}, {"type": "electric_scooter", "fusion_lon": 0.0, "bike_id": "e130a064d144f1bf9206ab95d8be06ef", "is_disabled": 0, "lat": 38.90754416666667, "rental_uris": {"ios": "https://dc.lft.to/lastmile_qr_scan", "android": "https://dc.lft.to/lastmile_qr_scan"}, "is_reserved": 0, "lon": -77.00102116666666, "fusion_lat": 0.0, "name": "e130a064d144f1bf9206ab95d8be06ef"}, {"type": "electric_scooter", "fusion_lon": 0.0, "bike_id": "4e45b3ae4815a6915def3be75ee103f2", "is_disabled": 0, "lat": 38.882107833333336, "rental_uris": {"ios": "https://dc.lft.to/lastmile_qr_scan", "android": "https://dc.lft.to/lastmile_qr_scan"}, "is_reserved": 0, "lon": -77.01769116666667, "fusion_lat": 0.0, "name": "4e45b3ae4815a6915def3be75ee103f2"}, {"type": "electric_scooter", "fusion_lon": 0.0, "bike_id": "6ae11ce57e6686bb047384c8688c7482", "is_disabled": 0, "lat": 38.8994915, "rental_uris": {"ios": "https://dc.lft.to/lastmile_qr_scan", "android": "https://dc.lft.to/lastmile_qr_scan"}, "is_reserved": 0, "lon": -77.02107416666666, "fusion_lat": 0.0, "name": "6ae11ce57e6686bb047384c8688c7482"}, {"type": "electric_scooter", "fusion_lon": 0.0, "bike_id": "9f8f25fd2d36543ac8de0512f92e90e8", "is_disabled": 0, "lat": 38.904034, "rental_uris": {"ios": "https://dc.lft.to/lastmile_qr_scan", "android": "https://dc.lft.to/lastmile_qr_scan"}, "is_reserved": 0, "lon": -77.0200115, "fusion_lat": 0.0, "name": "9f8f25fd2d36543ac8de0512f92e90e8"}, {"type": "electric_scooter", "fusion_lon": 0.0, "bike_id": "4a5f636f59dc7d7b063b7c894161c904", "is_disabled": 0, "lat": 38.90973183333333, "rental_uris": {"ios": "https://dc.lft.to/lastmile_qr_scan", "android": "https://dc.lft.to/lastmile_qr_scan"}, "is_reserved": 0, "lon": -77.038694, "fusion_lat": 0.0, "name": "4a5f636f59dc7d7b063b7c894161c904"}, {"type": "electric_bike", "fusion_lon": 0.0, "bike_id": "63d51260599436ff036da018984093a1", "is_disabled": 0, "lat": 38.835275, "rental_uris": {"ios": "https://dc.lft.to/lastmile_qr_scan", "android": "https://dc.lft.to/lastmile_qr_scan"}, "is_reserved": 0, "lon": -76.98705383333333, "fusion_lat": 0.0, "name": "63d51260599436ff036da018984093a1"}, {"type": "electric_scooter", "fusion_lon": 0.0, "bike_id": "be27b45cf82c2700284f346d56ab8065", "is_disabled": 0, "lat": 38.889975166666666, "rental_uris": {"ios": "https://dc.lft.to/lastmile_qr_scan", "android": "https://dc.lft.to/lastmile_qr_scan"}, "is_reserved": 0, "lon": -76.95435466666666, "fusion_lat": 0.0, "name": "be27b45cf82c2700284f346d56ab8065"}, {"type": "electric_scooter", "fusion_lon": 0.0, "bike_id": "c7b0319df59326ac81ca1e2bfd5ba73b", "is_disabled": 0, "lat": 38.898831666666666, "rental_uris": {"ios": "https://dc.lft.to/lastmile_qr_scan", "android": "https://dc.lft.to/lastmile_qr_scan"}, "is_reserved": 0, "lon": -77.0535595, "fusion_lat": 0.0, "name": "c7b0319df59326ac81ca1e2bfd5ba73b"}, {"type": "electric_scooter", "fusion_lon": 0.0, "bike_id": "def4ed2919ee12dc9e0bee4c789c77ff", "is_disabled": 0, "lat": 38.908657833333336, "rental_uris": {"ios": "https://dc.lft.to/lastmile_qr_scan", "android": "https://dc.lft.to/lastmile_qr_scan"}, "is_reserved": 0, "lon": -77.03835466666666, "fusion_lat": 0.0, "name": "def4ed2919ee12dc9e0bee4c789c77ff"}, {"type": "electric_scooter", "fusion_lon": 0.0, "bike_id": "35b508fb0463298c877b16655f4ce109", "is_disabled": 0, "lat": 38.90661883333333, "rental_uris": {"ios": "https://dc.lft.to/lastmile_qr_scan", "android": "https://dc.lft.to/lastmile_qr_scan"}, "is_reserved": 0, "lon": -76.97943133333334, "fusion_lat": 0.0, "name": "35b508fb0463298c877b16655f4ce109"}, {"type": "electric_scooter", "fusion_lon": 0.0, "bike_id": "f07577e0f9ef38a9078f5652cd348809", "is_disabled": 0, "lat": 38.909755833333335, "rental_uris": {"ios": "https://dc.lft.to/lastmile_qr_scan", "android": "https://dc.lft.to/lastmile_qr_scan"}, "is_reserved": 0, "lon": -77.03846266666666, "fusion_lat": 0.0, "name": "f07577e0f9ef38a9078f5652cd348809"}, {"type": "electric_scooter", "fusion_lon": 0.0, "bike_id": "033fd4f60b80ef46d68eb6c8146481fa", "is_disabled": 0, "lat": 38.905606, "rental_uris": {"ios": "https://dc.lft.to/lastmile_qr_scan", "android": "https://dc.lft.to/lastmile_qr_scan"}, "is_reserved": 0, "lon": -77.00595883333334, "fusion_lat": 0.0, "name": "033fd4f60b80ef46d68eb6c8146481fa"}, {"type": "electric_scooter", "fusion_lon": 0.0, "bike_id": "d84022634fc152a7e9b444dbd30f158e", "is_disabled": 0, "lat": 38.921204833333334, "rental_uris": {"ios": "https://dc.lft.to/lastmile_qr_scan", "android": "https://dc.lft.to/lastmile_qr_scan"}, "is_reserved": 0, "lon": -77.04390616666667, "fusion_lat": 0.0, "name": "d84022634fc152a7e9b444dbd30f158e"}, {"type": "electric_bike", "fusion_lon": 0.0, "bike_id": "dcee0e1caf8feee3454e5a57cda95e3d", "is_disabled": 0, "lat": 38.881245666666665, "rental_uris": {"ios": "https://dc.lft.to/lastmile_qr_scan", "android": "https://dc.lft.to/lastmile_qr_scan"}, "is_reserved": 0, "lon": -76.997982, "fusion_lat": 0.0, "name": "dcee0e1caf8feee3454e5a57cda95e3d"}, {"type": "electric_scooter", "fusion_lon": 0.0, "bike_id": "0879cee7f70b94f3324c78a27689e2cd", "is_disabled": 0, "lat": 38.91115583333333, "rental_uris": {"ios": "https://dc.lft.to/lastmile_qr_scan", "android": "https://dc.lft.to/lastmile_qr_scan"}, "is_reserved": 0, "lon": -77.00461733333333, "fusion_lat": 0.0, "name": "0879cee7f70b94f3324c78a27689e2cd"}, {"type": "electric_bike", "fusion_lon": 0.0, "bike_id": "7c7dcd1b57b69d128bdd9978192ad537", "is_disabled": 0, "lat": 38.914797666666665, "rental_uris": {"ios": "https://dc.lft.to/lastmile_qr_scan", "android": "https://dc.lft.to/lastmile_qr_scan"}, "is_reserved": 0, "lon": -76.9857475, "fusion_lat": 0.0, "name": "7c7dcd1b57b69d128bdd9978192ad537"}, {"type": "electric_scooter", "fusion_lon": 0.0, "bike_id": "e9591e50a19046c278912507a1bd92b0", "is_disabled": 0, "lat": 38.9370275, "rental_uris": {"ios": "https://dc.lft.to/lastmile_qr_scan", "android": "https://dc.lft.to/lastmile_qr_scan"}, "is_reserved": 0, "lon": -77.0559905, "fusion_lat": 0.0, "name": "e9591e50a19046c278912507a1bd92b0"}, {"type": "electric_scooter", "fusion_lon": 0.0, "bike_id": "66d656cc55470e6ce78736280dec8214", "is_disabled": 0, "lat": 38.89251616666667, "rental_uris": {"ios": "https://dc.lft.to/lastmile_qr_scan", "android": "https://dc.lft.to/lastmile_qr_scan"}, "is_reserved": 0, "lon": -77.04498433333333, "fusion_lat": 0.0, "name": "66d656cc55470e6ce78736280dec8214"}, {"type": "electric_scooter", "fusion_lon": 0.0, "bike_id": "92deb6274add0ea7206337cb59e59df0", "is_disabled": 0, "lat": 38.91645333333334, "rental_uris": {"ios": "https://dc.lft.to/lastmile_qr_scan", "android": "https://dc.lft.to/lastmile_qr_scan"}, "is_reserved": 0, "lon": -77.02287116666666, "fusion_lat": 0.0, "name": "92deb6274add0ea7206337cb59e59df0"}, {"type": "electric_scooter", "fusion_lon": 0.0, "bike_id": "83cddeb18cdc088907f1c682b88b1ab5", "is_disabled": 0, "lat": 38.887767833333335, "rental_uris": {"ios": "https://dc.lft.to/lastmile_qr_scan", "android": "https://dc.lft.to/lastmile_qr_scan"}, "is_reserved": 0, "lon": -77.03320883333333, "fusion_lat": 0.0, "name": "83cddeb18cdc088907f1c682b88b1ab5"}, {"type": "electric_scooter", "fusion_lon": 0.0, "bike_id": "16cbe2a77bb444452bbde42f34a4bf98", "is_disabled": 0, "lat": 38.9003005, "rental_uris": {"ios": "https://dc.lft.to/lastmile_qr_scan", "android": "https://dc.lft.to/lastmile_qr_scan"}, "is_reserved": 0, "lon": -76.99860116666666, "fusion_lat": 0.0, "name": "16cbe2a77bb444452bbde42f34a4bf98"}, {"type": "electric_scooter", "fusion_lon": 0.0, "bike_id": "5e50190522a6eb2c6d4a6d1c3971e779", "is_disabled": 0, "lat": 38.905617, "rental_uris": {"ios": "https://dc.lft.to/lastmile_qr_scan", "android": "https://dc.lft.to/lastmile_qr_scan"}, "is_reserved": 0, "lon": -77.022049, "fusion_lat": 0.0, "name": "5e50190522a6eb2c6d4a6d1c3971e779"}, {"type": "electric_bike", "fusion_lon": 0.0, "bike_id": "b580a723c00179943f598ae1acd6f59d", "is_disabled": 0, "lat": 38.956457, "rental_uris": {"ios": "https://dc.lft.to/lastmile_qr_scan", "android": "https://dc.lft.to/lastmile_qr_scan"}, "is_reserved": 0, "lon": -76.99749466666667, "fusion_lat": 0.0, "name": "b580a723c00179943f598ae1acd6f59d"}, {"type": "electric_scooter", "fusion_lon": 0.0, "bike_id": "341a7f132d61064a361e89fa022be5dc", "is_disabled": 0, "lat": 38.910012333333334, "rental_uris": {"ios": "https://dc.lft.to/lastmile_qr_scan", "android": "https://dc.lft.to/lastmile_qr_scan"}, "is_reserved": 0, "lon": -77.0400155, "fusion_lat": 0.0, "name": "341a7f132d61064a361e89fa022be5dc"}, {"type": "electric_scooter", "fusion_lon": 0.0, "bike_id": "ec0401ed02494219488b2847900f6f31", "is_disabled": 0, "lat": 38.90561666666667, "rental_uris": {"ios": "https://dc.lft.to/lastmile_qr_scan", "android": "https://dc.lft.to/lastmile_qr_scan"}, "is_reserved": 0, "lon": -77.02211966666667, "fusion_lat": 0.0, "name": "ec0401ed02494219488b2847900f6f31"}, {"type": "electric_scooter", "fusion_lon": 0.0, "bike_id": "ca2084bdf2e2ff57839c8a04db0666b0", "is_disabled": 0, "lat": 38.931558833333334, "rental_uris": {"ios": "https://dc.lft.to/lastmile_qr_scan", "android": "https://dc.lft.to/lastmile_qr_scan"}, "is_reserved": 0, "lon": -77.05603683333334, "fusion_lat": 0.0, "name": "ca2084bdf2e2ff57839c8a04db0666b0"}, {"type": "electric_scooter", "fusion_lon": 0.0, "bike_id": "85d3d3fd0ceb531a4d3f124353d24d40", "is_disabled": 0, "lat": 38.95765, "rental_uris": {"ios": "https://dc.lft.to/lastmile_qr_scan", "android": "https://dc.lft.to/lastmile_qr_scan"}, "is_reserved": 0, "lon": -77.014956, "fusion_lat": 0.0, "name": "85d3d3fd0ceb531a4d3f124353d24d40"}, {"type": "electric_scooter", "fusion_lon": 0.0, "bike_id": "632ea07a739580c6944a0cc6ba4fdde6", "is_disabled": 0, "lat": 38.90974283333333, "rental_uris": {"ios": "https://dc.lft.to/lastmile_qr_scan", "android": "https://dc.lft.to/lastmile_qr_scan"}, "is_reserved": 0, "lon": -77.03869783333333, "fusion_lat": 0.0, "name": "632ea07a739580c6944a0cc6ba4fdde6"}, {"type": "electric_scooter", "fusion_lon": 0.0, "bike_id": "27d3fed1d2c9978c91748367561aeaf1", "is_disabled": 0, "lat": 38.941993833333335, "rental_uris": {"ios": "https://dc.lft.to/lastmile_qr_scan", "android": "https://dc.lft.to/lastmile_qr_scan"}, "is_reserved": 0, "lon": -77.025944, "fusion_lat": 0.0, "name": "27d3fed1d2c9978c91748367561aeaf1"}, {"type": "electric_scooter", "fusion_lon": 0.0, "bike_id": "ddbf3c04d7a482b5f052075b169af377", "is_disabled": 0, "lat": 38.900377, "rental_uris": {"ios": "https://dc.lft.to/lastmile_qr_scan", "android": "https://dc.lft.to/lastmile_qr_scan"}, "is_reserved": 0, "lon": -77.04843383333333, "fusion_lat": 0.0, "name": "ddbf3c04d7a482b5f052075b169af377"},