{"data": {"bikes": [{"name": "ff5b9b03fb722a133176e3291a21baae", "type": "electric_scooter", "lat": 38.90062833333333, "is_reserved": 0, "lon": -77.0260185, "fusion_lon": 0.0, "is_disabled": 0, "fusion_lat": 0.0, "bike_id": "ff5b9b03fb722a133176e3291a21baae", "rental_uris": {"ios": "https://dc.lft.to/lastmile_qr_scan", "android": "https://dc.lft.to/lastmile_qr_scan"}}, {"name": "88117bda894a88d106ef268dabfa8f94", "type": "electric_scooter", "lat": 38.898786666666666, "is_reserved": 0, "lon": -76.93161016666667, "fusion_lon": 0.0, "is_disabled": 0, "fusion_lat": 0.0, "bike_id": "88117bda894a88d106ef268dabfa8f94", "rental_uris": {"ios": "https://dc.lft.to/lastmile_qr_scan", "android": "https://dc.lft.to/lastmile_qr_scan"}}, {"name": "27d1f4d53f98d0bc9243ee492d7f1187", "type": "electric_scooter", "lat": 38.903193333333334, "is_reserved": 0, "lon": -77.0384575, "fusion_lon": 0.0, "is_disabled": 0, "fusion_lat": 0.0, "bike_id": "27d1f4d53f98d0bc9243ee492d7f1187", "rental_uris": {"ios": "https://dc.lft.to/lastmile_qr_scan", "android": "https://dc.lft.to/lastmile_qr_scan"}}, {"name": "8e18126a62489a6a9f1a2b0c65c2f8c2", "type": "electric_bike", "lat": 38.875002, "is_reserved": 0, "lon": -77.00240283333333, "fusion_lon": 0.0, "is_disabled": 0, "fusion_lat": 0.0, "bike_id": "8e18126a62489a6a9f1a2b0c65c2f8c2", "rental_uris": {"ios": "https://dc.lft.to/lastmile_qr_scan", "android": "https://dc.lft.to/lastmile_qr_scan"}}, {"name": "1c595e7e1c97d3069f04558da76adfe2", "type": "electric_scooter", "lat": 38.90675516666667, "is_reserved": 0, "lon": -77.038658, "fusion_lon": 0.0, "is_disabled": 0, "fusion_lat": 0.0, "bike_id": "1c595e7e1c97d3069f04558da76adfe2", "rental_uris": {"ios": "https://dc.lft.to/lastmile_qr_scan", "android": "https://dc.lft.to/lastmile_qr_scan"}}, {"name": "66525799af5c241f7bb4a4823c8eb647", "type": "electric_scooter", "lat": 38.9157465, "is_reserved": 0, "lon": -77.04669933333334, "fusion_lon": 0.0, "is_disabled": 0, "fusion_lat": 0.0, "bike_id": "66525799af5c241f7bb4a4823c8eb647", "rental_uris": {"ios": "https://dc.lft.to/lastmile_qr_scan", "android": "https://dc.lft.to/lastmile_qr_scan"}}, {"name": "6cfc59647927f08db54fb358e0d542e6", "type": "electric_scooter", "lat": 38.926827833333334, "is_reserved": 0, "lon": -77.03762366666666, "fusion_lon": 0.0, "is_disabled": 0, "fusion_lat": 0.0, "bike_id": "6cfc59647927f08db54fb358e0d542e6", "rental_uris": {"ios": "https://dc.lft.to/lastmile_qr_scan", "android": "https://dc.lft.to/lastmile_qr_scan"}}, {"name": "88436db36b12e5cdad76eff640a50f33", "type": "electric_bike", "lat": 38.919643666666666, "is_reserved": 0, "lon": -76.972651, "fusion_lon": 0.0, "is_disabled": 0, "fusion_lat": 0.0, "bike_id": "88436db36b12e5cdad76eff640a50f33", "rental_uris": {"ios": "https://dc.lft.to/lastmile_qr_scan", "android": "https://dc.lft.to/lastmile_qr_scan"}}, {"name": "dc4a19aeb2cb3d6aded8d0a34f6099e3", "type": "electric_scooter", "lat": 38.9236285, "is_reserved": 0, "lon": -77.03474816666666, "fusion_lon": 0.0, "is_disabled": 0, "fusion_lat": 0.0, "bike_id": "dc4a19aeb2cb3d6aded8d0a34f6099e3", "rental_uris": {"ios": "https://dc.lft.to/lastmile_qr_scan", "android": "https://dc.lft.to/lastmile_qr_scan"}}, {"name": "85333c91c62d5711843340ccac11c520", "type": "electric_scooter", "lat": 38.902684, "is_reserved": 0, "lon": -77.03860133333333, "fusion_lon": 0.0, "is_disabled": 0, "fusion_lat": 0.0, "bike_id": "85333c91c62d5711843340ccac11c520", "rental_uris": {"ios": "https://dc.lft.to/lastmile_qr_scan", "android": "https://dc.lft.to/lastmile_qr_scan"}}, {"name": "810757e4f734bfc1481274a74def0774", "type": "electric_scooter", "lat": 38.898156666666665, "is_reserved": 0, "lon": -77.03297866666666, "fusion_lon": 0.0, "is_disabled": 0, "fusion_lat": 0.0, "bike_id": "810757e4f734bfc1481274a74def0774", "rental_uris": {"ios": "https://dc.lft.to/lastmile_qr_scan", "android": "https://dc.lft.to/lastmile_qr_scan"}}, {"name": "de69b4b079ceeeae27bf593d48d51afe", "type": "electric_scooter", "lat": 38.918926666666664, "is_reserved": 0, "lon": -77.01967183333333, "fusion_lon": 0.0, "is_disabled": 0, "fusion_lat": 0.0, "bike_id": "de69b4b079ceeeae27bf593d48d51afe", "rental_uris": {"ios": "https://dc.lft.to/lastmile_qr_scan", "android": "https://dc.lft.to/lastmile_qr_scan"}}, {"name": "8e2bfbe2c8ba76db64decef6b6eeaec7", "type": "electric_scooter", "lat": 38.9495995, "is_reserved": 0, "lon": -77.027244, "fusion_lon": 0.0, "is_disabled": 0, "fusion_lat": 0.0, "bike_id": "8e2bfbe2c8ba76db64decef6b6eeaec7", "rental_uris": {"ios": "https://dc.lft.to/lastmile_qr_scan", "android": "https://dc.lft.to/lastmile_qr_scan"}}, {"name": "7897a669cd4303c71fdbbc27f9e9214d", "type": "electric_scooter", "lat": 38.900226, "is_reserved": 0, "lon": -77.0111805, "fusion_lon": 0.0, "is_disabled": 0, "fusion_lat": 0.0, "bike_id": "7897a669cd4303c71fdbbc27f9e9214d", "rental_uris": {"ios": "https://dc.lft.to/lastmile_qr_scan", "android": "https://dc.lft.to/lastmile_qr_scan"}}, {"name": "62729187d3a36a0496ec78fad7e207e8", "type": "electric_scooter", "lat": 38.8777845, "is_reserved": 0, "lon": -77.00365616666667, "fusion_lon": 0.0, "is_disabled": 0, "fusion_lat": 0.0, "bike_id": "62729187d3a36a0496ec78fad7e207e8", "rental_uris": {"ios": "https://dc.lft.to/lastmile_qr_scan", "android": "https://dc.lft.to/lastmile_qr_scan"}}, {"name": "13023f903c9331e9984bb1821c54175c", "type": "electric_scooter", "lat": 38.87646483333333, "is_reserved": 0, "lon": -76.99588583333333, "fusion_lon": 0.0, "is_disabled": 0, "fusion_lat": 0.0, "bike_id": "13023f903c9331e9984bb1821c54175c", "rental_uris": {"ios": "https://dc.lft.to/lastmile_qr_scan", "android": "https://dc.lft.to/lastmile_qr_scan"}}, {"name": "82ef9aa2d0c4d178b2fdaeb9e152875c", "type": "electric_scooter", "lat": 38.884281, "is_reserved": 0, "lon": -76.9970205, "fusion_lon": 0.0, "is_disabled": 0, "fusion_lat": 0.0, "bike_id": "82ef9aa2d0c4d178b2fdaeb9e152875c", "rental_uris": {"ios": "https://dc.lft.to/lastmile_qr_scan", "android": "https://dc.lft.to/lastmile_qr_scan"}}, {"name": "055a871a4d8a7da0dafd7402edbbc68e", "type": "electric_scooter", "lat": 38.927166, "is_reserved": 0, "lon": -77.0404515, "fusion_lon": 0.0, "is_disabled": 0, "fusion_lat": 0.0, "bike_id": "055a871a4d8a7da0dafd7402edbbc68e", "rental_uris": {"ios": "https://dc.lft.to/lastmile_qr_scan", "android": "https://dc.lft.to/lastmile_qr_scan"}}, {"name": "80f77bcebef6f865ed8933fca466dbd2", "type": "electric_scooter", "lat": 38.900318166666665, "is_reserved": 0, "lon": -76.99861233333333, "fusion_lon": 0.0, "is_disabled": 0, "fusion_lat": 0.0, "bike_id": "80f77bcebef6f865ed8933fca466dbd2", "rental_uris": {"ios": "https://dc.lft.to/lastmile_qr_scan", "android": "https://dc.lft.to/lastmile_qr_scan"}}, {"name": "3bcb0c5f94154b57dc9a2ee821954975", "type": "electric_scooter", "lat": 38.9255865, "is_reserved": 0, "lon": -77.00090633333333, "fusion_lon": 0.0, "is_disabled": 0, "fusion_lat": 0.0, "bike_id": "3bcb0c5f94154b57dc9a2ee821954975", "rental_uris": {"ios": "https://dc.lft.to/lastmile_qr_scan", "android": "https://dc.lft.to/lastmile_qr_scan"}}, {"name": "1083e86a5cfb85c22c0bad5ebcf4cb5c", "type": "electric_scooter", "lat": 38.90536983333333, "is_reserved": 0, "lon": -77.0652565, "fusion_lon": 0.0, "is_disabled": 0, "fusion_lat": 0.0, "bike_id": "1083e86a5cfb85c22c0bad5ebcf4cb5c", "rental_uris": {"ios": "https://dc.lft.to/lastmile_qr_scan", "android": "https://dc.lft.to/lastmile_qr_scan"}}, {"name": "162e6f2eb19c6c24af0ef94d41e2e101", "type": "electric_scooter", "lat": 38.90383583333333, "is_reserved": 0, "lon": -77.04498783333334, "fusion_lon": 0.0, "is_disabled": 0, "fusion_lat": 0.0, "bike_id": "162e6f2eb19c6c24af0ef94d41e2e101", "rental_uris": {"ios": "https://dc.lft.to/lastmile_qr_scan", "android": "https://dc.lft.to/lastmile_qr_scan"}}, {"name": "9ac5c91403a9d842b28da8ee172116f5", "type": "electric_scooter", "lat": 38.899543, "is_reserved": 0, "lon": -77.05270866666666, "fusion_lon": 0.0, "is_disabled": 0, "fusion_lat": 0.0, "bike_id": "9ac5c91403a9d842b28da8ee172116f5", "rental_uris": {"ios": "https://dc.lft.to/lastmile_qr_scan", "android": "https://dc.lft.to/lastmile_qr_scan"}}, {"name": "def1bde0ebcfd9e2764449adc52bcfda", "type": "electric_scooter", "lat": 38.922758, "is_reserved": 0, "lon": -77.018238, "fusion_lon": 0.0, "is_disabled": 0, "fusion_lat": 0.0, "bike_id": "def1bde0ebcfd9e2764449adc52bcfda", "rental_uris": {"ios": "https://dc.lft.to/lastmile_qr_scan", "android": "https://dc.lft.to/lastmile_qr_scan"}}, {"name": "3da8ddfdd2ceecf101e6d74e306cdbb8", "type": "electric_scooter", "lat": 38.893512666666666, "is_reserved": 0, "lon": -76.9938465, "fusion_lon": 0.0, "is_disabled": 0, "fusion_lat": 0.0, "bike_id": "3da8ddfdd2ceecf101e6d74e306cdbb8", "rental_uris": {"ios": "https://dc.lft.to/lastmile_qr_scan", "android": "https://dc.lft.to/lastmile_qr_scan"}}, {"name": "22d0b9674c40f10fa9affc4d306c9e91", "type": "electric_scooter", "lat": 38.90229583333333, "is_reserved": 0, "lon": -77.044238, "fusion_lon": 0.0, "is_disabled": 0, "fusion_lat": 0.0, "bike_id": "22d0b9674c40f10fa9affc4d306c9e91", "rental_uris": {"ios": "https://dc.lft.to/lastmile_qr_scan", "android": "https://dc.lft.to/lastmile_qr_scan"}}, {"name": "4de1d0d8c2b51f13b9f05a41da8fc21b", "type": "electric_bike", "lat": 38.908689, "is_reserved": 0, "lon": -76.93165283333333, "fusion_lon": 0.0, "is_disabled": 0, "fusion_lat": 0.0, "bike_id": "4de1d0d8c2b51f13b9f05a41da8fc21b", "rental_uris": {"ios": "https://dc.lft.to/lastmile_qr_scan", "android": "https://dc.lft.to/lastmile_qr_scan"}}, {"name": "82477ae57a142bb807d6f4e147a161f4", "type": "electric_scooter", "lat": 38.863681, "is_reserved": 0, "lon": -77.01362766666666, "fusion_lon": 0.0, "is_disabled": 0, "fusion_lat": 0.0, "bike_id": "82477ae57a142bb807d6f4e147a161f4", "rental_uris": {"ios": "https://dc.lft.to/lastmile_qr_scan", "android": "https://dc.lft.to/lastmile_qr_scan"}}, {"name": "7e4f422039a444c62417ffc9f7e1c65c", "type": "electric_scooter", "lat": 38.904599166666664, "is_reserved": 0, "lon": -77.03463783333333, "fusion_lon": 0.0, "is_disabled": 0, "fusion_lat": 0.0, "bike_id": "7e4f422039a444c62417ffc9f7e1c65c", "rental_uris": {"ios": "https://dc.lft.to/lastmile_qr_scan", "android": "https://dc.lft.to/lastmile_qr_scan"}}, {"name": "42bc426aa3e94b347e882e08e618f1fd", "type": "electric_scooter", "lat": 38.92963183333333, "is_reserved": 0, "lon": -77.01147916666666, "fusion_lon": 0.0, "is_disabled": 0, "fusion_lat": 0.0, "bike_id": "42bc426aa3e94b347e882e08e618f1fd", "rental_uris": {"ios": "https://dc.lft.to/lastmile_qr_scan", "android": "https://dc.lft.to/lastmile_qr_scan"}}, {"name": "2ed50c392ff048b3fc664d7e12d44298", "type": "electric_scooter", "lat": 38.961162, "is_reserved": 0, "lon": -77.02812283333333, "fusion_lon": 0.0, "is_disabled": 0, "fusion_lat": 0.0, "bike_id": "2ed50c392ff048b3fc664d7e12d44298", "rental_uris": {"ios": "https://dc.lft.to/lastmile_qr_scan", "android": "https://dc.lft.to/lastmile_qr_scan"}}, {"name": "e7fa926826a83a9fbf1bcded5b0169ca", "type": "electric_scooter", "lat": 38.907261166666665, "is_reserved": 0, "lon": -77.04344516666667, "fusion_lon": 0.0, "is_disabled": 0, "fusion_lat": 0.0, "bike_id": "e7fa926826a83a9fbf1bcded5b0169ca", "rental_uris": {"ios": "https://dc.lft.to/lastmile_qr_scan", "android": "https://dc.lft.to/lastmile_qr_scan"}}, {"name": "312a811f1a3e58bd3bef82f2ed87d622", "type": "electric_bike", "lat": 38.845728, "is_reserved": 0, "lon": -77.09623616666667, "fusion_lon": 0.0, "is_disabled": 0, "fusion_lat": 0.0, "bike_id": "312a811f1a3e58bd3bef82f2ed87d622", "rental_uris": {"ios": "https://dc.lft.to/lastmile_qr_scan", "android": "https://dc.lft.to/lastmile_qr_scan"}}, {"name": "d77ac0e0f4328c8cc341fa3310408fe9", "type": "electric_scooter", "lat": 38.900318666666664, "is_reserved": 0, "lon": -77.002178, "fusion_lon": 0.0, "is_disabled": 0, "fusion_lat": 0.0, "bike_id": "d77ac0e0f4328c8cc341fa3310408fe9", "rental_uris": {"ios": "https://dc.lft.to/lastmile_qr_scan", "android": "https://dc.lft.to/lastmile_qr_scan"}}, {"name": "f198db72c879ad49cba5b3a8094c1502", "type": "electric_scooter", "lat": 38.86659366666667, "is_reserved": 0, "lon": -76.98887983333333, "fusion_lon": 0.0, "is_disabled": 0, "fusion_lat": 0.0, "bike_id": "f198db72c879ad49cba5b3a8094c1502", "rental_uris": {"ios": "https://dc.lft.to/lastmile_qr_scan", "android": "https://dc.lft.to/lastmile_qr_scan"}}, {"name": "887109e1424333cfbbddfc12ac62813b", "type": "electric_scooter", "lat": 38.92174, "is_reserved": 0, "lon": -76.99395416666667, "fusion_lon": 0.0, "is_disabled": 0, "fusion_lat": 0.0, "bike_id": "887109e1424333cfbbddfc12ac62813b", "rental_uris": {"ios": "https://dc.lft.to/lastmile_qr_scan", "android": "https://dc.lft.to/lastmile_qr_scan"}}, {"name": "7eadce6b107fbbbd6c3dfdc2720203b1", "type": "electric_scooter", "lat": 38.900318666666664, "is_reserved": 0, "lon": -76.998629, "fusion_lon": 0.0, "is_disabled": 0, "fusion_lat": 0.0, "bike_id": "7eadce6b107fbbbd6c3dfdc2720203b1", "rental_uris": {"ios": "https://dc.lft.to/lastmile_qr_scan", "android": "https://dc.lft.to/lastmile_qr_scan"}}, {"name": "fa2fe2ff2c8642001890171360de3d18", "type": "electric_scooter", "lat": 38.88639783333333, "is_reserved": 0, "lon": -77.02137933333333, "fusion_lon": 0.0, "is_disabled": 0, "fusion_lat": 0.0, "bike_id": "fa2fe2ff2c8642001890171360de3d18", "rental_uris": {"ios": "https://dc.lft.to/lastmile_qr_scan", "android": "https://dc.lft.to/lastmile_qr_scan"}}, {"name": "612aaf2aabd3851d316a5eec281b704f", "type": "electric_scooter", "lat": 38.918844, "is_reserved": 0, "lon": -77.01634116666666, "fusion_lon": 0.0, "is_disabled": 0, "fusion_lat": 0.0, "bike_id": "612aaf2aabd3851d316a5eec281b704f", "rental_uris": {"ios": "https://dc.lft.to/lastmile_qr_scan", "android": "https://dc.lft.to/lastmile_qr_scan"}}, {"name": "6a6df41476af4fb606334047c08a72f5", "type": "electric_scooter", "lat": 38.902350166666665, "is_reserved": 0, "lon": -77.01648633333333, "fusion_lon": 0.0, "is_disabled": 0, "fusion_lat": 0.0, "bike_id": "6a6df41476af4fb606334047c08a72f5", "rental_uris": {"ios": "https://dc.lft.to/lastmile_qr_scan", "android": "https://dc.lft.to/lastmile_qr_scan"}}, {"name": "732043794e84830b9c10988df811972d", "type": "electric_scooter", "lat": 38.9133125, "is_reserved": 0, "lon": -77.0487645, "fusion_lon": 0.0, "is_disabled": 0, "fusion_lat": 0.0, "bike_id": "732043794e84830b9c10988df811972d", "rental_uris": {"ios": "https://dc.lft.to/lastmile_qr_scan", "android": "https://dc.lft.to/lastmile_qr_scan"}}, {"name": "7555e94b618f5cdd083bf2bfb229a256", "type": "electric_scooter", "lat": 38.905883, "is_reserved": 0, "lon": -77.00253233333333, "fusion_lon": 0.0, "is_disabled": 0, "fusion_lat": 0.0, "bike_id": "7555e94b618f5cdd083bf2bfb229a256", "rental_uris": {"ios": "https://dc.lft.to/lastmile_qr_scan", "android": "https://dc.lft.to/lastmile_qr_scan"}}, {"name": "c517b32cee5d9d43c6a2108faae48301", "type": "electric_scooter", "lat": 38.9262765, "is_reserved": 0, "lon": -77.03787466666667, "fusion_lon": 0.0, "is_disabled": 0, "fusion_lat": 0.0, "bike_id": "c517b32cee5d9d43c6a2108faae48301", "rental_uris": {"ios": "https://dc.lft.to/lastmile_qr_scan", "android": "https://dc.lft.to/lastmile_qr_scan"}}, {"name": "9befb027496e9b3041d41857401c769e", "type": "electric_scooter", "lat": 38.92582183333333, "is_reserved": 0, "lon": -77.00472933333333, "fusion_lon": 0.0, "is_disabled": 0, "fusion_lat": 0.0, "bike_id": "9befb027496e9b3041d41857401c769e", "rental_uris": {"ios": "https://dc.lft.to/lastmile_qr_scan", "android": "https://dc.lft.to/lastmile_qr_scan"}}, {"name": "c5a2fec3ed282341a384c01c3953f9cc", "type": "electric_scooter", "lat": 38.899154, "is_reserved": 0, "lon": -77.03293533333333, "fusion_lon": 0.0, "is_disabled": 0, "fusion_lat": 0.0, "bike_id": "c5a2fec3ed282341a384c01c3953f9cc", "rental_uris": {"ios": "https://dc.lft.to/lastmile_qr_scan", "android": "https://dc.lft.to/lastmile_qr_scan"}}, {"name": "2eb456ad644cbdf5e56ac3cc28058d53", "type": "electric_scooter", "lat": 38.90258166666667, "is_reserved": 0, "lon": -77.046132, "fusion_lon": 0.0, "is_disabled": 0, "fusion_lat": 0.0, "bike_id": "2eb456ad644cbdf5e56ac3cc28058d53", "rental_uris": {"ios": "https://dc.lft.to/lastmile_qr_scan", "android": "https://dc.lft.to/lastmile_qr_scan"}}, {"name": "375f08a804cce1d3934797e33883faa8", "type": "electric_scooter", "lat": 38.90438966666667, "is_reserved": 0, "lon": -77.048678, "fusion_lon": 0.0, "is_disabled": 0, "fusion_lat": 0.0, "bike_id": "375f08a804cce1d3934797e33883faa8", "rental_uris": {"ios": "https://dc.lft.to/lastmile_qr_scan", "android": "https://dc.lft.to/lastmile_qr_scan"}}, {"name": "12649f4d3f8a2c67f5ae499ed6175103", "type": "electric_scooter", "lat": 38.931386833333335, "is_reserved": 0, "lon": -77.03851333333333, "fusion_lon": 0.0, "is_disabled": 0, "fusion_lat": 0.0, "bike_id": "12649f4d3f8a2c67f5ae499ed6175103", "rental_uris": {"ios": "https://dc.lft.to/lastmile_qr_scan", "android": "https://dc.lft.to/lastmile_qr_scan"}}, {"name": "0ae7c863867031875221dd845e392994", "type": "electric_scooter", "lat": 38.87669616666667, "is_reserved": 0, "lon": -77.00450466666666, "fusion_lon": 0.0, "is_disabled": 0, "fusion_lat": 0.0, "bike_id": "0ae7c863867031875221dd845e392994", "rental_uris": {"ios": "https://dc.lft.to/lastmile_qr_scan", "android": "https://dc.lft.to/lastmile_qr_scan"}}, {"name": "44095bbe3f6ce841945949f13a138dd5", "type": "electric_scooter", "lat": 38.890330166666665, "is_reserved": 0, "lon": -76.93631383333333, "fusion_lon": 0.0, "is_disabled": 0, "fusion_lat": 0.0, "bike_id": "44095bbe3f6ce841945949f13a138dd5", "rental_uris": {"ios": "https://dc.lft.to/lastmile_qr_scan", "android": "https://dc.lft.to/lastmile_qr_scan"}}, {"name": "353b954ccb6b7be1e52057d532cc46af", "type": "electric_scooter", "lat": 38.935878333333335, "is_reserved": 0, "lon": -77.02745466666667, "fusion_lon": 0.0, "is_disabled": 0, "fusion_lat": 0.0, "bike_id": "353b954ccb6b7be1e52057d532cc46af", "rental_uris": {"ios": "https://dc.lft.to/lastmile_qr_scan", "android": "https://dc.lft.to/lastmile_qr_scan"}}, {"name": "a48a919ca33dee6d6ff7d571597af5d1", "type": "electric_scooter", "lat": 38.88505416666667, "is_reserved": 0, "lon": -77.0155145, "fusion_lon": 0.0, "is_disabled": 0, "fusion_lat": 0.0, "bike_id": "a48a919ca33dee6d6ff7d571597af5d1", "rental_uris": {"ios": "https://dc.lft.to/lastmile_qr_scan", "android": "https://dc.lft.to/lastmile_qr_scan"}}, {"name": "f7a96c6815804a4e70911ffa60b689ab", "type": "electric_scooter", "lat": 38.92549283333334, "is_reserved": 0, "lon": -77.02273083333333, "fusion_lon": 0.0, "is_disabled": 0, "fusion_lat": 0.0, "bike_id": "f7a96c6815804a4e70911ffa60b689ab", "rental_uris": {"ios": "https://dc.lft.to/lastmile_qr_scan", "android": "https://dc.lft.to/lastmile_qr_scan"}}, {"name": "607a6590837c35ba6184b79408317c0d", "type": "electric_bike", "lat": 38.81310716666667, "is_reserved": 0, "lon": -77.0509585, "fusion_lon": 0.0, "is_disabled": 0, "fusion_lat": 0.0, "bike_id": "607a6590837c35ba6184b79408317c0d", "rental_uris": {"ios": "https://dc.lft.to/lastmile_qr_scan", "android": "https://dc.lft.to/lastmile_qr_scan"}}, {"name": "d49974a0ac5f03ecc2fa6029121a054a", "type": "electric_scooter", "lat": 38.913335333333336, "is_reserved": 0, "lon": -77.03273016666667, "fusion_lon": 0.0, "is_disabled": 0, "fusion_lat": 0.0, "bike_id": "d49974a0ac5f03ecc2fa6029121a054a", "rental_uris": {"ios": "https://dc.lft.to/lastmile_qr_scan", "android": "https://dc.lft.to/lastmile_qr_scan"}}, {"name": "558ca40fe4e20419f21f86ea36f51bb3", "type": "electric_scooter", "lat": 38.902582, "is_reserved": 0, "lon": -77.0434195, "fusion_lon": 0.0, "is_disabled": 0, "fusion_lat": 0.0, "bike_id": "558ca40fe4e20419f21f86ea36f51bb3", "rental_uris": {"ios": "https://dc.lft.to/lastmile_qr_scan", "android": "https://dc.lft.to/lastmile_qr_scan"}}, {"name": "a20039a8dffb16da045d4a2ad67871ee", "type": "electric_scooter", "lat": 38.89566466666667, "is_reserved": 0, "lon": -76.9502615, "fusion_lon": 0.0, "is_disabled": 0, "fusion_lat": 0.0, "bike_id": "a20039a8dffb16da045d4a2ad67871ee", "rental_uris": {"ios": "https://dc.lft.to/lastmile_qr_scan", "android": "https://dc.lft.to/lastmile_qr_scan"}}, {"name": "8d6efb70e137f78458ddf07e3872b26e", "type": "electric_scooter", "lat": 38.862119666666665, "is_reserved": 0, "lon": -76.994695, "fusion_lon": 0.0, "is_disabled": 0, "fusion_lat": 0.0, "bike_id": "8d6efb70e137f78458ddf07e3872b26e", "rental_uris": {"ios": "https://dc.lft.to/lastmile_qr_scan", "android": "https://dc.lft.to/lastmile_qr_scan"}}, {"name": "07b009a3e297f64a039fb7e48e5d5699", "type": "electric_scooter", "lat": 38.9286365, "is_reserved": 0, "lon": -77.01398116666667, "fusion_lon": 0.0, "is_disabled": 0, "fusion_lat": 0.0, "bike_id": "07b009a3e297f64a039fb7e48e5d5699", "rental_uris": {"ios": "https://dc.lft.to/lastmile_qr_scan", "android": "https://dc.lft.to/lastmile_qr_scan"}}, {"name": "3ad0f4c82bce76a734bf89ab7f265182", "type": "electric_scooter", "lat": 38.902871, "is_reserved": 0, "lon": -77.03386733333333, "fusion_lon": 0.0, "is_disabled": 0, "fusion_lat": 0.0, "bike_id": "3ad0f4c82bce76a734bf89ab7f265182", "rental_uris": {"ios": "https://dc.lft.to/lastmile_qr_scan", "android": "https://dc.lft.to/lastmile_qr_scan"}}, {"name": "4fe3aded85f04437f87770a57c486c29", "type": "electric_scooter", "lat": 38.90266883333334, "is_reserved": 0, "lon": -77.04627133333334, "fusion_lon": 0.0, "is_disabled": 0, "fusion_lat": 0.0, "bike_id": "4fe3aded85f04437f87770a57c486c29", "rental_uris": {"ios": "https://dc.lft.to/lastmile_qr_scan", "android": "https://dc.lft.to/lastmile_qr_scan"}}, {"name": "d3218ec4cecef2c6ab300ff377943b66", "type": "electric_scooter", "lat": 38.87984433333333, "is_reserved": 0, "lon": -77.02401316666666, "fusion_lon": 0.0, "is_disabled": 0, "fusion_lat": 0.0, "bike_id": "d3218ec4cecef2c6ab300ff377943b66", "rental_uris": {"ios": "https://dc.lft.to/lastmile_qr_scan", "android": "https://dc.lft.to/lastmile_qr_scan"}}, {"name": "20cbc21769798b5931531d97489a761e", "type": "electric_scooter", "lat": 38.9226205, "is_reserved": 0, "lon": -77.0195185, "fusion_lon": 0.0, "is_disabled": 0, "fusion_lat": 0.0, "bike_id": "20cbc21769798b5931531d97489a761e", "rental_uris": {"ios": "https://dc.lft.to/lastmile_qr_scan", "android": "https://dc.lft.to/lastmile_qr_scan"}}, {"name": "9da9249fb0f6aa9843096967303f9011", "type": "electric_scooter", "lat": 38.924562333333334, "is_reserved": 0, "lon": -77.03277366666667, "fusion_lon": 0.0, "is_disabled": 0, "fusion_lat": 0.0, "bike_id": "9da9249fb0f6aa9843096967303f9011", "rental_uris": {"ios": "https://dc.lft.to/lastmile_qr_scan", "android": "https://dc.lft.to/lastmile_qr_scan"}}, {"name": "82455f3381ea3f97ef9332ce8f9e1abd", "type": "electric_scooter", "lat": 38.9292435, "is_reserved": 0, "lon": -77.02007083333334, "fusion_lon": 0.0, "is_disabled": 0, "fusion_lat": 0.0, "bike_id": "82455f3381ea3f97ef9332ce8f9e1abd", "rental_uris": {"ios": "https://dc.lft.to/lastmile_qr_scan", "android": "https://dc.lft.to/lastmile_qr_scan"}}, {"name": "9cac98b6b68599c40756651996e672c8", "type": "electric_scooter", "lat": 38.90541283333334, "is_reserved": 0, "lon": -77.059257, "fusion_lon": 0.0, "is_disabled": 0, "fusion_lat": 0.0, "bike_id": "9cac98b6b68599c40756651996e672c8", "rental_uris": {"ios": "https://dc.lft.to/lastmile_qr_scan", "android": "https://dc.lft.to/lastmile_qr_scan"}}, {"name": "331a4e4b6a2711366caa9ec56bc14054", "type": "electric_scooter", "lat": 38.924415333333336, "is_reserved": 0, "lon": -77.03353783333333, "fusion_lon": 0.0, "is_disabled": 0, "fusion_lat": 0.0, "bike_id": "331a4e4b6a2711366caa9ec56bc14054", "rental_uris": {"ios": "https://dc.lft.to/lastmile_qr_scan", "android": "https://dc.lft.to/lastmile_qr_scan"}}, {"name": "bc2b6189ca4be2430edd933c81654288", "type": "electric_scooter", "lat": 38.900233, "is_reserved": 0, "lon": -77.01110383333334, "fusion_lon": 0.0, "is_disabled": 0, "fusion_lat": 0.0, "bike_id": "bc2b6189ca4be2430edd933c81654288", "rental_uris": {"ios": "https://dc.lft.to/lastmile_qr_scan", "android": "https://dc.lft.to/lastmile_qr_scan"}}, {"name": "3b66457bdb6796ecf6c7aafa3e104e44", "type": "electric_scooter", "lat": 38.876367, "is_reserved": 0, "lon": -77.00917833333334, "fusion_lon": 0.0, "is_disabled": 0, "fusion_lat": 0.0, "bike_id": "3b66457bdb6796ecf6c7aafa3e104e44", "rental_uris": {"ios": "https://dc.lft.to/lastmile_qr_scan", "android": "https://dc.lft.to/lastmile_qr_scan"}}, {"name": "0465a74629800ac70fcf3369cc4a3260", "type": "electric_scooter", "lat": 38.936109, "is_reserved": 0, "lon": -77.05865916666667, "fusion_lon": 0.0, "is_disabled": 0, "fusion_lat": 0.0, "bike_id": "0465a74629800ac70fcf3369cc4a3260", "rental_uris": {"ios": "https://dc.lft.to/lastmile_qr_scan", "android": "https://dc.lft.to/lastmile_qr_scan"}}, {"name": "1b17b3c775350826e1bc5d449a811165", "type": "electric_scooter", "lat": 38.905817666666664, "is_reserved": 0, "lon": -77.04883083333333, "fusion_lon": 0.0, "is_disabled": 0, "fusion_lat": 0.0, "bike_id": "1b17b3c775350826e1bc5d449a811165", "rental_uris": {"ios": "https://dc.lft.to/lastmile_qr_scan", "android": "https://dc.lft.to/lastmile_qr_scan"}}, {"name": "ba30b8d361616d8f2075bcf3a0c353d9", "type": "electric_scooter", "lat": 38.884164166666665, "is_reserved": 0, "lon": -77.01531783333333, "fusion_lon": 0.0, "is_disabled": 0, "fusion_lat": 0.0, "bike_id": "ba30b8d361616d8f2075bcf3a0c353d9", "rental_uris": {"ios": "https://dc.lft.to/lastmile_qr_scan", "android": "https://dc.lft.to/lastmile_qr_scan"}}, {"name": "206f007cb0b1b72f1d5cff4b3834fa0d", "type": "electric_bike", "lat": 38.990936166666664, "is_reserved": 0, "lon": -76.8749385, "fusion_lon": 0.0, "is_disabled": 0, "fusion_lat": 0.0, "bike_id": "206f007cb0b1b72f1d5cff4b3834fa0d", "rental_uris": {"ios": "https://dc.lft.to/lastmile_qr_scan", "android": "https://dc.lft.to/lastmile_qr_scan"}}, {"name": "dd4628e60f9737d2224608bc7f9a06f9", "type": "electric_bike", "lat": 38.82877916666666, "is_reserved": 0, "lon": -77.11220783333333, "fusion_lon": 0.0, "is_disabled": 0, "fusion_lat": 0.0, "bike_id": "dd4628e60f9737d2224608bc7f9a06f9", "rental_uris": {"ios": "https://dc.lft.to/lastmile_qr_scan", "android": "https://dc.lft.to/lastmile_qr_scan"}}, {"name": "0d5df5d1a7cb0fe211730a29468435b1", "type": "electric_scooter", "lat": 38.89233, "is_reserved": 0, "lon": -77.02206283333334, "fusion_lon": 0.0, "is_disabled": 0, "fusion_lat": 0.0, "bike_id": "0d5df5d1a7cb0fe211730a29468435b1", "rental_uris": {"ios": "https://dc.lft.to/lastmile_qr_scan", "android": "https://dc.lft.to/lastmile_qr_scan"}}, {"name": "bcbdae9db0d0a1ee56a918d7f81a275e", "type": "electric_scooter", "lat": 38.90156833333333, "is_reserved": 0, "lon": -77.04386966666667, "fusion_lon": 0.0, "is_disabled": 0, "fusion_lat": 0.0, "bike_id": "bcbdae9db0d0a1ee56a918d7f81a275e", "rental_uris": {"ios": "https://dc.lft.to/lastmile_qr_scan", "android": "https://dc.lft.to/lastmile_qr_scan"}}, {"name": "11e1a0f37c9fcaeae0893afac4e4f425", "type": "electric_scooter", "lat": 38.916242833333335, "is_reserved": 0, "lon": -77.03159883333333, "fusion_lon": 0.0, "is_disabled": 0, "fusion_lat": 0.0, "bike_id": "11e1a0f37c9fcaeae0893afac4e4f425", "rental_uris": {"ios": "https://dc.lft.to/lastmile_qr_scan", "android": "https://dc.lft.to/lastmile_qr_scan"}}, {"name": "085d1542d32a16bdaaaedfff1181a976", "type": "electric_scooter", "lat": 38.883282, "is_reserved": 0, "lon": -77.01767883333333, "fusion_lon": 0.0, "is_disabled": 0, "fusion_lat": 0.0, "bike_id": "085d1542d32a16bdaaaedfff1181a976", "rental_uris": {"ios": "https://dc.lft.to/lastmile_qr_scan", "android": "https://dc.lft.to/lastmile_qr_scan"}}, {"name": "414f346ca8d998cf18cdaf00a2f71ad1", "type": "electric_scooter", "lat": 38.90331533333333, "is_reserved": 0, "lon": -77.03148, "fusion_lon": 0.0, "is_disabled": 0, "fusion_lat": 0.0, "bike_id": "414f346ca8d998cf18cdaf00a2f71ad1", "rental_uris": {"ios": "https://dc.lft.to/lastmile_qr_scan", "android": "https://dc.lft.to/lastmile_qr_scan"}}, {"name": "ad7f122375601f4fe3375c16aee16e27", "type": "electric_scooter", "lat": 38.910128, "is_reserved": 0, "lon": -76.99399033333333, "fusion_lon": 0.0, "is_disabled": 0, "fusion_lat": 0.0, "bike_id": "ad7f122375601f4fe3375c16aee16e27", "rental_uris": {"ios": "https://dc.lft.to/lastmile_qr_scan", "android": "https://dc.lft.to/lastmile_qr_scan"}}, {"name": "1485d17f2e5e924ddb93f44efa4ba732", "type": "electric_scooter", "lat": 38.905841, "is_reserved": 0, "lon": -77.03478983333333, "fusion_lon": 0.0, "is_disabled": 0, "fusion_lat": 0.0, "bike_id": "1485d17f2e5e924ddb93f44efa4ba732", "rental_uris": {"ios": "https://dc.lft.to/lastmile_qr_scan", "android": "https://dc.lft.to/lastmile_qr_scan"}}, {"name": "9d3618d9eecce802d0bdee655e37fb73", "type": "electric_scooter", "lat": 38.916996166666664, "is_reserved": 0, "lon": -77.03103533333334, "fusion_lon": 0.0, "is_disabled": 0, "fusion_lat": 0.0, "bike_id": "9d3618d9eecce802d0bdee655e37fb73", "rental_uris": {"ios": "https://dc.lft.to/lastmile_qr_scan", "android": "https://dc.lft.to/lastmile_qr_scan"}}, {"name": "36f2b6517a7c3fd88e8eb84fafcd8c4b", "type": "electric_bike", "lat": 38.855373666666665, "is_reserved": 0, "lon": -77.1132945, "fusion_lon": 0.0, "is_disabled": 0, "fusion_lat": 0.0, "bike_id": "36f2b6517a7c3fd88e8eb84fafcd8c4b", "rental_uris": {"ios": "https://dc.lft.to/lastmile_qr_scan", "android": "https://dc.lft.to/lastmile_qr_scan"}}, {"name": "12cb2b30e068a99ac642e14eddccf87e", "type": "electric_scooter", "lat": 38.8967645, "is_reserved": 0, "lon": -77.02972266666667, "fusion_lon": 0.0, "is_disabled": 0, "fusion_lat": 0.0, "bike_id": "12cb2b30e068a99ac642e14eddccf87e", "rental_uris": {"ios": "https://dc.lft.to/lastmile_qr_scan", "android": "https://dc.lft.to/lastmile_qr_scan"}}, {"name": "ef13eec0b9d3fb132c59b926572e68e7", "type": "electric_scooter", "lat": 38.92566933333333, "is_reserved": 0, "lon": -77.039212, "fusion_lon": 0.0, "is_disabled": 0, "fusion_lat": 0.0, "bike_id": "ef13eec0b9d3fb132c59b926572e68e7", "rental_uris": {"ios": "https://dc.lft.to/lastmile_qr_scan", "android": "https://dc.lft.to/lastmile_qr_scan"}}, {"name": "78c76373e59ddc25848cdf373f99eae3", "type": "electric_scooter", "lat": 38.924527, "is_reserved": 0, "lon": -77.00212366666666, "fusion_lon": 0.0, "is_disabled": 0, "fusion_lat": 0.0, "bike_id": "78c76373e59ddc25848cdf373f99eae3", "rental_uris": {"ios": "https://dc.lft.to/lastmile_qr_scan", "android": "https://dc.lft.to/lastmile_qr_scan"}}, {"name": "bc2d7df4bef65a589a05e1664bf0a894", "type": "electric_scooter", "lat": 38.944410166666664, "is_reserved": 0, "lon": -77.06352016666666, "fusion_lon": 0.0, "is_disabled": 0, "fusion_lat": 0.0, "bike_id": "bc2d7df4bef65a589a05e1664bf0a894", "rental_uris": {"ios": "https://dc.lft.to/lastmile_qr_scan", "android": "https://dc.lft.to/lastmile_qr_scan"}}, {"name": "86f71bae3c5d844f908dc91b4352de33", "type": "electric_scooter", "lat": 38.89810583333333, "is_reserved": 0, "lon": -77.02964833333333, "fusion_lon": 0.0, "is_disabled": 0, "fusion_lat": 0.0, "bike_id": "86f71bae3c5d844f908dc91b4352de33", "rental_uris": {"ios": "https://dc.lft.to/lastmile_qr_scan", "android": "https://dc.lft.to/lastmile_qr_scan"}}, {"name": "dca203c546f442ee56385e6b589c4245", "type": "electric_scooter", "lat": 38.91192216666666, "is_reserved": 0, "lon": -76.99619083333333, "fusion_lon": 0.0, "is_disabled": 0, "fusion_lat": 0.0, "bike_id": "dca203c546f442ee56385e6b589c4245", "rental_uris": {"ios": "https://dc.lft.to/lastmile_qr_scan", "android": "https://dc.lft.to/lastmile_qr_scan"}}, {"name": "300c8eb3a12f2a036f5f8cfe06ea3f08", "type": "electric_scooter", "lat": 38.91945283333333, "is_reserved": 0, "lon": -77.01358283333333, "fusion_lon": 0.0, "is_disabled": 0, "fusion_lat": 0.0, "bike_id": "300c8eb3a12f2a036f5f8cfe06ea3f08", "rental_uris": {"ios": "https://dc.lft.to/lastmile_qr_scan", "android": "https://dc.lft.to/lastmile_qr_scan"}}, {"name": "90e5bd3dca602638941c90e7c22d9cff", "type": "electric_scooter", "lat": 38.892255666666664, "is_reserved": 0, "lon": -77.04262116666666, "fusion_lon": 0.0, "is_disabled": 0, "fusion_lat": 0.0, "bike_id": "90e5bd3dca602638941c90e7c22d9cff", "rental_uris": {"ios": "https://dc.lft.to/lastmile_qr_scan", "android": "https://dc.lft.to/lastmile_qr_scan"}}, {"name": "27b4bce875b65fd8ecadf7f2e0f9790f", "type": "electric_scooter", "lat": 38.89788633333333, "is_reserved": 0, "lon": -77.02966016666667, "fusion_lon": 0.0, "is_disabled": 0, "fusion_lat": 0.0, "bike_id": "27b4bce875b65fd8ecadf7f2e0f9790f", "rental_uris": {"ios": "https://dc.lft.to/lastmile_qr_scan", "android": "https://dc.lft.to/lastmile_qr_scan"}}, {"name": "ec4374ffff052e88116741542af060a8", "type": "electric_bike", "lat": 38.840728, "is_reserved": 0, "lon": -77.0640585, "fusion_lon": 0.0, "is_disabled": 0, "fusion_lat": 0.0, "bike_id": "ec4374ffff052e88116741542af060a8", "rental_uris": {"ios": "https://dc.lft.to/lastmile_qr_scan", "android": "https://dc.lft.to/lastmile_qr_scan"}}, {"name": "7d3164cd0c6780be868a67092bb6b382", "type": "electric_bike", "lat": 38.82796333333334, "is_reserved": 0, "lon": -77.00905816666666, "fusion_lon": 0.0, "is_disabled": 0, "fusion_lat": 0.0, "bike_id": "7d3164cd0c6780be868a67092bb6b382", "rental_uris": {"ios": "https://dc.lft.to/lastmile_qr_scan", "android": "https://dc.lft.to/lastmile_qr_scan"}}, {"name": "65bed105bbc92ac95117e7dab0866644", "type": "electric_bike", "lat": 38.862837, "is_reserved": 0, "lon": -77.063658, "fusion_lon": 0.0, "is_disabled": 0, "fusion_lat": 0.0, "bike_id": "65bed105bbc92ac95117e7dab0866644", "rental_uris": {"ios": "https://dc.lft.to/lastmile_qr_scan", "android": "https://dc.lft.to/lastmile_qr_scan"}}, {"name": "9dc0a5fbeec29615b87e0e60f9cb516d", "type": "electric_bike", "lat": 38.867605833333336, "is_reserved": 0, "lon": -76.94538416666667, "fusion_lon": 0.0, "is_disabled": 0, "fusion_lat": 0.0, "bike_id": "9dc0a5fbeec29615b87e0e60f9cb516d", "rental_uris": {"ios": "https://dc.lft.to/lastmile_qr_scan", "android": "https://dc.lft.to/lastmile_qr_scan"}}, {"name": "a0684fb19bd0c993c503ce5f07409929", "type": "electric_scooter", "lat": 38.92155533333333, "is_reserved": 0, "lon": -77.03532183333333, "fusion_lon": 0.0, "is_disabled": 0, "fusion_lat": 0.0, "bike_id": "a0684fb19bd0c993c503ce5f07409929", "rental_uris": {"ios": "https://dc.lft.to/lastmile_qr_scan", "android": "https://dc.lft.to/lastmile_qr_scan"}}, {"name": "6787f0222977ea74379978dedbf5d6a5", "type": "electric_scooter", "lat": 38.902645166666666, "is_reserved": 0, "lon": -77.01756583333334, "fusion_lon": 0.0, "is_disabled": 0, "fusion_lat": 0.0, "bike_id": "6787f0222977ea74379978dedbf5d6a5", "rental_uris": {"ios": "https://dc.lft.to/lastmile_qr_scan", "android": "https://dc.lft.to/lastmile_qr_scan"}}, {"name": "52a02b774b760ff1d9db2eb4924c2457", "type": "electric_scooter", "lat": 38.89846, "is_reserved": 0, "lon": -76.944771, "fusion_lon": 0.0, "is_disabled": 0, "fusion_lat": 0.0, "bike_id": "52a02b774b760ff1d9db2eb4924c2457", "rental_uris": {"ios": "https://dc.lft.to/lastmile_qr_scan", "android": "https://dc.lft.to/lastmile_qr_scan"}}, {"name": "186555c5e10c23c8bdcc33369d8ed6ad", "type": "electric_scooter", "lat": 38.89757516666667, "is_reserved": 0, "lon": -77.010465, "fusion_lon": 0.0, "is_disabled": 0, "fusion_lat": 0.0, "bike_id": "186555c5e10c23c8bdcc33369d8ed6ad", "rental_uris": {"ios": "https://dc.lft.to/lastmile_qr_scan", "android": "https://dc.lft.to/lastmile_qr_scan"}}, {"name": "cb894dde260b63457b7e1456c7ab4723", "type": "electric_bike", "lat": 39.0946325, "is_reserved": 0, "lon": -77.149953, "fusion_lon": 0.0, "is_disabled": 0, "fusion_lat": 0.0, "bike_id": "cb894dde260b63457b7e1456c7ab4723", "rental_uris": {"ios": "https://dc.lft.to/lastmile_qr_scan", "android": "https://dc.lft.to/lastmile_qr_scan"}}, {"name": "89fe5825ebb41343e24e9edb00a79770", "type": "electric_scooter", "lat": 38.895045333333336, "is_reserved": 0, "lon": -77.00220933333334, "fusion_lon": 0.0, "is_disabled": 0, "fusion_lat": 0.0, "bike_id": "89fe5825ebb41343e24e9edb00a79770", "rental_uris": {"ios": "https://dc.lft.to/lastmile_qr_scan", "android": "https://dc.lft.to/lastmile_qr_scan"}}, {"name": "2c561f09c8b652a2dc2f6c6737d18ec0", "type": "electric_scooter", "lat": 38.92735966666667, "is_reserved": 0, "lon": -77.00560783333333, "fusion_lon": 0.0, "is_disabled": 0, "fusion_lat": 0.0, "bike_id": "2c561f09c8b652a2dc2f6c6737d18ec0", "rental_uris": {"ios": "https://dc.lft.to/lastmile_qr_scan", "android": "https://dc.lft.to/lastmile_qr_scan"}}, {"name": "58bab0564e7ca484190c7af08b87e2d1", "type": "electric_scooter", "lat": 38.935346833333334, "is_reserved": 0, "lon": -77.0285625, "fusion_lon": 0.0, "is_disabled": 0, "fusion_lat": 0.0, "bike_id": "58bab0564e7ca484190c7af08b87e2d1", "rental_uris": {"ios": "https://dc.lft.to/lastmile_qr_scan", "android": "https://dc.lft.to/lastmile_qr_scan"}}, {"name": "ed639b674da4b6b5f76cf142d51c95c0", "type": "electric_scooter", "lat": 38.89239033333333, "is_reserved": 0, "lon": -77.02805533333333, "fusion_lon": 0.0, "is_disabled": 0, "fusion_lat": 0.0, "bike_id": "ed639b674da4b6b5f76cf142d51c95c0", "rental_uris": {"ios": "https://dc.lft.to/lastmile_qr_scan", "android": "https://dc.lft.to/lastmile_qr_scan"}}, {"name": "d846555da92506f8ede7d8b2e8009a00", "type": "electric_bike", "lat": 38.9650895, "is_reserved": 0, "lon": -77.10333666666666, "fusion_lon": 0.0, "is_disabled": 0, "fusion_lat": 0.0, "bike_id": "d846555da92506f8ede7d8b2e8009a00", "rental_uris": {"ios": "https://dc.lft.to/lastmile_qr_scan", "android": "https://dc.lft.to/lastmile_qr_scan"}}, {"name": "944081da31741a5330bd54f4874ec148", "type": "electric_scooter", "lat": 38.892363333333336, "is_reserved": 0, "lon": -77.05002033333334, "fusion_lon": 0.0, "is_disabled": 0, "fusion_lat": 0.0, "bike_id": "944081da31741a5330bd54f4874ec148", "rental_uris": {"ios": "https://dc.lft.to/lastmile_qr_scan", "android": "https://dc.lft.to/lastmile_qr_scan"}}, {"name": "019633e0929d24c83c77373e03c2ae24", "type": "electric_scooter", "lat": 38.9316055, "is_reserved": 0, "lon": -77.0389135, "fusion_lon": 0.0, "is_disabled": 0, "fusion_lat": 0.0, "bike_id": "019633e0929d24c83c77373e03c2ae24", "rental_uris": {"ios": "https://dc.lft.to/lastmile_qr_scan", "android": "https://dc.lft.to/lastmile_qr_scan"}}, {"name": "ed1181cab5e0e4ed2a7debeb42b50175", "type": "electric_scooter", "lat": 38.89224766666667, "is_reserved": 0, "lon": -77.043354, "fusion_lon": 0.0, "is_disabled": 0, "fusion_lat": 0.0, "bike_id": "ed1181cab5e0e4ed2a7debeb42b50175", "rental_uris": {"ios": "https://dc.lft.to/lastmile_qr_scan", "android": "https://dc.lft.to/lastmile_qr_scan"}}, {"name": "6a9047bdfa84cae5481171df43740937", "type": "electric_scooter", "lat": 38.8836885, "is_reserved": 0, "lon": -77.03174833333334, "fusion_lon": 0.0, "is_disabled": 0, "fusion_lat": 0.0, "bike_id": "6a9047bdfa84cae5481171df43740937", "rental_uris": {"ios": "https://dc.lft.to/lastmile_qr_scan", "android": "https://dc.lft.to/lastmile_qr_scan"}}, {"name": "79b8a80706009e68ce97dcb825256485", "type": "electric_scooter", "lat": 38.916300166666666, "is_reserved": 0, "lon": -77.022064, "fusion_lon": 0.0, "is_disabled": 0, "fusion_lat": 0.0, "bike_id": "79b8a80706009e68ce97dcb825256485", "rental_uris": {"ios": "https://dc.lft.to/lastmile_qr_scan", "android": "https://dc.lft.to/lastmile_qr_scan"}}, {"name": "b742c57a78aaa560242304ae3e0c8f7d", "type": "electric_scooter", "lat": 38.92599466666667, "is_reserved": 0, "lon": -77.00482666666667, "fusion_lon": 0.0, "is_disabled": 0, "fusion_lat": 0.0, "bike_id": "b742c57a78aaa560242304ae3e0c8f7d", "rental_uris": {"ios": "https://dc.lft.to/lastmile_qr_scan", "android": "https://dc.lft.to/lastmile_qr_scan"}}, {"name": "6798325f588793439966a2231cb8c6a2", "type": "electric_scooter", "lat": 38.898309166666664, "is_reserved": 0, "lon": -76.9463345, "fusion_lon": 0.0, "is_disabled": 0, "fusion_lat": 0.0, "bike_id": "6798325f588793439966a2231cb8c6a2", "rental_uris": {"ios": "https://dc.lft.to/lastmile_qr_scan", "android": "https://dc.lft.to/lastmile_qr_scan"}}, {"name": "59f0b57e1e324df2fe55b45b3bda0073", "type": "electric_scooter", "lat": 38.90687666666667, "is_reserved": 0, "lon": -77.07542766666667, "fusion_lon": 0.0, "is_disabled": 0, "fusion_lat": 0.0, "bike_id": "59f0b57e1e324df2fe55b45b3bda0073", "rental_uris": {"ios": "https://dc.lft.to/lastmile_qr_scan", "android": "https://dc.lft.to/lastmile_qr_scan"}}, {"name": "f11cb7551f8ad6292d07cd515f2f796b", "type": "electric_scooter", "lat": 38.91425566666667, "is_reserved": 0, "lon": -77.041549, "fusion_lon": 0.0, "is_disabled": 0, "fusion_lat": 0.0, "bike_id": "f11cb7551f8ad6292d07cd515f2f796b", "rental_uris": {"ios": "https://dc.lft.to/lastmile_qr_scan", "android": "https://dc.lft.to/lastmile_qr_scan"}}, {"name": "f80592ad90b365f756507ff92c5dfadc", "type": "electric_scooter", "lat": 38.885043833333334, "is_reserved": 0, "lon": -76.9984225, "fusion_lon": 0.0, "is_disabled": 0, "fusion_lat": 0.0, "bike_id": "f80592ad90b365f756507ff92c5dfadc", "rental_uris": {"ios": "https://dc.lft.to/lastmile_qr_scan", "android": "https://dc.lft.to/lastmile_qr_scan"}}, {"name": "2e4cd4ffa520a23d983f9e206152de9e", "type": "electric_scooter", "lat": 38.89664633333334, "is_reserved": 0, "lon": -77.0280495, "fusion_lon": 0.0, "is_disabled": 0, "fusion_lat": 0.0, "bike_id": "2e4cd4ffa520a23d983f9e206152de9e", "rental_uris": {"ios": "https://dc.lft.to/lastmile_qr_scan", "android": "https://dc.lft.to/lastmile_qr_scan"}}, {"name": "993251e2ed5e59bdb915cc164844c26f", "type": "electric_bike", "lat": 38.952896333333335, "is_reserved": 0, "lon": -76.9780775, "fusion_lon": 0.0, "is_disabled": 0, "fusion_lat": 0.0, "bike_id": "993251e2ed5e59bdb915cc164844c26f", "rental_uris": {"ios": "https://dc.lft.to/lastmile_qr_scan", "android": "https://dc.lft.to/lastmile_qr_scan"}}, {"name": "9bdc8a3665aa8d3523d9282f9469b1a3", "type": "electric_scooter", "lat": 38.915988166666665, "is_reserved": 0, "lon": -76.98382133333334, "fusion_lon": 0.0, "is_disabled": 0, "fusion_lat": 0.0, "bike_id": "9bdc8a3665aa8d3523d9282f9469b1a3", "rental_uris": {"ios": "https://dc.lft.to/lastmile_qr_scan", "android": "https://dc.lft.to/lastmile_qr_scan"}}, {"name": "3893668e695dc3eeb9668f10e238f7fa", "type": "electric_scooter", "lat": 38.89025566666667, "is_reserved": 0, "lon": -76.936871, "fusion_lon": 0.0, "is_disabled": 0, "fusion_lat": 0.0, "bike_id": "3893668e695dc3eeb9668f10e238f7fa", "rental_uris": {"ios": "https://dc.lft.to/lastmile_qr_scan", "android": "https://dc.lft.to/lastmile_qr_scan"}}, {"name": "cb54b1b0e7aeb6f6c3835234e4e70e9e", "type": "electric_bike", "lat": 38.846129, "is_reserved": 0, "lon": -76.97835466666666, "fusion_lon": 0.0, "is_disabled": 0, "fusion_lat": 0.0, "bike_id": "cb54b1b0e7aeb6f6c3835234e4e70e9e", "rental_uris": {"ios": "https://dc.lft.to/lastmile_qr_scan", "android": "https://dc.lft.to/lastmile_qr_scan"}}, {"name": "90e05849e8d923e96602697cb4853158", "type": "electric_scooter", "lat": 38.914809166666664, "is_reserved": 0, "lon": -77.00833516666667, "fusion_lon": 0.0, "is_disabled": 0, "fusion_lat": 0.0, "bike_id": "90e05849e8d923e96602697cb4853158", "rental_uris": {"ios": "https://dc.lft.to/lastmile_qr_scan", "android": "https://dc.lft.to/lastmile_qr_scan"}}, {"name": "608c85b1e65012f82ad15f55cfb1915b", "type": "electric_scooter", "lat": 38.89904116666666, "is_reserved": 0, "lon": -77.03281383333334, "fusion_lon": 0.0, "is_disabled": 0, "fusion_lat": 0.0, "bike_id": "608c85b1e65012f82ad15f55cfb1915b", "rental_uris": {"ios": "https://dc.lft.to/lastmile_qr_scan", "android": "https://dc.lft.to/lastmile_qr_scan"}}, {"name": "90f4b0e4bdea7ed072cb708303153f35", "type": "electric_bike", "lat": 39.05814866666667, "is_reserved": 0, "lon": -77.12627366666666, "fusion_lon": 0.0, "is_disabled": 0, "fusion_lat": 0.0, "bike_id": "90f4b0e4bdea7ed072cb708303153f35", "rental_uris": {"ios": "https://dc.lft.to/lastmile_qr_scan", "android": "https://dc.lft.to/lastmile_qr_scan"}}, {"name": "71ee479f9bf0edd6132169a700fc7ea2", "type": "electric_scooter", "lat": 38.902517, "is_reserved": 0, "lon": -77.03161183333333, "fusion_lon": 0.0, "is_disabled": 0, "fusion_lat": 0.0, "bike_id": "71ee479f9bf0edd6132169a700fc7ea2", "rental_uris": {"ios": "https://dc.lft.to/lastmile_qr_scan", "android": "https://dc.lft.to/lastmile_qr_scan"}}, {"name": "7072e482cd3e653483f97ae9325006c0", "type": "electric_scooter", "lat": 38.9057135, "is_reserved": 0, "lon": -77.03986283333333, "fusion_lon": 0.0, "is_disabled": 0, "fusion_lat": 0.0, "bike_id": "7072e482cd3e653483f97ae9325006c0", "rental_uris": {"ios": "https://dc.lft.to/lastmile_qr_scan", "android": "https://dc.lft.to/lastmile_qr_scan"}}, {"name": "edecf23e0a8e42b3fb35746b503c8b98", "type": "electric_scooter", "lat": 38.905696666666664, "is_reserved": 0, "lon": -77.04026716666667, "fusion_lon": 0.0, "is_disabled": 0, "fusion_lat": 0.0, "bike_id": "edecf23e0a8e42b3fb35746b503c8b98", "rental_uris": {"ios": "https://dc.lft.to/lastmile_qr_scan", "android": "https://dc.lft.to/lastmile_qr_scan"}}, {"name": "7708199e95848eddc23649be42dd33f1", "type": "electric_scooter", "lat": 38.901232, "is_reserved": 0, "lon": -77.049934, "fusion_lon": 0.0, "is_disabled": 0, "fusion_lat": 0.0, "bike_id": "7708199e95848eddc23649be42dd33f1", "rental_uris": {"ios": "https://dc.lft.to/lastmile_qr_scan", "android": "https://dc.lft.to/lastmile_qr_scan"}}, {"name": "7f8f1d636c57754027472cd7827ec3f4", "type": "electric_scooter", "lat": 38.900165666666666, "is_reserved": 0, "lon": -76.990738, "fusion_lon": 0.0, "is_disabled": 0, "fusion_lat": 0.0, "bike_id": "7f8f1d636c57754027472cd7827ec3f4", "rental_uris": {"ios": "https://dc.lft.to/lastmile_qr_scan", "android": "https://dc.lft.to/lastmile_qr_scan"}}, {"name": "518457b5e5f207766f1c11d4c529a16f", "type": "electric_bike", "lat": 38.902974, "is_reserved": 0, "lon": -76.94442433333333, "fusion_lon": 0.0, "is_disabled": 0, "fusion_lat": 0.0, "bike_id": "518457b5e5f207766f1c11d4c529a16f", "rental_uris": {"ios": "https://dc.lft.to/lastmile_qr_scan", "android": "https://dc.lft.to/lastmile_qr_scan"}}, {"name": "dbcce2934423e070b5013b5de2c1a434", "type": "electric_bike", "lat": 38.83815116666667, "is_reserved": 0, "lon": -76.99843, "fusion_lon": 0.0, "is_disabled": 0, "fusion_lat": 0.0, "bike_id": "dbcce2934423e070b5013b5de2c1a434", "rental_uris": {"ios": "https://dc.lft.to/lastmile_qr_scan", "android": "https://dc.lft.to/lastmile_qr_scan"}}, {"name": "1ee652b9815149b270d5a4841a40d6e8", "type": "electric_scooter", "lat": 38.89756216666667, "is_reserved": 0, "lon": -77.02997116666667, "fusion_lon": 0.0, "is_disabled": 0, "fusion_lat": 0.0, "bike_id": "1ee652b9815149b270d5a4841a40d6e8", "rental_uris": {"ios": "https://dc.lft.to/lastmile_qr_scan", "android": "https://dc.lft.to/lastmile_qr_scan"}}, {"name": "478575969d3ded3d0c85d048949ff114", "type": "electric_scooter", "lat": 38.86659383333333, "is_reserved": 0, "lon": -76.98886933333333, "fusion_lon": 0.0, "is_disabled": 0, "fusion_lat": 0.0, "bike_id": "478575969d3ded3d0c85d048949ff114", "rental_uris": {"ios": "https://dc.lft.to/lastmile_qr_scan", "android": "https://dc.lft.to/lastmile_qr_scan"}}, {"name": "b293c1c794f5238147d701cae4e1ccf9", "type": "electric_scooter", "lat": 38.94276883333333, "is_reserved": 0, "lon": -77.02503816666666, "fusion_lon": 0.0, "is_disabled": 0, "fusion_lat": 0.0, "bike_id": "b293c1c794f5238147d701cae4e1ccf9", "rental_uris": {"ios": "https://dc.lft.to/lastmile_qr_scan", "android": "https://dc.lft.to/lastmile_qr_scan"}}, {"name": "1fdf481a4ec007370301747dd5922781", "type": "electric_scooter", "lat": 38.9058195, "is_reserved": 0, "lon": -77.034741, "fusion_lon": 0.0, "is_disabled": 0, "fusion_lat": 0.0, "bike_id": "1fdf481a4ec007370301747dd5922781", "rental_uris": {"ios": "https://dc.lft.to/lastmile_qr_scan", "android": "https://dc.lft.to/lastmile_qr_scan"}}, {"name": "93686343ad20a32ba9b8e27bbc23404f", "type": "electric_bike", "lat": 38.96505166666667, "is_reserved": 0, "lon": -77.10329483333334, "fusion_lon": 0.0, "is_disabled": 0, "fusion_lat": 0.0, "bike_id": "93686343ad20a32ba9b8e27bbc23404f", "rental_uris": {"ios": "https://dc.lft.to/lastmile_qr_scan", "android": "https://dc.lft.to/lastmile_qr_scan"}}, {"name": "627712c798323f3ad384ae5a465ee4e9", "type": "electric_scooter", "lat": 38.900404333333334, "is_reserved": 0, "lon": -77.04691833333334, "fusion_lon": 0.0, "is_disabled": 0, "fusion_lat": 0.0, "bike_id": "627712c798323f3ad384ae5a465ee4e9", "rental_uris": {"ios": "https://dc.lft.to/lastmile_qr_scan", "android": "https://dc.lft.to/lastmile_qr_scan"}}, {"name": "a4fc973b0ed6cacb66d10c97190e7b5e", "type": "electric_scooter", "lat": 38.8778815, "is_reserved": 0, "lon": -76.99409316666667, "fusion_lon": 0.0, "is_disabled": 0, "fusion_lat": 0.0, "bike_id": "a4fc973b0ed6cacb66d10c97190e7b5e", "rental_uris": {"ios": "https://dc.lft.to/lastmile_qr_scan", "android": "https://dc.lft.to/lastmile_qr_scan"}}, {"name": "8d6419738ce15f3b6e09678c448779a4", "type": "electric_scooter", "lat": 38.905921166666666, "is_reserved": 0, "lon": -77.03870433333333, "fusion_lon": 0.0, "is_disabled": 0, "fusion_lat": 0.0, "bike_id": "8d6419738ce15f3b6e09678c448779a4", "rental_uris": {"ios": "https://dc.lft.to/lastmile_qr_scan", "android": "https://dc.lft.to/lastmile_qr_scan"}}, {"name": "1c66133f3ceebf697256cdfa3471adab", "type": "electric_scooter", "lat": 38.91254833333333, "is_reserved": 0, "lon": -77.01225666666667, "fusion_lon": 0.0, "is_disabled": 0, "fusion_lat": 0.0, "bike_id": "1c66133f3ceebf697256cdfa3471adab", "rental_uris": {"ios": "https://dc.lft.to/lastmile_qr_scan", "android": "https://dc.lft.to/lastmile_qr_scan"}}, {"name": "94e7290485ad63e3194343f595c84640", "type": "electric_scooter", "lat": 38.90384616666667, "is_reserved": 0, "lon": -77.0415515, "fusion_lon": 0.0, "is_disabled": 0, "fusion_lat": 0.0, "bike_id": "94e7290485ad63e3194343f595c84640", "rental_uris": {"ios": "https://dc.lft.to/lastmile_qr_scan", "android": "https://dc.lft.to/lastmile_qr_scan"}}, {"name": "becfc516d2aed6383b3f835ad2d01db4", "type": "electric_scooter", "lat": 38.92928533333333, "is_reserved": 0, "lon": -77.03259916666667, "fusion_lon": 0.0, "is_disabled": 0, "fusion_lat": 0.0, "bike_id": "becfc516d2aed6383b3f835ad2d01db4", "rental_uris": {"ios": "https://dc.lft.to/lastmile_qr_scan", "android": "https://dc.lft.to/lastmile_qr_scan"}}, {"name": "5e650e85dbcf0dd2bf37f82997c018b2", "type": "electric_scooter", "lat": 38.92712233333334, "is_reserved": 0, "lon": -77.02098716666667, "fusion_lon": 0.0, "is_disabled": 0, "fusion_lat": 0.0, "bike_id": "5e650e85dbcf0dd2bf37f82997c018b2", "rental_uris": {"ios": "https://dc.lft.to/lastmile_qr_scan", "android": "https://dc.lft.to/lastmile_qr_scan"}}, {"name": "ef08d88f794fdba29d0e3b46eafabd7f", "type": "electric_scooter", "lat": 38.90443233333333, "is_reserved": 0, "lon": -77.03639733333333, "fusion_lon": 0.0, "is_disabled": 0, "fusion_lat": 0.0, "bike_id": "ef08d88f794fdba29d0e3b46eafabd7f", "rental_uris": {"ios": "https://dc.lft.to/lastmile_qr_scan", "android": "https://dc.lft.to/lastmile_qr_scan"}}, {"name": "689e86e198d60b8067703249716ab5d4", "type": "electric_scooter", "lat": 38.90582833333333, "is_reserved": 0, "lon": -77.04538333333333, "fusion_lon": 0.0, "is_disabled": 0, "fusion_lat": 0.0, "bike_id": "689e86e198d60b8067703249716ab5d4", "rental_uris": {"ios": "https://dc.lft.to/lastmile_qr_scan", "android": "https://dc.lft.to/lastmile_qr_scan"}}, {"name": "6b36ea0f15654cf0c6485a6ee13a61ad", "type": "electric_scooter", "lat": 38.90391116666667, "is_reserved": 0, "lon": -77.04484916666667, "fusion_lon": 0.0, "is_disabled": 0, "fusion_lat": 0.0, "bike_id": "6b36ea0f15654cf0c6485a6ee13a61ad", "rental_uris": {"ios": "https://dc.lft.to/lastmile_qr_scan", "android": "https://dc.lft.to/lastmile_qr_scan"}}, {"name": "89c714440d092b3c5d77e11da8cef906", "type": "electric_scooter", "lat": 38.914054666666665, "is_reserved": 0, "lon": -77.00838333333333, "fusion_lon": 0.0, "is_disabled": 0, "fusion_lat": 0.0, "bike_id": "89c714440d092b3c5d77e11da8cef906", "rental_uris": {"ios": "https://dc.lft.to/lastmile_qr_scan", "android": "https://dc.lft.to/lastmile_qr_scan"}}, {"name": "53808f5b1588419a6f2310f9f8d0c9f6", "type": "electric_scooter", "lat": 38.913622, "is_reserved": 0, "lon": -77.017543, "fusion_lon": 0.0, "is_disabled": 0, "fusion_lat": 0.0, "bike_id": "53808f5b1588419a6f2310f9f8d0c9f6", "rental_uris": {"ios": "https://dc.lft.to/lastmile_qr_scan", "android": "https://dc.lft.to/lastmile_qr_scan"}}, {"name": "a474ec648fcb3c76d25b1e44d9e92332", "type": "electric_bike", "lat": 38.903053666666665, "is_reserved": 0, "lon": -77.04175783333334, "fusion_lon": 0.0, "is_disabled": 0, "fusion_lat": 0.0, "bike_id": "a474ec648fcb3c76d25b1e44d9e92332", "rental_uris": {"ios": "https://dc.lft.to/lastmile_qr_scan", "android": "https://dc.lft.to/lastmile_qr_scan"}}, {"name": "452252ab46dfcb036853bb9f08f8d1f4", "type": "electric_scooter", "lat": 38.91707366666667, "is_reserved": 0, "lon": -77.0312385, "fusion_lon": 0.0, "is_disabled": 0, "fusion_lat": 0.0, "bike_id": "452252ab46dfcb036853bb9f08f8d1f4", "rental_uris": {"ios": "https://dc.lft.to/lastmile_qr_scan", "android": "https://dc.lft.to/lastmile_qr_scan"}}, {"name": "7b2f339ded8db078c2a5d0d0feb5fa6a", "type": "electric_scooter", "lat": 38.92248683333333, "is_reserved": 0, "lon": -77.0308565, "fusion_lon": 0.0, "is_disabled": 0, "fusion_lat": 0.0, "bike_id": "7b2f339ded8db078c2a5d0d0feb5fa6a", "rental_uris": {"ios": "https://dc.lft.to/lastmile_qr_scan", "android": "https://dc.lft.to/lastmile_qr_scan"}}, {"name": "fc2f67936a01f20ea2f4cec7e819fd62", "type": "electric_scooter", "lat": 38.90505183333333, "is_reserved": 0, "lon": -76.99016833333333, "fusion_lon": 0.0, "is_disabled": 0, "fusion_lat": 0.0, "bike_id": "fc2f67936a01f20ea2f4cec7e819fd62", "rental_uris": {"ios": "https://dc.lft.to/lastmile_qr_scan", "android": "https://dc.lft.to/lastmile_qr_scan"}}, {"name": "3f4b493de05c32e7b30bfff33647cae1", "type": "electric_scooter", "lat": 38.904258166666665, "is_reserved": 0, "lon": -77.03261516666667, "fusion_lon": 0.0, "is_disabled": 0, "fusion_lat": 0.0, "bike_id": "3f4b493de05c32e7b30bfff33647cae1", "rental_uris": {"ios": "https://dc.lft.to/lastmile_qr_scan", "android": "https://dc.lft.to/lastmile_qr_scan"}}, {"name": "12a5ea643fbffb331abd60e0ff4f09ed", "type": "electric_scooter", "lat": 38.900526, "is_reserved": 0, "lon": -77.03205416666667, "fusion_lon": 0.0, "is_disabled": 0, "fusion_lat": 0.0, "bike_id": "12a5ea643fbffb331abd60e0ff4f09ed", "rental_uris": {"ios": "https://dc.lft.to/lastmile_qr_scan", "android": "https://dc.lft.to/lastmile_qr_scan"}}, {"name": "5614127e37deb00a05a968913b3f03b9", "type": "electric_scooter", "lat": 38.89498116666667, "is_reserved": 0, "lon": -77.0110615, "fusion_lon": 0.0, "is_disabled": 0, "fusion_lat": 0.0, "bike_id": "5614127e37deb00a05a968913b3f03b9", "rental_uris": {"ios": "https://dc.lft.to/lastmile_qr_scan", "android": "https://dc.lft.to/lastmile_qr_scan"}}, {"name": "7dc6848e01bb3010cbd5f2752bc6bfc4", "type": "electric_scooter", "lat": 38.95935216666667, "is_reserved": 0, "lon": -77.03123683333334, "fusion_lon": 0.0, "is_disabled": 0, "fusion_lat": 0.0, "bike_id": "7dc6848e01bb3010cbd5f2752bc6bfc4", "rental_uris": {"ios": "https://dc.lft.to/lastmile_qr_scan", "android": "https://dc.lft.to/lastmile_qr_scan"}}, {"name": "fbb04896077f1f9ee1adb69ca4ce21b6", "type": "electric_scooter", "lat": 38.88502166666667, "is_reserved": 0, "lon": -77.00567666666667, "fusion_lon": 0.0, "is_disabled": 0, "fusion_lat": 0.0, "bike_id": "fbb04896077f1f9ee1adb69ca4ce21b6", "rental_uris": {"ios": "https://dc.lft.to/lastmile_qr_scan", "android": "https://dc.lft.to/lastmile_qr_scan"}}, {"name": "b2441d0c63e63b7a16ee88441a3b904f", "type": "electric_scooter", "lat": 38.9322725, "is_reserved": 0, "lon": -77.03546333333334, "fusion_lon": 0.0, "is_disabled": 0, "fusion_lat": 0.0, "bike_id": "b2441d0c63e63b7a16ee88441a3b904f", "rental_uris": {"ios": "https://dc.lft.to/lastmile_qr_scan", "android": "https://dc.lft.to/lastmile_qr_scan"}}, {"name": "bbd74ebddec64248b027254538d7ad34", "type": "electric_bike", "lat": 38.8386305, "is_reserved": 0, "lon": -77.088707, "fusion_lon": 0.0, "is_disabled": 0, "fusion_lat": 0.0, "bike_id": "bbd74ebddec64248b027254538d7ad34", "rental_uris": {"ios": "https://dc.lft.to/lastmile_qr_scan", "android": "https://dc.lft.to/lastmile_qr_scan"}}, {"name": "4d140592630098d65257d33dfb2e69bf", "type": "electric_scooter", "lat": 38.9043805, "is_reserved": 0, "lon": -77.02958316666667, "fusion_lon": 0.0, "is_disabled": 0, "fusion_lat": 0.0, "bike_id": "4d140592630098d65257d33dfb2e69bf", "rental_uris": {"ios": "https://dc.lft.to/lastmile_qr_scan", "android": "https://dc.lft.to/lastmile_qr_scan"}}, {"name": "7e9fce178d8e830967d79b8b236974dc", "type": "electric_bike", "lat": 38.90092933333333, "is_reserved": 0, "lon": -76.98007516666667, "fusion_lon": 0.0, "is_disabled": 0, "fusion_lat": 0.0, "bike_id": "7e9fce178d8e830967d79b8b236974dc", "rental_uris": {"ios": "https://dc.lft.to/lastmile_qr_scan", "android": "https://dc.lft.to/lastmile_qr_scan"}}, {"name": "7c2fc70835fba132ff914b43b4d09ce9", "type": "electric_scooter", "lat": 38.900308333333335, "is_reserved": 0, "lon": -76.99448866666667, "fusion_lon": 0.0, "is_disabled": 0, "fusion_lat": 0.0, "bike_id": "7c2fc70835fba132ff914b43b4d09ce9", "rental_uris": {"ios": "https://dc.lft.to/lastmile_qr_scan", "android": "https://dc.lft.to/lastmile_qr_scan"}}, {"name": "faed764f2aa6424ecedd8a9319d369d7", "type": "electric_scooter", "lat": 38.903213, "is_reserved": 0, "lon": -77.03862133333334, "fusion_lon": 0.0, "is_disabled": 0, "fusion_lat": 0.0, "bike_id": "faed764f2aa6424ecedd8a9319d369d7", "rental_uris": {"ios": "https://dc.lft.to/lastmile_qr_scan", "android": "https://dc.lft.to/lastmile_qr_scan"}}, {"name": "5e64f3f475fb9eb94609996020177e40", "type": "electric_scooter", "lat": 38.89052366666667, "is_reserved": 0, "lon": -76.93755583333333, "fusion_lon": 0.0, "is_disabled": 0, "fusion_lat": 0.0, "bike_id": "5e64f3f475fb9eb94609996020177e40", "rental_uris": {"ios": "https://dc.lft.to/lastmile_qr_scan", "android": "https://dc.lft.to/lastmile_qr_scan"}}, {"name": "ea0a4cc7d8dc2878d34edd421a2b89c0", "type": "electric_scooter", "lat": 38.91003, "is_reserved": 0, "lon": -77.0218925, "fusion_lon": 0.0, "is_disabled": 0, "fusion_lat": 0.0, "bike_id": "ea0a4cc7d8dc2878d34edd421a2b89c0", "rental_uris": {"ios": "https://dc.lft.to/lastmile_qr_scan", "android": "https://dc.lft.to/lastmile_qr_scan"}}, {"name": "f1493e96612cc02aa590932ceaae2842", "type": "electric_bike", "lat": 38.973298666666665, "is_reserved": 0, "lon": -77.02152816666667, "fusion_lon": 0.0, "is_disabled": 0, "fusion_lat": 0.0, "bike_id": "f1493e96612cc02aa590932ceaae2842", "rental_uris": {"ios": "https://dc.lft.to/lastmile_qr_scan", "android": "https://dc.lft.to/lastmile_qr_scan"}}, {"name": "e0b6585289178c8b087c8262ab2d5fa5", "type": "electric_scooter", "lat": 38.92699783333333, "is_reserved": 0, "lon": -77.03595083333333, "fusion_lon": 0.0, "is_disabled": 0, "fusion_lat": 0.0, "bike_id": "e0b6585289178c8b087c8262ab2d5fa5", "rental_uris": {"ios": "https://dc.lft.to/lastmile_qr_scan", "android": "https://dc.lft.to/lastmile_qr_scan"}}, {"name": "b1572bba5e82ac5d9f3864fd25adbd0d", "type": "electric_scooter", "lat": 38.930324166666665, "is_reserved": 0, "lon": -77.03275133333334, "fusion_lon": 0.0, "is_disabled": 0, "fusion_lat": 0.0, "bike_id": "b1572bba5e82ac5d9f3864fd25adbd0d", "rental_uris": {"ios": "https://dc.lft.to/lastmile_qr_scan", "android": "https://dc.lft.to/lastmile_qr_scan"}}, {"name": "b06efc5988a1749a7f39a6bef9007234", "type": "electric_scooter", "lat": 38.87461666666667, "is_reserved": 0, "lon": -77.00543466666667, "fusion_lon": 0.0, "is_disabled": 0, "fusion_lat": 0.0, "bike_id": "b06efc5988a1749a7f39a6bef9007234", "rental_uris": {"ios": "https://dc.lft.to/lastmile_qr_scan", "android": "https://dc.lft.to/lastmile_qr_scan"}}, {"name": "e3e7acb807689214a53d93afcd4ac74f", "type": "electric_scooter", "lat": 38.9215515, "is_reserved": 0, "lon": -77.03454616666667, "fusion_lon": 0.0, "is_disabled": 0, "fusion_lat": 0.0, "bike_id": "e3e7acb807689214a53d93afcd4ac74f", "rental_uris": {"ios": "https://dc.lft.to/lastmile_qr_scan", "android": "https://dc.lft.to/lastmile_qr_scan"}}, {"name": "f057244c0568619f341f8727a5713f00", "type": "electric_bike", "lat": 38.959107833333334, "is_reserved": 0, "lon": -77.00155916666667, "fusion_lon": 0.0, "is_disabled": 0, "fusion_lat": 0.0, "bike_id": "f057244c0568619f341f8727a5713f00", "rental_uris": {"ios": "https://dc.lft.to/lastmile_qr_scan", "android": "https://dc.lft.to/lastmile_qr_scan"}}, {"name": "61ce1af670d57f6351abc3e77a04e27b", "type": "electric_scooter", "lat": 38.885036666666664, "is_reserved": 0, "lon": -77.00567883333333, "fusion_lon": 0.0, "is_disabled": 0, "fusion_lat": 0.0, "bike_id": "61ce1af670d57f6351abc3e77a04e27b", "rental_uris": {"ios": "https://dc.lft.to/lastmile_qr_scan", "android": "https://dc.lft.to/lastmile_qr_scan"}}, {"name": "47f192db5c9d7aabf7c717b30910dcca", "type": "electric_scooter", "lat": 38.92157066666667, "is_reserved": 0, "lon": -77.03529983333334, "fusion_lon": 0.0, "is_disabled": 0, "fusion_lat": 0.0, "bike_id": "47f192db5c9d7aabf7c717b30910dcca", "rental_uris": {"ios": "https://dc.lft.to/lastmile_qr_scan", "android": "https://dc.lft.to/lastmile_qr_scan"}}, {"name": "4a11bcd3514f7d3e2b2b82d98515736a", "type": "electric_scooter", "lat": 38.903754166666666, "is_reserved": 0, "lon": -77.03986866666666, "fusion_lon": 0.0, "is_disabled": 0, "fusion_lat": 0.0, "bike_id": "4a11bcd3514f7d3e2b2b82d98515736a", "rental_uris": {"ios": "https://dc.lft.to/lastmile_qr_scan", "android": "https://dc.lft.to/lastmile_qr_scan"}}, {"name": "5ab08d9dab7a49132f21c3b04b06b952", "type": "electric_scooter", "lat": 38.89975916666667, "is_reserved": 0, "lon": -77.03128033333333, "fusion_lon": 0.0, "is_disabled": 0, "fusion_lat": 0.0, "bike_id": "5ab08d9dab7a49132f21c3b04b06b952", "rental_uris": {"ios": "https://dc.lft.to/lastmile_qr_scan", "android": "https://dc.lft.to/lastmile_qr_scan"}}, {"name": "49e792570db9c1308b0fd0e1cf1265cc", "type": "electric_scooter", "lat": 38.90328816666667, "is_reserved": 0, "lon": -77.0377915, "fusion_lon": 0.0, "is_disabled": 0, "fusion_lat": 0.0, "bike_id": "49e792570db9c1308b0fd0e1cf1265cc", "rental_uris": {"ios": "https://dc.lft.to/lastmile_qr_scan", "android": "https://dc.lft.to/lastmile_qr_scan"}}, {"name": "13e437e3468c17d2c66e25fb436647f5", "type": "electric_scooter", "lat": 38.928809, "is_reserved": 0, "lon": -77.03758116666667, "fusion_lon": 0.0, "is_disabled": 0, "fusion_lat": 0.0, "bike_id": "13e437e3468c17d2c66e25fb436647f5", "rental_uris": {"ios": "https://dc.lft.to/lastmile_qr_scan", "android": "https://dc.lft.to/lastmile_qr_scan"}}, {"name": "e84f27433f5aaabaf6c788272ddfaa0f", "type": "electric_scooter", "lat": 38.897703, "is_reserved": 0, "lon": -77.00907833333333, "fusion_lon": 0.0, "is_disabled": 0, "fusion_lat": 0.0, "bike_id": "e84f27433f5aaabaf6c788272ddfaa0f", "rental_uris": {"ios": "https://dc.lft.to/lastmile_qr_scan", "android": "https://dc.lft.to/lastmile_qr_scan"}}, {"name": "affd3f51fad172ffe72193a2b8b8bd2d", "type": "electric_scooter", "lat": 38.90609833333333, "is_reserved": 0, "lon": -77.03962433333334, "fusion_lon": 0.0, "is_disabled": 0, "fusion_lat": 0.0, "bike_id": "affd3f51fad172ffe72193a2b8b8bd2d", "rental_uris": {"ios": "https://dc.lft.to/lastmile_qr_scan", "android": "https://dc.lft.to/lastmile_qr_scan"}}, {"name": "de371198d8be3ae0eca5c297f4f36737", "type": "electric_scooter", "lat": 38.9086455, "is_reserved": 0, "lon": -76.986203, "fusion_lon": 0.0, "is_disabled": 0, "fusion_lat": 0.0, "bike_id": "de371198d8be3ae0eca5c297f4f36737", "rental_uris": {"ios": "https://dc.lft.to/lastmile_qr_scan", "android": "https://dc.lft.to/lastmile_qr_scan"}}, {"name": "2e6045ff5cafa195c86fcfde9a8b2e26", "type": "electric_scooter", "lat": 38.901746, "is_reserved": 0, "lon": -77.0000845, "fusion_lon": 0.0, "is_disabled": 0, "fusion_lat": 0.0, "bike_id": "2e6045ff5cafa195c86fcfde9a8b2e26", "rental_uris": {"ios": "https://dc.lft.to/lastmile_qr_scan", "android": "https://dc.lft.to/lastmile_qr_scan"}}, {"name": "59e19576794f843521699a7e23dfc303", "type": "electric_scooter", "lat": 38.86355666666667, "is_reserved": 0, "lon": -76.9906505, "fusion_lon": 0.0, "is_disabled": 0, "fusion_lat": 0.0, "bike_id": "59e19576794f843521699a7e23dfc303", "rental_uris": {"ios": "https://dc.lft.to/lastmile_qr_scan", "android": "https://dc.lft.to/lastmile_qr_scan"}}, {"name": "f498106c566927a89602762f5e664410", "type": "electric_scooter", "lat": 38.9045705, "is_reserved": 0, "lon": -77.0592335, "fusion_lon": 0.0, "is_disabled": 0, "fusion_lat": 0.0, "bike_id": "f498106c566927a89602762f5e664410", "rental_uris": {"ios": "https://dc.lft.to/lastmile_qr_scan", "android": "https://dc.lft.to/lastmile_qr_scan"}}, {"name": "9df8a63d036722f2d3523d08479a4c32", "type": "electric_scooter", "lat": 38.903863333333334, "is_reserved": 0, "lon": -77.04486466666667, "fusion_lon": 0.0, "is_disabled": 0, "fusion_lat": 0.0, "bike_id": "9df8a63d036722f2d3523d08479a4c32", "rental_uris": {"ios": "https://dc.lft.to/lastmile_qr_scan", "android": "https://dc.lft.to/lastmile_qr_scan"}}, {"name": "0e94be1d58f24968bcfb70e22777ace4", "type": "electric_scooter", "lat": 38.905147166666666, "is_reserved": 0, "lon": -77.06592066666667, "fusion_lon": 0.0, "is_disabled": 0, "fusion_lat": 0.0, "bike_id": "0e94be1d58f24968bcfb70e22777ace4", "rental_uris": {"ios": "https://dc.lft.to/lastmile_qr_scan", "android": "https://dc.lft.to/lastmile_qr_scan"}}, {"name": "7d67c3ed718b89f81985b3c9efc463b0", "type": "electric_scooter", "lat": 38.8984915, "is_reserved": 0, "lon": -77.0332415, "fusion_lon": 0.0, "is_disabled": 0, "fusion_lat": 0.0, "bike_id": "7d67c3ed718b89f81985b3c9efc463b0", "rental_uris": {"ios": "https://dc.lft.to/lastmile_qr_scan", "android": "https://dc.lft.to/lastmile_qr_scan"}}, {"name": "fd09e69b8f29bcce98ed578bf7f60aaa", "type": "electric_bike", "lat": 38.9581685, "is_reserved": 0, "lon": -77.013852, "fusion_lon": 0.0, "is_disabled": 0, "fusion_lat": 0.0, "bike_id": "fd09e69b8f29bcce98ed578bf7f60aaa", "rental_uris": {"ios": "https://dc.lft.to/lastmile_qr_scan", "android": "https://dc.lft.to/lastmile_qr_scan"}}, {"name": "6f4d1445c3cc3c291ff15478e94345b2", "type": "electric_scooter", "lat": 38.900360666666664, "is_reserved": 0, "lon": -76.98839333333333, "fusion_lon": 0.0, "is_disabled": 0, "fusion_lat": 0.0, "bike_id": "6f4d1445c3cc3c291ff15478e94345b2", "rental_uris": {"ios": "https://dc.lft.to/lastmile_qr_scan", "android": "https://dc.lft.to/lastmile_qr_scan"}}, {"name": "fc0f3879894f1ef8e87c3b38df4e3a48", "type": "electric_scooter", "lat": 38.91013783333333, "is_reserved": 0, "lon": -77.018855, "fusion_lon": 0.0, "is_disabled": 0, "fusion_lat": 0.0, "bike_id": "fc0f3879894f1ef8e87c3b38df4e3a48", "rental_uris": {"ios": "https://dc.lft.to/lastmile_qr_scan", "android": "https://dc.lft.to/lastmile_qr_scan"}}, {"name": "9cd35bae264622fa4337bc5c49a24049", "type": "electric_bike", "lat": 38.887248, "is_reserved": 0, "lon": -77.13304616666667, "fusion_lon": 0.0, "is_disabled": 0, "fusion_lat": 0.0, "bike_id": "9cd35bae264622fa4337bc5c49a24049", "rental_uris": {"ios": "https://dc.lft.to/lastmile_qr_scan", "android": "https://dc.lft.to/lastmile_qr_scan"}}, {"name": "246d77c3122cfe6e0bb622422ec057cc", "type": "electric_scooter", "lat": 38.905125, "is_reserved": 0, "lon": -77.05319583333333, "fusion_lon": 0.0, "is_disabled": 0, "fusion_lat": 0.0, "bike_id": "246d77c3122cfe6e0bb622422ec057cc", "rental_uris": {"ios": "https://dc.lft.to/lastmile_qr_scan", "android": "https://dc.lft.to/lastmile_qr_scan"}}, {"name": "c3b49bccdfff099eba887364ccc3609c", "type": "electric_scooter", "lat": 38.898324333333335, "is_reserved": 0, "lon": -77.02781366666666, "fusion_lon": 0.0, "is_disabled": 0, "fusion_lat": 0.0, "bike_id": "c3b49bccdfff099eba887364ccc3609c", "rental_uris": {"ios": "https://dc.lft.to/lastmile_qr_scan", "android": "https://dc.lft.to/lastmile_qr_scan"}}, {"name": "a7316eb8655c0306c5bb8c4279f7a794", "type": "electric_scooter", "lat": 38.9418015, "is_reserved": 0, "lon": -77.03653233333333, "fusion_lon": 0.0, "is_disabled": 0, "fusion_lat": 0.0, "bike_id": "a7316eb8655c0306c5bb8c4279f7a794", "rental_uris": {"ios": "https://dc.lft.to/lastmile_qr_scan", "android": "https://dc.lft.to/lastmile_qr_scan"}}, {"name": "39041e63b7cd4818571dfc95b17906bb", "type": "electric_scooter", "lat": 38.907266, "is_reserved": 0, "lon": -77.04348416666667, "fusion_lon": 0.0, "is_disabled": 0, "fusion_lat": 0.0, "bike_id": "39041e63b7cd4818571dfc95b17906bb", "rental_uris": {"ios": "https://dc.lft.to/lastmile_qr_scan", "android": "https://dc.lft.to/lastmile_qr_scan"}}, {"name": "3a660363e09507b492f2879b5a573209", "type": "electric_scooter", "lat": 38.91333933333333, "is_reserved": 0, "lon": -77.048156, "fusion_lon": 0.0, "is_disabled": 0, "fusion_lat": 0.0, "bike_id": "3a660363e09507b492f2879b5a573209", "rental_uris": {"ios": "https://dc.lft.to/lastmile_qr_scan", "android": "https://dc.lft.to/lastmile_qr_scan"}}, {"name": "0ed599467416a4fac0201ea0f465fb90", "type": "electric_scooter", "lat": 38.900214, "is_reserved": 0, "lon": -77.03302316666667, "fusion_lon": 0.0, "is_disabled": 0, "fusion_lat": 0.0, "bike_id": "0ed599467416a4fac0201ea0f465fb90", "rental_uris": {"ios": "https://dc.lft.to/lastmile_qr_scan", "android": "https://dc.lft.to/lastmile_qr_scan"}}, {"name": "e6cb374f28f21ac6f2ac60987fe007f4", "type": "electric_scooter", "lat": 38.89482, "is_reserved": 0, "lon": -76.98562483333333, "fusion_lon": 0.0, "is_disabled": 0, "fusion_lat": 0.0, "bike_id": "e6cb374f28f21ac6f2ac60987fe007f4", "rental_uris": {"ios": "https://dc.lft.to/lastmile_qr_scan", "android": "https://dc.lft.to/lastmile_qr_scan"}}, {"name": "63ec71c490db16eb0348975e065caa92", "type": "electric_bike", "lat": 38.89529233333333, "is_reserved": 0, "lon": -77.02718716666666, "fusion_lon": 0.0, "is_disabled": 0, "fusion_lat": 0.0, "bike_id": "63ec71c490db16eb0348975e065caa92", "rental_uris": {"ios": "https://dc.lft.to/lastmile_qr_scan", "android": "https://dc.lft.to/lastmile_qr_scan"}}, {"name": "b03e4d1f2ae0174d7c60cd4ac0b48a45", "type": "electric_scooter", "lat": 38.903908, "is_reserved": 0, "lon": -77.04439716666667, "fusion_lon": 0.0, "is_disabled": 0, "fusion_lat": 0.0, "bike_id": "b03e4d1f2ae0174d7c60cd4ac0b48a45", "rental_uris": {"ios": "https://dc.lft.to/lastmile_qr_scan", "android": "https://dc.lft.to/lastmile_qr_scan"}}, {"name": "a25115751ff2b68cac4dfdaa51d860de", "type": "electric_scooter", "lat": 38.90599616666667, "is_reserved": 0, "lon": -77.04034916666667, "fusion_lon": 0.0, "is_disabled": 0, "fusion_lat": 0.0, "bike_id": "a25115751ff2b68cac4dfdaa51d860de", "rental_uris": {"ios": "https://dc.lft.to/lastmile_qr_scan", "android": "https://dc.lft.to/lastmile_qr_scan"}}, {"name": "12bd7bf9789153a0ada99228bb27eb16", "type": "electric_scooter", "lat": 38.884981833333335, "is_reserved": 0, "lon": -77.00727183333333, "fusion_lon": 0.0, "is_disabled": 0, "fusion_lat": 0.0, "bike_id": "12bd7bf9789153a0ada99228bb27eb16", "rental_uris": {"ios": "https://dc.lft.to/lastmile_qr_scan", "android": "https://dc.lft.to/lastmile_qr_scan"}}, {"name": "8127cc85961eb44e9b6691aa84fbc1cc", "type": "electric_scooter", "lat": 38.918767333333335, "is_reserved": 0, "lon": -77.04307816666666, "fusion_lon": 0.0, "is_disabled": 0, "fusion_lat": 0.0, "bike_id": "8127cc85961eb44e9b6691aa84fbc1cc", "rental_uris": {"ios": "https://dc.lft.to/lastmile_qr_scan", "android": "https://dc.lft.to/lastmile_qr_scan"}}, {"name": "d0279d6f7073c59cd0a734cb0920ac45", "type": "electric_scooter", "lat": 38.89892283333333, "is_reserved": 0, "lon": -77.03282233333333, "fusion_lon": 0.0, "is_disabled": 0, "fusion_lat": 0.0, "bike_id": "d0279d6f7073c59cd0a734cb0920ac45", "rental_uris": {"ios": "https://dc.lft.to/lastmile_qr_scan", "android": "https://dc.lft.to/lastmile_qr_scan"}}, {"name": "fdd32ed76e050f680f1a8a47953cc239", "type": "electric_scooter", "lat": 38.89735683333333, "is_reserved": 0, "lon": -76.94719916666666, "fusion_lon": 0.0, "is_disabled": 0, "fusion_lat": 0.0, "bike_id": "fdd32ed76e050f680f1a8a47953cc239", "rental_uris": {"ios": "https://dc.lft.to/lastmile_qr_scan", "android": "https://dc.lft.to/lastmile_qr_scan"}}, {"name": "4b413db70aa163cdba6bafaa0262ed97", "type": "electric_scooter", "lat": 38.9197835, "is_reserved": 0, "lon": -77.02190433333334, "fusion_lon": 0.0, "is_disabled": 0, "fusion_lat": 0.0, "bike_id": "4b413db70aa163cdba6bafaa0262ed97", "rental_uris": {"ios": "https://dc.lft.to/lastmile_qr_scan", "android": "https://dc.lft.to/lastmile_qr_scan"}}, {"name": "cedc575564a44ca9f3df55fe5cd68dce", "type": "electric_scooter", "lat": 38.880296, "is_reserved": 0, "lon": -76.93139, "fusion_lon": 0.0, "is_disabled": 0, "fusion_lat": 0.0, "bike_id": "cedc575564a44ca9f3df55fe5cd68dce", "rental_uris": {"ios": "https://dc.lft.to/lastmile_qr_scan", "android": "https://dc.lft.to/lastmile_qr_scan"}}, {"name": "f80635abb763e350633bf49891f50490", "type": "electric_scooter", "lat": 38.8919785, "is_reserved": 0, "lon": -77.00295833333334, "fusion_lon": 0.0, "is_disabled": 0, "fusion_lat": 0.0, "bike_id": "f80635abb763e350633bf49891f50490", "rental_uris": {"ios": "https://dc.lft.to/lastmile_qr_scan", "android": "https://dc.lft.to/lastmile_qr_scan"}}, {"name": "210c05b98e675ea79b25c0dcb07b88a4", "type": "electric_scooter", "lat": 38.89500916666667, "is_reserved": 0, "lon": -77.02400433333334, "fusion_lon": 0.0, "is_disabled": 0, "fusion_lat": 0.0, "bike_id": "210c05b98e675ea79b25c0dcb07b88a4", "rental_uris": {"ios": "https://dc.lft.to/lastmile_qr_scan", "android": "https://dc.lft.to/lastmile_qr_scan"}}, {"name": "f66170359b718a240c13eb2620acae13", "type": "electric_scooter", "lat": 38.927995333333335, "is_reserved": 0, "lon": -77.05359133333333, "fusion_lon": 0.0, "is_disabled": 0, "fusion_lat": 0.0, "bike_id": "f66170359b718a240c13eb2620acae13", "rental_uris": {"ios": "https://dc.lft.to/lastmile_qr_scan", "android": "https://dc.lft.to/lastmile_qr_scan"}}, {"name": "c33e5387f70e3986454a5ba1a6ef72ec", "type": "electric_bike", "lat": 38.827284666666664, "is_reserved": 0, "lon": -77.00865466666667, "fusion_lon": 0.0, "is_disabled": 0, "fusion_lat": 0.0, "bike_id": "c33e5387f70e3986454a5ba1a6ef72ec", "rental_uris": {"ios": "https://dc.lft.to/lastmile_qr_scan", "android": "https://dc.lft.to/lastmile_qr_scan"}}, {"name": "ecf15189995e2a2196d461dd224fc238", "type": "electric_scooter", "lat": 38.90230583333334, "is_reserved": 0, "lon": -77.043365, "fusion_lon": 0.0, "is_disabled": 0, "fusion_lat": 0.0, "bike_id": "ecf15189995e2a2196d461dd224fc238", "rental_uris": {"ios": "https://dc.lft.to/lastmile_qr_scan", "android": "https://dc.lft.to/lastmile_qr_scan"}}, {"name": "3fea96960a7c212953a0235735167a21", "type": "electric_scooter", "lat": 38.9001755, "is_reserved": 0, "lon": -77.03216083333334, "fusion_lon": 0.0, "is_disabled": 0, "fusion_lat": 0.0, "bike_id": "3fea96960a7c212953a0235735167a21", "rental_uris": {"ios": "https://dc.lft.to/lastmile_qr_scan", "android": "https://dc.lft.to/lastmile_qr_scan"}}, {"name": "f318205454a0974871879196e687038b", "type": "electric_scooter", "lat": 38.92609866666667, "is_reserved": 0, "lon": -77.02156316666667, "fusion_lon": 0.0, "is_disabled": 0, "fusion_lat": 0.0, "bike_id": "f318205454a0974871879196e687038b", "rental_uris": {"ios": "https://dc.lft.to/lastmile_qr_scan", "android": "https://dc.lft.to/lastmile_qr_scan"}}, {"name": "39a01c82ede3f298a1a60946ef6190ba", "type": "electric_scooter", "lat": 38.900528, "is_reserved": 0, "lon": -77.03192283333334, "fusion_lon": 0.0, "is_disabled": 0, "fusion_lat": 0.0, "bike_id": "39a01c82ede3f298a1a60946ef6190ba", "rental_uris": {"ios": "https://dc.lft.to/lastmile_qr_scan", "android": "https://dc.lft.to/lastmile_qr_scan"}}, {"name": "863e8065f6d4e0186113216d616b0f15", "type": "electric_scooter", "lat": 38.901409, "is_reserved": 0, "lon": -77.01194283333334, "fusion_lon": 0.0, "is_disabled": 0, "fusion_lat": 0.0, "bike_id": "863e8065f6d4e0186113216d616b0f15", "rental_uris": {"ios": "https://dc.lft.to/lastmile_qr_scan", "android": "https://dc.lft.to/lastmile_qr_scan"}}, {"name": "420289e1727808ff4011bd26f9e70b7c", "type": "electric_scooter", "lat": 38.902856666666665, "is_reserved": 0, "lon": -77.0611085, "fusion_lon": 0.0, "is_disabled": 0, "fusion_lat": 0.0, "bike_id": "420289e1727808ff4011bd26f9e70b7c", "rental_uris": {"ios": "https://dc.lft.to/lastmile_qr_scan", "android": "https://dc.lft.to/lastmile_qr_scan"}}, {"name": "64ed359cb69ed4460eeb756233592916", "type": "electric_scooter", "lat": 38.903439166666665, "is_reserved": 0, "lon": -77.03148116666667, "fusion_lon": 0.0, "is_disabled": 0, "fusion_lat": 0.0, "bike_id": "64ed359cb69ed4460eeb756233592916", "rental_uris": {"ios": "https://dc.lft.to/lastmile_qr_scan", "android": "https://dc.lft.to/lastmile_qr_scan"}}, {"name": "dfb4737e99c312f426a7f3a94d4684be", "type": "electric_scooter", "lat": 38.90061266666667, "is_reserved": 0, "lon": -77.025988, "fusion_lon": 0.0, "is_disabled": 0, "fusion_lat": 0.0, "bike_id": "dfb4737e99c312f426a7f3a94d4684be", "rental_uris": {"ios": "https://dc.lft.to/lastmile_qr_scan", "android": "https://dc.lft.to/lastmile_qr_scan"}}, {"name": "e18b184da2cf9921fcc65fcd14752c68", "type": "electric_scooter", "lat": 38.84297216666667, "is_reserved": 0, "lon": -76.9995045, "fusion_lon": 0.0, "is_disabled": 0, "fusion_lat": 0.0, "bike_id": "e18b184da2cf9921fcc65fcd14752c68", "rental_uris": {"ios": "https://dc.lft.to/lastmile_qr_scan", "android": "https://dc.lft.to/lastmile_qr_scan"}}, {"name": "fbaba6d9db09dae3e676b15679f95777", "type": "electric_scooter", "lat": 38.90740366666667, "is_reserved": 0, "lon": -77.04670416666667, "fusion_lon": 0.0, "is_disabled": 0, "fusion_lat": 0.0, "bike_id": "fbaba6d9db09dae3e676b15679f95777", "rental_uris": {"ios": "https://dc.lft.to/lastmile_qr_scan", "android": "https://dc.lft.to/lastmile_qr_scan"}}, {"name": "3b5dbd7caff2484f68d9082a9c104456", "type": "electric_scooter", "lat": 38.903855, "is_reserved": 0, "lon": -77.0416075, "fusion_lon": 0.0, "is_disabled": 0, "fusion_lat": 0.0, "bike_id": "3b5dbd7caff2484f68d9082a9c104456", "rental_uris": {"ios": "https://dc.lft.to/lastmile_qr_scan", "android": "https://dc.lft.to/lastmile_qr_scan"}}, {"name": "78918ae35b35235e983bbaeddc9c72fd", "type": "electric_bike", "lat": 38.969164, "is_reserved": 0, "lon": -76.95649816666666, "fusion_lon": 0.0, "is_disabled": 0, "fusion_lat": 0.0, "bike_id": "78918ae35b35235e983bbaeddc9c72fd", "rental_uris": {"ios": "https://dc.lft.to/lastmile_qr_scan", "android": "https://dc.lft.to/lastmile_qr_scan"}}, {"name": "80d95fa5b1b3e1d2858422deac4463a2", "type": "electric_bike", "lat": 38.9221385, "is_reserved": 0, "lon": -76.98833366666666, "fusion_lon": 0.0, "is_disabled": 0, "fusion_lat": 0.0, "bike_id": "80d95fa5b1b3e1d2858422deac4463a2", "rental_uris": {"ios": "https://dc.lft.to/lastmile_qr_scan", "android": "https://dc.lft.to/lastmile_qr_scan"}}, {"name": "df81aef5d9ab9c625d54d2d3f4156ca8", "type": "electric_scooter", "lat": 38.912024333333335, "is_reserved": 0, "lon": -77.0732305, "fusion_lon": 0.0, "is_disabled": 0, "fusion_lat": 0.0, "bike_id": "df81aef5d9ab9c625d54d2d3f4156ca8", "rental_uris": {"ios": "https://dc.lft.to/lastmile_qr_scan", "android": "https://dc.lft.to/lastmile_qr_scan"}}, {"name": "5d7baeef2611ad9d3766a89b212839c7", "type": "electric_scooter", "lat": 38.9066075, "is_reserved": 0, "lon": -77.00900366666667, "fusion_lon": 0.0, "is_disabled": 0, "fusion_lat": 0.0, "bike_id": "5d7baeef2611ad9d3766a89b212839c7", "rental_uris": {"ios": "https://dc.lft.to/lastmile_qr_scan", "android": "https://dc.lft.to/lastmile_qr_scan"}}, {"name": "6cb60a29133485e4e3691345519d82f4", "type": "electric_scooter", "lat": 38.92962266666667, "is_reserved": 0, "lon": -77.0233065, "fusion_lon": 0.0, "is_disabled": 0, "fusion_lat": 0.0, "bike_id": "6cb60a29133485e4e3691345519d82f4", "rental_uris": {"ios": "https://dc.lft.to/lastmile_qr_scan", "android": "https://dc.lft.to/lastmile_qr_scan"}}, {"name": "ffa3acd50eea3fc4642b00711c8d9bea", "type": "electric_scooter", "lat": 38.9298625, "is_reserved": 0, "lon": -77.0248285, "fusion_lon": 0.0, "is_disabled": 0, "fusion_lat": 0.0, "bike_id": "ffa3acd50eea3fc4642b00711c8d9bea", "rental_uris": {"ios": "https://dc.lft.to/lastmile_qr_scan", "android": "https://dc.lft.to/lastmile_qr_scan"}}, {"name": "4bae9e0940886a9a22d8b3c4b47f942f", "type": "electric_scooter", "lat": 38.92157866666667, "is_reserved": 0, "lon": -77.03534516666667, "fusion_lon": 0.0, "is_disabled": 0, "fusion_lat": 0.0, "bike_id": "4bae9e0940886a9a22d8b3c4b47f942f", "rental_uris": {"ios": "https://dc.lft.to/lastmile_qr_scan", "android": "https://dc.lft.to/lastmile_qr_scan"}}, {"name": "fc9fa116430cb36bca4fb359ba4380a5", "type": "electric_scooter", "lat": 38.89508816666667, "is_reserved": 0, "lon": -77.003396, "fusion_lon": 0.0, "is_disabled": 0, "fusion_lat": 0.0, "bike_id": "fc9fa116430cb36bca4fb359ba4380a5", "rental_uris": {"ios": "https://dc.lft.to/lastmile_qr_scan", "android": "https://dc.lft.to/lastmile_qr_scan"}}, {"name": "3062a9b2f85626923537a9c65e8aa51b", "type": "electric_scooter", "lat": 38.909590333333334, "is_reserved": 0, "lon": -77.04866633333333, "fusion_lon": 0.0, "is_disabled": 0, "fusion_lat": 0.0, "bike_id": "3062a9b2f85626923537a9c65e8aa51b", "rental_uris": {"ios": "https://dc.lft.to/lastmile_qr_scan", "android": "https://dc.lft.to/lastmile_qr_scan"}}, {"name": "bc1a541dc6e1651c0c4697f4d4516f9d", "type": "electric_bike", "lat": 38.9595835, "is_reserved": 0, "lon": -77.10094483333333, "fusion_lon": 0.0, "is_disabled": 0, "fusion_lat": 0.0, "bike_id": "bc1a541dc6e1651c0c4697f4d4516f9d", "rental_uris": {"ios": "https://dc.lft.to/lastmile_qr_scan", "android": "https://dc.lft.to/lastmile_qr_scan"}}, {"name": "f522c6193ee6f9c07bc73d0c486f7b6c", "type": "electric_scooter", "lat": 38.907875, "is_reserved": 0, "lon": -77.0097005, "fusion_lon": 0.0, "is_disabled": 0, "fusion_lat": 0.0, "bike_id": "f522c6193ee6f9c07bc73d0c486f7b6c", "rental_uris": {"ios": "https://dc.lft.to/lastmile_qr_scan", "android": "https://dc.lft.to/lastmile_qr_scan"}}, {"name": "9e727ab863e92620556200c20d64d6d9", "type": "electric_scooter", "lat": 38.895556, "is_reserved": 0, "lon": -77.00926533333333, "fusion_lon": 0.0, "is_disabled": 0, "fusion_lat": 0.0, "bike_id": "9e727ab863e92620556200c20d64d6d9", "rental_uris": {"ios": "https://dc.lft.to/lastmile_qr_scan", "android": "https://dc.lft.to/lastmile_qr_scan"}}, {"name": "c7e6fd45d9ed8fe5458ab07042b09698", "type": "electric_scooter", "lat": 38.92847066666667, "is_reserved": 0, "lon": -77.0543165, "fusion_lon": 0.0, "is_disabled": 0, "fusion_lat": 0.0, "bike_id": "c7e6fd45d9ed8fe5458ab07042b09698", "rental_uris": {"ios": "https://dc.lft.to/lastmile_qr_scan", "android": "https://dc.lft.to/lastmile_qr_scan"}}, {"name": "0be205419dbe04c09d86897fe2915b79", "type": "electric_scooter", "lat": 38.91199783333333, "is_reserved": 0, "lon": -77.06100266666667, "fusion_lon": 0.0, "is_disabled": 0, "fusion_lat": 0.0, "bike_id": "0be205419dbe04c09d86897fe2915b79", "rental_uris": {"ios": "https://dc.lft.to/lastmile_qr_scan", "android": "https://dc.lft.to/lastmile_qr_scan"}}, {"name": "ed46f35c03ab4042aa2e7450d7107c58", "type": "electric_scooter", "lat": 38.884966166666665, "is_reserved": 0, "lon": -77.007261, "fusion_lon": 0.0, "is_disabled": 0, "fusion_lat": 0.0, "bike_id": "ed46f35c03ab4042aa2e7450d7107c58", "rental_uris": {"ios": "https://dc.lft.to/lastmile_qr_scan", "android": "https://dc.lft.to/lastmile_qr_scan"}}, {"name": "51ba1ef051fcf1b1beb52b52d86bbe42", "type": "electric_scooter", "lat": 38.90278283333333, "is_reserved": 0, "lon": -77.05958766666667, "fusion_lon": 0.0, "is_disabled": 0, "fusion_lat": 0.0, "bike_id": "51ba1ef051fcf1b1beb52b52d86bbe42", "rental_uris": {"ios": "https://dc.lft.to/lastmile_qr_scan", "android": "https://dc.lft.to/lastmile_qr_scan"}}, {"name": "a8049370a97b48bed112065fcba76e95", "type": "electric_bike", "lat": 38.9168225, "is_reserved": 0, "lon": -77.03213183333334, "fusion_lon": 0.0, "is_disabled": 0, "fusion_lat": 0.0, "bike_id": "a8049370a97b48bed112065fcba76e95", "rental_uris": {"ios": "https://dc.lft.to/lastmile_qr_scan", "android": "https://dc.lft.to/lastmile_qr_scan"}}, {"name": "145d3e190ec1c4ffd0b338b065c48def", "type": "electric_scooter", "lat": 38.904020833333334, "is_reserved": 0, "lon": -77.043457, "fusion_lon": 0.0, "is_disabled": 0, "fusion_lat": 0.0, "bike_id": "145d3e190ec1c4ffd0b338b065c48def", "rental_uris": {"ios": "https://dc.lft.to/lastmile_qr_scan", "android": "https://dc.lft.to/lastmile_qr_scan"}}, {"name": "adf7cf3710f97d3d35aa32df84205aff", "type": "electric_scooter", "lat": 38.897066333333335, "is_reserved": 0, "lon": -77.02716283333334, "fusion_lon": 0.0, "is_disabled": 0, "fusion_lat": 0.0, "bike_id": "adf7cf3710f97d3d35aa32df84205aff", "rental_uris": {"ios": "https://dc.lft.to/lastmile_qr_scan", "android": "https://dc.lft.to/lastmile_qr_scan"}}, {"name": "f6fa7775eaf28f00606d4fa4f9627027", "type": "electric_scooter", "lat": 38.842979, "is_reserved": 0, "lon": -76.9995155, "fusion_lon": 0.0, "is_disabled": 0, "fusion_lat": 0.0, "bike_id": "f6fa7775eaf28f00606d4fa4f9627027", "rental_uris": {"ios": "https://dc.lft.to/lastmile_qr_scan", "android": "https://dc.lft.to/lastmile_qr_scan"}}, {"name": "537f9ee4153b2a23772029e696e13f52", "type": "electric_scooter", "lat": 38.90114333333333, "is_reserved": 0, "lon": -77.05011083333333, "fusion_lon": 0.0, "is_disabled": 0, "fusion_lat": 0.0, "bike_id": "537f9ee4153b2a23772029e696e13f52", "rental_uris": {"ios": "https://dc.lft.to/lastmile_qr_scan", "android": "https://dc.lft.to/lastmile_qr_scan"}}, {"name": "848c549b30386b403587aabb510d6967", "type": "electric_scooter", "lat": 38.88717466666667, "is_reserved": 0, "lon": -77.01778666666667, "fusion_lon": 0.0, "is_disabled": 0, "fusion_lat": 0.0, "bike_id": "848c549b30386b403587aabb510d6967", "rental_uris": {"ios": "https://dc.lft.to/lastmile_qr_scan", "android": "https://dc.lft.to/lastmile_qr_scan"}}, {"name": "02274911d4108749bce9b4e4a37fa44e", "type": "electric_scooter", "lat": 38.906619, "is_reserved": 0, "lon": -77.01022766666667, "fusion_lon": 0.0, "is_disabled": 0, "fusion_lat": 0.0, "bike_id": "02274911d4108749bce9b4e4a37fa44e", "rental_uris": {"ios": "https://dc.lft.to/lastmile_qr_scan", "android": "https://dc.lft.to/lastmile_qr_scan"}}, {"name": "a5e05b87c2138a56432ad55c3b2b670f", "type": "electric_scooter", "lat": 38.927434833333336, "is_reserved": 0, "lon": -77.05364616666667, "fusion_lon": 0.0, "is_disabled": 0, "fusion_lat": 0.0, "bike_id": "a5e05b87c2138a56432ad55c3b2b670f", "rental_uris": {"ios": "https://dc.lft.to/lastmile_qr_scan", "android": "https://dc.lft.to/lastmile_qr_scan"}}, {"name": "270342c7c24ec2a8a5e3e58dd159b000", "type": "electric_scooter", "lat": 38.935172333333334, "is_reserved": 0, "lon": -77.03295016666667, "fusion_lon": 0.0, "is_disabled": 0, "fusion_lat": 0.0, "bike_id": "270342c7c24ec2a8a5e3e58dd159b000", "rental_uris": {"ios": "https://dc.lft.to/lastmile_qr_scan", "android": "https://dc.lft.to/lastmile_qr_scan"}}, {"name": "86b31006cd6c5f5ebc9c6c368b1b9dcd", "type": "electric_scooter", "lat": 38.883816833333334, "is_reserved": 0, "lon": -77.01971716666667, "fusion_lon": 0.0, "is_disabled": 0, "fusion_lat": 0.0, "bike_id": "86b31006cd6c5f5ebc9c6c368b1b9dcd", "rental_uris": {"ios": "https://dc.lft.to/lastmile_qr_scan", "android": "https://dc.lft.to/lastmile_qr_scan"}}, {"name": "7e7d1451e98e0cee6b78760431c1f1df", "type": "electric_scooter", "lat": 38.902826, "is_reserved": 0, "lon": -77.03849216666667, "fusion_lon": 0.0, "is_disabled": 0, "fusion_lat": 0.0, "bike_id": "7e7d1451e98e0cee6b78760431c1f1df", "rental_uris": {"ios": "https://dc.lft.to/lastmile_qr_scan", "android": "https://dc.lft.to/lastmile_qr_scan"}}, {"name": "75f6a7ecd02dbc5be04128374f5673ef", "type": "electric_scooter", "lat": 38.92425683333333, "is_reserved": 0, "lon": -77.01950283333333, "fusion_lon": 0.0, "is_disabled": 0, "fusion_lat": 0.0, "bike_id": "75f6a7ecd02dbc5be04128374f5673ef", "rental_uris": {"ios": "https://dc.lft.to/lastmile_qr_scan", "android": "https://dc.lft.to/lastmile_qr_scan"}}, {"name": "ea0b84ed56605bf764a76ea8194901e1", "type": "electric_scooter", "lat": 38.912805166666665, "is_reserved": 0, "lon": -77.0297585, "fusion_lon": 0.0, "is_disabled": 0, "fusion_lat": 0.0, "bike_id": "ea0b84ed56605bf764a76ea8194901e1", "rental_uris": {"ios": "https://dc.lft.to/lastmile_qr_scan", "android": "https://dc.lft.to/lastmile_qr_scan"}}, {"name": "62f4e5f1c3f2e6b62b2a417d78993bcd", "type": "electric_scooter", "lat": 38.902637166666665, "is_reserved": 0, "lon": -77.03441116666667, "fusion_lon": 0.0, "is_disabled": 0, "fusion_lat": 0.0, "bike_id": "62f4e5f1c3f2e6b62b2a417d78993bcd", "rental_uris": {"ios": "https://dc.lft.to/lastmile_qr_scan", "android": "https://dc.lft.to/lastmile_qr_scan"}}, {"name": "2b4c4e4580d2de5aa0bec86c5bc62240", "type": "electric_scooter", "lat": 38.97521916666667, "is_reserved": 0, "lon": -77.01742633333333, "fusion_lon": 0.0, "is_disabled": 0, "fusion_lat": 0.0, "bike_id": "2b4c4e4580d2de5aa0bec86c5bc62240", "rental_uris": {"ios": "https://dc.lft.to/lastmile_qr_scan", "android": "https://dc.lft.to/lastmile_qr_scan"}}, {"name": "3c9a3d17314deb85a1403b64d311f377", "type": "electric_bike", "lat": 38.85248566666667, "is_reserved": 0, "lon": -77.114282, "fusion_lon": 0.0, "is_disabled": 0, "fusion_lat": 0.0, "bike_id": "3c9a3d17314deb85a1403b64d311f377", "rental_uris": {"ios": "https://dc.lft.to/lastmile_qr_scan", "android": "https://dc.lft.to/lastmile_qr_scan"}}, {"name": "31013ff66527a55a54acea934b954cc3", "type": "electric_scooter", "lat": 38.90531083333333, "is_reserved": 0, "lon": -77.06380083333333, "fusion_lon": 0.0, "is_disabled": 0, "fusion_lat": 0.0, "bike_id": "31013ff66527a55a54acea934b954cc3", "rental_uris": {"ios": "https://dc.lft.to/lastmile_qr_scan", "android": "https://dc.lft.to/lastmile_qr_scan"}}, {"name": "5a818cd9cc32e874ac671130110a7c9c", "type": "electric_scooter", "lat": 38.904789666666666, "is_reserved": 0, "lon": -77.04169566666667, "fusion_lon": 0.0, "is_disabled": 0, "fusion_lat": 0.0, "bike_id": "5a818cd9cc32e874ac671130110a7c9c", "rental_uris": {"ios": "https://dc.lft.to/lastmile_qr_scan", "android": "https://dc.lft.to/lastmile_qr_scan"}}, {"name": "39ef944e6c276ecd1d148aa4859f5c34", "type": "electric_scooter", "lat": 38.8995325, "is_reserved": 0, "lon": -77.02990833333334, "fusion_lon": 0.0, "is_disabled": 0, "fusion_lat": 0.0, "bike_id": "39ef944e6c276ecd1d148aa4859f5c34", "rental_uris": {"ios": "https://dc.lft.to/lastmile_qr_scan", "android": "https://dc.lft.to/lastmile_qr_scan"}}, {"name": "ca452cafda9d3c9b76d52ddf8fdc7a0e", "type": "electric_scooter", "lat": 38.89224883333333, "is_reserved": 0, "lon": -77.04861416666667, "fusion_lon": 0.0, "is_disabled": 0, "fusion_lat": 0.0, "bike_id": "ca452cafda9d3c9b76d52ddf8fdc7a0e", "rental_uris": {"ios": "https://dc.lft.to/lastmile_qr_scan", "android": "https://dc.lft.to/lastmile_qr_scan"}}, {"name": "3905595378175d7be9dd2586dbddd6c3", "type": "electric_scooter", "lat": 38.935029, "is_reserved": 0, "lon": -77.02850616666667, "fusion_lon": 0.0, "is_disabled": 0, "fusion_lat": 0.0, "bike_id": "3905595378175d7be9dd2586dbddd6c3", "rental_uris": {"ios": "https://dc.lft.to/lastmile_qr_scan", "android": "https://dc.lft.to/lastmile_qr_scan"}}, {"name": "fd12ea4e7306629f8f63b2f69232bf2f", "type": "electric_bike", "lat": 39.02651633333333, "is_reserved": 0, "lon": -77.1254295, "fusion_lon": 0.0, "is_disabled": 0, "fusion_lat": 0.0, "bike_id": "fd12ea4e7306629f8f63b2f69232bf2f", "rental_uris": {"ios": "https://dc.lft.to/lastmile_qr_scan", "android": "https://dc.lft.to/lastmile_qr_scan"}}, {"name": "5fa5aba01f4e837d6d8e7bc1a457b2f8", "type": "electric_scooter", "lat": 38.900211166666665, "is_reserved": 0, "lon": -76.986979, "fusion_lon": 0.0, "is_disabled": 0, "fusion_lat": 0.0, "bike_id": "5fa5aba01f4e837d6d8e7bc1a457b2f8", "rental_uris": {"ios": "https://dc.lft.to/lastmile_qr_scan", "android": "https://dc.lft.to/lastmile_qr_scan"}}, {"name": "ec564176a839a460c6da62bd3dec8c4e", "type": "electric_scooter", "lat": 38.903291333333335, "is_reserved": 0, "lon": -77.033222, "fusion_lon": 0.0, "is_disabled": 0, "fusion_lat": 0.0, "bike_id": "ec564176a839a460c6da62bd3dec8c4e", "rental_uris": {"ios": "https://dc.lft.to/lastmile_qr_scan", "android": "https://dc.lft.to/lastmile_qr_scan"}}, {"name": "c3971cfe20cc9e43329c603aca48412e", "type": "electric_scooter", "lat": 38.844294833333336, "is_reserved": 0, "lon": -76.99780433333333, "fusion_lon": 0.0, "is_disabled": 0, "fusion_lat": 0.0, "bike_id": "c3971cfe20cc9e43329c603aca48412e", "rental_uris": {"ios": "https://dc.lft.to/lastmile_qr_scan", "android": "https://dc.lft.to/lastmile_qr_scan"}}, {"name": "f884255b4e0c864c9e9fc6a7425d140f", "type": "electric_scooter", "lat": 38.88284216666667, "is_reserved": 0, "lon": -76.97902316666666, "fusion_lon": 0.0, "is_disabled": 0, "fusion_lat": 0.0, "bike_id": "f884255b4e0c864c9e9fc6a7425d140f", "rental_uris": {"ios": "https://dc.lft.to/lastmile_qr_scan", "android": "https://dc.lft.to/lastmile_qr_scan"}}, {"name": "13af9c65eb20a47163053b1ac0610cd0", "type": "electric_scooter", "lat": 38.890913166666664, "is_reserved": 0, "lon": -77.00204366666667, "fusion_lon": 0.0, "is_disabled": 0, "fusion_lat": 0.0, "bike_id": "13af9c65eb20a47163053b1ac0610cd0", "rental_uris": {"ios": "https://dc.lft.to/lastmile_qr_scan", "android": "https://dc.lft.to/lastmile_qr_scan"}}, {"name": "1c81ee7652b4522ea8a03503eba7aab0", "type": "electric_scooter", "lat": 38.89528883333333, "is_reserved": 0, "lon": -76.9492955, "fusion_lon": 0.0, "is_disabled": 0, "fusion_lat": 0.0, "bike_id": "1c81ee7652b4522ea8a03503eba7aab0", "rental_uris": {"ios": "https://dc.lft.to/lastmile_qr_scan", "android": "https://dc.lft.to/lastmile_qr_scan"}}, {"name": "ad8727dd3a51ba9da7316cf1b05baf1c", "type": "electric_scooter", "lat": 38.92907366666667, "is_reserved": 0, "lon": -77.0216335, "fusion_lon": 0.0, "is_disabled": 0, "fusion_lat": 0.0, "bike_id": "ad8727dd3a51ba9da7316cf1b05baf1c", "rental_uris": {"ios": "https://dc.lft.to/lastmile_qr_scan", "android": "https://dc.lft.to/lastmile_qr_scan"}}, {"name": "ab545be645a42f365172ba2a4baf1de7", "type": "electric_scooter", "lat": 38.907773, "is_reserved": 0, "lon": -77.02953183333334, "fusion_lon": 0.0, "is_disabled": 0, "fusion_lat": 0.0, "bike_id": "ab545be645a42f365172ba2a4baf1de7", "rental_uris": {"ios": "https://dc.lft.to/lastmile_qr_scan", "android": "https://dc.lft.to/lastmile_qr_scan"}}, {"name": "7353eb98288ac87c0441077c200a9477", "type": "electric_scooter", "lat": 38.920967, "is_reserved": 0, "lon": -77.02419633333334, "fusion_lon": 0.0, "is_disabled": 0, "fusion_lat": 0.0, "bike_id": "7353eb98288ac87c0441077c200a9477", "rental_uris": {"ios": "https://dc.lft.to/lastmile_qr_scan", "android": "https://dc.lft.to/lastmile_qr_scan"}}, {"name": "4ec2ed142537b9efccb8959db7c7ea8f", "type": "electric_scooter", "lat": 38.931493833333334, "is_reserved": 0, "lon": -77.04362666666667, "fusion_lon": 0.0, "is_disabled": 0, "fusion_lat": 0.0, "bike_id": "4ec2ed142537b9efccb8959db7c7ea8f", "rental_uris": {"ios": "https://dc.lft.to/lastmile_qr_scan", "android": "https://dc.lft.to/lastmile_qr_scan"}}, {"name": "e77202ee29c650254eeb4d07608b9999", "type": "electric_bike", "lat": 38.9116905, "is_reserved": 0, "lon": -77.00273483333334, "fusion_lon": 0.0, "is_disabled": 0, "fusion_lat": 0.0, "bike_id": "e77202ee29c650254eeb4d07608b9999", "rental_uris": {"ios": "https://dc.lft.to/lastmile_qr_scan", "android": "https://dc.lft.to/lastmile_qr_scan"}}, {"name": "b4a3501c6c16960bdfbd9fc93fa66792", "type": "electric_scooter", "lat": 38.92170083333333, "is_reserved": 0, "lon": -77.0322955, "fusion_lon": 0.0, "is_disabled": 0, "fusion_lat": 0.0, "bike_id": "b4a3501c6c16960bdfbd9fc93fa66792", "rental_uris": {"ios": "https://dc.lft.to/lastmile_qr_scan", "android": "https://dc.lft.to/lastmile_qr_scan"}}, {"name": "41b42332c460761f5971bfc4a2f020b7", "type": "electric_bike", "lat": 38.81050416666667, "is_reserved": 0, "lon": -77.085067, "fusion_lon": 0.0, "is_disabled": 0, "fusion_lat": 0.0, "bike_id": "41b42332c460761f5971bfc4a2f020b7", "rental_uris": {"ios": "https://dc.lft.to/lastmile_qr_scan", "android": "https://dc.lft.to/lastmile_qr_scan"}}, {"name": "dd2334f6c2046b5fa019e4813feef570", "type": "electric_bike", "lat": 38.854305833333335, "is_reserved": 0, "lon": -76.909659, "fusion_lon": 0.0, "is_disabled": 0, "fusion_lat": 0.0, "bike_id": "dd2334f6c2046b5fa019e4813feef570", "rental_uris": {"ios": "https://dc.lft.to/lastmile_qr_scan", "android": "https://dc.lft.to/lastmile_qr_scan"}}, {"name": "ecdffee6c9f820d1dd4359016e2db2d6", "type": "electric_scooter", "lat": 38.892031333333335, "is_reserved": 0, "lon": -77.00238716666667, "fusion_lon": 0.0, "is_disabled": 0, "fusion_lat": 0.0, "bike_id": "ecdffee6c9f820d1dd4359016e2db2d6", "rental_uris": {"ios": "https://dc.lft.to/lastmile_qr_scan", "android": "https://dc.lft.to/lastmile_qr_scan"}}, {"name": "74884940053180525c65ddddd1fb8c82", "type": "electric_scooter", "lat": 38.93356816666667, "is_reserved": 0, "lon": -77.06936766666666, "fusion_lon": 0.0, "is_disabled": 0, "fusion_lat": 0.0, "bike_id": "74884940053180525c65ddddd1fb8c82", "rental_uris": {"ios": "https://dc.lft.to/lastmile_qr_scan", "android": "https://dc.lft.to/lastmile_qr_scan"}}, {"name": "273e485e955de2a6f3a70fddd45714f2", "type": "electric_scooter", "lat": 38.8878325, "is_reserved": 0, "lon": -76.95532416666667, "fusion_lon": 0.0, "is_disabled": 0, "fusion_lat": 0.0, "bike_id": "273e485e955de2a6f3a70fddd45714f2", "rental_uris": {"ios": "https://dc.lft.to/lastmile_qr_scan", "android": "https://dc.lft.to/lastmile_qr_scan"}}, {"name": "b9184ecda4c39cb96b2631ad9be1102c", "type": "electric_scooter", "lat": 38.88532766666667, "is_reserved": 0, "lon": -77.0058345, "fusion_lon": 0.0, "is_disabled": 0, "fusion_lat": 0.0, "bike_id": "b9184ecda4c39cb96b2631ad9be1102c", "rental_uris": {"ios": "https://dc.lft.to/lastmile_qr_scan", "android": "https://dc.lft.to/lastmile_qr_scan"}}, {"name": "892b9b7c76b0716bb5e73933b3d8e351", "type": "electric_scooter", "lat": 38.902729, "is_reserved": 0, "lon": -77.038522, "fusion_lon": 0.0, "is_disabled": 0, "fusion_lat": 0.0, "bike_id": "892b9b7c76b0716bb5e73933b3d8e351", "rental_uris": {"ios": "https://dc.lft.to/lastmile_qr_scan", "android": "https://dc.lft.to/lastmile_qr_scan"}}, {"name": "6acae36eb523b97bf2253b720a2178bf", "type": "electric_scooter", "lat": 38.91999533333333, "is_reserved": 0, "lon": -77.0346805, "fusion_lon": 0.0, "is_disabled": 0, "fusion_lat": 0.0, "bike_id": "6acae36eb523b97bf2253b720a2178bf", "rental_uris": {"ios": "https://dc.lft.to/lastmile_qr_scan", "android": "https://dc.lft.to/lastmile_qr_scan"}}, {"name": "cbd84b3c4afb616745925588b05863ea", "type": "electric_scooter", "lat": 38.898921666666666, "is_reserved": 0, "lon": -77.03920033333333, "fusion_lon": 0.0, "is_disabled": 0, "fusion_lat": 0.0, "bike_id": "cbd84b3c4afb616745925588b05863ea", "rental_uris": {"ios": "https://dc.lft.to/lastmile_qr_scan", "android": "https://dc.lft.to/lastmile_qr_scan"}}, {"name": "dea09e7256432617c333f16b19801e61", "type": "electric_scooter", "lat": 38.9395825, "is_reserved": 0, "lon": -77.03263783333334, "fusion_lon": 0.0, "is_disabled": 0, "fusion_lat": 0.0, "bike_id": "dea09e7256432617c333f16b19801e61", "rental_uris": {"ios": "https://dc.lft.to/lastmile_qr_scan", "android": "https://dc.lft.to/lastmile_qr_scan"}}, {"name": "e0e8f8e53b4f3b0cb8578dd9ec01822e", "type": "electric_scooter", "lat": 38.88602516666667, "is_reserved": 0, "lon": -76.95268566666667, "fusion_lon": 0.0, "is_disabled": 0, "fusion_lat": 0.0, "bike_id": "e0e8f8e53b4f3b0cb8578dd9ec01822e", "rental_uris": {"ios": "https://dc.lft.to/lastmile_qr_scan", "android": "https://dc.lft.to/lastmile_qr_scan"}},