{"data": {"bikes": [{"rental_uris": {"ios": "https://dc.lft.to/lastmile_qr_scan", "android": "https://dc.lft.to/lastmile_qr_scan"}, "fusion_lat": 0.0, "name": "d58ac5e41d70e0eb1406f64854acfc50", "bike_id": "d58ac5e41d70e0eb1406f64854acfc50", "is_disabled": 0, "type": "electric_scooter", "lat": 38.90229766666667, "lon": -77.06066016666666, "is_reserved": 0, "fusion_lon": 0.0}, {"rental_uris": {"ios": "https://dc.lft.to/lastmile_qr_scan", "android": "https://dc.lft.to/lastmile_qr_scan"}, "fusion_lat": 0.0, "name": "622d457ab976ec5f8b866930dde33b79", "bike_id": "622d457ab976ec5f8b866930dde33b79", "is_disabled": 0, "type": "electric_scooter", "lat": 38.9283605, "lon": -77.01392566666667, "is_reserved": 0, "fusion_lon": 0.0}, {"rental_uris": {"ios": "https://dc.lft.to/lastmile_qr_scan", "android": "https://dc.lft.to/lastmile_qr_scan"}, "fusion_lat": 0.0, "name": "f83ed92054090febe0a2f33b7b91de45", "bike_id": "f83ed92054090febe0a2f33b7b91de45", "is_disabled": 0, "type": "electric_scooter", "lat": 38.90873966666667, "lon": -77.03240583333333, "is_reserved": 0, "fusion_lon": 0.0}, {"rental_uris": {"ios": "https://dc.lft.to/lastmile_qr_scan", "android": "https://dc.lft.to/lastmile_qr_scan"}, "fusion_lat": 0.0, "name": "d558051404e76710f0a9db8e54a79a60", "bike_id": "d558051404e76710f0a9db8e54a79a60", "is_disabled": 0, "type": "electric_scooter", "lat": 38.933713833333336, "lon": -77.057372, "is_reserved": 0, "fusion_lon": 0.0}, {"rental_uris": {"ios": "https://dc.lft.to/lastmile_qr_scan", "android": "https://dc.lft.to/lastmile_qr_scan"}, "fusion_lat": 0.0, "name": "f2fbc4b400c8f96e8b4c9b4db6f0b187", "bike_id": "f2fbc4b400c8f96e8b4c9b4db6f0b187", "is_disabled": 0, "type": "electric_scooter", "lat": 38.912602166666666, "lon": -77.0454865, "is_reserved": 0, "fusion_lon": 0.0}, {"rental_uris": {"ios": "https://dc.lft.to/lastmile_qr_scan", "android": "https://dc.lft.to/lastmile_qr_scan"}, "fusion_lat": 0.0, "name": "40be90741a0bccd89b01627840cbb418", "bike_id": "40be90741a0bccd89b01627840cbb418", "is_disabled": 0, "type": "electric_scooter", "lat": 38.8968515, "lon": -76.93609916666666, "is_reserved": 0, "fusion_lon": 0.0}, {"rental_uris": {"ios": "https://dc.lft.to/lastmile_qr_scan", "android": "https://dc.lft.to/lastmile_qr_scan"}, "fusion_lat": 0.0, "name": "cca6fa93bf5123a61c26d8befb1c737d", "bike_id": "cca6fa93bf5123a61c26d8befb1c737d", "is_disabled": 0, "type": "electric_scooter", "lat": 38.928192333333335, "lon": -77.02616233333333, "is_reserved": 0, "fusion_lon": 0.0}, {"rental_uris": {"ios": "https://dc.lft.to/lastmile_qr_scan", "android": "https://dc.lft.to/lastmile_qr_scan"}, "fusion_lat": 0.0, "name": "447f8537ea6fba1efc862dd8084802a3", "bike_id": "447f8537ea6fba1efc862dd8084802a3", "is_disabled": 0, "type": "electric_scooter", "lat": 38.90958716666667, "lon": -77.03165383333334, "is_reserved": 0, "fusion_lon": 0.0}, {"rental_uris": {"ios": "https://dc.lft.to/lastmile_qr_scan", "android": "https://dc.lft.to/lastmile_qr_scan"}, "fusion_lat": 0.0, "name": "4b39fe6f2b3101e7e7e2c2ded0963b13", "bike_id": "4b39fe6f2b3101e7e7e2c2ded0963b13", "is_disabled": 0, "type": "electric_scooter", "lat": 38.90491933333333, "lon": -77.04853966666667, "is_reserved": 0, "fusion_lon": 0.0}, {"rental_uris": {"ios": "https://dc.lft.to/lastmile_qr_scan", "android": "https://dc.lft.to/lastmile_qr_scan"}, "fusion_lat": 0.0, "name": "369a7500a6129232a0fb485dc1c74800", "bike_id": "369a7500a6129232a0fb485dc1c74800", "is_disabled": 0, "type": "electric_scooter", "lat": 38.9042495, "lon": -77.04366183333333, "is_reserved": 0, "fusion_lon": 0.0}, {"rental_uris": {"ios": "https://dc.lft.to/lastmile_qr_scan", "android": "https://dc.lft.to/lastmile_qr_scan"}, "fusion_lat": 0.0, "name": "e434a0ecfd073e33aa8e8d859358ffb5", "bike_id": "e434a0ecfd073e33aa8e8d859358ffb5", "is_disabled": 0, "type": "electric_scooter", "lat": 38.948242666666665, "lon": -76.99901233333334, "is_reserved": 0, "fusion_lon": 0.0}, {"rental_uris": {"ios": "https://dc.lft.to/lastmile_qr_scan", "android": "https://dc.lft.to/lastmile_qr_scan"}, "fusion_lat": 0.0, "name": "a8967d2f8d8069e73862b7d1eb03a779", "bike_id": "a8967d2f8d8069e73862b7d1eb03a779", "is_disabled": 0, "type": "electric_scooter", "lat": 38.887426, "lon": -77.0212435, "is_reserved": 0, "fusion_lon": 0.0}, {"rental_uris": {"ios": "https://dc.lft.to/lastmile_qr_scan", "android": "https://dc.lft.to/lastmile_qr_scan"}, "fusion_lat": 0.0, "name": "0c907d89ca3d0dd4665d9fe8cf1b77b3", "bike_id": "0c907d89ca3d0dd4665d9fe8cf1b77b3", "is_disabled": 0, "type": "electric_bike", "lat": 38.90227733333333, "lon": -77.04463633333333, "is_reserved": 0, "fusion_lon": 0.0}, {"rental_uris": {"ios": "https://dc.lft.to/lastmile_qr_scan", "android": "https://dc.lft.to/lastmile_qr_scan"}, "fusion_lat": 0.0, "name": "1bf03f927e2e9ba378974fbfa4001cdc", "bike_id": "1bf03f927e2e9ba378974fbfa4001cdc", "is_disabled": 0, "type": "electric_scooter", "lat": 38.914837166666665, "lon": -77.02191033333334, "is_reserved": 0, "fusion_lon": 0.0}, {"rental_uris": {"ios": "https://dc.lft.to/lastmile_qr_scan", "android": "https://dc.lft.to/lastmile_qr_scan"}, "fusion_lat": 0.0, "name": "a151a6e4e1f208ac462e76aec362ffe2", "bike_id": "a151a6e4e1f208ac462e76aec362ffe2", "is_disabled": 0, "type": "electric_scooter", "lat": 38.9360145, "lon": -77.02328116666666, "is_reserved": 0, "fusion_lon": 0.0}, {"rental_uris": {"ios": "https://dc.lft.to/lastmile_qr_scan", "android": "https://dc.lft.to/lastmile_qr_scan"}, "fusion_lat": 0.0, "name": "9bee9453116b975accd35f64e2471794", "bike_id": "9bee9453116b975accd35f64e2471794", "is_disabled": 0, "type": "electric_scooter", "lat": 38.9058005, "lon": -77.006149, "is_reserved": 0, "fusion_lon": 0.0}, {"rental_uris": {"ios": "https://dc.lft.to/lastmile_qr_scan", "android": "https://dc.lft.to/lastmile_qr_scan"}, "fusion_lat": 0.0, "name": "5566d5ab57dc4dd6e0021566972edd29", "bike_id": "5566d5ab57dc4dd6e0021566972edd29", "is_disabled": 0, "type": "electric_scooter", "lat": 38.91518383333333, "lon": -77.04158916666667, "is_reserved": 0, "fusion_lon": 0.0}, {"rental_uris": {"ios": "https://dc.lft.to/lastmile_qr_scan", "android": "https://dc.lft.to/lastmile_qr_scan"}, "fusion_lat": 0.0, "name": "14404742b6165e45333e31b0bfe6224f", "bike_id": "14404742b6165e45333e31b0bfe6224f", "is_disabled": 0, "type": "electric_scooter", "lat": 38.91705783333333, "lon": -77.035024, "is_reserved": 0, "fusion_lon": 0.0}, {"rental_uris": {"ios": "https://dc.lft.to/lastmile_qr_scan", "android": "https://dc.lft.to/lastmile_qr_scan"}, "fusion_lat": 0.0, "name": "fe8f091c38cda0b96731a8b55dba982f", "bike_id": "fe8f091c38cda0b96731a8b55dba982f", "is_disabled": 0, "type": "electric_scooter", "lat": 38.914088166666666, "lon": -77.021137, "is_reserved": 0, "fusion_lon": 0.0}, {"rental_uris": {"ios": "https://dc.lft.to/lastmile_qr_scan", "android": "https://dc.lft.to/lastmile_qr_scan"}, "fusion_lat": 0.0, "name": "83742806f353ddf394fcd188940ce621", "bike_id": "83742806f353ddf394fcd188940ce621", "is_disabled": 0, "type": "electric_scooter", "lat": 38.92211433333333, "lon": -77.04017316666666, "is_reserved": 0, "fusion_lon": 0.0}, {"rental_uris": {"ios": "https://dc.lft.to/lastmile_qr_scan", "android": "https://dc.lft.to/lastmile_qr_scan"}, "fusion_lat": 0.0, "name": "440895684969ee28c53573c1eca329d6", "bike_id": "440895684969ee28c53573c1eca329d6", "is_disabled": 0, "type": "electric_scooter", "lat": 38.9096875, "lon": -77.034729, "is_reserved": 0, "fusion_lon": 0.0}, {"rental_uris": {"ios": "https://dc.lft.to/lastmile_qr_scan", "android": "https://dc.lft.to/lastmile_qr_scan"}, "fusion_lat": 0.0, "name": "6fcf611ef93c778638d29e667d660624", "bike_id": "6fcf611ef93c778638d29e667d660624", "is_disabled": 0, "type": "electric_bike", "lat": 38.87728833333333, "lon": -76.98103716666667, "is_reserved": 0, "fusion_lon": 0.0}, {"rental_uris": {"ios": "https://dc.lft.to/lastmile_qr_scan", "android": "https://dc.lft.to/lastmile_qr_scan"}, "fusion_lat": 0.0, "name": "4e3533068975d68625d18b341d84a5c7", "bike_id": "4e3533068975d68625d18b341d84a5c7", "is_disabled": 0, "type": "electric_scooter", "lat": 38.9420085, "lon": -77.0258945, "is_reserved": 0, "fusion_lon": 0.0}, {"rental_uris": {"ios": "https://dc.lft.to/lastmile_qr_scan", "android": "https://dc.lft.to/lastmile_qr_scan"}, "fusion_lat": 0.0, "name": "ced061d42e1a62a5ca36387eb8df4829", "bike_id": "ced061d42e1a62a5ca36387eb8df4829", "is_disabled": 0, "type": "electric_scooter", "lat": 38.916839333333336, "lon": -77.02284116666667, "is_reserved": 0, "fusion_lon": 0.0}, {"rental_uris": {"ios": "https://dc.lft.to/lastmile_qr_scan", "android": "https://dc.lft.to/lastmile_qr_scan"}, "fusion_lat": 0.0, "name": "1480ad6149234ba518d57894fb0202c5", "bike_id": "1480ad6149234ba518d57894fb0202c5", "is_disabled": 0, "type": "electric_scooter", "lat": 38.902415833333336, "lon": -77.04390883333333, "is_reserved": 0, "fusion_lon": 0.0}, {"rental_uris": {"ios": "https://dc.lft.to/lastmile_qr_scan", "android": "https://dc.lft.to/lastmile_qr_scan"}, "fusion_lat": 0.0, "name": "c09ef8ed210a37d35774f1dea759dffe", "bike_id": "c09ef8ed210a37d35774f1dea759dffe", "is_disabled": 0, "type": "electric_scooter", "lat": 38.915520666666666, "lon": -77.02415316666666, "is_reserved": 0, "fusion_lon": 0.0}, {"rental_uris": {"ios": "https://dc.lft.to/lastmile_qr_scan", "android": "https://dc.lft.to/lastmile_qr_scan"}, "fusion_lat": 0.0, "name": "77386afcfa9b5044d6fa8f27d367b046", "bike_id": "77386afcfa9b5044d6fa8f27d367b046", "is_disabled": 0, "type": "electric_scooter", "lat": 38.949592833333334, "lon": -77.02719783333333, "is_reserved": 0, "fusion_lon": 0.0}, {"rental_uris": {"ios": "https://dc.lft.to/lastmile_qr_scan", "android": "https://dc.lft.to/lastmile_qr_scan"}, "fusion_lat": 0.0, "name": "93dc80accdb326b2000b76d1e35bf6e5", "bike_id": "93dc80accdb326b2000b76d1e35bf6e5", "is_disabled": 0, "type": "electric_scooter", "lat": 38.949556666666666, "lon": -77.02718983333334, "is_reserved": 0, "fusion_lon": 0.0}, {"rental_uris": {"ios": "https://dc.lft.to/lastmile_qr_scan", "android": "https://dc.lft.to/lastmile_qr_scan"}, "fusion_lat": 0.0, "name": "6493710f298ef674f801e9ef89fcf0df", "bike_id": "6493710f298ef674f801e9ef89fcf0df", "is_disabled": 0, "type": "electric_scooter", "lat": 38.89238816666666, "lon": -77.04663816666667, "is_reserved": 0, "fusion_lon": 0.0}, {"rental_uris": {"ios": "https://dc.lft.to/lastmile_qr_scan", "android": "https://dc.lft.to/lastmile_qr_scan"}, "fusion_lat": 0.0, "name": "ebac2bf4f5bdc0d3e112b929cf0d1e1d", "bike_id": "ebac2bf4f5bdc0d3e112b929cf0d1e1d", "is_disabled": 0, "type": "electric_scooter", "lat": 38.892233833333336, "lon": -77.03161166666666, "is_reserved": 0, "fusion_lon": 0.0}, {"rental_uris": {"ios": "https://dc.lft.to/lastmile_qr_scan", "android": "https://dc.lft.to/lastmile_qr_scan"}, "fusion_lat": 0.0, "name": "f372e871f159326efc9bf0a6abcdf269", "bike_id": "f372e871f159326efc9bf0a6abcdf269", "is_disabled": 0, "type": "electric_scooter", "lat": 38.868877499999996, "lon": -76.98308966666667, "is_reserved": 0, "fusion_lon": 0.0}, {"rental_uris": {"ios": "https://dc.lft.to/lastmile_qr_scan", "android": "https://dc.lft.to/lastmile_qr_scan"}, "fusion_lat": 0.0, "name": "6006c3c7118b25fbc009c2bb46de9613", "bike_id": "6006c3c7118b25fbc009c2bb46de9613", "is_disabled": 0, "type": "electric_scooter", "lat": 38.89849783333333, "lon": -76.99028216666666, "is_reserved": 0, "fusion_lon": 0.0}, {"rental_uris": {"ios": "https://dc.lft.to/lastmile_qr_scan", "android": "https://dc.lft.to/lastmile_qr_scan"}, "fusion_lat": 0.0, "name": "04bbaf3eaad9ac9ef29d7b1efe98f450", "bike_id": "04bbaf3eaad9ac9ef29d7b1efe98f450", "is_disabled": 0, "type": "electric_scooter", "lat": 38.89346333333334, "lon": -77.0110795, "is_reserved": 0, "fusion_lon": 0.0}, {"rental_uris": {"ios": "https://dc.lft.to/lastmile_qr_scan", "android": "https://dc.lft.to/lastmile_qr_scan"}, "fusion_lat": 0.0, "name": "236e569e5ac0a79d329c57257a6a8959", "bike_id": "236e569e5ac0a79d329c57257a6a8959", "is_disabled": 0, "type": "electric_scooter", "lat": 38.924717333333334, "lon": -77.031542, "is_reserved": 0, "fusion_lon": 0.0}, {"rental_uris": {"ios": "https://dc.lft.to/lastmile_qr_scan", "android": "https://dc.lft.to/lastmile_qr_scan"}, "fusion_lat": 0.0, "name": "f267fc865459be1d9662ba51d66d023d", "bike_id": "f267fc865459be1d9662ba51d66d023d", "is_disabled": 0, "type": "electric_scooter", "lat": 38.88731133333334, "lon": -77.028212, "is_reserved": 0, "fusion_lon": 0.0}, {"rental_uris": {"ios": "https://dc.lft.to/lastmile_qr_scan", "android": "https://dc.lft.to/lastmile_qr_scan"}, "fusion_lat": 0.0, "name": "6baed7748c7eedd1c998d0afd6673b1a", "bike_id": "6baed7748c7eedd1c998d0afd6673b1a", "is_disabled": 0, "type": "electric_scooter", "lat": 38.90392083333333, "lon": -76.98097066666666, "is_reserved": 0, "fusion_lon": 0.0}, {"rental_uris": {"ios": "https://dc.lft.to/lastmile_qr_scan", "android": "https://dc.lft.to/lastmile_qr_scan"}, "fusion_lat": 0.0, "name": "feafa4bb0d87fe39a30e445d3b7594fb", "bike_id": "feafa4bb0d87fe39a30e445d3b7594fb", "is_disabled": 0, "type": "electric_scooter", "lat": 38.898847833333335, "lon": -76.93172216666666, "is_reserved": 0, "fusion_lon": 0.0}, {"rental_uris": {"ios": "https://dc.lft.to/lastmile_qr_scan", "android": "https://dc.lft.to/lastmile_qr_scan"}, "fusion_lat": 0.0, "name": "a9634f8da16c017630e74b851e2f0ca3", "bike_id": "a9634f8da16c017630e74b851e2f0ca3", "is_disabled": 0, "type": "electric_scooter", "lat": 38.844287666666666, "lon": -76.99775566666666, "is_reserved": 0, "fusion_lon": 0.0}, {"rental_uris": {"ios": "https://dc.lft.to/lastmile_qr_scan", "android": "https://dc.lft.to/lastmile_qr_scan"}, "fusion_lat": 0.0, "name": "89c75a3738d76053c098cc26668e303d", "bike_id": "89c75a3738d76053c098cc26668e303d", "is_disabled": 0, "type": "electric_bike", "lat": 38.82778866666666, "lon": -77.00911633333334, "is_reserved": 0, "fusion_lon": 0.0}, {"rental_uris": {"ios": "https://dc.lft.to/lastmile_qr_scan", "android": "https://dc.lft.to/lastmile_qr_scan"}, "fusion_lat": 0.0, "name": "ca3260d23a48b72ef245f15acf263398", "bike_id": "ca3260d23a48b72ef245f15acf263398", "is_disabled": 0, "type": "electric_scooter", "lat": 38.920431, "lon": -77.029878, "is_reserved": 0, "fusion_lon": 0.0}, {"rental_uris": {"ios": "https://dc.lft.to/lastmile_qr_scan", "android": "https://dc.lft.to/lastmile_qr_scan"}, "fusion_lat": 0.0, "name": "fd50950122497b117ad90b3c00b18a07", "bike_id": "fd50950122497b117ad90b3c00b18a07", "is_disabled": 0, "type": "electric_scooter", "lat": 38.906751666666665, "lon": -77.03808916666667, "is_reserved": 0, "fusion_lon": 0.0}, {"rental_uris": {"ios": "https://dc.lft.to/lastmile_qr_scan", "android": "https://dc.lft.to/lastmile_qr_scan"}, "fusion_lat": 0.0, "name": "20b939aea523e94f35f38eb5c5dfc97e", "bike_id": "20b939aea523e94f35f38eb5c5dfc97e", "is_disabled": 0, "type": "electric_scooter", "lat": 38.8951725, "lon": -76.99214916666666, "is_reserved": 0, "fusion_lon": 0.0}, {"rental_uris": {"ios": "https://dc.lft.to/lastmile_qr_scan", "android": "https://dc.lft.to/lastmile_qr_scan"}, "fusion_lat": 0.0, "name": "39cfc932ef4bbeed0e48b0467e54385f", "bike_id": "39cfc932ef4bbeed0e48b0467e54385f", "is_disabled": 0, "type": "electric_scooter", "lat": 38.956155833333334, "lon": -77.02761283333334, "is_reserved": 0, "fusion_lon": 0.0}, {"rental_uris": {"ios": "https://dc.lft.to/lastmile_qr_scan", "android": "https://dc.lft.to/lastmile_qr_scan"}, "fusion_lat": 0.0, "name": "1c5284e2ffc51065187cd0f202a13782", "bike_id": "1c5284e2ffc51065187cd0f202a13782", "is_disabled": 0, "type": "electric_scooter", "lat": 38.9137435, "lon": -77.01998366666666, "is_reserved": 0, "fusion_lon": 0.0}, {"rental_uris": {"ios": "https://dc.lft.to/lastmile_qr_scan", "android": "https://dc.lft.to/lastmile_qr_scan"}, "fusion_lat": 0.0, "name": "09116ce56b4e95771e0ae2c1dccacc4e", "bike_id": "09116ce56b4e95771e0ae2c1dccacc4e", "is_disabled": 0, "type": "electric_scooter", "lat": 38.9236415, "lon": -77.0512765, "is_reserved": 0, "fusion_lon": 0.0}, {"rental_uris": {"ios": "https://dc.lft.to/lastmile_qr_scan", "android": "https://dc.lft.to/lastmile_qr_scan"}, "fusion_lat": 0.0, "name": "d50b1f6c692a340d7cf58c78dca42779", "bike_id": "d50b1f6c692a340d7cf58c78dca42779", "is_disabled": 0, "type": "electric_scooter", "lat": 38.90263, "lon": -77.017466, "is_reserved": 0, "fusion_lon": 0.0}, {"rental_uris": {"ios": "https://dc.lft.to/lastmile_qr_scan", "android": "https://dc.lft.to/lastmile_qr_scan"}, "fusion_lat": 0.0, "name": "0ddaa24da13ba800f0ae84f84bf06275", "bike_id": "0ddaa24da13ba800f0ae84f84bf06275", "is_disabled": 0, "type": "electric_scooter", "lat": 38.909540166666666, "lon": -77.03473183333334, "is_reserved": 0, "fusion_lon": 0.0}, {"rental_uris": {"ios": "https://dc.lft.to/lastmile_qr_scan", "android": "https://dc.lft.to/lastmile_qr_scan"}, "fusion_lat": 0.0, "name": "d706b59588b28e9ab977f797ea386669", "bike_id": "d706b59588b28e9ab977f797ea386669", "is_disabled": 0, "type": "electric_scooter", "lat": 38.876752833333335, "lon": -77.01797833333333, "is_reserved": 0, "fusion_lon": 0.0}, {"rental_uris": {"ios": "https://dc.lft.to/lastmile_qr_scan", "android": "https://dc.lft.to/lastmile_qr_scan"}, "fusion_lat": 0.0, "name": "589b06d2dbabc2b221a259260366f041", "bike_id": "589b06d2dbabc2b221a259260366f041", "is_disabled": 0, "type": "electric_scooter", "lat": 38.8610925, "lon": -76.983728, "is_reserved": 0, "fusion_lon": 0.0}, {"rental_uris": {"ios": "https://dc.lft.to/lastmile_qr_scan", "android": "https://dc.lft.to/lastmile_qr_scan"}, "fusion_lat": 0.0, "name": "ec9d3f3f4bc9561dddd31d60cc91befa", "bike_id": "ec9d3f3f4bc9561dddd31d60cc91befa", "is_disabled": 0, "type": "electric_scooter", "lat": 38.908367166666665, "lon": -77.03416633333333, "is_reserved": 0, "fusion_lon": 0.0}, {"rental_uris": {"ios": "https://dc.lft.to/lastmile_qr_scan", "android": "https://dc.lft.to/lastmile_qr_scan"}, "fusion_lat": 0.0, "name": "b1462a33b11fa71551880f947ccdd901", "bike_id": "b1462a33b11fa71551880f947ccdd901", "is_disabled": 0, "type": "electric_scooter", "lat": 38.90626683333333, "lon": -77.0240135, "is_reserved": 0, "fusion_lon": 0.0}, {"rental_uris": {"ios": "https://dc.lft.to/lastmile_qr_scan", "android": "https://dc.lft.to/lastmile_qr_scan"}, "fusion_lat": 0.0, "name": "31d75b8733f4015e4f13e3c863d4abc6", "bike_id": "31d75b8733f4015e4f13e3c863d4abc6", "is_disabled": 0, "type": "electric_scooter", "lat": 38.91853666666667, "lon": -77.040444, "is_reserved": 0, "fusion_lon": 0.0}, {"rental_uris": {"ios": "https://dc.lft.to/lastmile_qr_scan", "android": "https://dc.lft.to/lastmile_qr_scan"}, "fusion_lat": 0.0, "name": "dc78dc65474e9cb3b8775d4670366b64", "bike_id": "dc78dc65474e9cb3b8775d4670366b64", "is_disabled": 0, "type": "electric_scooter", "lat": 38.93971583333333, "lon": -77.0325635, "is_reserved": 0, "fusion_lon": 0.0}, {"rental_uris": {"ios": "https://dc.lft.to/lastmile_qr_scan", "android": "https://dc.lft.to/lastmile_qr_scan"}, "fusion_lat": 0.0, "name": "230312c8282bcab728c252c23599a3bd", "bike_id": "230312c8282bcab728c252c23599a3bd", "is_disabled": 0, "type": "electric_scooter", "lat": 38.9155245, "lon": -77.02209516666667, "is_reserved": 0, "fusion_lon": 0.0}, {"rental_uris": {"ios": "https://dc.lft.to/lastmile_qr_scan", "android": "https://dc.lft.to/lastmile_qr_scan"}, "fusion_lat": 0.0, "name": "e0c9cad84af6dba13fdf7d0544c1da4f", "bike_id": "e0c9cad84af6dba13fdf7d0544c1da4f", "is_disabled": 0, "type": "electric_scooter", "lat": 38.9044595, "lon": -77.061251, "is_reserved": 0, "fusion_lon": 0.0}, {"rental_uris": {"ios": "https://dc.lft.to/lastmile_qr_scan", "android": "https://dc.lft.to/lastmile_qr_scan"}, "fusion_lat": 0.0, "name": "afa3c37ec729cd59aa5a36eb1d63d991", "bike_id": "afa3c37ec729cd59aa5a36eb1d63d991", "is_disabled": 0, "type": "electric_scooter", "lat": 38.93057983333333, "lon": -77.02654966666667, "is_reserved": 0, "fusion_lon": 0.0}, {"rental_uris": {"ios": "https://dc.lft.to/lastmile_qr_scan", "android": "https://dc.lft.to/lastmile_qr_scan"}, "fusion_lat": 0.0, "name": "ebde4b2c58c67260e29ce11fd5328628", "bike_id": "ebde4b2c58c67260e29ce11fd5328628", "is_disabled": 0, "type": "electric_scooter", "lat": 38.916585833333336, "lon": -77.02191566666667, "is_reserved": 0, "fusion_lon": 0.0}, {"rental_uris": {"ios": "https://dc.lft.to/lastmile_qr_scan", "android": "https://dc.lft.to/lastmile_qr_scan"}, "fusion_lat": 0.0, "name": "8ebb68244e0c0b23d229c1118e319be2", "bike_id": "8ebb68244e0c0b23d229c1118e319be2", "is_disabled": 0, "type": "electric_scooter", "lat": 38.898446166666666, "lon": -76.94634133333334, "is_reserved": 0, "fusion_lon": 0.0}, {"rental_uris": {"ios": "https://dc.lft.to/lastmile_qr_scan", "android": "https://dc.lft.to/lastmile_qr_scan"}, "fusion_lat": 0.0, "name": "1828ea69524a88e6a78e3d5005a3191d", "bike_id": "1828ea69524a88e6a78e3d5005a3191d", "is_disabled": 0, "type": "electric_scooter", "lat": 38.909651333333336, "lon": -76.99605383333333, "is_reserved": 0, "fusion_lon": 0.0}, {"rental_uris": {"ios": "https://dc.lft.to/lastmile_qr_scan", "android": "https://dc.lft.to/lastmile_qr_scan"}, "fusion_lat": 0.0, "name": "f3478abf742dc291d82fdc1509fabb60", "bike_id": "f3478abf742dc291d82fdc1509fabb60", "is_disabled": 0, "type": "electric_scooter", "lat": 38.904007166666666, "lon": -77.034592, "is_reserved": 0, "fusion_lon": 0.0}, {"rental_uris": {"ios": "https://dc.lft.to/lastmile_qr_scan", "android": "https://dc.lft.to/lastmile_qr_scan"}, "fusion_lat": 0.0, "name": "f1d6f566f6cad8f7086f27d365ca87a0", "bike_id": "f1d6f566f6cad8f7086f27d365ca87a0", "is_disabled": 0, "type": "electric_scooter", "lat": 38.92055833333333, "lon": -77.0419445, "is_reserved": 0, "fusion_lon": 0.0}, {"rental_uris": {"ios": "https://dc.lft.to/lastmile_qr_scan", "android": "https://dc.lft.to/lastmile_qr_scan"}, "fusion_lat": 0.0, "name": "ed438713e46ad215b1a770e02b86ad9e", "bike_id": "ed438713e46ad215b1a770e02b86ad9e", "is_disabled": 0, "type": "electric_scooter", "lat": 38.887179333333336, "lon": -76.9961325, "is_reserved": 0, "fusion_lon": 0.0}, {"rental_uris": {"ios": "https://dc.lft.to/lastmile_qr_scan", "android": "https://dc.lft.to/lastmile_qr_scan"}, "fusion_lat": 0.0, "name": "e783c6016b777661f426fd0e86543440", "bike_id": "e783c6016b777661f426fd0e86543440", "is_disabled": 0, "type": "electric_scooter", "lat": 38.91818683333333, "lon": -77.03254383333334, "is_reserved": 0, "fusion_lon": 0.0}, {"rental_uris": {"ios": "https://dc.lft.to/lastmile_qr_scan", "android": "https://dc.lft.to/lastmile_qr_scan"}, "fusion_lat": 0.0, "name": "08a03f482434dc9b670d67760f7a7567", "bike_id": "08a03f482434dc9b670d67760f7a7567", "is_disabled": 0, "type": "electric_scooter", "lat": 38.915594, "lon": -77.01174133333333, "is_reserved": 0, "fusion_lon": 0.0}, {"rental_uris": {"ios": "https://dc.lft.to/lastmile_qr_scan", "android": "https://dc.lft.to/lastmile_qr_scan"}, "fusion_lat": 0.0, "name": "96244b0d293c3bc5aea570c93d8b88f8", "bike_id": "96244b0d293c3bc5aea570c93d8b88f8", "is_disabled": 0, "type": "electric_scooter", "lat": 38.92953333333333, "lon": -76.99089916666667, "is_reserved": 0, "fusion_lon": 0.0}, {"rental_uris": {"ios": "https://dc.lft.to/lastmile_qr_scan", "android": "https://dc.lft.to/lastmile_qr_scan"}, "fusion_lat": 0.0, "name": "611f26f963547ec2cf40e796c3f95de0", "bike_id": "611f26f963547ec2cf40e796c3f95de0", "is_disabled": 0, "type": "electric_scooter", "lat": 38.93749116666667, "lon": -77.03448983333334, "is_reserved": 0, "fusion_lon": 0.0}, {"rental_uris": {"ios": "https://dc.lft.to/lastmile_qr_scan", "android": "https://dc.lft.to/lastmile_qr_scan"}, "fusion_lat": 0.0, "name": "7a77db3280f6167e4ca606b7ee4cf2da", "bike_id": "7a77db3280f6167e4ca606b7ee4cf2da", "is_disabled": 0, "type": "electric_scooter", "lat": 38.8935375, "lon": -77.00335883333334, "is_reserved": 0, "fusion_lon": 0.0}, {"rental_uris": {"ios": "https://dc.lft.to/lastmile_qr_scan", "android": "https://dc.lft.to/lastmile_qr_scan"}, "fusion_lat": 0.0, "name": "783bdb62a7fa1abdb626fd4df667f5a1", "bike_id": "783bdb62a7fa1abdb626fd4df667f5a1", "is_disabled": 0, "type": "electric_scooter", "lat": 38.88738816666667, "lon": -77.01529233333333, "is_reserved": 0, "fusion_lon": 0.0}, {"rental_uris": {"ios": "https://dc.lft.to/lastmile_qr_scan", "android": "https://dc.lft.to/lastmile_qr_scan"}, "fusion_lat": 0.0, "name": "ee223e8de085bd35662133064c3fa80e", "bike_id": "ee223e8de085bd35662133064c3fa80e", "is_disabled": 0, "type": "electric_scooter", "lat": 38.909744333333336, "lon": -77.02179866666667, "is_reserved": 0, "fusion_lon": 0.0}, {"rental_uris": {"ios": "https://dc.lft.to/lastmile_qr_scan", "android": "https://dc.lft.to/lastmile_qr_scan"}, "fusion_lat": 0.0, "name": "6dc28b100451278c19e953bcba6bf869", "bike_id": "6dc28b100451278c19e953bcba6bf869", "is_disabled": 0, "type": "electric_scooter", "lat": 38.89220983333333, "lon": -77.04328883333334, "is_reserved": 0, "fusion_lon": 0.0}, {"rental_uris": {"ios": "https://dc.lft.to/lastmile_qr_scan", "android": "https://dc.lft.to/lastmile_qr_scan"}, "fusion_lat": 0.0, "name": "55b0c7802f8705380e23a459098486f8", "bike_id": "55b0c7802f8705380e23a459098486f8", "is_disabled": 0, "type": "electric_scooter", "lat": 38.916737166666664, "lon": -77.0239685, "is_reserved": 0, "fusion_lon": 0.0}, {"rental_uris": {"ios": "https://dc.lft.to/lastmile_qr_scan", "android": "https://dc.lft.to/lastmile_qr_scan"}, "fusion_lat": 0.0, "name": "03796704b338824e173dde5c57890ff1", "bike_id": "03796704b338824e173dde5c57890ff1", "is_disabled": 0, "type": "electric_scooter", "lat": 38.887466, "lon": -77.03137516666666, "is_reserved": 0, "fusion_lon": 0.0}, {"rental_uris": {"ios": "https://dc.lft.to/lastmile_qr_scan", "android": "https://dc.lft.to/lastmile_qr_scan"}, "fusion_lat": 0.0, "name": "c3041447ab654a93e0ac8f352843eb30", "bike_id": "c3041447ab654a93e0ac8f352843eb30", "is_disabled": 0, "type": "electric_scooter", "lat": 38.92046366666667, "lon": -77.03386716666667, "is_reserved": 0, "fusion_lon": 0.0}, {"rental_uris": {"ios": "https://dc.lft.to/lastmile_qr_scan", "android": "https://dc.lft.to/lastmile_qr_scan"}, "fusion_lat": 0.0, "name": "7cdb302aa42cf787aee53b8ac622d473", "bike_id": "7cdb302aa42cf787aee53b8ac622d473", "is_disabled": 0, "type": "electric_scooter", "lat": 38.906787666666666, "lon": -77.02696816666666, "is_reserved": 0, "fusion_lon": 0.0}, {"rental_uris": {"ios": "https://dc.lft.to/lastmile_qr_scan", "android": "https://dc.lft.to/lastmile_qr_scan"}, "fusion_lat": 0.0, "name": "9dd5c50fcb07b6f585c8a9b3a20c833a", "bike_id": "9dd5c50fcb07b6f585c8a9b3a20c833a", "is_disabled": 0, "type": "electric_scooter", "lat": 38.91978733333333, "lon": -77.0121405, "is_reserved": 0, "fusion_lon": 0.0}, {"rental_uris": {"ios": "https://dc.lft.to/lastmile_qr_scan", "android": "https://dc.lft.to/lastmile_qr_scan"}, "fusion_lat": 0.0, "name": "91cadaad7d84cf9bf4028d85c0613427", "bike_id": "91cadaad7d84cf9bf4028d85c0613427", "is_disabled": 0, "type": "electric_scooter", "lat": 38.91038566666667, "lon": -77.0436455, "is_reserved": 0, "fusion_lon": 0.0}, {"rental_uris": {"ios": "https://dc.lft.to/lastmile_qr_scan", "android": "https://dc.lft.to/lastmile_qr_scan"}, "fusion_lat": 0.0, "name": "21c55383361604650ccbc4f9a9610db6", "bike_id": "21c55383361604650ccbc4f9a9610db6", "is_disabled": 0, "type": "electric_scooter", "lat": 38.922097, "lon": -77.03656666666667, "is_reserved": 0, "fusion_lon": 0.0}, {"rental_uris": {"ios": "https://dc.lft.to/lastmile_qr_scan", "android": "https://dc.lft.to/lastmile_qr_scan"}, "fusion_lat": 0.0, "name": "0e54ed5b643a835bd466b6f137528177", "bike_id": "0e54ed5b643a835bd466b6f137528177", "is_disabled": 0, "type": "electric_scooter", "lat": 38.939113166666665, "lon": -77.076514, "is_reserved": 0, "fusion_lon": 0.0}, {"rental_uris": {"ios": "https://dc.lft.to/lastmile_qr_scan", "android": "https://dc.lft.to/lastmile_qr_scan"}, "fusion_lat": 0.0, "name": "00cd540560a52e7943ab10ad397f8fde", "bike_id": "00cd540560a52e7943ab10ad397f8fde", "is_disabled": 0, "type": "electric_scooter", "lat": 38.957071166666665, "lon": -77.0239635, "is_reserved": 0, "fusion_lon": 0.0}, {"rental_uris": {"ios": "https://dc.lft.to/lastmile_qr_scan", "android": "https://dc.lft.to/lastmile_qr_scan"}, "fusion_lat": 0.0, "name": "cc318f309d2d7f51924f48b73f104873", "bike_id": "cc318f309d2d7f51924f48b73f104873", "is_disabled": 0, "type": "electric_scooter", "lat": 38.89937483333333, "lon": -77.02802433333333, "is_reserved": 0, "fusion_lon": 0.0}, {"rental_uris": {"ios": "https://dc.lft.to/lastmile_qr_scan", "android": "https://dc.lft.to/lastmile_qr_scan"}, "fusion_lat": 0.0, "name": "d2fc9b6ede39ef931ef9c78ce94558d5", "bike_id": "d2fc9b6ede39ef931ef9c78ce94558d5", "is_disabled": 0, "type": "electric_scooter", "lat": 38.90380116666667, "lon": -77.03209216666667, "is_reserved": 0, "fusion_lon": 0.0}, {"rental_uris": {"ios": "https://dc.lft.to/lastmile_qr_scan", "android": "https://dc.lft.to/lastmile_qr_scan"}, "fusion_lat": 0.0, "name": "d8af6473f5a07534a7db5bb594fbd353", "bike_id": "d8af6473f5a07534a7db5bb594fbd353", "is_disabled": 0, "type": "electric_scooter", "lat": 38.9054455, "lon": -77.04177633333333, "is_reserved": 0, "fusion_lon": 0.0}, {"rental_uris": {"ios": "https://dc.lft.to/lastmile_qr_scan", "android": "https://dc.lft.to/lastmile_qr_scan"}, "fusion_lat": 0.0, "name": "a6cacb2f61fa7d470ebe28b2cbd3f681", "bike_id": "a6cacb2f61fa7d470ebe28b2cbd3f681", "is_disabled": 0, "type": "electric_scooter", "lat": 38.9189745, "lon": -77.020792, "is_reserved": 0, "fusion_lon": 0.0}, {"rental_uris": {"ios": "https://dc.lft.to/lastmile_qr_scan", "android": "https://dc.lft.to/lastmile_qr_scan"}, "fusion_lat": 0.0, "name": "0a945eb17592cc4ac436cb70d717976f", "bike_id": "0a945eb17592cc4ac436cb70d717976f", "is_disabled": 0, "type": "electric_scooter", "lat": 38.882622833333336, "lon": -77.00366933333333, "is_reserved": 0, "fusion_lon": 0.0}, {"rental_uris": {"ios": "https://dc.lft.to/lastmile_qr_scan", "android": "https://dc.lft.to/lastmile_qr_scan"}, "fusion_lat": 0.0, "name": "b9ff353c431090145e4368bc9c83684f", "bike_id": "b9ff353c431090145e4368bc9c83684f", "is_disabled": 0, "type": "electric_scooter", "lat": 38.90142433333333, "lon": -77.04892316666667, "is_reserved": 0, "fusion_lon": 0.0}, {"rental_uris": {"ios": "https://dc.lft.to/lastmile_qr_scan", "android": "https://dc.lft.to/lastmile_qr_scan"}, "fusion_lat": 0.0, "name": "8e5b0f975984a55b12c6e419acf54811", "bike_id": "8e5b0f975984a55b12c6e419acf54811", "is_disabled": 0, "type": "electric_scooter", "lat": 38.93965933333333, "lon": -77.03202233333333, "is_reserved": 0, "fusion_lon": 0.0}, {"rental_uris": {"ios": "https://dc.lft.to/lastmile_qr_scan", "android": "https://dc.lft.to/lastmile_qr_scan"}, "fusion_lat": 0.0, "name": "889613855bafae910f9d810d346513ae", "bike_id": "889613855bafae910f9d810d346513ae", "is_disabled": 0, "type": "electric_scooter", "lat": 38.88997533333333, "lon": -76.95412983333334, "is_reserved": 0, "fusion_lon": 0.0}, {"rental_uris": {"ios": "https://dc.lft.to/lastmile_qr_scan", "android": "https://dc.lft.to/lastmile_qr_scan"}, "fusion_lat": 0.0, "name": "0ec1623048325442f0f13b2b9dd87f7a", "bike_id": "0ec1623048325442f0f13b2b9dd87f7a", "is_disabled": 0, "type": "electric_scooter", "lat": 38.91712416666667, "lon": -77.036762, "is_reserved": 0, "fusion_lon": 0.0}, {"rental_uris": {"ios": "https://dc.lft.to/lastmile_qr_scan", "android": "https://dc.lft.to/lastmile_qr_scan"}, "fusion_lat": 0.0, "name": "502e4c66ba3054a5365d532ca1e7af86", "bike_id": "502e4c66ba3054a5365d532ca1e7af86", "is_disabled": 0, "type": "electric_scooter", "lat": 38.914744666666664, "lon": -77.04533, "is_reserved": 0, "fusion_lon": 0.0}, {"rental_uris": {"ios": "https://dc.lft.to/lastmile_qr_scan", "android": "https://dc.lft.to/lastmile_qr_scan"}, "fusion_lat": 0.0, "name": "82428896ff7f3bc9023fb7ddcfdb5fd6", "bike_id": "82428896ff7f3bc9023fb7ddcfdb5fd6", "is_disabled": 0, "type": "electric_scooter", "lat": 38.93062116666667, "lon": -77.029772, "is_reserved": 0, "fusion_lon": 0.0}, {"rental_uris": {"ios": "https://dc.lft.to/lastmile_qr_scan", "android": "https://dc.lft.to/lastmile_qr_scan"}, "fusion_lat": 0.0, "name": "a6a3a6d6c42ce458a939759ddf15a48f", "bike_id": "a6a3a6d6c42ce458a939759ddf15a48f", "is_disabled": 0, "type": "electric_scooter", "lat": 38.903787, "lon": -77.03445233333333, "is_reserved": 0, "fusion_lon": 0.0}, {"rental_uris": {"ios": "https://dc.lft.to/lastmile_qr_scan", "android": "https://dc.lft.to/lastmile_qr_scan"}, "fusion_lat": 0.0, "name": "d9926ad4a9406048541e1dcbbfdfcf23", "bike_id": "d9926ad4a9406048541e1dcbbfdfcf23", "is_disabled": 0, "type": "electric_scooter", "lat": 38.898129833333336, "lon": -77.04656716666666, "is_reserved": 0, "fusion_lon": 0.0}, {"rental_uris": {"ios": "https://dc.lft.to/lastmile_qr_scan", "android": "https://dc.lft.to/lastmile_qr_scan"}, "fusion_lat": 0.0, "name": "284b027cb3459df92f8d35702cfe2eff", "bike_id": "284b027cb3459df92f8d35702cfe2eff", "is_disabled": 0, "type": "electric_scooter", "lat": 38.90958583333333, "lon": -77.04640816666667, "is_reserved": 0, "fusion_lon": 0.0}, {"rental_uris": {"ios": "https://dc.lft.to/lastmile_qr_scan", "android": "https://dc.lft.to/lastmile_qr_scan"}, "fusion_lat": 0.0, "name": "d5e66bf591d2e8b30fb06a4c7afda5e1", "bike_id": "d5e66bf591d2e8b30fb06a4c7afda5e1", "is_disabled": 0, "type": "electric_scooter", "lat": 38.8922935, "lon": -77.0322175, "is_reserved": 0, "fusion_lon": 0.0}, {"rental_uris": {"ios": "https://dc.lft.to/lastmile_qr_scan", "android": "https://dc.lft.to/lastmile_qr_scan"}, "fusion_lat": 0.0, "name": "78a8ff7d22808e1de429baaa9bbda6d9", "bike_id": "78a8ff7d22808e1de429baaa9bbda6d9", "is_disabled": 0, "type": "electric_bike", "lat": 38.87974333333333, "lon": -76.994998, "is_reserved": 0, "fusion_lon": 0.0}, {"rental_uris": {"ios": "https://dc.lft.to/lastmile_qr_scan", "android": "https://dc.lft.to/lastmile_qr_scan"}, "fusion_lat": 0.0, "name": "9c9612a0eaa98acef1d49b3e5be362ff", "bike_id": "9c9612a0eaa98acef1d49b3e5be362ff", "is_disabled": 0, "type": "electric_scooter", "lat": 38.954223666666664, "lon": -77.02765966666666, "is_reserved": 0, "fusion_lon": 0.0}, {"rental_uris": {"ios": "https://dc.lft.to/lastmile_qr_scan", "android": "https://dc.lft.to/lastmile_qr_scan"}, "fusion_lat": 0.0, "name": "8fb3f44fa99e179056ae6d9d83d1b8b5", "bike_id": "8fb3f44fa99e179056ae6d9d83d1b8b5", "is_disabled": 0, "type": "electric_scooter", "lat": 38.882487166666664, "lon": -76.99505416666666, "is_reserved": 0, "fusion_lon": 0.0}, {"rental_uris": {"ios": "https://dc.lft.to/lastmile_qr_scan", "android": "https://dc.lft.to/lastmile_qr_scan"}, "fusion_lat": 0.0, "name": "18cdb49db6a846bca4d63730b84025bc", "bike_id": "18cdb49db6a846bca4d63730b84025bc", "is_disabled": 0, "type": "electric_scooter", "lat": 38.92597133333334, "lon": -77.03658016666667, "is_reserved": 0, "fusion_lon": 0.0}, {"rental_uris": {"ios": "https://dc.lft.to/lastmile_qr_scan", "android": "https://dc.lft.to/lastmile_qr_scan"}, "fusion_lat": 0.0, "name": "617cdb6153db3c7423aead3a10ffbb39", "bike_id": "617cdb6153db3c7423aead3a10ffbb39", "is_disabled": 0, "type": "electric_scooter", "lat": 38.92352983333333, "lon": -77.05323483333333, "is_reserved": 0, "fusion_lon": 0.0}, {"rental_uris": {"ios": "https://dc.lft.to/lastmile_qr_scan", "android": "https://dc.lft.to/lastmile_qr_scan"}, "fusion_lat": 0.0, "name": "08baa5fa526c61a65e55adf00a38c580", "bike_id": "08baa5fa526c61a65e55adf00a38c580", "is_disabled": 0, "type": "electric_scooter", "lat": 38.917803666666664, "lon": -77.02335683333334, "is_reserved": 0, "fusion_lon": 0.0}, {"rental_uris": {"ios": "https://dc.lft.to/lastmile_qr_scan", "android": "https://dc.lft.to/lastmile_qr_scan"}, "fusion_lat": 0.0, "name": "c004a2f2d03549764548e58e284e2d04", "bike_id": "c004a2f2d03549764548e58e284e2d04", "is_disabled": 0, "type": "electric_scooter", "lat": 38.892274, "lon": -77.04895983333333, "is_reserved": 0, "fusion_lon": 0.0}, {"rental_uris": {"ios": "https://dc.lft.to/lastmile_qr_scan", "android": "https://dc.lft.to/lastmile_qr_scan"}, "fusion_lat": 0.0, "name": "52addd3c03e5cb5a9e07535bda8bf437", "bike_id": "52addd3c03e5cb5a9e07535bda8bf437", "is_disabled": 0, "type": "electric_scooter", "lat": 38.90251333333333, "lon": -77.01796, "is_reserved": 0, "fusion_lon": 0.0}, {"rental_uris": {"ios": "https://dc.lft.to/lastmile_qr_scan", "android": "https://dc.lft.to/lastmile_qr_scan"}, "fusion_lat": 0.0, "name": "305a1e14396494be6bafc0e78b18c542", "bike_id": "305a1e14396494be6bafc0e78b18c542", "is_disabled": 0, "type": "electric_scooter", "lat": 38.9188315, "lon": -77.02189916666667, "is_reserved": 0, "fusion_lon": 0.0}, {"rental_uris": {"ios": "https://dc.lft.to/lastmile_qr_scan", "android": "https://dc.lft.to/lastmile_qr_scan"}, "fusion_lat": 0.0, "name": "393a8f72442eeacbad6d698199df2778", "bike_id": "393a8f72442eeacbad6d698199df2778", "is_disabled": 0, "type": "electric_scooter", "lat": 38.91110583333333, "lon": -77.04353166666667, "is_reserved": 0, "fusion_lon": 0.0}, {"rental_uris": {"ios": "https://dc.lft.to/lastmile_qr_scan", "android": "https://dc.lft.to/lastmile_qr_scan"}, "fusion_lat": 0.0, "name": "d7c05811d3e6d7454689b2ef2024f7be", "bike_id": "d7c05811d3e6d7454689b2ef2024f7be", "is_disabled": 0, "type": "electric_scooter", "lat": 38.938860166666664, "lon": -77.02479316666667, "is_reserved": 0, "fusion_lon": 0.0}, {"rental_uris": {"ios": "https://dc.lft.to/lastmile_qr_scan", "android": "https://dc.lft.to/lastmile_qr_scan"}, "fusion_lat": 0.0, "name": "91503229b9a0d64977f385382e5aec11", "bike_id": "91503229b9a0d64977f385382e5aec11", "is_disabled": 0, "type": "electric_bike", "lat": 38.806811833333335, "lon": -77.081222, "is_reserved": 0, "fusion_lon": 0.0}, {"rental_uris": {"ios": "https://dc.lft.to/lastmile_qr_scan", "android": "https://dc.lft.to/lastmile_qr_scan"}, "fusion_lat": 0.0, "name": "04e984c28b30905f40d15644f28393a8", "bike_id": "04e984c28b30905f40d15644f28393a8", "is_disabled": 0, "type": "electric_scooter", "lat": 38.9257355, "lon": -77.026948, "is_reserved": 0, "fusion_lon": 0.0}, {"rental_uris": {"ios": "https://dc.lft.to/lastmile_qr_scan", "android": "https://dc.lft.to/lastmile_qr_scan"}, "fusion_lat": 0.0, "name": "d685a1e09e997e766a91ed6c615d6c31", "bike_id": "d685a1e09e997e766a91ed6c615d6c31", "is_disabled": 0, "type": "electric_scooter", "lat": 38.89975, "lon": -77.05565366666667, "is_reserved": 0, "fusion_lon": 0.0}, {"rental_uris": {"ios": "https://dc.lft.to/lastmile_qr_scan", "android": "https://dc.lft.to/lastmile_qr_scan"}, "fusion_lat": 0.0, "name": "d9e37a75e270d4c18426e059c299d25e", "bike_id": "d9e37a75e270d4c18426e059c299d25e", "is_disabled": 0, "type": "electric_bike", "lat": 38.8866095, "lon": -77.16231033333334, "is_reserved": 0, "fusion_lon": 0.0}, {"rental_uris": {"ios": "https://dc.lft.to/lastmile_qr_scan", "android": "https://dc.lft.to/lastmile_qr_scan"}, "fusion_lat": 0.0, "name": "9a6606f9035d0ead3d169a8da99352a0", "bike_id": "9a6606f9035d0ead3d169a8da99352a0", "is_disabled": 0, "type": "electric_scooter", "lat": 38.911213000000004, "lon": -77.02693566666666, "is_reserved": 0, "fusion_lon": 0.0}, {"rental_uris": {"ios": "https://dc.lft.to/lastmile_qr_scan", "android": "https://dc.lft.to/lastmile_qr_scan"}, "fusion_lat": 0.0, "name": "f8dd7a0260d1cb639abe7253bb331a33", "bike_id": "f8dd7a0260d1cb639abe7253bb331a33", "is_disabled": 0, "type": "electric_scooter", "lat": 38.922005166666665, "lon": -77.04232533333334, "is_reserved": 0, "fusion_lon": 0.0}, {"rental_uris": {"ios": "https://dc.lft.to/lastmile_qr_scan", "android": "https://dc.lft.to/lastmile_qr_scan"}, "fusion_lat": 0.0, "name": "d16684534974ffc9273e5c9ca87d9868", "bike_id": "d16684534974ffc9273e5c9ca87d9868", "is_disabled": 0, "type": "electric_scooter", "lat": 38.93249183333333, "lon": -76.9952825, "is_reserved": 0, "fusion_lon": 0.0}, {"rental_uris": {"ios": "https://dc.lft.to/lastmile_qr_scan", "android": "https://dc.lft.to/lastmile_qr_scan"}, "fusion_lat": 0.0, "name": "05467417e6354afb2d9eff2e33b3c2c8", "bike_id": "05467417e6354afb2d9eff2e33b3c2c8", "is_disabled": 0, "type": "electric_scooter", "lat": 38.866503333333334, "lon": -76.98886233333333, "is_reserved": 0, "fusion_lon": 0.0}, {"rental_uris": {"ios": "https://dc.lft.to/lastmile_qr_scan", "android": "https://dc.lft.to/lastmile_qr_scan"}, "fusion_lat": 0.0, "name": "0f4b3b08174c484645482fe546c50933", "bike_id": "0f4b3b08174c484645482fe546c50933", "is_disabled": 0, "type": "electric_scooter", "lat": 38.90384533333334, "lon": -77.03212366666666, "is_reserved": 0, "fusion_lon": 0.0}, {"rental_uris": {"ios": "https://dc.lft.to/lastmile_qr_scan", "android": "https://dc.lft.to/lastmile_qr_scan"}, "fusion_lat": 0.0, "name": "0b306eb343f7193f80d0ad856d619ced", "bike_id": "0b306eb343f7193f80d0ad856d619ced", "is_disabled": 0, "type": "electric_scooter", "lat": 38.902305, "lon": -77.06002233333334, "is_reserved": 0, "fusion_lon": 0.0}, {"rental_uris": {"ios": "https://dc.lft.to/lastmile_qr_scan", "android": "https://dc.lft.to/lastmile_qr_scan"}, "fusion_lat": 0.0, "name": "1d42d6671ee60c9acdefd7ee8d462bd7", "bike_id": "1d42d6671ee60c9acdefd7ee8d462bd7", "is_disabled": 0, "type": "electric_scooter", "lat": 38.9254265, "lon": -77.052628, "is_reserved": 0, "fusion_lon": 0.0}, {"rental_uris": {"ios": "https://dc.lft.to/lastmile_qr_scan", "android": "https://dc.lft.to/lastmile_qr_scan"}, "fusion_lat": 0.0, "name": "e78e0e96d9c2afdba0365fa28b427345", "bike_id": "e78e0e96d9c2afdba0365fa28b427345", "is_disabled": 0, "type": "electric_scooter", "lat": 38.89299316666666, "lon": -77.04183666666667, "is_reserved": 0, "fusion_lon": 0.0}, {"rental_uris": {"ios": "https://dc.lft.to/lastmile_qr_scan", "android": "https://dc.lft.to/lastmile_qr_scan"}, "fusion_lat": 0.0, "name": "c2cbeee966fa313573b12ca76cae9d5b", "bike_id": "c2cbeee966fa313573b12ca76cae9d5b", "is_disabled": 0, "type": "electric_scooter", "lat": 38.9563835, "lon": -77.03293916666667, "is_reserved": 0, "fusion_lon": 0.0}, {"rental_uris": {"ios": "https://dc.lft.to/lastmile_qr_scan", "android": "https://dc.lft.to/lastmile_qr_scan"}, "fusion_lat": 0.0, "name": "09a1c576832107ab684e46882537e9bf", "bike_id": "09a1c576832107ab684e46882537e9bf", "is_disabled": 0, "type": "electric_scooter", "lat": 38.902533166666664, "lon": -76.97708583333333, "is_reserved": 0, "fusion_lon": 0.0}, {"rental_uris": {"ios": "https://dc.lft.to/lastmile_qr_scan", "android": "https://dc.lft.to/lastmile_qr_scan"}, "fusion_lat": 0.0, "name": "df9a046fb253084abc2648af154b4d28", "bike_id": "df9a046fb253084abc2648af154b4d28", "is_disabled": 0, "type": "electric_scooter", "lat": 38.930883666666666, "lon": -77.03416683333333, "is_reserved": 0, "fusion_lon": 0.0}, {"rental_uris": {"ios": "https://dc.lft.to/lastmile_qr_scan", "android": "https://dc.lft.to/lastmile_qr_scan"}, "fusion_lat": 0.0, "name": "e9138b06004034668f1daeb726801b9a", "bike_id": "e9138b06004034668f1daeb726801b9a", "is_disabled": 0, "type": "electric_scooter", "lat": 38.9024515, "lon": -77.0387745, "is_reserved": 0, "fusion_lon": 0.0}, {"rental_uris": {"ios": "https://dc.lft.to/lastmile_qr_scan", "android": "https://dc.lft.to/lastmile_qr_scan"}, "fusion_lat": 0.0, "name": "db017b446f4945c09cdf08e68c0bc5c8", "bike_id": "db017b446f4945c09cdf08e68c0bc5c8", "is_disabled": 0, "type": "electric_scooter", "lat": 38.959672166666664, "lon": -77.0085555, "is_reserved": 0, "fusion_lon": 0.0}, {"rental_uris": {"ios": "https://dc.lft.to/lastmile_qr_scan", "android": "https://dc.lft.to/lastmile_qr_scan"}, "fusion_lat": 0.0, "name": "942004256fe3925c6d00d47f98ae5442", "bike_id": "942004256fe3925c6d00d47f98ae5442", "is_disabled": 0, "type": "electric_bike", "lat": 38.862561666666664, "lon": -77.08852266666666, "is_reserved": 0, "fusion_lon": 0.0}, {"rental_uris": {"ios": "https://dc.lft.to/lastmile_qr_scan", "android": "https://dc.lft.to/lastmile_qr_scan"}, "fusion_lat": 0.0, "name": "0dce8722c28480280e35e00e26f9578e", "bike_id": "0dce8722c28480280e35e00e26f9578e", "is_disabled": 0, "type": "electric_scooter", "lat": 38.89239933333333, "lon": -77.0395595, "is_reserved": 0, "fusion_lon": 0.0}, {"rental_uris": {"ios": "https://dc.lft.to/lastmile_qr_scan", "android": "https://dc.lft.to/lastmile_qr_scan"}, "fusion_lat": 0.0, "name": "d8ddd716dd61a533f93bcbc2e7ae268f", "bike_id": "d8ddd716dd61a533f93bcbc2e7ae268f", "is_disabled": 0, "type": "electric_scooter", "lat": 38.885250666666664, "lon": -77.01135533333333, "is_reserved": 0, "fusion_lon": 0.0}, {"rental_uris": {"ios": "https://dc.lft.to/lastmile_qr_scan", "android": "https://dc.lft.to/lastmile_qr_scan"}, "fusion_lat": 0.0, "name": "1efba29e18e5ab9e30db9904de7e6750", "bike_id": "1efba29e18e5ab9e30db9904de7e6750", "is_disabled": 0, "type": "electric_bike", "lat": 38.9559585, "lon": -77.01014333333333, "is_reserved": 0, "fusion_lon": 0.0}, {"rental_uris": {"ios": "https://dc.lft.to/lastmile_qr_scan", "android": "https://dc.lft.to/lastmile_qr_scan"}, "fusion_lat": 0.0, "name": "4a57f92f3c4d30cbc37da1145d631676", "bike_id": "4a57f92f3c4d30cbc37da1145d631676", "is_disabled": 0, "type": "electric_scooter", "lat": 38.919507333333335, "lon": -76.98074433333333, "is_reserved": 0, "fusion_lon": 0.0}, {"rental_uris": {"ios": "https://dc.lft.to/lastmile_qr_scan", "android": "https://dc.lft.to/lastmile_qr_scan"}, "fusion_lat": 0.0, "name": "51b62607b0e9139fe69c66215ca8f80d", "bike_id": "51b62607b0e9139fe69c66215ca8f80d", "is_disabled": 0, "type": "electric_bike", "lat": 38.972292, "lon": -76.99340683333334, "is_reserved": 0, "fusion_lon": 0.0}, {"rental_uris": {"ios": "https://dc.lft.to/lastmile_qr_scan", "android": "https://dc.lft.to/lastmile_qr_scan"}, "fusion_lat": 0.0, "name": "dfaa958736750254bbd7b1f881c5eec4", "bike_id": "dfaa958736750254bbd7b1f881c5eec4", "is_disabled": 0, "type": "electric_scooter", "lat": 38.881344166666665, "lon": -76.93299483333334, "is_reserved": 0, "fusion_lon": 0.0}, {"rental_uris": {"ios": "https://dc.lft.to/lastmile_qr_scan", "android": "https://dc.lft.to/lastmile_qr_scan"}, "fusion_lat": 0.0, "name": "c208718c068eaf96b4bf93f1eea31447", "bike_id": "c208718c068eaf96b4bf93f1eea31447", "is_disabled": 0, "type": "electric_scooter", "lat": 38.88364766666667, "lon": -76.99503016666667, "is_reserved": 0, "fusion_lon": 0.0}, {"rental_uris": {"ios": "https://dc.lft.to/lastmile_qr_scan", "android": "https://dc.lft.to/lastmile_qr_scan"}, "fusion_lat": 0.0, "name": "c54c8156c9cc65d534ba0b226faac18a", "bike_id": "c54c8156c9cc65d534ba0b226faac18a", "is_disabled": 0, "type": "electric_scooter", "lat": 38.93969833333333, "lon": -77.03256333333333, "is_reserved": 0, "fusion_lon": 0.0}, {"rental_uris": {"ios": "https://dc.lft.to/lastmile_qr_scan", "android": "https://dc.lft.to/lastmile_qr_scan"}, "fusion_lat": 0.0, "name": "c4b22afdb51c6feee1bce6ceacf46f22", "bike_id": "c4b22afdb51c6feee1bce6ceacf46f22", "is_disabled": 0, "type": "electric_scooter", "lat": 38.90276333333333, "lon": -77.02855283333334, "is_reserved": 0, "fusion_lon": 0.0}, {"rental_uris": {"ios": "https://dc.lft.to/lastmile_qr_scan", "android": "https://dc.lft.to/lastmile_qr_scan"}, "fusion_lat": 0.0, "name": "b5da9fb25b32d5b03d397be0bb125f97", "bike_id": "b5da9fb25b32d5b03d397be0bb125f97", "is_disabled": 0, "type": "electric_scooter", "lat": 38.92910533333333, "lon": -77.0195225, "is_reserved": 0, "fusion_lon": 0.0}, {"rental_uris": {"ios": "https://dc.lft.to/lastmile_qr_scan", "android": "https://dc.lft.to/lastmile_qr_scan"}, "fusion_lat": 0.0, "name": "f7bd44a5963589ad8b4892358434922f", "bike_id": "f7bd44a5963589ad8b4892358434922f", "is_disabled": 0, "type": "electric_scooter", "lat": 38.91709266666667, "lon": -77.0367095, "is_reserved": 0, "fusion_lon": 0.0}, {"rental_uris": {"ios": "https://dc.lft.to/lastmile_qr_scan", "android": "https://dc.lft.to/lastmile_qr_scan"}, "fusion_lat": 0.0, "name": "00505f331af0a0b2f14cbb1676958e61", "bike_id": "00505f331af0a0b2f14cbb1676958e61", "is_disabled": 0, "type": "electric_scooter", "lat": 38.920607833333335, "lon": -77.041949, "is_reserved": 0, "fusion_lon": 0.0}, {"rental_uris": {"ios": "https://dc.lft.to/lastmile_qr_scan", "android": "https://dc.lft.to/lastmile_qr_scan"}, "fusion_lat": 0.0, "name": "432361d057007d8e3b554e06d294a28c", "bike_id": "432361d057007d8e3b554e06d294a28c", "is_disabled": 0, "type": "electric_scooter", "lat": 38.8259425, "lon": -77.00312133333334, "is_reserved": 0, "fusion_lon": 0.0}, {"rental_uris": {"ios": "https://dc.lft.to/lastmile_qr_scan", "android": "https://dc.lft.to/lastmile_qr_scan"}, "fusion_lat": 0.0, "name": "184b225e203b3538cbcd0d92edd82826", "bike_id": "184b225e203b3538cbcd0d92edd82826", "is_disabled": 0, "type": "electric_scooter", "lat": 38.91840883333333, "lon": -77.02196266666667, "is_reserved": 0, "fusion_lon": 0.0}, {"rental_uris": {"ios": "https://dc.lft.to/lastmile_qr_scan", "android": "https://dc.lft.to/lastmile_qr_scan"}, "fusion_lat": 0.0, "name": "7158570b9d8230a540c6726a870083bf", "bike_id": "7158570b9d8230a540c6726a870083bf", "is_disabled": 0, "type": "electric_scooter", "lat": 38.93149366666667, "lon": -77.01865716666667, "is_reserved": 0, "fusion_lon": 0.0}, {"rental_uris": {"ios": "https://dc.lft.to/lastmile_qr_scan", "android": "https://dc.lft.to/lastmile_qr_scan"}, "fusion_lat": 0.0, "name": "9df7efeb7ab7b75a13017e23cb196fae", "bike_id": "9df7efeb7ab7b75a13017e23cb196fae", "is_disabled": 0, "type": "electric_scooter", "lat": 38.90838383333333, "lon": -76.99693383333333, "is_reserved": 0, "fusion_lon": 0.0}, {"rental_uris": {"ios": "https://dc.lft.to/lastmile_qr_scan", "android": "https://dc.lft.to/lastmile_qr_scan"}, "fusion_lat": 0.0, "name": "b86bf7b87787a5bba5eb3451e0fd32e9", "bike_id": "b86bf7b87787a5bba5eb3451e0fd32e9", "is_disabled": 0, "type": "electric_scooter", "lat": 38.895481, "lon": -77.00913216666666, "is_reserved": 0, "fusion_lon": 0.0}, {"rental_uris": {"ios": "https://dc.lft.to/lastmile_qr_scan", "android": "https://dc.lft.to/lastmile_qr_scan"}, "fusion_lat": 0.0, "name": "672e15f71ea14fb68dcad43eb0a29af1", "bike_id": "672e15f71ea14fb68dcad43eb0a29af1", "is_disabled": 0, "type": "electric_bike", "lat": 38.8846915, "lon": -76.9956335, "is_reserved": 0, "fusion_lon": 0.0}, {"rental_uris": {"ios": "https://dc.lft.to/lastmile_qr_scan", "android": "https://dc.lft.to/lastmile_qr_scan"}, "fusion_lat": 0.0, "name": "6d9334adfde96775abfccb0e646e7040", "bike_id": "6d9334adfde96775abfccb0e646e7040", "is_disabled": 0, "type": "electric_scooter", "lat": 38.93939866666667, "lon": -77.07521516666667, "is_reserved": 0, "fusion_lon": 0.0}, {"rental_uris": {"ios": "https://dc.lft.to/lastmile_qr_scan", "android": "https://dc.lft.to/lastmile_qr_scan"}, "fusion_lat": 0.0, "name": "020bf704f2ff214fee5eb3af669b7c4d", "bike_id": "020bf704f2ff214fee5eb3af669b7c4d", "is_disabled": 0, "type": "electric_scooter", "lat": 38.92391933333333, "lon": -77.02693916666666, "is_reserved": 0, "fusion_lon": 0.0}, {"rental_uris": {"ios": "https://dc.lft.to/lastmile_qr_scan", "android": "https://dc.lft.to/lastmile_qr_scan"}, "fusion_lat": 0.0, "name": "8af35c925f0a9452554a8cad4972b8a4", "bike_id": "8af35c925f0a9452554a8cad4972b8a4", "is_disabled": 0, "type": "electric_scooter", "lat": 38.93074383333333, "lon": -77.02155716666667, "is_reserved": 0, "fusion_lon": 0.0}, {"rental_uris": {"ios": "https://dc.lft.to/lastmile_qr_scan", "android": "https://dc.lft.to/lastmile_qr_scan"}, "fusion_lat": 0.0, "name": "dbba110e048e9aa0fbb1b139fccf7f91", "bike_id": "dbba110e048e9aa0fbb1b139fccf7f91", "is_disabled": 0, "type": "electric_scooter", "lat": 38.925704833333334, "lon": -77.028535, "is_reserved": 0, "fusion_lon": 0.0}, {"rental_uris": {"ios": "https://dc.lft.to/lastmile_qr_scan", "android": "https://dc.lft.to/lastmile_qr_scan"}, "fusion_lat": 0.0, "name": "edbcd6ed187fe19e75ca103e250ac60e", "bike_id": "edbcd6ed187fe19e75ca103e250ac60e", "is_disabled": 0, "type": "electric_scooter", "lat": 38.93689416666667, "lon": -77.032688, "is_reserved": 0, "fusion_lon": 0.0}, {"rental_uris": {"ios": "https://dc.lft.to/lastmile_qr_scan", "android": "https://dc.lft.to/lastmile_qr_scan"}, "fusion_lat": 0.0, "name": "8bdef8afddd960c1292062d7686ed9ea", "bike_id": "8bdef8afddd960c1292062d7686ed9ea", "is_disabled": 0, "type": "electric_scooter", "lat": 38.917264, "lon": -77.04168683333333, "is_reserved": 0, "fusion_lon": 0.0}, {"rental_uris": {"ios": "https://dc.lft.to/lastmile_qr_scan", "android": "https://dc.lft.to/lastmile_qr_scan"}, "fusion_lat": 0.0, "name": "be9cee99fcacdf91c1495be4e844bd04", "bike_id": "be9cee99fcacdf91c1495be4e844bd04", "is_disabled": 0, "type": "electric_scooter", "lat": 38.892231, "lon": -77.03219233333333, "is_reserved": 0, "fusion_lon": 0.0}, {"rental_uris": {"ios": "https://dc.lft.to/lastmile_qr_scan", "android": "https://dc.lft.to/lastmile_qr_scan"}, "fusion_lat": 0.0, "name": "c9e25fd58b03e5666f8e6cea816bc7e7", "bike_id": "c9e25fd58b03e5666f8e6cea816bc7e7", "is_disabled": 0, "type": "electric_scooter", "lat": 38.87083116666667, "lon": -77.01376883333333, "is_reserved": 0, "fusion_lon": 0.0}, {"rental_uris": {"ios": "https://dc.lft.to/lastmile_qr_scan", "android": "https://dc.lft.to/lastmile_qr_scan"}, "fusion_lat": 0.0, "name": "cf5c907be286aef6e6d39e2a5ac24858", "bike_id": "cf5c907be286aef6e6d39e2a5ac24858", "is_disabled": 0, "type": "electric_scooter", "lat": 38.879089, "lon": -76.99137633333333, "is_reserved": 0, "fusion_lon": 0.0}, {"rental_uris": {"ios": "https://dc.lft.to/lastmile_qr_scan", "android": "https://dc.lft.to/lastmile_qr_scan"}, "fusion_lat": 0.0, "name": "5ce4a1009b6b7478df1ffa0d6784d04c", "bike_id": "5ce4a1009b6b7478df1ffa0d6784d04c", "is_disabled": 0, "type": "electric_bike", "lat": 38.906247, "lon": -77.03922, "is_reserved": 0, "fusion_lon": 0.0}, {"rental_uris": {"ios": "https://dc.lft.to/lastmile_qr_scan", "android": "https://dc.lft.to/lastmile_qr_scan"}, "fusion_lat": 0.0, "name": "beb5e1d6f2690adf899db9a5792f5ea3", "bike_id": "beb5e1d6f2690adf899db9a5792f5ea3", "is_disabled": 0, "type": "electric_scooter", "lat": 38.8982175, "lon": -76.93022233333333, "is_reserved": 0, "fusion_lon": 0.0}, {"rental_uris": {"ios": "https://dc.lft.to/lastmile_qr_scan", "android": "https://dc.lft.to/lastmile_qr_scan"}, "fusion_lat": 0.0, "name": "c3f9fc1d59997360874d2cff690e3bf5", "bike_id": "c3f9fc1d59997360874d2cff690e3bf5", "is_disabled": 0, "type": "electric_scooter", "lat": 38.90715816666667, "lon": -77.02887816666667, "is_reserved": 0, "fusion_lon": 0.0}, {"rental_uris": {"ios": "https://dc.lft.to/lastmile_qr_scan", "android": "https://dc.lft.to/lastmile_qr_scan"}, "fusion_lat": 0.0, "name": "ab5673f7b06cdc223448e999f6b57156", "bike_id": "ab5673f7b06cdc223448e999f6b57156", "is_disabled": 0, "type": "electric_scooter", "lat": 38.9108045, "lon": -77.02095533333333, "is_reserved": 0, "fusion_lon": 0.0}, {"rental_uris": {"ios": "https://dc.lft.to/lastmile_qr_scan", "android": "https://dc.lft.to/lastmile_qr_scan"}, "fusion_lat": 0.0, "name": "605f362eec5c73b8c572d21ae548f976", "bike_id": "605f362eec5c73b8c572d21ae548f976", "is_disabled": 0, "type": "electric_scooter", "lat": 38.93968133333333, "lon": -77.02158916666667, "is_reserved": 0, "fusion_lon": 0.0}, {"rental_uris": {"ios": "https://dc.lft.to/lastmile_qr_scan", "android": "https://dc.lft.to/lastmile_qr_scan"}, "fusion_lat": 0.0, "name": "20c3a64aa7b76f4d56a17893cb717145", "bike_id": "20c3a64aa7b76f4d56a17893cb717145", "is_disabled": 0, "type": "electric_scooter", "lat": 38.88727516666667, "lon": -77.02825983333334, "is_reserved": 0, "fusion_lon": 0.0}, {"rental_uris": {"ios": "https://dc.lft.to/lastmile_qr_scan", "android": "https://dc.lft.to/lastmile_qr_scan"}, "fusion_lat": 0.0, "name": "d978acf6fb6dab09a21009b52f4763d2", "bike_id": "d978acf6fb6dab09a21009b52f4763d2", "is_disabled": 0, "type": "electric_scooter", "lat": 38.898823, "lon": -77.02208616666667, "is_reserved": 0, "fusion_lon": 0.0}, {"rental_uris": {"ios": "https://dc.lft.to/lastmile_qr_scan", "android": "https://dc.lft.to/lastmile_qr_scan"}, "fusion_lat": 0.0, "name": "5d17bbd7986e3919d6fe7b5c436a0e8c", "bike_id": "5d17bbd7986e3919d6fe7b5c436a0e8c", "is_disabled": 0, "type": "electric_scooter", "lat": 38.9052835, "lon": -77.04751766666666, "is_reserved": 0, "fusion_lon": 0.0}, {"rental_uris": {"ios": "https://dc.lft.to/lastmile_qr_scan", "android": "https://dc.lft.to/lastmile_qr_scan"}, "fusion_lat": 0.0, "name": "592d1ef0588ef7ba01d03dc93cdbc155", "bike_id": "592d1ef0588ef7ba01d03dc93cdbc155", "is_disabled": 0, "type": "electric_scooter", "lat": 38.89727666666667, "lon": -77.04687016666666, "is_reserved": 0, "fusion_lon": 0.0}, {"rental_uris": {"ios": "https://dc.lft.to/lastmile_qr_scan", "android": "https://dc.lft.to/lastmile_qr_scan"}, "fusion_lat": 0.0, "name": "d251d7de2e262e959c8919d88a6d22d1", "bike_id": "d251d7de2e262e959c8919d88a6d22d1", "is_disabled": 0, "type": "electric_scooter", "lat": 38.909206833333336, "lon": -77.080221, "is_reserved": 0, "fusion_lon": 0.0}, {"rental_uris": {"ios": "https://dc.lft.to/lastmile_qr_scan", "android": "https://dc.lft.to/lastmile_qr_scan"}, "fusion_lat": 0.0, "name": "9023b96e24d938114eb89bb9bc6adc63", "bike_id": "9023b96e24d938114eb89bb9bc6adc63", "is_disabled": 0, "type": "electric_scooter", "lat": 38.918041833333334, "lon": -77.0402655, "is_reserved": 0, "fusion_lon": 0.0}, {"rental_uris": {"ios": "https://dc.lft.to/lastmile_qr_scan", "android": "https://dc.lft.to/lastmile_qr_scan"}, "fusion_lat": 0.0, "name": "7a51af568cdcc9c243fe5c4df13dec7a", "bike_id": "7a51af568cdcc9c243fe5c4df13dec7a", "is_disabled": 0, "type": "electric_bike", "lat": 38.916665333333334, "lon": -77.02410416666666, "is_reserved": 0, "fusion_lon": 0.0}, {"rental_uris": {"ios": "https://dc.lft.to/lastmile_qr_scan", "android": "https://dc.lft.to/lastmile_qr_scan"}, "fusion_lat": 0.0, "name": "924f974ec0b7eb368eb0460fcc2afe9b", "bike_id": "924f974ec0b7eb368eb0460fcc2afe9b", "is_disabled": 0, "type": "electric_scooter", "lat": 38.90729066666667, "lon": -77.0276205, "is_reserved": 0, "fusion_lon": 0.0}, {"rental_uris": {"ios": "https://dc.lft.to/lastmile_qr_scan", "android": "https://dc.lft.to/lastmile_qr_scan"}, "fusion_lat": 0.0, "name": "70de99fe6477d29d3be684289c3a1492", "bike_id": "70de99fe6477d29d3be684289c3a1492", "is_disabled": 0, "type": "electric_scooter", "lat": 38.9072695, "lon": -77.02759733333333, "is_reserved": 0, "fusion_lon": 0.0}, {"rental_uris": {"ios": "https://dc.lft.to/lastmile_qr_scan", "android": "https://dc.lft.to/lastmile_qr_scan"}, "fusion_lat": 0.0, "name": "3c7a33e7324e156e7945eba558ba8ec0", "bike_id": "3c7a33e7324e156e7945eba558ba8ec0", "is_disabled": 0, "type": "electric_scooter", "lat": 38.94632033333333, "lon": -77.01845, "is_reserved": 0, "fusion_lon": 0.0}, {"rental_uris": {"ios": "https://dc.lft.to/lastmile_qr_scan", "android": "https://dc.lft.to/lastmile_qr_scan"}, "fusion_lat": 0.0, "name": "4170da0c9f42a5ab91754518e97e3ad4", "bike_id": "4170da0c9f42a5ab91754518e97e3ad4", "is_disabled": 0, "type": "electric_bike", "lat": 38.95185216666667, "lon": -76.93542416666666, "is_reserved": 0, "fusion_lon": 0.0}, {"rental_uris": {"ios": "https://dc.lft.to/lastmile_qr_scan", "android": "https://dc.lft.to/lastmile_qr_scan"}, "fusion_lat": 0.0, "name": "b3822d38d3c6ed87afa886087151d849", "bike_id": "b3822d38d3c6ed87afa886087151d849", "is_disabled": 0, "type": "electric_scooter", "lat": 38.91983, "lon": -77.032611, "is_reserved": 0, "fusion_lon": 0.0}, {"rental_uris": {"ios": "https://dc.lft.to/lastmile_qr_scan", "android": "https://dc.lft.to/lastmile_qr_scan"}, "fusion_lat": 0.0, "name": "f0fcff06a4e58e0ec3e2e8dabf91a6a6", "bike_id": "f0fcff06a4e58e0ec3e2e8dabf91a6a6", "is_disabled": 0, "type": "electric_scooter", "lat": 38.9052885, "lon": -77.0593365, "is_reserved": 0, "fusion_lon": 0.0}, {"rental_uris": {"ios": "https://dc.lft.to/lastmile_qr_scan", "android": "https://dc.lft.to/lastmile_qr_scan"}, "fusion_lat": 0.0, "name": "26997b70f868bc334abce9987b5d8ce2", "bike_id": "26997b70f868bc334abce9987b5d8ce2", "is_disabled": 0, "type": "electric_scooter", "lat": 38.904554, "lon": -77.0448965, "is_reserved": 0, "fusion_lon": 0.0}, {"rental_uris": {"ios": "https://dc.lft.to/lastmile_qr_scan", "android": "https://dc.lft.to/lastmile_qr_scan"}, "fusion_lat": 0.0, "name": "c271f5ee39ca1dad9bc1cda9fc503a3c", "bike_id": "c271f5ee39ca1dad9bc1cda9fc503a3c", "is_disabled": 0, "type": "electric_scooter", "lat": 38.89295933333333, "lon": -77.021758, "is_reserved": 0, "fusion_lon": 0.0}, {"rental_uris": {"ios": "https://dc.lft.to/lastmile_qr_scan", "android": "https://dc.lft.to/lastmile_qr_scan"}, "fusion_lat": 0.0, "name": "fd9c8fc03f98899b4bcae83f1f3b30e9", "bike_id": "fd9c8fc03f98899b4bcae83f1f3b30e9", "is_disabled": 0, "type": "electric_scooter", "lat": 38.90091066666667, "lon": -77.04912333333333, "is_reserved": 0, "fusion_lon": 0.0}, {"rental_uris": {"ios": "https://dc.lft.to/lastmile_qr_scan", "android": "https://dc.lft.to/lastmile_qr_scan"}, "fusion_lat": 0.0, "name": "413b7616e5334d9e983c5e919ea075c1", "bike_id": "413b7616e5334d9e983c5e919ea075c1", "is_disabled": 0, "type": "electric_scooter", "lat": 38.92458633333333, "lon": -77.05230983333334, "is_reserved": 0, "fusion_lon": 0.0}, {"rental_uris": {"ios": "https://dc.lft.to/lastmile_qr_scan", "android": "https://dc.lft.to/lastmile_qr_scan"}, "fusion_lat": 0.0, "name": "560ea676e7cb3f819a15cb4cf35462a9", "bike_id": "560ea676e7cb3f819a15cb4cf35462a9", "is_disabled": 0, "type": "electric_scooter", "lat": 38.903045166666665, "lon": -77.0344095, "is_reserved": 0, "fusion_lon": 0.0}, {"rental_uris": {"ios": "https://dc.lft.to/lastmile_qr_scan", "android": "https://dc.lft.to/lastmile_qr_scan"}, "fusion_lat": 0.0, "name": "c90cd63d7ca4cb6f8b35d8b622848ccb", "bike_id": "c90cd63d7ca4cb6f8b35d8b622848ccb", "is_disabled": 0, "type": "electric_scooter", "lat": 38.91858233333333, "lon": -77.04593166666666, "is_reserved": 0, "fusion_lon": 0.0}, {"rental_uris": {"ios": "https://dc.lft.to/lastmile_qr_scan", "android": "https://dc.lft.to/lastmile_qr_scan"}, "fusion_lat": 0.0, "name": "8b2284a468e6e010ff80ee7e8315c377", "bike_id": "8b2284a468e6e010ff80ee7e8315c377", "is_disabled": 0, "type": "electric_scooter", "lat": 38.95780533333333, "lon": -77.027592, "is_reserved": 0, "fusion_lon": 0.0}, {"rental_uris": {"ios": "https://dc.lft.to/lastmile_qr_scan", "android": "https://dc.lft.to/lastmile_qr_scan"}, "fusion_lat": 0.0, "name": "d1bae4a93ac31a15594088d75063d7db", "bike_id": "d1bae4a93ac31a15594088d75063d7db", "is_disabled": 0, "type": "electric_scooter", "lat": 38.91912633333333, "lon": -77.03177083333334, "is_reserved": 0, "fusion_lon": 0.0}, {"rental_uris": {"ios": "https://dc.lft.to/lastmile_qr_scan", "android": "https://dc.lft.to/lastmile_qr_scan"}, "fusion_lat": 0.0, "name": "f31a033089ed67b29998e46785694edd", "bike_id": "f31a033089ed67b29998e46785694edd", "is_disabled": 0, "type": "electric_scooter", "lat": 38.88428483333333, "lon": -76.95750666666666, "is_reserved": 0, "fusion_lon": 0.0}, {"rental_uris": {"ios": "https://dc.lft.to/lastmile_qr_scan", "android": "https://dc.lft.to/lastmile_qr_scan"}, "fusion_lat": 0.0, "name": "cdc55bdb7acf72d5122a452da44e6938", "bike_id": "cdc55bdb7acf72d5122a452da44e6938", "is_disabled": 0, "type": "electric_scooter", "lat": 38.89842733333333, "lon": -76.94634016666667, "is_reserved": 0, "fusion_lon": 0.0}, {"rental_uris": {"ios": "https://dc.lft.to/lastmile_qr_scan", "android": "https://dc.lft.to/lastmile_qr_scan"}, "fusion_lat": 0.0, "name": "6ff209829efca6b162342f18a8a6bb30", "bike_id": "6ff209829efca6b162342f18a8a6bb30", "is_disabled": 0, "type": "electric_scooter", "lat": 38.918754, "lon": -77.03501883333334, "is_reserved": 0, "fusion_lon": 0.0}, {"rental_uris": {"ios": "https://dc.lft.to/lastmile_qr_scan", "android": "https://dc.lft.to/lastmile_qr_scan"}, "fusion_lat": 0.0, "name": "c23f93dc1305a903e5e2664a9714c8e0", "bike_id": "c23f93dc1305a903e5e2664a9714c8e0", "is_disabled": 0, "type": "electric_scooter", "lat": 38.91266183333333, "lon": -77.04552533333333, "is_reserved": 0, "fusion_lon": 0.0}, {"rental_uris": {"ios": "https://dc.lft.to/lastmile_qr_scan", "android": "https://dc.lft.to/lastmile_qr_scan"}, "fusion_lat": 0.0, "name": "40cea6857d6e95c29d560c440a02f7b6", "bike_id": "40cea6857d6e95c29d560c440a02f7b6", "is_disabled": 0, "type": "electric_scooter", "lat": 38.9028835, "lon": -77.033505, "is_reserved": 0, "fusion_lon": 0.0}, {"rental_uris": {"ios": "https://dc.lft.to/lastmile_qr_scan", "android": "https://dc.lft.to/lastmile_qr_scan"}, "fusion_lat": 0.0, "name": "f0bb4ead6a91a561c1218c61bb8a5c11", "bike_id": "f0bb4ead6a91a561c1218c61bb8a5c11", "is_disabled": 0, "type": "electric_scooter", "lat": 38.86507533333333, "lon": -76.98978416666667, "is_reserved": 0, "fusion_lon": 0.0}, {"rental_uris": {"ios": "https://dc.lft.to/lastmile_qr_scan", "android": "https://dc.lft.to/lastmile_qr_scan"}, "fusion_lat": 0.0, "name": "c779c750dae5fa202055993b60f5c92e", "bike_id": "c779c750dae5fa202055993b60f5c92e", "is_disabled": 0, "type": "electric_scooter", "lat": 38.896073, "lon": -77.045437, "is_reserved": 0, "fusion_lon": 0.0}, {"rental_uris": {"ios": "https://dc.lft.to/lastmile_qr_scan", "android": "https://dc.lft.to/lastmile_qr_scan"}, "fusion_lat": 0.0, "name": "619e3709e72d17cc1afd490c195191ad", "bike_id": "619e3709e72d17cc1afd490c195191ad", "is_disabled": 0, "type": "electric_scooter", "lat": 38.90390283333333, "lon": -77.03216333333333, "is_reserved": 0, "fusion_lon": 0.0}, {"rental_uris": {"ios": "https://dc.lft.to/lastmile_qr_scan", "android": "https://dc.lft.to/lastmile_qr_scan"}, "fusion_lat": 0.0, "name": "4426ae8a2b59a8aa81a1016cbe2e4c1e", "bike_id": "4426ae8a2b59a8aa81a1016cbe2e4c1e", "is_disabled": 0, "type": "electric_bike", "lat": 38.934104, "lon": -77.02509516666667, "is_reserved": 0, "fusion_lon": 0.0}, {"rental_uris": {"ios": "https://dc.lft.to/lastmile_qr_scan", "android": "https://dc.lft.to/lastmile_qr_scan"}, "fusion_lat": 0.0, "name": "c862df03a29a8cf4a46c389c8b8a6f99", "bike_id": "c862df03a29a8cf4a46c389c8b8a6f99", "is_disabled": 0, "type": "electric_scooter", "lat": 38.909678, "lon": -77.037917, "is_reserved": 0, "fusion_lon": 0.0}, {"rental_uris": {"ios": "https://dc.lft.to/lastmile_qr_scan", "android": "https://dc.lft.to/lastmile_qr_scan"}, "fusion_lat": 0.0, "name": "731c5cf2718ca52a45c6667a25b71a03", "bike_id": "731c5cf2718ca52a45c6667a25b71a03", "is_disabled": 0, "type": "electric_scooter", "lat": 38.887274, "lon": -77.0282995, "is_reserved": 0, "fusion_lon": 0.0}, {"rental_uris": {"ios": "https://dc.lft.to/lastmile_qr_scan", "android": "https://dc.lft.to/lastmile_qr_scan"}, "fusion_lat": 0.0, "name": "2701fe7501366d3db0809372b80dd467", "bike_id": "2701fe7501366d3db0809372b80dd467", "is_disabled": 0, "type": "electric_scooter", "lat": 38.89966166666667, "lon": -77.03071433333334, "is_reserved": 0, "fusion_lon": 0.0}, {"rental_uris": {"ios": "https://dc.lft.to/lastmile_qr_scan", "android": "https://dc.lft.to/lastmile_qr_scan"}, "fusion_lat": 0.0, "name": "e74853c89931c601b8c23f2f22a296b4", "bike_id": "e74853c89931c601b8c23f2f22a296b4", "is_disabled": 0, "type": "electric_scooter", "lat": 38.920639666666666, "lon": -77.04360016666666, "is_reserved": 0, "fusion_lon": 0.0}, {"rental_uris": {"ios": "https://dc.lft.to/lastmile_qr_scan", "android": "https://dc.lft.to/lastmile_qr_scan"}, "fusion_lat": 0.0, "name": "609cf9ec994019f8c664adcfe8a0d61c", "bike_id": "609cf9ec994019f8c664adcfe8a0d61c", "is_disabled": 0, "type": "electric_bike", "lat": 38.929033833333335, "lon": -77.0274875, "is_reserved": 0, "fusion_lon": 0.0}, {"rental_uris": {"ios": "https://dc.lft.to/lastmile_qr_scan", "android": "https://dc.lft.to/lastmile_qr_scan"}, "fusion_lat": 0.0, "name": "ad0a62d73f6bf8835bd277dbf68eed0a", "bike_id": "ad0a62d73f6bf8835bd277dbf68eed0a", "is_disabled": 0, "type": "electric_scooter", "lat": 38.9055275, "lon": -77.02714983333334, "is_reserved": 0, "fusion_lon": 0.0}, {"rental_uris": {"ios": "https://dc.lft.to/lastmile_qr_scan", "android": "https://dc.lft.to/lastmile_qr_scan"}, "fusion_lat": 0.0, "name": "22fd4e0d4a6a98e395496dc08cfc04d6", "bike_id": "22fd4e0d4a6a98e395496dc08cfc04d6", "is_disabled": 0, "type": "electric_scooter", "lat": 38.886135833333334, "lon": -77.03069083333334, "is_reserved": 0, "fusion_lon": 0.0}, {"rental_uris": {"ios": "https://dc.lft.to/lastmile_qr_scan", "android": "https://dc.lft.to/lastmile_qr_scan"}, "fusion_lat": 0.0, "name": "7ef4b8dcac75a85a1b9e43db224ab4fa", "bike_id": "7ef4b8dcac75a85a1b9e43db224ab4fa", "is_disabled": 0, "type": "electric_scooter", "lat": 38.89350016666667, "lon": -77.04142, "is_reserved": 0, "fusion_lon": 0.0}, {"rental_uris": {"ios": "https://dc.lft.to/lastmile_qr_scan", "android": "https://dc.lft.to/lastmile_qr_scan"}, "fusion_lat": 0.0, "name": "6bd2c314cac05880e44ddfd2a6a82dc2", "bike_id": "6bd2c314cac05880e44ddfd2a6a82dc2", "is_disabled": 0, "type": "electric_scooter", "lat": 38.893972833333336, "lon": -77.02178783333333, "is_reserved": 0, "fusion_lon": 0.0}, {"rental_uris": {"ios": "https://dc.lft.to/lastmile_qr_scan", "android": "https://dc.lft.to/lastmile_qr_scan"}, "fusion_lat": 0.0, "name": "25a925b8616a7377082f2af181c46434", "bike_id": "25a925b8616a7377082f2af181c46434", "is_disabled": 0, "type": "electric_scooter", "lat": 38.913403333333335, "lon": -77.031667, "is_reserved": 0, "fusion_lon": 0.0}, {"rental_uris": {"ios": "https://dc.lft.to/lastmile_qr_scan", "android": "https://dc.lft.to/lastmile_qr_scan"}, "fusion_lat": 0.0, "name": "c247648ecbae6bdc8ebb9bdec5f3925f", "bike_id": "c247648ecbae6bdc8ebb9bdec5f3925f", "is_disabled": 0, "type": "electric_bike", "lat": 38.94551283333333, "lon": -76.8953845, "is_reserved": 0, "fusion_lon": 0.0}, {"rental_uris": {"ios": "https://dc.lft.to/lastmile_qr_scan", "android": "https://dc.lft.to/lastmile_qr_scan"}, "fusion_lat": 0.0, "name": "5a606c46c2421b204d3878713300501f", "bike_id": "5a606c46c2421b204d3878713300501f", "is_disabled": 0, "type": "electric_scooter", "lat": 38.93251083333333, "lon": -77.02986083333333, "is_reserved": 0, "fusion_lon": 0.0}, {"rental_uris": {"ios": "https://dc.lft.to/lastmile_qr_scan", "android": "https://dc.lft.to/lastmile_qr_scan"}, "fusion_lat": 0.0, "name": "1c9237a3ebfba56a984abfa2ebf63663", "bike_id": "1c9237a3ebfba56a984abfa2ebf63663", "is_disabled": 0, "type": "electric_scooter", "lat": 38.9056075, "lon": -77.00288033333334, "is_reserved": 0, "fusion_lon": 0.0}, {"rental_uris": {"ios": "https://dc.lft.to/lastmile_qr_scan", "android": "https://dc.lft.to/lastmile_qr_scan"}, "fusion_lat": 0.0, "name": "f0e9e8fa9c19b3a554acd240c82bd96e", "bike_id": "f0e9e8fa9c19b3a554acd240c82bd96e", "is_disabled": 0, "type": "electric_scooter", "lat": 38.851957, "lon": -76.9763045, "is_reserved": 0, "fusion_lon": 0.0}, {"rental_uris": {"ios": "https://dc.lft.to/lastmile_qr_scan", "android": "https://dc.lft.to/lastmile_qr_scan"}, "fusion_lat": 0.0, "name": "b6e112f8be94627faf6b6870d0008652", "bike_id": "b6e112f8be94627faf6b6870d0008652", "is_disabled": 0, "type": "electric_scooter", "lat": 38.91114566666667, "lon": -77.0446445, "is_reserved": 0, "fusion_lon": 0.0}, {"rental_uris": {"ios": "https://dc.lft.to/lastmile_qr_scan", "android": "https://dc.lft.to/lastmile_qr_scan"}, "fusion_lat": 0.0, "name": "efffc49cedd64ec837bf3a6ea8d5c2b2", "bike_id": "efffc49cedd64ec837bf3a6ea8d5c2b2", "is_disabled": 0, "type": "electric_scooter", "lat": 38.900167333333336, "lon": -77.03258033333333, "is_reserved": 0, "fusion_lon": 0.0}, {"rental_uris": {"ios": "https://dc.lft.to/lastmile_qr_scan", "android": "https://dc.lft.to/lastmile_qr_scan"}, "fusion_lat": 0.0, "name": "005ccb59fcbd00b68369f7114f06e6f9", "bike_id": "005ccb59fcbd00b68369f7114f06e6f9", "is_disabled": 0, "type": "electric_scooter", "lat": 38.899406166666665, "lon": -77.0270515, "is_reserved": 0, "fusion_lon": 0.0}, {"rental_uris": {"ios": "https://dc.lft.to/lastmile_qr_scan", "android": "https://dc.lft.to/lastmile_qr_scan"}, "fusion_lat": 0.0, "name": "5a638482aa59f1fe5534e91ae1df0740", "bike_id": "5a638482aa59f1fe5534e91ae1df0740", "is_disabled": 0, "type": "electric_bike", "lat": 39.01568983333333, "lon": -77.04418466666667, "is_reserved": 0, "fusion_lon": 0.0}, {"rental_uris": {"ios": "https://dc.lft.to/lastmile_qr_scan", "android": "https://dc.lft.to/lastmile_qr_scan"}, "fusion_lat": 0.0, "name": "4bfbbbd5c32cacd1969789e84ee0d16f", "bike_id": "4bfbbbd5c32cacd1969789e84ee0d16f", "is_disabled": 0, "type": "electric_scooter", "lat": 38.916881833333335, "lon": -77.026837, "is_reserved": 0, "fusion_lon": 0.0}, {"rental_uris": {"ios": "https://dc.lft.to/lastmile_qr_scan", "android": "https://dc.lft.to/lastmile_qr_scan"}, "fusion_lat": 0.0, "name": "13500818a603b750f8093fc27a58da97", "bike_id": "13500818a603b750f8093fc27a58da97", "is_disabled": 0, "type": "electric_scooter", "lat": 38.909745666666666, "lon": -77.03391883333333, "is_reserved": 0, "fusion_lon": 0.0}, {"rental_uris": {"ios": "https://dc.lft.to/lastmile_qr_scan", "android": "https://dc.lft.to/lastmile_qr_scan"}, "fusion_lat": 0.0, "name": "786e94dac692bac803319bf9f8e28b6c", "bike_id": "786e94dac692bac803319bf9f8e28b6c", "is_disabled": 0, "type": "electric_scooter", "lat": 38.918173333333336, "lon": -77.0270995, "is_reserved": 0, "fusion_lon": 0.0}, {"rental_uris": {"ios": "https://dc.lft.to/lastmile_qr_scan", "android": "https://dc.lft.to/lastmile_qr_scan"}, "fusion_lat": 0.0, "name": "9808442ba85167000d628330f2d6957f", "bike_id": "9808442ba85167000d628330f2d6957f", "is_disabled": 0, "type": "electric_scooter", "lat": 38.9153565, "lon": -77.04471866666667, "is_reserved": 0, "fusion_lon": 0.0}, {"rental_uris": {"ios": "https://dc.lft.to/lastmile_qr_scan", "android": "https://dc.lft.to/lastmile_qr_scan"}, "fusion_lat": 0.0, "name": "d4d20a4ce08bb1506c93cb20b70460f3", "bike_id": "d4d20a4ce08bb1506c93cb20b70460f3", "is_disabled": 0, "type": "electric_scooter", "lat": 38.907827, "lon": -77.0422835, "is_reserved": 0, "fusion_lon": 0.0}, {"rental_uris": {"ios": "https://dc.lft.to/lastmile_qr_scan", "android": "https://dc.lft.to/lastmile_qr_scan"}, "fusion_lat": 0.0, "name": "9581b104cc0a50134a8942464a744612", "bike_id": "9581b104cc0a50134a8942464a744612", "is_disabled": 0, "type": "electric_scooter", "lat": 38.89845433333333, "lon": -76.94633866666666, "is_reserved": 0, "fusion_lon": 0.0}, {"rental_uris": {"ios": "https://dc.lft.to/lastmile_qr_scan", "android": "https://dc.lft.to/lastmile_qr_scan"}, "fusion_lat": 0.0, "name": "250e85fba2b57edfae36d8b31da80268", "bike_id": "250e85fba2b57edfae36d8b31da80268", "is_disabled": 0, "type": "electric_scooter", "lat": 38.892221666666664, "lon": -77.04368833333334, "is_reserved": 0, "fusion_lon": 0.0}, {"rental_uris": {"ios": "https://dc.lft.to/lastmile_qr_scan", "android": "https://dc.lft.to/lastmile_qr_scan"}, "fusion_lat": 0.0, "name": "08beec3e19e0a87ddbe74c982398fa82", "bike_id": "08beec3e19e0a87ddbe74c982398fa82", "is_disabled": 0, "type": "electric_scooter", "lat": 38.916275666666664, "lon": -77.031684, "is_reserved": 0, "fusion_lon": 0.0}, {"rental_uris": {"ios": "https://dc.lft.to/lastmile_qr_scan", "android": "https://dc.lft.to/lastmile_qr_scan"}, "fusion_lat": 0.0, "name": "5f48a6e85b12371a5d4b33e6733afbc3", "bike_id": "5f48a6e85b12371a5d4b33e6733afbc3", "is_disabled": 0, "type": "electric_bike", "lat": 38.9127475, "lon": -77.0782845, "is_reserved": 0, "fusion_lon": 0.0}, {"rental_uris": {"ios": "https://dc.lft.to/lastmile_qr_scan", "android": "https://dc.lft.to/lastmile_qr_scan"}, "fusion_lat": 0.0, "name": "72811071ccd726ffff72e66cbd815f91", "bike_id": "72811071ccd726ffff72e66cbd815f91", "is_disabled": 0, "type": "electric_scooter", "lat": 38.91107433333333, "lon": -77.03079216666667, "is_reserved": 0, "fusion_lon": 0.0}, {"rental_uris": {"ios": "https://dc.lft.to/lastmile_qr_scan", "android": "https://dc.lft.to/lastmile_qr_scan"}, "fusion_lat": 0.0, "name": "5e4f8cb394ae5897773113960c55f8ce", "bike_id": "5e4f8cb394ae5897773113960c55f8ce", "is_disabled": 0, "type": "electric_scooter", "lat": 38.91725183333333, "lon": -77.03658183333333, "is_reserved": 0, "fusion_lon": 0.0}, {"rental_uris": {"ios": "https://dc.lft.to/lastmile_qr_scan", "android": "https://dc.lft.to/lastmile_qr_scan"}, "fusion_lat": 0.0, "name": "5d319ac8665b02b10c0daf09557ebd0a", "bike_id": "5d319ac8665b02b10c0daf09557ebd0a", "is_disabled": 0, "type": "electric_scooter", "lat": 38.922095166666665, "lon": -77.03508583333333, "is_reserved": 0, "fusion_lon": 0.0}, {"rental_uris": {"ios": "https://dc.lft.to/lastmile_qr_scan", "android": "https://dc.lft.to/lastmile_qr_scan"}, "fusion_lat": 0.0, "name": "77aaf059d93386d2d175f02f80211a2a", "bike_id": "77aaf059d93386d2d175f02f80211a2a", "is_disabled": 0, "type": "electric_scooter", "lat": 38.93256566666667, "lon": -77.03841816666667, "is_reserved": 0, "fusion_lon": 0.0}, {"rental_uris": {"ios": "https://dc.lft.to/lastmile_qr_scan", "android": "https://dc.lft.to/lastmile_qr_scan"}, "fusion_lat": 0.0, "name": "8ec1b931c6ae5c95e233ffecadaa7330", "bike_id": "8ec1b931c6ae5c95e233ffecadaa7330", "is_disabled": 0, "type": "electric_scooter", "lat": 38.915564333333336, "lon": -77.03867166666667, "is_reserved": 0, "fusion_lon": 0.0}, {"rental_uris": {"ios": "https://dc.lft.to/lastmile_qr_scan", "android": "https://dc.lft.to/lastmile_qr_scan"}, "fusion_lat": 0.0, "name": "1cceb6e9fa2f304e022993891089f516", "bike_id": "1cceb6e9fa2f304e022993891089f516", "is_disabled": 0, "type": "electric_scooter", "lat": 38.89905566666667, "lon": -77.03282416666667, "is_reserved": 0, "fusion_lon": 0.0}, {"rental_uris": {"ios": "https://dc.lft.to/lastmile_qr_scan", "android": "https://dc.lft.to/lastmile_qr_scan"}, "fusion_lat": 0.0, "name": "02d00edaae385aec394e4e4a5d671150", "bike_id": "02d00edaae385aec394e4e4a5d671150", "is_disabled": 0, "type": "electric_scooter", "lat": 38.917714833333335, "lon": -77.023302, "is_reserved": 0, "fusion_lon": 0.0}, {"rental_uris": {"ios": "https://dc.lft.to/lastmile_qr_scan", "android": "https://dc.lft.to/lastmile_qr_scan"}, "fusion_lat": 0.0, "name": "9631bb63ebb498dc46551db2a8c24600", "bike_id": "9631bb63ebb498dc46551db2a8c24600", "is_disabled": 0, "type": "electric_scooter", "lat": 38.8814945, "lon": -77.01322983333333, "is_reserved": 0, "fusion_lon": 0.0}, {"rental_uris": {"ios": "https://dc.lft.to/lastmile_qr_scan", "android": "https://dc.lft.to/lastmile_qr_scan"}, "fusion_lat": 0.0, "name": "5198608549143abcd3a7be0ea97f577d", "bike_id": "5198608549143abcd3a7be0ea97f577d", "is_disabled": 0, "type": "electric_bike", "lat": 38.8935175, "lon": -77.187402, "is_reserved": 0, "fusion_lon": 0.0}, {"rental_uris": {"ios": "https://dc.lft.to/lastmile_qr_scan", "android": "https://dc.lft.to/lastmile_qr_scan"}, "fusion_lat": 0.0, "name": "6cac4f6adc2d4d2e1345028fbf7c1741", "bike_id": "6cac4f6adc2d4d2e1345028fbf7c1741", "is_disabled": 0, "type": "electric_scooter", "lat": 38.9095985, "lon": -77.02580466666667, "is_reserved": 0, "fusion_lon": 0.0}, {"rental_uris": {"ios": "https://dc.lft.to/lastmile_qr_scan", "android": "https://dc.lft.to/lastmile_qr_scan"}, "fusion_lat": 0.0, "name": "6b1458424ec515d9979e794bbc4e0ed1", "bike_id": "6b1458424ec515d9979e794bbc4e0ed1", "is_disabled": 0, "type": "electric_scooter", "lat": 38.9236485, "lon": -77.019148, "is_reserved": 0, "fusion_lon": 0.0}, {"rental_uris": {"ios": "https://dc.lft.to/lastmile_qr_scan", "android": "https://dc.lft.to/lastmile_qr_scan"}, "fusion_lat": 0.0, "name": "82a5642dd44c2cddb274c2879a7f8f1d", "bike_id": "82a5642dd44c2cddb274c2879a7f8f1d", "is_disabled": 0, "type": "electric_scooter", "lat": 38.897505, "lon": -76.941873, "is_reserved": 0, "fusion_lon": 0.0}, {"rental_uris": {"ios": "https://dc.lft.to/lastmile_qr_scan", "android": "https://dc.lft.to/lastmile_qr_scan"}, "fusion_lat": 0.0, "name": "c8775e3feeec2cbb42a86048b88b1bcc", "bike_id": "c8775e3feeec2cbb42a86048b88b1bcc", "is_disabled": 0, "type": "electric_scooter", "lat": 38.91739533333333, "lon": -77.0230315, "is_reserved": 0, "fusion_lon": 0.0}, {"rental_uris": {"ios": "https://dc.lft.to/lastmile_qr_scan", "android": "https://dc.lft.to/lastmile_qr_scan"}, "fusion_lat": 0.0, "name": "a011af5dd70cddcd16271dc32a9198b6", "bike_id": "a011af5dd70cddcd16271dc32a9198b6", "is_disabled": 0, "type": "electric_scooter", "lat": 38.949259, "lon": -77.01945216666667, "is_reserved": 0, "fusion_lon": 0.0}, {"rental_uris": {"ios": "https://dc.lft.to/lastmile_qr_scan", "android": "https://dc.lft.to/lastmile_qr_scan"}, "fusion_lat": 0.0, "name": "c078269213995b6586d0f2a21646d9f1", "bike_id": "c078269213995b6586d0f2a21646d9f1", "is_disabled": 0, "type": "electric_scooter", "lat": 38.91806016666666, "lon": -77.04028283333334, "is_reserved": 0, "fusion_lon": 0.0}, {"rental_uris": {"ios": "https://dc.lft.to/lastmile_qr_scan", "android": "https://dc.lft.to/lastmile_qr_scan"}, "fusion_lat": 0.0, "name": "6f09d1d4a52dd7987ab6f9cb1f8e8e21", "bike_id": "6f09d1d4a52dd7987ab6f9cb1f8e8e21", "is_disabled": 0, "type": "electric_scooter", "lat": 38.91788483333333, "lon": -77.023517, "is_reserved": 0, "fusion_lon": 0.0}, {"rental_uris": {"ios": "https://dc.lft.to/lastmile_qr_scan", "android": "https://dc.lft.to/lastmile_qr_scan"}, "fusion_lat": 0.0, "name": "a89588d3f67d9fa9e1e25098be704148", "bike_id": "a89588d3f67d9fa9e1e25098be704148", "is_disabled": 0, "type": "electric_scooter", "lat": 38.922383333333336, "lon": -77.03414516666666, "is_reserved": 0, "fusion_lon": 0.0}, {"rental_uris": {"ios": "https://dc.lft.to/lastmile_qr_scan", "android": "https://dc.lft.to/lastmile_qr_scan"}, "fusion_lat": 0.0, "name": "b9c9f9a90630b511496fa6f20b879f15", "bike_id": "b9c9f9a90630b511496fa6f20b879f15", "is_disabled": 0, "type": "electric_scooter", "lat": 38.9071375, "lon": -77.03426566666667, "is_reserved": 0, "fusion_lon": 0.0}, {"rental_uris": {"ios": "https://dc.lft.to/lastmile_qr_scan", "android": "https://dc.lft.to/lastmile_qr_scan"}, "fusion_lat": 0.0, "name": "a8cfe20ed35f294d140277a6adbde883", "bike_id": "a8cfe20ed35f294d140277a6adbde883", "is_disabled": 0, "type": "electric_scooter", "lat": 38.916906, "lon": -77.02597633333333, "is_reserved": 0, "fusion_lon": 0.0}, {"rental_uris": {"ios": "https://dc.lft.to/lastmile_qr_scan", "android": "https://dc.lft.to/lastmile_qr_scan"}, "fusion_lat": 0.0, "name": "55570ddacdb52e3d759a2234aeb5e6a4", "bike_id": "55570ddacdb52e3d759a2234aeb5e6a4", "is_disabled": 0, "type": "electric_scooter", "lat": 38.909664666666664, "lon": -77.0405355, "is_reserved": 0, "fusion_lon": 0.0}, {"rental_uris": {"ios": "https://dc.lft.to/lastmile_qr_scan", "android": "https://dc.lft.to/lastmile_qr_scan"}, "fusion_lat": 0.0, "name": "cca1500217e4ef7a1dd6f98a189824a9", "bike_id": "cca1500217e4ef7a1dd6f98a189824a9", "is_disabled": 0, "type": "electric_scooter", "lat": 38.926727666666665, "lon": -77.0147505, "is_reserved": 0, "fusion_lon": 0.0}, {"rental_uris": {"ios": "https://dc.lft.to/lastmile_qr_scan", "android": "https://dc.lft.to/lastmile_qr_scan"}, "fusion_lat": 0.0, "name": "5a28405a4d00fb5df458ff0e8aec4a3f", "bike_id": "5a28405a4d00fb5df458ff0e8aec4a3f", "is_disabled": 0, "type": "electric_bike", "lat": 38.855096, "lon": -77.12023066666667, "is_reserved": 0, "fusion_lon": 0.0}, {"rental_uris": {"ios": "https://dc.lft.to/lastmile_qr_scan", "android": "https://dc.lft.to/lastmile_qr_scan"}, "fusion_lat": 0.0, "name": "8fb08557ec6e2f06de5a98854247e86a", "bike_id": "8fb08557ec6e2f06de5a98854247e86a", "is_disabled": 0, "type": "electric_scooter", "lat": 38.9079155, "lon": -77.03184916666666, "is_reserved": 0, "fusion_lon": 0.0}, {"rental_uris": {"ios": "https://dc.lft.to/lastmile_qr_scan", "android": "https://dc.lft.to/lastmile_qr_scan"}, "fusion_lat": 0.0, "name": "71aca2d72e50aa9c445f471c20db7261", "bike_id": "71aca2d72e50aa9c445f471c20db7261", "is_disabled": 0, "type": "electric_scooter", "lat": 38.9156195, "lon": -77.03148716666666, "is_reserved": 0, "fusion_lon": 0.0}, {"rental_uris": {"ios": "https://dc.lft.to/lastmile_qr_scan", "android": "https://dc.lft.to/lastmile_qr_scan"}, "fusion_lat": 0.0, "name": "617728a58eb17f23a9a4cf33502128cc", "bike_id": "617728a58eb17f23a9a4cf33502128cc", "is_disabled": 0, "type": "electric_scooter", "lat": 38.90321516666667, "lon": -77.0385505, "is_reserved": 0, "fusion_lon": 0.0}, {"rental_uris": {"ios": "https://dc.lft.to/lastmile_qr_scan", "android": "https://dc.lft.to/lastmile_qr_scan"}, "fusion_lat": 0.0, "name": "766d41e8c9c50e159d0641a52d199e51", "bike_id": "766d41e8c9c50e159d0641a52d199e51", "is_disabled": 0, "type": "electric_scooter", "lat": 38.8672715, "lon": -76.98663783333333, "is_reserved": 0, "fusion_lon": 0.0}, {"rental_uris": {"ios": "https://dc.lft.to/lastmile_qr_scan", "android": "https://dc.lft.to/lastmile_qr_scan"}, "fusion_lat": 0.0, "name": "1a4f031d43e52eada58ffdbe27121035", "bike_id": "1a4f031d43e52eada58ffdbe27121035", "is_disabled": 0, "type": "electric_scooter", "lat": 38.905713166666665, "lon": -77.03748, "is_reserved": 0, "fusion_lon": 0.0}, {"rental_uris": {"ios": "https://dc.lft.to/lastmile_qr_scan", "android": "https://dc.lft.to/lastmile_qr_scan"}, "fusion_lat": 0.0, "name": "49084c19e7c3558e9828a3270ca6b7d4", "bike_id": "49084c19e7c3558e9828a3270ca6b7d4", "is_disabled": 0, "type": "electric_scooter", "lat": 38.86242333333333, "lon": -76.99495133333333, "is_reserved": 0, "fusion_lon": 0.0}, {"rental_uris": {"ios": "https://dc.lft.to/lastmile_qr_scan", "android": "https://dc.lft.to/lastmile_qr_scan"}, "fusion_lat": 0.0, "name": "607a7ef44cc25f0febd50ee599bd9968", "bike_id": "607a7ef44cc25f0febd50ee599bd9968", "is_disabled": 0, "type": "electric_scooter", "lat": 38.899772166666665, "lon": -77.031827, "is_reserved": 0, "fusion_lon": 0.0}, {"rental_uris": {"ios": "https://dc.lft.to/lastmile_qr_scan", "android": "https://dc.lft.to/lastmile_qr_scan"}, "fusion_lat": 0.0, "name": "a472b387c56bcda893ca2394291ccad2", "bike_id": "a472b387c56bcda893ca2394291ccad2", "is_disabled": 0, "type": "electric_scooter", "lat": 38.892251333333334, "lon": -77.03183416666667, "is_reserved": 0, "fusion_lon": 0.0}, {"rental_uris": {"ios": "https://dc.lft.to/lastmile_qr_scan", "android": "https://dc.lft.to/lastmile_qr_scan"}, "fusion_lat": 0.0, "name": "298305ba3ed4d3c265e1e4a6405623cd", "bike_id": "298305ba3ed4d3c265e1e4a6405623cd", "is_disabled": 0, "type": "electric_scooter", "lat": 38.917093333333334, "lon": -77.04123916666667, "is_reserved": 0, "fusion_lon": 0.0}, {"rental_uris": {"ios": "https://dc.lft.to/lastmile_qr_scan", "android": "https://dc.lft.to/lastmile_qr_scan"}, "fusion_lat": 0.0, "name": "56fd70c830fb5a81adf44d829ae2c3aa", "bike_id": "56fd70c830fb5a81adf44d829ae2c3aa", "is_disabled": 0, "type": "electric_scooter", "lat": 38.892210166666665, "lon": -77.03162, "is_reserved": 0, "fusion_lon": 0.0}, {"rental_uris": {"ios": "https://dc.lft.to/lastmile_qr_scan", "android": "https://dc.lft.to/lastmile_qr_scan"}, "fusion_lat": 0.0, "name": "d377369a1b6fa9ebfc77ebabb1706c99", "bike_id": "d377369a1b6fa9ebfc77ebabb1706c99", "is_disabled": 0, "type": "electric_scooter", "lat": 38.92359916666667, "lon": -77.0512885, "is_reserved": 0, "fusion_lon": 0.0}, {"rental_uris": {"ios": "https://dc.lft.to/lastmile_qr_scan", "android": "https://dc.lft.to/lastmile_qr_scan"}, "fusion_lat": 0.0, "name": "9162610fc81b0bc10034d99d51b9d1e2", "bike_id": "9162610fc81b0bc10034d99d51b9d1e2", "is_disabled": 0, "type": "electric_scooter", "lat": 38.9011815, "lon": -77.0260285, "is_reserved": 0, "fusion_lon": 0.0}, {"rental_uris": {"ios": "https://dc.lft.to/lastmile_qr_scan", "android": "https://dc.lft.to/lastmile_qr_scan"}, "fusion_lat": 0.0, "name": "5f0fceac60d1bdecbfda4c3c4d7b49c1", "bike_id": "5f0fceac60d1bdecbfda4c3c4d7b49c1", "is_disabled": 0, "type": "electric_scooter", "lat": 38.9052605, "lon": -77.06098483333334, "is_reserved": 0, "fusion_lon": 0.0}, {"rental_uris": {"ios": "https://dc.lft.to/lastmile_qr_scan", "android": "https://dc.lft.to/lastmile_qr_scan"}, "fusion_lat": 0.0, "name": "6b7f6b557a5e4b51ec7f7b10be988bdf", "bike_id": "6b7f6b557a5e4b51ec7f7b10be988bdf", "is_disabled": 0, "type": "electric_scooter", "lat": 38.862544, "lon": -76.99516833333334, "is_reserved": 0, "fusion_lon": 0.0}, {"rental_uris": {"ios": "https://dc.lft.to/lastmile_qr_scan", "android": "https://dc.lft.to/lastmile_qr_scan"}, "fusion_lat": 0.0, "name": "091652cdd28ec56fae1b3b43abc6b8b1", "bike_id": "091652cdd28ec56fae1b3b43abc6b8b1", "is_disabled": 0, "type": "electric_scooter", "lat": 38.903863, "lon": -77.05056583333334, "is_reserved": 0, "fusion_lon": 0.0}, {"rental_uris": {"ios": "https://dc.lft.to/lastmile_qr_scan", "android": "https://dc.lft.to/lastmile_qr_scan"}, "fusion_lat": 0.0, "name": "2873913dfe134b906d316824e60d4d18", "bike_id": "2873913dfe134b906d316824e60d4d18", "is_disabled": 0, "type": "electric_scooter", "lat": 38.9055505, "lon": -77.04557833333334, "is_reserved": 0, "fusion_lon": 0.0}, {"rental_uris": {"ios": "https://dc.lft.to/lastmile_qr_scan", "android": "https://dc.lft.to/lastmile_qr_scan"}, "fusion_lat": 0.0, "name": "b53e825e140319b8caa677ae7fd7d52d", "bike_id": "b53e825e140319b8caa677ae7fd7d52d", "is_disabled": 0, "type": "electric_scooter", "lat": 38.90159366666666, "lon": -77.02006966666667, "is_reserved": 0, "fusion_lon": 0.0}, {"rental_uris": {"ios": "https://dc.lft.to/lastmile_qr_scan", "android": "https://dc.lft.to/lastmile_qr_scan"}, "fusion_lat": 0.0, "name": "49b690727ee376163224c3b13fbfecbf", "bike_id": "49b690727ee376163224c3b13fbfecbf", "is_disabled": 0, "type": "electric_scooter", "lat": 38.910604666666664, "lon": -77.06194233333333, "is_reserved": 0, "fusion_lon": 0.0}, {"rental_uris": {"ios": "https://dc.lft.to/lastmile_qr_scan", "android": "https://dc.lft.to/lastmile_qr_scan"}, "fusion_lat": 0.0, "name": "2f42a4a1a89787767670a087725e8f97", "bike_id": "2f42a4a1a89787767670a087725e8f97", "is_disabled": 0, "type": "electric_scooter", "lat": 38.9542615, "lon": -77.027645, "is_reserved": 0, "fusion_lon": 0.0}, {"rental_uris": {"ios": "https://dc.lft.to/lastmile_qr_scan", "android": "https://dc.lft.to/lastmile_qr_scan"}, "fusion_lat": 0.0, "name": "d882e1de86608c4d0101ae39582002ec", "bike_id": "d882e1de86608c4d0101ae39582002ec", "is_disabled": 0, "type": "electric_bike", "lat": 38.969385833333334, "lon": -77.033449, "is_reserved": 0, "fusion_lon": 0.0}, {"rental_uris": {"ios": "https://dc.lft.to/lastmile_qr_scan", "android": "https://dc.lft.to/lastmile_qr_scan"}, "fusion_lat": 0.0, "name": "da12475d6415310773f6e648450ed83a", "bike_id": "da12475d6415310773f6e648450ed83a", "is_disabled": 0, "type": "electric_scooter", "lat": 38.886593500000004, "lon": -77.01360483333333, "is_reserved": 0, "fusion_lon": 0.0}, {"rental_uris": {"ios": "https://dc.lft.to/lastmile_qr_scan", "android": "https://dc.lft.to/lastmile_qr_scan"}, "fusion_lat": 0.0, "name": "5d8c38fa8c084d6d2ea7428dae53913b", "bike_id": "5d8c38fa8c084d6d2ea7428dae53913b", "is_disabled": 0, "type": "electric_scooter", "lat": 38.923826166666665, "lon": -77.057522, "is_reserved": 0, "fusion_lon": 0.0}, {"rental_uris": {"ios": "https://dc.lft.to/lastmile_qr_scan", "android": "https://dc.lft.to/lastmile_qr_scan"}, "fusion_lat": 0.0, "name": "01793ebb6a0f290c428c915c04d3a31a", "bike_id": "01793ebb6a0f290c428c915c04d3a31a", "is_disabled": 0, "type": "electric_scooter", "lat": 38.89372983333333, "lon": -77.04781966666667, "is_reserved": 0, "fusion_lon": 0.0}, {"rental_uris": {"ios": "https://dc.lft.to/lastmile_qr_scan", "android": "https://dc.lft.to/lastmile_qr_scan"}, "fusion_lat": 0.0, "name": "dbebd7a2ede53346f08cd183c0b9520e", "bike_id": "dbebd7a2ede53346f08cd183c0b9520e", "is_disabled": 0, "type": "electric_bike", "lat": 38.96225483333333, "lon": -77.026171, "is_reserved": 0, "fusion_lon": 0.0}, {"rental_uris": {"ios": "https://dc.lft.to/lastmile_qr_scan", "android": "https://dc.lft.to/lastmile_qr_scan"}, "fusion_lat": 0.0, "name": "6d72f2aff89b07d9a63c06b734b9c312", "bike_id": "6d72f2aff89b07d9a63c06b734b9c312", "is_disabled": 0, "type": "electric_scooter", "lat": 38.918623, "lon": -77.04045666666667, "is_reserved": 0, "fusion_lon": 0.0}, {"rental_uris": {"ios": "https://dc.lft.to/lastmile_qr_scan", "android": "https://dc.lft.to/lastmile_qr_scan"}, "fusion_lat": 0.0, "name": "53636ae25511e06cf936a69bfd0f4e93", "bike_id": "53636ae25511e06cf936a69bfd0f4e93", "is_disabled": 0, "type": "electric_scooter", "lat": 38.91014666666667, "lon": -77.03848966666666, "is_reserved": 0, "fusion_lon": 0.0}, {"rental_uris": {"ios": "https://dc.lft.to/lastmile_qr_scan", "android": "https://dc.lft.to/lastmile_qr_scan"}, "fusion_lat": 0.0, "name": "439b56c24455f66016744eec0bdaaf4a", "bike_id": "439b56c24455f66016744eec0bdaaf4a", "is_disabled": 0, "type": "electric_scooter", "lat": 38.942883333333334, "lon": -77.02172216666666, "is_reserved": 0, "fusion_lon": 0.0}, {"rental_uris": {"ios": "https://dc.lft.to/lastmile_qr_scan", "android": "https://dc.lft.to/lastmile_qr_scan"}, "fusion_lat": 0.0, "name": "05766ca8fdf9a6cab807a7e5acd03e3e", "bike_id": "05766ca8fdf9a6cab807a7e5acd03e3e", "is_disabled": 0, "type": "electric_scooter", "lat": 38.85446783333333, "lon": -76.98578016666667, "is_reserved": 0, "fusion_lon": 0.0}, {"rental_uris": {"ios": "https://dc.lft.to/lastmile_qr_scan", "android": "https://dc.lft.to/lastmile_qr_scan"}, "fusion_lat": 0.0, "name": "8411d28bab1b8da8ecf9f2b0ccf9c5b1", "bike_id": "8411d28bab1b8da8ecf9f2b0ccf9c5b1", "is_disabled": 0, "type": "electric_scooter", "lat": 38.91175483333333, "lon": -77.031946, "is_reserved": 0, "fusion_lon": 0.0}, {"rental_uris": {"ios": "https://dc.lft.to/lastmile_qr_scan", "android": "https://dc.lft.to/lastmile_qr_scan"}, "fusion_lat": 0.0, "name": "3f2676ab7f1e3d1452c9fcd984b22008", "bike_id": "3f2676ab7f1e3d1452c9fcd984b22008", "is_disabled": 0, "type": "electric_scooter", "lat": 38.893361166666665, "lon": -76.9313965, "is_reserved": 0, "fusion_lon": 0.0}, {"rental_uris": {"ios": "https://dc.lft.to/lastmile_qr_scan", "android": "https://dc.lft.to/lastmile_qr_scan"}, "fusion_lat": 0.0, "name": "f3cf7841d0c43196e8b64fbed8d5a04c", "bike_id": "f3cf7841d0c43196e8b64fbed8d5a04c", "is_disabled": 0, "type": "electric_scooter", "lat": 38.906438666666666, "lon": -77.00594716666667, "is_reserved": 0, "fusion_lon": 0.0}, {"rental_uris": {"ios": "https://dc.lft.to/lastmile_qr_scan", "android": "https://dc.lft.to/lastmile_qr_scan"}, "fusion_lat": 0.0, "name": "e4a5f91a4b30eab205a6a9d8e5556313", "bike_id": "e4a5f91a4b30eab205a6a9d8e5556313", "is_disabled": 0, "type": "electric_scooter", "lat": 38.87626, "lon": -76.96526666666666, "is_reserved": 0, "fusion_lon": 0.0}, {"rental_uris": {"ios": "https://dc.lft.to/lastmile_qr_scan", "android": "https://dc.lft.to/lastmile_qr_scan"}, "fusion_lat": 0.0, "name": "2b43c2bd49c3e9c313252fd0844c3210", "bike_id": "2b43c2bd49c3e9c313252fd0844c3210", "is_disabled": 0, "type": "electric_scooter", "lat": 38.90880933333333, "lon": -77.00573733333333, "is_reserved": 0, "fusion_lon": 0.0}, {"rental_uris": {"ios": "https://dc.lft.to/lastmile_qr_scan", "android": "https://dc.lft.to/lastmile_qr_scan"}, "fusion_lat": 0.0, "name": "c483831fd3288bf0f5fa913dafd2ba60", "bike_id": "c483831fd3288bf0f5fa913dafd2ba60", "is_disabled": 0, "type": "electric_scooter", "lat": 38.90212366666667, "lon": -77.023142, "is_reserved": 0, "fusion_lon": 0.0}, {"rental_uris": {"ios": "https://dc.lft.to/lastmile_qr_scan", "android": "https://dc.lft.to/lastmile_qr_scan"}, "fusion_lat": 0.0, "name": "4eea5f7148e15c831e4926974e682f19", "bike_id": "4eea5f7148e15c831e4926974e682f19", "is_disabled": 0, "type": "electric_scooter", "lat": 38.924183, "lon": -77.02003966666666, "is_reserved": 0, "fusion_lon": 0.0}, {"rental_uris": {"ios": "https://dc.lft.to/lastmile_qr_scan", "android": "https://dc.lft.to/lastmile_qr_scan"}, "fusion_lat": 0.0, "name": "51d32bef364284d49eae4acec4d9fbe4", "bike_id": "51d32bef364284d49eae4acec4d9fbe4", "is_disabled": 0, "type": "electric_scooter", "lat": 38.92247283333333, "lon": -77.03668416666666, "is_reserved": 0, "fusion_lon": 0.0}, {"rental_uris": {"ios": "https://dc.lft.to/lastmile_qr_scan", "android": "https://dc.lft.to/lastmile_qr_scan"}, "fusion_lat": 0.0, "name": "acf14733e07ab88151d144b812a7e47d", "bike_id": "acf14733e07ab88151d144b812a7e47d", "is_disabled": 0, "type": "electric_scooter", "lat": 38.926304, "lon": -77.022932, "is_reserved": 0, "fusion_lon": 0.0}, {"rental_uris": {"ios": "https://dc.lft.to/lastmile_qr_scan", "android": "https://dc.lft.to/lastmile_qr_scan"}, "fusion_lat": 0.0, "name": "6f422c257751c1afed29b8aa744736f9", "bike_id": "6f422c257751c1afed29b8aa744736f9", "is_disabled": 0, "type": "electric_scooter", "lat": 38.86498316666667, "lon": -76.98984883333333, "is_reserved": 0, "fusion_lon": 0.0}, {"rental_uris": {"ios": "https://dc.lft.to/lastmile_qr_scan", "android": "https://dc.lft.to/lastmile_qr_scan"}, "fusion_lat": 0.0, "name": "ba59929f8356ba743094b0e24f9b79ee", "bike_id": "ba59929f8356ba743094b0e24f9b79ee", "is_disabled": 0, "type": "electric_scooter", "lat": 38.92076466666666, "lon": -77.03169183333333, "is_reserved": 0, "fusion_lon": 0.0}, {"rental_uris": {"ios": "https://dc.lft.to/lastmile_qr_scan", "android": "https://dc.lft.to/lastmile_qr_scan"}, "fusion_lat": 0.0, "name": "692e9c5f4983e770d13cf93e3de69a4e", "bike_id": "692e9c5f4983e770d13cf93e3de69a4e", "is_disabled": 0, "type": "electric_scooter", "lat": 38.892305666666665, "lon": -77.01371583333334, "is_reserved": 0, "fusion_lon": 0.0}, {"rental_uris": {"ios": "https://dc.lft.to/lastmile_qr_scan", "android": "https://dc.lft.to/lastmile_qr_scan"}, "fusion_lat": 0.0, "name": "cb57df576478ef4841728ad5f1253e2f", "bike_id": "cb57df576478ef4841728ad5f1253e2f", "is_disabled": 0, "type": "electric_scooter", "lat": 38.895222, "lon": -77.0243025, "is_reserved": 0, "fusion_lon": 0.0}, {"rental_uris": {"ios": "https://dc.lft.to/lastmile_qr_scan", "android": "https://dc.lft.to/lastmile_qr_scan"}, "fusion_lat": 0.0, "name": "08e7d83912ccf6723c5679772c724f8e", "bike_id": "08e7d83912ccf6723c5679772c724f8e", "is_disabled": 0, "type": "electric_scooter", "lat": 38.91712916666667, "lon": -77.02573533333333, "is_reserved": 0, "fusion_lon": 0.0}, {"rental_uris": {"ios": "https://dc.lft.to/lastmile_qr_scan", "android": "https://dc.lft.to/lastmile_qr_scan"}, "fusion_lat": 0.0, "name": "7933d03079155baf6c867c7c1a66c35b", "bike_id": "7933d03079155baf6c867c7c1a66c35b", "is_disabled": 0, "type": "electric_scooter", "lat": 38.905879166666665, "lon": -77.03861316666666, "is_reserved": 0, "fusion_lon": 0.0}, {"rental_uris": {"ios": "https://dc.lft.to/lastmile_qr_scan", "android": "https://dc.lft.to/lastmile_qr_scan"}, "fusion_lat": 0.0, "name": "89b3c6a160a258f902bccb93600c5e0f", "bike_id": "89b3c6a160a258f902bccb93600c5e0f", "is_disabled": 0, "type": "electric_scooter", "lat": 38.9283165, "lon": -77.03701783333334, "is_reserved": 0, "fusion_lon": 0.0}, {"rental_uris": {"ios": "https://dc.lft.to/lastmile_qr_scan", "android": "https://dc.lft.to/lastmile_qr_scan"}, "fusion_lat": 0.0, "name": "84d53fb0502170f0071fc859b570facd", "bike_id": "84d53fb0502170f0071fc859b570facd", "is_disabled": 0, "type": "electric_scooter", "lat": 38.93160966666667, "lon": -77.05612366666666, "is_reserved": 0, "fusion_lon": 0.0}, {"rental_uris": {"ios": "https://dc.lft.to/lastmile_qr_scan", "android": "https://dc.lft.to/lastmile_qr_scan"}, "fusion_lat": 0.0, "name": "a01d61782c21750e70e2a6172ebff219", "bike_id": "a01d61782c21750e70e2a6172ebff219", "is_disabled": 0, "type": "electric_scooter", "lat": 38.932944666666664, "lon": -77.02195283333333, "is_reserved": 0, "fusion_lon": 0.0}, {"rental_uris": {"ios": "https://dc.lft.to/lastmile_qr_scan", "android": "https://dc.lft.to/lastmile_qr_scan"}, "fusion_lat": 0.0, "name": "f0a9fd59525ac4d0832175b08dc1bc75", "bike_id": "f0a9fd59525ac4d0832175b08dc1bc75", "is_disabled": 0, "type": "electric_bike", "lat": 38.85206183333333, "lon": -77.1012765, "is_reserved": 0, "fusion_lon": 0.0}, {"rental_uris": {"ios": "https://dc.lft.to/lastmile_qr_scan", "android": "https://dc.lft.to/lastmile_qr_scan"}, "fusion_lat": 0.0, "name": "96165c6e713247820ef5114c5b152ec1", "bike_id": "96165c6e713247820ef5114c5b152ec1", "is_disabled": 0, "type": "electric_scooter", "lat": 38.903811833333336, "lon": -77.0451705, "is_reserved": 0, "fusion_lon": 0.0}, {"rental_uris": {"ios": "https://dc.lft.to/lastmile_qr_scan", "android": "https://dc.lft.to/lastmile_qr_scan"},