{"data": {"bikes": [{"lat": 38.91182, "is_disabled": 0, "type": "electric_scooter", "lon": -77.005606, "bike_id": "2721078da212e53ba8bbf2b8da50b9eb", "fusion_lat": 0.0, "name": "2721078da212e53ba8bbf2b8da50b9eb", "is_reserved": 0, "rental_uris": {"android": "https://dc.lft.to/lastmile_qr_scan", "ios": "https://dc.lft.to/lastmile_qr_scan"}, "fusion_lon": 0.0}, {"lat": 38.89816716666667, "is_disabled": 0, "type": "electric_scooter", "lon": -77.0090965, "bike_id": "0bd55cb34ea1669938946069769a87ef", "fusion_lat": 0.0, "name": "0bd55cb34ea1669938946069769a87ef", "is_reserved": 0, "rental_uris": {"android": "https://dc.lft.to/lastmile_qr_scan", "ios": "https://dc.lft.to/lastmile_qr_scan"}, "fusion_lon": 0.0}, {"lat": 38.8746835, "is_disabled": 0, "type": "electric_scooter", "lon": -77.00940383333334, "bike_id": "8b8bc03cb025c5954e3c17b8a33a6ea1", "fusion_lat": 0.0, "name": "8b8bc03cb025c5954e3c17b8a33a6ea1", "is_reserved": 0, "rental_uris": {"android": "https://dc.lft.to/lastmile_qr_scan", "ios": "https://dc.lft.to/lastmile_qr_scan"}, "fusion_lon": 0.0}, {"lat": 38.9041315, "is_disabled": 0, "type": "electric_scooter", "lon": -76.97336683333333, "bike_id": "b819398f7aaa5b371a96ed5daad409ac", "fusion_lat": 0.0, "name": "b819398f7aaa5b371a96ed5daad409ac", "is_reserved": 0, "rental_uris": {"android": "https://dc.lft.to/lastmile_qr_scan", "ios": "https://dc.lft.to/lastmile_qr_scan"}, "fusion_lon": 0.0}, {"lat": 38.905021, "is_disabled": 0, "type": "electric_scooter", "lon": -77.04064716666667, "bike_id": "ca0907992a769236dbc9dd018efbf159", "fusion_lat": 0.0, "name": "ca0907992a769236dbc9dd018efbf159", "is_reserved": 0, "rental_uris": {"android": "https://dc.lft.to/lastmile_qr_scan", "ios": "https://dc.lft.to/lastmile_qr_scan"}, "fusion_lon": 0.0}, {"lat": 38.9225125, "is_disabled": 0, "type": "electric_scooter", "lon": -77.04197383333333, "bike_id": "3e50455dc89f0343c5ed61459061c829", "fusion_lat": 0.0, "name": "3e50455dc89f0343c5ed61459061c829", "is_reserved": 0, "rental_uris": {"android": "https://dc.lft.to/lastmile_qr_scan", "ios": "https://dc.lft.to/lastmile_qr_scan"}, "fusion_lon": 0.0}, {"lat": 38.909774666666664, "is_disabled": 0, "type": "electric_scooter", "lon": -77.04806683333334, "bike_id": "6d7e7080ace46930daa3bd5c79fd97e7", "fusion_lat": 0.0, "name": "6d7e7080ace46930daa3bd5c79fd97e7", "is_reserved": 0, "rental_uris": {"android": "https://dc.lft.to/lastmile_qr_scan", "ios": "https://dc.lft.to/lastmile_qr_scan"}, "fusion_lon": 0.0}, {"lat": 38.905041, "is_disabled": 0, "type": "electric_scooter", "lon": -77.0512995, "bike_id": "78620545f3586b05af738482e8e16f24", "fusion_lat": 0.0, "name": "78620545f3586b05af738482e8e16f24", "is_reserved": 0, "rental_uris": {"android": "https://dc.lft.to/lastmile_qr_scan", "ios": "https://dc.lft.to/lastmile_qr_scan"}, "fusion_lon": 0.0}, {"lat": 38.90163033333333, "is_disabled": 0, "type": "electric_scooter", "lon": -77.0219445, "bike_id": "52f9943bdd3b6f9820c784b5454d13fe", "fusion_lat": 0.0, "name": "52f9943bdd3b6f9820c784b5454d13fe", "is_reserved": 0, "rental_uris": {"android": "https://dc.lft.to/lastmile_qr_scan", "ios": "https://dc.lft.to/lastmile_qr_scan"}, "fusion_lon": 0.0}, {"lat": 38.863748, "is_disabled": 0, "type": "electric_scooter", "lon": -76.99062666666667, "bike_id": "00fa23a9a12fe62b94f1e48d0ee57fd7", "fusion_lat": 0.0, "name": "00fa23a9a12fe62b94f1e48d0ee57fd7", "is_reserved": 0, "rental_uris": {"android": "https://dc.lft.to/lastmile_qr_scan", "ios": "https://dc.lft.to/lastmile_qr_scan"}, "fusion_lon": 0.0}, {"lat": 38.919082833333334, "is_disabled": 0, "type": "electric_scooter", "lon": -77.04629083333333, "bike_id": "42c7a7f9e650c44b273b03d17d1aea39", "fusion_lat": 0.0, "name": "42c7a7f9e650c44b273b03d17d1aea39", "is_reserved": 0, "rental_uris": {"android": "https://dc.lft.to/lastmile_qr_scan", "ios": "https://dc.lft.to/lastmile_qr_scan"}, "fusion_lon": 0.0}, {"lat": 38.916901, "is_disabled": 0, "type": "electric_scooter", "lon": -77.03098166666666, "bike_id": "8efae959c615ed7d0a3c32bbe05e5051", "fusion_lat": 0.0, "name": "8efae959c615ed7d0a3c32bbe05e5051", "is_reserved": 0, "rental_uris": {"android": "https://dc.lft.to/lastmile_qr_scan", "ios": "https://dc.lft.to/lastmile_qr_scan"}, "fusion_lon": 0.0}, {"lat": 38.90820883333333, "is_disabled": 0, "type": "electric_scooter", "lon": -77.031873, "bike_id": "ec3bcce437bd78b56b6346eaaa54900d", "fusion_lat": 0.0, "name": "ec3bcce437bd78b56b6346eaaa54900d", "is_reserved": 0, "rental_uris": {"android": "https://dc.lft.to/lastmile_qr_scan", "ios": "https://dc.lft.to/lastmile_qr_scan"}, "fusion_lon": 0.0}, {"lat": 38.952853166666664, "is_disabled": 0, "type": "electric_bike", "lon": -77.069805, "bike_id": "abe52ed2a83e01008f36e787464dc7db", "fusion_lat": 0.0, "name": "abe52ed2a83e01008f36e787464dc7db", "is_reserved": 0, "rental_uris": {"android": "https://dc.lft.to/lastmile_qr_scan", "ios": "https://dc.lft.to/lastmile_qr_scan"}, "fusion_lon": 0.0}, {"lat": 38.93904583333333, "is_disabled": 0, "type": "electric_scooter", "lon": -77.06054533333334, "bike_id": "4e453d5fffd1956467fcbfbfa89cbf76", "fusion_lat": 0.0, "name": "4e453d5fffd1956467fcbfbfa89cbf76", "is_reserved": 0, "rental_uris": {"android": "https://dc.lft.to/lastmile_qr_scan", "ios": "https://dc.lft.to/lastmile_qr_scan"}, "fusion_lon": 0.0}, {"lat": 38.937040333333336, "is_disabled": 0, "type": "electric_scooter", "lon": -77.02398833333334, "bike_id": "a806c1d5df3067c373a55dbb7d3ac2bd", "fusion_lat": 0.0, "name": "a806c1d5df3067c373a55dbb7d3ac2bd", "is_reserved": 0, "rental_uris": {"android": "https://dc.lft.to/lastmile_qr_scan", "ios": "https://dc.lft.to/lastmile_qr_scan"}, "fusion_lon": 0.0}, {"lat": 38.9121205, "is_disabled": 0, "type": "electric_scooter", "lon": -77.038445, "bike_id": "6ef3403c9558c2af559512b8cf992651", "fusion_lat": 0.0, "name": "6ef3403c9558c2af559512b8cf992651", "is_reserved": 0, "rental_uris": {"android": "https://dc.lft.to/lastmile_qr_scan", "ios": "https://dc.lft.to/lastmile_qr_scan"}, "fusion_lon": 0.0}, {"lat": 38.864817333333335, "is_disabled": 0, "type": "electric_bike", "lon": -77.05692666666667, "bike_id": "0335da3a7e505fe83fec7e72cdf52ac1", "fusion_lat": 0.0, "name": "0335da3a7e505fe83fec7e72cdf52ac1", "is_reserved": 0, "rental_uris": {"android": "https://dc.lft.to/lastmile_qr_scan", "ios": "https://dc.lft.to/lastmile_qr_scan"}, "fusion_lon": 0.0}, {"lat": 38.91409016666667, "is_disabled": 0, "type": "electric_scooter", "lon": -77.0184505, "bike_id": "e6d81e94d9d5bc3e4ced5005395ba0ac", "fusion_lat": 0.0, "name": "e6d81e94d9d5bc3e4ced5005395ba0ac", "is_reserved": 0, "rental_uris": {"android": "https://dc.lft.to/lastmile_qr_scan", "ios": "https://dc.lft.to/lastmile_qr_scan"}, "fusion_lon": 0.0}, {"lat": 38.86525266666666, "is_disabled": 0, "type": "electric_scooter", "lon": -76.99037366666667, "bike_id": "e51905df7dc6ebfd1e7e49d1845ceb3b", "fusion_lat": 0.0, "name": "e51905df7dc6ebfd1e7e49d1845ceb3b", "is_reserved": 0, "rental_uris": {"android": "https://dc.lft.to/lastmile_qr_scan", "ios": "https://dc.lft.to/lastmile_qr_scan"}, "fusion_lon": 0.0}, {"lat": 38.89278633333333, "is_disabled": 0, "type": "electric_scooter", "lon": -77.0504035, "bike_id": "0c393f5ed70d6ab817aedb33dac47804", "fusion_lat": 0.0, "name": "0c393f5ed70d6ab817aedb33dac47804", "is_reserved": 0, "rental_uris": {"android": "https://dc.lft.to/lastmile_qr_scan", "ios": "https://dc.lft.to/lastmile_qr_scan"}, "fusion_lon": 0.0}, {"lat": 38.846255, "is_disabled": 0, "type": "electric_bike", "lon": -77.06945216666666, "bike_id": "18c58951641e0fcd91b5c33245ed9019", "fusion_lat": 0.0, "name": "18c58951641e0fcd91b5c33245ed9019", "is_reserved": 0, "rental_uris": {"android": "https://dc.lft.to/lastmile_qr_scan", "ios": "https://dc.lft.to/lastmile_qr_scan"}, "fusion_lon": 0.0}, {"lat": 38.916803333333334, "is_disabled": 0, "type": "electric_scooter", "lon": -77.0238645, "bike_id": "ba8c59b18e962fbfa6c9cc13789c5c9c", "fusion_lat": 0.0, "name": "ba8c59b18e962fbfa6c9cc13789c5c9c", "is_reserved": 0, "rental_uris": {"android": "https://dc.lft.to/lastmile_qr_scan", "ios": "https://dc.lft.to/lastmile_qr_scan"}, "fusion_lon": 0.0}, {"lat": 38.89503916666666, "is_disabled": 0, "type": "electric_scooter", "lon": -77.02749333333334, "bike_id": "79dd736c7a3ebbf87c0ef09ee925db6e", "fusion_lat": 0.0, "name": "79dd736c7a3ebbf87c0ef09ee925db6e", "is_reserved": 0, "rental_uris": {"android": "https://dc.lft.to/lastmile_qr_scan", "ios": "https://dc.lft.to/lastmile_qr_scan"}, "fusion_lon": 0.0}, {"lat": 38.9183825, "is_disabled": 0, "type": "electric_scooter", "lon": -76.96545966666666, "bike_id": "ca287e9864f0e4c86dd63996000a5fa0", "fusion_lat": 0.0, "name": "ca287e9864f0e4c86dd63996000a5fa0", "is_reserved": 0, "rental_uris": {"android": "https://dc.lft.to/lastmile_qr_scan", "ios": "https://dc.lft.to/lastmile_qr_scan"}, "fusion_lon": 0.0}, {"lat": 38.92152883333333, "is_disabled": 0, "type": "electric_scooter", "lon": -77.04240716666666, "bike_id": "be383343890fe4cd7b6f536c3455f32d", "fusion_lat": 0.0, "name": "be383343890fe4cd7b6f536c3455f32d", "is_reserved": 0, "rental_uris": {"android": "https://dc.lft.to/lastmile_qr_scan", "ios": "https://dc.lft.to/lastmile_qr_scan"}, "fusion_lon": 0.0}, {"lat": 38.91494266666667, "is_disabled": 0, "type": "electric_scooter", "lon": -77.032373, "bike_id": "d7168948038a902d4fedec24b00d8a22", "fusion_lat": 0.0, "name": "d7168948038a902d4fedec24b00d8a22", "is_reserved": 0, "rental_uris": {"android": "https://dc.lft.to/lastmile_qr_scan", "ios": "https://dc.lft.to/lastmile_qr_scan"}, "fusion_lon": 0.0}, {"lat": 38.922119333333335, "is_disabled": 0, "type": "electric_scooter", "lon": -77.04017933333333, "bike_id": "79a7cf51216aeec41def676db7c1dcc1", "fusion_lat": 0.0, "name": "79a7cf51216aeec41def676db7c1dcc1", "is_reserved": 0, "rental_uris": {"android": "https://dc.lft.to/lastmile_qr_scan", "ios": "https://dc.lft.to/lastmile_qr_scan"}, "fusion_lon": 0.0}, {"lat": 38.9140245, "is_disabled": 0, "type": "electric_scooter", "lon": -77.03264066666667, "bike_id": "52f07dde185b290498be02c811c1657e", "fusion_lat": 0.0, "name": "52f07dde185b290498be02c811c1657e", "is_reserved": 0, "rental_uris": {"android": "https://dc.lft.to/lastmile_qr_scan", "ios": "https://dc.lft.to/lastmile_qr_scan"}, "fusion_lon": 0.0}, {"lat": 38.901073833333335, "is_disabled": 0, "type": "electric_scooter", "lon": -77.02231666666667, "bike_id": "2743d7edb37468d1cbc899da438ff6c4", "fusion_lat": 0.0, "name": "2743d7edb37468d1cbc899da438ff6c4", "is_reserved": 0, "rental_uris": {"android": "https://dc.lft.to/lastmile_qr_scan", "ios": "https://dc.lft.to/lastmile_qr_scan"}, "fusion_lon": 0.0}, {"lat": 38.923433, "is_disabled": 0, "type": "electric_bike", "lon": -76.99254566666667, "bike_id": "a6e015d2e850b66f258e9d0577f672a6", "fusion_lat": 0.0, "name": "a6e015d2e850b66f258e9d0577f672a6", "is_reserved": 0, "rental_uris": {"android": "https://dc.lft.to/lastmile_qr_scan", "ios": "https://dc.lft.to/lastmile_qr_scan"}, "fusion_lon": 0.0}, {"lat": 38.887465666666664, "is_disabled": 0, "type": "electric_scooter", "lon": -77.02163333333333, "bike_id": "d088591dab2f430706bc05518ec90e01", "fusion_lat": 0.0, "name": "d088591dab2f430706bc05518ec90e01", "is_reserved": 0, "rental_uris": {"android": "https://dc.lft.to/lastmile_qr_scan", "ios": "https://dc.lft.to/lastmile_qr_scan"}, "fusion_lon": 0.0}, {"lat": 38.9323975, "is_disabled": 0, "type": "electric_scooter", "lon": -77.0328295, "bike_id": "c97ee4ed82f97c212ef4b11f36693429", "fusion_lat": 0.0, "name": "c97ee4ed82f97c212ef4b11f36693429", "is_reserved": 0, "rental_uris": {"android": "https://dc.lft.to/lastmile_qr_scan", "ios": "https://dc.lft.to/lastmile_qr_scan"}, "fusion_lon": 0.0}, {"lat": 38.89629866666667, "is_disabled": 0, "type": "electric_scooter", "lon": -77.02303983333333, "bike_id": "7d681d032f8c67bd319ea20e34807b32", "fusion_lat": 0.0, "name": "7d681d032f8c67bd319ea20e34807b32", "is_reserved": 0, "rental_uris": {"android": "https://dc.lft.to/lastmile_qr_scan", "ios": "https://dc.lft.to/lastmile_qr_scan"}, "fusion_lon": 0.0}, {"lat": 38.916351666666664, "is_disabled": 0, "type": "electric_scooter", "lon": -77.02267416666666, "bike_id": "9acb321086108494441e335649b3dd41", "fusion_lat": 0.0, "name": "9acb321086108494441e335649b3dd41", "is_reserved": 0, "rental_uris": {"android": "https://dc.lft.to/lastmile_qr_scan", "ios": "https://dc.lft.to/lastmile_qr_scan"}, "fusion_lon": 0.0}, {"lat": 38.92229716666667, "is_disabled": 0, "type": "electric_scooter", "lon": -77.04381483333333, "bike_id": "9544f7f097fe41ea4466656e10c4e106", "fusion_lat": 0.0, "name": "9544f7f097fe41ea4466656e10c4e106", "is_reserved": 0, "rental_uris": {"android": "https://dc.lft.to/lastmile_qr_scan", "ios": "https://dc.lft.to/lastmile_qr_scan"}, "fusion_lon": 0.0}, {"lat": 38.90436283333333, "is_disabled": 0, "type": "electric_scooter", "lon": -77.04355016666666, "bike_id": "7fab4b1b855a39dd3f2c27758d1cb706", "fusion_lat": 0.0, "name": "7fab4b1b855a39dd3f2c27758d1cb706", "is_reserved": 0, "rental_uris": {"android": "https://dc.lft.to/lastmile_qr_scan", "ios": "https://dc.lft.to/lastmile_qr_scan"}, "fusion_lon": 0.0}, {"lat": 38.91278166666667, "is_disabled": 0, "type": "electric_scooter", "lon": -77.04510966666666, "bike_id": "cd4c891a41f3f30ecb82672ef6bc3788", "fusion_lat": 0.0, "name": "cd4c891a41f3f30ecb82672ef6bc3788", "is_reserved": 0, "rental_uris": {"android": "https://dc.lft.to/lastmile_qr_scan", "ios": "https://dc.lft.to/lastmile_qr_scan"}, "fusion_lon": 0.0}, {"lat": 38.93673733333333, "is_disabled": 0, "type": "electric_scooter", "lon": -77.03590683333333, "bike_id": "7eba5e863d9c14f0b16663ad760db145", "fusion_lat": 0.0, "name": "7eba5e863d9c14f0b16663ad760db145", "is_reserved": 0, "rental_uris": {"android": "https://dc.lft.to/lastmile_qr_scan", "ios": "https://dc.lft.to/lastmile_qr_scan"}, "fusion_lon": 0.0}, {"lat": 38.8802105, "is_disabled": 0, "type": "electric_scooter", "lon": -76.9313185, "bike_id": "c3bc753a1476162de82e22da02393141", "fusion_lat": 0.0, "name": "c3bc753a1476162de82e22da02393141", "is_reserved": 0, "rental_uris": {"android": "https://dc.lft.to/lastmile_qr_scan", "ios": "https://dc.lft.to/lastmile_qr_scan"}, "fusion_lon": 0.0}, {"lat": 38.907899, "is_disabled": 0, "type": "electric_scooter", "lon": -77.0020285, "bike_id": "8d3b686ef248dac4f44273229aaf32f2", "fusion_lat": 0.0, "name": "8d3b686ef248dac4f44273229aaf32f2", "is_reserved": 0, "rental_uris": {"android": "https://dc.lft.to/lastmile_qr_scan", "ios": "https://dc.lft.to/lastmile_qr_scan"}, "fusion_lon": 0.0}, {"lat": 38.903298166666666, "is_disabled": 0, "type": "electric_scooter", "lon": -76.9759505, "bike_id": "a729fe69d04193524a531dbeea11c3c3", "fusion_lat": 0.0, "name": "a729fe69d04193524a531dbeea11c3c3", "is_reserved": 0, "rental_uris": {"android": "https://dc.lft.to/lastmile_qr_scan", "ios": "https://dc.lft.to/lastmile_qr_scan"}, "fusion_lon": 0.0}, {"lat": 38.92665383333333, "is_disabled": 0, "type": "electric_scooter", "lon": -77.05597183333333, "bike_id": "f74ad16606655ba8c1560d2e1a269655", "fusion_lat": 0.0, "name": "f74ad16606655ba8c1560d2e1a269655", "is_reserved": 0, "rental_uris": {"android": "https://dc.lft.to/lastmile_qr_scan", "ios": "https://dc.lft.to/lastmile_qr_scan"}, "fusion_lon": 0.0}, {"lat": 38.884797666666664, "is_disabled": 0, "type": "electric_scooter", "lon": -77.0335185, "bike_id": "608696df3101e9d403acd3bb0cf471d6", "fusion_lat": 0.0, "name": "608696df3101e9d403acd3bb0cf471d6", "is_reserved": 0, "rental_uris": {"android": "https://dc.lft.to/lastmile_qr_scan", "ios": "https://dc.lft.to/lastmile_qr_scan"}, "fusion_lon": 0.0}, {"lat": 38.90205316666667, "is_disabled": 0, "type": "electric_scooter", "lon": -76.9884465, "bike_id": "22bc1621874294d4d26f404093655f72", "fusion_lat": 0.0, "name": "22bc1621874294d4d26f404093655f72", "is_reserved": 0, "rental_uris": {"android": "https://dc.lft.to/lastmile_qr_scan", "ios": "https://dc.lft.to/lastmile_qr_scan"}, "fusion_lon": 0.0}, {"lat": 38.90517416666667, "is_disabled": 0, "type": "electric_scooter", "lon": -77.03474583333333, "bike_id": "1256d4f9d977df5141a8a9098b70ab50", "fusion_lat": 0.0, "name": "1256d4f9d977df5141a8a9098b70ab50", "is_reserved": 0, "rental_uris": {"android": "https://dc.lft.to/lastmile_qr_scan", "ios": "https://dc.lft.to/lastmile_qr_scan"}, "fusion_lon": 0.0}, {"lat": 38.91372166666667, "is_disabled": 0, "type": "electric_scooter", "lon": -77.02003583333334, "bike_id": "a7964bd4a939dfeb4f5ea8a4afc777c2", "fusion_lat": 0.0, "name": "a7964bd4a939dfeb4f5ea8a4afc777c2", "is_reserved": 0, "rental_uris": {"android": "https://dc.lft.to/lastmile_qr_scan", "ios": "https://dc.lft.to/lastmile_qr_scan"}, "fusion_lon": 0.0}, {"lat": 38.89558433333333, "is_disabled": 0, "type": "electric_scooter", "lon": -76.93368866666667, "bike_id": "5b606d404cce96230cf4b526ca83c687", "fusion_lat": 0.0, "name": "5b606d404cce96230cf4b526ca83c687", "is_reserved": 0, "rental_uris": {"android": "https://dc.lft.to/lastmile_qr_scan", "ios": "https://dc.lft.to/lastmile_qr_scan"}, "fusion_lon": 0.0}, {"lat": 38.884808666666665, "is_disabled": 0, "type": "electric_scooter", "lon": -77.03361283333334, "bike_id": "a6d45dc246d8962af41378d5d3c03577", "fusion_lat": 0.0, "name": "a6d45dc246d8962af41378d5d3c03577", "is_reserved": 0, "rental_uris": {"android": "https://dc.lft.to/lastmile_qr_scan", "ios": "https://dc.lft.to/lastmile_qr_scan"}, "fusion_lon": 0.0}, {"lat": 38.890536, "is_disabled": 0, "type": "electric_scooter", "lon": -76.93753316666667, "bike_id": "8e19b134ce732d7bb44058245ca15092", "fusion_lat": 0.0, "name": "8e19b134ce732d7bb44058245ca15092", "is_reserved": 0, "rental_uris": {"android": "https://dc.lft.to/lastmile_qr_scan", "ios": "https://dc.lft.to/lastmile_qr_scan"}, "fusion_lon": 0.0}, {"lat": 38.90703166666667, "is_disabled": 0, "type": "electric_scooter", "lon": -77.0422365, "bike_id": "f6ac99211e0630d00d0fb4e0fd5f8133", "fusion_lat": 0.0, "name": "f6ac99211e0630d00d0fb4e0fd5f8133", "is_reserved": 0, "rental_uris": {"android": "https://dc.lft.to/lastmile_qr_scan", "ios": "https://dc.lft.to/lastmile_qr_scan"}, "fusion_lon": 0.0}, {"lat": 38.866620166666664, "is_disabled": 0, "type": "electric_scooter", "lon": -76.98910233333334, "bike_id": "db9d7cf90a49f747a32f250088a5b6e5", "fusion_lat": 0.0, "name": "db9d7cf90a49f747a32f250088a5b6e5", "is_reserved": 0, "rental_uris": {"android": "https://dc.lft.to/lastmile_qr_scan", "ios": "https://dc.lft.to/lastmile_qr_scan"}, "fusion_lon": 0.0}, {"lat": 38.901106166666665, "is_disabled": 0, "type": "electric_scooter", "lon": -77.02401616666667, "bike_id": "4bc2f0fc12522263936e98d41e079783", "fusion_lat": 0.0, "name": "4bc2f0fc12522263936e98d41e079783", "is_reserved": 0, "rental_uris": {"android": "https://dc.lft.to/lastmile_qr_scan", "ios": "https://dc.lft.to/lastmile_qr_scan"}, "fusion_lon": 0.0}, {"lat": 38.90422983333333, "is_disabled": 0, "type": "electric_scooter", "lon": -77.03648516666667, "bike_id": "fba59336e4631e849b39b9222fbd50ca", "fusion_lat": 0.0, "name": "fba59336e4631e849b39b9222fbd50ca", "is_reserved": 0, "rental_uris": {"android": "https://dc.lft.to/lastmile_qr_scan", "ios": "https://dc.lft.to/lastmile_qr_scan"}, "fusion_lon": 0.0}, {"lat": 38.86522516666667, "is_disabled": 0, "type": "electric_scooter", "lon": -76.99037183333333, "bike_id": "08606b0206666d3cce4ce6b1e5241d51", "fusion_lat": 0.0, "name": "08606b0206666d3cce4ce6b1e5241d51", "is_reserved": 0, "rental_uris": {"android": "https://dc.lft.to/lastmile_qr_scan", "ios": "https://dc.lft.to/lastmile_qr_scan"}, "fusion_lon": 0.0}, {"lat": 38.9028265, "is_disabled": 0, "type": "electric_scooter", "lon": -77.04035633333334, "bike_id": "8c6452b066cc6640ae2ca59e8b2275f4", "fusion_lat": 0.0, "name": "8c6452b066cc6640ae2ca59e8b2275f4", "is_reserved": 0, "rental_uris": {"android": "https://dc.lft.to/lastmile_qr_scan", "ios": "https://dc.lft.to/lastmile_qr_scan"}, "fusion_lon": 0.0}, {"lat": 38.954034666666665, "is_disabled": 0, "type": "electric_scooter", "lon": -77.02752466666666, "bike_id": "5cf2ebce3a6316767c5c7f16b2c51d9d", "fusion_lat": 0.0, "name": "5cf2ebce3a6316767c5c7f16b2c51d9d", "is_reserved": 0, "rental_uris": {"android": "https://dc.lft.to/lastmile_qr_scan", "ios": "https://dc.lft.to/lastmile_qr_scan"}, "fusion_lon": 0.0}, {"lat": 38.8973095, "is_disabled": 0, "type": "electric_scooter", "lon": -77.02611583333334, "bike_id": "850221709ef20ddc03904e4d86ca482c", "fusion_lat": 0.0, "name": "850221709ef20ddc03904e4d86ca482c", "is_reserved": 0, "rental_uris": {"android": "https://dc.lft.to/lastmile_qr_scan", "ios": "https://dc.lft.to/lastmile_qr_scan"}, "fusion_lon": 0.0}, {"lat": 38.94628816666667, "is_disabled": 0, "type": "electric_scooter", "lon": -77.01846716666667, "bike_id": "b671e0d704d9fc53842415281d2f6f6e", "fusion_lat": 0.0, "name": "b671e0d704d9fc53842415281d2f6f6e", "is_reserved": 0, "rental_uris": {"android": "https://dc.lft.to/lastmile_qr_scan", "ios": "https://dc.lft.to/lastmile_qr_scan"}, "fusion_lon": 0.0}, {"lat": 38.930072, "is_disabled": 0, "type": "electric_scooter", "lon": -77.05676216666667, "bike_id": "8a388313316687a6232e3f36083cea56", "fusion_lat": 0.0, "name": "8a388313316687a6232e3f36083cea56", "is_reserved": 0, "rental_uris": {"android": "https://dc.lft.to/lastmile_qr_scan", "ios": "https://dc.lft.to/lastmile_qr_scan"}, "fusion_lon": 0.0}, {"lat": 38.909765666666665, "is_disabled": 0, "type": "electric_scooter", "lon": -77.03335983333334, "bike_id": "6fff0f7d45145ad6c5fd98d219da4ba1", "fusion_lat": 0.0, "name": "6fff0f7d45145ad6c5fd98d219da4ba1", "is_reserved": 0, "rental_uris": {"android": "https://dc.lft.to/lastmile_qr_scan", "ios": "https://dc.lft.to/lastmile_qr_scan"}, "fusion_lon": 0.0}, {"lat": 38.935861, "is_disabled": 0, "type": "electric_bike", "lon": -77.0244835, "bike_id": "77465d62cd4a1bde89779c84a54b3c13", "fusion_lat": 0.0, "name": "77465d62cd4a1bde89779c84a54b3c13", "is_reserved": 0, "rental_uris": {"android": "https://dc.lft.to/lastmile_qr_scan", "ios": "https://dc.lft.to/lastmile_qr_scan"}, "fusion_lon": 0.0}, {"lat": 38.86058233333333, "is_disabled": 0, "type": "electric_bike", "lon": -77.056364, "bike_id": "2fd8b64877b4389cb2cda0fc829d1ba0", "fusion_lat": 0.0, "name": "2fd8b64877b4389cb2cda0fc829d1ba0", "is_reserved": 0, "rental_uris": {"android": "https://dc.lft.to/lastmile_qr_scan", "ios": "https://dc.lft.to/lastmile_qr_scan"}, "fusion_lon": 0.0}, {"lat": 38.914067, "is_disabled": 0, "type": "electric_scooter", "lon": -77.02059283333334, "bike_id": "33b4e6d98e3046b0c2257a8b4807baa7", "fusion_lat": 0.0, "name": "33b4e6d98e3046b0c2257a8b4807baa7", "is_reserved": 0, "rental_uris": {"android": "https://dc.lft.to/lastmile_qr_scan", "ios": "https://dc.lft.to/lastmile_qr_scan"}, "fusion_lon": 0.0}, {"lat": 38.919836833333335, "is_disabled": 0, "type": "electric_scooter", "lon": -76.973064, "bike_id": "7017045aa24baccebc64f45173d013ea", "fusion_lat": 0.0, "name": "7017045aa24baccebc64f45173d013ea", "is_reserved": 0, "rental_uris": {"android": "https://dc.lft.to/lastmile_qr_scan", "ios": "https://dc.lft.to/lastmile_qr_scan"}, "fusion_lon": 0.0}, {"lat": 38.91402633333333, "is_disabled": 0, "type": "electric_scooter", "lon": -77.03262133333334, "bike_id": "fd123946b9eb3b662b21823ff3647bbe", "fusion_lat": 0.0, "name": "fd123946b9eb3b662b21823ff3647bbe", "is_reserved": 0, "rental_uris": {"android": "https://dc.lft.to/lastmile_qr_scan", "ios": "https://dc.lft.to/lastmile_qr_scan"}, "fusion_lon": 0.0}, {"lat": 38.921124, "is_disabled": 0, "type": "electric_bike", "lon": -77.05169316666667, "bike_id": "ed76349592ada33ebdabc816b1c38893", "fusion_lat": 0.0, "name": "ed76349592ada33ebdabc816b1c38893", "is_reserved": 0, "rental_uris": {"android": "https://dc.lft.to/lastmile_qr_scan", "ios": "https://dc.lft.to/lastmile_qr_scan"}, "fusion_lon": 0.0}, {"lat": 38.93987466666667, "is_disabled": 0, "type": "electric_scooter", "lon": -77.02888983333334, "bike_id": "4abc41aac75675b46597462308cc352b", "fusion_lat": 0.0, "name": "4abc41aac75675b46597462308cc352b", "is_reserved": 0, "rental_uris": {"android": "https://dc.lft.to/lastmile_qr_scan", "ios": "https://dc.lft.to/lastmile_qr_scan"}, "fusion_lon": 0.0}, {"lat": 38.8973085, "is_disabled": 0, "type": "electric_scooter", "lon": -77.04987966666667, "bike_id": "6c05a3b1e58e9892e91ef0399f502350", "fusion_lat": 0.0, "name": "6c05a3b1e58e9892e91ef0399f502350", "is_reserved": 0, "rental_uris": {"android": "https://dc.lft.to/lastmile_qr_scan", "ios": "https://dc.lft.to/lastmile_qr_scan"}, "fusion_lon": 0.0}, {"lat": 38.93073966666667, "is_disabled": 0, "type": "electric_scooter", "lon": -77.03132983333333, "bike_id": "e31e44f10cce54942aed761f5d9ee541", "fusion_lat": 0.0, "name": "e31e44f10cce54942aed761f5d9ee541", "is_reserved": 0, "rental_uris": {"android": "https://dc.lft.to/lastmile_qr_scan", "ios": "https://dc.lft.to/lastmile_qr_scan"}, "fusion_lon": 0.0}, {"lat": 38.93092033333333, "is_disabled": 0, "type": "electric_scooter", "lon": -77.02578033333333, "bike_id": "2139663bb342e2a6c97a168a9e084696", "fusion_lat": 0.0, "name": "2139663bb342e2a6c97a168a9e084696", "is_reserved": 0, "rental_uris": {"android": "https://dc.lft.to/lastmile_qr_scan", "ios": "https://dc.lft.to/lastmile_qr_scan"}, "fusion_lon": 0.0}, {"lat": 38.91672466666667, "is_disabled": 0, "type": "electric_scooter", "lon": -77.02718483333334, "bike_id": "fb2e1bbccc88e66d5e16a5eebf164d6d", "fusion_lat": 0.0, "name": "fb2e1bbccc88e66d5e16a5eebf164d6d", "is_reserved": 0, "rental_uris": {"android": "https://dc.lft.to/lastmile_qr_scan", "ios": "https://dc.lft.to/lastmile_qr_scan"}, "fusion_lon": 0.0}, {"lat": 38.942355666666664, "is_disabled": 0, "type": "electric_scooter", "lon": -77.07240483333334, "bike_id": "d35f172ebfa17170274f0116e199958a", "fusion_lat": 0.0, "name": "d35f172ebfa17170274f0116e199958a", "is_reserved": 0, "rental_uris": {"android": "https://dc.lft.to/lastmile_qr_scan", "ios": "https://dc.lft.to/lastmile_qr_scan"}, "fusion_lon": 0.0}, {"lat": 38.94903166666667, "is_disabled": 0, "type": "electric_bike", "lon": -76.97243633333333, "bike_id": "978fcaad7c20502dd5cbd782710eda8c", "fusion_lat": 0.0, "name": "978fcaad7c20502dd5cbd782710eda8c", "is_reserved": 0, "rental_uris": {"android": "https://dc.lft.to/lastmile_qr_scan", "ios": "https://dc.lft.to/lastmile_qr_scan"}, "fusion_lon": 0.0}, {"lat": 38.91690533333333, "is_disabled": 0, "type": "electric_scooter", "lon": -77.02944583333333, "bike_id": "b281529ac4a91d32baef81ad5ee64f1b", "fusion_lat": 0.0, "name": "b281529ac4a91d32baef81ad5ee64f1b", "is_reserved": 0, "rental_uris": {"android": "https://dc.lft.to/lastmile_qr_scan", "ios": "https://dc.lft.to/lastmile_qr_scan"}, "fusion_lon": 0.0}, {"lat": 38.8984135, "is_disabled": 0, "type": "electric_scooter", "lon": -77.03331, "bike_id": "2779ea15e2124b34b151043fe96ca0e5", "fusion_lat": 0.0, "name": "2779ea15e2124b34b151043fe96ca0e5", "is_reserved": 0, "rental_uris": {"android": "https://dc.lft.to/lastmile_qr_scan", "ios": "https://dc.lft.to/lastmile_qr_scan"}, "fusion_lon": 0.0}, {"lat": 38.9660675, "is_disabled": 0, "type": "electric_bike", "lon": -76.98332866666667, "bike_id": "0f07fe5e7fc7fb7870f204f7d5f5b870", "fusion_lat": 0.0, "name": "0f07fe5e7fc7fb7870f204f7d5f5b870", "is_reserved": 0, "rental_uris": {"android": "https://dc.lft.to/lastmile_qr_scan", "ios": "https://dc.lft.to/lastmile_qr_scan"}, "fusion_lon": 0.0}, {"lat": 38.938238, "is_disabled": 0, "type": "electric_scooter", "lon": -77.06045566666667, "bike_id": "b77a7ea51a6e64d6297fe3408193b42f", "fusion_lat": 0.0, "name": "b77a7ea51a6e64d6297fe3408193b42f", "is_reserved": 0, "rental_uris": {"android": "https://dc.lft.to/lastmile_qr_scan", "ios": "https://dc.lft.to/lastmile_qr_scan"}, "fusion_lon": 0.0}, {"lat": 38.89244583333333, "is_disabled": 0, "type": "electric_scooter", "lon": -77.04877283333333, "bike_id": "8052e5a67b9e426b42e565b3004104c3", "fusion_lat": 0.0, "name": "8052e5a67b9e426b42e565b3004104c3", "is_reserved": 0, "rental_uris": {"android": "https://dc.lft.to/lastmile_qr_scan", "ios": "https://dc.lft.to/lastmile_qr_scan"}, "fusion_lon": 0.0}, {"lat": 38.9069365, "is_disabled": 0, "type": "electric_scooter", "lon": -77.03757366666666, "bike_id": "8c7283821bdf9910248a432e919b9827", "fusion_lat": 0.0, "name": "8c7283821bdf9910248a432e919b9827", "is_reserved": 0, "rental_uris": {"android": "https://dc.lft.to/lastmile_qr_scan", "ios": "https://dc.lft.to/lastmile_qr_scan"}, "fusion_lon": 0.0}, {"lat": 38.920390166666664, "is_disabled": 0, "type": "electric_scooter", "lon": -77.02623366666667, "bike_id": "5e51249b6c327e91fe05de3bd2d1b684", "fusion_lat": 0.0, "name": "5e51249b6c327e91fe05de3bd2d1b684", "is_reserved": 0, "rental_uris": {"android": "https://dc.lft.to/lastmile_qr_scan", "ios": "https://dc.lft.to/lastmile_qr_scan"}, "fusion_lon": 0.0}, {"lat": 38.898380833333334, "is_disabled": 0, "type": "electric_scooter", "lon": -76.93104733333334, "bike_id": "3724af6c6d6a85353d352bab9416d96f", "fusion_lat": 0.0, "name": "3724af6c6d6a85353d352bab9416d96f", "is_reserved": 0, "rental_uris": {"android": "https://dc.lft.to/lastmile_qr_scan", "ios": "https://dc.lft.to/lastmile_qr_scan"}, "fusion_lon": 0.0}, {"lat": 38.9311565, "is_disabled": 0, "type": "electric_scooter", "lon": -77.02348616666667, "bike_id": "e08ec8d7ae2c926b3b52ac0f9dbe9449", "fusion_lat": 0.0, "name": "e08ec8d7ae2c926b3b52ac0f9dbe9449", "is_reserved": 0, "rental_uris": {"android": "https://dc.lft.to/lastmile_qr_scan", "ios": "https://dc.lft.to/lastmile_qr_scan"}, "fusion_lon": 0.0}, {"lat": 38.925740166666664, "is_disabled": 0, "type": "electric_scooter", "lon": -76.970063, "bike_id": "b468a0c284adaa584296abc4402ed693", "fusion_lat": 0.0, "name": "b468a0c284adaa584296abc4402ed693", "is_reserved": 0, "rental_uris": {"android": "https://dc.lft.to/lastmile_qr_scan", "ios": "https://dc.lft.to/lastmile_qr_scan"}, "fusion_lon": 0.0}, {"lat": 38.93735683333333, "is_disabled": 0, "type": "electric_scooter", "lon": -77.03262383333333, "bike_id": "9085598a4b97f4a23763212e6f0767eb", "fusion_lat": 0.0, "name": "9085598a4b97f4a23763212e6f0767eb", "is_reserved": 0, "rental_uris": {"android": "https://dc.lft.to/lastmile_qr_scan", "ios": "https://dc.lft.to/lastmile_qr_scan"}, "fusion_lon": 0.0}, {"lat": 38.899733833333336, "is_disabled": 0, "type": "electric_scooter", "lon": -76.98381883333333, "bike_id": "afa749c686eac3cd81c5724b20e6862c", "fusion_lat": 0.0, "name": "afa749c686eac3cd81c5724b20e6862c", "is_reserved": 0, "rental_uris": {"android": "https://dc.lft.to/lastmile_qr_scan", "ios": "https://dc.lft.to/lastmile_qr_scan"}, "fusion_lon": 0.0}, {"lat": 38.9133535, "is_disabled": 0, "type": "electric_scooter", "lon": -77.04808083333333, "bike_id": "aa36f5f1d632e8a73816671e731341d1", "fusion_lat": 0.0, "name": "aa36f5f1d632e8a73816671e731341d1", "is_reserved": 0, "rental_uris": {"android": "https://dc.lft.to/lastmile_qr_scan", "ios": "https://dc.lft.to/lastmile_qr_scan"}, "fusion_lon": 0.0}, {"lat": 38.92543633333333, "is_disabled": 0, "type": "electric_scooter", "lon": -77.03294483333333, "bike_id": "c2d645cc33bb71d35c24e3cab6e19596", "fusion_lat": 0.0, "name": "c2d645cc33bb71d35c24e3cab6e19596", "is_reserved": 0, "rental_uris": {"android": "https://dc.lft.to/lastmile_qr_scan", "ios": "https://dc.lft.to/lastmile_qr_scan"}, "fusion_lon": 0.0}, {"lat": 38.90813766666667, "is_disabled": 0, "type": "electric_scooter", "lon": -77.04173233333333, "bike_id": "04d9116c12fa101ff6109ef975846531", "fusion_lat": 0.0, "name": "04d9116c12fa101ff6109ef975846531", "is_reserved": 0, "rental_uris": {"android": "https://dc.lft.to/lastmile_qr_scan", "ios": "https://dc.lft.to/lastmile_qr_scan"}, "fusion_lon": 0.0}, {"lat": 38.93315166666667, "is_disabled": 0, "type": "electric_scooter", "lon": -77.034451, "bike_id": "b0e45a167648b6e39e2868b523c2553b", "fusion_lat": 0.0, "name": "b0e45a167648b6e39e2868b523c2553b", "is_reserved": 0, "rental_uris": {"android": "https://dc.lft.to/lastmile_qr_scan", "ios": "https://dc.lft.to/lastmile_qr_scan"}, "fusion_lon": 0.0}, {"lat": 38.93196833333333, "is_disabled": 0, "type": "electric_scooter", "lon": -77.0386155, "bike_id": "216b750eb1e4248b6e6e5f0330f0b9c6", "fusion_lat": 0.0, "name": "216b750eb1e4248b6e6e5f0330f0b9c6", "is_reserved": 0, "rental_uris": {"android": "https://dc.lft.to/lastmile_qr_scan", "ios": "https://dc.lft.to/lastmile_qr_scan"}, "fusion_lon": 0.0}, {"lat": 38.90226633333333, "is_disabled": 0, "type": "electric_scooter", "lon": -77.038633, "bike_id": "d9878c0ceaebe304ca2f02d2356e8ca4", "fusion_lat": 0.0, "name": "d9878c0ceaebe304ca2f02d2356e8ca4", "is_reserved": 0, "rental_uris": {"android": "https://dc.lft.to/lastmile_qr_scan", "ios": "https://dc.lft.to/lastmile_qr_scan"}, "fusion_lon": 0.0}, {"lat": 38.887314333333336, "is_disabled": 0, "type": "electric_scooter", "lon": -77.003267, "bike_id": "a6d96c98a241c81d39c9c065a15036b6", "fusion_lat": 0.0, "name": "a6d96c98a241c81d39c9c065a15036b6", "is_reserved": 0, "rental_uris": {"android": "https://dc.lft.to/lastmile_qr_scan", "ios": "https://dc.lft.to/lastmile_qr_scan"}, "fusion_lon": 0.0}, {"lat": 38.902666333333336, "is_disabled": 0, "type": "electric_scooter", "lon": -77.04603366666667, "bike_id": "8685952824bf52f954a49080ba2772b8", "fusion_lat": 0.0, "name": "8685952824bf52f954a49080ba2772b8", "is_reserved": 0, "rental_uris": {"android": "https://dc.lft.to/lastmile_qr_scan", "ios": "https://dc.lft.to/lastmile_qr_scan"}, "fusion_lon": 0.0}, {"lat": 38.922557166666664, "is_disabled": 0, "type": "electric_scooter", "lon": -77.0425125, "bike_id": "4cdf91a75e7f0d336d55cc508f3e92f6", "fusion_lat": 0.0, "name": "4cdf91a75e7f0d336d55cc508f3e92f6", "is_reserved": 0, "rental_uris": {"android": "https://dc.lft.to/lastmile_qr_scan", "ios": "https://dc.lft.to/lastmile_qr_scan"}, "fusion_lon": 0.0}, {"lat": 38.924745, "is_disabled": 0, "type": "electric_scooter", "lon": -77.04178333333333, "bike_id": "b7e6ea7f084d5cbbbc788dae651f268a", "fusion_lat": 0.0, "name": "b7e6ea7f084d5cbbbc788dae651f268a", "is_reserved": 0, "rental_uris": {"android": "https://dc.lft.to/lastmile_qr_scan", "ios": "https://dc.lft.to/lastmile_qr_scan"}, "fusion_lon": 0.0}, {"lat": 38.9001605, "is_disabled": 0, "type": "electric_scooter", "lon": -77.040232, "bike_id": "6138eb6f3cf9c39eb20d5ed58e9d46a7", "fusion_lat": 0.0, "name": "6138eb6f3cf9c39eb20d5ed58e9d46a7", "is_reserved": 0, "rental_uris": {"android": "https://dc.lft.to/lastmile_qr_scan", "ios": "https://dc.lft.to/lastmile_qr_scan"}, "fusion_lon": 0.0}, {"lat": 38.934637, "is_disabled": 0, "type": "electric_scooter", "lon": -77.036992, "bike_id": "79e17851864277bde39315ea9744f38e", "fusion_lat": 0.0, "name": "79e17851864277bde39315ea9744f38e", "is_reserved": 0, "rental_uris": {"android": "https://dc.lft.to/lastmile_qr_scan", "ios": "https://dc.lft.to/lastmile_qr_scan"}, "fusion_lon": 0.0}, {"lat": 38.880057, "is_disabled": 0, "type": "electric_bike", "lon": -77.00572766666667, "bike_id": "83d83aa9044c31cbddee0953174d49ca", "fusion_lat": 0.0, "name": "83d83aa9044c31cbddee0953174d49ca", "is_reserved": 0, "rental_uris": {"android": "https://dc.lft.to/lastmile_qr_scan", "ios": "https://dc.lft.to/lastmile_qr_scan"}, "fusion_lon": 0.0}, {"lat": 38.93009216666667, "is_disabled": 0, "type": "electric_scooter", "lon": -77.05525016666667, "bike_id": "56b17f0b34ccb72426e8ba0ea9a9ff24", "fusion_lat": 0.0, "name": "56b17f0b34ccb72426e8ba0ea9a9ff24", "is_reserved": 0, "rental_uris": {"android": "https://dc.lft.to/lastmile_qr_scan", "ios": "https://dc.lft.to/lastmile_qr_scan"}, "fusion_lon": 0.0}, {"lat": 38.92074916666667, "is_disabled": 0, "type": "electric_scooter", "lon": -77.02315266666666, "bike_id": "b94d5780049f223e5e55b5910a6355c5", "fusion_lat": 0.0, "name": "b94d5780049f223e5e55b5910a6355c5", "is_reserved": 0, "rental_uris": {"android": "https://dc.lft.to/lastmile_qr_scan", "ios": "https://dc.lft.to/lastmile_qr_scan"}, "fusion_lon": 0.0}, {"lat": 38.90268283333333, "is_disabled": 0, "type": "electric_scooter", "lon": -77.034427, "bike_id": "38ecb93f48ff6db2e8ece59af4afac48", "fusion_lat": 0.0, "name": "38ecb93f48ff6db2e8ece59af4afac48", "is_reserved": 0, "rental_uris": {"android": "https://dc.lft.to/lastmile_qr_scan", "ios": "https://dc.lft.to/lastmile_qr_scan"}, "fusion_lon": 0.0}, {"lat": 38.91675933333333, "is_disabled": 0, "type": "electric_scooter", "lon": -77.03690683333333, "bike_id": "e630f543eba15af1b8f15b976014cf1f", "fusion_lat": 0.0, "name": "e630f543eba15af1b8f15b976014cf1f", "is_reserved": 0, "rental_uris": {"android": "https://dc.lft.to/lastmile_qr_scan", "ios": "https://dc.lft.to/lastmile_qr_scan"}, "fusion_lon": 0.0}, {"lat": 38.905014, "is_disabled": 0, "type": "electric_scooter", "lon": -77.05122716666666, "bike_id": "c00bd1689ca7e4f7e01f546a4c0261df", "fusion_lat": 0.0, "name": "c00bd1689ca7e4f7e01f546a4c0261df", "is_reserved": 0, "rental_uris": {"android": "https://dc.lft.to/lastmile_qr_scan", "ios": "https://dc.lft.to/lastmile_qr_scan"}, "fusion_lon": 0.0}, {"lat": 38.91714116666667, "is_disabled": 0, "type": "electric_scooter", "lon": -77.02958233333334, "bike_id": "02a3bf2d2e0243dbcdce6bb2777f4079", "fusion_lat": 0.0, "name": "02a3bf2d2e0243dbcdce6bb2777f4079", "is_reserved": 0, "rental_uris": {"android": "https://dc.lft.to/lastmile_qr_scan", "ios": "https://dc.lft.to/lastmile_qr_scan"}, "fusion_lon": 0.0}, {"lat": 38.913429666666666, "is_disabled": 0, "type": "electric_scooter", "lon": -77.01064183333334, "bike_id": "7ac4dd595b594f5d4ae108ef324213c8", "fusion_lat": 0.0, "name": "7ac4dd595b594f5d4ae108ef324213c8", "is_reserved": 0, "rental_uris": {"android": "https://dc.lft.to/lastmile_qr_scan", "ios": "https://dc.lft.to/lastmile_qr_scan"}, "fusion_lon": 0.0}, {"lat": 38.886090833333334, "is_disabled": 0, "type": "electric_scooter", "lon": -77.0216845, "bike_id": "62703173102cb2731b5ec282bfd96f92", "fusion_lat": 0.0, "name": "62703173102cb2731b5ec282bfd96f92", "is_reserved": 0, "rental_uris": {"android": "https://dc.lft.to/lastmile_qr_scan", "ios": "https://dc.lft.to/lastmile_qr_scan"}, "fusion_lon": 0.0}, {"lat": 38.9463035, "is_disabled": 0, "type": "electric_scooter", "lon": -77.0252195, "bike_id": "942dbe64661b0b6c7135b8917df517dc", "fusion_lat": 0.0, "name": "942dbe64661b0b6c7135b8917df517dc", "is_reserved": 0, "rental_uris": {"android": "https://dc.lft.to/lastmile_qr_scan", "ios": "https://dc.lft.to/lastmile_qr_scan"}, "fusion_lon": 0.0}, {"lat": 38.92149283333333, "is_disabled": 0, "type": "electric_scooter", "lon": -77.04234666666666, "bike_id": "93a732b1c738c4dcb46d93d50f228810", "fusion_lat": 0.0, "name": "93a732b1c738c4dcb46d93d50f228810", "is_reserved": 0, "rental_uris": {"android": "https://dc.lft.to/lastmile_qr_scan", "ios": "https://dc.lft.to/lastmile_qr_scan"}, "fusion_lon": 0.0}, {"lat": 38.87894816666667, "is_disabled": 0, "type": "electric_scooter", "lon": -77.02304383333333, "bike_id": "5d49f14b7dc913de1ce75b3f29d8e3df", "fusion_lat": 0.0, "name": "5d49f14b7dc913de1ce75b3f29d8e3df", "is_reserved": 0, "rental_uris": {"android": "https://dc.lft.to/lastmile_qr_scan", "ios": "https://dc.lft.to/lastmile_qr_scan"}, "fusion_lon": 0.0}, {"lat": 38.922247166666665, "is_disabled": 0, "type": "electric_scooter", "lon": -77.033469, "bike_id": "e4a303513099e8a7395b225aa928a0fe", "fusion_lat": 0.0, "name": "e4a303513099e8a7395b225aa928a0fe", "is_reserved": 0, "rental_uris": {"android": "https://dc.lft.to/lastmile_qr_scan", "ios": "https://dc.lft.to/lastmile_qr_scan"}, "fusion_lon": 0.0}, {"lat": 38.870918, "is_disabled": 0, "type": "electric_scooter", "lon": -77.0120685, "bike_id": "5376d7648683aac28f58d4c236afc8ef", "fusion_lat": 0.0, "name": "5376d7648683aac28f58d4c236afc8ef", "is_reserved": 0, "rental_uris": {"android": "https://dc.lft.to/lastmile_qr_scan", "ios": "https://dc.lft.to/lastmile_qr_scan"}, "fusion_lon": 0.0}, {"lat": 38.9206085, "is_disabled": 0, "type": "electric_scooter", "lon": -77.04281066666667, "bike_id": "dd152a8a656e9f8e002323636828f63c", "fusion_lat": 0.0, "name": "dd152a8a656e9f8e002323636828f63c", "is_reserved": 0, "rental_uris": {"android": "https://dc.lft.to/lastmile_qr_scan", "ios": "https://dc.lft.to/lastmile_qr_scan"}, "fusion_lon": 0.0}, {"lat": 38.9274315, "is_disabled": 0, "type": "electric_bike", "lon": -77.07760366666666, "bike_id": "dd145b50b49e154173ab5eff4e93d742", "fusion_lat": 0.0, "name": "dd145b50b49e154173ab5eff4e93d742", "is_reserved": 0, "rental_uris": {"android": "https://dc.lft.to/lastmile_qr_scan", "ios": "https://dc.lft.to/lastmile_qr_scan"}, "fusion_lon": 0.0}, {"lat": 38.87476366666667, "is_disabled": 0, "type": "electric_bike", "lon": -77.0081875, "bike_id": "b8c27e6f0fc7b027c2c6043f2088c884", "fusion_lat": 0.0, "name": "b8c27e6f0fc7b027c2c6043f2088c884", "is_reserved": 0, "rental_uris": {"android": "https://dc.lft.to/lastmile_qr_scan", "ios": "https://dc.lft.to/lastmile_qr_scan"}, "fusion_lon": 0.0}, {"lat": 38.955530333333336, "is_disabled": 0, "type": "electric_bike", "lon": -76.93554933333333, "bike_id": "db764a80f9c4d4dfbdb7c1f9c002c1f7", "fusion_lat": 0.0, "name": "db764a80f9c4d4dfbdb7c1f9c002c1f7", "is_reserved": 0, "rental_uris": {"android": "https://dc.lft.to/lastmile_qr_scan", "ios": "https://dc.lft.to/lastmile_qr_scan"}, "fusion_lon": 0.0}, {"lat": 38.957739, "is_disabled": 0, "type": "electric_scooter", "lon": -77.02468216666666, "bike_id": "62bc487f11bb54c453ede591bdce312c", "fusion_lat": 0.0, "name": "62bc487f11bb54c453ede591bdce312c", "is_reserved": 0, "rental_uris": {"android": "https://dc.lft.to/lastmile_qr_scan", "ios": "https://dc.lft.to/lastmile_qr_scan"}, "fusion_lon": 0.0}, {"lat": 38.8634505, "is_disabled": 0, "type": "electric_scooter", "lon": -76.990019, "bike_id": "d49c030416f2fbeac6ea06c1d730765c", "fusion_lat": 0.0, "name": "d49c030416f2fbeac6ea06c1d730765c", "is_reserved": 0, "rental_uris": {"android": "https://dc.lft.to/lastmile_qr_scan", "ios": "https://dc.lft.to/lastmile_qr_scan"}, "fusion_lon": 0.0}, {"lat": 38.921237833333336, "is_disabled": 0, "type": "electric_scooter", "lon": -77.04429666666667, "bike_id": "831b776746466bb9368f6fd50ed69355", "fusion_lat": 0.0, "name": "831b776746466bb9368f6fd50ed69355", "is_reserved": 0, "rental_uris": {"android": "https://dc.lft.to/lastmile_qr_scan", "ios": "https://dc.lft.to/lastmile_qr_scan"}, "fusion_lon": 0.0}, {"lat": 38.87904483333333, "is_disabled": 0, "type": "electric_scooter", "lon": -77.02209266666667, "bike_id": "cb431decf003a4c9f1acbf0216cfc10e", "fusion_lat": 0.0, "name": "cb431decf003a4c9f1acbf0216cfc10e", "is_reserved": 0, "rental_uris": {"android": "https://dc.lft.to/lastmile_qr_scan", "ios": "https://dc.lft.to/lastmile_qr_scan"}, "fusion_lon": 0.0}, {"lat": 38.89816883333334, "is_disabled": 0, "type": "electric_scooter", "lon": -77.0329065, "bike_id": "a83425a88f8f69f7cc52b62a042a81ec", "fusion_lat": 0.0, "name": "a83425a88f8f69f7cc52b62a042a81ec", "is_reserved": 0, "rental_uris": {"android": "https://dc.lft.to/lastmile_qr_scan", "ios": "https://dc.lft.to/lastmile_qr_scan"}, "fusion_lon": 0.0}, {"lat": 38.922008166666664, "is_disabled": 0, "type": "electric_scooter", "lon": -77.042385, "bike_id": "849d4204d81be81bc1308e9e5f36234d", "fusion_lat": 0.0, "name": "849d4204d81be81bc1308e9e5f36234d", "is_reserved": 0, "rental_uris": {"android": "https://dc.lft.to/lastmile_qr_scan", "ios": "https://dc.lft.to/lastmile_qr_scan"}, "fusion_lon": 0.0}, {"lat": 38.842906666666664, "is_disabled": 0, "type": "electric_scooter", "lon": -76.99951633333333, "bike_id": "0bf46aa6d14879f36a3d2d59af02d9b9", "fusion_lat": 0.0, "name": "0bf46aa6d14879f36a3d2d59af02d9b9", "is_reserved": 0, "rental_uris": {"android": "https://dc.lft.to/lastmile_qr_scan", "ios": "https://dc.lft.to/lastmile_qr_scan"}, "fusion_lon": 0.0}, {"lat": 38.9141535, "is_disabled": 0, "type": "electric_scooter", "lon": -77.03069633333334, "bike_id": "64a550dbfd3b7018200436a3c8642147", "fusion_lat": 0.0, "name": "64a550dbfd3b7018200436a3c8642147", "is_reserved": 0, "rental_uris": {"android": "https://dc.lft.to/lastmile_qr_scan", "ios": "https://dc.lft.to/lastmile_qr_scan"}, "fusion_lon": 0.0}, {"lat": 38.8991715, "is_disabled": 0, "type": "electric_scooter", "lon": -76.933794, "bike_id": "5c12bc4a66fee30b1c3b98bd67672d78", "fusion_lat": 0.0, "name": "5c12bc4a66fee30b1c3b98bd67672d78", "is_reserved": 0, "rental_uris": {"android": "https://dc.lft.to/lastmile_qr_scan", "ios": "https://dc.lft.to/lastmile_qr_scan"}, "fusion_lon": 0.0}, {"lat": 38.899769, "is_disabled": 0, "type": "electric_scooter", "lon": -77.03349283333333, "bike_id": "cc083e0c34c5750926e470a9fc0c0131", "fusion_lat": 0.0, "name": "cc083e0c34c5750926e470a9fc0c0131", "is_reserved": 0, "rental_uris": {"android": "https://dc.lft.to/lastmile_qr_scan", "ios": "https://dc.lft.to/lastmile_qr_scan"}, "fusion_lon": 0.0}, {"lat": 38.91555483333333, "is_disabled": 0, "type": "electric_scooter", "lon": -77.031739, "bike_id": "8cfb4d684083992fef13124d4a042430", "fusion_lat": 0.0, "name": "8cfb4d684083992fef13124d4a042430", "is_reserved": 0, "rental_uris": {"android": "https://dc.lft.to/lastmile_qr_scan", "ios": "https://dc.lft.to/lastmile_qr_scan"}, "fusion_lon": 0.0}, {"lat": 38.893678666666666, "is_disabled": 0, "type": "electric_scooter", "lon": -76.949795, "bike_id": "7dabf748fd5b2a82cafee3ec88e35f3c", "fusion_lat": 0.0, "name": "7dabf748fd5b2a82cafee3ec88e35f3c", "is_reserved": 0, "rental_uris": {"android": "https://dc.lft.to/lastmile_qr_scan", "ios": "https://dc.lft.to/lastmile_qr_scan"}, "fusion_lon": 0.0}, {"lat": 38.871877833333336, "is_disabled": 0, "type": "electric_bike", "lon": -77.08418833333333, "bike_id": "44f3c2142f0c9afc27cce3c258b49061", "fusion_lat": 0.0, "name": "44f3c2142f0c9afc27cce3c258b49061", "is_reserved": 0, "rental_uris": {"android": "https://dc.lft.to/lastmile_qr_scan", "ios": "https://dc.lft.to/lastmile_qr_scan"}, "fusion_lon": 0.0}, {"lat": 38.892155, "is_disabled": 0, "type": "electric_scooter", "lon": -77.03981816666666, "bike_id": "9525731f076b74dd19aa8bf8bcf60572", "fusion_lat": 0.0, "name": "9525731f076b74dd19aa8bf8bcf60572", "is_reserved": 0, "rental_uris": {"android": "https://dc.lft.to/lastmile_qr_scan", "ios": "https://dc.lft.to/lastmile_qr_scan"}, "fusion_lon": 0.0}, {"lat": 38.91395766666667, "is_disabled": 0, "type": "electric_scooter", "lon": -77.03179733333333, "bike_id": "38ef4be5e83a3bc7be22776bea6fe967", "fusion_lat": 0.0, "name": "38ef4be5e83a3bc7be22776bea6fe967", "is_reserved": 0, "rental_uris": {"android": "https://dc.lft.to/lastmile_qr_scan", "ios": "https://dc.lft.to/lastmile_qr_scan"}, "fusion_lon": 0.0}, {"lat": 38.898233833333336, "is_disabled": 0, "type": "electric_scooter", "lon": -77.033151, "bike_id": "063b76293498b241796845776a929f2c", "fusion_lat": 0.0, "name": "063b76293498b241796845776a929f2c", "is_reserved": 0, "rental_uris": {"android": "https://dc.lft.to/lastmile_qr_scan", "ios": "https://dc.lft.to/lastmile_qr_scan"}, "fusion_lon": 0.0}, {"lat": 38.932869, "is_disabled": 0, "type": "electric_scooter", "lon": -77.03974466666666, "bike_id": "45af3f015ec50aa8ef481e8041f6449a", "fusion_lat": 0.0, "name": "45af3f015ec50aa8ef481e8041f6449a", "is_reserved": 0, "rental_uris": {"android": "https://dc.lft.to/lastmile_qr_scan", "ios": "https://dc.lft.to/lastmile_qr_scan"}, "fusion_lon": 0.0}, {"lat": 38.92592333333333, "is_disabled": 0, "type": "electric_scooter", "lon": -77.03223366666667, "bike_id": "c40d222c472eeca68dd9eca2ff34c396", "fusion_lat": 0.0, "name": "c40d222c472eeca68dd9eca2ff34c396", "is_reserved": 0, "rental_uris": {"android": "https://dc.lft.to/lastmile_qr_scan", "ios": "https://dc.lft.to/lastmile_qr_scan"}, "fusion_lon": 0.0}, {"lat": 38.896250333333334, "is_disabled": 0, "type": "electric_scooter", "lon": -76.99854333333333, "bike_id": "d88d182d409f12385580667da78b1954", "fusion_lat": 0.0, "name": "d88d182d409f12385580667da78b1954", "is_reserved": 0, "rental_uris": {"android": "https://dc.lft.to/lastmile_qr_scan", "ios": "https://dc.lft.to/lastmile_qr_scan"}, "fusion_lon": 0.0}, {"lat": 38.86907933333333, "is_disabled": 0, "type": "electric_bike", "lon": -77.13182933333333, "bike_id": "6f3af013f442f4285ebdefc16f22c7b5", "fusion_lat": 0.0, "name": "6f3af013f442f4285ebdefc16f22c7b5", "is_reserved": 0, "rental_uris": {"android": "https://dc.lft.to/lastmile_qr_scan", "ios": "https://dc.lft.to/lastmile_qr_scan"}, "fusion_lon": 0.0}, {"lat": 38.93798783333333, "is_disabled": 0, "type": "electric_scooter", "lon": -77.024475, "bike_id": "f9349e4aae9f46835cbb102a824dccd2", "fusion_lat": 0.0, "name": "f9349e4aae9f46835cbb102a824dccd2", "is_reserved": 0, "rental_uris": {"android": "https://dc.lft.to/lastmile_qr_scan", "ios": "https://dc.lft.to/lastmile_qr_scan"}, "fusion_lon": 0.0}, {"lat": 38.8465575, "is_disabled": 0, "type": "electric_bike", "lon": -76.979318, "bike_id": "1265129dde70882bb2247345ba915a20", "fusion_lat": 0.0, "name": "1265129dde70882bb2247345ba915a20", "is_reserved": 0, "rental_uris": {"android": "https://dc.lft.to/lastmile_qr_scan", "ios": "https://dc.lft.to/lastmile_qr_scan"}, "fusion_lon": 0.0}, {"lat": 38.920255833333336, "is_disabled": 0, "type": "electric_scooter", "lon": -77.03140616666667, "bike_id": "985df618dd8e53cf9a4efac2cdfceac9", "fusion_lat": 0.0, "name": "985df618dd8e53cf9a4efac2cdfceac9", "is_reserved": 0, "rental_uris": {"android": "https://dc.lft.to/lastmile_qr_scan", "ios": "https://dc.lft.to/lastmile_qr_scan"}, "fusion_lon": 0.0}, {"lat": 38.89991583333333, "is_disabled": 0, "type": "electric_scooter", "lon": -77.02342416666667, "bike_id": "9e01d03255fe058cbbab4f10001f100a", "fusion_lat": 0.0, "name": "9e01d03255fe058cbbab4f10001f100a", "is_reserved": 0, "rental_uris": {"android": "https://dc.lft.to/lastmile_qr_scan", "ios": "https://dc.lft.to/lastmile_qr_scan"}, "fusion_lon": 0.0}, {"lat": 38.895068333333334, "is_disabled": 0, "type": "electric_scooter", "lon": -77.02289233333333, "bike_id": "4f121bf49c82adf1eab341810c91c048", "fusion_lat": 0.0, "name": "4f121bf49c82adf1eab341810c91c048", "is_reserved": 0, "rental_uris": {"android": "https://dc.lft.to/lastmile_qr_scan", "ios": "https://dc.lft.to/lastmile_qr_scan"}, "fusion_lon": 0.0}, {"lat": 38.91709433333333, "is_disabled": 0, "type": "electric_scooter", "lon": -77.02501966666667, "bike_id": "152e9fa9f266c3d7c0869cfa4dcb07b5", "fusion_lat": 0.0, "name": "152e9fa9f266c3d7c0869cfa4dcb07b5", "is_reserved": 0, "rental_uris": {"android": "https://dc.lft.to/lastmile_qr_scan", "ios": "https://dc.lft.to/lastmile_qr_scan"}, "fusion_lon": 0.0}, {"lat": 38.83936583333333, "is_disabled": 0, "type": "electric_bike", "lon": -77.0790555, "bike_id": "679e1dd93b37647affd954b79e700e9b", "fusion_lat": 0.0, "name": "679e1dd93b37647affd954b79e700e9b", "is_reserved": 0, "rental_uris": {"android": "https://dc.lft.to/lastmile_qr_scan", "ios": "https://dc.lft.to/lastmile_qr_scan"}, "fusion_lon": 0.0}, {"lat": 38.9205095, "is_disabled": 0, "type": "electric_scooter", "lon": -77.02375016666667, "bike_id": "b95be124e2f03c4dd4468c16ccc9e197", "fusion_lat": 0.0, "name": "b95be124e2f03c4dd4468c16ccc9e197", "is_reserved": 0, "rental_uris": {"android": "https://dc.lft.to/lastmile_qr_scan", "ios": "https://dc.lft.to/lastmile_qr_scan"}, "fusion_lon": 0.0}, {"lat": 38.91565766666667, "is_disabled": 0, "type": "electric_scooter", "lon": -77.03237383333334, "bike_id": "4b84bf7db8299c0fe644ff9a029b59ad", "fusion_lat": 0.0, "name": "4b84bf7db8299c0fe644ff9a029b59ad", "is_reserved": 0, "rental_uris": {"android": "https://dc.lft.to/lastmile_qr_scan", "ios": "https://dc.lft.to/lastmile_qr_scan"}, "fusion_lon": 0.0}, {"lat": 38.925019, "is_disabled": 0, "type": "electric_scooter", "lon": -77.00892466666667, "bike_id": "6b5827dc8b0c3aaeb7ce3b994d3c2d31", "fusion_lat": 0.0, "name": "6b5827dc8b0c3aaeb7ce3b994d3c2d31", "is_reserved": 0, "rental_uris": {"android": "https://dc.lft.to/lastmile_qr_scan", "ios": "https://dc.lft.to/lastmile_qr_scan"}, "fusion_lon": 0.0}, {"lat": 38.8808165, "is_disabled": 0, "type": "electric_scooter", "lon": -76.92730033333333, "bike_id": "c4e1bf7040b407363ed9629e2992fa7c", "fusion_lat": 0.0, "name": "c4e1bf7040b407363ed9629e2992fa7c", "is_reserved": 0, "rental_uris": {"android": "https://dc.lft.to/lastmile_qr_scan", "ios": "https://dc.lft.to/lastmile_qr_scan"}, "fusion_lon": 0.0}, {"lat": 38.89370683333333, "is_disabled": 0, "type": "electric_scooter", "lon": -76.95003083333333, "bike_id": "da69b737b73f69024887e9fa47020650", "fusion_lat": 0.0, "name": "da69b737b73f69024887e9fa47020650", "is_reserved": 0, "rental_uris": {"android": "https://dc.lft.to/lastmile_qr_scan", "ios": "https://dc.lft.to/lastmile_qr_scan"}, "fusion_lon": 0.0}, {"lat": 38.8834245, "is_disabled": 0, "type": "electric_scooter", "lon": -77.03148883333333, "bike_id": "09c2c7544d5ddf447d2d00b6146651ab", "fusion_lat": 0.0, "name": "09c2c7544d5ddf447d2d00b6146651ab", "is_reserved": 0, "rental_uris": {"android": "https://dc.lft.to/lastmile_qr_scan", "ios": "https://dc.lft.to/lastmile_qr_scan"}, "fusion_lon": 0.0}, {"lat": 38.9233875, "is_disabled": 0, "type": "electric_scooter", "lon": -77.01901483333333, "bike_id": "099f24f05edef0d7048de7558f831747", "fusion_lat": 0.0, "name": "099f24f05edef0d7048de7558f831747", "is_reserved": 0, "rental_uris": {"android": "https://dc.lft.to/lastmile_qr_scan", "ios": "https://dc.lft.to/lastmile_qr_scan"}, "fusion_lon": 0.0}, {"lat": 38.90518016666667, "is_disabled": 0, "type": "electric_scooter", "lon": -77.05334433333333, "bike_id": "7f88f079a9016550c79aa2526db5b30e", "fusion_lat": 0.0, "name": "7f88f079a9016550c79aa2526db5b30e", "is_reserved": 0, "rental_uris": {"android": "https://dc.lft.to/lastmile_qr_scan", "ios": "https://dc.lft.to/lastmile_qr_scan"}, "fusion_lon": 0.0}, {"lat": 38.917863, "is_disabled": 0, "type": "electric_scooter", "lon": -77.023361, "bike_id": "6b2eee09c03547a779ca87c5b25fa250", "fusion_lat": 0.0, "name": "6b2eee09c03547a779ca87c5b25fa250", "is_reserved": 0, "rental_uris": {"android": "https://dc.lft.to/lastmile_qr_scan", "ios": "https://dc.lft.to/lastmile_qr_scan"}, "fusion_lon": 0.0}, {"lat": 38.89358166666667, "is_disabled": 0, "type": "electric_scooter", "lon": -77.003341, "bike_id": "6361ff514939b71c060ba513111a37c9", "fusion_lat": 0.0, "name": "6361ff514939b71c060ba513111a37c9", "is_reserved": 0, "rental_uris": {"android": "https://dc.lft.to/lastmile_qr_scan", "ios": "https://dc.lft.to/lastmile_qr_scan"}, "fusion_lon": 0.0}, {"lat": 38.90024566666666, "is_disabled": 0, "type": "electric_scooter", "lon": -76.99874633333333, "bike_id": "c31308c0bd1230bc70f5ab7055e7b94c", "fusion_lat": 0.0, "name": "c31308c0bd1230bc70f5ab7055e7b94c", "is_reserved": 0, "rental_uris": {"android": "https://dc.lft.to/lastmile_qr_scan", "ios": "https://dc.lft.to/lastmile_qr_scan"}, "fusion_lon": 0.0}, {"lat": 38.8610435, "is_disabled": 0, "type": "electric_scooter", "lon": -76.9836595, "bike_id": "83e4158faae712d4235f6c3f45edffe9", "fusion_lat": 0.0, "name": "83e4158faae712d4235f6c3f45edffe9", "is_reserved": 0, "rental_uris": {"android": "https://dc.lft.to/lastmile_qr_scan", "ios": "https://dc.lft.to/lastmile_qr_scan"}, "fusion_lon": 0.0}, {"lat": 38.919169333333336, "is_disabled": 0, "type": "electric_scooter", "lon": -77.02178333333333, "bike_id": "365003fdbf07214bd2e1fe6031d9573a", "fusion_lat": 0.0, "name": "365003fdbf07214bd2e1fe6031d9573a", "is_reserved": 0, "rental_uris": {"android": "https://dc.lft.to/lastmile_qr_scan", "ios": "https://dc.lft.to/lastmile_qr_scan"}, "fusion_lon": 0.0}, {"lat": 38.91336483333333, "is_disabled": 0, "type": "electric_scooter", "lon": -77.00226866666667, "bike_id": "f1d9c73786b919699fe69ae292334143", "fusion_lat": 0.0, "name": "f1d9c73786b919699fe69ae292334143", "is_reserved": 0, "rental_uris": {"android": "https://dc.lft.to/lastmile_qr_scan", "ios": "https://dc.lft.to/lastmile_qr_scan"}, "fusion_lon": 0.0}, {"lat": 38.905158166666666, "is_disabled": 0, "type": "electric_scooter", "lon": -77.04757616666667, "bike_id": "bf6ef895b39c46a90149f432befa0600", "fusion_lat": 0.0, "name": "bf6ef895b39c46a90149f432befa0600", "is_reserved": 0, "rental_uris": {"android": "https://dc.lft.to/lastmile_qr_scan", "ios": "https://dc.lft.to/lastmile_qr_scan"}, "fusion_lon": 0.0}, {"lat": 38.966680833333335, "is_disabled": 0, "type": "electric_scooter", "lon": -77.02412566666666, "bike_id": "5676f7a29130a501faf17db03644cd1f", "fusion_lat": 0.0, "name": "5676f7a29130a501faf17db03644cd1f", "is_reserved": 0, "rental_uris": {"android": "https://dc.lft.to/lastmile_qr_scan", "ios": "https://dc.lft.to/lastmile_qr_scan"}, "fusion_lon": 0.0}, {"lat": 38.91011266666667, "is_disabled": 0, "type": "electric_scooter", "lon": -76.99390733333334, "bike_id": "6deabfc9ad2de76ecb9e0a90385844cd", "fusion_lat": 0.0, "name": "6deabfc9ad2de76ecb9e0a90385844cd", "is_reserved": 0, "rental_uris": {"android": "https://dc.lft.to/lastmile_qr_scan", "ios": "https://dc.lft.to/lastmile_qr_scan"}, "fusion_lon": 0.0}, {"lat": 38.90346783333333, "is_disabled": 0, "type": "electric_scooter", "lon": -77.03329183333334, "bike_id": "35cd0ad519e0b71f522dc81fecdc1441", "fusion_lat": 0.0, "name": "35cd0ad519e0b71f522dc81fecdc1441", "is_reserved": 0, "rental_uris": {"android": "https://dc.lft.to/lastmile_qr_scan", "ios": "https://dc.lft.to/lastmile_qr_scan"}, "fusion_lon": 0.0}, {"lat": 38.91698183333333, "is_disabled": 0, "type": "electric_scooter", "lon": -77.0228685, "bike_id": "46a6704bfdcf55727c60abd4b6a02222", "fusion_lat": 0.0, "name": "46a6704bfdcf55727c60abd4b6a02222", "is_reserved": 0, "rental_uris": {"android": "https://dc.lft.to/lastmile_qr_scan", "ios": "https://dc.lft.to/lastmile_qr_scan"}, "fusion_lon": 0.0}, {"lat": 38.944350166666666, "is_disabled": 0, "type": "electric_scooter", "lon": -76.99211433333333, "bike_id": "7c07d2aeca147779ec2e6d09b79e2a25", "fusion_lat": 0.0, "name": "7c07d2aeca147779ec2e6d09b79e2a25", "is_reserved": 0, "rental_uris": {"android": "https://dc.lft.to/lastmile_qr_scan", "ios": "https://dc.lft.to/lastmile_qr_scan"}, "fusion_lon": 0.0}, {"lat": 38.93472, "is_disabled": 0, "type": "electric_scooter", "lon": -77.01926816666666, "bike_id": "3ff99d1cd7ffc4b3669ba9ee8546199e", "fusion_lat": 0.0, "name": "3ff99d1cd7ffc4b3669ba9ee8546199e", "is_reserved": 0, "rental_uris": {"android": "https://dc.lft.to/lastmile_qr_scan", "ios": "https://dc.lft.to/lastmile_qr_scan"}, "fusion_lon": 0.0}, {"lat": 38.88121833333334, "is_disabled": 0, "type": "electric_scooter", "lon": -77.00101916666667, "bike_id": "35e98db386ed3b32b2303edfa128d65c", "fusion_lat": 0.0, "name": "35e98db386ed3b32b2303edfa128d65c", "is_reserved": 0, "rental_uris": {"android": "https://dc.lft.to/lastmile_qr_scan", "ios": "https://dc.lft.to/lastmile_qr_scan"}, "fusion_lon": 0.0}, {"lat": 38.886161666666666, "is_disabled": 0, "type": "electric_scooter", "lon": -77.02170966666667, "bike_id": "d36fcb0577132d6e5fd9923a04b3a214", "fusion_lat": 0.0, "name": "d36fcb0577132d6e5fd9923a04b3a214", "is_reserved": 0, "rental_uris": {"android": "https://dc.lft.to/lastmile_qr_scan", "ios": "https://dc.lft.to/lastmile_qr_scan"}, "fusion_lon": 0.0}, {"lat": 38.893947, "is_disabled": 0, "type": "electric_scooter", "lon": -77.010859, "bike_id": "f5b371a809910bd355b4c0cdbb47670c", "fusion_lat": 0.0, "name": "f5b371a809910bd355b4c0cdbb47670c", "is_reserved": 0, "rental_uris": {"android": "https://dc.lft.to/lastmile_qr_scan", "ios": "https://dc.lft.to/lastmile_qr_scan"}, "fusion_lon": 0.0}, {"lat": 38.9060495, "is_disabled": 0, "type": "electric_scooter", "lon": -77.041174, "bike_id": "7aeeb10e2fec1341cc7170f791c86428", "fusion_lat": 0.0, "name": "7aeeb10e2fec1341cc7170f791c86428", "is_reserved": 0, "rental_uris": {"android": "https://dc.lft.to/lastmile_qr_scan", "ios": "https://dc.lft.to/lastmile_qr_scan"}, "fusion_lon": 0.0}, {"lat": 38.8952715, "is_disabled": 0, "type": "electric_bike", "lon": -77.073638, "bike_id": "0a09f3b90f5af1a335aac80eb1a814ab", "fusion_lat": 0.0, "name": "0a09f3b90f5af1a335aac80eb1a814ab", "is_reserved": 0, "rental_uris": {"android": "https://dc.lft.to/lastmile_qr_scan", "ios": "https://dc.lft.to/lastmile_qr_scan"}, "fusion_lon": 0.0}, {"lat": 38.912637833333335, "is_disabled": 0, "type": "electric_scooter", "lon": -77.03399683333333, "bike_id": "cab30a77c533c3e1d07390bdef576836", "fusion_lat": 0.0, "name": "cab30a77c533c3e1d07390bdef576836", "is_reserved": 0, "rental_uris": {"android": "https://dc.lft.to/lastmile_qr_scan", "ios": "https://dc.lft.to/lastmile_qr_scan"}, "fusion_lon": 0.0}, {"lat": 38.89346466666667, "is_disabled": 0, "type": "electric_scooter", "lon": -76.94936733333333, "bike_id": "ac1760ce213e456584a164cfa8b5b180", "fusion_lat": 0.0, "name": "ac1760ce213e456584a164cfa8b5b180", "is_reserved": 0, "rental_uris": {"android": "https://dc.lft.to/lastmile_qr_scan", "ios": "https://dc.lft.to/lastmile_qr_scan"}, "fusion_lon": 0.0}, {"lat": 38.881797, "is_disabled": 0, "type": "electric_scooter", "lon": -77.03571433333333, "bike_id": "e9a6af4a843f26dddd979d698b0e7056", "fusion_lat": 0.0, "name": "e9a6af4a843f26dddd979d698b0e7056", "is_reserved": 0, "rental_uris": {"android": "https://dc.lft.to/lastmile_qr_scan", "ios": "https://dc.lft.to/lastmile_qr_scan"}, "fusion_lon": 0.0}, {"lat": 38.9079255, "is_disabled": 0, "type": "electric_scooter", "lon": -77.0318765, "bike_id": "2d23669ff17cf0d02c711e120228f5c4", "fusion_lat": 0.0, "name": "2d23669ff17cf0d02c711e120228f5c4", "is_reserved": 0, "rental_uris": {"android": "https://dc.lft.to/lastmile_qr_scan", "ios": "https://dc.lft.to/lastmile_qr_scan"}, "fusion_lon": 0.0}, {"lat": 38.91686, "is_disabled": 0, "type": "electric_scooter", "lon": -77.02953833333333, "bike_id": "f1beea5d756deb45570ee92e6edfccd0", "fusion_lat": 0.0, "name": "f1beea5d756deb45570ee92e6edfccd0", "is_reserved": 0, "rental_uris": {"android": "https://dc.lft.to/lastmile_qr_scan", "ios": "https://dc.lft.to/lastmile_qr_scan"}, "fusion_lon": 0.0}, {"lat": 38.89423383333333, "is_disabled": 0, "type": "electric_scooter", "lon": -76.9938115, "bike_id": "74ec5391203ab9cf97a17d12699c4dcd", "fusion_lat": 0.0, "name": "74ec5391203ab9cf97a17d12699c4dcd", "is_reserved": 0, "rental_uris": {"android": "https://dc.lft.to/lastmile_qr_scan", "ios": "https://dc.lft.to/lastmile_qr_scan"}, "fusion_lon": 0.0}, {"lat": 38.91966766666667, "is_disabled": 0, "type": "electric_scooter", "lon": -77.01437783333333, "bike_id": "52715b30f0690e0c5f50179a99b28ea9", "fusion_lat": 0.0, "name": "52715b30f0690e0c5f50179a99b28ea9", "is_reserved": 0, "rental_uris": {"android": "https://dc.lft.to/lastmile_qr_scan", "ios": "https://dc.lft.to/lastmile_qr_scan"}, "fusion_lon": 0.0}, {"lat": 38.89815483333334, "is_disabled": 0, "type": "electric_scooter", "lon": -77.03307033333333, "bike_id": "ee8e9fdb6d8558db8263ebf9f51413a1", "fusion_lat": 0.0, "name": "ee8e9fdb6d8558db8263ebf9f51413a1", "is_reserved": 0, "rental_uris": {"android": "https://dc.lft.to/lastmile_qr_scan", "ios": "https://dc.lft.to/lastmile_qr_scan"}, "fusion_lon": 0.0}, {"lat": 38.887178, "is_disabled": 0, "type": "electric_bike", "lon": -77.13305766666667, "bike_id": "cfc35d01372e9de35155b573c968cf4e", "fusion_lat": 0.0, "name": "cfc35d01372e9de35155b573c968cf4e", "is_reserved": 0, "rental_uris": {"android": "https://dc.lft.to/lastmile_qr_scan", "ios": "https://dc.lft.to/lastmile_qr_scan"}, "fusion_lon": 0.0}, {"lat": 38.8719215, "is_disabled": 0, "type": "electric_scooter", "lon": -77.0061535, "bike_id": "4b6b9cfb2b0bedd5dcc22c1c0bb34cff", "fusion_lat": 0.0, "name": "4b6b9cfb2b0bedd5dcc22c1c0bb34cff", "is_reserved": 0, "rental_uris": {"android": "https://dc.lft.to/lastmile_qr_scan", "ios": "https://dc.lft.to/lastmile_qr_scan"}, "fusion_lon": 0.0}, {"lat": 38.88547533333333, "is_disabled": 0, "type": "electric_bike", "lon": -77.117912, "bike_id": "bc0facee3b65d4834efca84d77b6b5e9", "fusion_lat": 0.0, "name": "bc0facee3b65d4834efca84d77b6b5e9", "is_reserved": 0, "rental_uris": {"android": "https://dc.lft.to/lastmile_qr_scan", "ios": "https://dc.lft.to/lastmile_qr_scan"}, "fusion_lon": 0.0}, {"lat": 38.88445, "is_disabled": 0, "type": "electric_scooter", "lon": -76.92952966666667, "bike_id": "c6dc42c422bab28655dd9f9bb2c6071b", "fusion_lat": 0.0, "name": "c6dc42c422bab28655dd9f9bb2c6071b", "is_reserved": 0, "rental_uris": {"android": "https://dc.lft.to/lastmile_qr_scan", "ios": "https://dc.lft.to/lastmile_qr_scan"}, "fusion_lon": 0.0}, {"lat": 38.90951316666667, "is_disabled": 0, "type": "electric_scooter", "lon": -77.03208816666667, "bike_id": "b97398a4812d0b5134fae2051e8a70f3", "fusion_lat": 0.0, "name": "b97398a4812d0b5134fae2051e8a70f3", "is_reserved": 0, "rental_uris": {"android": "https://dc.lft.to/lastmile_qr_scan", "ios": "https://dc.lft.to/lastmile_qr_scan"}, "fusion_lon": 0.0}, {"lat": 39.034305, "is_disabled": 0, "type": "electric_bike", "lon": -77.04876466666667, "bike_id": "31999f02d7bd61a774a2d11a32c677b9", "fusion_lat": 0.0, "name": "31999f02d7bd61a774a2d11a32c677b9", "is_reserved": 0, "rental_uris": {"android": "https://dc.lft.to/lastmile_qr_scan", "ios": "https://dc.lft.to/lastmile_qr_scan"}, "fusion_lon": 0.0}, {"lat": 38.93758616666667, "is_disabled": 0, "type": "electric_scooter", "lon": -77.03285283333334, "bike_id": "d168b749e6f6ec58e43664ee21dc24da", "fusion_lat": 0.0, "name": "d168b749e6f6ec58e43664ee21dc24da", "is_reserved": 0, "rental_uris": {"android": "https://dc.lft.to/lastmile_qr_scan", "ios": "https://dc.lft.to/lastmile_qr_scan"}, "fusion_lon": 0.0}, {"lat": 38.93429, "is_disabled": 0, "type": "electric_scooter", "lon": -76.965084, "bike_id": "27c9c9dc09975fa3137b8a0ad94b7778", "fusion_lat": 0.0, "name": "27c9c9dc09975fa3137b8a0ad94b7778", "is_reserved": 0, "rental_uris": {"android": "https://dc.lft.to/lastmile_qr_scan", "ios": "https://dc.lft.to/lastmile_qr_scan"}, "fusion_lon": 0.0}, {"lat": 38.918213, "is_disabled": 0, "type": "electric_scooter", "lon": -77.02711666666667, "bike_id": "bdd171c9d097c15f081d702082f83a57", "fusion_lat": 0.0, "name": "bdd171c9d097c15f081d702082f83a57", "is_reserved": 0, "rental_uris": {"android": "https://dc.lft.to/lastmile_qr_scan", "ios": "https://dc.lft.to/lastmile_qr_scan"}, "fusion_lon": 0.0}, {"lat": 38.9156195, "is_disabled": 0, "type": "electric_scooter", "lon": -77.0386295, "bike_id": "120fcba1fc775074932658ddf28edd3c", "fusion_lat": 0.0, "name": "120fcba1fc775074932658ddf28edd3c", "is_reserved": 0, "rental_uris": {"android": "https://dc.lft.to/lastmile_qr_scan", "ios": "https://dc.lft.to/lastmile_qr_scan"}, "fusion_lon": 0.0}, {"lat": 38.89233216666667, "is_disabled": 0, "type": "electric_scooter", "lon": -77.05001066666667, "bike_id": "02f5fe04b724cf22f36905a476de8370", "fusion_lat": 0.0, "name": "02f5fe04b724cf22f36905a476de8370", "is_reserved": 0, "rental_uris": {"android": "https://dc.lft.to/lastmile_qr_scan", "ios": "https://dc.lft.to/lastmile_qr_scan"}, "fusion_lon": 0.0}, {"lat": 38.93173816666667, "is_disabled": 0, "type": "electric_scooter", "lon": -77.02814733333334, "bike_id": "de39790442edbb07c61ec58c9973f84c", "fusion_lat": 0.0, "name": "de39790442edbb07c61ec58c9973f84c", "is_reserved": 0, "rental_uris": {"android": "https://dc.lft.to/lastmile_qr_scan", "ios": "https://dc.lft.to/lastmile_qr_scan"}, "fusion_lon": 0.0}, {"lat": 38.87621133333333, "is_disabled": 0, "type": "electric_scooter", "lon": -76.96527566666667, "bike_id": "1ae2425e290766a0914c1c90eabee7db", "fusion_lat": 0.0, "name": "1ae2425e290766a0914c1c90eabee7db", "is_reserved": 0, "rental_uris": {"android": "https://dc.lft.to/lastmile_qr_scan", "ios": "https://dc.lft.to/lastmile_qr_scan"}, "fusion_lon": 0.0}, {"lat": 38.898895333333336, "is_disabled": 0, "type": "electric_scooter", "lon": -77.04054616666667, "bike_id": "c8ef70f580250b2979d832739ea6335d", "fusion_lat": 0.0, "name": "c8ef70f580250b2979d832739ea6335d", "is_reserved": 0, "rental_uris": {"android": "https://dc.lft.to/lastmile_qr_scan", "ios": "https://dc.lft.to/lastmile_qr_scan"}, "fusion_lon": 0.0}, {"lat": 38.907262333333335, "is_disabled": 0, "type": "electric_scooter", "lon": -77.04780833333334, "bike_id": "50a70baf4cb84f89f555f51fae383892", "fusion_lat": 0.0, "name": "50a70baf4cb84f89f555f51fae383892", "is_reserved": 0, "rental_uris": {"android": "https://dc.lft.to/lastmile_qr_scan", "ios": "https://dc.lft.to/lastmile_qr_scan"}, "fusion_lon": 0.0}, {"lat": 38.940940166666664, "is_disabled": 0, "type": "electric_scooter", "lon": -77.03281716666666, "bike_id": "d10b45309ea5365c95a9055feea4e85d", "fusion_lat": 0.0, "name": "d10b45309ea5365c95a9055feea4e85d", "is_reserved": 0, "rental_uris": {"android": "https://dc.lft.to/lastmile_qr_scan", "ios": "https://dc.lft.to/lastmile_qr_scan"}, "fusion_lon": 0.0}, {"lat": 38.9112985, "is_disabled": 0, "type": "electric_bike", "lon": -77.06576716666666, "bike_id": "e8b4294ab61150946ffd173590e6aec3", "fusion_lat": 0.0, "name": "e8b4294ab61150946ffd173590e6aec3", "is_reserved": 0, "rental_uris": {"android": "https://dc.lft.to/lastmile_qr_scan", "ios": "https://dc.lft.to/lastmile_qr_scan"}, "fusion_lon": 0.0}, {"lat": 38.860588, "is_disabled": 0, "type": "electric_scooter", "lon": -76.98510716666667, "bike_id": "75328a44e80a129acc1181c4d6e1ac7c", "fusion_lat": 0.0, "name": "75328a44e80a129acc1181c4d6e1ac7c", "is_reserved": 0, "rental_uris": {"android": "https://dc.lft.to/lastmile_qr_scan", "ios": "https://dc.lft.to/lastmile_qr_scan"}, "fusion_lon": 0.0}, {"lat": 38.842944, "is_disabled": 0, "type": "electric_scooter", "lon": -76.99947166666666, "bike_id": "638ead8a8e7dd9530c5a1de1d5068484", "fusion_lat": 0.0, "name": "638ead8a8e7dd9530c5a1de1d5068484", "is_reserved": 0, "rental_uris": {"android": "https://dc.lft.to/lastmile_qr_scan", "ios": "https://dc.lft.to/lastmile_qr_scan"}, "fusion_lon": 0.0}, {"lat": 38.90451383333333, "is_disabled": 0, "type": "electric_scooter", "lon": -77.02719066666667, "bike_id": "a81ff08c1cbc6fc161d646e155afbc6e", "fusion_lat": 0.0, "name": "a81ff08c1cbc6fc161d646e155afbc6e", "is_reserved": 0, "rental_uris": {"android": "https://dc.lft.to/lastmile_qr_scan", "ios": "https://dc.lft.to/lastmile_qr_scan"}, "fusion_lon": 0.0}, {"lat": 38.91698733333333, "is_disabled": 0, "type": "electric_scooter", "lon": -77.022836, "bike_id": "34d0ddba143665068bca7c9f000173dd", "fusion_lat": 0.0, "name": "34d0ddba143665068bca7c9f000173dd", "is_reserved": 0, "rental_uris": {"android": "https://dc.lft.to/lastmile_qr_scan", "ios": "https://dc.lft.to/lastmile_qr_scan"}, "fusion_lon": 0.0}, {"lat": 38.89123383333333, "is_disabled": 0, "type": "electric_scooter", "lon": -76.94092783333333, "bike_id": "ca549ea542c4dcb3179878b5bda11c22", "fusion_lat": 0.0, "name": "ca549ea542c4dcb3179878b5bda11c22", "is_reserved": 0, "rental_uris": {"android": "https://dc.lft.to/lastmile_qr_scan", "ios": "https://dc.lft.to/lastmile_qr_scan"}, "fusion_lon": 0.0}, {"lat": 38.911862166666666, "is_disabled": 0, "type": "electric_scooter", "lon": -77.0321925, "bike_id": "492a29f2f25202b5e2b99db37ec377db", "fusion_lat": 0.0, "name": "492a29f2f25202b5e2b99db37ec377db", "is_reserved": 0, "rental_uris": {"android": "https://dc.lft.to/lastmile_qr_scan", "ios": "https://dc.lft.to/lastmile_qr_scan"}, "fusion_lon": 0.0}, {"lat": 38.910829666666665, "is_disabled": 0, "type": "electric_scooter", "lon": -77.07644366666666, "bike_id": "07e14746659bd4664c4b4e04799254e5", "fusion_lat": 0.0, "name": "07e14746659bd4664c4b4e04799254e5", "is_reserved": 0, "rental_uris": {"android": "https://dc.lft.to/lastmile_qr_scan", "ios": "https://dc.lft.to/lastmile_qr_scan"}, "fusion_lon": 0.0}, {"lat": 38.9000635, "is_disabled": 0, "type": "electric_scooter", "lon": -76.99848316666667, "bike_id": "f211e2f8e5baa82ad81a43a7ca24af48", "fusion_lat": 0.0, "name": "f211e2f8e5baa82ad81a43a7ca24af48", "is_reserved": 0, "rental_uris": {"android": "https://dc.lft.to/lastmile_qr_scan", "ios": "https://dc.lft.to/lastmile_qr_scan"}, "fusion_lon": 0.0}, {"lat": 38.903966, "is_disabled": 0, "type": "electric_scooter", "lon": -77.033276, "bike_id": "01db2cd6ac8d315dbdbd5e94a9ab7142", "fusion_lat": 0.0, "name": "01db2cd6ac8d315dbdbd5e94a9ab7142", "is_reserved": 0, "rental_uris": {"android": "https://dc.lft.to/lastmile_qr_scan", "ios": "https://dc.lft.to/lastmile_qr_scan"}, "fusion_lon": 0.0}, {"lat": 39.015901, "is_disabled": 0, "type": "electric_bike", "lon": -77.04431816666667, "bike_id": "ab865b2008c620d4678fffc574e5e5e4", "fusion_lat": 0.0, "name": "ab865b2008c620d4678fffc574e5e5e4", "is_reserved": 0, "rental_uris": {"android": "https://dc.lft.to/lastmile_qr_scan", "ios": "https://dc.lft.to/lastmile_qr_scan"}, "fusion_lon": 0.0}, {"lat": 38.90522383333333, "is_disabled": 0, "type": "electric_scooter", "lon": -77.06382416666666, "bike_id": "b2a2aaacaf91bab62300055008b161c4", "fusion_lat": 0.0, "name": "b2a2aaacaf91bab62300055008b161c4", "is_reserved": 0, "rental_uris": {"android": "https://dc.lft.to/lastmile_qr_scan", "ios": "https://dc.lft.to/lastmile_qr_scan"}, "fusion_lon": 0.0}, {"lat": 38.884265, "is_disabled": 0, "type": "electric_scooter", "lon": -77.030479, "bike_id": "f4b87b1ee6e89466f051f189e9af5432", "fusion_lat": 0.0, "name": "f4b87b1ee6e89466f051f189e9af5432", "is_reserved": 0, "rental_uris": {"android": "https://dc.lft.to/lastmile_qr_scan", "ios": "https://dc.lft.to/lastmile_qr_scan"}, "fusion_lon": 0.0}, {"lat": 38.8750685, "is_disabled": 0, "type": "electric_bike", "lon": -77.02588616666667, "bike_id": "824d95c2b36709e99675d1e6d7bec06f", "fusion_lat": 0.0, "name": "824d95c2b36709e99675d1e6d7bec06f", "is_reserved": 0, "rental_uris": {"android": "https://dc.lft.to/lastmile_qr_scan", "ios": "https://dc.lft.to/lastmile_qr_scan"}, "fusion_lon": 0.0}, {"lat": 38.875783, "is_disabled": 0, "type": "electric_scooter", "lon": -77.01314216666667, "bike_id": "1d10c057b2a2d90c82a8efc09c703f02", "fusion_lat": 0.0, "name": "1d10c057b2a2d90c82a8efc09c703f02", "is_reserved": 0, "rental_uris": {"android": "https://dc.lft.to/lastmile_qr_scan", "ios": "https://dc.lft.to/lastmile_qr_scan"}, "fusion_lon": 0.0}, {"lat": 38.90858733333334, "is_disabled": 0, "type": "electric_bike", "lon": -77.08071816666667, "bike_id": "1d1ea454cf4b6017862b581afe1a9182", "fusion_lat": 0.0, "name": "1d1ea454cf4b6017862b581afe1a9182", "is_reserved": 0, "rental_uris": {"android": "https://dc.lft.to/lastmile_qr_scan", "ios": "https://dc.lft.to/lastmile_qr_scan"}, "fusion_lon": 0.0}, {"lat": 38.950736166666665, "is_disabled": 0, "type": "electric_scooter", "lon": -77.00880116666667, "bike_id": "32af32277c09c9dffa1ff25929810339", "fusion_lat": 0.0, "name": "32af32277c09c9dffa1ff25929810339", "is_reserved": 0, "rental_uris": {"android": "https://dc.lft.to/lastmile_qr_scan", "ios": "https://dc.lft.to/lastmile_qr_scan"}, "fusion_lon": 0.0}, {"lat": 38.88469, "is_disabled": 0, "type": "electric_scooter", "lon": -76.9926205, "bike_id": "e0527b897bd68c22e9d879daadcfa238", "fusion_lat": 0.0, "name": "e0527b897bd68c22e9d879daadcfa238", "is_reserved": 0, "rental_uris": {"android": "https://dc.lft.to/lastmile_qr_scan", "ios": "https://dc.lft.to/lastmile_qr_scan"}, "fusion_lon": 0.0}, {"lat": 38.8820785, "is_disabled": 0, "type": "electric_scooter", "lon": -76.98921933333334, "bike_id": "9098be51f163272833612162f03d9ac7", "fusion_lat": 0.0, "name": "9098be51f163272833612162f03d9ac7", "is_reserved": 0, "rental_uris": {"android": "https://dc.lft.to/lastmile_qr_scan", "ios": "https://dc.lft.to/lastmile_qr_scan"}, "fusion_lon": 0.0}, {"lat": 39.02933916666667, "is_disabled": 0, "type": "electric_bike", "lon": -77.04930866666666, "bike_id": "c09c6c8bcd504c212979475949868fb7", "fusion_lat": 0.0, "name": "c09c6c8bcd504c212979475949868fb7", "is_reserved": 0, "rental_uris": {"android": "https://dc.lft.to/lastmile_qr_scan", "ios": "https://dc.lft.to/lastmile_qr_scan"}, "fusion_lon": 0.0}, {"lat": 38.91986466666667, "is_disabled": 0, "type": "electric_scooter", "lon": -76.97314233333333, "bike_id": "6a7443e040650f20eb24cb2317b4a2f9", "fusion_lat": 0.0, "name": "6a7443e040650f20eb24cb2317b4a2f9", "is_reserved": 0, "rental_uris": {"android": "https://dc.lft.to/lastmile_qr_scan", "ios": "https://dc.lft.to/lastmile_qr_scan"}, "fusion_lon": 0.0}, {"lat": 38.9149315, "is_disabled": 0, "type": "electric_scooter", "lon": -77.01861466666666, "bike_id": "9d91ca87f6cc0abea03a0dc7c921bd49", "fusion_lat": 0.0, "name": "9d91ca87f6cc0abea03a0dc7c921bd49", "is_reserved": 0, "rental_uris": {"android": "https://dc.lft.to/lastmile_qr_scan", "ios": "https://dc.lft.to/lastmile_qr_scan"}, "fusion_lon": 0.0}, {"lat": 38.95641233333333, "is_disabled": 0, "type": "electric_scooter", "lon": -76.99795933333333, "bike_id": "e5bc6e209f8955fda6a9d2a02eba5c48", "fusion_lat": 0.0, "name": "e5bc6e209f8955fda6a9d2a02eba5c48", "is_reserved": 0, "rental_uris": {"android": "https://dc.lft.to/lastmile_qr_scan", "ios": "https://dc.lft.to/lastmile_qr_scan"}, "fusion_lon": 0.0}, {"lat": 38.91703783333333, "is_disabled": 0, "type": "electric_scooter", "lon": -77.03210883333334, "bike_id": "0ff9698822a65f29f3f21b414525582c", "fusion_lat": 0.0, "name": "0ff9698822a65f29f3f21b414525582c", "is_reserved": 0, "rental_uris": {"android": "https://dc.lft.to/lastmile_qr_scan", "ios": "https://dc.lft.to/lastmile_qr_scan"}, "fusion_lon": 0.0}, {"lat": 38.954047333333335, "is_disabled": 0, "type": "electric_scooter", "lon": -77.02748766666667, "bike_id": "3cbe85a0dcce11ac515d48b711624a19", "fusion_lat": 0.0, "name": "3cbe85a0dcce11ac515d48b711624a19", "is_reserved": 0, "rental_uris": {"android": "https://dc.lft.to/lastmile_qr_scan", "ios": "https://dc.lft.to/lastmile_qr_scan"}, "fusion_lon": 0.0}, {"lat": 38.9602145, "is_disabled": 0, "type": "electric_bike", "lon": -77.01726966666666, "bike_id": "781620f1467c016a83ea68a665d0459f", "fusion_lat": 0.0, "name": "781620f1467c016a83ea68a665d0459f", "is_reserved": 0, "rental_uris": {"android": "https://dc.lft.to/lastmile_qr_scan", "ios": "https://dc.lft.to/lastmile_qr_scan"}, "fusion_lon": 0.0}, {"lat": 38.918951666666665, "is_disabled": 0, "type": "electric_scooter", "lon": -77.04158416666667, "bike_id": "ad685e9fae88bc3e8e632dc84a8cfe86", "fusion_lat": 0.0, "name": "ad685e9fae88bc3e8e632dc84a8cfe86", "is_reserved": 0, "rental_uris": {"android": "https://dc.lft.to/lastmile_qr_scan", "ios": "https://dc.lft.to/lastmile_qr_scan"}, "fusion_lon": 0.0}, {"lat": 38.91558783333333, "is_disabled": 0, "type": "electric_scooter", "lon": -77.0487465, "bike_id": "cf9fa0a43a8976210dfa54cdb9ec2874", "fusion_lat": 0.0, "name": "cf9fa0a43a8976210dfa54cdb9ec2874", "is_reserved": 0, "rental_uris": {"android": "https://dc.lft.to/lastmile_qr_scan", "ios": "https://dc.lft.to/lastmile_qr_scan"}, "fusion_lon": 0.0}, {"lat": 38.85695483333333, "is_disabled": 0, "type": "electric_scooter", "lon": -76.989516, "bike_id": "8739f3ba2bcabfb49080873adc115155", "fusion_lat": 0.0, "name": "8739f3ba2bcabfb49080873adc115155", "is_reserved": 0, "rental_uris": {"android": "https://dc.lft.to/lastmile_qr_scan", "ios": "https://dc.lft.to/lastmile_qr_scan"}, "fusion_lon": 0.0}, {"lat": 38.903085, "is_disabled": 0, "type": "electric_scooter", "lon": -76.97805416666667, "bike_id": "f09b2fca884745d465db5eacbc1dea99", "fusion_lat": 0.0, "name": "f09b2fca884745d465db5eacbc1dea99", "is_reserved": 0, "rental_uris": {"android": "https://dc.lft.to/lastmile_qr_scan", "ios": "https://dc.lft.to/lastmile_qr_scan"}, "fusion_lon": 0.0}, {"lat": 38.8988275, "is_disabled": 0, "type": "electric_scooter", "lon": -77.04000466666666, "bike_id": "c68996777c4a3f81a6d5147f0f219281", "fusion_lat": 0.0, "name": "c68996777c4a3f81a6d5147f0f219281", "is_reserved": 0, "rental_uris": {"android": "https://dc.lft.to/lastmile_qr_scan", "ios": "https://dc.lft.to/lastmile_qr_scan"}, "fusion_lon": 0.0}, {"lat": 38.9012685, "is_disabled": 0, "type": "electric_scooter", "lon": -76.99751483333333, "bike_id": "55fb6966b2d86986a8a362b4c8a85ddc", "fusion_lat": 0.0, "name": "55fb6966b2d86986a8a362b4c8a85ddc", "is_reserved": 0, "rental_uris": {"android": "https://dc.lft.to/lastmile_qr_scan", "ios": "https://dc.lft.to/lastmile_qr_scan"}, "fusion_lon": 0.0}, {"lat": 38.92543466666667, "is_disabled": 0, "type": "electric_scooter", "lon": -77.03787566666666, "bike_id": "cfc1f6b122c80984b9c5b587e8ee13ba", "fusion_lat": 0.0, "name": "cfc1f6b122c80984b9c5b587e8ee13ba", "is_reserved": 0, "rental_uris": {"android": "https://dc.lft.to/lastmile_qr_scan", "ios": "https://dc.lft.to/lastmile_qr_scan"}, "fusion_lon": 0.0}, {"lat": 38.9112555, "is_disabled": 0, "type": "electric_scooter", "lon": -77.022019, "bike_id": "cef7b40fcb8ba9b6c0561eba6b8f6c03", "fusion_lat": 0.0, "name": "cef7b40fcb8ba9b6c0561eba6b8f6c03", "is_reserved": 0, "rental_uris": {"android": "https://dc.lft.to/lastmile_qr_scan", "ios": "https://dc.lft.to/lastmile_qr_scan"}, "fusion_lon": 0.0}, {"lat": 38.901678833333335, "is_disabled": 0, "type": "electric_scooter", "lon": -76.98070266666667, "bike_id": "f9909e2a921aaac6e3218296951a0152", "fusion_lat": 0.0, "name": "f9909e2a921aaac6e3218296951a0152", "is_reserved": 0, "rental_uris": {"android": "https://dc.lft.to/lastmile_qr_scan", "ios": "https://dc.lft.to/lastmile_qr_scan"}, "fusion_lon": 0.0}, {"lat": 38.92553183333333, "is_disabled": 0, "type": "electric_scooter", "lon": -77.03224016666667, "bike_id": "adf0b06ac292a0194102c8fc8b5987b6", "fusion_lat": 0.0, "name": "adf0b06ac292a0194102c8fc8b5987b6", "is_reserved": 0, "rental_uris": {"android": "https://dc.lft.to/lastmile_qr_scan", "ios": "https://dc.lft.to/lastmile_qr_scan"}, "fusion_lon": 0.0}, {"lat": 38.885077, "is_disabled": 0, "type": "electric_scooter", "lon": -77.01550666666667, "bike_id": "ff036fdb2a2b7c3f43e2dc3a8b777f05", "fusion_lat": 0.0, "name": "ff036fdb2a2b7c3f43e2dc3a8b777f05", "is_reserved": 0, "rental_uris": {"android": "https://dc.lft.to/lastmile_qr_scan", "ios": "https://dc.lft.to/lastmile_qr_scan"}, "fusion_lon": 0.0}, {"lat": 38.9258465, "is_disabled": 0, "type": "electric_scooter", "lon": -77.00480416666667, "bike_id": "1212dbb158f4f34b6240d3d11f1e6c75", "fusion_lat": 0.0, "name": "1212dbb158f4f34b6240d3d11f1e6c75", "is_reserved": 0, "rental_uris": {"android": "https://dc.lft.to/lastmile_qr_scan", "ios": "https://dc.lft.to/lastmile_qr_scan"}, "fusion_lon": 0.0}, {"lat": 38.89875633333333, "is_disabled": 0, "type": "electric_scooter", "lon": -76.93187516666667, "bike_id": "f789ef066bf69f2a14fe15e56c7f2728", "fusion_lat": 0.0, "name": "f789ef066bf69f2a14fe15e56c7f2728", "is_reserved": 0, "rental_uris": {"android": "https://dc.lft.to/lastmile_qr_scan", "ios": "https://dc.lft.to/lastmile_qr_scan"}, "fusion_lon": 0.0}, {"lat": 38.92238866666667, "is_disabled": 0, "type": "electric_scooter", "lon": -77.029862, "bike_id": "b703d24d32627f21b216e39cd5f82a43", "fusion_lat": 0.0, "name": "b703d24d32627f21b216e39cd5f82a43", "is_reserved": 0, "rental_uris": {"android": "https://dc.lft.to/lastmile_qr_scan", "ios": "https://dc.lft.to/lastmile_qr_scan"}, "fusion_lon": 0.0}, {"lat": 38.867059166666664, "is_disabled": 0, "type": "electric_bike", "lon": -76.98957783333333, "bike_id": "a519bceb7b2a39a072b4b8e908abc059", "fusion_lat": 0.0, "name": "a519bceb7b2a39a072b4b8e908abc059", "is_reserved": 0, "rental_uris": {"android": "https://dc.lft.to/lastmile_qr_scan", "ios": "https://dc.lft.to/lastmile_qr_scan"}, "fusion_lon": 0.0}, {"lat": 38.913306, "is_disabled": 0, "type": "electric_scooter", "lon": -77.031289, "bike_id": "f0d24728a4a0ce73a2d04e09df011c98", "fusion_lat": 0.0, "name": "f0d24728a4a0ce73a2d04e09df011c98", "is_reserved": 0, "rental_uris": {"android": "https://dc.lft.to/lastmile_qr_scan", "ios": "https://dc.lft.to/lastmile_qr_scan"}, "fusion_lon": 0.0}, {"lat": 38.900242666666664, "is_disabled": 0, "type": "electric_scooter", "lon": -76.990639, "bike_id": "e29d2faeb28cd99402317c36197442a5", "fusion_lat": 0.0, "name": "e29d2faeb28cd99402317c36197442a5", "is_reserved": 0, "rental_uris": {"android": "https://dc.lft.to/lastmile_qr_scan", "ios": "https://dc.lft.to/lastmile_qr_scan"}, "fusion_lon": 0.0}, {"lat": 38.970924333333336, "is_disabled": 0, "type": "electric_bike", "lon": -77.0697065, "bike_id": "cf94c006cc132791b2912d25880c3779", "fusion_lat": 0.0, "name": "cf94c006cc132791b2912d25880c3779", "is_reserved": 0, "rental_uris": {"android": "https://dc.lft.to/lastmile_qr_scan", "ios": "https://dc.lft.to/lastmile_qr_scan"}, "fusion_lon": 0.0}, {"lat": 38.921916833333334, "is_disabled": 0, "type": "electric_scooter", "lon": -77.04234216666667, "bike_id": "166d1a1e5978e3764a559e6a412a91c8", "fusion_lat": 0.0, "name": "166d1a1e5978e3764a559e6a412a91c8", "is_reserved": 0, "rental_uris": {"android": "https://dc.lft.to/lastmile_qr_scan", "ios": "https://dc.lft.to/lastmile_qr_scan"}, "fusion_lon": 0.0}, {"lat": 38.931016666666665, "is_disabled": 0, "type": "electric_scooter", "lon": -77.03769733333333, "bike_id": "5ba98371b057f21224217f54269fbab3", "fusion_lat": 0.0, "name": "5ba98371b057f21224217f54269fbab3", "is_reserved": 0, "rental_uris": {"android": "https://dc.lft.to/lastmile_qr_scan", "ios": "https://dc.lft.to/lastmile_qr_scan"}, "fusion_lon": 0.0}, {"lat": 38.86285266666667, "is_disabled": 0, "type": "electric_scooter", "lon": -76.9923565, "bike_id": "c49c7d9ed9751a86802a974dfdbe932a", "fusion_lat": 0.0, "name": "c49c7d9ed9751a86802a974dfdbe932a", "is_reserved": 0, "rental_uris": {"android": "https://dc.lft.to/lastmile_qr_scan", "ios": "https://dc.lft.to/lastmile_qr_scan"}, "fusion_lon": 0.0}, {"lat": 38.930828, "is_disabled": 0, "type": "electric_scooter", "lon": -77.02796616666667, "bike_id": "2b12056458ea82db3b5413b3d747e364", "fusion_lat": 0.0, "name": "2b12056458ea82db3b5413b3d747e364", "is_reserved": 0, "rental_uris": {"android": "https://dc.lft.to/lastmile_qr_scan", "ios": "https://dc.lft.to/lastmile_qr_scan"}, "fusion_lon": 0.0}, {"lat": 39.09433416666667, "is_disabled": 0, "type": "electric_bike", "lon": -77.13466333333334, "bike_id": "ccdb164f39e713252c64b4bf853c3228", "fusion_lat": 0.0, "name": "ccdb164f39e713252c64b4bf853c3228", "is_reserved": 0, "rental_uris": {"android": "https://dc.lft.to/lastmile_qr_scan", "ios": "https://dc.lft.to/lastmile_qr_scan"}, "fusion_lon": 0.0}, {"lat": 38.89843716666667, "is_disabled": 0, "type": "electric_scooter", "lon": -76.9447255, "bike_id": "6502e0f48e44aaaa3d93385802d3646c", "fusion_lat": 0.0, "name": "6502e0f48e44aaaa3d93385802d3646c", "is_reserved": 0, "rental_uris": {"android": "https://dc.lft.to/lastmile_qr_scan", "ios": "https://dc.lft.to/lastmile_qr_scan"}, "fusion_lon": 0.0}, {"lat": 38.8766705, "is_disabled": 0, "type": "electric_bike", "lon": -77.0145075, "bike_id": "c1eb247b3d3e2781905daa2f52ac63b7", "fusion_lat": 0.0, "name": "c1eb247b3d3e2781905daa2f52ac63b7", "is_reserved": 0, "rental_uris": {"android": "https://dc.lft.to/lastmile_qr_scan", "ios": "https://dc.lft.to/lastmile_qr_scan"}, "fusion_lon": 0.0}, {"lat": 38.905330166666666, "is_disabled": 0, "type": "electric_scooter", "lon": -77.047669, "bike_id": "a52b6c986700e3e7cc47aa0a1d5e6e5a", "fusion_lat": 0.0, "name": "a52b6c986700e3e7cc47aa0a1d5e6e5a", "is_reserved": 0, "rental_uris": {"android": "https://dc.lft.to/lastmile_qr_scan", "ios": "https://dc.lft.to/lastmile_qr_scan"}, "fusion_lon": 0.0}, {"lat": 38.90685, "is_disabled": 0, "type": "electric_scooter", "lon": -77.03669383333333, "bike_id": "2cfee2681d0481bbb4e1e28c084893cd", "fusion_lat": 0.0, "name": "2cfee2681d0481bbb4e1e28c084893cd", "is_reserved": 0, "rental_uris": {"android": "https://dc.lft.to/lastmile_qr_scan", "ios": "https://dc.lft.to/lastmile_qr_scan"}, "fusion_lon": 0.0}, {"lat": 38.92340133333333, "is_disabled": 0, "type": "electric_scooter", "lon": -77.0352275, "bike_id": "a7afb7ac65178b740c62e90e4fbc2475", "fusion_lat": 0.0, "name": "a7afb7ac65178b740c62e90e4fbc2475", "is_reserved": 0, "rental_uris": {"android": "https://dc.lft.to/lastmile_qr_scan", "ios": "https://dc.lft.to/lastmile_qr_scan"}, "fusion_lon": 0.0}, {"lat": 38.91698, "is_disabled": 0, "type": "electric_bike", "lon": -77.02574916666667, "bike_id": "8668572b3c0de346c2352c0864a97f05", "fusion_lat": 0.0, "name": "8668572b3c0de346c2352c0864a97f05", "is_reserved": 0, "rental_uris": {"android": "https://dc.lft.to/lastmile_qr_scan", "ios": "https://dc.lft.to/lastmile_qr_scan"}, "fusion_lon": 0.0}, {"lat": 38.90888983333333, "is_disabled": 0, "type": "electric_scooter", "lon": -77.02699633333333, "bike_id": "e7fab725e3be6157659b3d6fa18bb267", "fusion_lat": 0.0, "name": "e7fab725e3be6157659b3d6fa18bb267", "is_reserved": 0, "rental_uris": {"android": "https://dc.lft.to/lastmile_qr_scan", "ios": "https://dc.lft.to/lastmile_qr_scan"}, "fusion_lon": 0.0}, {"lat": 38.90169616666667, "is_disabled": 0, "type": "electric_scooter", "lon": -77.02197383333333, "bike_id": "74740873480cd6a9c6cd9c2996efd66d", "fusion_lat": 0.0, "name": "74740873480cd6a9c6cd9c2996efd66d", "is_reserved": 0, "rental_uris": {"android": "https://dc.lft.to/lastmile_qr_scan", "ios": "https://dc.lft.to/lastmile_qr_scan"}, "fusion_lon": 0.0}, {"lat": 38.88748316666667, "is_disabled": 0, "type": "electric_scooter", "lon": -77.02174783333334, "bike_id": "682fe12acaba5b2012467e27353084f4", "fusion_lat": 0.0, "name": "682fe12acaba5b2012467e27353084f4", "is_reserved": 0, "rental_uris": {"android": "https://dc.lft.to/lastmile_qr_scan", "ios": "https://dc.lft.to/lastmile_qr_scan"}, "fusion_lon": 0.0}, {"lat": 38.917705166666664, "is_disabled": 0, "type": "electric_scooter", "lon": -77.0417245, "bike_id": "c208debc7a10f5bbb098f68ca143f620", "fusion_lat": 0.0, "name": "c208debc7a10f5bbb098f68ca143f620", "is_reserved": 0, "rental_uris": {"android": "https://dc.lft.to/lastmile_qr_scan", "ios": "https://dc.lft.to/lastmile_qr_scan"}, "fusion_lon": 0.0}, {"lat": 38.95957666666666, "is_disabled": 0, "type": "electric_bike", "lon": -77.10095566666666, "bike_id": "747e40529466950f5e2b007b27242da1", "fusion_lat": 0.0, "name": "747e40529466950f5e2b007b27242da1", "is_reserved": 0, "rental_uris": {"android": "https://dc.lft.to/lastmile_qr_scan", "ios": "https://dc.lft.to/lastmile_qr_scan"}, "fusion_lon": 0.0}, {"lat": 38.905295333333335, "is_disabled": 0, "type": "electric_scooter", "lon": -76.99636166666667, "bike_id": "0e8d106e64b2b9f6ace793a8a699319d", "fusion_lat": 0.0, "name": "0e8d106e64b2b9f6ace793a8a699319d", "is_reserved": 0, "rental_uris": {"android": "https://dc.lft.to/lastmile_qr_scan", "ios": "https://dc.lft.to/lastmile_qr_scan"}, "fusion_lon": 0.0}, {"lat": 38.9005025, "is_disabled": 0, "type": "electric_bike", "lon": -76.98833383333333, "bike_id": "57e172d441f1dac6439e456f6a8c6b9a", "fusion_lat": 0.0, "name": "57e172d441f1dac6439e456f6a8c6b9a", "is_reserved": 0, "rental_uris": {"android": "https://dc.lft.to/lastmile_qr_scan", "ios": "https://dc.lft.to/lastmile_qr_scan"}, "fusion_lon": 0.0}, {"lat": 38.961517666666666, "is_disabled": 0, "type": "electric_scooter", "lon": -77.02787133333334, "bike_id": "d3cd94056f7ef9b561c106b8cf284c79", "fusion_lat": 0.0, "name": "d3cd94056f7ef9b561c106b8cf284c79", "is_reserved": 0, "rental_uris": {"android": "https://dc.lft.to/lastmile_qr_scan", "ios": "https://dc.lft.to/lastmile_qr_scan"}, "fusion_lon": 0.0}, {"lat": 38.93205966666667, "is_disabled": 0, "type": "electric_scooter", "lon": -77.02342766666666, "bike_id": "236bf4e243e403906bfe71abdda880d3", "fusion_lat": 0.0, "name": "236bf4e243e403906bfe71abdda880d3", "is_reserved": 0, "rental_uris": {"android": "https://dc.lft.to/lastmile_qr_scan", "ios": "https://dc.lft.to/lastmile_qr_scan"}, "fusion_lon": 0.0}, {"lat": 38.884386, "is_disabled": 0, "type": "electric_scooter", "lon": -77.03041666666667, "bike_id": "373440ddae69fd24f9fd119f6dc8e70e", "fusion_lat": 0.0, "name": "373440ddae69fd24f9fd119f6dc8e70e", "is_reserved": 0, "rental_uris": {"android": "https://dc.lft.to/lastmile_qr_scan", "ios": "https://dc.lft.to/lastmile_qr_scan"}, "fusion_lon": 0.0}, {"lat": 38.929991666666666, "is_disabled": 0, "type": "electric_scooter", "lon": -77.03280783333334, "bike_id": "d125e2729cbfd197e7b0d96148cf2c5b", "fusion_lat": 0.0, "name": "d125e2729cbfd197e7b0d96148cf2c5b", "is_reserved": 0, "rental_uris": {"android": "https://dc.lft.to/lastmile_qr_scan", "ios": "https://dc.lft.to/lastmile_qr_scan"}, "fusion_lon": 0.0}, {"lat": 38.911220666666665, "is_disabled": 0, "type": "electric_scooter", "lon": -76.99774016666667, "bike_id": "c84ccc7542ef7ca0da1a21db2f7fa64a", "fusion_lat": 0.0, "name": "c84ccc7542ef7ca0da1a21db2f7fa64a", "is_reserved": 0, "rental_uris": {"android": "https://dc.lft.to/lastmile_qr_scan", "ios": "https://dc.lft.to/lastmile_qr_scan"}, "fusion_lon": 0.0}, {"lat": 38.90336583333333, "is_disabled": 0, "type": "electric_scooter", "lon": -77.06589216666667, "bike_id": "4efc8421f786b896550b3ecb45c8b9d2", "fusion_lat": 0.0, "name": "4efc8421f786b896550b3ecb45c8b9d2", "is_reserved": 0, "rental_uris": {"android": "https://dc.lft.to/lastmile_qr_scan", "ios": "https://dc.lft.to/lastmile_qr_scan"}, "fusion_lon": 0.0}, {"lat": 38.905344666666664, "is_disabled": 0, "type": "electric_scooter", "lon": -77.0570425, "bike_id": "98f06d4fc111c99621728fa2663afcf6", "fusion_lat": 0.0, "name": "98f06d4fc111c99621728fa2663afcf6", "is_reserved": 0, "rental_uris": {"android": "https://dc.lft.to/lastmile_qr_scan", "ios": "https://dc.lft.to/lastmile_qr_scan"}, "fusion_lon": 0.0}, {"lat": 38.9055675, "is_disabled": 0, "type": "electric_scooter", "lon": -77.0569895, "bike_id": "71d690f42ecad2e1787c28c61656da54", "fusion_lat": 0.0, "name": "71d690f42ecad2e1787c28c61656da54", "is_reserved": 0, "rental_uris": {"android": "https://dc.lft.to/lastmile_qr_scan", "ios": "https://dc.lft.to/lastmile_qr_scan"}, "fusion_lon": 0.0}, {"lat": 38.905683833333335, "is_disabled": 0, "type": "electric_scooter", "lon": -77.02591233333334, "bike_id": "2545c0c99d8e6015e79769a10b54ce2f", "fusion_lat": 0.0, "name": "2545c0c99d8e6015e79769a10b54ce2f", "is_reserved": 0, "rental_uris": {"android": "https://dc.lft.to/lastmile_qr_scan", "ios": "https://dc.lft.to/lastmile_qr_scan"}, "fusion_lon": 0.0}, {"lat": 38.95293916666667, "is_disabled": 0, "type": "electric_bike", "lon": -76.94596766666666, "bike_id": "8edbe59c3254dee9b4aabcabe2945e66", "fusion_lat": 0.0, "name": "8edbe59c3254dee9b4aabcabe2945e66", "is_reserved": 0, "rental_uris": {"android": "https://dc.lft.to/lastmile_qr_scan", "ios": "https://dc.lft.to/lastmile_qr_scan"}, "fusion_lon": 0.0}, {"lat": 38.91556516666667, "is_disabled": 0, "type": "electric_scooter", "lon": -77.02176166666666, "bike_id": "2097de112b11d291e5fcfaa3cf9d7aa4", "fusion_lat": 0.0, "name": "2097de112b11d291e5fcfaa3cf9d7aa4", "is_reserved": 0, "rental_uris": {"android": "https://dc.lft.to/lastmile_qr_scan", "ios": "https://dc.lft.to/lastmile_qr_scan"}, "fusion_lon": 0.0}, {"lat": 38.89558133333333, "is_disabled": 0, "type": "electric_scooter", "lon": -76.930784, "bike_id": "ad4db57f781ee656b97d66a24c267393", "fusion_lat": 0.0, "name": "ad4db57f781ee656b97d66a24c267393", "is_reserved": 0, "rental_uris": {"android": "https://dc.lft.to/lastmile_qr_scan", "ios": "https://dc.lft.to/lastmile_qr_scan"}, "fusion_lon": 0.0}, {"lat": 38.914547666666664, "is_disabled": 0, "type": "electric_scooter", "lon": -77.046023, "bike_id": "a1420e08f62edfbb2b4f2a5d7cad7bac", "fusion_lat": 0.0, "name": "a1420e08f62edfbb2b4f2a5d7cad7bac", "is_reserved": 0, "rental_uris": {"android": "https://dc.lft.to/lastmile_qr_scan", "ios": "https://dc.lft.to/lastmile_qr_scan"}, "fusion_lon": 0.0}, {"lat": 38.89828133333334, "is_disabled": 0, "type": "electric_scooter", "lon": -77.029002, "bike_id": "0619b714e8ff9289df046fdc065a8720", "fusion_lat": 0.0, "name": "0619b714e8ff9289df046fdc065a8720", "is_reserved": 0, "rental_uris": {"android": "https://dc.lft.to/lastmile_qr_scan", "ios": "https://dc.lft.to/lastmile_qr_scan"}, "fusion_lon": 0.0}, {"lat": 38.88976666666667, "is_disabled": 0, "type": "electric_scooter", "lon": -76.995545, "bike_id": "2f1d020645cbbad40c4fbc7cc73fd65c", "fusion_lat": 0.0, "name": "2f1d020645cbbad40c4fbc7cc73fd65c", "is_reserved": 0, "rental_uris": {"android": "https://dc.lft.to/lastmile_qr_scan", "ios": "https://dc.lft.to/lastmile_qr_scan"}, "fusion_lon": 0.0}, {"lat": 38.93944, "is_disabled": 0, "type": "electric_scooter", "lon": -77.0367445, "bike_id": "83af14c2aadaa40a3933c607f7b66d4c", "fusion_lat": 0.0, "name": "83af14c2aadaa40a3933c607f7b66d4c", "is_reserved": 0, "rental_uris": {"android": "https://dc.lft.to/lastmile_qr_scan", "ios": "https://dc.lft.to/lastmile_qr_scan"}, "fusion_lon": 0.0}, {"lat": 38.908849833333335, "is_disabled": 0, "type": "electric_scooter", "lon": -77.04337916666667, "bike_id": "6268f51893f816dc09d74a28be3e6e87", "fusion_lat": 0.0, "name": "6268f51893f816dc09d74a28be3e6e87", "is_reserved": 0, "rental_uris": {"android": "https://dc.lft.to/lastmile_qr_scan", "ios": "https://dc.lft.to/lastmile_qr_scan"}, "fusion_lon": 0.0}, {"lat": 38.915232, "is_disabled": 0, "type": "electric_scooter", "lon": -77.02181766666666, "bike_id": "8812207ad20119a08c73c31741d9244c", "fusion_lat": 0.0, "name": "8812207ad20119a08c73c31741d9244c", "is_reserved": 0, "rental_uris": {"android": "https://dc.lft.to/lastmile_qr_scan", "ios": "https://dc.lft.to/lastmile_qr_scan"}, "fusion_lon": 0.0}, {"lat": 38.903547833333334, "is_disabled": 0, "type": "electric_scooter", "lon": -77.06579366666666, "bike_id": "3e788b1d18168c0b4caa7e5d3a220ff0", "fusion_lat": 0.0, "name": "3e788b1d18168c0b4caa7e5d3a220ff0", "is_reserved": 0, "rental_uris": {"android": "https://dc.lft.to/lastmile_qr_scan", "ios": "https://dc.lft.to/lastmile_qr_scan"}, "fusion_lon": 0.0}, {"lat": 38.8972905, "is_disabled": 0, "type": "electric_scooter", "lon": -77.046849, "bike_id": "ce0529923e644cbda35f0e225b6ef79d", "fusion_lat": 0.0, "name": "ce0529923e644cbda35f0e225b6ef79d", "is_reserved": 0, "rental_uris": {"android": "https://dc.lft.to/lastmile_qr_scan", "ios": "https://dc.lft.to/lastmile_qr_scan"}, "fusion_lon": 0.0}, {"lat": 38.919672166666665, "is_disabled": 0, "type": "electric_scooter", "lon": -77.03961783333334, "bike_id": "0c9c37ffd7b5f8b9c69aef1639727dcd", "fusion_lat": 0.0, "name": "0c9c37ffd7b5f8b9c69aef1639727dcd", "is_reserved": 0, "rental_uris": {"android": "https://dc.lft.to/lastmile_qr_scan", "ios": "https://dc.lft.to/lastmile_qr_scan"}, "fusion_lon": 0.0}, {"lat": 38.920061833333335, "is_disabled": 0, "type": "electric_scooter", "lon": -77.0317845, "bike_id": "73e3685550d25ce4e15c968222f6d18d", "fusion_lat": 0.0, "name": "73e3685550d25ce4e15c968222f6d18d", "is_reserved": 0, "rental_uris": {"android": "https://dc.lft.to/lastmile_qr_scan", "ios": "https://dc.lft.to/lastmile_qr_scan"}, "fusion_lon": 0.0}, {"lat": 38.91797183333333, "is_disabled": 0, "type": "electric_scooter", "lon": -77.04657516666667, "bike_id": "1fe162c4fa24c676114e5dcd828c7178", "fusion_lat": 0.0, "name": "1fe162c4fa24c676114e5dcd828c7178", "is_reserved": 0, "rental_uris": {"android": "https://dc.lft.to/lastmile_qr_scan", "ios": "https://dc.lft.to/lastmile_qr_scan"}, "fusion_lon": 0.0}, {"lat": 38.92760883333333, "is_disabled": 0, "type": "electric_scooter", "lon": -77.03221333333333, "bike_id": "4ecddf1299abce19f9820ecd000bca47", "fusion_lat": 0.0, "name": "4ecddf1299abce19f9820ecd000bca47", "is_reserved": 0, "rental_uris": {"android": "https://dc.lft.to/lastmile_qr_scan", "ios": "https://dc.lft.to/lastmile_qr_scan"}, "fusion_lon": 0.0}, {"lat": 38.939633666666666, "is_disabled": 0, "type": "electric_bike", "lon": -77.36096616666667, "bike_id": "c3faf79c36fd8440625e16688877aa65", "fusion_lat": 0.0, "name": "c3faf79c36fd8440625e16688877aa65", "is_reserved": 0, "rental_uris": {"android": "https://dc.lft.to/lastmile_qr_scan", "ios": "https://dc.lft.to/lastmile_qr_scan"}, "fusion_lon": 0.0}, {"lat": 38.9223575, "is_disabled": 0, "type": "electric_scooter", "lon": -77.04577, "bike_id": "875a16bf34512d08836a4ac21cdeae41", "fusion_lat": 0.0, "name": "875a16bf34512d08836a4ac21cdeae41", "is_reserved": 0, "rental_uris": {"android": "https://dc.lft.to/lastmile_qr_scan", "ios": "https://dc.lft.to/lastmile_qr_scan"}, "fusion_lon": 0.0}, {"lat": 38.93980616666666, "is_disabled": 0, "type": "electric_scooter", "lon": -77.07174083333334, "bike_id": "7e65640df7e9585db158aded9c4c543d", "fusion_lat": 0.0, "name": "7e65640df7e9585db158aded9c4c543d", "is_reserved": 0, "rental_uris": {"android": "https://dc.lft.to/lastmile_qr_scan", "ios": "https://dc.lft.to/lastmile_qr_scan"}, "fusion_lon": 0.0},