{"data": {"bikes": [{"is_disabled": 0, "rental_uris": {"ios": "https://dc.lft.to/lastmile_qr_scan", "android": "https://dc.lft.to/lastmile_qr_scan"}, "lon": -77.02940183333334, "fusion_lon": 0.0, "is_reserved": 0, "fusion_lat": 0.0, "type": "electric_scooter", "lat": 38.898391, "name": "29cc647a78f1b1388f839eb26e411dcd", "bike_id": "29cc647a78f1b1388f839eb26e411dcd"}, {"is_disabled": 0, "rental_uris": {"ios": "https://dc.lft.to/lastmile_qr_scan", "android": "https://dc.lft.to/lastmile_qr_scan"}, "lon": -77.01210683333333, "fusion_lon": 0.0, "is_reserved": 0, "fusion_lat": 0.0, "type": "electric_scooter", "lat": 38.921213333333334, "name": "b805c0559f80fcf801a90b2565bb1cd6", "bike_id": "b805c0559f80fcf801a90b2565bb1cd6"}, {"is_disabled": 0, "rental_uris": {"ios": "https://dc.lft.to/lastmile_qr_scan", "android": "https://dc.lft.to/lastmile_qr_scan"}, "lon": -77.04571033333333, "fusion_lon": 0.0, "is_reserved": 0, "fusion_lat": 0.0, "type": "electric_scooter", "lat": 38.90379983333333, "name": "13d998d01e76e346c718626eab651af9", "bike_id": "13d998d01e76e346c718626eab651af9"}, {"is_disabled": 0, "rental_uris": {"ios": "https://dc.lft.to/lastmile_qr_scan", "android": "https://dc.lft.to/lastmile_qr_scan"}, "lon": -77.0656935, "fusion_lon": 0.0, "is_reserved": 0, "fusion_lat": 0.0, "type": "electric_scooter", "lat": 38.904015333333334, "name": "0e30052a96ab4834ce58d50cd6b955a2", "bike_id": "0e30052a96ab4834ce58d50cd6b955a2"}, {"is_disabled": 0, "rental_uris": {"ios": "https://dc.lft.to/lastmile_qr_scan", "android": "https://dc.lft.to/lastmile_qr_scan"}, "lon": -77.039068, "fusion_lon": 0.0, "is_reserved": 0, "fusion_lat": 0.0, "type": "electric_bike", "lat": 38.902648666666664, "name": "53a64f4f74cef2d67b456f644ca61271", "bike_id": "53a64f4f74cef2d67b456f644ca61271"}, {"is_disabled": 0, "rental_uris": {"ios": "https://dc.lft.to/lastmile_qr_scan", "android": "https://dc.lft.to/lastmile_qr_scan"}, "lon": -77.00707683333333, "fusion_lon": 0.0, "is_reserved": 0, "fusion_lat": 0.0, "type": "electric_scooter", "lat": 38.905840166666664, "name": "410f74fcdda7c8e489fccc91386ede15", "bike_id": "410f74fcdda7c8e489fccc91386ede15"}, {"is_disabled": 0, "rental_uris": {"ios": "https://dc.lft.to/lastmile_qr_scan", "android": "https://dc.lft.to/lastmile_qr_scan"}, "lon": -76.9834275, "fusion_lon": 0.0, "is_reserved": 0, "fusion_lat": 0.0, "type": "electric_scooter", "lat": 38.900922, "name": "d7a83c3098318d2779614cb05cc55459", "bike_id": "d7a83c3098318d2779614cb05cc55459"}, {"is_disabled": 0, "rental_uris": {"ios": "https://dc.lft.to/lastmile_qr_scan", "android": "https://dc.lft.to/lastmile_qr_scan"}, "lon": -77.01523183333333, "fusion_lon": 0.0, "is_reserved": 0, "fusion_lat": 0.0, "type": "electric_scooter", "lat": 38.87223383333333, "name": "2e3035b17387fe35f892b83b00f7c0de", "bike_id": "2e3035b17387fe35f892b83b00f7c0de"}, {"is_disabled": 0, "rental_uris": {"ios": "https://dc.lft.to/lastmile_qr_scan", "android": "https://dc.lft.to/lastmile_qr_scan"}, "lon": -76.983345, "fusion_lon": 0.0, "is_reserved": 0, "fusion_lat": 0.0, "type": "electric_scooter", "lat": 38.8954435, "name": "4850ab82ddee304769468a091b5d2ce7", "bike_id": "4850ab82ddee304769468a091b5d2ce7"}, {"is_disabled": 0, "rental_uris": {"ios": "https://dc.lft.to/lastmile_qr_scan", "android": "https://dc.lft.to/lastmile_qr_scan"}, "lon": -77.02604116666667, "fusion_lon": 0.0, "is_reserved": 0, "fusion_lat": 0.0, "type": "electric_scooter", "lat": 38.903568666666665, "name": "f54249e9ef653ec9327f76296ad99da9", "bike_id": "f54249e9ef653ec9327f76296ad99da9"}, {"is_disabled": 0, "rental_uris": {"ios": "https://dc.lft.to/lastmile_qr_scan", "android": "https://dc.lft.to/lastmile_qr_scan"}, "lon": -77.04879583333333, "fusion_lon": 0.0, "is_reserved": 0, "fusion_lat": 0.0, "type": "electric_scooter", "lat": 38.9016955, "name": "3781bacea1f779aef12994b3e5a63bb8", "bike_id": "3781bacea1f779aef12994b3e5a63bb8"}, {"is_disabled": 0, "rental_uris": {"ios": "https://dc.lft.to/lastmile_qr_scan", "android": "https://dc.lft.to/lastmile_qr_scan"}, "lon": -77.04497783333333, "fusion_lon": 0.0, "is_reserved": 0, "fusion_lat": 0.0, "type": "electric_scooter", "lat": 38.90596816666667, "name": "9844e9d3c2eb49ee84738c401b7673fe", "bike_id": "9844e9d3c2eb49ee84738c401b7673fe"}, {"is_disabled": 0, "rental_uris": {"ios": "https://dc.lft.to/lastmile_qr_scan", "android": "https://dc.lft.to/lastmile_qr_scan"}, "lon": -77.04929033333333, "fusion_lon": 0.0, "is_reserved": 0, "fusion_lat": 0.0, "type": "electric_scooter", "lat": 38.895513666666666, "name": "a64931e33c5af595ea22fcf4c5bce65c", "bike_id": "a64931e33c5af595ea22fcf4c5bce65c"}, {"is_disabled": 0, "rental_uris": {"ios": "https://dc.lft.to/lastmile_qr_scan", "android": "https://dc.lft.to/lastmile_qr_scan"}, "lon": -77.0400305, "fusion_lon": 0.0, "is_reserved": 0, "fusion_lat": 0.0, "type": "electric_scooter", "lat": 38.899429166666664, "name": "2542e5aeab56e606aba743b41e299645", "bike_id": "2542e5aeab56e606aba743b41e299645"}, {"is_disabled": 0, "rental_uris": {"ios": "https://dc.lft.to/lastmile_qr_scan", "android": "https://dc.lft.to/lastmile_qr_scan"}, "lon": -77.0106705, "fusion_lon": 0.0, "is_reserved": 0, "fusion_lat": 0.0, "type": "electric_scooter", "lat": 38.91826116666667, "name": "46ec34698ff9020430393a4001039501", "bike_id": "46ec34698ff9020430393a4001039501"}, {"is_disabled": 0, "rental_uris": {"ios": "https://dc.lft.to/lastmile_qr_scan", "android": "https://dc.lft.to/lastmile_qr_scan"}, "lon": -77.03887716666667, "fusion_lon": 0.0, "is_reserved": 0, "fusion_lat": 0.0, "type": "electric_scooter", "lat": 38.92215016666667, "name": "c4127c2e5774aeb317aa6bde1fb00506", "bike_id": "c4127c2e5774aeb317aa6bde1fb00506"}, {"is_disabled": 0, "rental_uris": {"ios": "https://dc.lft.to/lastmile_qr_scan", "android": "https://dc.lft.to/lastmile_qr_scan"}, "lon": -77.01775666666667, "fusion_lon": 0.0, "is_reserved": 0, "fusion_lat": 0.0, "type": "electric_scooter", "lat": 38.92005433333333, "name": "4686302a62690c83124f5644f9883fd5", "bike_id": "4686302a62690c83124f5644f9883fd5"}, {"is_disabled": 0, "rental_uris": {"ios": "https://dc.lft.to/lastmile_qr_scan", "android": "https://dc.lft.to/lastmile_qr_scan"}, "lon": -77.02604433333333, "fusion_lon": 0.0, "is_reserved": 0, "fusion_lat": 0.0, "type": "electric_scooter", "lat": 38.90415766666667, "name": "8203a3a4cc59d03aad4fb8122550f6b0", "bike_id": "8203a3a4cc59d03aad4fb8122550f6b0"}, {"is_disabled": 0, "rental_uris": {"ios": "https://dc.lft.to/lastmile_qr_scan", "android": "https://dc.lft.to/lastmile_qr_scan"}, "lon": -77.01949733333333, "fusion_lon": 0.0, "is_reserved": 0, "fusion_lat": 0.0, "type": "electric_scooter", "lat": 38.92281966666667, "name": "e0de15d1bcb6fb6004677db238720902", "bike_id": "e0de15d1bcb6fb6004677db238720902"}, {"is_disabled": 0, "rental_uris": {"ios": "https://dc.lft.to/lastmile_qr_scan", "android": "https://dc.lft.to/lastmile_qr_scan"}, "lon": -77.03273433333334, "fusion_lon": 0.0, "is_reserved": 0, "fusion_lat": 0.0, "type": "electric_scooter", "lat": 38.898807166666664, "name": "0c39602314f70484d94a0a3337b1091a", "bike_id": "0c39602314f70484d94a0a3337b1091a"}, {"is_disabled": 0, "rental_uris": {"ios": "https://dc.lft.to/lastmile_qr_scan", "android": "https://dc.lft.to/lastmile_qr_scan"}, "lon": -77.022895, "fusion_lon": 0.0, "is_reserved": 0, "fusion_lat": 0.0, "type": "electric_scooter", "lat": 38.920865166666665, "name": "e427ef869baa262fbc9ccb8c78cf8c86", "bike_id": "e427ef869baa262fbc9ccb8c78cf8c86"}, {"is_disabled": 0, "rental_uris": {"ios": "https://dc.lft.to/lastmile_qr_scan", "android": "https://dc.lft.to/lastmile_qr_scan"}, "lon": -76.997153, "fusion_lon": 0.0, "is_reserved": 0, "fusion_lat": 0.0, "type": "electric_bike", "lat": 38.9985695, "name": "8ed9787a48ec8227d34986102498a858", "bike_id": "8ed9787a48ec8227d34986102498a858"}, {"is_disabled": 0, "rental_uris": {"ios": "https://dc.lft.to/lastmile_qr_scan", "android": "https://dc.lft.to/lastmile_qr_scan"}, "lon": -76.98598616666666, "fusion_lon": 0.0, "is_reserved": 0, "fusion_lat": 0.0, "type": "electric_scooter", "lat": 38.9065805, "name": "5d75ac4039595e35b59b5796f8e1866b", "bike_id": "5d75ac4039595e35b59b5796f8e1866b"}, {"is_disabled": 0, "rental_uris": {"ios": "https://dc.lft.to/lastmile_qr_scan", "android": "https://dc.lft.to/lastmile_qr_scan"}, "lon": -77.02218516666667, "fusion_lon": 0.0, "is_reserved": 0, "fusion_lat": 0.0, "type": "electric_scooter", "lat": 38.92487716666667, "name": "0cdc49ee5d0592e031b274bb727624bb", "bike_id": "0cdc49ee5d0592e031b274bb727624bb"}, {"is_disabled": 0, "rental_uris": {"ios": "https://dc.lft.to/lastmile_qr_scan", "android": "https://dc.lft.to/lastmile_qr_scan"}, "lon": -77.01419466666667, "fusion_lon": 0.0, "is_reserved": 0, "fusion_lat": 0.0, "type": "electric_scooter", "lat": 38.928559666666665, "name": "c711ff566599c1be8ead92fd97a8df47", "bike_id": "c711ff566599c1be8ead92fd97a8df47"}, {"is_disabled": 0, "rental_uris": {"ios": "https://dc.lft.to/lastmile_qr_scan", "android": "https://dc.lft.to/lastmile_qr_scan"}, "lon": -77.0190805, "fusion_lon": 0.0, "is_reserved": 0, "fusion_lat": 0.0, "type": "electric_scooter", "lat": 38.923474666666664, "name": "f2bd94b88ad1a48143e307061b7261b5", "bike_id": "f2bd94b88ad1a48143e307061b7261b5"}, {"is_disabled": 0, "rental_uris": {"ios": "https://dc.lft.to/lastmile_qr_scan", "android": "https://dc.lft.to/lastmile_qr_scan"}, "lon": -77.05597333333333, "fusion_lon": 0.0, "is_reserved": 0, "fusion_lat": 0.0, "type": "electric_scooter", "lat": 38.894276, "name": "da64e42ef13743011970795d58cf4a8b", "bike_id": "da64e42ef13743011970795d58cf4a8b"}, {"is_disabled": 0, "rental_uris": {"ios": "https://dc.lft.to/lastmile_qr_scan", "android": "https://dc.lft.to/lastmile_qr_scan"}, "lon": -77.0247205, "fusion_lon": 0.0, "is_reserved": 0, "fusion_lat": 0.0, "type": "electric_scooter", "lat": 38.918178166666664, "name": "b9cb13882c2972027ebfd9ebb8b5892c", "bike_id": "b9cb13882c2972027ebfd9ebb8b5892c"}, {"is_disabled": 0, "rental_uris": {"ios": "https://dc.lft.to/lastmile_qr_scan", "android": "https://dc.lft.to/lastmile_qr_scan"}, "lon": -77.083185, "fusion_lon": 0.0, "is_reserved": 0, "fusion_lat": 0.0, "type": "electric_bike", "lat": 38.933470166666666, "name": "7bb58ced2040f3421b3435a251358c57", "bike_id": "7bb58ced2040f3421b3435a251358c57"}, {"is_disabled": 0, "rental_uris": {"ios": "https://dc.lft.to/lastmile_qr_scan", "android": "https://dc.lft.to/lastmile_qr_scan"}, "lon": -77.01971033333334, "fusion_lon": 0.0, "is_reserved": 0, "fusion_lat": 0.0, "type": "electric_scooter", "lat": 38.8987965, "name": "8c55c1388cb70bc7172171cb36cef099", "bike_id": "8c55c1388cb70bc7172171cb36cef099"}, {"is_disabled": 0, "rental_uris": {"ios": "https://dc.lft.to/lastmile_qr_scan", "android": "https://dc.lft.to/lastmile_qr_scan"}, "lon": -77.04365166666666, "fusion_lon": 0.0, "is_reserved": 0, "fusion_lat": 0.0, "type": "electric_scooter", "lat": 38.911169666666666, "name": "b9bfe74e6ecd89ebc89e826f3f750b4a", "bike_id": "b9bfe74e6ecd89ebc89e826f3f750b4a"}, {"is_disabled": 0, "rental_uris": {"ios": "https://dc.lft.to/lastmile_qr_scan", "android": "https://dc.lft.to/lastmile_qr_scan"}, "lon": -77.02106783333333, "fusion_lon": 0.0, "is_reserved": 0, "fusion_lat": 0.0, "type": "electric_scooter", "lat": 38.905665, "name": "89dad691d764806276dad004a82f48f2", "bike_id": "89dad691d764806276dad004a82f48f2"}, {"is_disabled": 0, "rental_uris": {"ios": "https://dc.lft.to/lastmile_qr_scan", "android": "https://dc.lft.to/lastmile_qr_scan"}, "lon": -77.0238245, "fusion_lon": 0.0, "is_reserved": 0, "fusion_lat": 0.0, "type": "electric_scooter", "lat": 38.909733, "name": "903df7872a0259988a1c9bd701f5e5ca", "bike_id": "903df7872a0259988a1c9bd701f5e5ca"}, {"is_disabled": 0, "rental_uris": {"ios": "https://dc.lft.to/lastmile_qr_scan", "android": "https://dc.lft.to/lastmile_qr_scan"}, "lon": -77.03834616666667, "fusion_lon": 0.0, "is_reserved": 0, "fusion_lat": 0.0, "type": "electric_scooter", "lat": 38.91194083333333, "name": "ed41728d175f73ab4a97fa86c59b275e", "bike_id": "ed41728d175f73ab4a97fa86c59b275e"}, {"is_disabled": 0, "rental_uris": {"ios": "https://dc.lft.to/lastmile_qr_scan", "android": "https://dc.lft.to/lastmile_qr_scan"}, "lon": -76.98480783333333, "fusion_lon": 0.0, "is_reserved": 0, "fusion_lat": 0.0, "type": "electric_scooter", "lat": 38.90031283333333, "name": "78399fcdce3a2cbbf29dc0e5ef369fa2", "bike_id": "78399fcdce3a2cbbf29dc0e5ef369fa2"}, {"is_disabled": 0, "rental_uris": {"ios": "https://dc.lft.to/lastmile_qr_scan", "android": "https://dc.lft.to/lastmile_qr_scan"}, "lon": -77.02966683333334, "fusion_lon": 0.0, "is_reserved": 0, "fusion_lat": 0.0, "type": "electric_scooter", "lat": 38.932466166666664, "name": "4e1330b5c8d962baefcd66a75bce5768", "bike_id": "4e1330b5c8d962baefcd66a75bce5768"}, {"is_disabled": 0, "rental_uris": {"ios": "https://dc.lft.to/lastmile_qr_scan", "android": "https://dc.lft.to/lastmile_qr_scan"}, "lon": -77.01337033333333, "fusion_lon": 0.0, "is_reserved": 0, "fusion_lat": 0.0, "type": "electric_scooter", "lat": 38.88120716666667, "name": "6bff0c0f1fd68ac2be003120204add5f", "bike_id": "6bff0c0f1fd68ac2be003120204add5f"}, {"is_disabled": 0, "rental_uris": {"ios": "https://dc.lft.to/lastmile_qr_scan", "android": "https://dc.lft.to/lastmile_qr_scan"}, "lon": -77.03295666666666, "fusion_lon": 0.0, "is_reserved": 0, "fusion_lat": 0.0, "type": "electric_scooter", "lat": 38.924567333333336, "name": "72bbf0ef5b3e746fd9069d0bbe699e05", "bike_id": "72bbf0ef5b3e746fd9069d0bbe699e05"}, {"is_disabled": 0, "rental_uris": {"ios": "https://dc.lft.to/lastmile_qr_scan", "android": "https://dc.lft.to/lastmile_qr_scan"}, "lon": -77.037776, "fusion_lon": 0.0, "is_reserved": 0, "fusion_lat": 0.0, "type": "electric_scooter", "lat": 38.907260666666666, "name": "652ff831b9748fbd4eb489e62fb5305a", "bike_id": "652ff831b9748fbd4eb489e62fb5305a"}, {"is_disabled": 0, "rental_uris": {"ios": "https://dc.lft.to/lastmile_qr_scan", "android": "https://dc.lft.to/lastmile_qr_scan"}, "lon": -77.02254983333333, "fusion_lon": 0.0, "is_reserved": 0, "fusion_lat": 0.0, "type": "electric_scooter", "lat": 38.89363083333333, "name": "2138b03a065207231239ef1f53c0aa23", "bike_id": "2138b03a065207231239ef1f53c0aa23"}, {"is_disabled": 0, "rental_uris": {"ios": "https://dc.lft.to/lastmile_qr_scan", "android": "https://dc.lft.to/lastmile_qr_scan"}, "lon": -77.02502916666667, "fusion_lon": 0.0, "is_reserved": 0, "fusion_lat": 0.0, "type": "electric_scooter", "lat": 38.918104666666665, "name": "b03bd43d0c020c10efc21e787a847e65", "bike_id": "b03bd43d0c020c10efc21e787a847e65"}, {"is_disabled": 0, "rental_uris": {"ios": "https://dc.lft.to/lastmile_qr_scan", "android": "https://dc.lft.to/lastmile_qr_scan"}, "lon": -77.03209633333333, "fusion_lon": 0.0, "is_reserved": 0, "fusion_lat": 0.0, "type": "electric_scooter", "lat": 38.91463266666667, "name": "7e3e32b6620d66050d0964fdb408df74", "bike_id": "7e3e32b6620d66050d0964fdb408df74"}, {"is_disabled": 0, "rental_uris": {"ios": "https://dc.lft.to/lastmile_qr_scan", "android": "https://dc.lft.to/lastmile_qr_scan"}, "lon": -77.03846616666667, "fusion_lon": 0.0, "is_reserved": 0, "fusion_lat": 0.0, "type": "electric_scooter", "lat": 38.91543883333333, "name": "6d80ed3cb353fb163c488fc4f1ab8404", "bike_id": "6d80ed3cb353fb163c488fc4f1ab8404"}, {"is_disabled": 0, "rental_uris": {"ios": "https://dc.lft.to/lastmile_qr_scan", "android": "https://dc.lft.to/lastmile_qr_scan"}, "lon": -77.01706616666667, "fusion_lon": 0.0, "is_reserved": 0, "fusion_lat": 0.0, "type": "electric_scooter", "lat": 38.8729655, "name": "788e1e7bd4eb3b2d72b7099fcf82d22c", "bike_id": "788e1e7bd4eb3b2d72b7099fcf82d22c"}, {"is_disabled": 0, "rental_uris": {"ios": "https://dc.lft.to/lastmile_qr_scan", "android": "https://dc.lft.to/lastmile_qr_scan"}, "lon": -77.036346, "fusion_lon": 0.0, "is_reserved": 0, "fusion_lat": 0.0, "type": "electric_scooter", "lat": 38.90371533333333, "name": "612fb20c8abdda6a0c439357b8338e06", "bike_id": "612fb20c8abdda6a0c439357b8338e06"}, {"is_disabled": 0, "rental_uris": {"ios": "https://dc.lft.to/lastmile_qr_scan", "android": "https://dc.lft.to/lastmile_qr_scan"}, "lon": -76.92508816666667, "fusion_lon": 0.0, "is_reserved": 0, "fusion_lat": 0.0, "type": "electric_scooter", "lat": 38.886012, "name": "a4ffde4d05a6abdd74654b96aadf9bc9", "bike_id": "a4ffde4d05a6abdd74654b96aadf9bc9"}, {"is_disabled": 0, "rental_uris": {"ios": "https://dc.lft.to/lastmile_qr_scan", "android": "https://dc.lft.to/lastmile_qr_scan"}, "lon": -76.92625583333333, "fusion_lon": 0.0, "is_reserved": 0, "fusion_lat": 0.0, "type": "electric_scooter", "lat": 38.88375816666667, "name": "62fcbfafb32307c8d24e60cf4be26698", "bike_id": "62fcbfafb32307c8d24e60cf4be26698"}, {"is_disabled": 0, "rental_uris": {"ios": "https://dc.lft.to/lastmile_qr_scan", "android": "https://dc.lft.to/lastmile_qr_scan"}, "lon": -77.0467875, "fusion_lon": 0.0, "is_reserved": 0, "fusion_lat": 0.0, "type": "electric_scooter", "lat": 38.898303, "name": "15d3d9d71f784db883f71747ab75b932", "bike_id": "15d3d9d71f784db883f71747ab75b932"}, {"is_disabled": 0, "rental_uris": {"ios": "https://dc.lft.to/lastmile_qr_scan", "android": "https://dc.lft.to/lastmile_qr_scan"}, "lon": -77.0160545, "fusion_lon": 0.0, "is_reserved": 0, "fusion_lat": 0.0, "type": "electric_scooter", "lat": 38.9131375, "name": "e244a571d31600325980727eb4ddcdf5", "bike_id": "e244a571d31600325980727eb4ddcdf5"}, {"is_disabled": 0, "rental_uris": {"ios": "https://dc.lft.to/lastmile_qr_scan", "android": "https://dc.lft.to/lastmile_qr_scan"}, "lon": -77.04659483333333, "fusion_lon": 0.0, "is_reserved": 0, "fusion_lat": 0.0, "type": "electric_scooter", "lat": 38.90592933333333, "name": "b02bf4faf336cc29fe23196f6bcb2c79", "bike_id": "b02bf4faf336cc29fe23196f6bcb2c79"}, {"is_disabled": 0, "rental_uris": {"ios": "https://dc.lft.to/lastmile_qr_scan", "android": "https://dc.lft.to/lastmile_qr_scan"}, "lon": -77.017616, "fusion_lon": 0.0, "is_reserved": 0, "fusion_lat": 0.0, "type": "electric_scooter", "lat": 38.8768105, "name": "3e2efff7ba7d4350ccac9a4daa8c15bf", "bike_id": "3e2efff7ba7d4350ccac9a4daa8c15bf"}, {"is_disabled": 0, "rental_uris": {"ios": "https://dc.lft.to/lastmile_qr_scan", "android": "https://dc.lft.to/lastmile_qr_scan"}, "lon": -77.0527955, "fusion_lon": 0.0, "is_reserved": 0, "fusion_lat": 0.0, "type": "electric_scooter", "lat": 38.92361483333333, "name": "02539ffe98d13777a6921dd3f1255ba5", "bike_id": "02539ffe98d13777a6921dd3f1255ba5"}, {"is_disabled": 0, "rental_uris": {"ios": "https://dc.lft.to/lastmile_qr_scan", "android": "https://dc.lft.to/lastmile_qr_scan"}, "lon": -77.02817733333333, "fusion_lon": 0.0, "is_reserved": 0, "fusion_lat": 0.0, "type": "electric_scooter", "lat": 38.893602, "name": "0ca2afc12c32e690156d101376e46f7f", "bike_id": "0ca2afc12c32e690156d101376e46f7f"}, {"is_disabled": 0, "rental_uris": {"ios": "https://dc.lft.to/lastmile_qr_scan", "android": "https://dc.lft.to/lastmile_qr_scan"}, "lon": -76.9755035, "fusion_lon": 0.0, "is_reserved": 0, "fusion_lat": 0.0, "type": "electric_scooter", "lat": 38.875794, "name": "a53dcc04d5ed2f91fa6aeab1caf24ca2", "bike_id": "a53dcc04d5ed2f91fa6aeab1caf24ca2"}, {"is_disabled": 0, "rental_uris": {"ios": "https://dc.lft.to/lastmile_qr_scan", "android": "https://dc.lft.to/lastmile_qr_scan"}, "lon": -77.02991383333334, "fusion_lon": 0.0, "is_reserved": 0, "fusion_lat": 0.0, "type": "electric_scooter", "lat": 38.907305666666666, "name": "218c4baba775e2d81636075c98fb373b", "bike_id": "218c4baba775e2d81636075c98fb373b"}, {"is_disabled": 0, "rental_uris": {"ios": "https://dc.lft.to/lastmile_qr_scan", "android": "https://dc.lft.to/lastmile_qr_scan"}, "lon": -77.04344133333333, "fusion_lon": 0.0, "is_reserved": 0, "fusion_lat": 0.0, "type": "electric_scooter", "lat": 38.89736033333333, "name": "5b6fca4232ba83ef158cac431134f51b", "bike_id": "5b6fca4232ba83ef158cac431134f51b"}, {"is_disabled": 0, "rental_uris": {"ios": "https://dc.lft.to/lastmile_qr_scan", "android": "https://dc.lft.to/lastmile_qr_scan"}, "lon": -76.94380283333334, "fusion_lon": 0.0, "is_reserved": 0, "fusion_lat": 0.0, "type": "electric_scooter", "lat": 38.89120333333334, "name": "aea26e309f616812c52a504441a3eb4d", "bike_id": "aea26e309f616812c52a504441a3eb4d"}, {"is_disabled": 0, "rental_uris": {"ios": "https://dc.lft.to/lastmile_qr_scan", "android": "https://dc.lft.to/lastmile_qr_scan"}, "lon": -76.93007966666667, "fusion_lon": 0.0, "is_reserved": 0, "fusion_lat": 0.0, "type": "electric_scooter", "lat": 38.9071675, "name": "aba12d7788f1a1c127e551454e04dcdf", "bike_id": "aba12d7788f1a1c127e551454e04dcdf"}, {"is_disabled": 0, "rental_uris": {"ios": "https://dc.lft.to/lastmile_qr_scan", "android": "https://dc.lft.to/lastmile_qr_scan"}, "lon": -77.09525666666667, "fusion_lon": 0.0, "is_reserved": 0, "fusion_lat": 0.0, "type": "electric_bike", "lat": 38.83813283333333, "name": "a519e9130aa9b250ca601c355f3a5493", "bike_id": "a519e9130aa9b250ca601c355f3a5493"}, {"is_disabled": 0, "rental_uris": {"ios": "https://dc.lft.to/lastmile_qr_scan", "android": "https://dc.lft.to/lastmile_qr_scan"}, "lon": -77.04651766666667, "fusion_lon": 0.0, "is_reserved": 0, "fusion_lat": 0.0, "type": "electric_scooter", "lat": 38.90657183333333, "name": "72a4befeb50dc6276d60a9b83ba4883c", "bike_id": "72a4befeb50dc6276d60a9b83ba4883c"}, {"is_disabled": 0, "rental_uris": {"ios": "https://dc.lft.to/lastmile_qr_scan", "android": "https://dc.lft.to/lastmile_qr_scan"}, "lon": -77.028514, "fusion_lon": 0.0, "is_reserved": 0, "fusion_lat": 0.0, "type": "electric_scooter", "lat": 38.90218216666667, "name": "328264e411c1011325bd304cd9f5fc98", "bike_id": "328264e411c1011325bd304cd9f5fc98"}, {"is_disabled": 0, "rental_uris": {"ios": "https://dc.lft.to/lastmile_qr_scan", "android": "https://dc.lft.to/lastmile_qr_scan"}, "lon": -77.08619283333333, "fusion_lon": 0.0, "is_reserved": 0, "fusion_lat": 0.0, "type": "electric_bike", "lat": 38.931292, "name": "11bc830a87cf47cb9dd0dbe67d9566fa", "bike_id": "11bc830a87cf47cb9dd0dbe67d9566fa"}, {"is_disabled": 0, "rental_uris": {"ios": "https://dc.lft.to/lastmile_qr_scan", "android": "https://dc.lft.to/lastmile_qr_scan"}, "lon": -77.01871566666667, "fusion_lon": 0.0, "is_reserved": 0, "fusion_lat": 0.0, "type": "electric_scooter", "lat": 38.87659, "name": "192e909de32194b1c7f62e29c716449c", "bike_id": "192e909de32194b1c7f62e29c716449c"}, {"is_disabled": 0, "rental_uris": {"ios": "https://dc.lft.to/lastmile_qr_scan", "android": "https://dc.lft.to/lastmile_qr_scan"}, "lon": -77.03627966666667, "fusion_lon": 0.0, "is_reserved": 0, "fusion_lat": 0.0, "type": "electric_bike", "lat": 38.972959333333336, "name": "e6f5d4e0d113dc844d071adbc5e636cd", "bike_id": "e6f5d4e0d113dc844d071adbc5e636cd"}, {"is_disabled": 0, "rental_uris": {"ios": "https://dc.lft.to/lastmile_qr_scan", "android": "https://dc.lft.to/lastmile_qr_scan"}, "lon": -76.9626545, "fusion_lon": 0.0, "is_reserved": 0, "fusion_lat": 0.0, "type": "electric_bike", "lat": 38.967848833333335, "name": "6338d0dad1cd593a4cf3bcbdaf320ca4", "bike_id": "6338d0dad1cd593a4cf3bcbdaf320ca4"}, {"is_disabled": 0, "rental_uris": {"ios": "https://dc.lft.to/lastmile_qr_scan", "android": "https://dc.lft.to/lastmile_qr_scan"}, "lon": -77.02815633333333, "fusion_lon": 0.0, "is_reserved": 0, "fusion_lat": 0.0, "type": "electric_scooter", "lat": 38.90466133333334, "name": "9349473adf63afaf2d85d99750f1ba58", "bike_id": "9349473adf63afaf2d85d99750f1ba58"}, {"is_disabled": 0, "rental_uris": {"ios": "https://dc.lft.to/lastmile_qr_scan", "android": "https://dc.lft.to/lastmile_qr_scan"}, "lon": -77.084113, "fusion_lon": 0.0, "is_reserved": 0, "fusion_lat": 0.0, "type": "electric_bike", "lat": 38.9129725, "name": "a3d3fd219740679725ee6a55028c2b80", "bike_id": "a3d3fd219740679725ee6a55028c2b80"}, {"is_disabled": 0, "rental_uris": {"ios": "https://dc.lft.to/lastmile_qr_scan", "android": "https://dc.lft.to/lastmile_qr_scan"}, "lon": -77.0230755, "fusion_lon": 0.0, "is_reserved": 0, "fusion_lat": 0.0, "type": "electric_scooter", "lat": 38.945610333333335, "name": "753ffab1e0effda7679569dfd61b4768", "bike_id": "753ffab1e0effda7679569dfd61b4768"}, {"is_disabled": 0, "rental_uris": {"ios": "https://dc.lft.to/lastmile_qr_scan", "android": "https://dc.lft.to/lastmile_qr_scan"}, "lon": -76.96083666666667, "fusion_lon": 0.0, "is_reserved": 0, "fusion_lat": 0.0, "type": "electric_bike", "lat": 38.918623, "name": "f6e366bf841dbf6cc261e228e71e0dac", "bike_id": "f6e366bf841dbf6cc261e228e71e0dac"}, {"is_disabled": 0, "rental_uris": {"ios": "https://dc.lft.to/lastmile_qr_scan", "android": "https://dc.lft.to/lastmile_qr_scan"}, "lon": -77.00674066666667, "fusion_lon": 0.0, "is_reserved": 0, "fusion_lat": 0.0, "type": "electric_scooter", "lat": 38.899923333333334, "name": "54df1b163ec883ba84af5602f14635a1", "bike_id": "54df1b163ec883ba84af5602f14635a1"}, {"is_disabled": 0, "rental_uris": {"ios": "https://dc.lft.to/lastmile_qr_scan", "android": "https://dc.lft.to/lastmile_qr_scan"}, "lon": -76.96915516666667, "fusion_lon": 0.0, "is_reserved": 0, "fusion_lat": 0.0, "type": "electric_bike", "lat": 38.84615133333333, "name": "37b562a8a1c88a356de0fd35a2fee9d1", "bike_id": "37b562a8a1c88a356de0fd35a2fee9d1"}, {"is_disabled": 0, "rental_uris": {"ios": "https://dc.lft.to/lastmile_qr_scan", "android": "https://dc.lft.to/lastmile_qr_scan"}, "lon": -77.10214016666667, "fusion_lon": 0.0, "is_reserved": 0, "fusion_lat": 0.0, "type": "electric_bike", "lat": 38.919981166666666, "name": "280d163bc7716537149119fdc69a12ae", "bike_id": "280d163bc7716537149119fdc69a12ae"}, {"is_disabled": 0, "rental_uris": {"ios": "https://dc.lft.to/lastmile_qr_scan", "android": "https://dc.lft.to/lastmile_qr_scan"}, "lon": -77.04491466666667, "fusion_lon": 0.0, "is_reserved": 0, "fusion_lat": 0.0, "type": "electric_scooter", "lat": 38.907498833333335, "name": "09b50431607a5549713520d7e560490c", "bike_id": "09b50431607a5549713520d7e560490c"}, {"is_disabled": 0, "rental_uris": {"ios": "https://dc.lft.to/lastmile_qr_scan", "android": "https://dc.lft.to/lastmile_qr_scan"}, "lon": -77.00218933333333, "fusion_lon": 0.0, "is_reserved": 0, "fusion_lat": 0.0, "type": "electric_scooter", "lat": 38.90032183333334, "name": "a38012d59619a1dc64afb358515f3acf", "bike_id": "a38012d59619a1dc64afb358515f3acf"}, {"is_disabled": 0, "rental_uris": {"ios": "https://dc.lft.to/lastmile_qr_scan", "android": "https://dc.lft.to/lastmile_qr_scan"}, "lon": -77.01686583333333, "fusion_lon": 0.0, "is_reserved": 0, "fusion_lat": 0.0, "type": "electric_bike", "lat": 38.877116, "name": "1123baa31c8231e6f9b2d321ba17404c", "bike_id": "1123baa31c8231e6f9b2d321ba17404c"}, {"is_disabled": 0, "rental_uris": {"ios": "https://dc.lft.to/lastmile_qr_scan", "android": "https://dc.lft.to/lastmile_qr_scan"}, "lon": -76.98686883333333, "fusion_lon": 0.0, "is_reserved": 0, "fusion_lat": 0.0, "type": "electric_bike", "lat": 38.944701, "name": "2aa76864d6c61ace0f4ce33e6d00ebc8", "bike_id": "2aa76864d6c61ace0f4ce33e6d00ebc8"}, {"is_disabled": 0, "rental_uris": {"ios": "https://dc.lft.to/lastmile_qr_scan", "android": "https://dc.lft.to/lastmile_qr_scan"}, "lon": -77.03420033333333, "fusion_lon": 0.0, "is_reserved": 0, "fusion_lat": 0.0, "type": "electric_scooter", "lat": 38.930854, "name": "be90cf05f8f6e0a2dc86fd638fe3028a", "bike_id": "be90cf05f8f6e0a2dc86fd638fe3028a"}, {"is_disabled": 0, "rental_uris": {"ios": "https://dc.lft.to/lastmile_qr_scan", "android": "https://dc.lft.to/lastmile_qr_scan"}, "lon": -77.02002383333334, "fusion_lon": 0.0, "is_reserved": 0, "fusion_lat": 0.0, "type": "electric_scooter", "lat": 38.92411516666667, "name": "8d3ed4e24121bbdfb1d0a82ee2746b00", "bike_id": "8d3ed4e24121bbdfb1d0a82ee2746b00"}, {"is_disabled": 0, "rental_uris": {"ios": "https://dc.lft.to/lastmile_qr_scan", "android": "https://dc.lft.to/lastmile_qr_scan"}, "lon": -77.01947833333334, "fusion_lon": 0.0, "is_reserved": 0, "fusion_lat": 0.0, "type": "electric_scooter", "lat": 38.92333566666667, "name": "877b2fbdbe6786e1e07dbfded4d56194", "bike_id": "877b2fbdbe6786e1e07dbfded4d56194"}, {"is_disabled": 0, "rental_uris": {"ios": "https://dc.lft.to/lastmile_qr_scan", "android": "https://dc.lft.to/lastmile_qr_scan"}, "lon": -77.2317715, "fusion_lon": 0.0, "is_reserved": 0, "fusion_lat": 0.0, "type": "electric_bike", "lat": 38.928949833333334, "name": "95eae6f05c5be5a18db583795907c74f", "bike_id": "95eae6f05c5be5a18db583795907c74f"}, {"is_disabled": 0, "rental_uris": {"ios": "https://dc.lft.to/lastmile_qr_scan", "android": "https://dc.lft.to/lastmile_qr_scan"}, "lon": -77.04478966666667, "fusion_lon": 0.0, "is_reserved": 0, "fusion_lat": 0.0, "type": "electric_scooter", "lat": 38.913593666666664, "name": "4e1a4b795a9727943890314678754b00", "bike_id": "4e1a4b795a9727943890314678754b00"}, {"is_disabled": 0, "rental_uris": {"ios": "https://dc.lft.to/lastmile_qr_scan", "android": "https://dc.lft.to/lastmile_qr_scan"}, "lon": -77.06380233333333, "fusion_lon": 0.0, "is_reserved": 0, "fusion_lat": 0.0, "type": "electric_scooter", "lat": 38.90527016666667, "name": "82a124e4496c5ca51fb52908f8647f8b", "bike_id": "82a124e4496c5ca51fb52908f8647f8b"}, {"is_disabled": 0, "rental_uris": {"ios": "https://dc.lft.to/lastmile_qr_scan", "android": "https://dc.lft.to/lastmile_qr_scan"}, "lon": -77.079069, "fusion_lon": 0.0, "is_reserved": 0, "fusion_lat": 0.0, "type": "electric_bike", "lat": 38.83833383333333, "name": "6b52049d1c49ea657bc931382db61fb7", "bike_id": "6b52049d1c49ea657bc931382db61fb7"}, {"is_disabled": 0, "rental_uris": {"ios": "https://dc.lft.to/lastmile_qr_scan", "android": "https://dc.lft.to/lastmile_qr_scan"}, "lon": -77.02413766666666, "fusion_lon": 0.0, "is_reserved": 0, "fusion_lat": 0.0, "type": "electric_scooter", "lat": 38.920938666666665, "name": "40106d3e2aed14e13a7af43b5b6f3b20", "bike_id": "40106d3e2aed14e13a7af43b5b6f3b20"}, {"is_disabled": 0, "rental_uris": {"ios": "https://dc.lft.to/lastmile_qr_scan", "android": "https://dc.lft.to/lastmile_qr_scan"}, "lon": -77.02565183333333, "fusion_lon": 0.0, "is_reserved": 0, "fusion_lat": 0.0, "type": "electric_scooter", "lat": 38.94847816666667, "name": "ac9e63f4a630e2ed6df104afe23a33bd", "bike_id": "ac9e63f4a630e2ed6df104afe23a33bd"}, {"is_disabled": 0, "rental_uris": {"ios": "https://dc.lft.to/lastmile_qr_scan", "android": "https://dc.lft.to/lastmile_qr_scan"}, "lon": -77.00605183333333, "fusion_lon": 0.0, "is_reserved": 0, "fusion_lat": 0.0, "type": "electric_scooter", "lat": 38.91114, "name": "87fd543d5126218019a5386155f2bd18", "bike_id": "87fd543d5126218019a5386155f2bd18"}, {"is_disabled": 0, "rental_uris": {"ios": "https://dc.lft.to/lastmile_qr_scan", "android": "https://dc.lft.to/lastmile_qr_scan"}, "lon": -77.00055616666667, "fusion_lon": 0.0, "is_reserved": 0, "fusion_lat": 0.0, "type": "electric_scooter", "lat": 38.900267666666664, "name": "8f9fbe9367cd29be0cba6a50590d9427", "bike_id": "8f9fbe9367cd29be0cba6a50590d9427"}, {"is_disabled": 0, "rental_uris": {"ios": "https://dc.lft.to/lastmile_qr_scan", "android": "https://dc.lft.to/lastmile_qr_scan"}, "lon": -77.03255666666666, "fusion_lon": 0.0, "is_reserved": 0, "fusion_lat": 0.0, "type": "electric_scooter", "lat": 38.91991, "name": "e68a73cc85657210bfd952af954c7cdc", "bike_id": "e68a73cc85657210bfd952af954c7cdc"}, {"is_disabled": 0, "rental_uris": {"ios": "https://dc.lft.to/lastmile_qr_scan", "android": "https://dc.lft.to/lastmile_qr_scan"}, "lon": -77.01210166666667, "fusion_lon": 0.0, "is_reserved": 0, "fusion_lat": 0.0, "type": "electric_scooter", "lat": 38.9150245, "name": "a9a280c623bcc2d9162d8b5b3033a28f", "bike_id": "a9a280c623bcc2d9162d8b5b3033a28f"}, {"is_disabled": 0, "rental_uris": {"ios": "https://dc.lft.to/lastmile_qr_scan", "android": "https://dc.lft.to/lastmile_qr_scan"}, "lon": -76.98361916666667, "fusion_lon": 0.0, "is_reserved": 0, "fusion_lat": 0.0, "type": "electric_scooter", "lat": 38.8873395, "name": "53c028ac05b46c3e9f519ac5d9e60700", "bike_id": "53c028ac05b46c3e9f519ac5d9e60700"}, {"is_disabled": 0, "rental_uris": {"ios": "https://dc.lft.to/lastmile_qr_scan", "android": "https://dc.lft.to/lastmile_qr_scan"}, "lon": -76.93753583333333, "fusion_lon": 0.0, "is_reserved": 0, "fusion_lat": 0.0, "type": "electric_scooter", "lat": 38.89047716666666, "name": "0d6636b49f9d9ac7c3e1c8abf043c02b", "bike_id": "0d6636b49f9d9ac7c3e1c8abf043c02b"}, {"is_disabled": 0, "rental_uris": {"ios": "https://dc.lft.to/lastmile_qr_scan", "android": "https://dc.lft.to/lastmile_qr_scan"}, "lon": -77.03245283333334, "fusion_lon": 0.0, "is_reserved": 0, "fusion_lat": 0.0, "type": "electric_scooter", "lat": 38.928773166666666, "name": "497376c0cb5c720244eca9852acf4a0e", "bike_id": "497376c0cb5c720244eca9852acf4a0e"}, {"is_disabled": 0, "rental_uris": {"ios": "https://dc.lft.to/lastmile_qr_scan", "android": "https://dc.lft.to/lastmile_qr_scan"}, "lon": -77.10290016666667, "fusion_lon": 0.0, "is_reserved": 0, "fusion_lat": 0.0, "type": "electric_bike", "lat": 38.852562, "name": "2ba1c2d2a271f8f9befa0caf3eb03ab9", "bike_id": "2ba1c2d2a271f8f9befa0caf3eb03ab9"}, {"is_disabled": 0, "rental_uris": {"ios": "https://dc.lft.to/lastmile_qr_scan", "android": "https://dc.lft.to/lastmile_qr_scan"}, "lon": -77.03724033333333, "fusion_lon": 0.0, "is_reserved": 0, "fusion_lat": 0.0, "type": "electric_scooter", "lat": 38.920321666666666, "name": "f3f25c9f99d9e6c4b9c1b6d563a7f44e", "bike_id": "f3f25c9f99d9e6c4b9c1b6d563a7f44e"}, {"is_disabled": 0, "rental_uris": {"ios": "https://dc.lft.to/lastmile_qr_scan", "android": "https://dc.lft.to/lastmile_qr_scan"}, "lon": -77.02660283333333, "fusion_lon": 0.0, "is_reserved": 0, "fusion_lat": 0.0, "type": "electric_bike", "lat": 38.988168, "name": "70a68654baea37aedd93b2e30a98cf3c", "bike_id": "70a68654baea37aedd93b2e30a98cf3c"}, {"is_disabled": 0, "rental_uris": {"ios": "https://dc.lft.to/lastmile_qr_scan", "android": "https://dc.lft.to/lastmile_qr_scan"}, "lon": -76.93803666666666, "fusion_lon": 0.0, "is_reserved": 0, "fusion_lat": 0.0, "type": "electric_bike", "lat": 38.9797335, "name": "559299415fbd37c862ed97328e0cb3c2", "bike_id": "559299415fbd37c862ed97328e0cb3c2"}, {"is_disabled": 0, "rental_uris": {"ios": "https://dc.lft.to/lastmile_qr_scan", "android": "https://dc.lft.to/lastmile_qr_scan"}, "lon": -77.0048365, "fusion_lon": 0.0, "is_reserved": 0, "fusion_lat": 0.0, "type": "electric_scooter", "lat": 38.87459483333333, "name": "c0c0a7ab87db83bc06212b75af6c44af", "bike_id": "c0c0a7ab87db83bc06212b75af6c44af"}, {"is_disabled": 0, "rental_uris": {"ios": "https://dc.lft.to/lastmile_qr_scan", "android": "https://dc.lft.to/lastmile_qr_scan"}, "lon": -77.033534, "fusion_lon": 0.0, "is_reserved": 0, "fusion_lat": 0.0, "type": "electric_scooter", "lat": 38.924456666666664, "name": "8f8787d5360e0039b6d8583bc9669766", "bike_id": "8f8787d5360e0039b6d8583bc9669766"}, {"is_disabled": 0, "rental_uris": {"ios": "https://dc.lft.to/lastmile_qr_scan", "android": "https://dc.lft.to/lastmile_qr_scan"}, "lon": -77.04000116666667, "fusion_lon": 0.0, "is_reserved": 0, "fusion_lat": 0.0, "type": "electric_scooter", "lat": 38.908401166666664, "name": "0241e83b79380b9f4562f33d67c4ae60", "bike_id": "0241e83b79380b9f4562f33d67c4ae60"}, {"is_disabled": 0, "rental_uris": {"ios": "https://dc.lft.to/lastmile_qr_scan", "android": "https://dc.lft.to/lastmile_qr_scan"}, "lon": -77.03481266666667, "fusion_lon": 0.0, "is_reserved": 0, "fusion_lat": 0.0, "type": "electric_scooter", "lat": 38.928907333333335, "name": "8124aeb3410515009d1c6b57e318cdea", "bike_id": "8124aeb3410515009d1c6b57e318cdea"}, {"is_disabled": 0, "rental_uris": {"ios": "https://dc.lft.to/lastmile_qr_scan", "android": "https://dc.lft.to/lastmile_qr_scan"}, "lon": -77.02163333333333, "fusion_lon": 0.0, "is_reserved": 0, "fusion_lat": 0.0, "type": "electric_scooter", "lat": 38.91953566666667, "name": "7f65e543d0e421b762d6c81748042f04", "bike_id": "7f65e543d0e421b762d6c81748042f04"}, {"is_disabled": 0, "rental_uris": {"ios": "https://dc.lft.to/lastmile_qr_scan", "android": "https://dc.lft.to/lastmile_qr_scan"}, "lon": -77.03263183333334, "fusion_lon": 0.0, "is_reserved": 0, "fusion_lat": 0.0, "type": "electric_scooter", "lat": 38.93524633333333, "name": "cc16eaca13ed0aa27cc0d94b1c9cce41", "bike_id": "cc16eaca13ed0aa27cc0d94b1c9cce41"}, {"is_disabled": 0, "rental_uris": {"ios": "https://dc.lft.to/lastmile_qr_scan", "android": "https://dc.lft.to/lastmile_qr_scan"}, "lon": -77.002942, "fusion_lon": 0.0, "is_reserved": 0, "fusion_lat": 0.0, "type": "electric_scooter", "lat": 38.89203933333334, "name": "191dc56c0b72253eb2974861ead78d82", "bike_id": "191dc56c0b72253eb2974861ead78d82"}, {"is_disabled": 0, "rental_uris": {"ios": "https://dc.lft.to/lastmile_qr_scan", "android": "https://dc.lft.to/lastmile_qr_scan"}, "lon": -77.030797, "fusion_lon": 0.0, "is_reserved": 0, "fusion_lat": 0.0, "type": "electric_scooter", "lat": 38.905566666666665, "name": "62a14a3eafb9349e43552c2b6caea0b1", "bike_id": "62a14a3eafb9349e43552c2b6caea0b1"}, {"is_disabled": 0, "rental_uris": {"ios": "https://dc.lft.to/lastmile_qr_scan", "android": "https://dc.lft.to/lastmile_qr_scan"}, "lon": -77.04882383333333, "fusion_lon": 0.0, "is_reserved": 0, "fusion_lat": 0.0, "type": "electric_scooter", "lat": 38.90541833333333, "name": "054fee5318f8ec2d9194295f202d14e8", "bike_id": "054fee5318f8ec2d9194295f202d14e8"}, {"is_disabled": 0, "rental_uris": {"ios": "https://dc.lft.to/lastmile_qr_scan", "android": "https://dc.lft.to/lastmile_qr_scan"}, "lon": -77.03675083333333, "fusion_lon": 0.0, "is_reserved": 0, "fusion_lat": 0.0, "type": "electric_scooter", "lat": 38.91798933333333, "name": "d0bf45fffd8ddea610f310b620febf14", "bike_id": "d0bf45fffd8ddea610f310b620febf14"}, {"is_disabled": 0, "rental_uris": {"ios": "https://dc.lft.to/lastmile_qr_scan", "android": "https://dc.lft.to/lastmile_qr_scan"}, "lon": -77.096647, "fusion_lon": 0.0, "is_reserved": 0, "fusion_lat": 0.0, "type": "electric_bike", "lat": 38.952163666666664, "name": "ec6fc7c11af6266d02a3f0393c817b26", "bike_id": "ec6fc7c11af6266d02a3f0393c817b26"}, {"is_disabled": 0, "rental_uris": {"ios": "https://dc.lft.to/lastmile_qr_scan", "android": "https://dc.lft.to/lastmile_qr_scan"}, "lon": -77.0280275, "fusion_lon": 0.0, "is_reserved": 0, "fusion_lat": 0.0, "type": "electric_scooter", "lat": 38.915734, "name": "6136797c9a5196333c869bce258897ef", "bike_id": "6136797c9a5196333c869bce258897ef"}, {"is_disabled": 0, "rental_uris": {"ios": "https://dc.lft.to/lastmile_qr_scan", "android": "https://dc.lft.to/lastmile_qr_scan"}, "lon": -77.02807633333333, "fusion_lon": 0.0, "is_reserved": 0, "fusion_lat": 0.0, "type": "electric_scooter", "lat": 38.93081516666667, "name": "1726e1717d2e6cb87dc5b76857921ca5", "bike_id": "1726e1717d2e6cb87dc5b76857921ca5"}, {"is_disabled": 0, "rental_uris": {"ios": "https://dc.lft.to/lastmile_qr_scan", "android": "https://dc.lft.to/lastmile_qr_scan"}, "lon": -77.03986066666667, "fusion_lon": 0.0, "is_reserved": 0, "fusion_lat": 0.0, "type": "electric_scooter", "lat": 38.90860416666666, "name": "8882f555138bbc20cacc4cefd2dbd3f6", "bike_id": "8882f555138bbc20cacc4cefd2dbd3f6"}, {"is_disabled": 0, "rental_uris": {"ios": "https://dc.lft.to/lastmile_qr_scan", "android": "https://dc.lft.to/lastmile_qr_scan"}, "lon": -77.01916766666666, "fusion_lon": 0.0, "is_reserved": 0, "fusion_lat": 0.0, "type": "electric_scooter", "lat": 38.923733666666664, "name": "643f3a7b314664f266f1f9670679e533", "bike_id": "643f3a7b314664f266f1f9670679e533"}, {"is_disabled": 0, "rental_uris": {"ios": "https://dc.lft.to/lastmile_qr_scan", "android": "https://dc.lft.to/lastmile_qr_scan"}, "lon": -77.03305366666666, "fusion_lon": 0.0, "is_reserved": 0, "fusion_lat": 0.0, "type": "electric_scooter", "lat": 38.91124516666667, "name": "b3bbe70a8e4a1955724639d70e69c642", "bike_id": "b3bbe70a8e4a1955724639d70e69c642"}, {"is_disabled": 0, "rental_uris": {"ios": "https://dc.lft.to/lastmile_qr_scan", "android": "https://dc.lft.to/lastmile_qr_scan"}, "lon": -77.01951633333333, "fusion_lon": 0.0, "is_reserved": 0, "fusion_lat": 0.0, "type": "electric_scooter", "lat": 38.92335583333333, "name": "937bf2888b3914bcf2a86cd9046aaad5", "bike_id": "937bf2888b3914bcf2a86cd9046aaad5"}, {"is_disabled": 0, "rental_uris": {"ios": "https://dc.lft.to/lastmile_qr_scan", "android": "https://dc.lft.to/lastmile_qr_scan"}, "lon": -77.03195866666667, "fusion_lon": 0.0, "is_reserved": 0, "fusion_lat": 0.0, "type": "electric_scooter", "lat": 38.9003725, "name": "24eddb990066127bf76a6861ec19e329", "bike_id": "24eddb990066127bf76a6861ec19e329"}, {"is_disabled": 0, "rental_uris": {"ios": "https://dc.lft.to/lastmile_qr_scan", "android": "https://dc.lft.to/lastmile_qr_scan"}, "lon": -77.03363016666667, "fusion_lon": 0.0, "is_reserved": 0, "fusion_lat": 0.0, "type": "electric_scooter", "lat": 38.9275515, "name": "84c9b872716aeddcc1697c4b194f4a9d", "bike_id": "84c9b872716aeddcc1697c4b194f4a9d"}, {"is_disabled": 0, "rental_uris": {"ios": "https://dc.lft.to/lastmile_qr_scan", "android": "https://dc.lft.to/lastmile_qr_scan"}, "lon": -77.037473, "fusion_lon": 0.0, "is_reserved": 0, "fusion_lat": 0.0, "type": "electric_scooter", "lat": 38.905553166666664, "name": "2f4a84c78fa2e1d0da64fa395afbe115", "bike_id": "2f4a84c78fa2e1d0da64fa395afbe115"}, {"is_disabled": 0, "rental_uris": {"ios": "https://dc.lft.to/lastmile_qr_scan", "android": "https://dc.lft.to/lastmile_qr_scan"}, "lon": -77.03521233333333, "fusion_lon": 0.0, "is_reserved": 0, "fusion_lat": 0.0, "type": "electric_scooter", "lat": 38.922363, "name": "e60eca26c902cfa6cca8d9176339a0b6", "bike_id": "e60eca26c902cfa6cca8d9176339a0b6"}, {"is_disabled": 0, "rental_uris": {"ios": "https://dc.lft.to/lastmile_qr_scan", "android": "https://dc.lft.to/lastmile_qr_scan"}, "lon": -77.03828083333333, "fusion_lon": 0.0, "is_reserved": 0, "fusion_lat": 0.0, "type": "electric_scooter", "lat": 38.907995166666666, "name": "645f635abee9445318f84d74636be4f6", "bike_id": "645f635abee9445318f84d74636be4f6"}, {"is_disabled": 0, "rental_uris": {"ios": "https://dc.lft.to/lastmile_qr_scan", "android": "https://dc.lft.to/lastmile_qr_scan"}, "lon": -76.98639683333333, "fusion_lon": 0.0, "is_reserved": 0, "fusion_lat": 0.0, "type": "electric_scooter", "lat": 38.855152833333335, "name": "e5ac4e1f5fd87a90e9e3f73755fb235b", "bike_id": "e5ac4e1f5fd87a90e9e3f73755fb235b"}, {"is_disabled": 0, "rental_uris": {"ios": "https://dc.lft.to/lastmile_qr_scan", "android": "https://dc.lft.to/lastmile_qr_scan"}, "lon": -77.03441816666667, "fusion_lon": 0.0, "is_reserved": 0, "fusion_lat": 0.0, "type": "electric_scooter", "lat": 38.902772666666664, "name": "f5ff321b7c38554e31ec79697b3878b4", "bike_id": "f5ff321b7c38554e31ec79697b3878b4"}, {"is_disabled": 0, "rental_uris": {"ios": "https://dc.lft.to/lastmile_qr_scan", "android": "https://dc.lft.to/lastmile_qr_scan"}, "lon": -76.98574216666667, "fusion_lon": 0.0, "is_reserved": 0, "fusion_lat": 0.0, "type": "electric_scooter", "lat": 38.9001545, "name": "5282204830f132ec9e5089f826bf071c", "bike_id": "5282204830f132ec9e5089f826bf071c"}, {"is_disabled": 0, "rental_uris": {"ios": "https://dc.lft.to/lastmile_qr_scan", "android": "https://dc.lft.to/lastmile_qr_scan"}, "lon": -77.0438485, "fusion_lon": 0.0, "is_reserved": 0, "fusion_lat": 0.0, "type": "electric_scooter", "lat": 38.90580466666667, "name": "fbf1feb65cd34badeb9d843e8e5c516d", "bike_id": "fbf1feb65cd34badeb9d843e8e5c516d"}, {"is_disabled": 0, "rental_uris": {"ios": "https://dc.lft.to/lastmile_qr_scan", "android": "https://dc.lft.to/lastmile_qr_scan"}, "lon": -77.00889616666667, "fusion_lon": 0.0, "is_reserved": 0, "fusion_lat": 0.0, "type": "electric_scooter", "lat": 38.906349, "name": "9ed74992d5ce7aaca4d93a8bca9f4f8c", "bike_id": "9ed74992d5ce7aaca4d93a8bca9f4f8c"}, {"is_disabled": 0, "rental_uris": {"ios": "https://dc.lft.to/lastmile_qr_scan", "android": "https://dc.lft.to/lastmile_qr_scan"}, "lon": -77.01997633333333, "fusion_lon": 0.0, "is_reserved": 0, "fusion_lat": 0.0, "type": "electric_scooter", "lat": 38.900502833333334, "name": "4a6955c012c906e7286109127400e880", "bike_id": "4a6955c012c906e7286109127400e880"}, {"is_disabled": 0, "rental_uris": {"ios": "https://dc.lft.to/lastmile_qr_scan", "android": "https://dc.lft.to/lastmile_qr_scan"}, "lon": -77.04494816666667, "fusion_lon": 0.0, "is_reserved": 0, "fusion_lat": 0.0, "type": "electric_scooter", "lat": 38.90377066666667, "name": "745d2efce72e9d7a928d479694316035", "bike_id": "745d2efce72e9d7a928d479694316035"}, {"is_disabled": 0, "rental_uris": {"ios": "https://dc.lft.to/lastmile_qr_scan", "android": "https://dc.lft.to/lastmile_qr_scan"}, "lon": -77.032991, "fusion_lon": 0.0, "is_reserved": 0, "fusion_lat": 0.0, "type": "electric_scooter", "lat": 38.926276666666666, "name": "a2a8aade3e6fd1d5945f29776e7f7b98", "bike_id": "a2a8aade3e6fd1d5945f29776e7f7b98"}, {"is_disabled": 0, "rental_uris": {"ios": "https://dc.lft.to/lastmile_qr_scan", "android": "https://dc.lft.to/lastmile_qr_scan"}, "lon": -77.03662466666667, "fusion_lon": 0.0, "is_reserved": 0, "fusion_lat": 0.0, "type": "electric_scooter", "lat": 38.922749333333336, "name": "c0dd26a1a8403a07a2caab66829a0b36", "bike_id": "c0dd26a1a8403a07a2caab66829a0b36"}, {"is_disabled": 0, "rental_uris": {"ios": "https://dc.lft.to/lastmile_qr_scan", "android": "https://dc.lft.to/lastmile_qr_scan"}, "lon": -77.01154016666666, "fusion_lon": 0.0, "is_reserved": 0, "fusion_lat": 0.0, "type": "electric_bike", "lat": 38.915814166666664, "name": "15ec30f8ef7baceb535bd0373c74f006", "bike_id": "15ec30f8ef7baceb535bd0373c74f006"}, {"is_disabled": 0, "rental_uris": {"ios": "https://dc.lft.to/lastmile_qr_scan", "android": "https://dc.lft.to/lastmile_qr_scan"}, "lon": -77.02534266666666, "fusion_lon": 0.0, "is_reserved": 0, "fusion_lat": 0.0, "type": "electric_scooter", "lat": 38.883458, "name": "799005b1576ea4287fcf49dba913b36d", "bike_id": "799005b1576ea4287fcf49dba913b36d"}, {"is_disabled": 0, "rental_uris": {"ios": "https://dc.lft.to/lastmile_qr_scan", "android": "https://dc.lft.to/lastmile_qr_scan"}, "lon": -77.003352, "fusion_lon": 0.0, "is_reserved": 0, "fusion_lat": 0.0, "type": "electric_scooter", "lat": 38.893590333333336, "name": "6f800261b4acfe3afe5ec2b37d65e5cb", "bike_id": "6f800261b4acfe3afe5ec2b37d65e5cb"}, {"is_disabled": 0, "rental_uris": {"ios": "https://dc.lft.to/lastmile_qr_scan", "android": "https://dc.lft.to/lastmile_qr_scan"}, "lon": -77.04335316666666, "fusion_lon": 0.0, "is_reserved": 0, "fusion_lat": 0.0, "type": "electric_scooter", "lat": 38.896450333333334, "name": "c8981a500795b282d625269c4eae870c", "bike_id": "c8981a500795b282d625269c4eae870c"}, {"is_disabled": 0, "rental_uris": {"ios": "https://dc.lft.to/lastmile_qr_scan", "android": "https://dc.lft.to/lastmile_qr_scan"}, "lon": -76.94654616666666, "fusion_lon": 0.0, "is_reserved": 0, "fusion_lat": 0.0, "type": "electric_scooter", "lat": 38.898309166666664, "name": "6b05177e1eda281ff966b0e0c9856743", "bike_id": "6b05177e1eda281ff966b0e0c9856743"}, {"is_disabled": 0, "rental_uris": {"ios": "https://dc.lft.to/lastmile_qr_scan", "android": "https://dc.lft.to/lastmile_qr_scan"}, "lon": -77.03464733333334, "fusion_lon": 0.0, "is_reserved": 0, "fusion_lat": 0.0, "type": "electric_scooter", "lat": 38.905693, "name": "8a222f55b4665e0d538d6bb8d09b05a0", "bike_id": "8a222f55b4665e0d538d6bb8d09b05a0"}, {"is_disabled": 0, "rental_uris": {"ios": "https://dc.lft.to/lastmile_qr_scan", "android": "https://dc.lft.to/lastmile_qr_scan"}, "lon": -77.03440033333334, "fusion_lon": 0.0, "is_reserved": 0, "fusion_lat": 0.0, "type": "electric_scooter", "lat": 38.90741716666667, "name": "4565e6c06d4fc4d7f30efabbffd85d04", "bike_id": "4565e6c06d4fc4d7f30efabbffd85d04"}, {"is_disabled": 0, "rental_uris": {"ios": "https://dc.lft.to/lastmile_qr_scan", "android": "https://dc.lft.to/lastmile_qr_scan"}, "lon": -77.00550016666666, "fusion_lon": 0.0, "is_reserved": 0, "fusion_lat": 0.0, "type": "electric_scooter", "lat": 38.880605833333334, "name": "81c6d894493ea642e971ab31b9d9de6c", "bike_id": "81c6d894493ea642e971ab31b9d9de6c"}, {"is_disabled": 0, "rental_uris": {"ios": "https://dc.lft.to/lastmile_qr_scan", "android": "https://dc.lft.to/lastmile_qr_scan"}, "lon": -77.02413616666666, "fusion_lon": 0.0, "is_reserved": 0, "fusion_lat": 0.0, "type": "electric_scooter", "lat": 38.920957666666666, "name": "4d4e087775b03330d3ad7ece44305b7a", "bike_id": "4d4e087775b03330d3ad7ece44305b7a"}, {"is_disabled": 0, "rental_uris": {"ios": "https://dc.lft.to/lastmile_qr_scan", "android": "https://dc.lft.to/lastmile_qr_scan"}, "lon": -77.04034866666667, "fusion_lon": 0.0, "is_reserved": 0, "fusion_lat": 0.0, "type": "electric_scooter", "lat": 38.91191366666666, "name": "29757b26da12a1f246ebedb048183c90", "bike_id": "29757b26da12a1f246ebedb048183c90"}, {"is_disabled": 0, "rental_uris": {"ios": "https://dc.lft.to/lastmile_qr_scan", "android": "https://dc.lft.to/lastmile_qr_scan"}, "lon": -77.03332716666667, "fusion_lon": 0.0, "is_reserved": 0, "fusion_lat": 0.0, "type": "electric_scooter", "lat": 38.928847, "name": "44c462e7075997241c204a7ed9a3c747", "bike_id": "44c462e7075997241c204a7ed9a3c747"}, {"is_disabled": 0, "rental_uris": {"ios": "https://dc.lft.to/lastmile_qr_scan", "android": "https://dc.lft.to/lastmile_qr_scan"}, "lon": -77.0432125, "fusion_lon": 0.0, "is_reserved": 0, "fusion_lat": 0.0, "type": "electric_scooter", "lat": 38.909229, "name": "4b50da6023efc7b43fd88ec9a8700178", "bike_id": "4b50da6023efc7b43fd88ec9a8700178"}, {"is_disabled": 0, "rental_uris": {"ios": "https://dc.lft.to/lastmile_qr_scan", "android": "https://dc.lft.to/lastmile_qr_scan"}, "lon": -77.028821, "fusion_lon": 0.0, "is_reserved": 0, "fusion_lat": 0.0, "type": "electric_scooter", "lat": 38.913515833333335, "name": "2417096715f01dbbc2a3c7b5f52ee5a4", "bike_id": "2417096715f01dbbc2a3c7b5f52ee5a4"}, {"is_disabled": 0, "rental_uris": {"ios": "https://dc.lft.to/lastmile_qr_scan", "android": "https://dc.lft.to/lastmile_qr_scan"}, "lon": -76.99691616666667, "fusion_lon": 0.0, "is_reserved": 0, "fusion_lat": 0.0, "type": "electric_bike", "lat": 38.838680333333336, "name": "a5da94a629a371462d704bf4da2981eb", "bike_id": "a5da94a629a371462d704bf4da2981eb"}, {"is_disabled": 0, "rental_uris": {"ios": "https://dc.lft.to/lastmile_qr_scan", "android": "https://dc.lft.to/lastmile_qr_scan"}, "lon": -76.99277366666666, "fusion_lon": 0.0, "is_reserved": 0, "fusion_lat": 0.0, "type": "electric_bike", "lat": 38.97259533333333, "name": "023595bb7faa3bbe94f88e652908799a", "bike_id": "023595bb7faa3bbe94f88e652908799a"}, {"is_disabled": 0, "rental_uris": {"ios": "https://dc.lft.to/lastmile_qr_scan", "android": "https://dc.lft.to/lastmile_qr_scan"}, "lon": -77.01639866666666, "fusion_lon": 0.0, "is_reserved": 0, "fusion_lat": 0.0, "type": "electric_scooter", "lat": 38.9056755, "name": "c3895e05ad9f47604de4a1522a8ef71c", "bike_id": "c3895e05ad9f47604de4a1522a8ef71c"}, {"is_disabled": 0, "rental_uris": {"ios": "https://dc.lft.to/lastmile_qr_scan", "android": "https://dc.lft.to/lastmile_qr_scan"}, "lon": -77.02416, "fusion_lon": 0.0, "is_reserved": 0, "fusion_lat": 0.0, "type": "electric_scooter", "lat": 38.920977, "name": "b91deaf59bc603b1f0f6a4d593d420c0", "bike_id": "b91deaf59bc603b1f0f6a4d593d420c0"}, {"is_disabled": 0, "rental_uris": {"ios": "https://dc.lft.to/lastmile_qr_scan", "android": "https://dc.lft.to/lastmile_qr_scan"}, "lon": -77.03862533333333, "fusion_lon": 0.0, "is_reserved": 0, "fusion_lat": 0.0, "type": "electric_scooter", "lat": 38.91262033333334, "name": "c79c3ebdd5d588e7a7c3b8a487e2e9cc", "bike_id": "c79c3ebdd5d588e7a7c3b8a487e2e9cc"}, {"is_disabled": 0, "rental_uris": {"ios": "https://dc.lft.to/lastmile_qr_scan", "android": "https://dc.lft.to/lastmile_qr_scan"}, "lon": -76.94651716666667, "fusion_lon": 0.0, "is_reserved": 0, "fusion_lat": 0.0, "type": "electric_scooter", "lat": 38.89829783333333, "name": "f28c0f46b4f119616abb4608e05c30bf", "bike_id": "f28c0f46b4f119616abb4608e05c30bf"}, {"is_disabled": 0, "rental_uris": {"ios": "https://dc.lft.to/lastmile_qr_scan", "android": "https://dc.lft.to/lastmile_qr_scan"}, "lon": -77.0239855, "fusion_lon": 0.0, "is_reserved": 0, "fusion_lat": 0.0, "type": "electric_scooter", "lat": 38.915746, "name": "c9f1e7f2427aa428901a9b4abec19237", "bike_id": "c9f1e7f2427aa428901a9b4abec19237"}, {"is_disabled": 0, "rental_uris": {"ios": "https://dc.lft.to/lastmile_qr_scan", "android": "https://dc.lft.to/lastmile_qr_scan"}, "lon": -77.07142833333333, "fusion_lon": 0.0, "is_reserved": 0, "fusion_lat": 0.0, "type": "electric_scooter", "lat": 38.926229666666664, "name": "a211bd06b31d6bfc9112638dd8b09511", "bike_id": "a211bd06b31d6bfc9112638dd8b09511"}, {"is_disabled": 0, "rental_uris": {"ios": "https://dc.lft.to/lastmile_qr_scan", "android": "https://dc.lft.to/lastmile_qr_scan"}, "lon": -77.02156716666667, "fusion_lon": 0.0, "is_reserved": 0, "fusion_lat": 0.0, "type": "electric_scooter", "lat": 38.94135216666667, "name": "aff574742fbddc7acdc6ab1ef24bddb5", "bike_id": "aff574742fbddc7acdc6ab1ef24bddb5"}, {"is_disabled": 0, "rental_uris": {"ios": "https://dc.lft.to/lastmile_qr_scan", "android": "https://dc.lft.to/lastmile_qr_scan"}, "lon": -77.02605583333333, "fusion_lon": 0.0, "is_reserved": 0, "fusion_lat": 0.0, "type": "electric_scooter", "lat": 38.90414783333333, "name": "f76ccec310dbbadd42b7da24e00e2370", "bike_id": "f76ccec310dbbadd42b7da24e00e2370"}, {"is_disabled": 0, "rental_uris": {"ios": "https://dc.lft.to/lastmile_qr_scan", "android": "https://dc.lft.to/lastmile_qr_scan"}, "lon": -77.021135, "fusion_lon": 0.0, "is_reserved": 0, "fusion_lat": 0.0, "type": "electric_scooter", "lat": 38.9059705, "name": "4a60ed4e913b89cf6947085cb83aadcd", "bike_id": "4a60ed4e913b89cf6947085cb83aadcd"}, {"is_disabled": 0, "rental_uris": {"ios": "https://dc.lft.to/lastmile_qr_scan", "android": "https://dc.lft.to/lastmile_qr_scan"}, "lon": -77.02045883333334, "fusion_lon": 0.0, "is_reserved": 0, "fusion_lat": 0.0, "type": "electric_scooter", "lat": 38.921812, "name": "db88ee70fc2173f2c3cff182beb32ed5", "bike_id": "db88ee70fc2173f2c3cff182beb32ed5"}, {"is_disabled": 0, "rental_uris": {"ios": "https://dc.lft.to/lastmile_qr_scan", "android": "https://dc.lft.to/lastmile_qr_scan"}, "lon": -77.03256016666667, "fusion_lon": 0.0, "is_reserved": 0, "fusion_lat": 0.0, "type": "electric_bike", "lat": 38.93522816666667, "name": "f8fab6efc6f2046a599601fd6e8365df", "bike_id": "f8fab6efc6f2046a599601fd6e8365df"}, {"is_disabled": 0, "rental_uris": {"ios": "https://dc.lft.to/lastmile_qr_scan", "android": "https://dc.lft.to/lastmile_qr_scan"}, "lon": -77.021533, "fusion_lon": 0.0, "is_reserved": 0, "fusion_lat": 0.0, "type": "electric_scooter", "lat": 38.887545833333334, "name": "d926b8954c6719f98a7f1c3b51e3c40b", "bike_id": "d926b8954c6719f98a7f1c3b51e3c40b"}, {"is_disabled": 0, "rental_uris": {"ios": "https://dc.lft.to/lastmile_qr_scan", "android": "https://dc.lft.to/lastmile_qr_scan"}, "lon": -77.07539, "fusion_lon": 0.0, "is_reserved": 0, "fusion_lat": 0.0, "type": "electric_scooter", "lat": 38.908842666666665, "name": "691aa5cea6c50e3b390d0e2ed76487dd", "bike_id": "691aa5cea6c50e3b390d0e2ed76487dd"}, {"is_disabled": 0, "rental_uris": {"ios": "https://dc.lft.to/lastmile_qr_scan", "android": "https://dc.lft.to/lastmile_qr_scan"}, "lon": -77.03453866666666, "fusion_lon": 0.0, "is_reserved": 0, "fusion_lat": 0.0, "type": "electric_scooter", "lat": 38.902636333333334, "name": "96b2857016a6ce8dcd935c4d47b964dc", "bike_id": "96b2857016a6ce8dcd935c4d47b964dc"}, {"is_disabled": 0, "rental_uris": {"ios": "https://dc.lft.to/lastmile_qr_scan", "android": "https://dc.lft.to/lastmile_qr_scan"}, "lon": -76.99498933333334, "fusion_lon": 0.0, "is_reserved": 0, "fusion_lat": 0.0, "type": "electric_scooter", "lat": 38.86213983333333, "name": "89f74f35f27a469b46465d7e885387bf", "bike_id": "89f74f35f27a469b46465d7e885387bf"}, {"is_disabled": 0, "rental_uris": {"ios": "https://dc.lft.to/lastmile_qr_scan", "android": "https://dc.lft.to/lastmile_qr_scan"}, "lon": -77.00372766666666, "fusion_lon": 0.0, "is_reserved": 0, "fusion_lat": 0.0, "type": "electric_scooter", "lat": 38.897423833333335, "name": "3ccdcbef3561a1a390bce67b805ecb72", "bike_id": "3ccdcbef3561a1a390bce67b805ecb72"}, {"is_disabled": 0, "rental_uris": {"ios": "https://dc.lft.to/lastmile_qr_scan", "android": "https://dc.lft.to/lastmile_qr_scan"}, "lon": -76.993158, "fusion_lon": 0.0, "is_reserved": 0, "fusion_lat": 0.0, "type": "electric_scooter", "lat": 38.920179833333336, "name": "9c0c007ba174e370052ed74cc69cfa87", "bike_id": "9c0c007ba174e370052ed74cc69cfa87"}, {"is_disabled": 0, "rental_uris": {"ios": "https://dc.lft.to/lastmile_qr_scan", "android": "https://dc.lft.to/lastmile_qr_scan"}, "lon": -77.021482, "fusion_lon": 0.0, "is_reserved": 0, "fusion_lat": 0.0, "type": "electric_scooter", "lat": 38.903579666666666, "name": "843e8586fc200b6cea7ac7dfef067180", "bike_id": "843e8586fc200b6cea7ac7dfef067180"}, {"is_disabled": 0, "rental_uris": {"ios": "https://dc.lft.to/lastmile_qr_scan", "android": "https://dc.lft.to/lastmile_qr_scan"}, "lon": -77.02987866666666, "fusion_lon": 0.0, "is_reserved": 0, "fusion_lat": 0.0, "type": "electric_scooter", "lat": 38.911911833333335, "name": "c71670697e0648b9166f0e1c4bd658f8", "bike_id": "c71670697e0648b9166f0e1c4bd658f8"}, {"is_disabled": 0, "rental_uris": {"ios": "https://dc.lft.to/lastmile_qr_scan", "android": "https://dc.lft.to/lastmile_qr_scan"}, "lon": -77.025018, "fusion_lon": 0.0, "is_reserved": 0, "fusion_lat": 0.0, "type": "electric_scooter", "lat": 38.9181465, "name": "3ab2f37e69d8817eee12e260f3952672", "bike_id": "3ab2f37e69d8817eee12e260f3952672"}, {"is_disabled": 0, "rental_uris": {"ios": "https://dc.lft.to/lastmile_qr_scan", "android": "https://dc.lft.to/lastmile_qr_scan"}, "lon": -77.04148833333333, "fusion_lon": 0.0, "is_reserved": 0, "fusion_lat": 0.0, "type": "electric_scooter", "lat": 38.916830166666664, "name": "69af7bfa453d75d7a94412f30c6cd129", "bike_id": "69af7bfa453d75d7a94412f30c6cd129"}, {"is_disabled": 0, "rental_uris": {"ios": "https://dc.lft.to/lastmile_qr_scan", "android": "https://dc.lft.to/lastmile_qr_scan"}, "lon": -77.03273933333334, "fusion_lon": 0.0, "is_reserved": 0, "fusion_lat": 0.0, "type": "electric_scooter", "lat": 38.932503833333335, "name": "74bcd7bc192cc2539ebe1cbc802529ba", "bike_id": "74bcd7bc192cc2539ebe1cbc802529ba"}, {"is_disabled": 0, "rental_uris": {"ios": "https://dc.lft.to/lastmile_qr_scan", "android": "https://dc.lft.to/lastmile_qr_scan"}, "lon": -77.04117633333334, "fusion_lon": 0.0, "is_reserved": 0, "fusion_lat": 0.0, "type": "electric_scooter", "lat": 38.9119315, "name": "905be664a0089fbe36bfa1d20aa8fd08", "bike_id": "905be664a0089fbe36bfa1d20aa8fd08"}, {"is_disabled": 0, "rental_uris": {"ios": "https://dc.lft.to/lastmile_qr_scan", "android": "https://dc.lft.to/lastmile_qr_scan"}, "lon": -77.04884133333333, "fusion_lon": 0.0, "is_reserved": 0, "fusion_lat": 0.0, "type": "electric_scooter", "lat": 38.90082116666667, "name": "7a16e1d42510b50e883b56a0b7b42b68", "bike_id": "7a16e1d42510b50e883b56a0b7b42b68"}, {"is_disabled": 0, "rental_uris": {"ios": "https://dc.lft.to/lastmile_qr_scan", "android": "https://dc.lft.to/lastmile_qr_scan"}, "lon": -76.960911, "fusion_lon": 0.0, "is_reserved": 0, "fusion_lat": 0.0, "type": "electric_scooter", "lat": 38.918592833333335, "name": "e346564f46195d4736aaf602680d48b3", "bike_id": "e346564f46195d4736aaf602680d48b3"}, {"is_disabled": 0, "rental_uris": {"ios": "https://dc.lft.to/lastmile_qr_scan", "android": "https://dc.lft.to/lastmile_qr_scan"}, "lon": -77.044091, "fusion_lon": 0.0, "is_reserved": 0, "fusion_lat": 0.0, "type": "electric_scooter", "lat": 38.895951, "name": "c4e1e6e2a422940f4c354545a3fa0456", "bike_id": "c4e1e6e2a422940f4c354545a3fa0456"}, {"is_disabled": 0, "rental_uris": {"ios": "https://dc.lft.to/lastmile_qr_scan", "android": "https://dc.lft.to/lastmile_qr_scan"}, "lon": -77.01985066666667, "fusion_lon": 0.0, "is_reserved": 0, "fusion_lat": 0.0, "type": "electric_scooter", "lat": 38.905040166666666, "name": "96263c55ab07a54a1600eaa9e7f8f15c", "bike_id": "96263c55ab07a54a1600eaa9e7f8f15c"}, {"is_disabled": 0, "rental_uris": {"ios": "https://dc.lft.to/lastmile_qr_scan", "android": "https://dc.lft.to/lastmile_qr_scan"}, "lon": -77.094519, "fusion_lon": 0.0, "is_reserved": 0, "fusion_lat": 0.0, "type": "electric_bike", "lat": 38.8075655, "name": "238aabf684068ab19d904fb075b25c4d", "bike_id": "238aabf684068ab19d904fb075b25c4d"}, {"is_disabled": 0, "rental_uris": {"ios": "https://dc.lft.to/lastmile_qr_scan", "android": "https://dc.lft.to/lastmile_qr_scan"}, "lon": -77.034406, "fusion_lon": 0.0, "is_reserved": 0, "fusion_lat": 0.0, "type": "electric_scooter", "lat": 38.91799666666667, "name": "638f2ae48526913236f74ed1736b1637", "bike_id": "638f2ae48526913236f74ed1736b1637"}, {"is_disabled": 0, "rental_uris": {"ios": "https://dc.lft.to/lastmile_qr_scan", "android": "https://dc.lft.to/lastmile_qr_scan"}, "lon": -77.0167855, "fusion_lon": 0.0, "is_reserved": 0, "fusion_lat": 0.0, "type": "electric_scooter", "lat": 38.920411, "name": "5f48d9d359c41fd07ac8dacd2c4c102a", "bike_id": "5f48d9d359c41fd07ac8dacd2c4c102a"}, {"is_disabled": 0, "rental_uris": {"ios": "https://dc.lft.to/lastmile_qr_scan", "android": "https://dc.lft.to/lastmile_qr_scan"}, "lon": -77.05140083333333, "fusion_lon": 0.0, "is_reserved": 0, "fusion_lat": 0.0, "type": "electric_scooter", "lat": 38.9061, "name": "89f2895abac2764aa8ad779b0acff669", "bike_id": "89f2895abac2764aa8ad779b0acff669"}, {"is_disabled": 0, "rental_uris": {"ios": "https://dc.lft.to/lastmile_qr_scan", "android": "https://dc.lft.to/lastmile_qr_scan"}, "lon": -77.09964183333334, "fusion_lon": 0.0, "is_reserved": 0, "fusion_lat": 0.0, "type": "electric_bike", "lat": 38.8579395, "name": "a2a4b97b8b3e1b4c268baf68743fb2ac", "bike_id": "a2a4b97b8b3e1b4c268baf68743fb2ac"}, {"is_disabled": 0, "rental_uris": {"ios": "https://dc.lft.to/lastmile_qr_scan", "android": "https://dc.lft.to/lastmile_qr_scan"}, "lon": -76.9292495, "fusion_lon": 0.0, "is_reserved": 0, "fusion_lat": 0.0, "type": "electric_scooter", "lat": 38.8921, "name": "24c46067b96c114f217dbd21d1bd7301", "bike_id": "24c46067b96c114f217dbd21d1bd7301"}, {"is_disabled": 0, "rental_uris": {"ios": "https://dc.lft.to/lastmile_qr_scan", "android": "https://dc.lft.to/lastmile_qr_scan"}, "lon": -77.0542505, "fusion_lon": 0.0, "is_reserved": 0, "fusion_lat": 0.0, "type": "electric_scooter", "lat": 38.9233695, "name": "d780563b8e59b8c18d4acad1cb8ff313", "bike_id": "d780563b8e59b8c18d4acad1cb8ff313"}, {"is_disabled": 0, "rental_uris": {"ios": "https://dc.lft.to/lastmile_qr_scan", "android": "https://dc.lft.to/lastmile_qr_scan"}, "lon": -77.03217983333333, "fusion_lon": 0.0, "is_reserved": 0, "fusion_lat": 0.0, "type": "electric_scooter", "lat": 38.928658166666665, "name": "497d28e66092c5f5eda71508722c863a", "bike_id": "497d28e66092c5f5eda71508722c863a"}, {"is_disabled": 0, "rental_uris": {"ios": "https://dc.lft.to/lastmile_qr_scan", "android": "https://dc.lft.to/lastmile_qr_scan"}, "lon": -77.03298983333333, "fusion_lon": 0.0, "is_reserved": 0, "fusion_lat": 0.0, "type": "electric_scooter", "lat": 38.929332, "name": "4de8587619f303ff5409c4d9e1ca3448", "bike_id": "4de8587619f303ff5409c4d9e1ca3448"}, {"is_disabled": 0, "rental_uris": {"ios": "https://dc.lft.to/lastmile_qr_scan", "android": "https://dc.lft.to/lastmile_qr_scan"}, "lon": -76.9375415, "fusion_lon": 0.0, "is_reserved": 0, "fusion_lat": 0.0, "type": "electric_scooter", "lat": 38.89039316666667, "name": "6c546f985c476cae1e305a2728839665", "bike_id": "6c546f985c476cae1e305a2728839665"}, {"is_disabled": 0, "rental_uris": {"ios": "https://dc.lft.to/lastmile_qr_scan", "android": "https://dc.lft.to/lastmile_qr_scan"}, "lon": -77.00565316666666, "fusion_lon": 0.0, "is_reserved": 0, "fusion_lat": 0.0, "type": "electric_scooter", "lat": 38.88504283333333, "name": "c96397c94c5ea05d079745490485331b", "bike_id": "c96397c94c5ea05d079745490485331b"}, {"is_disabled": 0, "rental_uris": {"ios": "https://dc.lft.to/lastmile_qr_scan", "android": "https://dc.lft.to/lastmile_qr_scan"}, "lon": -77.01905633333334, "fusion_lon": 0.0, "is_reserved": 0, "fusion_lat": 0.0, "type": "electric_scooter", "lat": 38.92267416666667, "name": "c3d7f1f1c6fcd91596f71bfb1673ed7c", "bike_id": "c3d7f1f1c6fcd91596f71bfb1673ed7c"}, {"is_disabled": 0, "rental_uris": {"ios": "https://dc.lft.to/lastmile_qr_scan", "android": "https://dc.lft.to/lastmile_qr_scan"}, "lon": -77.02190616666667, "fusion_lon": 0.0, "is_reserved": 0, "fusion_lat": 0.0, "type": "electric_scooter", "lat": 38.91643833333333, "name": "c53ec7385f4595cfa3a97382099b09e7", "bike_id": "c53ec7385f4595cfa3a97382099b09e7"}, {"is_disabled": 0, "rental_uris": {"ios": "https://dc.lft.to/lastmile_qr_scan", "android": "https://dc.lft.to/lastmile_qr_scan"}, "lon": -76.99987266666666, "fusion_lon": 0.0, "is_reserved": 0, "fusion_lat": 0.0, "type": "electric_scooter", "lat": 38.90736016666666, "name": "954d1d4d29d1402d858fcc830f3d78b0", "bike_id": "954d1d4d29d1402d858fcc830f3d78b0"}, {"is_disabled": 0, "rental_uris": {"ios": "https://dc.lft.to/lastmile_qr_scan", "android": "https://dc.lft.to/lastmile_qr_scan"}, "lon": -76.98361166666666, "fusion_lon": 0.0, "is_reserved": 0, "fusion_lat": 0.0, "type": "electric_scooter", "lat": 38.92201333333333, "name": "49a497ad960285c2e3f9209d3c896347", "bike_id": "49a497ad960285c2e3f9209d3c896347"}, {"is_disabled": 0, "rental_uris": {"ios": "https://dc.lft.to/lastmile_qr_scan", "android": "https://dc.lft.to/lastmile_qr_scan"}, "lon": -77.03213933333333, "fusion_lon": 0.0, "is_reserved": 0, "fusion_lat": 0.0, "type": "electric_scooter", "lat": 38.91791383333333, "name": "d494e989306608a987999a3c281d753e", "bike_id": "d494e989306608a987999a3c281d753e"}, {"is_disabled": 0, "rental_uris": {"ios": "https://dc.lft.to/lastmile_qr_scan", "android": "https://dc.lft.to/lastmile_qr_scan"}, "lon": -77.02574, "fusion_lon": 0.0, "is_reserved": 0, "fusion_lat": 0.0, "type": "electric_scooter", "lat": 38.9252595, "name": "3991781d067fe9f51673bacbaa45503b", "bike_id": "3991781d067fe9f51673bacbaa45503b"}, {"is_disabled": 0, "rental_uris": {"ios": "https://dc.lft.to/lastmile_qr_scan", "android": "https://dc.lft.to/lastmile_qr_scan"}, "lon": -77.0186635, "fusion_lon": 0.0, "is_reserved": 0, "fusion_lat": 0.0, "type": "electric_scooter", "lat": 38.951539333333336, "name": "20c6b15698bbc7825ffc143df8b3b6ac", "bike_id": "20c6b15698bbc7825ffc143df8b3b6ac"}, {"is_disabled": 0, "rental_uris": {"ios": "https://dc.lft.to/lastmile_qr_scan", "android": "https://dc.lft.to/lastmile_qr_scan"}, "lon": -77.046435, "fusion_lon": 0.0, "is_reserved": 0, "fusion_lat": 0.0, "type": "electric_scooter", "lat": 38.9006835, "name": "18afb0b682794124facc72a9c8ac4967", "bike_id": "18afb0b682794124facc72a9c8ac4967"}, {"is_disabled": 0, "rental_uris": {"ios": "https://dc.lft.to/lastmile_qr_scan", "android": "https://dc.lft.to/lastmile_qr_scan"}, "lon": -77.00058883333334, "fusion_lon": 0.0, "is_reserved": 0, "fusion_lat": 0.0, "type": "electric_scooter", "lat": 38.900246, "name": "b35ed2a916006db8193f92f350da33ab", "bike_id": "b35ed2a916006db8193f92f350da33ab"}, {"is_disabled": 0, "rental_uris": {"ios": "https://dc.lft.to/lastmile_qr_scan", "android": "https://dc.lft.to/lastmile_qr_scan"}, "lon": -77.02081516666667, "fusion_lon": 0.0, "is_reserved": 0, "fusion_lat": 0.0, "type": "electric_scooter", "lat": 38.92153233333333, "name": "84ecde0efa13fe6e09ed3bfd53340287", "bike_id": "84ecde0efa13fe6e09ed3bfd53340287"}, {"is_disabled": 0, "rental_uris": {"ios": "https://dc.lft.to/lastmile_qr_scan", "android": "https://dc.lft.to/lastmile_qr_scan"}, "lon": -77.02211466666667, "fusion_lon": 0.0, "is_reserved": 0, "fusion_lat": 0.0, "type": "electric_bike", "lat": 38.964955833333335, "name": "f6069a3fa20f3269683e6a2f09f2c036", "bike_id": "f6069a3fa20f3269683e6a2f09f2c036"}, {"is_disabled": 0, "rental_uris": {"ios": "https://dc.lft.to/lastmile_qr_scan", "android": "https://dc.lft.to/lastmile_qr_scan"}, "lon": -77.01203266666667, "fusion_lon": 0.0, "is_reserved": 0, "fusion_lat": 0.0, "type": "electric_scooter", "lat": 38.897907000000004, "name": "f6fe3d52c98bb969f9acc26d533c39fb", "bike_id": "f6fe3d52c98bb969f9acc26d533c39fb"}, {"is_disabled": 0, "rental_uris": {"ios": "https://dc.lft.to/lastmile_qr_scan", "android": "https://dc.lft.to/lastmile_qr_scan"}, "lon": -77.03856166666667, "fusion_lon": 0.0, "is_reserved": 0, "fusion_lat": 0.0, "type": "electric_scooter", "lat": 38.919683666666664, "name": "bb1565733fd1fe5cf22464a29ec6349a", "bike_id": "bb1565733fd1fe5cf22464a29ec6349a"}, {"is_disabled": 0, "rental_uris": {"ios": "https://dc.lft.to/lastmile_qr_scan", "android": "https://dc.lft.to/lastmile_qr_scan"}, "lon": -77.0322075, "fusion_lon": 0.0, "is_reserved": 0, "fusion_lat": 0.0, "type": "electric_scooter", "lat": 38.918407333333334, "name": "260a32922ce9a96833992aa23e9f70ca", "bike_id": "260a32922ce9a96833992aa23e9f70ca"}, {"is_disabled": 0, "rental_uris": {"ios": "https://dc.lft.to/lastmile_qr_scan", "android": "https://dc.lft.to/lastmile_qr_scan"}, "lon": -76.94702833333334, "fusion_lon": 0.0, "is_reserved": 0, "fusion_lat": 0.0, "type": "electric_scooter", "lat": 38.897310833333336, "name": "b2a76f9de33917d7de6888df989b7637", "bike_id": "b2a76f9de33917d7de6888df989b7637"}, {"is_disabled": 0, "rental_uris": {"ios": "https://dc.lft.to/lastmile_qr_scan", "android": "https://dc.lft.to/lastmile_qr_scan"}, "lon": -77.03810083333333, "fusion_lon": 0.0, "is_reserved": 0, "fusion_lat": 0.0, "type": "electric_scooter", "lat": 38.910415666666665, "name": "f476209895093aeae2f3ecfa03510b58", "bike_id": "f476209895093aeae2f3ecfa03510b58"}, {"is_disabled": 0, "rental_uris": {"ios": "https://dc.lft.to/lastmile_qr_scan", "android": "https://dc.lft.to/lastmile_qr_scan"}, "lon": -77.02164716666667, "fusion_lon": 0.0, "is_reserved": 0, "fusion_lat": 0.0, "type": "electric_scooter", "lat": 38.898915833333334, "name": "a4104f326a5d111adc418a9e356b89dc", "bike_id": "a4104f326a5d111adc418a9e356b89dc"}, {"is_disabled": 0, "rental_uris": {"ios": "https://dc.lft.to/lastmile_qr_scan", "android": "https://dc.lft.to/lastmile_qr_scan"}, "lon": -77.02606166666666, "fusion_lon": 0.0, "is_reserved": 0, "fusion_lat": 0.0, "type": "electric_scooter", "lat": 38.9042155, "name": "6386a0f1b2d19c7e22b6facf5721c235", "bike_id": "6386a0f1b2d19c7e22b6facf5721c235"}, {"is_disabled": 0, "rental_uris": {"ios": "https://dc.lft.to/lastmile_qr_scan", "android": "https://dc.lft.to/lastmile_qr_scan"}, "lon": -77.03190133333334, "fusion_lon": 0.0, "is_reserved": 0, "fusion_lat": 0.0, "type": "electric_scooter", "lat": 38.91824783333333, "name": "43c24be500cbf13d3cd2a8ca6c80dbd1", "bike_id": "43c24be500cbf13d3cd2a8ca6c80dbd1"}, {"is_disabled": 0, "rental_uris": {"ios": "https://dc.lft.to/lastmile_qr_scan", "android": "https://dc.lft.to/lastmile_qr_scan"}, "lon": -77.04899683333333, "fusion_lon": 0.0, "is_reserved": 0, "fusion_lat": 0.0, "type": "electric_scooter", "lat": 38.900739333333334, "name": "262e43fa47dc894f5e86472971f78c34", "bike_id": "262e43fa47dc894f5e86472971f78c34"}, {"is_disabled": 0, "rental_uris": {"ios": "https://dc.lft.to/lastmile_qr_scan", "android": "https://dc.lft.to/lastmile_qr_scan"}, "lon": -77.12719433333334, "fusion_lon": 0.0, "is_reserved": 0, "fusion_lat": 0.0, "type": "electric_bike", "lat": 38.8956925, "name": "9d36532c3949e2e05ffcf549e50a92df", "bike_id": "9d36532c3949e2e05ffcf549e50a92df"}, {"is_disabled": 0, "rental_uris": {"ios": "https://dc.lft.to/lastmile_qr_scan", "android": "https://dc.lft.to/lastmile_qr_scan"}, "lon": -77.0238005, "fusion_lon": 0.0, "is_reserved": 0, "fusion_lat": 0.0, "type": "electric_scooter", "lat": 38.909712, "name": "091dd297578b51df3b3a860d0188f8c3", "bike_id": "091dd297578b51df3b3a860d0188f8c3"}, {"is_disabled": 0, "rental_uris": {"ios": "https://dc.lft.to/lastmile_qr_scan", "android": "https://dc.lft.to/lastmile_qr_scan"}, "lon": -77.16229116666666, "fusion_lon": 0.0, "is_reserved": 0, "fusion_lat": 0.0, "type": "electric_bike", "lat": 38.886674166666666, "name": "f212b77fc87bdcfeca6c1ebad9171e0e", "bike_id": "f212b77fc87bdcfeca6c1ebad9171e0e"}, {"is_disabled": 0, "rental_uris": {"ios": "https://dc.lft.to/lastmile_qr_scan", "android": "https://dc.lft.to/lastmile_qr_scan"}, "lon": -76.9957155, "fusion_lon": 0.0, "is_reserved": 0, "fusion_lat": 0.0, "type": "electric_scooter", "lat": 38.920191, "name": "a11e95c3489ca2d427eb4cb951090e1b", "bike_id": "a11e95c3489ca2d427eb4cb951090e1b"}, {"is_disabled": 0, "rental_uris": {"ios": "https://dc.lft.to/lastmile_qr_scan", "android": "https://dc.lft.to/lastmile_qr_scan"}, "lon": -77.00379533333333, "fusion_lon": 0.0, "is_reserved": 0, "fusion_lat": 0.0, "type": "electric_scooter", "lat": 38.908623166666665, "name": "973e002a637130d3d802c87a5bf61f64", "bike_id": "973e002a637130d3d802c87a5bf61f64"}, {"is_disabled": 0, "rental_uris": {"ios": "https://dc.lft.to/lastmile_qr_scan", "android": "https://dc.lft.to/lastmile_qr_scan"}, "lon": -77.02579616666667, "fusion_lon": 0.0, "is_reserved": 0, "fusion_lat": 0.0, "type": "electric_scooter", "lat": 38.8960525, "name": "17ebf0a8ccee7a284dcbda36769b5314", "bike_id": "17ebf0a8ccee7a284dcbda36769b5314"}, {"is_disabled": 0, "rental_uris": {"ios": "https://dc.lft.to/lastmile_qr_scan", "android": "https://dc.lft.to/lastmile_qr_scan"}, "lon": -77.0368265, "fusion_lon": 0.0, "is_reserved": 0, "fusion_lat": 0.0, "type": "electric_scooter", "lat": 38.92721483333333, "name": "fd9e9548b8e0c98aa1f33bb0ef0b0084", "bike_id": "fd9e9548b8e0c98aa1f33bb0ef0b0084"}, {"is_disabled": 0, "rental_uris": {"ios": "https://dc.lft.to/lastmile_qr_scan", "android": "https://dc.lft.to/lastmile_qr_scan"}, "lon": -76.95703733333333, "fusion_lon": 0.0, "is_reserved": 0, "fusion_lat": 0.0, "type": "electric_bike", "lat": 38.85087816666667, "name": "ea90f8bb9462b3564c0a447f183a1880", "bike_id": "ea90f8bb9462b3564c0a447f183a1880"}, {"is_disabled": 0, "rental_uris": {"ios": "https://dc.lft.to/lastmile_qr_scan", "android": "https://dc.lft.to/lastmile_qr_scan"}, "lon": -76.9574285, "fusion_lon": 0.0, "is_reserved": 0, "fusion_lat": 0.0, "type": "electric_scooter", "lat": 38.88391516666667, "name": "128a8dd5e486146e983c795c0dd14b47", "bike_id": "128a8dd5e486146e983c795c0dd14b47"}, {"is_disabled": 0, "rental_uris": {"ios": "https://dc.lft.to/lastmile_qr_scan", "android": "https://dc.lft.to/lastmile_qr_scan"}, "lon": -77.044939, "fusion_lon": 0.0, "is_reserved": 0, "fusion_lat": 0.0, "type": "electric_scooter", "lat": 38.9033205, "name": "13c85dbfb15f6dd326843c719130b56e", "bike_id": "13c85dbfb15f6dd326843c719130b56e"}, {"is_disabled": 0, "rental_uris": {"ios": "https://dc.lft.to/lastmile_qr_scan", "android": "https://dc.lft.to/lastmile_qr_scan"}, "lon": -77.029459, "fusion_lon": 0.0, "is_reserved": 0, "fusion_lat": 0.0, "type": "electric_scooter", "lat": 38.916796833333336, "name": "3d5d9061e379e5da650a92a16f53d47d", "bike_id": "3d5d9061e379e5da650a92a16f53d47d"}, {"is_disabled": 0, "rental_uris": {"ios": "https://dc.lft.to/lastmile_qr_scan", "android": "https://dc.lft.to/lastmile_qr_scan"}, "lon": -77.02195733333333, "fusion_lon": 0.0, "is_reserved": 0, "fusion_lat": 0.0, "type": "electric_scooter", "lat": 38.9105335, "name": "6cb291e22ca93ab1f34a210ca4c22573", "bike_id": "6cb291e22ca93ab1f34a210ca4c22573"}, {"is_disabled": 0, "rental_uris": {"ios": "https://dc.lft.to/lastmile_qr_scan", "android": "https://dc.lft.to/lastmile_qr_scan"}, "lon": -77.0901835, "fusion_lon": 0.0, "is_reserved": 0, "fusion_lat": 0.0, "type": "electric_bike", "lat": 38.92648466666667, "name": "6d2ef25cee4ff5c2009713d815c73684", "bike_id": "6d2ef25cee4ff5c2009713d815c73684"}, {"is_disabled": 0, "rental_uris": {"ios": "https://dc.lft.to/lastmile_qr_scan", "android": "https://dc.lft.to/lastmile_qr_scan"}, "lon": -77.03854066666666, "fusion_lon": 0.0, "is_reserved": 0, "fusion_lat": 0.0, "type": "electric_scooter", "lat": 38.932171, "name": "aa5b97e6708709dc06e06bc9783224c1", "bike_id": "aa5b97e6708709dc06e06bc9783224c1"}, {"is_disabled": 0, "rental_uris": {"ios": "https://dc.lft.to/lastmile_qr_scan", "android": "https://dc.lft.to/lastmile_qr_scan"}, "lon": -77.00222933333333, "fusion_lon": 0.0, "is_reserved": 0, "fusion_lat": 0.0, "type": "electric_scooter", "lat": 38.90479366666667, "name": "17153f39aeaee559443d8ccb66491df5", "bike_id": "17153f39aeaee559443d8ccb66491df5"}, {"is_disabled": 0, "rental_uris": {"ios": "https://dc.lft.to/lastmile_qr_scan", "android": "https://dc.lft.to/lastmile_qr_scan"}, "lon": -77.02602366666666, "fusion_lon": 0.0, "is_reserved": 0, "fusion_lat": 0.0, "type": "electric_scooter", "lat": 38.90140316666667, "name": "2e853141d537c497ae7c9111663ce17f", "bike_id": "2e853141d537c497ae7c9111663ce17f"}, {"is_disabled": 0, "rental_uris": {"ios": "https://dc.lft.to/lastmile_qr_scan", "android": "https://dc.lft.to/lastmile_qr_scan"}, "lon": -77.03170583333333, "fusion_lon": 0.0, "is_reserved": 0, "fusion_lat": 0.0, "type": "electric_scooter", "lat": 38.928625, "name": "ef2dfc9520330a251cc799b231873278", "bike_id": "ef2dfc9520330a251cc799b231873278"}, {"is_disabled": 0, "rental_uris": {"ios": "https://dc.lft.to/lastmile_qr_scan", "android": "https://dc.lft.to/lastmile_qr_scan"}, "lon": -77.0418745, "fusion_lon": 0.0, "is_reserved": 0, "fusion_lat": 0.0, "type": "electric_scooter", "lat": 38.905700333333336, "name": "1352ad423778abded1c28f1427684efb", "bike_id": "1352ad423778abded1c28f1427684efb"}, {"is_disabled": 0, "rental_uris": {"ios": "https://dc.lft.to/lastmile_qr_scan", "android": "https://dc.lft.to/lastmile_qr_scan"}, "lon": -77.0002595, "fusion_lon": 0.0, "is_reserved": 0, "fusion_lat": 0.0, "type": "electric_scooter", "lat": 38.9001555, "name": "882a2bbcc4dfb0621ab6fd826dc0320c", "bike_id": "882a2bbcc4dfb0621ab6fd826dc0320c"}, {"is_disabled": 0, "rental_uris": {"ios": "https://dc.lft.to/lastmile_qr_scan", "android": "https://dc.lft.to/lastmile_qr_scan"}, "lon": -77.02029316666666, "fusion_lon": 0.0, "is_reserved": 0, "fusion_lat": 0.0, "type": "electric_scooter", "lat": 38.93413616666667, "name": "19c6fec9189dcb84012e102caeef1e26", "bike_id": "19c6fec9189dcb84012e102caeef1e26"}, {"is_disabled": 0, "rental_uris": {"ios": "https://dc.lft.to/lastmile_qr_scan", "android": "https://dc.lft.to/lastmile_qr_scan"}, "lon": -77.031879, "fusion_lon": 0.0, "is_reserved": 0, "fusion_lat": 0.0, "type": "electric_scooter", "lat": 38.9117945, "name": "3a27820bb79da2f88ea51b419e5cdb60", "bike_id": "3a27820bb79da2f88ea51b419e5cdb60"}, {"is_disabled": 0, "rental_uris": {"ios": "https://dc.lft.to/lastmile_qr_scan", "android": "https://dc.lft.to/lastmile_qr_scan"}, "lon": -77.021507, "fusion_lon": 0.0, "is_reserved": 0, "fusion_lat": 0.0, "type": "electric_scooter", "lat": 38.899652333333336, "name": "11fdbcfb83c559263f2a386845ddae15", "bike_id": "11fdbcfb83c559263f2a386845ddae15"}, {"is_disabled": 0, "rental_uris": {"ios": "https://dc.lft.to/lastmile_qr_scan", "android": "https://dc.lft.to/lastmile_qr_scan"}, "lon": -76.99914816666667, "fusion_lon": 0.0, "is_reserved": 0, "fusion_lat": 0.0, "type": "electric_bike", "lat": 38.864515, "name": "c4ffd5845b29df5d12acec33b75a51ba", "bike_id": "c4ffd5845b29df5d12acec33b75a51ba"}, {"is_disabled": 0, "rental_uris": {"ios": "https://dc.lft.to/lastmile_qr_scan", "android": "https://dc.lft.to/lastmile_qr_scan"}, "lon": -77.02605183333333, "fusion_lon": 0.0, "is_reserved": 0, "fusion_lat": 0.0, "type": "electric_scooter", "lat": 38.90420683333333, "name": "5954af491327ff79a1f73ccb2475a150", "bike_id": "5954af491327ff79a1f73ccb2475a150"}, {"is_disabled": 0, "rental_uris": {"ios": "https://dc.lft.to/lastmile_qr_scan", "android": "https://dc.lft.to/lastmile_qr_scan"}, "lon": -76.936344, "fusion_lon": 0.0, "is_reserved": 0, "fusion_lat": 0.0, "type": "electric_scooter", "lat": 38.90268, "name": "b0d822fc1db3a6574b7e786dd2410c8d", "bike_id": "b0d822fc1db3a6574b7e786dd2410c8d"}, {"is_disabled": 0, "rental_uris": {"ios": "https://dc.lft.to/lastmile_qr_scan", "android": "https://dc.lft.to/lastmile_qr_scan"}, "lon": -77.02355466666667, "fusion_lon": 0.0, "is_reserved": 0, "fusion_lat": 0.0, "type": "electric_scooter", "lat": 38.89476833333333, "name": "e3ff16bc6bee7f7f533ac3b68f218d0a", "bike_id": "e3ff16bc6bee7f7f533ac3b68f218d0a"}, {"is_disabled": 0, "rental_uris": {"ios": "https://dc.lft.to/lastmile_qr_scan", "android": "https://dc.lft.to/lastmile_qr_scan"}, "lon": -77.05323133333333, "fusion_lon": 0.0, "is_reserved": 0, "fusion_lat": 0.0, "type": "electric_scooter", "lat": 38.9255865, "name": "4a6a86f18eef31444dec72ebb8efe543", "bike_id": "4a6a86f18eef31444dec72ebb8efe543"}, {"is_disabled": 0, "rental_uris": {"ios": "https://dc.lft.to/lastmile_qr_scan", "android": "https://dc.lft.to/lastmile_qr_scan"}, "lon": -77.01673633333333, "fusion_lon": 0.0, "is_reserved": 0, "fusion_lat": 0.0, "type": "electric_scooter", "lat": 38.920490666666666, "name": "ee3bf12ac17e32de94701711396a7dad", "bike_id": "ee3bf12ac17e32de94701711396a7dad"}, {"is_disabled": 0, "rental_uris": {"ios": "https://dc.lft.to/lastmile_qr_scan", "android": "https://dc.lft.to/lastmile_qr_scan"}, "lon": -77.00415466666666, "fusion_lon": 0.0, "is_reserved": 0, "fusion_lat": 0.0, "type": "electric_bike", "lat": 38.98526666666667, "name": "bb0f61d102140c5be9fb116d07a5b631", "bike_id": "bb0f61d102140c5be9fb116d07a5b631"}, {"is_disabled": 0, "rental_uris": {"ios": "https://dc.lft.to/lastmile_qr_scan", "android": "https://dc.lft.to/lastmile_qr_scan"}, "lon": -77.06237483333334, "fusion_lon": 0.0, "is_reserved": 0, "fusion_lat": 0.0, "type": "electric_scooter", "lat": 38.911585333333335, "name": "6d655339567bd6300e979f8d3fcf28d7", "bike_id": "6d655339567bd6300e979f8d3fcf28d7"}, {"is_disabled": 0, "rental_uris": {"ios": "https://dc.lft.to/lastmile_qr_scan", "android": "https://dc.lft.to/lastmile_qr_scan"}, "lon": -77.04660516666667, "fusion_lon": 0.0, "is_reserved": 0, "fusion_lat": 0.0, "type": "electric_scooter", "lat": 38.90665, "name": "6928057cf6c5a1df704e392aa0546ee4", "bike_id": "6928057cf6c5a1df704e392aa0546ee4"}, {"is_disabled": 0, "rental_uris": {"ios": "https://dc.lft.to/lastmile_qr_scan", "android": "https://dc.lft.to/lastmile_qr_scan"}, "lon": -77.01953816666666, "fusion_lon": 0.0, "is_reserved": 0, "fusion_lat": 0.0, "type": "electric_scooter", "lat": 38.923296, "name": "b39c9ee170ea0319283651a7b9f810dd", "bike_id": "b39c9ee170ea0319283651a7b9f810dd"}, {"is_disabled": 0, "rental_uris": {"ios": "https://dc.lft.to/lastmile_qr_scan", "android": "https://dc.lft.to/lastmile_qr_scan"}, "lon": -77.02456583333333, "fusion_lon": 0.0, "is_reserved": 0, "fusion_lat": 0.0, "type": "electric_scooter", "lat": 38.915188, "name": "ec85ff430233118e16dc2ccd8c65b779", "bike_id": "ec85ff430233118e16dc2ccd8c65b779"}, {"is_disabled": 0, "rental_uris": {"ios": "https://dc.lft.to/lastmile_qr_scan", "android": "https://dc.lft.to/lastmile_qr_scan"}, "lon": -77.04992566666667, "fusion_lon": 0.0, "is_reserved": 0, "fusion_lat": 0.0, "type": "electric_bike", "lat": 38.80531516666667, "name": "584a96e5bd2dcac9232fc0aa015e467f", "bike_id": "584a96e5bd2dcac9232fc0aa015e467f"}, {"is_disabled": 0, "rental_uris": {"ios": "https://dc.lft.to/lastmile_qr_scan", "android": "https://dc.lft.to/lastmile_qr_scan"}, "lon": -77.0363865, "fusion_lon": 0.0, "is_reserved": 0, "fusion_lat": 0.0, "type": "electric_scooter", "lat": 38.902859666666664, "name": "11c5a131cf58ddbacb0d8ebf59b2993c", "bike_id": "11c5a131cf58ddbacb0d8ebf59b2993c"}, {"is_disabled": 0, "rental_uris": {"ios": "https://dc.lft.to/lastmile_qr_scan", "android": "https://dc.lft.to/lastmile_qr_scan"}, "lon": -77.0533025, "fusion_lon": 0.0, "is_reserved": 0, "fusion_lat": 0.0, "type": "electric_scooter", "lat": 38.9044755, "name": "666b972c4c67ba6fe848e8fc940183ed", "bike_id": "666b972c4c67ba6fe848e8fc940183ed"}, {"is_disabled": 0, "rental_uris": {"ios": "https://dc.lft.to/lastmile_qr_scan", "android": "https://dc.lft.to/lastmile_qr_scan"}, "lon": -77.03441516666666, "fusion_lon": 0.0, "is_reserved": 0, "fusion_lat": 0.0, "type": "electric_scooter", "lat": 38.909806333333336, "name": "87356bf1a8d8960f7498d89edcc92642", "bike_id": "87356bf1a8d8960f7498d89edcc92642"}, {"is_disabled": 0, "rental_uris": {"ios": "https://dc.lft.to/lastmile_qr_scan", "android": "https://dc.lft.to/lastmile_qr_scan"}, "lon": -76.9977185, "fusion_lon": 0.0, "is_reserved": 0, "fusion_lat": 0.0, "type": "electric_scooter", "lat": 38.90127483333333, "name": "f71935d23208ae1dc8bffccc9d14bddb", "bike_id": "f71935d23208ae1dc8bffccc9d14bddb"}, {"is_disabled": 0, "rental_uris": {"ios": "https://dc.lft.to/lastmile_qr_scan", "android": "https://dc.lft.to/lastmile_qr_scan"}, "lon": -77.03668066666667, "fusion_lon": 0.0, "is_reserved": 0, "fusion_lat": 0.0, "type": "electric_scooter", "lat": 38.9179545, "name": "01e38814b559325c347fd76f6773f446", "bike_id": "01e38814b559325c347fd76f6773f446"}, {"is_disabled": 0, "rental_uris": {"ios": "https://dc.lft.to/lastmile_qr_scan", "android": "https://dc.lft.to/lastmile_qr_scan"}, "lon": -77.02109683333333, "fusion_lon": 0.0, "is_reserved": 0, "fusion_lat": 0.0, "type": "electric_scooter", "lat": 38.895928166666664, "name": "b840640be5e72dd02be3a2fcc94378c9", "bike_id": "b840640be5e72dd02be3a2fcc94378c9"}, {"is_disabled": 0, "rental_uris": {"ios": "https://dc.lft.to/lastmile_qr_scan", "android": "https://dc.lft.to/lastmile_qr_scan"}, "lon": -77.0457505, "fusion_lon": 0.0, "is_reserved": 0, "fusion_lat": 0.0, "type": "electric_scooter", "lat": 38.903892666666664, "name": "4e1e07e7675ca791e643541242a40a5c", "bike_id": "4e1e07e7675ca791e643541242a40a5c"}, {"is_disabled": 0, "rental_uris": {"ios": "https://dc.lft.to/lastmile_qr_scan", "android": "https://dc.lft.to/lastmile_qr_scan"}, "lon": -77.07124333333333, "fusion_lon": 0.0, "is_reserved": 0, "fusion_lat": 0.0, "type": "electric_scooter", "lat": 38.894569, "name": "20de1e1f9d12de63a0d0e47ac966b85d", "bike_id": "20de1e1f9d12de63a0d0e47ac966b85d"}, {"is_disabled": 0, "rental_uris": {"ios": "https://dc.lft.to/lastmile_qr_scan", "android": "https://dc.lft.to/lastmile_qr_scan"}, "lon": -76.983278, "fusion_lon": 0.0, "is_reserved": 0, "fusion_lat": 0.0, "type": "electric_scooter", "lat": 38.92549483333333, "name": "b12ebe31747266b3f834317fe4a280f3", "bike_id": "b12ebe31747266b3f834317fe4a280f3"}, {"is_disabled": 0, "rental_uris": {"ios": "https://dc.lft.to/lastmile_qr_scan", "android": "https://dc.lft.to/lastmile_qr_scan"}, "lon": -77.03259066666666, "fusion_lon": 0.0, "is_reserved": 0, "fusion_lat": 0.0, "type": "electric_scooter", "lat": 38.93975416666667, "name": "e3e0f71240641f4c63f532f561b8ae3b", "bike_id": "e3e0f71240641f4c63f532f561b8ae3b"}, {"is_disabled": 0, "rental_uris": {"ios": "https://dc.lft.to/lastmile_qr_scan", "android": "https://dc.lft.to/lastmile_qr_scan"}, "lon": -77.012166, "fusion_lon": 0.0, "is_reserved": 0, "fusion_lat": 0.0, "type": "electric_scooter", "lat": 38.953453333333336, "name": "3cb76e10b129212711abe0c68d5ece2a", "bike_id": "3cb76e10b129212711abe0c68d5ece2a"}, {"is_disabled": 0, "rental_uris": {"ios": "https://dc.lft.to/lastmile_qr_scan", "android": "https://dc.lft.to/lastmile_qr_scan"}, "lon": -77.02420133333334, "fusion_lon": 0.0, "is_reserved": 0, "fusion_lat": 0.0, "type": "electric_scooter", "lat": 38.920541, "name": "b16601a00b02f4d14dbae9a33eb67328", "bike_id": "b16601a00b02f4d14dbae9a33eb67328"}, {"is_disabled": 0, "rental_uris": {"ios": "https://dc.lft.to/lastmile_qr_scan", "android": "https://dc.lft.to/lastmile_qr_scan"}, "lon": -77.05320366666666, "fusion_lon": 0.0, "is_reserved": 0, "fusion_lat": 0.0, "type": "electric_scooter", "lat": 38.91550933333333, "name": "e4241117995af1185e0e45505c010e19", "bike_id": "e4241117995af1185e0e45505c010e19"}, {"is_disabled": 0, "rental_uris": {"ios": "https://dc.lft.to/lastmile_qr_scan", "android": "https://dc.lft.to/lastmile_qr_scan"}, "lon": -77.03183783333333, "fusion_lon": 0.0, "is_reserved": 0, "fusion_lat": 0.0, "type": "electric_scooter", "lat": 38.919307, "name": "8611bebe12e50aff23f2802a7aaf68e7", "bike_id": "8611bebe12e50aff23f2802a7aaf68e7"}, {"is_disabled": 0, "rental_uris": {"ios": "https://dc.lft.to/lastmile_qr_scan", "android": "https://dc.lft.to/lastmile_qr_scan"}, "lon": -77.0326305, "fusion_lon": 0.0, "is_reserved": 0, "fusion_lat": 0.0, "type": "electric_scooter", "lat": 38.9331145, "name": "56f29026cb451b64dd8de36ebbe5f5d6", "bike_id": "56f29026cb451b64dd8de36ebbe5f5d6"}, {"is_disabled": 0, "rental_uris": {"ios": "https://dc.lft.to/lastmile_qr_scan", "android": "https://dc.lft.to/lastmile_qr_scan"}, "lon": -77.09704466666666, "fusion_lon": 0.0, "is_reserved": 0, "fusion_lat": 0.0, "type": "electric_bike", "lat": 38.8869075, "name": "72b3cb24469d9af38210c23cab7be923", "bike_id": "72b3cb24469d9af38210c23cab7be923"}, {"is_disabled": 0, "rental_uris": {"ios": "https://dc.lft.to/lastmile_qr_scan", "android": "https://dc.lft.to/lastmile_qr_scan"}, "lon": -77.03626916666667, "fusion_lon": 0.0, "is_reserved": 0, "fusion_lat": 0.0, "type": "electric_scooter", "lat": 38.927050333333334, "name": "dfc8b60ea4602a19a17273dcf74e11dd", "bike_id": "dfc8b60ea4602a19a17273dcf74e11dd"}, {"is_disabled": 0, "rental_uris": {"ios": "https://dc.lft.to/lastmile_qr_scan", "android": "https://dc.lft.to/lastmile_qr_scan"}, "lon": -77.021821, "fusion_lon": 0.0, "is_reserved": 0, "fusion_lat": 0.0, "type": "electric_scooter", "lat": 38.91979416666667, "name": "81388df59bce8d447914a6587eb05d61", "bike_id": "81388df59bce8d447914a6587eb05d61"}, {"is_disabled": 0, "rental_uris": {"ios": "https://dc.lft.to/lastmile_qr_scan", "android": "https://dc.lft.to/lastmile_qr_scan"}, "lon": -77.03979216666667, "fusion_lon": 0.0, "is_reserved": 0, "fusion_lat": 0.0, "type": "electric_scooter", "lat": 38.898654666666665, "name": "52fb62f126eb05bbcaef7c4d1b7b5889", "bike_id": "52fb62f126eb05bbcaef7c4d1b7b5889"}, {"is_disabled": 0, "rental_uris": {"ios": "https://dc.lft.to/lastmile_qr_scan", "android": "https://dc.lft.to/lastmile_qr_scan"}, "lon": -77.02289616666667, "fusion_lon": 0.0, "is_reserved": 0, "fusion_lat": 0.0, "type": "electric_scooter", "lat": 38.926846, "name": "6382036d038727f3033ce0448f50b7e8", "bike_id": "6382036d038727f3033ce0448f50b7e8"}, {"is_disabled": 0, "rental_uris": {"ios": "https://dc.lft.to/lastmile_qr_scan", "android": "https://dc.lft.to/lastmile_qr_scan"}, "lon": -77.0133675, "fusion_lon": 0.0, "is_reserved": 0, "fusion_lat": 0.0, "type": "electric_scooter", "lat": 38.8812475, "name": "f3c6b3baadd6600a5d68a8579e6fcfbe", "bike_id": "f3c6b3baadd6600a5d68a8579e6fcfbe"}, {"is_disabled": 0, "rental_uris": {"ios": "https://dc.lft.to/lastmile_qr_scan", "android": "https://dc.lft.to/lastmile_qr_scan"}, "lon": -77.02569733333333, "fusion_lon": 0.0, "is_reserved": 0, "fusion_lat": 0.0, "type": "electric_scooter", "lat": 38.9419815, "name": "f249a4d551a1dc5bba8fb3d29a65b6d2", "bike_id": "f249a4d551a1dc5bba8fb3d29a65b6d2"}, {"is_disabled": 0, "rental_uris": {"ios": "https://dc.lft.to/lastmile_qr_scan", "android": "https://dc.lft.to/lastmile_qr_scan"}, "lon": -77.02552366666667, "fusion_lon": 0.0, "is_reserved": 0, "fusion_lat": 0.0, "type": "electric_scooter", "lat": 38.905581, "name": "946d774b5123a8ebcfb602e53a1a862c", "bike_id": "946d774b5123a8ebcfb602e53a1a862c"}, {"is_disabled": 0, "rental_uris": {"ios": "https://dc.lft.to/lastmile_qr_scan", "android": "https://dc.lft.to/lastmile_qr_scan"}, "lon": -77.00274233333333, "fusion_lon": 0.0, "is_reserved": 0, "fusion_lat": 0.0, "type": "electric_scooter", "lat": 38.90606833333333, "name": "20e161905081fe1707c67210464a9e8a", "bike_id": "20e161905081fe1707c67210464a9e8a"}, {"is_disabled": 0, "rental_uris": {"ios": "https://dc.lft.to/lastmile_qr_scan", "android": "https://dc.lft.to/lastmile_qr_scan"}, "lon": -76.99100783333333, "fusion_lon": 0.0, "is_reserved": 0, "fusion_lat": 0.0, "type": "electric_scooter", "lat": 38.85731783333333, "name": "fbeca5d9dec49372aeb5858845225581", "bike_id": "fbeca5d9dec49372aeb5858845225581"}, {"is_disabled": 0, "rental_uris": {"ios": "https://dc.lft.to/lastmile_qr_scan", "android": "https://dc.lft.to/lastmile_qr_scan"}, "lon": -77.041638, "fusion_lon": 0.0, "is_reserved": 0, "fusion_lat": 0.0, "type": "electric_scooter", "lat": 38.89834066666667, "name": "d6043e7f752610ce2e9ed8c398781fe2", "bike_id": "d6043e7f752610ce2e9ed8c398781fe2"}, {"is_disabled": 0, "rental_uris": {"ios": "https://dc.lft.to/lastmile_qr_scan", "android": "https://dc.lft.to/lastmile_qr_scan"}, "lon": -77.0424425, "fusion_lon": 0.0, "is_reserved": 0, "fusion_lat": 0.0, "type": "electric_scooter", "lat": 38.919747, "name": "dd1ebed0f4fb16b503c3dbdaab83f4fb", "bike_id": "dd1ebed0f4fb16b503c3dbdaab83f4fb"}, {"is_disabled": 0, "rental_uris": {"ios": "https://dc.lft.to/lastmile_qr_scan", "android": "https://dc.lft.to/lastmile_qr_scan"}, "lon": -77.04135, "fusion_lon": 0.0, "is_reserved": 0, "fusion_lat": 0.0, "type": "electric_scooter", "lat": 38.9089055, "name": "e00f0b95afb54c1f8ef3f689279520f1", "bike_id": "e00f0b95afb54c1f8ef3f689279520f1"}, {"is_disabled": 0, "rental_uris": {"ios": "https://dc.lft.to/lastmile_qr_scan", "android": "https://dc.lft.to/lastmile_qr_scan"}, "lon": -77.0433025, "fusion_lon": 0.0, "is_reserved": 0, "fusion_lat": 0.0, "type": "electric_scooter", "lat": 38.9222785, "name": "d2693307b11283f1e406f4654d02cca2", "bike_id": "d2693307b11283f1e406f4654d02cca2"}, {"is_disabled": 0, "rental_uris": {"ios": "https://dc.lft.to/lastmile_qr_scan", "android": "https://dc.lft.to/lastmile_qr_scan"}, "lon": -77.00319466666667, "fusion_lon": 0.0, "is_reserved": 0, "fusion_lat": 0.0, "type": "electric_scooter", "lat": 38.88602866666667, "name": "379da62fabf5929895dd86b1862d1f93", "bike_id": "379da62fabf5929895dd86b1862d1f93"}, {"is_disabled": 0, "rental_uris": {"ios": "https://dc.lft.to/lastmile_qr_scan", "android": "https://dc.lft.to/lastmile_qr_scan"}, "lon": -77.03368433333333, "fusion_lon": 0.0, "is_reserved": 0, "fusion_lat": 0.0, "type": "electric_scooter", "lat": 38.92534216666667, "name": "8445c0226b96c3526ac3f952badc7efc", "bike_id": "8445c0226b96c3526ac3f952badc7efc"}, {"is_disabled": 0, "rental_uris": {"ios": "https://dc.lft.to/lastmile_qr_scan", "android": "https://dc.lft.to/lastmile_qr_scan"}, "lon": -76.994798, "fusion_lon": 0.0, "is_reserved": 0, "fusion_lat": 0.0, "type": "electric_scooter", "lat": 38.86233683333333, "name": "1bc16e57d3c5d3a0419d788366e03387", "bike_id": "1bc16e57d3c5d3a0419d788366e03387"}, {"is_disabled": 0, "rental_uris": {"ios": "https://dc.lft.to/lastmile_qr_scan", "android": "https://dc.lft.to/lastmile_qr_scan"}, "lon": -77.03417016666667, "fusion_lon": 0.0, "is_reserved": 0, "fusion_lat": 0.0, "type": "electric_scooter", "lat": 38.90246616666667, "name": "1343c9cfe6e2501511a082b1133d6a42", "bike_id": "1343c9cfe6e2501511a082b1133d6a42"}, {"is_disabled": 0, "rental_uris": {"ios": "https://dc.lft.to/lastmile_qr_scan", "android": "https://dc.lft.to/lastmile_qr_scan"}, "lon": -77.03857316666667, "fusion_lon": 0.0, "is_reserved": 0, "fusion_lat": 0.0, "type": "electric_scooter", "lat": 38.90274866666667, "name": "62f1f9c1fbb74c8fd6d5a94e2a9a2c4d", "bike_id": "62f1f9c1fbb74c8fd6d5a94e2a9a2c4d"}, {"is_disabled": 0, "rental_uris": {"ios": "https://dc.lft.to/lastmile_qr_scan", "android": "https://dc.lft.to/lastmile_qr_scan"}, "lon": -77.03913533333333, "fusion_lon": 0.0, "is_reserved": 0, "fusion_lat": 0.0, "type": "electric_scooter", "lat": 38.91272383333333, "name": "b66d0f448e301baff2e561be89341d64", "bike_id": "b66d0f448e301baff2e561be89341d64"}, {"is_disabled": 0, "rental_uris": {"ios": "https://dc.lft.to/lastmile_qr_scan", "android": "https://dc.lft.to/lastmile_qr_scan"}, "lon": -76.996305, "fusion_lon": 0.0, "is_reserved": 0, "fusion_lat": 0.0, "type": "electric_scooter", "lat": 38.905387, "name": "0d283f9ed14e519525633fce7be30dbb", "bike_id": "0d283f9ed14e519525633fce7be30dbb"}, {"is_disabled": 0, "rental_uris": {"ios": "https://dc.lft.to/lastmile_qr_scan", "android": "https://dc.lft.to/lastmile_qr_scan"}, "lon": -77.04182766666666, "fusion_lon": 0.0, "is_reserved": 0, "fusion_lat": 0.0, "type": "electric_scooter", "lat": 38.90059516666667, "name": "a079115bc230169a0eeb03c2b7597c77", "bike_id": "a079115bc230169a0eeb03c2b7597c77"}, {"is_disabled": 0, "rental_uris": {"ios": "https://dc.lft.to/lastmile_qr_scan", "android": "https://dc.lft.to/lastmile_qr_scan"}, "lon": -77.0382845, "fusion_lon": 0.0, "is_reserved": 0, "fusion_lat": 0.0, "type": "electric_scooter", "lat": 38.915583, "name": "2f0b88953c834246676289e7551dc12a", "bike_id": "2f0b88953c834246676289e7551dc12a"}, {"is_disabled": 0, "rental_uris": {"ios": "https://dc.lft.to/lastmile_qr_scan", "android": "https://dc.lft.to/lastmile_qr_scan"}, "lon": -77.02695733333333, "fusion_lon": 0.0, "is_reserved": 0, "fusion_lat": 0.0, "type": "electric_scooter", "lat": 38.9127285, "name": "3a4f82d08452012a1435df59cf902d2a", "bike_id": "3a4f82d08452012a1435df59cf902d2a"}, {"is_disabled": 0, "rental_uris": {"ios": "https://dc.lft.to/lastmile_qr_scan", "android": "https://dc.lft.to/lastmile_qr_scan"}, "lon": -76.99150366666667, "fusion_lon": 0.0, "is_reserved": 0, "fusion_lat": 0.0, "type": "electric_scooter", "lat": 38.8882175, "name": "a43a0f3fbd23597427ffaaa3821c6de0", "bike_id": "a43a0f3fbd23597427ffaaa3821c6de0"}, {"is_disabled": 0, "rental_uris": {"ios": "https://dc.lft.to/lastmile_qr_scan", "android": "https://dc.lft.to/lastmile_qr_scan"}, "lon": -77.01980516666667, "fusion_lon": 0.0, "is_reserved": 0, "fusion_lat": 0.0, "type": "electric_scooter", "lat": 38.905111833333336, "name": "3cf488f95c99373acff9925289cb0602", "bike_id": "3cf488f95c99373acff9925289cb0602"}, {"is_disabled": 0, "rental_uris": {"ios": "https://dc.lft.to/lastmile_qr_scan", "android": "https://dc.lft.to/lastmile_qr_scan"}, "lon": -77.01018816666667, "fusion_lon": 0.0, "is_reserved": 0, "fusion_lat": 0.0, "type": "electric_scooter", "lat": 38.914094166666665, "name": "c5478c31a357a88a4abacde2ad1927be", "bike_id": "c5478c31a357a88a4abacde2ad1927be"}, {"is_disabled": 0, "rental_uris": {"ios": "https://dc.lft.to/lastmile_qr_scan", "android": "https://dc.lft.to/lastmile_qr_scan"}, "lon": -77.02384216666667, "fusion_lon": 0.0, "is_reserved": 0, "fusion_lat": 0.0, "type": "electric_scooter", "lat": 38.90977633333333, "name": "74b4a84c03ee9922e3506ed8b5f86d1b", "bike_id": "74b4a84c03ee9922e3506ed8b5f86d1b"}, {"is_disabled": 0, "rental_uris": {"ios": "https://dc.lft.to/lastmile_qr_scan", "android": "https://dc.lft.to/lastmile_qr_scan"}, "lon": -77.00256783333333, "fusion_lon": 0.0, "is_reserved": 0, "fusion_lat": 0.0, "type": "electric_scooter", "lat": 38.894766833333335, "name": "76c5a918994bd251bfff2d33012e8b0d", "bike_id": "76c5a918994bd251bfff2d33012e8b0d"}, {"is_disabled": 0, "rental_uris": {"ios": "https://dc.lft.to/lastmile_qr_scan", "android": "https://dc.lft.to/lastmile_qr_scan"}, "lon": -77.05338533333334, "fusion_lon": 0.0, "is_reserved": 0, "fusion_lat": 0.0, "type": "electric_scooter", "lat": 38.89879466666667, "name": "de43ce2793e4ea5532b96bda1bba6e70", "bike_id": "de43ce2793e4ea5532b96bda1bba6e70"}, {"is_disabled": 0, "rental_uris": {"ios": "https://dc.lft.to/lastmile_qr_scan", "android": "https://dc.lft.to/lastmile_qr_scan"}, "lon": -77.0071245, "fusion_lon": 0.0, "is_reserved": 0, "fusion_lat": 0.0, "type": "electric_scooter", "lat": 38.8849195, "name": "d71f2923ead4d4c3dab6ab0709f51fdb", "bike_id": "d71f2923ead4d4c3dab6ab0709f51fdb"}, {"is_disabled": 0, "rental_uris": {"ios": "https://dc.lft.to/lastmile_qr_scan", "android": "https://dc.lft.to/lastmile_qr_scan"}, "lon": -76.99383366666666, "fusion_lon": 0.0, "is_reserved": 0, "fusion_lat": 0.0, "type": "electric_scooter", "lat": 38.8934245, "name": "dd9cced61b5dd9fd168a6a1891edb970", "bike_id": "dd9cced61b5dd9fd168a6a1891edb970"}, {"is_disabled": 0, "rental_uris": {"ios": "https://dc.lft.to/lastmile_qr_scan", "android": "https://dc.lft.to/lastmile_qr_scan"}, "lon": -77.02817733333333, "fusion_lon": 0.0, "is_reserved": 0, "fusion_lat": 0.0, "type": "electric_scooter", "lat": 38.9509385, "name": "c50286cc347c324c680f3c0ad047f804", "bike_id": "c50286cc347c324c680f3c0ad047f804"}, {"is_disabled": 0, "rental_uris": {"ios": "https://dc.lft.to/lastmile_qr_scan", "android": "https://dc.lft.to/lastmile_qr_scan"},