{"data": {"bikes": [{"rental_uris": {"ios": "https://dc.lft.to/lastmile_qr_scan", "android": "https://dc.lft.to/lastmile_qr_scan"}, "type": "electric_scooter", "name": "5f94acf7661483c45c94c976281f5c0f", "is_reserved": 0, "lon": -77.01799516666667, "is_disabled": 0, "fusion_lat": 0.0, "lat": 38.91987016666667, "bike_id": "5f94acf7661483c45c94c976281f5c0f", "fusion_lon": 0.0}, {"rental_uris": {"ios": "https://dc.lft.to/lastmile_qr_scan", "android": "https://dc.lft.to/lastmile_qr_scan"}, "type": "electric_bike", "name": "025bbd296e7725aa28fc62d122e04e50", "is_reserved": 0, "lon": -76.9868955, "is_disabled": 0, "fusion_lat": 0.0, "lat": 38.94476483333333, "bike_id": "025bbd296e7725aa28fc62d122e04e50", "fusion_lon": 0.0}, {"rental_uris": {"ios": "https://dc.lft.to/lastmile_qr_scan", "android": "https://dc.lft.to/lastmile_qr_scan"}, "type": "electric_scooter", "name": "b9c0e8bc768039909150e2ed2ae6a6a7", "is_reserved": 0, "lon": -77.03790483333333, "is_disabled": 0, "fusion_lat": 0.0, "lat": 38.915387833333334, "bike_id": "b9c0e8bc768039909150e2ed2ae6a6a7", "fusion_lon": 0.0}, {"rental_uris": {"ios": "https://dc.lft.to/lastmile_qr_scan", "android": "https://dc.lft.to/lastmile_qr_scan"}, "type": "electric_scooter", "name": "ca4ddaacb2bef259dccacb858a6b57eb", "is_reserved": 0, "lon": -77.03223883333334, "is_disabled": 0, "fusion_lat": 0.0, "lat": 38.896305, "bike_id": "ca4ddaacb2bef259dccacb858a6b57eb", "fusion_lon": 0.0}, {"rental_uris": {"ios": "https://dc.lft.to/lastmile_qr_scan", "android": "https://dc.lft.to/lastmile_qr_scan"}, "type": "electric_scooter", "name": "57eb410a24e35fb1b9f2de3efd0bc72c", "is_reserved": 0, "lon": -77.02691116666666, "is_disabled": 0, "fusion_lat": 0.0, "lat": 38.949805, "bike_id": "57eb410a24e35fb1b9f2de3efd0bc72c", "fusion_lon": 0.0}, {"rental_uris": {"ios": "https://dc.lft.to/lastmile_qr_scan", "android": "https://dc.lft.to/lastmile_qr_scan"}, "type": "electric_scooter", "name": "ed9e616b2d18888c72c31ec77f301228", "is_reserved": 0, "lon": -77.013081, "is_disabled": 0, "fusion_lat": 0.0, "lat": 38.90186383333333, "bike_id": "ed9e616b2d18888c72c31ec77f301228", "fusion_lon": 0.0}, {"rental_uris": {"ios": "https://dc.lft.to/lastmile_qr_scan", "android": "https://dc.lft.to/lastmile_qr_scan"}, "type": "electric_scooter", "name": "9076f7f467055e5d5c1db41b0c16152a", "is_reserved": 0, "lon": -77.045035, "is_disabled": 0, "fusion_lat": 0.0, "lat": 38.91930816666667, "bike_id": "9076f7f467055e5d5c1db41b0c16152a", "fusion_lon": 0.0}, {"rental_uris": {"ios": "https://dc.lft.to/lastmile_qr_scan", "android": "https://dc.lft.to/lastmile_qr_scan"}, "type": "electric_scooter", "name": "7e94c334fb05c2b8c3bb04529416f132", "is_reserved": 0, "lon": -76.98443183333333, "is_disabled": 0, "fusion_lat": 0.0, "lat": 38.91478766666667, "bike_id": "7e94c334fb05c2b8c3bb04529416f132", "fusion_lon": 0.0}, {"rental_uris": {"ios": "https://dc.lft.to/lastmile_qr_scan", "android": "https://dc.lft.to/lastmile_qr_scan"}, "type": "electric_scooter", "name": "6e05c57efc80bd7de4019c1684358cda", "is_reserved": 0, "lon": -77.02223666666667, "is_disabled": 0, "fusion_lat": 0.0, "lat": 38.92042716666667, "bike_id": "6e05c57efc80bd7de4019c1684358cda", "fusion_lon": 0.0}, {"rental_uris": {"ios": "https://dc.lft.to/lastmile_qr_scan", "android": "https://dc.lft.to/lastmile_qr_scan"}, "type": "electric_scooter", "name": "2628de613ea0397260e73b5c54f74fc0", "is_reserved": 0, "lon": -77.04099466666666, "is_disabled": 0, "fusion_lat": 0.0, "lat": 38.918411666666664, "bike_id": "2628de613ea0397260e73b5c54f74fc0", "fusion_lon": 0.0}, {"rental_uris": {"ios": "https://dc.lft.to/lastmile_qr_scan", "android": "https://dc.lft.to/lastmile_qr_scan"}, "type": "electric_scooter", "name": "017f7774fcdadfe34953648b7d1e7b3b", "is_reserved": 0, "lon": -77.01764333333334, "is_disabled": 0, "fusion_lat": 0.0, "lat": 38.87714833333333, "bike_id": "017f7774fcdadfe34953648b7d1e7b3b", "fusion_lon": 0.0}, {"rental_uris": {"ios": "https://dc.lft.to/lastmile_qr_scan", "android": "https://dc.lft.to/lastmile_qr_scan"}, "type": "electric_scooter", "name": "4b8f1a4e2c6845079c5e54fab7143713", "is_reserved": 0, "lon": -77.03442833333334, "is_disabled": 0, "fusion_lat": 0.0, "lat": 38.917973833333335, "bike_id": "4b8f1a4e2c6845079c5e54fab7143713", "fusion_lon": 0.0}, {"rental_uris": {"ios": "https://dc.lft.to/lastmile_qr_scan", "android": "https://dc.lft.to/lastmile_qr_scan"}, "type": "electric_scooter", "name": "8360740d6ac8e62feeb1db8932d937c1", "is_reserved": 0, "lon": -76.9705995, "is_disabled": 0, "fusion_lat": 0.0, "lat": 38.862012, "bike_id": "8360740d6ac8e62feeb1db8932d937c1", "fusion_lon": 0.0}, {"rental_uris": {"ios": "https://dc.lft.to/lastmile_qr_scan", "android": "https://dc.lft.to/lastmile_qr_scan"}, "type": "electric_scooter", "name": "4bf4edd0c1b919ac030e4c563616ba97", "is_reserved": 0, "lon": -77.03329133333334, "is_disabled": 0, "fusion_lat": 0.0, "lat": 38.928542666666665, "bike_id": "4bf4edd0c1b919ac030e4c563616ba97", "fusion_lon": 0.0}, {"rental_uris": {"ios": "https://dc.lft.to/lastmile_qr_scan", "android": "https://dc.lft.to/lastmile_qr_scan"}, "type": "electric_scooter", "name": "0acf1a9f1728bd7cca59def86e1bb776", "is_reserved": 0, "lon": -77.01316566666667, "is_disabled": 0, "fusion_lat": 0.0, "lat": 38.920296, "bike_id": "0acf1a9f1728bd7cca59def86e1bb776", "fusion_lon": 0.0}, {"rental_uris": {"ios": "https://dc.lft.to/lastmile_qr_scan", "android": "https://dc.lft.to/lastmile_qr_scan"}, "type": "electric_scooter", "name": "8926d3a153e7bde74f511e57f5ac78e0", "is_reserved": 0, "lon": -76.99946283333334, "is_disabled": 0, "fusion_lat": 0.0, "lat": 38.90054533333333, "bike_id": "8926d3a153e7bde74f511e57f5ac78e0", "fusion_lon": 0.0}, {"rental_uris": {"ios": "https://dc.lft.to/lastmile_qr_scan", "android": "https://dc.lft.to/lastmile_qr_scan"}, "type": "electric_scooter", "name": "65e1fa2eb68d1ed7015e2e852348a686", "is_reserved": 0, "lon": -77.03673133333334, "is_disabled": 0, "fusion_lat": 0.0, "lat": 38.921429333333336, "bike_id": "65e1fa2eb68d1ed7015e2e852348a686", "fusion_lon": 0.0}, {"rental_uris": {"ios": "https://dc.lft.to/lastmile_qr_scan", "android": "https://dc.lft.to/lastmile_qr_scan"}, "type": "electric_bike", "name": "8885a9e9dd8facf490bd94e7d19ad6b9", "is_reserved": 0, "lon": -76.94150816666667, "is_disabled": 0, "fusion_lat": 0.0, "lat": 38.89015533333333, "bike_id": "8885a9e9dd8facf490bd94e7d19ad6b9", "fusion_lon": 0.0}, {"rental_uris": {"ios": "https://dc.lft.to/lastmile_qr_scan", "android": "https://dc.lft.to/lastmile_qr_scan"}, "type": "electric_scooter", "name": "3a09388abca75fba0c3c837c5ce2662e", "is_reserved": 0, "lon": -77.03331883333334, "is_disabled": 0, "fusion_lat": 0.0, "lat": 38.9253675, "bike_id": "3a09388abca75fba0c3c837c5ce2662e", "fusion_lon": 0.0}, {"rental_uris": {"ios": "https://dc.lft.to/lastmile_qr_scan", "android": "https://dc.lft.to/lastmile_qr_scan"}, "type": "electric_scooter", "name": "2da7966abd5ff92ff39ad1b82bf9c465", "is_reserved": 0, "lon": -77.05003866666667, "is_disabled": 0, "fusion_lat": 0.0, "lat": 38.892308, "bike_id": "2da7966abd5ff92ff39ad1b82bf9c465", "fusion_lon": 0.0}, {"rental_uris": {"ios": "https://dc.lft.to/lastmile_qr_scan", "android": "https://dc.lft.to/lastmile_qr_scan"}, "type": "electric_scooter", "name": "9e943bdeb92aa61c8d92ce5120f819cd", "is_reserved": 0, "lon": -76.99040866666667, "is_disabled": 0, "fusion_lat": 0.0, "lat": 38.8637685, "bike_id": "9e943bdeb92aa61c8d92ce5120f819cd", "fusion_lon": 0.0}, {"rental_uris": {"ios": "https://dc.lft.to/lastmile_qr_scan", "android": "https://dc.lft.to/lastmile_qr_scan"}, "type": "electric_scooter", "name": "0f38b368b41e44ecad7138e99713e84d", "is_reserved": 0, "lon": -77.07025883333333, "is_disabled": 0, "fusion_lat": 0.0, "lat": 38.89333633333333, "bike_id": "0f38b368b41e44ecad7138e99713e84d", "fusion_lon": 0.0}, {"rental_uris": {"ios": "https://dc.lft.to/lastmile_qr_scan", "android": "https://dc.lft.to/lastmile_qr_scan"}, "type": "electric_bike", "name": "c904c076f7c0d53be5001b05c224deeb", "is_reserved": 0, "lon": -76.94534683333333, "is_disabled": 0, "fusion_lat": 0.0, "lat": 38.867550666666666, "bike_id": "c904c076f7c0d53be5001b05c224deeb", "fusion_lon": 0.0}, {"rental_uris": {"ios": "https://dc.lft.to/lastmile_qr_scan", "android": "https://dc.lft.to/lastmile_qr_scan"}, "type": "electric_scooter", "name": "638902c292f1229b9e7810ced2aae821", "is_reserved": 0, "lon": -77.02661383333333, "is_disabled": 0, "fusion_lat": 0.0, "lat": 38.90262, "bike_id": "638902c292f1229b9e7810ced2aae821", "fusion_lon": 0.0}, {"rental_uris": {"ios": "https://dc.lft.to/lastmile_qr_scan", "android": "https://dc.lft.to/lastmile_qr_scan"}, "type": "electric_scooter", "name": "74292992ccc6813e08dee6a5aab04f6e", "is_reserved": 0, "lon": -77.0515885, "is_disabled": 0, "fusion_lat": 0.0, "lat": 38.904397, "bike_id": "74292992ccc6813e08dee6a5aab04f6e", "fusion_lon": 0.0}, {"rental_uris": {"ios": "https://dc.lft.to/lastmile_qr_scan", "android": "https://dc.lft.to/lastmile_qr_scan"}, "type": "electric_scooter", "name": "2f5501897b07c6217e88c65826c45e15", "is_reserved": 0, "lon": -77.01581633333333, "is_disabled": 0, "fusion_lat": 0.0, "lat": 38.876526166666665, "bike_id": "2f5501897b07c6217e88c65826c45e15", "fusion_lon": 0.0}, {"rental_uris": {"ios": "https://dc.lft.to/lastmile_qr_scan", "android": "https://dc.lft.to/lastmile_qr_scan"}, "type": "electric_scooter", "name": "800a7c6c69d2476f758be14a1bf7041b", "is_reserved": 0, "lon": -77.03959433333333, "is_disabled": 0, "fusion_lat": 0.0, "lat": 38.892423, "bike_id": "800a7c6c69d2476f758be14a1bf7041b", "fusion_lon": 0.0}, {"rental_uris": {"ios": "https://dc.lft.to/lastmile_qr_scan", "android": "https://dc.lft.to/lastmile_qr_scan"}, "type": "electric_scooter", "name": "8e658a6076a2e529e07aec89cf7a480d", "is_reserved": 0, "lon": -76.992329, "is_disabled": 0, "fusion_lat": 0.0, "lat": 38.8874905, "bike_id": "8e658a6076a2e529e07aec89cf7a480d", "fusion_lon": 0.0}, {"rental_uris": {"ios": "https://dc.lft.to/lastmile_qr_scan", "android": "https://dc.lft.to/lastmile_qr_scan"}, "type": "electric_scooter", "name": "ff44ff585d206ec7045e31931f98c10f", "is_reserved": 0, "lon": -77.02223983333333, "is_disabled": 0, "fusion_lat": 0.0, "lat": 38.91018966666667, "bike_id": "ff44ff585d206ec7045e31931f98c10f", "fusion_lon": 0.0}, {"rental_uris": {"ios": "https://dc.lft.to/lastmile_qr_scan", "android": "https://dc.lft.to/lastmile_qr_scan"}, "type": "electric_scooter", "name": "1b0577a4ae06ec865dc7a90877fbe6ad", "is_reserved": 0, "lon": -77.03352833333334, "is_disabled": 0, "fusion_lat": 0.0, "lat": 38.9288735, "bike_id": "1b0577a4ae06ec865dc7a90877fbe6ad", "fusion_lon": 0.0}, {"rental_uris": {"ios": "https://dc.lft.to/lastmile_qr_scan", "android": "https://dc.lft.to/lastmile_qr_scan"}, "type": "electric_scooter", "name": "57d78500ef869c4ea09ed198cf484372", "is_reserved": 0, "lon": -77.01328516666666, "is_disabled": 0, "fusion_lat": 0.0, "lat": 38.91254466666667, "bike_id": "57d78500ef869c4ea09ed198cf484372", "fusion_lon": 0.0}, {"rental_uris": {"ios": "https://dc.lft.to/lastmile_qr_scan", "android": "https://dc.lft.to/lastmile_qr_scan"}, "type": "electric_scooter", "name": "f21d52f213704af0ce051de9fb72724c", "is_reserved": 0, "lon": -77.03178133333333, "is_disabled": 0, "fusion_lat": 0.0, "lat": 38.8873865, "bike_id": "f21d52f213704af0ce051de9fb72724c", "fusion_lon": 0.0}, {"rental_uris": {"ios": "https://dc.lft.to/lastmile_qr_scan", "android": "https://dc.lft.to/lastmile_qr_scan"}, "type": "electric_scooter", "name": "2bbe6837b153995f8cd68453b58d52c6", "is_reserved": 0, "lon": -77.0248035, "is_disabled": 0, "fusion_lat": 0.0, "lat": 38.9395915, "bike_id": "2bbe6837b153995f8cd68453b58d52c6", "fusion_lon": 0.0}, {"rental_uris": {"ios": "https://dc.lft.to/lastmile_qr_scan", "android": "https://dc.lft.to/lastmile_qr_scan"}, "type": "electric_scooter", "name": "d4b998297305fd052be9dfe3f9c776cd", "is_reserved": 0, "lon": -76.979574, "is_disabled": 0, "fusion_lat": 0.0, "lat": 38.89616683333333, "bike_id": "d4b998297305fd052be9dfe3f9c776cd", "fusion_lon": 0.0}, {"rental_uris": {"ios": "https://dc.lft.to/lastmile_qr_scan", "android": "https://dc.lft.to/lastmile_qr_scan"}, "type": "electric_scooter", "name": "52d25abab9c8b11da2c277902d08bc09", "is_reserved": 0, "lon": -77.00774233333334, "is_disabled": 0, "fusion_lat": 0.0, "lat": 38.90735133333333, "bike_id": "52d25abab9c8b11da2c277902d08bc09", "fusion_lon": 0.0}, {"rental_uris": {"ios": "https://dc.lft.to/lastmile_qr_scan", "android": "https://dc.lft.to/lastmile_qr_scan"}, "type": "electric_scooter", "name": "1bf168f4fa8d273a41afa1d25aae0baa", "is_reserved": 0, "lon": -77.05624533333334, "is_disabled": 0, "fusion_lat": 0.0, "lat": 38.906837, "bike_id": "1bf168f4fa8d273a41afa1d25aae0baa", "fusion_lon": 0.0}, {"rental_uris": {"ios": "https://dc.lft.to/lastmile_qr_scan", "android": "https://dc.lft.to/lastmile_qr_scan"}, "type": "electric_bike", "name": "27931ef8d526256a5082ae50da821271", "is_reserved": 0, "lon": -76.907358, "is_disabled": 0, "fusion_lat": 0.0, "lat": 38.89616866666667, "bike_id": "27931ef8d526256a5082ae50da821271", "fusion_lon": 0.0}, {"rental_uris": {"ios": "https://dc.lft.to/lastmile_qr_scan", "android": "https://dc.lft.to/lastmile_qr_scan"}, "type": "electric_scooter", "name": "f6389c1284a3d9984f0bb4fcd53ae75d", "is_reserved": 0, "lon": -77.0322245, "is_disabled": 0, "fusion_lat": 0.0, "lat": 38.9289305, "bike_id": "f6389c1284a3d9984f0bb4fcd53ae75d", "fusion_lon": 0.0}, {"rental_uris": {"ios": "https://dc.lft.to/lastmile_qr_scan", "android": "https://dc.lft.to/lastmile_qr_scan"}, "type": "electric_scooter", "name": "948b92b6a27183993f252a1f96431129", "is_reserved": 0, "lon": -76.998375, "is_disabled": 0, "fusion_lat": 0.0, "lat": 38.891872666666664, "bike_id": "948b92b6a27183993f252a1f96431129", "fusion_lon": 0.0}, {"rental_uris": {"ios": "https://dc.lft.to/lastmile_qr_scan", "android": "https://dc.lft.to/lastmile_qr_scan"}, "type": "electric_scooter", "name": "4466e811249e00981387adfe064e716a", "is_reserved": 0, "lon": -77.0349625, "is_disabled": 0, "fusion_lat": 0.0, "lat": 38.9346045, "bike_id": "4466e811249e00981387adfe064e716a", "fusion_lon": 0.0}, {"rental_uris": {"ios": "https://dc.lft.to/lastmile_qr_scan", "android": "https://dc.lft.to/lastmile_qr_scan"}, "type": "electric_bike", "name": "57efd3b170ccfd6ba5bf77c902f61c79", "is_reserved": 0, "lon": -76.91806533333333, "is_disabled": 0, "fusion_lat": 0.0, "lat": 38.999978166666665, "bike_id": "57efd3b170ccfd6ba5bf77c902f61c79", "fusion_lon": 0.0}, {"rental_uris": {"ios": "https://dc.lft.to/lastmile_qr_scan", "android": "https://dc.lft.to/lastmile_qr_scan"}, "type": "electric_scooter", "name": "dd993c0de8b0e2ce38aba45d814bc2c4", "is_reserved": 0, "lon": -77.02691416666667, "is_disabled": 0, "fusion_lat": 0.0, "lat": 38.908683833333335, "bike_id": "dd993c0de8b0e2ce38aba45d814bc2c4", "fusion_lon": 0.0}, {"rental_uris": {"ios": "https://dc.lft.to/lastmile_qr_scan", "android": "https://dc.lft.to/lastmile_qr_scan"}, "type": "electric_scooter", "name": "a069f73d5f1b1f5ec79dee06b3c495eb", "is_reserved": 0, "lon": -76.988888, "is_disabled": 0, "fusion_lat": 0.0, "lat": 38.866593333333334, "bike_id": "a069f73d5f1b1f5ec79dee06b3c495eb", "fusion_lon": 0.0}, {"rental_uris": {"ios": "https://dc.lft.to/lastmile_qr_scan", "android": "https://dc.lft.to/lastmile_qr_scan"}, "type": "electric_scooter", "name": "eed25abc547c8f8068b21db5ac3f74c8", "is_reserved": 0, "lon": -77.03612933333334, "is_disabled": 0, "fusion_lat": 0.0, "lat": 38.923380333333334, "bike_id": "eed25abc547c8f8068b21db5ac3f74c8", "fusion_lon": 0.0}, {"rental_uris": {"ios": "https://dc.lft.to/lastmile_qr_scan", "android": "https://dc.lft.to/lastmile_qr_scan"}, "type": "electric_scooter", "name": "d9920d5656b5c5ab61e825c481e3f4c1", "is_reserved": 0, "lon": -77.027805, "is_disabled": 0, "fusion_lat": 0.0, "lat": 38.962422833333335, "bike_id": "d9920d5656b5c5ab61e825c481e3f4c1", "fusion_lon": 0.0}, {"rental_uris": {"ios": "https://dc.lft.to/lastmile_qr_scan", "android": "https://dc.lft.to/lastmile_qr_scan"}, "type": "electric_scooter", "name": "e7878035dcc46e95f960be28cdecb819", "is_reserved": 0, "lon": -77.04549583333333, "is_disabled": 0, "fusion_lat": 0.0, "lat": 38.90977766666666, "bike_id": "e7878035dcc46e95f960be28cdecb819", "fusion_lon": 0.0}, {"rental_uris": {"ios": "https://dc.lft.to/lastmile_qr_scan", "android": "https://dc.lft.to/lastmile_qr_scan"}, "type": "electric_scooter", "name": "a4464f82e5ead2c7570a17ff32a3e801", "is_reserved": 0, "lon": -77.0054975, "is_disabled": 0, "fusion_lat": 0.0, "lat": 38.87536216666667, "bike_id": "a4464f82e5ead2c7570a17ff32a3e801", "fusion_lon": 0.0}, {"rental_uris": {"ios": "https://dc.lft.to/lastmile_qr_scan", "android": "https://dc.lft.to/lastmile_qr_scan"}, "type": "electric_scooter", "name": "1ef76019e17274dd19e64028d3929463", "is_reserved": 0, "lon": -77.01792716666667, "is_disabled": 0, "fusion_lat": 0.0, "lat": 38.886055666666664, "bike_id": "1ef76019e17274dd19e64028d3929463", "fusion_lon": 0.0}, {"rental_uris": {"ios": "https://dc.lft.to/lastmile_qr_scan", "android": "https://dc.lft.to/lastmile_qr_scan"}, "type": "electric_bike", "name": "0c97b70197d5a5915e2f3fac92228f2e", "is_reserved": 0, "lon": -77.12978433333333, "is_disabled": 0, "fusion_lat": 0.0, "lat": 38.79984833333334, "bike_id": "0c97b70197d5a5915e2f3fac92228f2e", "fusion_lon": 0.0}, {"rental_uris": {"ios": "https://dc.lft.to/lastmile_qr_scan", "android": "https://dc.lft.to/lastmile_qr_scan"}, "type": "electric_scooter", "name": "dd1c45bd9439fde2cca60c809b9e828c", "is_reserved": 0, "lon": -76.9328705, "is_disabled": 0, "fusion_lat": 0.0, "lat": 38.896817166666665, "bike_id": "dd1c45bd9439fde2cca60c809b9e828c", "fusion_lon": 0.0}, {"rental_uris": {"ios": "https://dc.lft.to/lastmile_qr_scan", "android": "https://dc.lft.to/lastmile_qr_scan"}, "type": "electric_bike", "name": "44c251880b729eaf74ae2f5a3c282c0e", "is_reserved": 0, "lon": -76.98345933333333, "is_disabled": 0, "fusion_lat": 0.0, "lat": 38.86266083333334, "bike_id": "44c251880b729eaf74ae2f5a3c282c0e", "fusion_lon": 0.0}, {"rental_uris": {"ios": "https://dc.lft.to/lastmile_qr_scan", "android": "https://dc.lft.to/lastmile_qr_scan"}, "type": "electric_scooter", "name": "818236c84d2d7e27d1008d32ab9e3820", "is_reserved": 0, "lon": -76.9996215, "is_disabled": 0, "fusion_lat": 0.0, "lat": 38.89421683333333, "bike_id": "818236c84d2d7e27d1008d32ab9e3820", "fusion_lon": 0.0}, {"rental_uris": {"ios": "https://dc.lft.to/lastmile_qr_scan", "android": "https://dc.lft.to/lastmile_qr_scan"}, "type": "electric_scooter", "name": "94f8ad6dd334b1e424976041ddfe5cf9", "is_reserved": 0, "lon": -76.95207083333334, "is_disabled": 0, "fusion_lat": 0.0, "lat": 38.90508633333334, "bike_id": "94f8ad6dd334b1e424976041ddfe5cf9", "fusion_lon": 0.0}, {"rental_uris": {"ios": "https://dc.lft.to/lastmile_qr_scan", "android": "https://dc.lft.to/lastmile_qr_scan"}, "type": "electric_scooter", "name": "771bd387baf5caf48e434dc3d7f54cc3", "is_reserved": 0, "lon": -76.92634883333334, "is_disabled": 0, "fusion_lat": 0.0, "lat": 38.901906, "bike_id": "771bd387baf5caf48e434dc3d7f54cc3", "fusion_lon": 0.0}, {"rental_uris": {"ios": "https://dc.lft.to/lastmile_qr_scan", "android": "https://dc.lft.to/lastmile_qr_scan"}, "type": "electric_scooter", "name": "6b4cb46d5a60cce8530890ba9218c079", "is_reserved": 0, "lon": -77.01754366666667, "is_disabled": 0, "fusion_lat": 0.0, "lat": 38.876892833333336, "bike_id": "6b4cb46d5a60cce8530890ba9218c079", "fusion_lon": 0.0}, {"rental_uris": {"ios": "https://dc.lft.to/lastmile_qr_scan", "android": "https://dc.lft.to/lastmile_qr_scan"}, "type": "electric_scooter", "name": "2d8567594e80cab6ff12b8cb3faa6046", "is_reserved": 0, "lon": -77.04383666666666, "is_disabled": 0, "fusion_lat": 0.0, "lat": 38.934241166666666, "bike_id": "2d8567594e80cab6ff12b8cb3faa6046", "fusion_lon": 0.0}, {"rental_uris": {"ios": "https://dc.lft.to/lastmile_qr_scan", "android": "https://dc.lft.to/lastmile_qr_scan"}, "type": "electric_scooter", "name": "d8d933b5b9ca7a4f1736c1f7aba5bea0", "is_reserved": 0, "lon": -77.02171483333333, "is_disabled": 0, "fusion_lat": 0.0, "lat": 38.92999983333333, "bike_id": "d8d933b5b9ca7a4f1736c1f7aba5bea0", "fusion_lon": 0.0}, {"rental_uris": {"ios": "https://dc.lft.to/lastmile_qr_scan", "android": "https://dc.lft.to/lastmile_qr_scan"}, "type": "electric_scooter", "name": "b50f9ce3f6feee327926c3c5d3df1bd5", "is_reserved": 0, "lon": -77.04144883333333, "is_disabled": 0, "fusion_lat": 0.0, "lat": 38.921682833333335, "bike_id": "b50f9ce3f6feee327926c3c5d3df1bd5", "fusion_lon": 0.0}, {"rental_uris": {"ios": "https://dc.lft.to/lastmile_qr_scan", "android": "https://dc.lft.to/lastmile_qr_scan"}, "type": "electric_scooter", "name": "6de0a8018abf9e4198961b74c057652c", "is_reserved": 0, "lon": -77.032594, "is_disabled": 0, "fusion_lat": 0.0, "lat": 38.93982, "bike_id": "6de0a8018abf9e4198961b74c057652c", "fusion_lon": 0.0}, {"rental_uris": {"ios": "https://dc.lft.to/lastmile_qr_scan", "android": "https://dc.lft.to/lastmile_qr_scan"}, "type": "electric_scooter", "name": "b80dcc9e49f99161305cc23ac4d307a4", "is_reserved": 0, "lon": -77.03398633333333, "is_disabled": 0, "fusion_lat": 0.0, "lat": 38.8997265, "bike_id": "b80dcc9e49f99161305cc23ac4d307a4", "fusion_lon": 0.0}, {"rental_uris": {"ios": "https://dc.lft.to/lastmile_qr_scan", "android": "https://dc.lft.to/lastmile_qr_scan"}, "type": "electric_scooter", "name": "34575fead879bc9c97a305c07d9f817a", "is_reserved": 0, "lon": -77.03482166666667, "is_disabled": 0, "fusion_lat": 0.0, "lat": 38.931161, "bike_id": "34575fead879bc9c97a305c07d9f817a", "fusion_lon": 0.0}, {"rental_uris": {"ios": "https://dc.lft.to/lastmile_qr_scan", "android": "https://dc.lft.to/lastmile_qr_scan"}, "type": "electric_scooter", "name": "5a200ac220959a1e6ae6b0de3c3ee3f7", "is_reserved": 0, "lon": -77.02037033333333, "is_disabled": 0, "fusion_lat": 0.0, "lat": 38.89308533333333, "bike_id": "5a200ac220959a1e6ae6b0de3c3ee3f7", "fusion_lon": 0.0}, {"rental_uris": {"ios": "https://dc.lft.to/lastmile_qr_scan", "android": "https://dc.lft.to/lastmile_qr_scan"}, "type": "electric_scooter", "name": "2bfa0234fa236ee6ac48b30cd9210435", "is_reserved": 0, "lon": -77.0222625, "is_disabled": 0, "fusion_lat": 0.0, "lat": 38.92474133333333, "bike_id": "2bfa0234fa236ee6ac48b30cd9210435", "fusion_lon": 0.0}, {"rental_uris": {"ios": "https://dc.lft.to/lastmile_qr_scan", "android": "https://dc.lft.to/lastmile_qr_scan"}, "type": "electric_scooter", "name": "fe6a59031a8c58fae1c6ce8f41106995", "is_reserved": 0, "lon": -76.98337333333333, "is_disabled": 0, "fusion_lat": 0.0, "lat": 38.9008435, "bike_id": "fe6a59031a8c58fae1c6ce8f41106995", "fusion_lon": 0.0}, {"rental_uris": {"ios": "https://dc.lft.to/lastmile_qr_scan", "android": "https://dc.lft.to/lastmile_qr_scan"}, "type": "electric_scooter", "name": "39bd7021d6e3a108e13370418a33a098", "is_reserved": 0, "lon": -77.03047266666667, "is_disabled": 0, "fusion_lat": 0.0, "lat": 38.922357, "bike_id": "39bd7021d6e3a108e13370418a33a098", "fusion_lon": 0.0}, {"rental_uris": {"ios": "https://dc.lft.to/lastmile_qr_scan", "android": "https://dc.lft.to/lastmile_qr_scan"}, "type": "electric_scooter", "name": "07e592d64b8707c18b5ddadf0f85f019", "is_reserved": 0, "lon": -77.03766566666667, "is_disabled": 0, "fusion_lat": 0.0, "lat": 38.906837333333335, "bike_id": "07e592d64b8707c18b5ddadf0f85f019", "fusion_lon": 0.0}, {"rental_uris": {"ios": "https://dc.lft.to/lastmile_qr_scan", "android": "https://dc.lft.to/lastmile_qr_scan"}, "type": "electric_scooter", "name": "ae3c905fee7c56ce7d5c84b91f237d3c", "is_reserved": 0, "lon": -77.02415583333334, "is_disabled": 0, "fusion_lat": 0.0, "lat": 38.920661333333335, "bike_id": "ae3c905fee7c56ce7d5c84b91f237d3c", "fusion_lon": 0.0}, {"rental_uris": {"ios": "https://dc.lft.to/lastmile_qr_scan", "android": "https://dc.lft.to/lastmile_qr_scan"}, "type": "electric_bike", "name": "05633d6442773d13cbb785104b57ab11", "is_reserved": 0, "lon": -77.0019645, "is_disabled": 0, "fusion_lat": 0.0, "lat": 38.9414875, "bike_id": "05633d6442773d13cbb785104b57ab11", "fusion_lon": 0.0}, {"rental_uris": {"ios": "https://dc.lft.to/lastmile_qr_scan", "android": "https://dc.lft.to/lastmile_qr_scan"}, "type": "electric_scooter", "name": "513e7181ee377115109f0cb166013aba", "is_reserved": 0, "lon": -77.01769466666667, "is_disabled": 0, "fusion_lat": 0.0, "lat": 38.905016833333335, "bike_id": "513e7181ee377115109f0cb166013aba", "fusion_lon": 0.0}, {"rental_uris": {"ios": "https://dc.lft.to/lastmile_qr_scan", "android": "https://dc.lft.to/lastmile_qr_scan"}, "type": "electric_scooter", "name": "a40074f0d6007eb2a5c7d111c4ac3393", "is_reserved": 0, "lon": -77.04321233333333, "is_disabled": 0, "fusion_lat": 0.0, "lat": 38.9084635, "bike_id": "a40074f0d6007eb2a5c7d111c4ac3393", "fusion_lon": 0.0}, {"rental_uris": {"ios": "https://dc.lft.to/lastmile_qr_scan", "android": "https://dc.lft.to/lastmile_qr_scan"}, "type": "electric_scooter", "name": "97be15b763b92290ed6ad2c26d140e6c", "is_reserved": 0, "lon": -77.02402266666667, "is_disabled": 0, "fusion_lat": 0.0, "lat": 38.91961333333333, "bike_id": "97be15b763b92290ed6ad2c26d140e6c", "fusion_lon": 0.0}, {"rental_uris": {"ios": "https://dc.lft.to/lastmile_qr_scan", "android": "https://dc.lft.to/lastmile_qr_scan"}, "type": "electric_bike", "name": "834c2ab6af60e371cd3cf487564edcc2", "is_reserved": 0, "lon": -76.98843566666666, "is_disabled": 0, "fusion_lat": 0.0, "lat": 38.8428005, "bike_id": "834c2ab6af60e371cd3cf487564edcc2", "fusion_lon": 0.0}, {"rental_uris": {"ios": "https://dc.lft.to/lastmile_qr_scan", "android": "https://dc.lft.to/lastmile_qr_scan"}, "type": "electric_scooter", "name": "e9993a04c5f290816511e5288f15f230", "is_reserved": 0, "lon": -77.03243066666667, "is_disabled": 0, "fusion_lat": 0.0, "lat": 38.9071065, "bike_id": "e9993a04c5f290816511e5288f15f230", "fusion_lon": 0.0}, {"rental_uris": {"ios": "https://dc.lft.to/lastmile_qr_scan", "android": "https://dc.lft.to/lastmile_qr_scan"}, "type": "electric_scooter", "name": "afd8de487a8a2a850135bccb1509a6b2", "is_reserved": 0, "lon": -77.03585583333333, "is_disabled": 0, "fusion_lat": 0.0, "lat": 38.92788266666667, "bike_id": "afd8de487a8a2a850135bccb1509a6b2", "fusion_lon": 0.0}, {"rental_uris": {"ios": "https://dc.lft.to/lastmile_qr_scan", "android": "https://dc.lft.to/lastmile_qr_scan"}, "type": "electric_scooter", "name": "51311a08204b295835c744c0788337df", "is_reserved": 0, "lon": -77.02454066666667, "is_disabled": 0, "fusion_lat": 0.0, "lat": 38.899893666666664, "bike_id": "51311a08204b295835c744c0788337df", "fusion_lon": 0.0}, {"rental_uris": {"ios": "https://dc.lft.to/lastmile_qr_scan", "android": "https://dc.lft.to/lastmile_qr_scan"}, "type": "electric_scooter", "name": "c0bcda057a48c1f1a7283d24de38586f", "is_reserved": 0, "lon": -77.04002616666666, "is_disabled": 0, "fusion_lat": 0.0, "lat": 38.911873166666666, "bike_id": "c0bcda057a48c1f1a7283d24de38586f", "fusion_lon": 0.0}, {"rental_uris": {"ios": "https://dc.lft.to/lastmile_qr_scan", "android": "https://dc.lft.to/lastmile_qr_scan"}, "type": "electric_scooter", "name": "be4c2e8df62f6753cfa7397d9cecf6cd", "is_reserved": 0, "lon": -77.0472635, "is_disabled": 0, "fusion_lat": 0.0, "lat": 38.90591233333333, "bike_id": "be4c2e8df62f6753cfa7397d9cecf6cd", "fusion_lon": 0.0}, {"rental_uris": {"ios": "https://dc.lft.to/lastmile_qr_scan", "android": "https://dc.lft.to/lastmile_qr_scan"}, "type": "electric_scooter", "name": "11236ae46414986f87a5b73e39e0a7d1", "is_reserved": 0, "lon": -77.02133716666667, "is_disabled": 0, "fusion_lat": 0.0, "lat": 38.9269515, "bike_id": "11236ae46414986f87a5b73e39e0a7d1", "fusion_lon": 0.0}, {"rental_uris": {"ios": "https://dc.lft.to/lastmile_qr_scan", "android": "https://dc.lft.to/lastmile_qr_scan"}, "type": "electric_scooter", "name": "b2d1ca308114bc58ded7d0279691773c", "is_reserved": 0, "lon": -77.03264966666667, "is_disabled": 0, "fusion_lat": 0.0, "lat": 38.927421, "bike_id": "b2d1ca308114bc58ded7d0279691773c", "fusion_lon": 0.0}, {"rental_uris": {"ios": "https://dc.lft.to/lastmile_qr_scan", "android": "https://dc.lft.to/lastmile_qr_scan"}, "type": "electric_scooter", "name": "eaee99ecabfaf300725e08696cb2daad", "is_reserved": 0, "lon": -77.0237905, "is_disabled": 0, "fusion_lat": 0.0, "lat": 38.909638, "bike_id": "eaee99ecabfaf300725e08696cb2daad", "fusion_lon": 0.0}, {"rental_uris": {"ios": "https://dc.lft.to/lastmile_qr_scan", "android": "https://dc.lft.to/lastmile_qr_scan"}, "type": "electric_scooter", "name": "0c08273fb6d37fe22ed08ee7d1abeda5", "is_reserved": 0, "lon": -77.030462, "is_disabled": 0, "fusion_lat": 0.0, "lat": 38.92482183333333, "bike_id": "0c08273fb6d37fe22ed08ee7d1abeda5", "fusion_lon": 0.0}, {"rental_uris": {"ios": "https://dc.lft.to/lastmile_qr_scan", "android": "https://dc.lft.to/lastmile_qr_scan"}, "type": "electric_scooter", "name": "58a4f8946cdca7212a30624df458bf9c", "is_reserved": 0, "lon": -77.04315766666667, "is_disabled": 0, "fusion_lat": 0.0, "lat": 38.92219333333333, "bike_id": "58a4f8946cdca7212a30624df458bf9c", "fusion_lon": 0.0}, {"rental_uris": {"ios": "https://dc.lft.to/lastmile_qr_scan", "android": "https://dc.lft.to/lastmile_qr_scan"}, "type": "electric_bike", "name": "2b46f23fa195f31cc3bebd069fa7eaa7", "is_reserved": 0, "lon": -77.0013285, "is_disabled": 0, "fusion_lat": 0.0, "lat": 38.99498233333333, "bike_id": "2b46f23fa195f31cc3bebd069fa7eaa7", "fusion_lon": 0.0}, {"rental_uris": {"ios": "https://dc.lft.to/lastmile_qr_scan", "android": "https://dc.lft.to/lastmile_qr_scan"}, "type": "electric_scooter", "name": "beda01edccb7b7ca8704057e6167b2dd", "is_reserved": 0, "lon": -76.975666, "is_disabled": 0, "fusion_lat": 0.0, "lat": 38.944217333333334, "bike_id": "beda01edccb7b7ca8704057e6167b2dd", "fusion_lon": 0.0}, {"rental_uris": {"ios": "https://dc.lft.to/lastmile_qr_scan", "android": "https://dc.lft.to/lastmile_qr_scan"}, "type": "electric_bike", "name": "dbac177e966e7a53e17b1273dd5fda40", "is_reserved": 0, "lon": -76.9579315, "is_disabled": 0, "fusion_lat": 0.0, "lat": 38.980452166666666, "bike_id": "dbac177e966e7a53e17b1273dd5fda40", "fusion_lon": 0.0}, {"rental_uris": {"ios": "https://dc.lft.to/lastmile_qr_scan", "android": "https://dc.lft.to/lastmile_qr_scan"}, "type": "electric_scooter", "name": "397971574c923ad9d7ce26a3f2956040", "is_reserved": 0, "lon": -76.997941, "is_disabled": 0, "fusion_lat": 0.0, "lat": 38.87633733333333, "bike_id": "397971574c923ad9d7ce26a3f2956040", "fusion_lon": 0.0}, {"rental_uris": {"ios": "https://dc.lft.to/lastmile_qr_scan", "android": "https://dc.lft.to/lastmile_qr_scan"}, "type": "electric_scooter", "name": "e990a8a22a846cbbe7b1ffd402440051", "is_reserved": 0, "lon": -77.026008, "is_disabled": 0, "fusion_lat": 0.0, "lat": 38.903053666666665, "bike_id": "e990a8a22a846cbbe7b1ffd402440051", "fusion_lon": 0.0}, {"rental_uris": {"ios": "https://dc.lft.to/lastmile_qr_scan", "android": "https://dc.lft.to/lastmile_qr_scan"}, "type": "electric_scooter", "name": "aa52a378de623cedd436f27745207545", "is_reserved": 0, "lon": -77.032196, "is_disabled": 0, "fusion_lat": 0.0, "lat": 38.908675833333334, "bike_id": "aa52a378de623cedd436f27745207545", "fusion_lon": 0.0}, {"rental_uris": {"ios": "https://dc.lft.to/lastmile_qr_scan", "android": "https://dc.lft.to/lastmile_qr_scan"}, "type": "electric_scooter", "name": "027c9371a58e5620b3db25be003c8a76", "is_reserved": 0, "lon": -77.02223066666667, "is_disabled": 0, "fusion_lat": 0.0, "lat": 38.9111775, "bike_id": "027c9371a58e5620b3db25be003c8a76", "fusion_lon": 0.0}, {"rental_uris": {"ios": "https://dc.lft.to/lastmile_qr_scan", "android": "https://dc.lft.to/lastmile_qr_scan"}, "type": "electric_scooter", "name": "acafe4414fa24eabd78796d774b458fe", "is_reserved": 0, "lon": -77.04402166666667, "is_disabled": 0, "fusion_lat": 0.0, "lat": 38.925911666666664, "bike_id": "acafe4414fa24eabd78796d774b458fe", "fusion_lon": 0.0}, {"rental_uris": {"ios": "https://dc.lft.to/lastmile_qr_scan", "android": "https://dc.lft.to/lastmile_qr_scan"}, "type": "electric_bike", "name": "d7476be1c8aaa01132a90f19dd5ad166", "is_reserved": 0, "lon": -77.072445, "is_disabled": 0, "fusion_lat": 0.0, "lat": 38.81363783333333, "bike_id": "d7476be1c8aaa01132a90f19dd5ad166", "fusion_lon": 0.0}, {"rental_uris": {"ios": "https://dc.lft.to/lastmile_qr_scan", "android": "https://dc.lft.to/lastmile_qr_scan"}, "type": "electric_scooter", "name": "04dcefb88551690ebe4b61602b704996", "is_reserved": 0, "lon": -77.0281375, "is_disabled": 0, "fusion_lat": 0.0, "lat": 38.91094066666667, "bike_id": "04dcefb88551690ebe4b61602b704996", "fusion_lon": 0.0}, {"rental_uris": {"ios": "https://dc.lft.to/lastmile_qr_scan", "android": "https://dc.lft.to/lastmile_qr_scan"}, "type": "electric_scooter", "name": "af2179be78ebb04759a5612ae5cec5f7", "is_reserved": 0, "lon": -77.04716833333333, "is_disabled": 0, "fusion_lat": 0.0, "lat": 38.90189933333333, "bike_id": "af2179be78ebb04759a5612ae5cec5f7", "fusion_lon": 0.0}, {"rental_uris": {"ios": "https://dc.lft.to/lastmile_qr_scan", "android": "https://dc.lft.to/lastmile_qr_scan"}, "type": "electric_scooter", "name": "7612531a4a8c00933d149190d26d3700", "is_reserved": 0, "lon": -77.0162505, "is_disabled": 0, "fusion_lat": 0.0, "lat": 38.9024525, "bike_id": "7612531a4a8c00933d149190d26d3700", "fusion_lon": 0.0}, {"rental_uris": {"ios": "https://dc.lft.to/lastmile_qr_scan", "android": "https://dc.lft.to/lastmile_qr_scan"}, "type": "electric_scooter", "name": "5055c93dfae85450be7aca80662a20db", "is_reserved": 0, "lon": -77.027115, "is_disabled": 0, "fusion_lat": 0.0, "lat": 38.915198, "bike_id": "5055c93dfae85450be7aca80662a20db", "fusion_lon": 0.0}, {"rental_uris": {"ios": "https://dc.lft.to/lastmile_qr_scan", "android": "https://dc.lft.to/lastmile_qr_scan"}, "type": "electric_scooter", "name": "fc3c7cb904da949f76826f8b36dd8da1", "is_reserved": 0, "lon": -76.94325166666667, "is_disabled": 0, "fusion_lat": 0.0, "lat": 38.87916633333333, "bike_id": "fc3c7cb904da949f76826f8b36dd8da1", "fusion_lon": 0.0}, {"rental_uris": {"ios": "https://dc.lft.to/lastmile_qr_scan", "android": "https://dc.lft.to/lastmile_qr_scan"}, "type": "electric_scooter", "name": "3597827416d09453ff637ec820a98e72", "is_reserved": 0, "lon": -77.048225, "is_disabled": 0, "fusion_lat": 0.0, "lat": 38.909647166666666, "bike_id": "3597827416d09453ff637ec820a98e72", "fusion_lon": 0.0}, {"rental_uris": {"ios": "https://dc.lft.to/lastmile_qr_scan", "android": "https://dc.lft.to/lastmile_qr_scan"}, "type": "electric_scooter", "name": "5f85619b631f696749bbada95ca39797", "is_reserved": 0, "lon": -76.98566933333333, "is_disabled": 0, "fusion_lat": 0.0, "lat": 38.8961865, "bike_id": "5f85619b631f696749bbada95ca39797", "fusion_lon": 0.0}, {"rental_uris": {"ios": "https://dc.lft.to/lastmile_qr_scan", "android": "https://dc.lft.to/lastmile_qr_scan"}, "type": "electric_scooter", "name": "ddf3755724dba572539960fe47dad3eb", "is_reserved": 0, "lon": -77.04032716666667, "is_disabled": 0, "fusion_lat": 0.0, "lat": 38.924592833333335, "bike_id": "ddf3755724dba572539960fe47dad3eb", "fusion_lon": 0.0}, {"rental_uris": {"ios": "https://dc.lft.to/lastmile_qr_scan", "android": "https://dc.lft.to/lastmile_qr_scan"}, "type": "electric_scooter", "name": "f46c09c5b4952dfc027ed2c6fb2dfc9d", "is_reserved": 0, "lon": -77.01352383333334, "is_disabled": 0, "fusion_lat": 0.0, "lat": 38.919342666666665, "bike_id": "f46c09c5b4952dfc027ed2c6fb2dfc9d", "fusion_lon": 0.0}, {"rental_uris": {"ios": "https://dc.lft.to/lastmile_qr_scan", "android": "https://dc.lft.to/lastmile_qr_scan"}, "type": "electric_scooter", "name": "d4bebfa0aac542eb2d5a3ac182b026b4", "is_reserved": 0, "lon": -77.036987, "is_disabled": 0, "fusion_lat": 0.0, "lat": 38.9328445, "bike_id": "d4bebfa0aac542eb2d5a3ac182b026b4", "fusion_lon": 0.0}, {"rental_uris": {"ios": "https://dc.lft.to/lastmile_qr_scan", "android": "https://dc.lft.to/lastmile_qr_scan"}, "type": "electric_scooter", "name": "3ca8311e57c2d954334e82c9f4faa994", "is_reserved": 0, "lon": -77.02356083333333, "is_disabled": 0, "fusion_lat": 0.0, "lat": 38.935355, "bike_id": "3ca8311e57c2d954334e82c9f4faa994", "fusion_lon": 0.0}, {"rental_uris": {"ios": "https://dc.lft.to/lastmile_qr_scan", "android": "https://dc.lft.to/lastmile_qr_scan"}, "type": "electric_scooter", "name": "7a8cfd279c0cfe60f2de9d78fdbc5eb2", "is_reserved": 0, "lon": -77.03185033333334, "is_disabled": 0, "fusion_lat": 0.0, "lat": 38.90871633333333, "bike_id": "7a8cfd279c0cfe60f2de9d78fdbc5eb2", "fusion_lon": 0.0}, {"rental_uris": {"ios": "https://dc.lft.to/lastmile_qr_scan", "android": "https://dc.lft.to/lastmile_qr_scan"}, "type": "electric_scooter", "name": "c3d94c78b098cdbf10a229e8088c2b22", "is_reserved": 0, "lon": -77.02271116666667, "is_disabled": 0, "fusion_lat": 0.0, "lat": 38.924206833333336, "bike_id": "c3d94c78b098cdbf10a229e8088c2b22", "fusion_lon": 0.0}, {"rental_uris": {"ios": "https://dc.lft.to/lastmile_qr_scan", "android": "https://dc.lft.to/lastmile_qr_scan"}, "type": "electric_scooter", "name": "a82c8b80ba49407cb1463cb560fb87f9", "is_reserved": 0, "lon": -77.06519716666666, "is_disabled": 0, "fusion_lat": 0.0, "lat": 38.90584966666667, "bike_id": "a82c8b80ba49407cb1463cb560fb87f9", "fusion_lon": 0.0}, {"rental_uris": {"ios": "https://dc.lft.to/lastmile_qr_scan", "android": "https://dc.lft.to/lastmile_qr_scan"}, "type": "electric_scooter", "name": "42852160619971018d3eb0b62b27ae7b", "is_reserved": 0, "lon": -77.04237983333333, "is_disabled": 0, "fusion_lat": 0.0, "lat": 38.92208866666667, "bike_id": "42852160619971018d3eb0b62b27ae7b", "fusion_lon": 0.0}, {"rental_uris": {"ios": "https://dc.lft.to/lastmile_qr_scan", "android": "https://dc.lft.to/lastmile_qr_scan"}, "type": "electric_scooter", "name": "531defcd65878b8f4def20f1b0d71c76", "is_reserved": 0, "lon": -77.02151883333333, "is_disabled": 0, "fusion_lat": 0.0, "lat": 38.9132975, "bike_id": "531defcd65878b8f4def20f1b0d71c76", "fusion_lon": 0.0}, {"rental_uris": {"ios": "https://dc.lft.to/lastmile_qr_scan", "android": "https://dc.lft.to/lastmile_qr_scan"}, "type": "electric_scooter", "name": "43de2cb900b14d60ccbe89f3b0c41027", "is_reserved": 0, "lon": -77.03132133333334, "is_disabled": 0, "fusion_lat": 0.0, "lat": 38.923823166666665, "bike_id": "43de2cb900b14d60ccbe89f3b0c41027", "fusion_lon": 0.0}, {"rental_uris": {"ios": "https://dc.lft.to/lastmile_qr_scan", "android": "https://dc.lft.to/lastmile_qr_scan"}, "type": "electric_scooter", "name": "859030e043dd5dd3a538946549af6937", "is_reserved": 0, "lon": -77.04496816666666, "is_disabled": 0, "fusion_lat": 0.0, "lat": 38.9151745, "bike_id": "859030e043dd5dd3a538946549af6937", "fusion_lon": 0.0}, {"rental_uris": {"ios": "https://dc.lft.to/lastmile_qr_scan", "android": "https://dc.lft.to/lastmile_qr_scan"}, "type": "electric_scooter", "name": "e92a9c51c66adeff5ce4e97a47a7fad1", "is_reserved": 0, "lon": -77.032885, "is_disabled": 0, "fusion_lat": 0.0, "lat": 38.92454583333333, "bike_id": "e92a9c51c66adeff5ce4e97a47a7fad1", "fusion_lon": 0.0}, {"rental_uris": {"ios": "https://dc.lft.to/lastmile_qr_scan", "android": "https://dc.lft.to/lastmile_qr_scan"}, "type": "electric_scooter", "name": "9696498fc1acea7abc219b64f31be5a3", "is_reserved": 0, "lon": -77.0366235, "is_disabled": 0, "fusion_lat": 0.0, "lat": 38.91007233333333, "bike_id": "9696498fc1acea7abc219b64f31be5a3", "fusion_lon": 0.0}, {"rental_uris": {"ios": "https://dc.lft.to/lastmile_qr_scan", "android": "https://dc.lft.to/lastmile_qr_scan"}, "type": "electric_scooter", "name": "b12f4793792a2096978d97f8b7c387ca", "is_reserved": 0, "lon": -77.0390625, "is_disabled": 0, "fusion_lat": 0.0, "lat": 38.922410666666664, "bike_id": "b12f4793792a2096978d97f8b7c387ca", "fusion_lon": 0.0}, {"rental_uris": {"ios": "https://dc.lft.to/lastmile_qr_scan", "android": "https://dc.lft.to/lastmile_qr_scan"}, "type": "electric_bike", "name": "31ba8eede065f9660b241c43762b3615", "is_reserved": 0, "lon": -76.98017733333333, "is_disabled": 0, "fusion_lat": 0.0, "lat": 38.853102166666666, "bike_id": "31ba8eede065f9660b241c43762b3615", "fusion_lon": 0.0}, {"rental_uris": {"ios": "https://dc.lft.to/lastmile_qr_scan", "android": "https://dc.lft.to/lastmile_qr_scan"}, "type": "electric_scooter", "name": "bc13a3f561003f3662db39ee7d8dbadd", "is_reserved": 0, "lon": -77.03163566666667, "is_disabled": 0, "fusion_lat": 0.0, "lat": 38.915575, "bike_id": "bc13a3f561003f3662db39ee7d8dbadd", "fusion_lon": 0.0}, {"rental_uris": {"ios": "https://dc.lft.to/lastmile_qr_scan", "android": "https://dc.lft.to/lastmile_qr_scan"}, "type": "electric_scooter", "name": "c6f5429e3ca8cb0a2709b1d8bc8382b0", "is_reserved": 0, "lon": -77.0225805, "is_disabled": 0, "fusion_lat": 0.0, "lat": 38.92824933333333, "bike_id": "c6f5429e3ca8cb0a2709b1d8bc8382b0", "fusion_lon": 0.0}, {"rental_uris": {"ios": "https://dc.lft.to/lastmile_qr_scan", "android": "https://dc.lft.to/lastmile_qr_scan"}, "type": "electric_scooter", "name": "9bdb54a9d2a04841479fa879f9981685", "is_reserved": 0, "lon": -77.04083516666667, "is_disabled": 0, "fusion_lat": 0.0, "lat": 38.947882, "bike_id": "9bdb54a9d2a04841479fa879f9981685", "fusion_lon": 0.0}, {"rental_uris": {"ios": "https://dc.lft.to/lastmile_qr_scan", "android": "https://dc.lft.to/lastmile_qr_scan"}, "type": "electric_scooter", "name": "7ebc16bb0a47cc3b4508b73a6d82652f", "is_reserved": 0, "lon": -77.024845, "is_disabled": 0, "fusion_lat": 0.0, "lat": 38.935148, "bike_id": "7ebc16bb0a47cc3b4508b73a6d82652f", "fusion_lon": 0.0}, {"rental_uris": {"ios": "https://dc.lft.to/lastmile_qr_scan", "android": "https://dc.lft.to/lastmile_qr_scan"}, "type": "electric_scooter", "name": "2e051b5ed28d2e48c38f9c20adf74624", "is_reserved": 0, "lon": -77.00747633333333, "is_disabled": 0, "fusion_lat": 0.0, "lat": 38.91104966666666, "bike_id": "2e051b5ed28d2e48c38f9c20adf74624", "fusion_lon": 0.0}, {"rental_uris": {"ios": "https://dc.lft.to/lastmile_qr_scan", "android": "https://dc.lft.to/lastmile_qr_scan"}, "type": "electric_scooter", "name": "d552faff99d8ec6d71ad52ab95e18413", "is_reserved": 0, "lon": -77.03437383333333, "is_disabled": 0, "fusion_lat": 0.0, "lat": 38.905636666666666, "bike_id": "d552faff99d8ec6d71ad52ab95e18413", "fusion_lon": 0.0}, {"rental_uris": {"ios": "https://dc.lft.to/lastmile_qr_scan", "android": "https://dc.lft.to/lastmile_qr_scan"}, "type": "electric_scooter", "name": "3caacbc91533617e62773600d853364e", "is_reserved": 0, "lon": -77.04018183333334, "is_disabled": 0, "fusion_lat": 0.0, "lat": 38.92163266666667, "bike_id": "3caacbc91533617e62773600d853364e", "fusion_lon": 0.0}, {"rental_uris": {"ios": "https://dc.lft.to/lastmile_qr_scan", "android": "https://dc.lft.to/lastmile_qr_scan"}, "type": "electric_scooter", "name": "783630f0d664b59e4fcf094812755910", "is_reserved": 0, "lon": -77.02601183333333, "is_disabled": 0, "fusion_lat": 0.0, "lat": 38.884350166666664, "bike_id": "783630f0d664b59e4fcf094812755910", "fusion_lon": 0.0}, {"rental_uris": {"ios": "https://dc.lft.to/lastmile_qr_scan", "android": "https://dc.lft.to/lastmile_qr_scan"}, "type": "electric_scooter", "name": "f5f562eb0be51a88067a5e208902aab5", "is_reserved": 0, "lon": -77.03404316666666, "is_disabled": 0, "fusion_lat": 0.0, "lat": 38.923965, "bike_id": "f5f562eb0be51a88067a5e208902aab5", "fusion_lon": 0.0}, {"rental_uris": {"ios": "https://dc.lft.to/lastmile_qr_scan", "android": "https://dc.lft.to/lastmile_qr_scan"}, "type": "electric_scooter", "name": "754adfbcbbf396e01dfa562f50985331", "is_reserved": 0, "lon": -77.043557, "is_disabled": 0, "fusion_lat": 0.0, "lat": 38.897310833333336, "bike_id": "754adfbcbbf396e01dfa562f50985331", "fusion_lon": 0.0}, {"rental_uris": {"ios": "https://dc.lft.to/lastmile_qr_scan", "android": "https://dc.lft.to/lastmile_qr_scan"}, "type": "electric_scooter", "name": "59999ba760c3237737816cdbe697120f", "is_reserved": 0, "lon": -77.02433783333333, "is_disabled": 0, "fusion_lat": 0.0, "lat": 38.920513666666665, "bike_id": "59999ba760c3237737816cdbe697120f", "fusion_lon": 0.0}, {"rental_uris": {"ios": "https://dc.lft.to/lastmile_qr_scan", "android": "https://dc.lft.to/lastmile_qr_scan"}, "type": "electric_scooter", "name": "d56087688ad4caf15a5af03f73e33744", "is_reserved": 0, "lon": -77.03057883333334, "is_disabled": 0, "fusion_lat": 0.0, "lat": 38.90830166666667, "bike_id": "d56087688ad4caf15a5af03f73e33744", "fusion_lon": 0.0}, {"rental_uris": {"ios": "https://dc.lft.to/lastmile_qr_scan", "android": "https://dc.lft.to/lastmile_qr_scan"}, "type": "electric_scooter", "name": "7a3c16faa1260cc7adad7bc6ccc4e09f", "is_reserved": 0, "lon": -77.06148833333333, "is_disabled": 0, "fusion_lat": 0.0, "lat": 38.912979666666665, "bike_id": "7a3c16faa1260cc7adad7bc6ccc4e09f", "fusion_lon": 0.0}, {"rental_uris": {"ios": "https://dc.lft.to/lastmile_qr_scan", "android": "https://dc.lft.to/lastmile_qr_scan"}, "type": "electric_scooter", "name": "e96bf646d767d372e48777c639160880", "is_reserved": 0, "lon": -77.01758966666667, "is_disabled": 0, "fusion_lat": 0.0, "lat": 38.921162333333335, "bike_id": "e96bf646d767d372e48777c639160880", "fusion_lon": 0.0}, {"rental_uris": {"ios": "https://dc.lft.to/lastmile_qr_scan", "android": "https://dc.lft.to/lastmile_qr_scan"}, "type": "electric_bike", "name": "6a813020d2fd9cf3055d3a429647e344", "is_reserved": 0, "lon": -77.00498583333334, "is_disabled": 0, "fusion_lat": 0.0, "lat": 38.91630166666667, "bike_id": "6a813020d2fd9cf3055d3a429647e344", "fusion_lon": 0.0}, {"rental_uris": {"ios": "https://dc.lft.to/lastmile_qr_scan", "android": "https://dc.lft.to/lastmile_qr_scan"}, "type": "electric_scooter", "name": "3228e071c48ca353e8298b046c994aa5", "is_reserved": 0, "lon": -76.989862, "is_disabled": 0, "fusion_lat": 0.0, "lat": 38.86501033333333, "bike_id": "3228e071c48ca353e8298b046c994aa5", "fusion_lon": 0.0}, {"rental_uris": {"ios": "https://dc.lft.to/lastmile_qr_scan", "android": "https://dc.lft.to/lastmile_qr_scan"}, "type": "electric_scooter", "name": "c4f03514b5d0500a43a5540cee14fea6", "is_reserved": 0, "lon": -77.058718, "is_disabled": 0, "fusion_lat": 0.0, "lat": 38.94239966666667, "bike_id": "c4f03514b5d0500a43a5540cee14fea6", "fusion_lon": 0.0}, {"rental_uris": {"ios": "https://dc.lft.to/lastmile_qr_scan", "android": "https://dc.lft.to/lastmile_qr_scan"}, "type": "electric_scooter", "name": "f7a064e9b092b08c619425122757b36c", "is_reserved": 0, "lon": -77.02969966666667, "is_disabled": 0, "fusion_lat": 0.0, "lat": 38.917252, "bike_id": "f7a064e9b092b08c619425122757b36c", "fusion_lon": 0.0}, {"rental_uris": {"ios": "https://dc.lft.to/lastmile_qr_scan", "android": "https://dc.lft.to/lastmile_qr_scan"}, "type": "electric_scooter", "name": "18b7041c7ad0e8652ce73e09c38795fc", "is_reserved": 0, "lon": -77.02962566666666, "is_disabled": 0, "fusion_lat": 0.0, "lat": 38.90709316666667, "bike_id": "18b7041c7ad0e8652ce73e09c38795fc", "fusion_lon": 0.0}, {"rental_uris": {"ios": "https://dc.lft.to/lastmile_qr_scan", "android": "https://dc.lft.to/lastmile_qr_scan"}, "type": "electric_scooter", "name": "77970afa150859c125c483aab07d61d8", "is_reserved": 0, "lon": -77.06779716666667, "is_disabled": 0, "fusion_lat": 0.0, "lat": 38.90410133333334, "bike_id": "77970afa150859c125c483aab07d61d8", "fusion_lon": 0.0}, {"rental_uris": {"ios": "https://dc.lft.to/lastmile_qr_scan", "android": "https://dc.lft.to/lastmile_qr_scan"}, "type": "electric_scooter", "name": "8d3fa77c2358862c1ee27764ee590be3", "is_reserved": 0, "lon": -76.92922983333334, "is_disabled": 0, "fusion_lat": 0.0, "lat": 38.88654583333334, "bike_id": "8d3fa77c2358862c1ee27764ee590be3", "fusion_lon": 0.0}, {"rental_uris": {"ios": "https://dc.lft.to/lastmile_qr_scan", "android": "https://dc.lft.to/lastmile_qr_scan"}, "type": "electric_scooter", "name": "c9cec97196bf76165dfbfa5e2a25b37d", "is_reserved": 0, "lon": -76.99553633333333, "is_disabled": 0, "fusion_lat": 0.0, "lat": 38.926752, "bike_id": "c9cec97196bf76165dfbfa5e2a25b37d", "fusion_lon": 0.0}, {"rental_uris": {"ios": "https://dc.lft.to/lastmile_qr_scan", "android": "https://dc.lft.to/lastmile_qr_scan"}, "type": "electric_scooter", "name": "ba6b741d860d95d225a50b90744167f5", "is_reserved": 0, "lon": -77.03892733333333, "is_disabled": 0, "fusion_lat": 0.0, "lat": 38.924305, "bike_id": "ba6b741d860d95d225a50b90744167f5", "fusion_lon": 0.0}, {"rental_uris": {"ios": "https://dc.lft.to/lastmile_qr_scan", "android": "https://dc.lft.to/lastmile_qr_scan"}, "type": "electric_scooter", "name": "902aa8e1ac887286f896e0ac677334c4", "is_reserved": 0, "lon": -77.03662583333333, "is_disabled": 0, "fusion_lat": 0.0, "lat": 38.9363475, "bike_id": "902aa8e1ac887286f896e0ac677334c4", "fusion_lon": 0.0}, {"rental_uris": {"ios": "https://dc.lft.to/lastmile_qr_scan", "android": "https://dc.lft.to/lastmile_qr_scan"}, "type": "electric_scooter", "name": "cbb388387f39e50f0442d79782b07e48", "is_reserved": 0, "lon": -76.9704025, "is_disabled": 0, "fusion_lat": 0.0, "lat": 38.8633135, "bike_id": "cbb388387f39e50f0442d79782b07e48", "fusion_lon": 0.0}, {"rental_uris": {"ios": "https://dc.lft.to/lastmile_qr_scan", "android": "https://dc.lft.to/lastmile_qr_scan"}, "type": "electric_scooter", "name": "1bd933d743c624ce1b620e0c76362e0c", "is_reserved": 0, "lon": -77.0183515, "is_disabled": 0, "fusion_lat": 0.0, "lat": 38.921896333333336, "bike_id": "1bd933d743c624ce1b620e0c76362e0c", "fusion_lon": 0.0}, {"rental_uris": {"ios": "https://dc.lft.to/lastmile_qr_scan", "android": "https://dc.lft.to/lastmile_qr_scan"}, "type": "electric_scooter", "name": "095ba9532bf5abda462ddc16c28e6b21", "is_reserved": 0, "lon": -77.0366535, "is_disabled": 0, "fusion_lat": 0.0, "lat": 38.91387616666667, "bike_id": "095ba9532bf5abda462ddc16c28e6b21", "fusion_lon": 0.0}, {"rental_uris": {"ios": "https://dc.lft.to/lastmile_qr_scan", "android": "https://dc.lft.to/lastmile_qr_scan"}, "type": "electric_scooter", "name": "5b0074e8b9d3e3c44c9285a3ecb6ac76", "is_reserved": 0, "lon": -77.04187266666666, "is_disabled": 0, "fusion_lat": 0.0, "lat": 38.92204183333333, "bike_id": "5b0074e8b9d3e3c44c9285a3ecb6ac76", "fusion_lon": 0.0}, {"rental_uris": {"ios": "https://dc.lft.to/lastmile_qr_scan", "android": "https://dc.lft.to/lastmile_qr_scan"}, "type": "electric_scooter", "name": "76558c82c7d1c40d3d782b75eea9502c", "is_reserved": 0, "lon": -76.934287, "is_disabled": 0, "fusion_lat": 0.0, "lat": 38.89920683333333, "bike_id": "76558c82c7d1c40d3d782b75eea9502c", "fusion_lon": 0.0}, {"rental_uris": {"ios": "https://dc.lft.to/lastmile_qr_scan", "android": "https://dc.lft.to/lastmile_qr_scan"}, "type": "electric_scooter", "name": "d239b30544447dc5c8f3c7b47dae776f", "is_reserved": 0, "lon": -76.99497883333333, "is_disabled": 0, "fusion_lat": 0.0, "lat": 38.86219116666667, "bike_id": "d239b30544447dc5c8f3c7b47dae776f", "fusion_lon": 0.0}, {"rental_uris": {"ios": "https://dc.lft.to/lastmile_qr_scan", "android": "https://dc.lft.to/lastmile_qr_scan"}, "type": "electric_scooter", "name": "1809cddc03bf43fa0c4bf691432f4d58", "is_reserved": 0, "lon": -76.99911883333333, "is_disabled": 0, "fusion_lat": 0.0, "lat": 38.92457483333333, "bike_id": "1809cddc03bf43fa0c4bf691432f4d58", "fusion_lon": 0.0}, {"rental_uris": {"ios": "https://dc.lft.to/lastmile_qr_scan", "android": "https://dc.lft.to/lastmile_qr_scan"}, "type": "electric_scooter", "name": "c11f95496e541343ba9d73973d5b087b", "is_reserved": 0, "lon": -77.018577, "is_disabled": 0, "fusion_lat": 0.0, "lat": 38.89469666666667, "bike_id": "c11f95496e541343ba9d73973d5b087b", "fusion_lon": 0.0}, {"rental_uris": {"ios": "https://dc.lft.to/lastmile_qr_scan", "android": "https://dc.lft.to/lastmile_qr_scan"}, "type": "electric_scooter", "name": "cfd42bc5cf3265bf9934b1aedc68b4ef", "is_reserved": 0, "lon": -76.99846383333333, "is_disabled": 0, "fusion_lat": 0.0, "lat": 38.92335716666667, "bike_id": "cfd42bc5cf3265bf9934b1aedc68b4ef", "fusion_lon": 0.0}, {"rental_uris": {"ios": "https://dc.lft.to/lastmile_qr_scan", "android": "https://dc.lft.to/lastmile_qr_scan"}, "type": "electric_bike", "name": "70e22610c6e4f1ab7c3e02c1fbfb6494", "is_reserved": 0, "lon": -77.00756466666667, "is_disabled": 0, "fusion_lat": 0.0, "lat": 38.997816666666665, "bike_id": "70e22610c6e4f1ab7c3e02c1fbfb6494", "fusion_lon": 0.0}, {"rental_uris": {"ios": "https://dc.lft.to/lastmile_qr_scan", "android": "https://dc.lft.to/lastmile_qr_scan"}, "type": "electric_scooter", "name": "364df095c990357a3e47b7c5e2160594", "is_reserved": 0, "lon": -77.01040383333333, "is_disabled": 0, "fusion_lat": 0.0, "lat": 38.911075, "bike_id": "364df095c990357a3e47b7c5e2160594", "fusion_lon": 0.0}, {"rental_uris": {"ios": "https://dc.lft.to/lastmile_qr_scan", "android": "https://dc.lft.to/lastmile_qr_scan"}, "type": "electric_scooter", "name": "66a5f7739f17441df9fc7f72a7b14eee", "is_reserved": 0, "lon": -77.016365, "is_disabled": 0, "fusion_lat": 0.0, "lat": 38.913946, "bike_id": "66a5f7739f17441df9fc7f72a7b14eee", "fusion_lon": 0.0}, {"rental_uris": {"ios": "https://dc.lft.to/lastmile_qr_scan", "android": "https://dc.lft.to/lastmile_qr_scan"}, "type": "electric_scooter", "name": "b15481a50ac12e442df3149c72963340", "is_reserved": 0, "lon": -77.04236833333333, "is_disabled": 0, "fusion_lat": 0.0, "lat": 38.905750166666664, "bike_id": "b15481a50ac12e442df3149c72963340", "fusion_lon": 0.0}, {"rental_uris": {"ios": "https://dc.lft.to/lastmile_qr_scan", "android": "https://dc.lft.to/lastmile_qr_scan"}, "type": "electric_scooter", "name": "5aa13d318ef1d7c39ce4efb19f46abc2", "is_reserved": 0, "lon": -77.00197616666667, "is_disabled": 0, "fusion_lat": 0.0, "lat": 38.89293116666666, "bike_id": "5aa13d318ef1d7c39ce4efb19f46abc2", "fusion_lon": 0.0}, {"rental_uris": {"ios": "https://dc.lft.to/lastmile_qr_scan", "android": "https://dc.lft.to/lastmile_qr_scan"}, "type": "electric_scooter", "name": "274a7b3bc305520a5e782dd07d31de4a", "is_reserved": 0, "lon": -76.99183516666666, "is_disabled": 0, "fusion_lat": 0.0, "lat": 38.90505666666667, "bike_id": "274a7b3bc305520a5e782dd07d31de4a", "fusion_lon": 0.0}, {"rental_uris": {"ios": "https://dc.lft.to/lastmile_qr_scan", "android": "https://dc.lft.to/lastmile_qr_scan"}, "type": "electric_scooter", "name": "739af88324c6c827eab6c94f164143bd", "is_reserved": 0, "lon": -76.99589266666666, "is_disabled": 0, "fusion_lat": 0.0, "lat": 38.909442, "bike_id": "739af88324c6c827eab6c94f164143bd", "fusion_lon": 0.0}, {"rental_uris": {"ios": "https://dc.lft.to/lastmile_qr_scan", "android": "https://dc.lft.to/lastmile_qr_scan"}, "type": "electric_scooter", "name": "4b70944e42577c1f514daa851482426d", "is_reserved": 0, "lon": -76.973299, "is_disabled": 0, "fusion_lat": 0.0, "lat": 38.90408716666666, "bike_id": "4b70944e42577c1f514daa851482426d", "fusion_lon": 0.0}, {"rental_uris": {"ios": "https://dc.lft.to/lastmile_qr_scan", "android": "https://dc.lft.to/lastmile_qr_scan"}, "type": "electric_scooter", "name": "ccf6b463f43e74aa40408d66b32ca872", "is_reserved": 0, "lon": -77.0396885, "is_disabled": 0, "fusion_lat": 0.0, "lat": 38.93155083333333, "bike_id": "ccf6b463f43e74aa40408d66b32ca872", "fusion_lon": 0.0}, {"rental_uris": {"ios": "https://dc.lft.to/lastmile_qr_scan", "android": "https://dc.lft.to/lastmile_qr_scan"}, "type": "electric_scooter", "name": "fb55fe065ae01d99b2893ebe7e4f1e1f", "is_reserved": 0, "lon": -77.01068816666667, "is_disabled": 0, "fusion_lat": 0.0, "lat": 38.91193766666667, "bike_id": "fb55fe065ae01d99b2893ebe7e4f1e1f", "fusion_lon": 0.0}, {"rental_uris": {"ios": "https://dc.lft.to/lastmile_qr_scan", "android": "https://dc.lft.to/lastmile_qr_scan"}, "type": "electric_bike", "name": "2b33719e50c3bafe257fc5e0ed4dc52b", "is_reserved": 0, "lon": -77.0695365, "is_disabled": 0, "fusion_lat": 0.0, "lat": 38.83631416666667, "bike_id": "2b33719e50c3bafe257fc5e0ed4dc52b", "fusion_lon": 0.0}, {"rental_uris": {"ios": "https://dc.lft.to/lastmile_qr_scan", "android": "https://dc.lft.to/lastmile_qr_scan"}, "type": "electric_scooter", "name": "7b0e0ca4bb76957cb3f93939e1d205f0", "is_reserved": 0, "lon": -77.045622, "is_disabled": 0, "fusion_lat": 0.0, "lat": 38.91831066666667, "bike_id": "7b0e0ca4bb76957cb3f93939e1d205f0", "fusion_lon": 0.0}, {"rental_uris": {"ios": "https://dc.lft.to/lastmile_qr_scan", "android": "https://dc.lft.to/lastmile_qr_scan"}, "type": "electric_bike", "name": "6779a7c03591acee9651f86625f01a4c", "is_reserved": 0, "lon": -76.99353333333333, "is_disabled": 0, "fusion_lat": 0.0, "lat": 38.845084666666665, "bike_id": "6779a7c03591acee9651f86625f01a4c", "fusion_lon": 0.0}, {"rental_uris": {"ios": "https://dc.lft.to/lastmile_qr_scan", "android": "https://dc.lft.to/lastmile_qr_scan"}, "type": "electric_scooter", "name": "ce2c3fc80e53cdf8d49c5c614850ed5b", "is_reserved": 0, "lon": -77.04657983333334, "is_disabled": 0, "fusion_lat": 0.0, "lat": 38.89633833333333, "bike_id": "ce2c3fc80e53cdf8d49c5c614850ed5b", "fusion_lon": 0.0}, {"rental_uris": {"ios": "https://dc.lft.to/lastmile_qr_scan", "android": "https://dc.lft.to/lastmile_qr_scan"}, "type": "electric_scooter", "name": "ffafade3d6f83120588541bcc1af482c", "is_reserved": 0, "lon": -77.02358083333333, "is_disabled": 0, "fusion_lat": 0.0, "lat": 38.9020035, "bike_id": "ffafade3d6f83120588541bcc1af482c", "fusion_lon": 0.0}, {"rental_uris": {"ios": "https://dc.lft.to/lastmile_qr_scan", "android": "https://dc.lft.to/lastmile_qr_scan"}, "type": "electric_scooter", "name": "d8a04d27f52efb6a40c166b62f085ca9", "is_reserved": 0, "lon": -77.02411483333333, "is_disabled": 0, "fusion_lat": 0.0, "lat": 38.92999366666667, "bike_id": "d8a04d27f52efb6a40c166b62f085ca9", "fusion_lon": 0.0}, {"rental_uris": {"ios": "https://dc.lft.to/lastmile_qr_scan", "android": "https://dc.lft.to/lastmile_qr_scan"}, "type": "electric_scooter", "name": "7996b8d5c5668e1c399c32ad0e695140", "is_reserved": 0, "lon": -77.03250433333334, "is_disabled": 0, "fusion_lat": 0.0, "lat": 38.9171385, "bike_id": "7996b8d5c5668e1c399c32ad0e695140", "fusion_lon": 0.0}, {"rental_uris": {"ios": "https://dc.lft.to/lastmile_qr_scan", "android": "https://dc.lft.to/lastmile_qr_scan"}, "type": "electric_scooter", "name": "2fb49a2576169771fdcc0973ce8e9b3e", "is_reserved": 0, "lon": -77.0481975, "is_disabled": 0, "fusion_lat": 0.0, "lat": 38.91487083333333, "bike_id": "2fb49a2576169771fdcc0973ce8e9b3e", "fusion_lon": 0.0}, {"rental_uris": {"ios": "https://dc.lft.to/lastmile_qr_scan", "android": "https://dc.lft.to/lastmile_qr_scan"}, "type": "electric_scooter", "name": "f5277f8e9944fc9da00a4a22938af915", "is_reserved": 0, "lon": -77.00747483333333, "is_disabled": 0, "fusion_lat": 0.0, "lat": 38.8770915, "bike_id": "f5277f8e9944fc9da00a4a22938af915", "fusion_lon": 0.0}, {"rental_uris": {"ios": "https://dc.lft.to/lastmile_qr_scan", "android": "https://dc.lft.to/lastmile_qr_scan"}, "type": "electric_scooter", "name": "bf9063a0d1f77db4d4c951f26565f0ea", "is_reserved": 0, "lon": -77.0464745, "is_disabled": 0, "fusion_lat": 0.0, "lat": 38.911871166666664, "bike_id": "bf9063a0d1f77db4d4c951f26565f0ea", "fusion_lon": 0.0}, {"rental_uris": {"ios": "https://dc.lft.to/lastmile_qr_scan", "android": "https://dc.lft.to/lastmile_qr_scan"}, "type": "electric_scooter", "name": "731ddc596202e0eb972ed76c77fddb47", "is_reserved": 0, "lon": -77.0178365, "is_disabled": 0, "fusion_lat": 0.0, "lat": 38.919842333333335, "bike_id": "731ddc596202e0eb972ed76c77fddb47", "fusion_lon": 0.0}, {"rental_uris": {"ios": "https://dc.lft.to/lastmile_qr_scan", "android": "https://dc.lft.to/lastmile_qr_scan"}, "type": "electric_scooter", "name": "4b3cbcd8d74b96b5473da1a4a0927237", "is_reserved": 0, "lon": -76.95207466666666, "is_disabled": 0, "fusion_lat": 0.0, "lat": 38.905121333333334, "bike_id": "4b3cbcd8d74b96b5473da1a4a0927237", "fusion_lon": 0.0}, {"rental_uris": {"ios": "https://dc.lft.to/lastmile_qr_scan", "android": "https://dc.lft.to/lastmile_qr_scan"}, "type": "electric_scooter", "name": "6ab2779273925404c8a8c337f5e45319", "is_reserved": 0, "lon": -76.99930416666666, "is_disabled": 0, "fusion_lat": 0.0, "lat": 38.95756566666667, "bike_id": "6ab2779273925404c8a8c337f5e45319", "fusion_lon": 0.0}, {"rental_uris": {"ios": "https://dc.lft.to/lastmile_qr_scan", "android": "https://dc.lft.to/lastmile_qr_scan"}, "type": "electric_scooter", "name": "38af555d0da604aa225ace8b74b389be", "is_reserved": 0, "lon": -77.032791, "is_disabled": 0, "fusion_lat": 0.0, "lat": 38.9042925, "bike_id": "38af555d0da604aa225ace8b74b389be", "fusion_lon": 0.0}, {"rental_uris": {"ios": "https://dc.lft.to/lastmile_qr_scan", "android": "https://dc.lft.to/lastmile_qr_scan"}, "type": "electric_scooter", "name": "c6fd202f4475e9051fdd5e0aeac525b4", "is_reserved": 0, "lon": -77.00785316666666, "is_disabled": 0, "fusion_lat": 0.0, "lat": 38.897408666666664, "bike_id": "c6fd202f4475e9051fdd5e0aeac525b4", "fusion_lon": 0.0}, {"rental_uris": {"ios": "https://dc.lft.to/lastmile_qr_scan", "android": "https://dc.lft.to/lastmile_qr_scan"}, "type": "electric_bike", "name": "04528d6e2738d76c41a17f7b7a6df9b5", "is_reserved": 0, "lon": -76.93748016666666, "is_disabled": 0, "fusion_lat": 0.0, "lat": 38.87142583333333, "bike_id": "04528d6e2738d76c41a17f7b7a6df9b5", "fusion_lon": 0.0}, {"rental_uris": {"ios": "https://dc.lft.to/lastmile_qr_scan", "android": "https://dc.lft.to/lastmile_qr_scan"}, "type": "electric_scooter", "name": "21f9eaa7d69c048245e59c78c611e928", "is_reserved": 0, "lon": -77.03655, "is_disabled": 0, "fusion_lat": 0.0, "lat": 38.9363835, "bike_id": "21f9eaa7d69c048245e59c78c611e928", "fusion_lon": 0.0}, {"rental_uris": {"ios": "https://dc.lft.to/lastmile_qr_scan", "android": "https://dc.lft.to/lastmile_qr_scan"}, "type": "electric_scooter", "name": "8a0ba8c3dc23c97dc17591472082c93d", "is_reserved": 0, "lon": -77.03208366666667, "is_disabled": 0, "fusion_lat": 0.0, "lat": 38.9207045, "bike_id": "8a0ba8c3dc23c97dc17591472082c93d", "fusion_lon": 0.0}, {"rental_uris": {"ios": "https://dc.lft.to/lastmile_qr_scan", "android": "https://dc.lft.to/lastmile_qr_scan"}, "type": "electric_scooter", "name": "4e8b6cb9f418c825f935953cd4bf23d7", "is_reserved": 0, "lon": -77.04263766666666, "is_disabled": 0, "fusion_lat": 0.0, "lat": 38.904115833333336, "bike_id": "4e8b6cb9f418c825f935953cd4bf23d7", "fusion_lon": 0.0}, {"rental_uris": {"ios": "https://dc.lft.to/lastmile_qr_scan", "android": "https://dc.lft.to/lastmile_qr_scan"}, "type": "electric_scooter", "name": "501a551830aeb5a39f1c0bd4dc15faa2", "is_reserved": 0, "lon": -77.01358, "is_disabled": 0, "fusion_lat": 0.0, "lat": 38.89584466666667, "bike_id": "501a551830aeb5a39f1c0bd4dc15faa2", "fusion_lon": 0.0}, {"rental_uris": {"ios": "https://dc.lft.to/lastmile_qr_scan", "android": "https://dc.lft.to/lastmile_qr_scan"}, "type": "electric_scooter", "name": "333f3ab96bb653605a3987303bc9b70a", "is_reserved": 0, "lon": -77.055213, "is_disabled": 0, "fusion_lat": 0.0, "lat": 38.90001066666667, "bike_id": "333f3ab96bb653605a3987303bc9b70a", "fusion_lon": 0.0}, {"rental_uris": {"ios": "https://dc.lft.to/lastmile_qr_scan", "android": "https://dc.lft.to/lastmile_qr_scan"}, "type": "electric_scooter", "name": "b321e2aa7a1ba965de1d349205f8c729", "is_reserved": 0, "lon": -77.00891266666666, "is_disabled": 0, "fusion_lat": 0.0, "lat": 38.91716616666667, "bike_id": "b321e2aa7a1ba965de1d349205f8c729", "fusion_lon": 0.0}, {"rental_uris": {"ios": "https://dc.lft.to/lastmile_qr_scan", "android": "https://dc.lft.to/lastmile_qr_scan"}, "type": "electric_scooter", "name": "96acf166f356c1d507733b51f4d70ba9", "is_reserved": 0, "lon": -76.93697983333334, "is_disabled": 0, "fusion_lat": 0.0, "lat": 38.890162333333336, "bike_id": "96acf166f356c1d507733b51f4d70ba9", "fusion_lon": 0.0}, {"rental_uris": {"ios": "https://dc.lft.to/lastmile_qr_scan", "android": "https://dc.lft.to/lastmile_qr_scan"}, "type": "electric_scooter", "name": "b6c0f1e90931cf6b39140c2aa53a7c30", "is_reserved": 0, "lon": -77.03195833333334, "is_disabled": 0, "fusion_lat": 0.0, "lat": 38.908239, "bike_id": "b6c0f1e90931cf6b39140c2aa53a7c30", "fusion_lon": 0.0}, {"rental_uris": {"ios": "https://dc.lft.to/lastmile_qr_scan", "android": "https://dc.lft.to/lastmile_qr_scan"}, "type": "electric_scooter", "name": "5251bab1ef3e5b05af968d24dec0af0c", "is_reserved": 0, "lon": -77.02072883333334, "is_disabled": 0, "fusion_lat": 0.0, "lat": 38.93111316666667, "bike_id": "5251bab1ef3e5b05af968d24dec0af0c", "fusion_lon": 0.0}, {"rental_uris": {"ios": "https://dc.lft.to/lastmile_qr_scan", "android": "https://dc.lft.to/lastmile_qr_scan"}, "type": "electric_scooter", "name": "21e02c76863d1cece4d986b6ee1980cd", "is_reserved": 0, "lon": -77.06417283333333, "is_disabled": 0, "fusion_lat": 0.0, "lat": 38.91400433333333, "bike_id": "21e02c76863d1cece4d986b6ee1980cd", "fusion_lon": 0.0}, {"rental_uris": {"ios": "https://dc.lft.to/lastmile_qr_scan", "android": "https://dc.lft.to/lastmile_qr_scan"}, "type": "electric_scooter", "name": "baadbf989e6949cef75c033e3f43edcf", "is_reserved": 0, "lon": -77.02220583333333, "is_disabled": 0, "fusion_lat": 0.0, "lat": 38.92088483333333, "bike_id": "baadbf989e6949cef75c033e3f43edcf", "fusion_lon": 0.0}, {"rental_uris": {"ios": "https://dc.lft.to/lastmile_qr_scan", "android": "https://dc.lft.to/lastmile_qr_scan"}, "type": "electric_scooter", "name": "3557d529a785f12870c8e8962443cb6b", "is_reserved": 0, "lon": -77.00558983333333, "is_disabled": 0, "fusion_lat": 0.0, "lat": 38.87470783333333, "bike_id": "3557d529a785f12870c8e8962443cb6b", "fusion_lon": 0.0}, {"rental_uris": {"ios": "https://dc.lft.to/lastmile_qr_scan", "android": "https://dc.lft.to/lastmile_qr_scan"}, "type": "electric_scooter", "name": "5492ccebd31c2fffde9fb43610a63b0f", "is_reserved": 0, "lon": -77.00990683333333, "is_disabled": 0, "fusion_lat": 0.0, "lat": 38.90559116666667, "bike_id": "5492ccebd31c2fffde9fb43610a63b0f", "fusion_lon": 0.0}, {"rental_uris": {"ios": "https://dc.lft.to/lastmile_qr_scan", "android": "https://dc.lft.to/lastmile_qr_scan"}, "type": "electric_scooter", "name": "b9934524958c06b4cee18c31e3123aab", "is_reserved": 0, "lon": -77.02475533333333, "is_disabled": 0, "fusion_lat": 0.0, "lat": 38.9181515, "bike_id": "b9934524958c06b4cee18c31e3123aab", "fusion_lon": 0.0}, {"rental_uris": {"ios": "https://dc.lft.to/lastmile_qr_scan", "android": "https://dc.lft.to/lastmile_qr_scan"}, "type": "electric_scooter", "name": "e5485c776e097550201d8029177dc315", "is_reserved": 0, "lon": -77.031778, "is_disabled": 0, "fusion_lat": 0.0, "lat": 38.91549833333333, "bike_id": "e5485c776e097550201d8029177dc315", "fusion_lon": 0.0}, {"rental_uris": {"ios": "https://dc.lft.to/lastmile_qr_scan", "android": "https://dc.lft.to/lastmile_qr_scan"}, "type": "electric_scooter", "name": "77cb895d2f329308e7f1bcec08d000ac", "is_reserved": 0, "lon": -77.03629666666667, "is_disabled": 0, "fusion_lat": 0.0, "lat": 38.908448, "bike_id": "77cb895d2f329308e7f1bcec08d000ac", "fusion_lon": 0.0}, {"rental_uris": {"ios": "https://dc.lft.to/lastmile_qr_scan", "android": "https://dc.lft.to/lastmile_qr_scan"}, "type": "electric_scooter", "name": "d69d8fd7cbe104c11c4fae8b38ba7d41", "is_reserved": 0, "lon": -77.02308416666666, "is_disabled": 0, "fusion_lat": 0.0, "lat": 38.92862566666667, "bike_id": "d69d8fd7cbe104c11c4fae8b38ba7d41", "fusion_lon": 0.0}, {"rental_uris": {"ios": "https://dc.lft.to/lastmile_qr_scan", "android": "https://dc.lft.to/lastmile_qr_scan"}, "type": "electric_scooter", "name": "ee47fab3c63fe1ce458c101bbce3ea04", "is_reserved": 0, "lon": -76.94197916666667, "is_disabled": 0, "fusion_lat": 0.0, "lat": 38.902235833333336, "bike_id": "ee47fab3c63fe1ce458c101bbce3ea04", "fusion_lon": 0.0}, {"rental_uris": {"ios": "https://dc.lft.to/lastmile_qr_scan", "android": "https://dc.lft.to/lastmile_qr_scan"}, "type": "electric_scooter", "name": "27a64014f795a879ccb1c53613f61f31", "is_reserved": 0, "lon": -77.07552433333333, "is_disabled": 0, "fusion_lat": 0.0, "lat": 38.920905, "bike_id": "27a64014f795a879ccb1c53613f61f31", "fusion_lon": 0.0}, {"rental_uris": {"ios": "https://dc.lft.to/lastmile_qr_scan", "android": "https://dc.lft.to/lastmile_qr_scan"}, "type": "electric_scooter", "name": "73ddf395ed98b7e43238f77a0bed935e", "is_reserved": 0, "lon": -77.03752216666666, "is_disabled": 0, "fusion_lat": 0.0, "lat": 38.93196916666667, "bike_id": "73ddf395ed98b7e43238f77a0bed935e", "fusion_lon": 0.0}, {"rental_uris": {"ios": "https://dc.lft.to/lastmile_qr_scan", "android": "https://dc.lft.to/lastmile_qr_scan"}, "type": "electric_scooter", "name": "549fc599a9969edfdcdfe57f4144dd39", "is_reserved": 0, "lon": -77.0385035, "is_disabled": 0, "fusion_lat": 0.0, "lat": 38.91648283333333, "bike_id": "549fc599a9969edfdcdfe57f4144dd39", "fusion_lon": 0.0}, {"rental_uris": {"ios": "https://dc.lft.to/lastmile_qr_scan", "android": "https://dc.lft.to/lastmile_qr_scan"}, "type": "electric_scooter", "name": "abc39a361e0ee82109c078698ae64f33", "is_reserved": 0, "lon": -77.02148283333334, "is_disabled": 0, "fusion_lat": 0.0, "lat": 38.920048666666666, "bike_id": "abc39a361e0ee82109c078698ae64f33", "fusion_lon": 0.0}, {"rental_uris": {"ios": "https://dc.lft.to/lastmile_qr_scan", "android": "https://dc.lft.to/lastmile_qr_scan"}, "type": "electric_scooter", "name": "8cbb5bff2b3aa5859978ba62212a226b", "is_reserved": 0, "lon": -76.99467583333333, "is_disabled": 0, "fusion_lat": 0.0, "lat": 38.9054925, "bike_id": "8cbb5bff2b3aa5859978ba62212a226b", "fusion_lon": 0.0}, {"rental_uris": {"ios": "https://dc.lft.to/lastmile_qr_scan", "android": "https://dc.lft.to/lastmile_qr_scan"}, "type": "electric_scooter", "name": "7b5b3a48861005c312ad7a508d9ba24a", "is_reserved": 0, "lon": -77.01770316666666, "is_disabled": 0, "fusion_lat": 0.0, "lat": 38.900845833333335, "bike_id": "7b5b3a48861005c312ad7a508d9ba24a", "fusion_lon": 0.0}, {"rental_uris": {"ios": "https://dc.lft.to/lastmile_qr_scan", "android": "https://dc.lft.to/lastmile_qr_scan"}, "type": "electric_scooter", "name": "4c01ed5a608ae7913a515e137c160985", "is_reserved": 0, "lon": -77.00396433333333, "is_disabled": 0, "fusion_lat": 0.0, "lat": 38.905643, "bike_id": "4c01ed5a608ae7913a515e137c160985", "fusion_lon": 0.0}, {"rental_uris": {"ios": "https://dc.lft.to/lastmile_qr_scan", "android": "https://dc.lft.to/lastmile_qr_scan"}, "type": "electric_scooter", "name": "5a98f9a53f9f86bd3d2c5bcd817a2480", "is_reserved": 0, "lon": -76.96530583333333, "is_disabled": 0, "fusion_lat": 0.0, "lat": 38.91845583333333, "bike_id": "5a98f9a53f9f86bd3d2c5bcd817a2480", "fusion_lon": 0.0}, {"rental_uris": {"ios": "https://dc.lft.to/lastmile_qr_scan", "android": "https://dc.lft.to/lastmile_qr_scan"}, "type": "electric_bike", "name": "3e381fa8817bf70781d8f53d1eaa78a4", "is_reserved": 0, "lon": -76.986874, "is_disabled": 0, "fusion_lat": 0.0, "lat": 38.94475683333334, "bike_id": "3e381fa8817bf70781d8f53d1eaa78a4", "fusion_lon": 0.0}, {"rental_uris": {"ios": "https://dc.lft.to/lastmile_qr_scan", "android": "https://dc.lft.to/lastmile_qr_scan"}, "type": "electric_scooter", "name": "4b56fe823d89fc8ffd2d55b5284bd36d", "is_reserved": 0, "lon": -77.04614666666667, "is_disabled": 0, "fusion_lat": 0.0, "lat": 38.90225483333333, "bike_id": "4b56fe823d89fc8ffd2d55b5284bd36d", "fusion_lon": 0.0}, {"rental_uris": {"ios": "https://dc.lft.to/lastmile_qr_scan", "android": "https://dc.lft.to/lastmile_qr_scan"}, "type": "electric_bike", "name": "fbcb8bbfc8338a47db957e3231cc2393", "is_reserved": 0, "lon": -76.93669383333334, "is_disabled": 0, "fusion_lat": 0.0, "lat": 38.8945775, "bike_id": "fbcb8bbfc8338a47db957e3231cc2393", "fusion_lon": 0.0}, {"rental_uris": {"ios": "https://dc.lft.to/lastmile_qr_scan", "android": "https://dc.lft.to/lastmile_qr_scan"}, "type": "electric_scooter", "name": "4dbaa751851b7ced756e2b95280dbc6d", "is_reserved": 0, "lon": -77.027787, "is_disabled": 0, "fusion_lat": 0.0, "lat": 38.9624105, "bike_id": "4dbaa751851b7ced756e2b95280dbc6d", "fusion_lon": 0.0}, {"rental_uris": {"ios": "https://dc.lft.to/lastmile_qr_scan", "android": "https://dc.lft.to/lastmile_qr_scan"}, "type": "electric_scooter", "name": "b6533854f924d812dfd78e987a4b3a1c", "is_reserved": 0, "lon": -77.015759, "is_disabled": 0, "fusion_lat": 0.0, "lat": 38.91680366666667, "bike_id": "b6533854f924d812dfd78e987a4b3a1c", "fusion_lon": 0.0}, {"rental_uris": {"ios": "https://dc.lft.to/lastmile_qr_scan", "android": "https://dc.lft.to/lastmile_qr_scan"}, "type": "electric_scooter", "name": "e1e9edd8483a13efda09436dfb60512a", "is_reserved": 0, "lon": -77.01206733333333, "is_disabled": 0, "fusion_lat": 0.0, "lat": 38.911951, "bike_id": "e1e9edd8483a13efda09436dfb60512a", "fusion_lon": 0.0}, {"rental_uris": {"ios": "https://dc.lft.to/lastmile_qr_scan", "android": "https://dc.lft.to/lastmile_qr_scan"}, "type": "electric_scooter", "name": "eb772e087934f0b8ecb9c55d463c9d17", "is_reserved": 0, "lon": -76.9700735, "is_disabled": 0, "fusion_lat": 0.0, "lat": 38.860278, "bike_id": "eb772e087934f0b8ecb9c55d463c9d17", "fusion_lon": 0.0}, {"rental_uris": {"ios": "https://dc.lft.to/lastmile_qr_scan", "android": "https://dc.lft.to/lastmile_qr_scan"}, "type": "electric_bike", "name": "53c68fbc79d2055104c11783ab0f455d", "is_reserved": 0, "lon": -76.96260766666667, "is_disabled": 0, "fusion_lat": 0.0, "lat": 38.967851833333334, "bike_id": "53c68fbc79d2055104c11783ab0f455d", "fusion_lon": 0.0}, {"rental_uris": {"ios": "https://dc.lft.to/lastmile_qr_scan", "android": "https://dc.lft.to/lastmile_qr_scan"}, "type": "electric_scooter", "name": "5ec2f99923a26d54deeb6f08eacb1409", "is_reserved": 0, "lon": -77.01211333333333, "is_disabled": 0, "fusion_lat": 0.0, "lat": 38.9212045, "bike_id": "5ec2f99923a26d54deeb6f08eacb1409", "fusion_lon": 0.0}, {"rental_uris": {"ios": "https://dc.lft.to/lastmile_qr_scan", "android": "https://dc.lft.to/lastmile_qr_scan"}, "type": "electric_scooter", "name": "e087d915fc3394b22e38ed9c566859bb", "is_reserved": 0, "lon": -77.04503116666666, "is_disabled": 0, "fusion_lat": 0.0, "lat": 38.903850166666665, "bike_id": "e087d915fc3394b22e38ed9c566859bb", "fusion_lon": 0.0}, {"rental_uris": {"ios": "https://dc.lft.to/lastmile_qr_scan", "android": "https://dc.lft.to/lastmile_qr_scan"}, "type": "electric_scooter", "name": "ff2aceb7ccfc7b2a2ef6cdc182ec14e1", "is_reserved": 0, "lon": -77.04628383333333, "is_disabled": 0, "fusion_lat": 0.0, "lat": 38.8974125, "bike_id": "ff2aceb7ccfc7b2a2ef6cdc182ec14e1", "fusion_lon": 0.0}, {"rental_uris": {"ios": "https://dc.lft.to/lastmile_qr_scan", "android": "https://dc.lft.to/lastmile_qr_scan"}, "type": "electric_scooter", "name": "44f0fea2841b71d678041f5020a3c385", "is_reserved": 0, "lon": -76.92823966666667, "is_disabled": 0, "fusion_lat": 0.0, "lat": 38.90178783333333, "bike_id": "44f0fea2841b71d678041f5020a3c385", "fusion_lon": 0.0}, {"rental_uris": {"ios": "https://dc.lft.to/lastmile_qr_scan", "android": "https://dc.lft.to/lastmile_qr_scan"}, "type": "electric_scooter", "name": "8ee35ebc62654395428c8c808fbd6e15", "is_reserved": 0, "lon": -76.947485, "is_disabled": 0, "fusion_lat": 0.0, "lat": 38.89360116666667, "bike_id": "8ee35ebc62654395428c8c808fbd6e15", "fusion_lon": 0.0}, {"rental_uris": {"ios": "https://dc.lft.to/lastmile_qr_scan", "android": "https://dc.lft.to/lastmile_qr_scan"}, "type": "electric_scooter", "name": "6bda5d83b661bc9aad82d41b4d50efdb", "is_reserved": 0, "lon": -77.03074516666666, "is_disabled": 0, "fusion_lat": 0.0, "lat": 38.92251916666667, "bike_id": "6bda5d83b661bc9aad82d41b4d50efdb", "fusion_lon": 0.0}, {"rental_uris": {"ios": "https://dc.lft.to/lastmile_qr_scan", "android": "https://dc.lft.to/lastmile_qr_scan"}, "type": "electric_bike", "name": "63626ecaba47c1a33e4af6175b78c076", "is_reserved": 0, "lon": -76.995835, "is_disabled": 0, "fusion_lat": 0.0, "lat": 38.862248666666666, "bike_id": "63626ecaba47c1a33e4af6175b78c076", "fusion_lon": 0.0}, {"rental_uris": {"ios": "https://dc.lft.to/lastmile_qr_scan", "android": "https://dc.lft.to/lastmile_qr_scan"}, "type": "electric_scooter", "name": "9119bfa21d5448772d843d8556245bce", "is_reserved": 0, "lon": -77.0637395, "is_disabled": 0, "fusion_lat": 0.0, "lat": 38.935598166666665, "bike_id": "9119bfa21d5448772d843d8556245bce", "fusion_lon": 0.0}, {"rental_uris": {"ios": "https://dc.lft.to/lastmile_qr_scan", "android": "https://dc.lft.to/lastmile_qr_scan"}, "type": "electric_scooter", "name": "f15647e2de72da36146f8f92fcb3fca1", "is_reserved": 0, "lon": -77.02294016666667, "is_disabled": 0, "fusion_lat": 0.0, "lat": 38.89989533333333, "bike_id": "f15647e2de72da36146f8f92fcb3fca1", "fusion_lon": 0.0}, {"rental_uris": {"ios": "https://dc.lft.to/lastmile_qr_scan", "android": "https://dc.lft.to/lastmile_qr_scan"}, "type": "electric_scooter", "name": "87e129bde433cc2bf287a0d483f897b2", "is_reserved": 0, "lon": -77.021322, "is_disabled": 0, "fusion_lat": 0.0, "lat": 38.932836333333334, "bike_id": "87e129bde433cc2bf287a0d483f897b2", "fusion_lon": 0.0}, {"rental_uris": {"ios": "https://dc.lft.to/lastmile_qr_scan", "android": "https://dc.lft.to/lastmile_qr_scan"}, "type": "electric_bike", "name": "a2160f2eca5eb43671b488c14d77dd6f", "is_reserved": 0, "lon": -77.126479, "is_disabled": 0, "fusion_lat": 0.0, "lat": 38.81907066666667, "bike_id": "a2160f2eca5eb43671b488c14d77dd6f", "fusion_lon": 0.0}, {"rental_uris": {"ios": "https://dc.lft.to/lastmile_qr_scan", "android": "https://dc.lft.to/lastmile_qr_scan"}, "type": "electric_scooter", "name": "cf7f8f598cc8eb1f4b533e5500389d88", "is_reserved": 0, "lon": -77.04140316666667, "is_disabled": 0, "fusion_lat": 0.0, "lat": 38.922946333333336, "bike_id": "cf7f8f598cc8eb1f4b533e5500389d88", "fusion_lon": 0.0}, {"rental_uris": {"ios": "https://dc.lft.to/lastmile_qr_scan", "android": "https://dc.lft.to/lastmile_qr_scan"}, "type": "electric_scooter", "name": "9897918480a0b2bbb6a49accda325ac7", "is_reserved": 0, "lon": -77.0486905, "is_disabled": 0, "fusion_lat": 0.0, "lat": 38.90475416666666, "bike_id": "9897918480a0b2bbb6a49accda325ac7", "fusion_lon": 0.0}, {"rental_uris": {"ios": "https://dc.lft.to/lastmile_qr_scan", "android": "https://dc.lft.to/lastmile_qr_scan"}, "type": "electric_scooter", "name": "63b77915892ce7c931a55c5e70e3713f", "is_reserved": 0, "lon": -77.01223733333333, "is_disabled": 0, "fusion_lat": 0.0, "lat": 38.9149845, "bike_id": "63b77915892ce7c931a55c5e70e3713f", "fusion_lon": 0.0}, {"rental_uris": {"ios": "https://dc.lft.to/lastmile_qr_scan", "android": "https://dc.lft.to/lastmile_qr_scan"}, "type": "electric_scooter", "name": "1806246971bcf1e44250461163ad5b66", "is_reserved": 0, "lon": -77.03857266666667, "is_disabled": 0, "fusion_lat": 0.0, "lat": 38.9128245, "bike_id": "1806246971bcf1e44250461163ad5b66", "fusion_lon": 0.0}, {"rental_uris": {"ios": "https://dc.lft.to/lastmile_qr_scan", "android": "https://dc.lft.to/lastmile_qr_scan"}, "type": "electric_bike", "name": "4be86babbd60289be46d6cd8afbded8f", "is_reserved": 0, "lon": -77.07328133333333, "is_disabled": 0, "fusion_lat": 0.0, "lat": 38.925079833333335, "bike_id": "4be86babbd60289be46d6cd8afbded8f", "fusion_lon": 0.0}, {"rental_uris": {"ios": "https://dc.lft.to/lastmile_qr_scan", "android": "https://dc.lft.to/lastmile_qr_scan"}, "type": "electric_scooter", "name": "a4f0be6ce1d63ada67b6fa73b5e96462", "is_reserved": 0, "lon": -77.04751566666667, "is_disabled": 0, "fusion_lat": 0.0, "lat": 38.90086766666667, "bike_id": "a4f0be6ce1d63ada67b6fa73b5e96462", "fusion_lon": 0.0}, {"rental_uris": {"ios": "https://dc.lft.to/lastmile_qr_scan", "android": "https://dc.lft.to/lastmile_qr_scan"}, "type": "electric_scooter", "name": "c11fc5307090d89c5409f9b2300d975d", "is_reserved": 0, "lon": -77.027047, "is_disabled": 0, "fusion_lat": 0.0, "lat": 38.90538333333333, "bike_id": "c11fc5307090d89c5409f9b2300d975d", "fusion_lon": 0.0}, {"rental_uris": {"ios": "https://dc.lft.to/lastmile_qr_scan", "android": "https://dc.lft.to/lastmile_qr_scan"}, "type": "electric_scooter", "name": "a7494e191a0465bc541777042c97c849", "is_reserved": 0, "lon": -77.004053, "is_disabled": 0, "fusion_lat": 0.0, "lat": 38.87940433333333, "bike_id": "a7494e191a0465bc541777042c97c849", "fusion_lon": 0.0}, {"rental_uris": {"ios": "https://dc.lft.to/lastmile_qr_scan", "android": "https://dc.lft.to/lastmile_qr_scan"}, "type": "electric_bike", "name": "27be9c7a551e67c8a78d256c8fb00639", "is_reserved": 0, "lon": -77.07647133333333, "is_disabled": 0, "fusion_lat": 0.0, "lat": 38.845384833333334, "bike_id": "27be9c7a551e67c8a78d256c8fb00639", "fusion_lon": 0.0}, {"rental_uris": {"ios": "https://dc.lft.to/lastmile_qr_scan", "android": "https://dc.lft.to/lastmile_qr_scan"}, "type": "electric_scooter", "name": "6086081713eb9a6f4dce0fe9d95818fd", "is_reserved": 0, "lon": -76.92303366666667, "is_disabled": 0, "fusion_lat": 0.0, "lat": 38.893847, "bike_id": "6086081713eb9a6f4dce0fe9d95818fd", "fusion_lon": 0.0}, {"rental_uris": {"ios": "https://dc.lft.to/lastmile_qr_scan", "android": "https://dc.lft.to/lastmile_qr_scan"}, "type": "electric_scooter", "name": "53f2fa8c6d667c0f2cb1de36a5b6d4c8", "is_reserved": 0, "lon": -77.02778333333333, "is_disabled": 0, "fusion_lat": 0.0, "lat": 38.90249883333333, "bike_id": "53f2fa8c6d667c0f2cb1de36a5b6d4c8", "fusion_lon": 0.0}, {"rental_uris": {"ios": "https://dc.lft.to/lastmile_qr_scan", "android": "https://dc.lft.to/lastmile_qr_scan"}, "type": "electric_scooter", "name": "dfb551016c19633500afde6b8b8da29d", "is_reserved": 0, "lon": -77.038348, "is_disabled": 0, "fusion_lat": 0.0, "lat": 38.910367666666666, "bike_id": "dfb551016c19633500afde6b8b8da29d", "fusion_lon": 0.0}, {"rental_uris": {"ios": "https://dc.lft.to/lastmile_qr_scan", "android": "https://dc.lft.to/lastmile_qr_scan"}, "type": "electric_bike", "name": "948574b4b8e582e33feb624f15470dfd", "is_reserved": 0, "lon": -77.06567916666667, "is_disabled": 0, "fusion_lat": 0.0, "lat": 38.91132666666667, "bike_id": "948574b4b8e582e33feb624f15470dfd", "fusion_lon": 0.0}, {"rental_uris": {"ios": "https://dc.lft.to/lastmile_qr_scan", "android": "https://dc.lft.to/lastmile_qr_scan"}, "type": "electric_scooter", "name": "86d3fa1010d8018cab45268f0d382ec7", "is_reserved": 0, "lon": -77.02664016666667, "is_disabled": 0, "fusion_lat": 0.0, "lat": 38.938601, "bike_id": "86d3fa1010d8018cab45268f0d382ec7", "fusion_lon": 0.0}, {"rental_uris": {"ios": "https://dc.lft.to/lastmile_qr_scan", "android": "https://dc.lft.to/lastmile_qr_scan"}, "type": "electric_scooter", "name": "6df97e64112bfbe159ec0b0bdc346f86", "is_reserved": 0, "lon": -77.0203505, "is_disabled": 0, "fusion_lat": 0.0, "lat": 38.924374, "bike_id": "6df97e64112bfbe159ec0b0bdc346f86", "fusion_lon": 0.0}, {"rental_uris": {"ios": "https://dc.lft.to/lastmile_qr_scan", "android": "https://dc.lft.to/lastmile_qr_scan"}, "type": "electric_scooter", "name": "8fcf032c621b358eb2241e00f14bfc04", "is_reserved": 0, "lon": -77.02467933333334, "is_disabled": 0, "fusion_lat": 0.0, "lat": 38.957807, "bike_id": "8fcf032c621b358eb2241e00f14bfc04", "fusion_lon": 0.0}, {"rental_uris": {"ios": "https://dc.lft.to/lastmile_qr_scan", "android": "https://dc.lft.to/lastmile_qr_scan"}, "type": "electric_scooter", "name": "cbe0475b58993e650d9da84d3a9f3c0d", "is_reserved": 0, "lon": -76.9886115, "is_disabled": 0, "fusion_lat": 0.0, "lat": 38.9003165, "bike_id": "cbe0475b58993e650d9da84d3a9f3c0d", "fusion_lon": 0.0}, {"rental_uris": {"ios": "https://dc.lft.to/lastmile_qr_scan", "android": "https://dc.lft.to/lastmile_qr_scan"}, "type": "electric_scooter", "name": "9a0e11fef749272dadffc44f86207454", "is_reserved": 0, "lon": -77.02448866666667, "is_disabled": 0, "fusion_lat": 0.0, "lat": 38.94978966666667, "bike_id": "9a0e11fef749272dadffc44f86207454", "fusion_lon": 0.0}, {"rental_uris": {"ios": "https://dc.lft.to/lastmile_qr_scan", "android": "https://dc.lft.to/lastmile_qr_scan"}, "type": "electric_bike", "name": "6bdf206d4dc02fa5237c48221fa81470", "is_reserved": 0, "lon": -77.10625083333333, "is_disabled": 0, "fusion_lat": 0.0, "lat": 38.873246333333334, "bike_id": "6bdf206d4dc02fa5237c48221fa81470", "fusion_lon": 0.0}, {"rental_uris": {"ios": "https://dc.lft.to/lastmile_qr_scan", "android": "https://dc.lft.to/lastmile_qr_scan"}, "type": "electric_scooter", "name": "4b169671724f6d92689f332d496155fc", "is_reserved": 0, "lon": -77.03490583333334, "is_disabled": 0, "fusion_lat": 0.0, "lat": 38.93272366666667, "bike_id": "4b169671724f6d92689f332d496155fc", "fusion_lon": 0.0}, {"rental_uris": {"ios": "https://dc.lft.to/lastmile_qr_scan", "android": "https://dc.lft.to/lastmile_qr_scan"}, "type": "electric_scooter", "name": "3995b94e81c9e393b07d5e8a77a17624", "is_reserved": 0, "lon": -77.070566, "is_disabled": 0, "fusion_lat": 0.0, "lat": 38.89911816666667, "bike_id": "3995b94e81c9e393b07d5e8a77a17624", "fusion_lon": 0.0}, {"rental_uris": {"ios": "https://dc.lft.to/lastmile_qr_scan", "android": "https://dc.lft.to/lastmile_qr_scan"}, "type": "electric_scooter", "name": "c5f040064c60480fb66a203097a4c93d", "is_reserved": 0, "lon": -76.99013016666666, "is_disabled": 0, "fusion_lat": 0.0, "lat": 38.8988575, "bike_id": "c5f040064c60480fb66a203097a4c93d", "fusion_lon": 0.0}, {"rental_uris": {"ios": "https://dc.lft.to/lastmile_qr_scan", "android": "https://dc.lft.to/lastmile_qr_scan"}, "type": "electric_scooter", "name": "e2dc0e89462634c6ed54e18e533defa4", "is_reserved": 0, "lon": -77.024667, "is_disabled": 0, "fusion_lat": 0.0, "lat": 38.89983633333333, "bike_id": "e2dc0e89462634c6ed54e18e533defa4", "fusion_lon": 0.0}, {"rental_uris": {"ios": "https://dc.lft.to/lastmile_qr_scan", "android": "https://dc.lft.to/lastmile_qr_scan"}, "type": "electric_bike", "name": "980494026c7cf994afccf3ccc769800d", "is_reserved": 0, "lon": -77.07384533333334, "is_disabled": 0, "fusion_lat": 0.0, "lat": 38.914400666666666, "bike_id": "980494026c7cf994afccf3ccc769800d", "fusion_lon": 0.0}, {"rental_uris": {"ios": "https://dc.lft.to/lastmile_qr_scan", "android": "https://dc.lft.to/lastmile_qr_scan"}, "type": "electric_scooter", "name": "9d6c9575b87d81a9eef41abeb5a81be5", "is_reserved": 0, "lon": -76.98651316666667, "is_disabled": 0, "fusion_lat": 0.0, "lat": 38.905411666666666, "bike_id": "9d6c9575b87d81a9eef41abeb5a81be5", "fusion_lon": 0.0}, {"rental_uris": {"ios": "https://dc.lft.to/lastmile_qr_scan", "android": "https://dc.lft.to/lastmile_qr_scan"}, "type": "electric_scooter", "name": "ead09ca7af3d7354ea7be4ae28ffd637", "is_reserved": 0, "lon": -77.023864, "is_disabled": 0, "fusion_lat": 0.0, "lat": 38.93383733333334, "bike_id": "ead09ca7af3d7354ea7be4ae28ffd637", "fusion_lon": 0.0}, {"rental_uris": {"ios": "https://dc.lft.to/lastmile_qr_scan", "android": "https://dc.lft.to/lastmile_qr_scan"}, "type": "electric_scooter", "name": "a96fd536c5cccb597999b9a1b4f6ff9a", "is_reserved": 0, "lon": -77.0352285, "is_disabled": 0, "fusion_lat": 0.0, "lat": 38.9225645, "bike_id": "a96fd536c5cccb597999b9a1b4f6ff9a", "fusion_lon": 0.0}, {"rental_uris": {"ios": "https://dc.lft.to/lastmile_qr_scan", "android": "https://dc.lft.to/lastmile_qr_scan"}, "type": "electric_scooter", "name": "0dc4130b48a39e2a63f6200b3b380f01", "is_reserved": 0, "lon": -77.02441483333334, "is_disabled": 0, "fusion_lat": 0.0, "lat": 38.89726233333333, "bike_id": "0dc4130b48a39e2a63f6200b3b380f01", "fusion_lon": 0.0}, {"rental_uris": {"ios": "https://dc.lft.to/lastmile_qr_scan", "android": "https://dc.lft.to/lastmile_qr_scan"}, "type": "electric_scooter", "name": "f40bf843ff6994b9d395da669fa6ff89", "is_reserved": 0, "lon": -77.0490365, "is_disabled": 0, "fusion_lat": 0.0, "lat": 38.903799, "bike_id": "f40bf843ff6994b9d395da669fa6ff89", "fusion_lon": 0.0}, {"rental_uris": {"ios": "https://dc.lft.to/lastmile_qr_scan", "android": "https://dc.lft.to/lastmile_qr_scan"}, "type": "electric_scooter", "name": "441f882fb9a01f0b33202fbe0c741392", "is_reserved": 0, "lon": -77.01206916666666, "is_disabled": 0, "fusion_lat": 0.0, "lat": 38.87175416666667, "bike_id": "441f882fb9a01f0b33202fbe0c741392", "fusion_lon": 0.0}, {"rental_uris": {"ios": "https://dc.lft.to/lastmile_qr_scan", "android": "https://dc.lft.to/lastmile_qr_scan"}, "type": "electric_scooter", "name": "5aec7e63cf21ec50927dcb4afd009049", "is_reserved": 0, "lon": -77.006878, "is_disabled": 0, "fusion_lat": 0.0, "lat": 38.906085833333336, "bike_id": "5aec7e63cf21ec50927dcb4afd009049", "fusion_lon": 0.0}, {"rental_uris": {"ios": "https://dc.lft.to/lastmile_qr_scan", "android": "https://dc.lft.to/lastmile_qr_scan"}, "type": "electric_bike", "name": "45dc0a222fa06d3ded291e7366a4ae40", "is_reserved": 0, "lon": -77.03666766666667, "is_disabled": 0, "fusion_lat": 0.0, "lat": 38.93626283333333, "bike_id": "45dc0a222fa06d3ded291e7366a4ae40", "fusion_lon": 0.0}, {"rental_uris": {"ios": "https://dc.lft.to/lastmile_qr_scan", "android": "https://dc.lft.to/lastmile_qr_scan"}, "type": "electric_scooter", "name": "d6501756599c2b9fce33822b7cbe1973", "is_reserved": 0, "lon": -77.034869, "is_disabled": 0, "fusion_lat": 0.0, "lat": 38.93560816666667, "bike_id": "d6501756599c2b9fce33822b7cbe1973", "fusion_lon": 0.0}, {"rental_uris": {"ios": "https://dc.lft.to/lastmile_qr_scan", "android": "https://dc.lft.to/lastmile_qr_scan"}, "type": "electric_bike", "name": "1d6febc104f2b7b8ae6273adf7fb0c9e", "is_reserved": 0, "lon": -76.97957216666667, "is_disabled": 0, "fusion_lat": 0.0, "lat": 38.92038066666667, "bike_id": "1d6febc104f2b7b8ae6273adf7fb0c9e", "fusion_lon": 0.0}, {"rental_uris": {"ios": "https://dc.lft.to/lastmile_qr_scan", "android": "https://dc.lft.to/lastmile_qr_scan"}, "type": "electric_scooter", "name": "3729efe52226923be8e1b7d30a1a256c", "is_reserved": 0, "lon": -77.05844466666667, "is_disabled": 0, "fusion_lat": 0.0, "lat": 38.930574166666666, "bike_id": "3729efe52226923be8e1b7d30a1a256c", "fusion_lon": 0.0}, {"rental_uris": {"ios": "https://dc.lft.to/lastmile_qr_scan", "android": "https://dc.lft.to/lastmile_qr_scan"}, "type": "electric_scooter", "name": "793a4e58c1b43c395711e29484df79b4", "is_reserved": 0, "lon": -77.0323795, "is_disabled": 0, "fusion_lat": 0.0, "lat": 38.90552616666667, "bike_id": "793a4e58c1b43c395711e29484df79b4", "fusion_lon": 0.0}, {"rental_uris": {"ios": "https://dc.lft.to/lastmile_qr_scan", "android": "https://dc.lft.to/lastmile_qr_scan"}, "type": "electric_scooter", "name": "10dfbfdc15da6879e4bb2bba449b040f", "is_reserved": 0, "lon": -77.0245625, "is_disabled": 0, "fusion_lat": 0.0, "lat": 38.9250225, "bike_id": "10dfbfdc15da6879e4bb2bba449b040f", "fusion_lon": 0.0}, {"rental_uris": {"ios": "https://dc.lft.to/lastmile_qr_scan", "android": "https://dc.lft.to/lastmile_qr_scan"}, "type": "electric_scooter", "name": "d984f6d7d96302facc447ad45a9f2abe", "is_reserved": 0, "lon": -77.00877233333334, "is_disabled": 0, "fusion_lat": 0.0, "lat": 38.91257616666667, "bike_id": "d984f6d7d96302facc447ad45a9f2abe", "fusion_lon": 0.0}, {"rental_uris": {"ios": "https://dc.lft.to/lastmile_qr_scan", "android": "https://dc.lft.to/lastmile_qr_scan"}, "type": "electric_scooter", "name": "8c297c19a398497c7f08a818d200f6ab", "is_reserved": 0, "lon": -77.0205595, "is_disabled": 0, "fusion_lat": 0.0, "lat": 38.92247016666666, "bike_id": "8c297c19a398497c7f08a818d200f6ab", "fusion_lon": 0.0}, {"rental_uris": {"ios": "https://dc.lft.to/lastmile_qr_scan", "android": "https://dc.lft.to/lastmile_qr_scan"}, "type": "electric_scooter", "name": "ed11c729db49410272c8273ab6b0ad88", "is_reserved": 0, "lon": -76.99405366666667, "is_disabled": 0, "fusion_lat": 0.0, "lat": 38.87789033333333, "bike_id": "ed11c729db49410272c8273ab6b0ad88", "fusion_lon": 0.0}, {"rental_uris": {"ios": "https://dc.lft.to/lastmile_qr_scan", "android": "https://dc.lft.to/lastmile_qr_scan"}, "type": "electric_scooter", "name": "c585649926503ee8df8d72d6044261a6", "is_reserved": 0, "lon": -77.03956383333333, "is_disabled": 0, "fusion_lat": 0.0, "lat": 38.89247366666667, "bike_id": "c585649926503ee8df8d72d6044261a6", "fusion_lon": 0.0}, {"rental_uris": {"ios": "https://dc.lft.to/lastmile_qr_scan", "android": "https://dc.lft.to/lastmile_qr_scan"}, "type": "electric_scooter", "name": "d02832d1799d0cc1773c028e7c7de112", "is_reserved": 0, "lon": -77.00934933333333, "is_disabled": 0, "fusion_lat": 0.0, "lat": 38.876737, "bike_id": "d02832d1799d0cc1773c028e7c7de112", "fusion_lon": 0.0}, {"rental_uris": {"ios": "https://dc.lft.to/lastmile_qr_scan", "android": "https://dc.lft.to/lastmile_qr_scan"}, "type": "electric_scooter", "name": "43843fc8573fecbb68766f391d6bdbd7", "is_reserved": 0, "lon": -76.98401333333334, "is_disabled": 0, "fusion_lat": 0.0, "lat": 38.92514466666667, "bike_id": "43843fc8573fecbb68766f391d6bdbd7", "fusion_lon": 0.0}, {"rental_uris": {"ios": "https://dc.lft.to/lastmile_qr_scan", "android": "https://dc.lft.to/lastmile_qr_scan"}, "type": "electric_scooter", "name": "c80e005ce2a0f9291a9da5f6b8007a49", "is_reserved": 0, "lon": -77.03131733333333, "is_disabled": 0, "fusion_lat": 0.0, "lat": 38.91814083333333, "bike_id": "c80e005ce2a0f9291a9da5f6b8007a49", "fusion_lon": 0.0}, {"rental_uris": {"ios": "https://dc.lft.to/lastmile_qr_scan", "android": "https://dc.lft.to/lastmile_qr_scan"}, "type": "electric_bike", "name": "346354ed88cf16207af511d310f6db50", "is_reserved": 0, "lon": -76.8896855, "is_disabled": 0, "fusion_lat": 0.0, "lat": 39.0077505, "bike_id": "346354ed88cf16207af511d310f6db50", "fusion_lon": 0.0}, {"rental_uris": {"ios": "https://dc.lft.to/lastmile_qr_scan", "android": "https://dc.lft.to/lastmile_qr_scan"}, "type": "electric_bike", "name": "15cc834b920c945a3e43a801479fa9b3", "is_reserved": 0, "lon": -76.98346433333333, "is_disabled": 0, "fusion_lat": 0.0, "lat": 38.8626575, "bike_id": "15cc834b920c945a3e43a801479fa9b3", "fusion_lon": 0.0}, {"rental_uris": {"ios": "https://dc.lft.to/lastmile_qr_scan", "android": "https://dc.lft.to/lastmile_qr_scan"}, "type": "electric_scooter", "name": "451f2c32407ace0d728c8e443f855af6", "is_reserved": 0, "lon": -77.03445833333333, "is_disabled": 0, "fusion_lat": 0.0, "lat": 38.90729483333333, "bike_id": "451f2c32407ace0d728c8e443f855af6", "fusion_lon": 0.0}, {"rental_uris": {"ios": "https://dc.lft.to/lastmile_qr_scan", "android": "https://dc.lft.to/lastmile_qr_scan"}, "type": "electric_scooter", "name": "bdfdc3743cb79a9c24517f2513ce721a", "is_reserved": 0, "lon": -77.04743116666667, "is_disabled": 0, "fusion_lat": 0.0, "lat": 38.91254983333333, "bike_id": "bdfdc3743cb79a9c24517f2513ce721a", "fusion_lon": 0.0}, {"rental_uris": {"ios": "https://dc.lft.to/lastmile_qr_scan", "android": "https://dc.lft.to/lastmile_qr_scan"}, "type": "electric_scooter", "name": "e4b5cee85cb9ee7299730a89cf832ba0", "is_reserved": 0, "lon": -77.03475083333333, "is_disabled": 0, "fusion_lat": 0.0, "lat": 38.93023933333333, "bike_id": "e4b5cee85cb9ee7299730a89cf832ba0", "fusion_lon": 0.0}, {"rental_uris": {"ios": "https://dc.lft.to/lastmile_qr_scan", "android": "https://dc.lft.to/lastmile_qr_scan"}, "type": "electric_scooter", "name": "309acf1088412ce2990475a20c51dd0c", "is_reserved": 0, "lon": -76.98605983333333, "is_disabled": 0, "fusion_lat": 0.0, "lat": 38.8783395, "bike_id": "309acf1088412ce2990475a20c51dd0c", "fusion_lon": 0.0}, {"rental_uris": {"ios": "https://dc.lft.to/lastmile_qr_scan", "android": "https://dc.lft.to/lastmile_qr_scan"}, "type": "electric_scooter", "name": "51370b03ccf91214fd04342e28fb1e5d", "is_reserved": 0, "lon": -77.01944766666666, "is_disabled": 0, "fusion_lat": 0.0, "lat": 38.8765425, "bike_id": "51370b03ccf91214fd04342e28fb1e5d", "fusion_lon": 0.0}, {"rental_uris": {"ios": "https://dc.lft.to/lastmile_qr_scan", "android": "https://dc.lft.to/lastmile_qr_scan"}, "type": "electric_scooter", "name": "5bb852eb84c30b9fb09eaf87c0f786e3", "is_reserved": 0, "lon": -76.98494616666666, "is_disabled": 0, "fusion_lat": 0.0, "lat": 38.92006216666667, "bike_id": "5bb852eb84c30b9fb09eaf87c0f786e3", "fusion_lon": 0.0}, {"rental_uris": {"ios": "https://dc.lft.to/lastmile_qr_scan", "android": "https://dc.lft.to/lastmile_qr_scan"}, "type": "electric_scooter", "name": "213ad181c4b94e8e026fe044cc6048e7", "is_reserved": 0, "lon": -77.020609, "is_disabled": 0, "fusion_lat": 0.0, "lat": 38.92400683333334, "bike_id": "213ad181c4b94e8e026fe044cc6048e7", "fusion_lon": 0.0}, {"rental_uris": {"ios": "https://dc.lft.to/lastmile_qr_scan", "android": "https://dc.lft.to/lastmile_qr_scan"}, "type": "electric_scooter", "name": "4ee1dbe8e3be6e2f90a4a9d88bc7e21a", "is_reserved": 0, "lon": -77.03067983333334, "is_disabled": 0, "fusion_lat": 0.0, "lat": 38.92242266666667, "bike_id": "4ee1dbe8e3be6e2f90a4a9d88bc7e21a", "fusion_lon": 0.0}, {"rental_uris": {"ios": "https://dc.lft.to/lastmile_qr_scan", "android": "https://dc.lft.to/lastmile_qr_scan"}, "type": "electric_scooter", "name": "01bc6b8625acf531c2d3e4e5cdbd7983", "is_reserved": 0, "lon": -76.929553, "is_disabled": 0, "fusion_lat": 0.0, "lat": 38.903342333333335, "bike_id": "01bc6b8625acf531c2d3e4e5cdbd7983", "fusion_lon": 0.0}, {"rental_uris": {"ios": "https://dc.lft.to/lastmile_qr_scan", "android": "https://dc.lft.to/lastmile_qr_scan"}, "type": "electric_scooter", "name": "4558a518d265a0d0922d0018e7bc706c", "is_reserved": 0, "lon": -77.0759715, "is_disabled": 0, "fusion_lat": 0.0, "lat": 38.937551, "bike_id": "4558a518d265a0d0922d0018e7bc706c", "fusion_lon": 0.0}, {"rental_uris": {"ios": "https://dc.lft.to/lastmile_qr_scan", "android": "https://dc.lft.to/lastmile_qr_scan"}, "type": "electric_scooter", "name": "493f1bec8b39d24164a331d6f7376897", "is_reserved": 0, "lon": -76.98783016666667, "is_disabled": 0, "fusion_lat": 0.0, "lat": 38.879826333333334, "bike_id": "493f1bec8b39d24164a331d6f7376897", "fusion_lon": 0.0}, {"rental_uris": {"ios": "https://dc.lft.to/lastmile_qr_scan", "android": "https://dc.lft.to/lastmile_qr_scan"}, "type": "electric_scooter", "name": "91fca0cbb53aef25fb7c54d364f76b7b", "is_reserved": 0, "lon": -77.015881, "is_disabled": 0, "fusion_lat": 0.0, "lat": 38.87225016666667, "bike_id": "91fca0cbb53aef25fb7c54d364f76b7b", "fusion_lon": 0.0}, {"rental_uris": {"ios": "https://dc.lft.to/lastmile_qr_scan", "android": "https://dc.lft.to/lastmile_qr_scan"}, "type": "electric_scooter", "name": "b14019156fc72db70cf769c09854e16f", "is_reserved": 0, "lon": -77.023297, "is_disabled": 0, "fusion_lat": 0.0, "lat": 38.9112035, "bike_id": "b14019156fc72db70cf769c09854e16f", "fusion_lon": 0.0}, {"rental_uris": {"ios": "https://dc.lft.to/lastmile_qr_scan", "android": "https://dc.lft.to/lastmile_qr_scan"}, "type": "electric_scooter", "name": "7f9396b7dbfc96e0b64d99ac48d2a883", "is_reserved": 0, "lon": -77.0105855, "is_disabled": 0, "fusion_lat": 0.0, "lat": 38.9134315, "bike_id": "7f9396b7dbfc96e0b64d99ac48d2a883", "fusion_lon": 0.0}, {"rental_uris": {"ios": "https://dc.lft.to/lastmile_qr_scan", "android": "https://dc.lft.to/lastmile_qr_scan"}, "type": "electric_scooter", "name": "3668d58280cc0c084e1011d5b0f65840", "is_reserved": 0, "lon": -77.04026083333333, "is_disabled": 0, "fusion_lat": 0.0, "lat": 38.922542666666665, "bike_id": "3668d58280cc0c084e1011d5b0f65840", "fusion_lon": 0.0}, {"rental_uris": {"ios": "https://dc.lft.to/lastmile_qr_scan", "android": "https://dc.lft.to/lastmile_qr_scan"}, "type": "electric_scooter", "name": "2e58b26db40fa3843b90d8c91b38ab32", "is_reserved": 0, "lon": -77.03045083333333, "is_disabled": 0, "fusion_lat": 0.0, "lat": 38.884303333333335, "bike_id": "2e58b26db40fa3843b90d8c91b38ab32", "fusion_lon": 0.0}, {"rental_uris": {"ios": "https://dc.lft.to/lastmile_qr_scan", "android": "https://dc.lft.to/lastmile_qr_scan"}, "type": "electric_scooter", "name": "db2a983998f2e854aeb372cb28dcade2", "is_reserved": 0, "lon": -77.03954783333333, "is_disabled": 0, "fusion_lat": 0.0, "lat": 38.89247183333333, "bike_id": "db2a983998f2e854aeb372cb28dcade2", "fusion_lon": 0.0}, {"rental_uris": {"ios": "https://dc.lft.to/lastmile_qr_scan", "android": "https://dc.lft.to/lastmile_qr_scan"}, "type": "electric_scooter", "name": "b4c5f2c282481b05d0e0a426ac2b2524", "is_reserved": 0, "lon": -76.982027, "is_disabled": 0, "fusion_lat": 0.0, "lat": 38.90199616666666, "bike_id": "b4c5f2c282481b05d0e0a426ac2b2524", "fusion_lon": 0.0}, {"rental_uris": {"ios": "https://dc.lft.to/lastmile_qr_scan", "android": "https://dc.lft.to/lastmile_qr_scan"}, "type": "electric_scooter", "name": "60800300cd0c1c5324cb6c07f929da5b", "is_reserved": 0, "lon": -77.02118466666667, "is_disabled": 0, "fusion_lat": 0.0, "lat": 38.92351033333333, "bike_id": "60800300cd0c1c5324cb6c07f929da5b", "fusion_lon": 0.0}, {"rental_uris": {"ios": "https://dc.lft.to/lastmile_qr_scan", "android": "https://dc.lft.to/lastmile_qr_scan"},