{"data": {"bikes": [{"is_reserved": 0, "type": "electric_scooter", "bike_id": "d9a7eb6ade26f0c63cdeba6109cab7be", "lat": 38.897361, "lon": -77.02091166666666, "rental_uris": {"android": "https://dc.lft.to/lastmile_qr_scan", "ios": "https://dc.lft.to/lastmile_qr_scan"}, "is_disabled": 0, "fusion_lat": 0.0, "name": "d9a7eb6ade26f0c63cdeba6109cab7be", "fusion_lon": 0.0}, {"is_reserved": 0, "type": "electric_bike", "bike_id": "061ede3c3d07fb357ce57f9d367905db", "lat": 38.83140233333334, "lon": -77.11346133333333, "rental_uris": {"android": "https://dc.lft.to/lastmile_qr_scan", "ios": "https://dc.lft.to/lastmile_qr_scan"}, "is_disabled": 0, "fusion_lat": 0.0, "name": "061ede3c3d07fb357ce57f9d367905db", "fusion_lon": 0.0}, {"is_reserved": 0, "type": "electric_scooter", "bike_id": "c875930a30431c36ce701855a43d48cc", "lat": 38.88507116666667, "lon": -77.01113383333333, "rental_uris": {"android": "https://dc.lft.to/lastmile_qr_scan", "ios": "https://dc.lft.to/lastmile_qr_scan"}, "is_disabled": 0, "fusion_lat": 0.0, "name": "c875930a30431c36ce701855a43d48cc", "fusion_lon": 0.0}, {"is_reserved": 0, "type": "electric_scooter", "bike_id": "17237f958a931043c4eb9c938c75305b", "lat": 38.905214666666666, "lon": -77.065323, "rental_uris": {"android": "https://dc.lft.to/lastmile_qr_scan", "ios": "https://dc.lft.to/lastmile_qr_scan"}, "is_disabled": 0, "fusion_lat": 0.0, "name": "17237f958a931043c4eb9c938c75305b", "fusion_lon": 0.0}, {"is_reserved": 0, "type": "electric_scooter", "bike_id": "2c94f5d567f0388614bdccadaeba8dff", "lat": 38.93348016666667, "lon": -77.03296633333333, "rental_uris": {"android": "https://dc.lft.to/lastmile_qr_scan", "ios": "https://dc.lft.to/lastmile_qr_scan"}, "is_disabled": 0, "fusion_lat": 0.0, "name": "2c94f5d567f0388614bdccadaeba8dff", "fusion_lon": 0.0}, {"is_reserved": 0, "type": "electric_scooter", "bike_id": "ed7f7710ee898b67e49968ccf859c7ff", "lat": 38.90607966666666, "lon": -76.95001933333333, "rental_uris": {"android": "https://dc.lft.to/lastmile_qr_scan", "ios": "https://dc.lft.to/lastmile_qr_scan"}, "is_disabled": 0, "fusion_lat": 0.0, "name": "ed7f7710ee898b67e49968ccf859c7ff", "fusion_lon": 0.0}, {"is_reserved": 0, "type": "electric_scooter", "bike_id": "85f9dbebfe8ff43d30d272742bb45118", "lat": 38.923619333333335, "lon": -77.0194605, "rental_uris": {"android": "https://dc.lft.to/lastmile_qr_scan", "ios": "https://dc.lft.to/lastmile_qr_scan"}, "is_disabled": 0, "fusion_lat": 0.0, "name": "85f9dbebfe8ff43d30d272742bb45118", "fusion_lon": 0.0}, {"is_reserved": 0, "type": "electric_scooter", "bike_id": "51609d0b9203d8c86a6aefb97e11838c", "lat": 38.94691533333334, "lon": -77.02246066666666, "rental_uris": {"android": "https://dc.lft.to/lastmile_qr_scan", "ios": "https://dc.lft.to/lastmile_qr_scan"}, "is_disabled": 0, "fusion_lat": 0.0, "name": "51609d0b9203d8c86a6aefb97e11838c", "fusion_lon": 0.0}, {"is_reserved": 0, "type": "electric_scooter", "bike_id": "5371566aaa2a6c9818128ae399f341b7", "lat": 38.901093, "lon": -77.038132, "rental_uris": {"android": "https://dc.lft.to/lastmile_qr_scan", "ios": "https://dc.lft.to/lastmile_qr_scan"}, "is_disabled": 0, "fusion_lat": 0.0, "name": "5371566aaa2a6c9818128ae399f341b7", "fusion_lon": 0.0}, {"is_reserved": 0, "type": "electric_scooter", "bike_id": "2f9a4446769eb43a184ad45e506918cb", "lat": 38.90641083333333, "lon": -77.0094685, "rental_uris": {"android": "https://dc.lft.to/lastmile_qr_scan", "ios": "https://dc.lft.to/lastmile_qr_scan"}, "is_disabled": 0, "fusion_lat": 0.0, "name": "2f9a4446769eb43a184ad45e506918cb", "fusion_lon": 0.0}, {"is_reserved": 0, "type": "electric_scooter", "bike_id": "1ffb4afcd53e9f3b52510bbb15688985", "lat": 38.90397316666667, "lon": -77.0629495, "rental_uris": {"android": "https://dc.lft.to/lastmile_qr_scan", "ios": "https://dc.lft.to/lastmile_qr_scan"}, "is_disabled": 0, "fusion_lat": 0.0, "name": "1ffb4afcd53e9f3b52510bbb15688985", "fusion_lon": 0.0}, {"is_reserved": 0, "type": "electric_scooter", "bike_id": "3087357042dd17213f4ce987f68738e3", "lat": 38.92237566666667, "lon": -77.0336165, "rental_uris": {"android": "https://dc.lft.to/lastmile_qr_scan", "ios": "https://dc.lft.to/lastmile_qr_scan"}, "is_disabled": 0, "fusion_lat": 0.0, "name": "3087357042dd17213f4ce987f68738e3", "fusion_lon": 0.0}, {"is_reserved": 0, "type": "electric_scooter", "bike_id": "bd5a56a3d451d9db96233cbaf49ced33", "lat": 38.900326166666666, "lon": -76.98812333333333, "rental_uris": {"android": "https://dc.lft.to/lastmile_qr_scan", "ios": "https://dc.lft.to/lastmile_qr_scan"}, "is_disabled": 0, "fusion_lat": 0.0, "name": "bd5a56a3d451d9db96233cbaf49ced33", "fusion_lon": 0.0}, {"is_reserved": 0, "type": "electric_scooter", "bike_id": "4bc4594aa7f2e259b549bc0b4513efb4", "lat": 38.90212966666667, "lon": -77.02094466666667, "rental_uris": {"android": "https://dc.lft.to/lastmile_qr_scan", "ios": "https://dc.lft.to/lastmile_qr_scan"}, "is_disabled": 0, "fusion_lat": 0.0, "name": "4bc4594aa7f2e259b549bc0b4513efb4", "fusion_lon": 0.0}, {"is_reserved": 0, "type": "electric_scooter", "bike_id": "a3455b64167794b4b0cccaf68002a0d8", "lat": 38.91969266666667, "lon": -77.0436155, "rental_uris": {"android": "https://dc.lft.to/lastmile_qr_scan", "ios": "https://dc.lft.to/lastmile_qr_scan"}, "is_disabled": 0, "fusion_lat": 0.0, "name": "a3455b64167794b4b0cccaf68002a0d8", "fusion_lon": 0.0}, {"is_reserved": 0, "type": "electric_scooter", "bike_id": "f202665f924ce31f10c8dab4e7642875", "lat": 38.905375, "lon": -77.00585466666666, "rental_uris": {"android": "https://dc.lft.to/lastmile_qr_scan", "ios": "https://dc.lft.to/lastmile_qr_scan"}, "is_disabled": 0, "fusion_lat": 0.0, "name": "f202665f924ce31f10c8dab4e7642875", "fusion_lon": 0.0}, {"is_reserved": 0, "type": "electric_scooter", "bike_id": "106333b1b29c5eb831bb9cbce122733b", "lat": 38.899827333333334, "lon": -77.02078983333334, "rental_uris": {"android": "https://dc.lft.to/lastmile_qr_scan", "ios": "https://dc.lft.to/lastmile_qr_scan"}, "is_disabled": 0, "fusion_lat": 0.0, "name": "106333b1b29c5eb831bb9cbce122733b", "fusion_lon": 0.0}, {"is_reserved": 0, "type": "electric_scooter", "bike_id": "3d47fe5b27342b35445b89b8a53e8d05", "lat": 38.886732, "lon": -77.002035, "rental_uris": {"android": "https://dc.lft.to/lastmile_qr_scan", "ios": "https://dc.lft.to/lastmile_qr_scan"}, "is_disabled": 0, "fusion_lat": 0.0, "name": "3d47fe5b27342b35445b89b8a53e8d05", "fusion_lon": 0.0}, {"is_reserved": 0, "type": "electric_scooter", "bike_id": "60133e3131cbe306c60d08eecccf1100", "lat": 38.87652116666667, "lon": -77.0207565, "rental_uris": {"android": "https://dc.lft.to/lastmile_qr_scan", "ios": "https://dc.lft.to/lastmile_qr_scan"}, "is_disabled": 0, "fusion_lat": 0.0, "name": "60133e3131cbe306c60d08eecccf1100", "fusion_lon": 0.0}, {"is_reserved": 0, "type": "electric_scooter", "bike_id": "5c6a6d1af5b8dbac8e232aa48e729bd3", "lat": 38.91817433333333, "lon": -77.02586066666667, "rental_uris": {"android": "https://dc.lft.to/lastmile_qr_scan", "ios": "https://dc.lft.to/lastmile_qr_scan"}, "is_disabled": 0, "fusion_lat": 0.0, "name": "5c6a6d1af5b8dbac8e232aa48e729bd3", "fusion_lon": 0.0}, {"is_reserved": 0, "type": "electric_scooter", "bike_id": "99395aa04f104f77ea929a45b479cc3d", "lat": 38.8853245, "lon": -76.98055366666667, "rental_uris": {"android": "https://dc.lft.to/lastmile_qr_scan", "ios": "https://dc.lft.to/lastmile_qr_scan"}, "is_disabled": 0, "fusion_lat": 0.0, "name": "99395aa04f104f77ea929a45b479cc3d", "fusion_lon": 0.0}, {"is_reserved": 0, "type": "electric_bike", "bike_id": "c3b57c1c02b00920ba01a751ec31a2f4", "lat": 38.947141333333335, "lon": -77.03299233333334, "rental_uris": {"android": "https://dc.lft.to/lastmile_qr_scan", "ios": "https://dc.lft.to/lastmile_qr_scan"}, "is_disabled": 0, "fusion_lat": 0.0, "name": "c3b57c1c02b00920ba01a751ec31a2f4", "fusion_lon": 0.0}, {"is_reserved": 0, "type": "electric_scooter", "bike_id": "56c6f8c342d14545549f71371da7aaf4", "lat": 38.867155833333335, "lon": -76.98073433333333, "rental_uris": {"android": "https://dc.lft.to/lastmile_qr_scan", "ios": "https://dc.lft.to/lastmile_qr_scan"}, "is_disabled": 0, "fusion_lat": 0.0, "name": "56c6f8c342d14545549f71371da7aaf4", "fusion_lon": 0.0}, {"is_reserved": 0, "type": "electric_scooter", "bike_id": "f9f67df4685472db0a5b197b3a4b24f3", "lat": 38.86597866666666, "lon": -76.97455833333333, "rental_uris": {"android": "https://dc.lft.to/lastmile_qr_scan", "ios": "https://dc.lft.to/lastmile_qr_scan"}, "is_disabled": 0, "fusion_lat": 0.0, "name": "f9f67df4685472db0a5b197b3a4b24f3", "fusion_lon": 0.0}, {"is_reserved": 0, "type": "electric_scooter", "bike_id": "132d177afe92efd0db566ddd4870dbcc", "lat": 38.93660066666666, "lon": -77.02136416666667, "rental_uris": {"android": "https://dc.lft.to/lastmile_qr_scan", "ios": "https://dc.lft.to/lastmile_qr_scan"}, "is_disabled": 0, "fusion_lat": 0.0, "name": "132d177afe92efd0db566ddd4870dbcc", "fusion_lon": 0.0}, {"is_reserved": 0, "type": "electric_scooter", "bike_id": "03c4c85bece9ff57872ea7c07b28616a", "lat": 38.908429166666664, "lon": -77.0271645, "rental_uris": {"android": "https://dc.lft.to/lastmile_qr_scan", "ios": "https://dc.lft.to/lastmile_qr_scan"}, "is_disabled": 0, "fusion_lat": 0.0, "name": "03c4c85bece9ff57872ea7c07b28616a", "fusion_lon": 0.0}, {"is_reserved": 0, "type": "electric_scooter", "bike_id": "e8d8372afbcca4bbeb9a5c574f0b487b", "lat": 38.916554, "lon": -77.0247705, "rental_uris": {"android": "https://dc.lft.to/lastmile_qr_scan", "ios": "https://dc.lft.to/lastmile_qr_scan"}, "is_disabled": 0, "fusion_lat": 0.0, "name": "e8d8372afbcca4bbeb9a5c574f0b487b", "fusion_lon": 0.0}, {"is_reserved": 0, "type": "electric_bike", "bike_id": "e5b29f41faa3d16f5f41c50687eac38c", "lat": 38.876368, "lon": -77.00492816666667, "rental_uris": {"android": "https://dc.lft.to/lastmile_qr_scan", "ios": "https://dc.lft.to/lastmile_qr_scan"}, "is_disabled": 0, "fusion_lat": 0.0, "name": "e5b29f41faa3d16f5f41c50687eac38c", "fusion_lon": 0.0}, {"is_reserved": 0, "type": "electric_scooter", "bike_id": "395c651f4b1a92ae6662f98af51b6eb7", "lat": 38.917589, "lon": -77.02405783333333, "rental_uris": {"android": "https://dc.lft.to/lastmile_qr_scan", "ios": "https://dc.lft.to/lastmile_qr_scan"}, "is_disabled": 0, "fusion_lat": 0.0, "name": "395c651f4b1a92ae6662f98af51b6eb7", "fusion_lon": 0.0}, {"is_reserved": 0, "type": "electric_scooter", "bike_id": "9482f98221cf0fadd73863348136ff68", "lat": 38.908669833333335, "lon": -77.03856033333334, "rental_uris": {"android": "https://dc.lft.to/lastmile_qr_scan", "ios": "https://dc.lft.to/lastmile_qr_scan"}, "is_disabled": 0, "fusion_lat": 0.0, "name": "9482f98221cf0fadd73863348136ff68", "fusion_lon": 0.0}, {"is_reserved": 0, "type": "electric_scooter", "bike_id": "f617157818fe0d06097497483bbdf23d", "lat": 38.87704183333334, "lon": -77.01668466666666, "rental_uris": {"android": "https://dc.lft.to/lastmile_qr_scan", "ios": "https://dc.lft.to/lastmile_qr_scan"}, "is_disabled": 0, "fusion_lat": 0.0, "name": "f617157818fe0d06097497483bbdf23d", "fusion_lon": 0.0}, {"is_reserved": 0, "type": "electric_scooter", "bike_id": "6dca60f8ac00136f1c4e4274999e254c", "lat": 38.88811283333333, "lon": -77.001972, "rental_uris": {"android": "https://dc.lft.to/lastmile_qr_scan", "ios": "https://dc.lft.to/lastmile_qr_scan"}, "is_disabled": 0, "fusion_lat": 0.0, "name": "6dca60f8ac00136f1c4e4274999e254c", "fusion_lon": 0.0}, {"is_reserved": 0, "type": "electric_scooter", "bike_id": "e8ad8f966c918eba1033a3a5b21c23c9", "lat": 38.91416266666667, "lon": -77.03211616666667, "rental_uris": {"android": "https://dc.lft.to/lastmile_qr_scan", "ios": "https://dc.lft.to/lastmile_qr_scan"}, "is_disabled": 0, "fusion_lat": 0.0, "name": "e8ad8f966c918eba1033a3a5b21c23c9", "fusion_lon": 0.0}, {"is_reserved": 0, "type": "electric_scooter", "bike_id": "80faf3842b83217791a1e5391f82250d", "lat": 38.905166666666666, "lon": -77.063811, "rental_uris": {"android": "https://dc.lft.to/lastmile_qr_scan", "ios": "https://dc.lft.to/lastmile_qr_scan"}, "is_disabled": 0, "fusion_lat": 0.0, "name": "80faf3842b83217791a1e5391f82250d", "fusion_lon": 0.0}, {"is_reserved": 0, "type": "electric_scooter", "bike_id": "bbb582c60e96035abcb371acf3263295", "lat": 38.943115666666664, "lon": -77.02176683333333, "rental_uris": {"android": "https://dc.lft.to/lastmile_qr_scan", "ios": "https://dc.lft.to/lastmile_qr_scan"}, "is_disabled": 0, "fusion_lat": 0.0, "name": "bbb582c60e96035abcb371acf3263295", "fusion_lon": 0.0}, {"is_reserved": 0, "type": "electric_scooter", "bike_id": "d0e734c997e552a9eaf7bec93fdf9a01", "lat": 38.87395683333333, "lon": -77.00020066666667, "rental_uris": {"android": "https://dc.lft.to/lastmile_qr_scan", "ios": "https://dc.lft.to/lastmile_qr_scan"}, "is_disabled": 0, "fusion_lat": 0.0, "name": "d0e734c997e552a9eaf7bec93fdf9a01", "fusion_lon": 0.0}, {"is_reserved": 0, "type": "electric_scooter", "bike_id": "ddd2fc0ae5a0efc9f0efd405fe9aae49", "lat": 38.92337833333333, "lon": -77.04189650000001, "rental_uris": {"android": "https://dc.lft.to/lastmile_qr_scan", "ios": "https://dc.lft.to/lastmile_qr_scan"}, "is_disabled": 0, "fusion_lat": 0.0, "name": "ddd2fc0ae5a0efc9f0efd405fe9aae49", "fusion_lon": 0.0}, {"is_reserved": 0, "type": "electric_bike", "bike_id": "774323acd2da765831a786e8dfdaaf58", "lat": 38.900221, "lon": -77.046831, "rental_uris": {"android": "https://dc.lft.to/lastmile_qr_scan", "ios": "https://dc.lft.to/lastmile_qr_scan"}, "is_disabled": 0, "fusion_lat": 0.0, "name": "774323acd2da765831a786e8dfdaaf58", "fusion_lon": 0.0}, {"is_reserved": 0, "type": "electric_scooter", "bike_id": "222fb35c5abad86be3482351e4aca67c", "lat": 38.8992575, "lon": -77.02674683333333, "rental_uris": {"android": "https://dc.lft.to/lastmile_qr_scan", "ios": "https://dc.lft.to/lastmile_qr_scan"}, "is_disabled": 0, "fusion_lat": 0.0, "name": "222fb35c5abad86be3482351e4aca67c", "fusion_lon": 0.0}, {"is_reserved": 0, "type": "electric_scooter", "bike_id": "28bd69e10c01de97f8d7756bba225b89", "lat": 38.92028233333333, "lon": -77.01028533333333, "rental_uris": {"android": "https://dc.lft.to/lastmile_qr_scan", "ios": "https://dc.lft.to/lastmile_qr_scan"}, "is_disabled": 0, "fusion_lat": 0.0, "name": "28bd69e10c01de97f8d7756bba225b89", "fusion_lon": 0.0}, {"is_reserved": 0, "type": "electric_scooter", "bike_id": "f34218176de0b8784e577b48818ae4e7", "lat": 38.890424, "lon": -76.95247816666667, "rental_uris": {"android": "https://dc.lft.to/lastmile_qr_scan", "ios": "https://dc.lft.to/lastmile_qr_scan"}, "is_disabled": 0, "fusion_lat": 0.0, "name": "f34218176de0b8784e577b48818ae4e7", "fusion_lon": 0.0}, {"is_reserved": 0, "type": "electric_scooter", "bike_id": "0f6b1a5924fd09afc285bee9d2993afb", "lat": 38.918126, "lon": -77.0315485, "rental_uris": {"android": "https://dc.lft.to/lastmile_qr_scan", "ios": "https://dc.lft.to/lastmile_qr_scan"}, "is_disabled": 0, "fusion_lat": 0.0, "name": "0f6b1a5924fd09afc285bee9d2993afb", "fusion_lon": 0.0}, {"is_reserved": 0, "type": "electric_scooter", "bike_id": "3041fe1d22dcfd829e27c3937c7b0043", "lat": 38.878435833333334, "lon": -76.9830115, "rental_uris": {"android": "https://dc.lft.to/lastmile_qr_scan", "ios": "https://dc.lft.to/lastmile_qr_scan"}, "is_disabled": 0, "fusion_lat": 0.0, "name": "3041fe1d22dcfd829e27c3937c7b0043", "fusion_lon": 0.0}, {"is_reserved": 0, "type": "electric_scooter", "bike_id": "8c9b4523235224b41c540c2c9fa53f6e", "lat": 38.919378, "lon": -77.02329883333333, "rental_uris": {"android": "https://dc.lft.to/lastmile_qr_scan", "ios": "https://dc.lft.to/lastmile_qr_scan"}, "is_disabled": 0, "fusion_lat": 0.0, "name": "8c9b4523235224b41c540c2c9fa53f6e", "fusion_lon": 0.0}, {"is_reserved": 0, "type": "electric_scooter", "bike_id": "a45b5f76f0bfa7b0249941b1881d0da3", "lat": 38.911162, "lon": -77.04473166666666, "rental_uris": {"android": "https://dc.lft.to/lastmile_qr_scan", "ios": "https://dc.lft.to/lastmile_qr_scan"}, "is_disabled": 0, "fusion_lat": 0.0, "name": "a45b5f76f0bfa7b0249941b1881d0da3", "fusion_lon": 0.0}, {"is_reserved": 0, "type": "electric_scooter", "bike_id": "3003a7b90c42b842d9d51977be2aa51d", "lat": 38.9195615, "lon": -77.03208383333333, "rental_uris": {"android": "https://dc.lft.to/lastmile_qr_scan", "ios": "https://dc.lft.to/lastmile_qr_scan"}, "is_disabled": 0, "fusion_lat": 0.0, "name": "3003a7b90c42b842d9d51977be2aa51d", "fusion_lon": 0.0}, {"is_reserved": 0, "type": "electric_scooter", "bike_id": "c5e615ae523903b6f5bebcc2efe874d5", "lat": 38.914001666666664, "lon": -77.02694533333333, "rental_uris": {"android": "https://dc.lft.to/lastmile_qr_scan", "ios": "https://dc.lft.to/lastmile_qr_scan"}, "is_disabled": 0, "fusion_lat": 0.0, "name": "c5e615ae523903b6f5bebcc2efe874d5", "fusion_lon": 0.0}, {"is_reserved": 0, "type": "electric_scooter", "bike_id": "674ecd329e118b85c29143a56374ceb8", "lat": 38.912268166666664, "lon": -77.029641, "rental_uris": {"android": "https://dc.lft.to/lastmile_qr_scan", "ios": "https://dc.lft.to/lastmile_qr_scan"}, "is_disabled": 0, "fusion_lat": 0.0, "name": "674ecd329e118b85c29143a56374ceb8", "fusion_lon": 0.0}, {"is_reserved": 0, "type": "electric_scooter", "bike_id": "5974f844ed526ea1b8f5fc11cf32d601", "lat": 38.92605433333333, "lon": -77.03554066666666, "rental_uris": {"android": "https://dc.lft.to/lastmile_qr_scan", "ios": "https://dc.lft.to/lastmile_qr_scan"}, "is_disabled": 0, "fusion_lat": 0.0, "name": "5974f844ed526ea1b8f5fc11cf32d601", "fusion_lon": 0.0}, {"is_reserved": 0, "type": "electric_scooter", "bike_id": "e9ecb9e70cf8df659804ea41be159719", "lat": 38.88522016666667, "lon": -76.97710983333333, "rental_uris": {"android": "https://dc.lft.to/lastmile_qr_scan", "ios": "https://dc.lft.to/lastmile_qr_scan"}, "is_disabled": 0, "fusion_lat": 0.0, "name": "e9ecb9e70cf8df659804ea41be159719", "fusion_lon": 0.0}, {"is_reserved": 0, "type": "electric_scooter", "bike_id": "aa8089b34a6d3556f3c1a31cae93374f", "lat": 38.93494466666667, "lon": -77.02730066666666, "rental_uris": {"android": "https://dc.lft.to/lastmile_qr_scan", "ios": "https://dc.lft.to/lastmile_qr_scan"}, "is_disabled": 0, "fusion_lat": 0.0, "name": "aa8089b34a6d3556f3c1a31cae93374f", "fusion_lon": 0.0}, {"is_reserved": 0, "type": "electric_bike", "bike_id": "e412ea4eb5a9e1a261125a1e87ae451e", "lat": 38.90007216666667, "lon": -76.98031416666667, "rental_uris": {"android": "https://dc.lft.to/lastmile_qr_scan", "ios": "https://dc.lft.to/lastmile_qr_scan"}, "is_disabled": 0, "fusion_lat": 0.0, "name": "e412ea4eb5a9e1a261125a1e87ae451e", "fusion_lon": 0.0}, {"is_reserved": 0, "type": "electric_scooter", "bike_id": "7e4c3915e59dca83366b47cff8963f3c", "lat": 38.921223833333336, "lon": -77.04357883333333, "rental_uris": {"android": "https://dc.lft.to/lastmile_qr_scan", "ios": "https://dc.lft.to/lastmile_qr_scan"}, "is_disabled": 0, "fusion_lat": 0.0, "name": "7e4c3915e59dca83366b47cff8963f3c", "fusion_lon": 0.0}, {"is_reserved": 0, "type": "electric_scooter", "bike_id": "fd143f39be0a75d487bf676f78b667ed", "lat": 38.903904833333335, "lon": -77.0344165, "rental_uris": {"android": "https://dc.lft.to/lastmile_qr_scan", "ios": "https://dc.lft.to/lastmile_qr_scan"}, "is_disabled": 0, "fusion_lat": 0.0, "name": "fd143f39be0a75d487bf676f78b667ed", "fusion_lon": 0.0}, {"is_reserved": 0, "type": "electric_scooter", "bike_id": "6ef5066898774acce08954d5281c173d", "lat": 38.96031516666667, "lon": -77.02428716666667, "rental_uris": {"android": "https://dc.lft.to/lastmile_qr_scan", "ios": "https://dc.lft.to/lastmile_qr_scan"}, "is_disabled": 0, "fusion_lat": 0.0, "name": "6ef5066898774acce08954d5281c173d", "fusion_lon": 0.0}, {"is_reserved": 0, "type": "electric_scooter", "bike_id": "b4c49df19b1d86eeb96bd1d3817ce1bc", "lat": 38.88159266666667, "lon": -77.00068933333333, "rental_uris": {"android": "https://dc.lft.to/lastmile_qr_scan", "ios": "https://dc.lft.to/lastmile_qr_scan"}, "is_disabled": 0, "fusion_lat": 0.0, "name": "b4c49df19b1d86eeb96bd1d3817ce1bc", "fusion_lon": 0.0}, {"is_reserved": 0, "type": "electric_scooter", "bike_id": "fa30406ecb4bd53ab7a6f409d06bc32c", "lat": 38.89960266666667, "lon": -77.04476916666667, "rental_uris": {"android": "https://dc.lft.to/lastmile_qr_scan", "ios": "https://dc.lft.to/lastmile_qr_scan"}, "is_disabled": 0, "fusion_lat": 0.0, "name": "fa30406ecb4bd53ab7a6f409d06bc32c", "fusion_lon": 0.0}, {"is_reserved": 0, "type": "electric_scooter", "bike_id": "e8fa1ba6d59e082c452be04868b45854", "lat": 38.89825183333333, "lon": -76.9465135, "rental_uris": {"android": "https://dc.lft.to/lastmile_qr_scan", "ios": "https://dc.lft.to/lastmile_qr_scan"}, "is_disabled": 0, "fusion_lat": 0.0, "name": "e8fa1ba6d59e082c452be04868b45854", "fusion_lon": 0.0}, {"is_reserved": 0, "type": "electric_scooter", "bike_id": "e63ae2eb8f6d161eefa9ff8af45e4a40", "lat": 38.86212066666667, "lon": -76.99542366666667, "rental_uris": {"android": "https://dc.lft.to/lastmile_qr_scan", "ios": "https://dc.lft.to/lastmile_qr_scan"}, "is_disabled": 0, "fusion_lat": 0.0, "name": "e63ae2eb8f6d161eefa9ff8af45e4a40", "fusion_lon": 0.0}, {"is_reserved": 0, "type": "electric_scooter", "bike_id": "4cc56f8991fd15daa3dc960956ca95d4", "lat": 38.90891083333333, "lon": -77.02384433333333, "rental_uris": {"android": "https://dc.lft.to/lastmile_qr_scan", "ios": "https://dc.lft.to/lastmile_qr_scan"}, "is_disabled": 0, "fusion_lat": 0.0, "name": "4cc56f8991fd15daa3dc960956ca95d4", "fusion_lon": 0.0}, {"is_reserved": 0, "type": "electric_scooter", "bike_id": "12729647e4991aba9e2fea7a20d4aa4f", "lat": 38.941332333333335, "lon": -77.06167066666667, "rental_uris": {"android": "https://dc.lft.to/lastmile_qr_scan", "ios": "https://dc.lft.to/lastmile_qr_scan"}, "is_disabled": 0, "fusion_lat": 0.0, "name": "12729647e4991aba9e2fea7a20d4aa4f", "fusion_lon": 0.0}, {"is_reserved": 0, "type": "electric_scooter", "bike_id": "cd248b364d0a7faf98679bc5d728e944", "lat": 38.899324, "lon": -77.031617, "rental_uris": {"android": "https://dc.lft.to/lastmile_qr_scan", "ios": "https://dc.lft.to/lastmile_qr_scan"}, "is_disabled": 0, "fusion_lat": 0.0, "name": "cd248b364d0a7faf98679bc5d728e944", "fusion_lon": 0.0}, {"is_reserved": 0, "type": "electric_scooter", "bike_id": "223b084691a7a389bd4685f80f5e65b7", "lat": 38.901009, "lon": -77.0240805, "rental_uris": {"android": "https://dc.lft.to/lastmile_qr_scan", "ios": "https://dc.lft.to/lastmile_qr_scan"}, "is_disabled": 0, "fusion_lat": 0.0, "name": "223b084691a7a389bd4685f80f5e65b7", "fusion_lon": 0.0}, {"is_reserved": 0, "type": "electric_scooter", "bike_id": "2910b4ade2ab57dc0df77bf825a85a60", "lat": 38.93981216666667, "lon": -77.03562566666666, "rental_uris": {"android": "https://dc.lft.to/lastmile_qr_scan", "ios": "https://dc.lft.to/lastmile_qr_scan"}, "is_disabled": 0, "fusion_lat": 0.0, "name": "2910b4ade2ab57dc0df77bf825a85a60", "fusion_lon": 0.0}, {"is_reserved": 0, "type": "electric_bike", "bike_id": "1ef95db15c79ce9219089a723f5f3b83", "lat": 38.793325833333334, "lon": -77.00047683333334, "rental_uris": {"android": "https://dc.lft.to/lastmile_qr_scan", "ios": "https://dc.lft.to/lastmile_qr_scan"}, "is_disabled": 0, "fusion_lat": 0.0, "name": "1ef95db15c79ce9219089a723f5f3b83", "fusion_lon": 0.0}, {"is_reserved": 0, "type": "electric_scooter", "bike_id": "4b59adfe81f7299217a0eef9473a057e", "lat": 38.9124045, "lon": -77.03186066666666, "rental_uris": {"android": "https://dc.lft.to/lastmile_qr_scan", "ios": "https://dc.lft.to/lastmile_qr_scan"}, "is_disabled": 0, "fusion_lat": 0.0, "name": "4b59adfe81f7299217a0eef9473a057e", "fusion_lon": 0.0}, {"is_reserved": 0, "type": "electric_scooter", "bike_id": "2eac0170d3481956d495488cf23d9961", "lat": 38.930015, "lon": -77.02302933333333, "rental_uris": {"android": "https://dc.lft.to/lastmile_qr_scan", "ios": "https://dc.lft.to/lastmile_qr_scan"}, "is_disabled": 0, "fusion_lat": 0.0, "name": "2eac0170d3481956d495488cf23d9961", "fusion_lon": 0.0}, {"is_reserved": 0, "type": "electric_scooter", "bike_id": "bc99e47565fae1b5d08bcc24d455a79b", "lat": 38.91067366666667, "lon": -77.03848333333333, "rental_uris": {"android": "https://dc.lft.to/lastmile_qr_scan", "ios": "https://dc.lft.to/lastmile_qr_scan"}, "is_disabled": 0, "fusion_lat": 0.0, "name": "bc99e47565fae1b5d08bcc24d455a79b", "fusion_lon": 0.0}, {"is_reserved": 0, "type": "electric_scooter", "bike_id": "5a2ea071ac7d7225d856130b69805088", "lat": 38.917774333333334, "lon": -77.0410505, "rental_uris": {"android": "https://dc.lft.to/lastmile_qr_scan", "ios": "https://dc.lft.to/lastmile_qr_scan"}, "is_disabled": 0, "fusion_lat": 0.0, "name": "5a2ea071ac7d7225d856130b69805088", "fusion_lon": 0.0}, {"is_reserved": 0, "type": "electric_bike", "bike_id": "80d2e8cbffd33efc124b01d45740f936", "lat": 38.9154305, "lon": -77.01208816666667, "rental_uris": {"android": "https://dc.lft.to/lastmile_qr_scan", "ios": "https://dc.lft.to/lastmile_qr_scan"}, "is_disabled": 0, "fusion_lat": 0.0, "name": "80d2e8cbffd33efc124b01d45740f936", "fusion_lon": 0.0}, {"is_reserved": 0, "type": "electric_scooter", "bike_id": "d502f8272fe122d6d74551d0ec6524ed", "lat": 38.94028316666667, "lon": -77.02641816666667, "rental_uris": {"android": "https://dc.lft.to/lastmile_qr_scan", "ios": "https://dc.lft.to/lastmile_qr_scan"}, "is_disabled": 0, "fusion_lat": 0.0, "name": "d502f8272fe122d6d74551d0ec6524ed", "fusion_lon": 0.0}, {"is_reserved": 0, "type": "electric_scooter", "bike_id": "40c8993fb56ccce3ed39f365124a20a7", "lat": 38.91756216666667, "lon": -77.03177633333334, "rental_uris": {"android": "https://dc.lft.to/lastmile_qr_scan", "ios": "https://dc.lft.to/lastmile_qr_scan"}, "is_disabled": 0, "fusion_lat": 0.0, "name": "40c8993fb56ccce3ed39f365124a20a7", "fusion_lon": 0.0}, {"is_reserved": 0, "type": "electric_scooter", "bike_id": "4aeaf01aaabfed34d14a3493b7332cbb", "lat": 38.86431483333333, "lon": -76.99862733333333, "rental_uris": {"android": "https://dc.lft.to/lastmile_qr_scan", "ios": "https://dc.lft.to/lastmile_qr_scan"}, "is_disabled": 0, "fusion_lat": 0.0, "name": "4aeaf01aaabfed34d14a3493b7332cbb", "fusion_lon": 0.0}, {"is_reserved": 0, "type": "electric_scooter", "bike_id": "10d48af32155d983ceb84d4bbfd8979d", "lat": 38.900636, "lon": -76.98683866666667, "rental_uris": {"android": "https://dc.lft.to/lastmile_qr_scan", "ios": "https://dc.lft.to/lastmile_qr_scan"}, "is_disabled": 0, "fusion_lat": 0.0, "name": "10d48af32155d983ceb84d4bbfd8979d", "fusion_lon": 0.0}, {"is_reserved": 0, "type": "electric_bike", "bike_id": "47beb6324d6a48a72c6eeb5539812e5f", "lat": 38.886595166666666, "lon": -77.16234816666666, "rental_uris": {"android": "https://dc.lft.to/lastmile_qr_scan", "ios": "https://dc.lft.to/lastmile_qr_scan"}, "is_disabled": 0, "fusion_lat": 0.0, "name": "47beb6324d6a48a72c6eeb5539812e5f", "fusion_lon": 0.0}, {"is_reserved": 0, "type": "electric_scooter", "bike_id": "52488b74f28726fc9bfd3d142a730c36", "lat": 38.908419, "lon": -77.05582566666666, "rental_uris": {"android": "https://dc.lft.to/lastmile_qr_scan", "ios": "https://dc.lft.to/lastmile_qr_scan"}, "is_disabled": 0, "fusion_lat": 0.0, "name": "52488b74f28726fc9bfd3d142a730c36", "fusion_lon": 0.0}, {"is_reserved": 0, "type": "electric_scooter", "bike_id": "4fdc34a820a62187afbdfda1dcd6a407", "lat": 38.950965, "lon": -77.02800216666667, "rental_uris": {"android": "https://dc.lft.to/lastmile_qr_scan", "ios": "https://dc.lft.to/lastmile_qr_scan"}, "is_disabled": 0, "fusion_lat": 0.0, "name": "4fdc34a820a62187afbdfda1dcd6a407", "fusion_lon": 0.0}, {"is_reserved": 0, "type": "electric_scooter", "bike_id": "2a6c123a24f92374dbc7a78171ce169e", "lat": 38.913083666666665, "lon": -77.03641933333333, "rental_uris": {"android": "https://dc.lft.to/lastmile_qr_scan", "ios": "https://dc.lft.to/lastmile_qr_scan"}, "is_disabled": 0, "fusion_lat": 0.0, "name": "2a6c123a24f92374dbc7a78171ce169e", "fusion_lon": 0.0}, {"is_reserved": 0, "type": "electric_scooter", "bike_id": "44de03620a3a4bb420601dff839dfe8c", "lat": 38.85221883333333, "lon": -76.99426033333333, "rental_uris": {"android": "https://dc.lft.to/lastmile_qr_scan", "ios": "https://dc.lft.to/lastmile_qr_scan"}, "is_disabled": 0, "fusion_lat": 0.0, "name": "44de03620a3a4bb420601dff839dfe8c", "fusion_lon": 0.0}, {"is_reserved": 0, "type": "electric_scooter", "bike_id": "93dd041a47a0e479dcc7ff6ab981a07a", "lat": 38.899091, "lon": -76.93361633333333, "rental_uris": {"android": "https://dc.lft.to/lastmile_qr_scan", "ios": "https://dc.lft.to/lastmile_qr_scan"}, "is_disabled": 0, "fusion_lat": 0.0, "name": "93dd041a47a0e479dcc7ff6ab981a07a", "fusion_lon": 0.0}, {"is_reserved": 0, "type": "electric_scooter", "bike_id": "3120c49c97957ec28376ddf1a16fcbfd", "lat": 38.90382, "lon": -77.00550033333333, "rental_uris": {"android": "https://dc.lft.to/lastmile_qr_scan", "ios": "https://dc.lft.to/lastmile_qr_scan"}, "is_disabled": 0, "fusion_lat": 0.0, "name": "3120c49c97957ec28376ddf1a16fcbfd", "fusion_lon": 0.0}, {"is_reserved": 0, "type": "electric_scooter", "bike_id": "67c66ef0510df90c812076cebbff8267", "lat": 38.9360815, "lon": -77.03212166666667, "rental_uris": {"android": "https://dc.lft.to/lastmile_qr_scan", "ios": "https://dc.lft.to/lastmile_qr_scan"}, "is_disabled": 0, "fusion_lat": 0.0, "name": "67c66ef0510df90c812076cebbff8267", "fusion_lon": 0.0}, {"is_reserved": 0, "type": "electric_scooter", "bike_id": "d7c11d112f60ffe2a9bc7a1e108ccd26", "lat": 38.92380416666666, "lon": -77.05176233333333, "rental_uris": {"android": "https://dc.lft.to/lastmile_qr_scan", "ios": "https://dc.lft.to/lastmile_qr_scan"}, "is_disabled": 0, "fusion_lat": 0.0, "name": "d7c11d112f60ffe2a9bc7a1e108ccd26", "fusion_lon": 0.0}, {"is_reserved": 0, "type": "electric_scooter", "bike_id": "96d884131090609090ef2b5d6d22cf52", "lat": 38.93143383333334, "lon": -77.03219866666667, "rental_uris": {"android": "https://dc.lft.to/lastmile_qr_scan", "ios": "https://dc.lft.to/lastmile_qr_scan"}, "is_disabled": 0, "fusion_lat": 0.0, "name": "96d884131090609090ef2b5d6d22cf52", "fusion_lon": 0.0}, {"is_reserved": 0, "type": "electric_scooter", "bike_id": "8e073f70e141e9a06076933754025140", "lat": 38.899208, "lon": -77.0270595, "rental_uris": {"android": "https://dc.lft.to/lastmile_qr_scan", "ios": "https://dc.lft.to/lastmile_qr_scan"}, "is_disabled": 0, "fusion_lat": 0.0, "name": "8e073f70e141e9a06076933754025140", "fusion_lon": 0.0}, {"is_reserved": 0, "type": "electric_scooter", "bike_id": "cf80b872ab191069e537bd2fbe9096f1", "lat": 38.903198, "lon": -77.02596983333333, "rental_uris": {"android": "https://dc.lft.to/lastmile_qr_scan", "ios": "https://dc.lft.to/lastmile_qr_scan"}, "is_disabled": 0, "fusion_lat": 0.0, "name": "cf80b872ab191069e537bd2fbe9096f1", "fusion_lon": 0.0}, {"is_reserved": 0, "type": "electric_scooter", "bike_id": "76e4905867d514dcbf75e28312cea4d4", "lat": 38.929775166666666, "lon": -77.02752466666666, "rental_uris": {"android": "https://dc.lft.to/lastmile_qr_scan", "ios": "https://dc.lft.to/lastmile_qr_scan"}, "is_disabled": 0, "fusion_lat": 0.0, "name": "76e4905867d514dcbf75e28312cea4d4", "fusion_lon": 0.0}, {"is_reserved": 0, "type": "electric_bike", "bike_id": "213d1a42ded8bf9fa2c03b167457907f", "lat": 38.898146833333335, "lon": -76.99063866666667, "rental_uris": {"android": "https://dc.lft.to/lastmile_qr_scan", "ios": "https://dc.lft.to/lastmile_qr_scan"}, "is_disabled": 0, "fusion_lat": 0.0, "name": "213d1a42ded8bf9fa2c03b167457907f", "fusion_lon": 0.0}, {"is_reserved": 0, "type": "electric_scooter", "bike_id": "e1c265883fd03c562cb9801f67f2e08a", "lat": 38.9119225, "lon": -77.00723083333334, "rental_uris": {"android": "https://dc.lft.to/lastmile_qr_scan", "ios": "https://dc.lft.to/lastmile_qr_scan"}, "is_disabled": 0, "fusion_lat": 0.0, "name": "e1c265883fd03c562cb9801f67f2e08a", "fusion_lon": 0.0}, {"is_reserved": 0, "type": "electric_scooter", "bike_id": "5fbbd92e43a628fe26e178ceb2598e05", "lat": 38.917124333333334, "lon": -77.03182516666666, "rental_uris": {"android": "https://dc.lft.to/lastmile_qr_scan", "ios": "https://dc.lft.to/lastmile_qr_scan"}, "is_disabled": 0, "fusion_lat": 0.0, "name": "5fbbd92e43a628fe26e178ceb2598e05", "fusion_lon": 0.0}, {"is_reserved": 0, "type": "electric_scooter", "bike_id": "a5b1650ae227b5dedb3613db55180a26", "lat": 38.89837383333333, "lon": -77.01957983333334, "rental_uris": {"android": "https://dc.lft.to/lastmile_qr_scan", "ios": "https://dc.lft.to/lastmile_qr_scan"}, "is_disabled": 0, "fusion_lat": 0.0, "name": "a5b1650ae227b5dedb3613db55180a26", "fusion_lon": 0.0}, {"is_reserved": 0, "type": "electric_scooter", "bike_id": "beab9e4c54f246db53e39e60ea08c197", "lat": 38.9001345, "lon": -77.0105345, "rental_uris": {"android": "https://dc.lft.to/lastmile_qr_scan", "ios": "https://dc.lft.to/lastmile_qr_scan"}, "is_disabled": 0, "fusion_lat": 0.0, "name": "beab9e4c54f246db53e39e60ea08c197", "fusion_lon": 0.0}, {"is_reserved": 0, "type": "electric_scooter", "bike_id": "8e66cac46210b26763baa2b4914b9053", "lat": 38.92058883333333, "lon": -77.04217166666666, "rental_uris": {"android": "https://dc.lft.to/lastmile_qr_scan", "ios": "https://dc.lft.to/lastmile_qr_scan"}, "is_disabled": 0, "fusion_lat": 0.0, "name": "8e66cac46210b26763baa2b4914b9053", "fusion_lon": 0.0}, {"is_reserved": 0, "type": "electric_scooter", "bike_id": "130df35d4f8147cb624a48f1f45ef050", "lat": 38.88683266666666, "lon": -77.00344166666666, "rental_uris": {"android": "https://dc.lft.to/lastmile_qr_scan", "ios": "https://dc.lft.to/lastmile_qr_scan"}, "is_disabled": 0, "fusion_lat": 0.0, "name": "130df35d4f8147cb624a48f1f45ef050", "fusion_lon": 0.0}, {"is_reserved": 0, "type": "electric_scooter", "bike_id": "c336fa137c37b5b5ebbbee24688ef3cd", "lat": 38.94726166666667, "lon": -77.02458766666666, "rental_uris": {"android": "https://dc.lft.to/lastmile_qr_scan", "ios": "https://dc.lft.to/lastmile_qr_scan"}, "is_disabled": 0, "fusion_lat": 0.0, "name": "c336fa137c37b5b5ebbbee24688ef3cd", "fusion_lon": 0.0}, {"is_reserved": 0, "type": "electric_scooter", "bike_id": "f69e6e603a74619a0611db7166672589", "lat": 38.90064516666666, "lon": -76.92745133333334, "rental_uris": {"android": "https://dc.lft.to/lastmile_qr_scan", "ios": "https://dc.lft.to/lastmile_qr_scan"}, "is_disabled": 0, "fusion_lat": 0.0, "name": "f69e6e603a74619a0611db7166672589", "fusion_lon": 0.0}, {"is_reserved": 0, "type": "electric_scooter", "bike_id": "a6493d642f78963448cc0296eba3c2a8", "lat": 38.89602333333333, "lon": -77.00927333333334, "rental_uris": {"android": "https://dc.lft.to/lastmile_qr_scan", "ios": "https://dc.lft.to/lastmile_qr_scan"}, "is_disabled": 0, "fusion_lat": 0.0, "name": "a6493d642f78963448cc0296eba3c2a8", "fusion_lon": 0.0}, {"is_reserved": 0, "type": "electric_scooter", "bike_id": "db70ff7dbc6f685cfd0936e7a79aa0fa", "lat": 38.924633166666666, "lon": -77.027156, "rental_uris": {"android": "https://dc.lft.to/lastmile_qr_scan", "ios": "https://dc.lft.to/lastmile_qr_scan"}, "is_disabled": 0, "fusion_lat": 0.0, "name": "db70ff7dbc6f685cfd0936e7a79aa0fa", "fusion_lon": 0.0}, {"is_reserved": 0, "type": "electric_scooter", "bike_id": "44f3465b9641ce8dbd9c41c71e508ffa", "lat": 38.8956585, "lon": -77.031728, "rental_uris": {"android": "https://dc.lft.to/lastmile_qr_scan", "ios": "https://dc.lft.to/lastmile_qr_scan"}, "is_disabled": 0, "fusion_lat": 0.0, "name": "44f3465b9641ce8dbd9c41c71e508ffa", "fusion_lon": 0.0}, {"is_reserved": 0, "type": "electric_scooter", "bike_id": "3aa1e66e4c9346eba3a821cc205d3b06", "lat": 38.929682166666666, "lon": -77.02348166666667, "rental_uris": {"android": "https://dc.lft.to/lastmile_qr_scan", "ios": "https://dc.lft.to/lastmile_qr_scan"}, "is_disabled": 0, "fusion_lat": 0.0, "name": "3aa1e66e4c9346eba3a821cc205d3b06", "fusion_lon": 0.0}, {"is_reserved": 0, "type": "electric_scooter", "bike_id": "d57db65d60a1b7f2a1b761cf731ff6ef", "lat": 38.919813833333336, "lon": -77.0406745, "rental_uris": {"android": "https://dc.lft.to/lastmile_qr_scan", "ios": "https://dc.lft.to/lastmile_qr_scan"}, "is_disabled": 0, "fusion_lat": 0.0, "name": "d57db65d60a1b7f2a1b761cf731ff6ef", "fusion_lon": 0.0}, {"is_reserved": 0, "type": "electric_scooter", "bike_id": "37360add2c9397e08e08a972e502b5d6", "lat": 38.905694, "lon": -77.03070316666667, "rental_uris": {"android": "https://dc.lft.to/lastmile_qr_scan", "ios": "https://dc.lft.to/lastmile_qr_scan"}, "is_disabled": 0, "fusion_lat": 0.0, "name": "37360add2c9397e08e08a972e502b5d6", "fusion_lon": 0.0}, {"is_reserved": 0, "type": "electric_scooter", "bike_id": "a27a87af65ae6e1e23999a2d71a82c35", "lat": 38.9177045, "lon": -77.02955833333333, "rental_uris": {"android": "https://dc.lft.to/lastmile_qr_scan", "ios": "https://dc.lft.to/lastmile_qr_scan"}, "is_disabled": 0, "fusion_lat": 0.0, "name": "a27a87af65ae6e1e23999a2d71a82c35", "fusion_lon": 0.0}, {"is_reserved": 0, "type": "electric_scooter", "bike_id": "4ae160ad71314e02e561b83ff9d492f3", "lat": 38.903952833333335, "lon": -77.0629975, "rental_uris": {"android": "https://dc.lft.to/lastmile_qr_scan", "ios": "https://dc.lft.to/lastmile_qr_scan"}, "is_disabled": 0, "fusion_lat": 0.0, "name": "4ae160ad71314e02e561b83ff9d492f3", "fusion_lon": 0.0}, {"is_reserved": 0, "type": "electric_scooter", "bike_id": "8de9540276c899d2687e4d28b0aca2e1", "lat": 38.89240783333333, "lon": -77.01351583333333, "rental_uris": {"android": "https://dc.lft.to/lastmile_qr_scan", "ios": "https://dc.lft.to/lastmile_qr_scan"}, "is_disabled": 0, "fusion_lat": 0.0, "name": "8de9540276c899d2687e4d28b0aca2e1", "fusion_lon": 0.0}, {"is_reserved": 0, "type": "electric_scooter", "bike_id": "8cdd1e42673fd361be42d5b64ccfe8bf", "lat": 38.915955, "lon": -77.0239635, "rental_uris": {"android": "https://dc.lft.to/lastmile_qr_scan", "ios": "https://dc.lft.to/lastmile_qr_scan"}, "is_disabled": 0, "fusion_lat": 0.0, "name": "8cdd1e42673fd361be42d5b64ccfe8bf", "fusion_lon": 0.0}, {"is_reserved": 0, "type": "electric_scooter", "bike_id": "9dc12155479a7c49dde9c1a01d3518cc", "lat": 38.88726916666667, "lon": -76.98377683333334, "rental_uris": {"android": "https://dc.lft.to/lastmile_qr_scan", "ios": "https://dc.lft.to/lastmile_qr_scan"}, "is_disabled": 0, "fusion_lat": 0.0, "name": "9dc12155479a7c49dde9c1a01d3518cc", "fusion_lon": 0.0}, {"is_reserved": 0, "type": "electric_scooter", "bike_id": "5b5904be530366fb88a5bb45465d73c0", "lat": 38.90159533333333, "lon": -77.04855283333333, "rental_uris": {"android": "https://dc.lft.to/lastmile_qr_scan", "ios": "https://dc.lft.to/lastmile_qr_scan"}, "is_disabled": 0, "fusion_lat": 0.0, "name": "5b5904be530366fb88a5bb45465d73c0", "fusion_lon": 0.0}, {"is_reserved": 0, "type": "electric_bike", "bike_id": "9a03e89e225709b06fc6fffd9e0b8e77", "lat": 38.92911483333334, "lon": -77.09741333333334, "rental_uris": {"android": "https://dc.lft.to/lastmile_qr_scan", "ios": "https://dc.lft.to/lastmile_qr_scan"}, "is_disabled": 0, "fusion_lat": 0.0, "name": "9a03e89e225709b06fc6fffd9e0b8e77", "fusion_lon": 0.0}, {"is_reserved": 0, "type": "electric_scooter", "bike_id": "924e8ec754f5b632812626b64a68606a", "lat": 38.917964, "lon": -77.03206583333333, "rental_uris": {"android": "https://dc.lft.to/lastmile_qr_scan", "ios": "https://dc.lft.to/lastmile_qr_scan"}, "is_disabled": 0, "fusion_lat": 0.0, "name": "924e8ec754f5b632812626b64a68606a", "fusion_lon": 0.0}, {"is_reserved": 0, "type": "electric_bike", "bike_id": "74444fc76d05cddbfdc8483dc232f74e", "lat": 38.83705466666667, "lon": -77.00581283333334, "rental_uris": {"android": "https://dc.lft.to/lastmile_qr_scan", "ios": "https://dc.lft.to/lastmile_qr_scan"}, "is_disabled": 0, "fusion_lat": 0.0, "name": "74444fc76d05cddbfdc8483dc232f74e", "fusion_lon": 0.0}, {"is_reserved": 0, "type": "electric_scooter", "bike_id": "dce210f818329c9f7748e2421d5c396e", "lat": 38.9262715, "lon": -77.04249516666667, "rental_uris": {"android": "https://dc.lft.to/lastmile_qr_scan", "ios": "https://dc.lft.to/lastmile_qr_scan"}, "is_disabled": 0, "fusion_lat": 0.0, "name": "dce210f818329c9f7748e2421d5c396e", "fusion_lon": 0.0}, {"is_reserved": 0, "type": "electric_scooter", "bike_id": "4632f57ed131f12e9437dbf1d8b16044", "lat": 38.920585833333334, "lon": -77.02366316666667, "rental_uris": {"android": "https://dc.lft.to/lastmile_qr_scan", "ios": "https://dc.lft.to/lastmile_qr_scan"}, "is_disabled": 0, "fusion_lat": 0.0, "name": "4632f57ed131f12e9437dbf1d8b16044", "fusion_lon": 0.0}, {"is_reserved": 0, "type": "electric_scooter", "bike_id": "39afd5d3d6ad46604bad28b84258273f", "lat": 38.914237166666666, "lon": -77.04649183333333, "rental_uris": {"android": "https://dc.lft.to/lastmile_qr_scan", "ios": "https://dc.lft.to/lastmile_qr_scan"}, "is_disabled": 0, "fusion_lat": 0.0, "name": "39afd5d3d6ad46604bad28b84258273f", "fusion_lon": 0.0}, {"is_reserved": 0, "type": "electric_scooter", "bike_id": "cc6c23379a7c699f3672d53de446d119", "lat": 38.92405483333334, "lon": -77.04267283333333, "rental_uris": {"android": "https://dc.lft.to/lastmile_qr_scan", "ios": "https://dc.lft.to/lastmile_qr_scan"}, "is_disabled": 0, "fusion_lat": 0.0, "name": "cc6c23379a7c699f3672d53de446d119", "fusion_lon": 0.0}, {"is_reserved": 0, "type": "electric_scooter", "bike_id": "ae69affe933597e308e549612a88fcc8", "lat": 38.90724516666667, "lon": -77.024959, "rental_uris": {"android": "https://dc.lft.to/lastmile_qr_scan", "ios": "https://dc.lft.to/lastmile_qr_scan"}, "is_disabled": 0, "fusion_lat": 0.0, "name": "ae69affe933597e308e549612a88fcc8", "fusion_lon": 0.0}, {"is_reserved": 0, "type": "electric_scooter", "bike_id": "8ea379d6d75ab805f670f59fd331250c", "lat": 38.9751615, "lon": -77.01744266666667, "rental_uris": {"android": "https://dc.lft.to/lastmile_qr_scan", "ios": "https://dc.lft.to/lastmile_qr_scan"}, "is_disabled": 0, "fusion_lat": 0.0, "name": "8ea379d6d75ab805f670f59fd331250c", "fusion_lon": 0.0}, {"is_reserved": 0, "type": "electric_scooter", "bike_id": "03aa70c280d2447207a3d69bb465147c", "lat": 38.916317666666664, "lon": -77.029499, "rental_uris": {"android": "https://dc.lft.to/lastmile_qr_scan", "ios": "https://dc.lft.to/lastmile_qr_scan"}, "is_disabled": 0, "fusion_lat": 0.0, "name": "03aa70c280d2447207a3d69bb465147c", "fusion_lon": 0.0}, {"is_reserved": 0, "type": "electric_scooter", "bike_id": "ac4aefc7abd5b817c9ec55f5717e960b", "lat": 38.89899233333333, "lon": -77.00732266666667, "rental_uris": {"android": "https://dc.lft.to/lastmile_qr_scan", "ios": "https://dc.lft.to/lastmile_qr_scan"}, "is_disabled": 0, "fusion_lat": 0.0, "name": "ac4aefc7abd5b817c9ec55f5717e960b", "fusion_lon": 0.0}, {"is_reserved": 0, "type": "electric_scooter", "bike_id": "d79498f01f85f24bdfb8b13331dd971d", "lat": 38.943278166666666, "lon": -77.0125735, "rental_uris": {"android": "https://dc.lft.to/lastmile_qr_scan", "ios": "https://dc.lft.to/lastmile_qr_scan"}, "is_disabled": 0, "fusion_lat": 0.0, "name": "d79498f01f85f24bdfb8b13331dd971d", "fusion_lon": 0.0}, {"is_reserved": 0, "type": "electric_scooter", "bike_id": "fd8bf3049bde9a3917e303bb74322cef", "lat": 38.909006, "lon": -76.99624516666667, "rental_uris": {"android": "https://dc.lft.to/lastmile_qr_scan", "ios": "https://dc.lft.to/lastmile_qr_scan"}, "is_disabled": 0, "fusion_lat": 0.0, "name": "fd8bf3049bde9a3917e303bb74322cef", "fusion_lon": 0.0}, {"is_reserved": 0, "type": "electric_scooter", "bike_id": "1cb68e7f5359a32201bf0b23db9c077a", "lat": 38.894590666666666, "lon": -77.02608833333333, "rental_uris": {"android": "https://dc.lft.to/lastmile_qr_scan", "ios": "https://dc.lft.to/lastmile_qr_scan"}, "is_disabled": 0, "fusion_lat": 0.0, "name": "1cb68e7f5359a32201bf0b23db9c077a", "fusion_lon": 0.0}, {"is_reserved": 0, "type": "electric_scooter", "bike_id": "f627c896f82ecfb475369ddce5cd7776", "lat": 38.88364116666666, "lon": -77.0261145, "rental_uris": {"android": "https://dc.lft.to/lastmile_qr_scan", "ios": "https://dc.lft.to/lastmile_qr_scan"}, "is_disabled": 0, "fusion_lat": 0.0, "name": "f627c896f82ecfb475369ddce5cd7776", "fusion_lon": 0.0}, {"is_reserved": 0, "type": "electric_scooter", "bike_id": "02dad17832c37ca2cf245c0826cbf1e3", "lat": 38.8953765, "lon": -76.927758, "rental_uris": {"android": "https://dc.lft.to/lastmile_qr_scan", "ios": "https://dc.lft.to/lastmile_qr_scan"}, "is_disabled": 0, "fusion_lat": 0.0, "name": "02dad17832c37ca2cf245c0826cbf1e3", "fusion_lon": 0.0}, {"is_reserved": 0, "type": "electric_scooter", "bike_id": "b71168aa9f6631bd65c98456f839ae50", "lat": 38.8954625, "lon": -76.98337283333333, "rental_uris": {"android": "https://dc.lft.to/lastmile_qr_scan", "ios": "https://dc.lft.to/lastmile_qr_scan"}, "is_disabled": 0, "fusion_lat": 0.0, "name": "b71168aa9f6631bd65c98456f839ae50", "fusion_lon": 0.0}, {"is_reserved": 0, "type": "electric_scooter", "bike_id": "6c618cba04370a8e57e775c2e1581a72", "lat": 38.9242125, "lon": -77.0194505, "rental_uris": {"android": "https://dc.lft.to/lastmile_qr_scan", "ios": "https://dc.lft.to/lastmile_qr_scan"}, "is_disabled": 0, "fusion_lat": 0.0, "name": "6c618cba04370a8e57e775c2e1581a72", "fusion_lon": 0.0}, {"is_reserved": 0, "type": "electric_scooter", "bike_id": "8a1c15773452ea551887a7981878d286", "lat": 38.917971333333334, "lon": -77.03206116666667, "rental_uris": {"android": "https://dc.lft.to/lastmile_qr_scan", "ios": "https://dc.lft.to/lastmile_qr_scan"}, "is_disabled": 0, "fusion_lat": 0.0, "name": "8a1c15773452ea551887a7981878d286", "fusion_lon": 0.0}, {"is_reserved": 0, "type": "electric_scooter", "bike_id": "bb01e2ca03a6acb77226a720f5762e83", "lat": 38.92594716666667, "lon": -77.02147266666667, "rental_uris": {"android": "https://dc.lft.to/lastmile_qr_scan", "ios": "https://dc.lft.to/lastmile_qr_scan"}, "is_disabled": 0, "fusion_lat": 0.0, "name": "bb01e2ca03a6acb77226a720f5762e83", "fusion_lon": 0.0}, {"is_reserved": 0, "type": "electric_scooter", "bike_id": "aeda860062fa4805a71f5aef5a21fdf3", "lat": 38.9039995, "lon": -76.97348833333334, "rental_uris": {"android": "https://dc.lft.to/lastmile_qr_scan", "ios": "https://dc.lft.to/lastmile_qr_scan"}, "is_disabled": 0, "fusion_lat": 0.0, "name": "aeda860062fa4805a71f5aef5a21fdf3", "fusion_lon": 0.0}, {"is_reserved": 0, "type": "electric_scooter", "bike_id": "295a96342ca8fdfc5dd75a1e94ce7a0a", "lat": 38.90708133333333, "lon": -77.0238465, "rental_uris": {"android": "https://dc.lft.to/lastmile_qr_scan", "ios": "https://dc.lft.to/lastmile_qr_scan"}, "is_disabled": 0, "fusion_lat": 0.0, "name": "295a96342ca8fdfc5dd75a1e94ce7a0a", "fusion_lon": 0.0}, {"is_reserved": 0, "type": "electric_scooter", "bike_id": "0c469c7124fd48231e9519487a2c6721", "lat": 38.86017116666667, "lon": -76.9700265, "rental_uris": {"android": "https://dc.lft.to/lastmile_qr_scan", "ios": "https://dc.lft.to/lastmile_qr_scan"}, "is_disabled": 0, "fusion_lat": 0.0, "name": "0c469c7124fd48231e9519487a2c6721", "fusion_lon": 0.0}, {"is_reserved": 0, "type": "electric_scooter", "bike_id": "eae6577bf1cc96273bcb45e78a68a926", "lat": 38.90200183333333, "lon": -77.023703, "rental_uris": {"android": "https://dc.lft.to/lastmile_qr_scan", "ios": "https://dc.lft.to/lastmile_qr_scan"}, "is_disabled": 0, "fusion_lat": 0.0, "name": "eae6577bf1cc96273bcb45e78a68a926", "fusion_lon": 0.0}, {"is_reserved": 0, "type": "electric_scooter", "bike_id": "f9496b5670b563af41838be001896743", "lat": 38.90982366666667, "lon": -77.03187316666667, "rental_uris": {"android": "https://dc.lft.to/lastmile_qr_scan", "ios": "https://dc.lft.to/lastmile_qr_scan"}, "is_disabled": 0, "fusion_lat": 0.0, "name": "f9496b5670b563af41838be001896743", "fusion_lon": 0.0}, {"is_reserved": 0, "type": "electric_scooter", "bike_id": "fb6e168eb3426ff213377b049fe3986d", "lat": 38.9617155, "lon": -77.0281495, "rental_uris": {"android": "https://dc.lft.to/lastmile_qr_scan", "ios": "https://dc.lft.to/lastmile_qr_scan"}, "is_disabled": 0, "fusion_lat": 0.0, "name": "fb6e168eb3426ff213377b049fe3986d", "fusion_lon": 0.0}, {"is_reserved": 0, "type": "electric_scooter", "bike_id": "7a84c16124872ee1ce2ab6a49e32b484", "lat": 38.966784833333335, "lon": -77.0360625, "rental_uris": {"android": "https://dc.lft.to/lastmile_qr_scan", "ios": "https://dc.lft.to/lastmile_qr_scan"}, "is_disabled": 0, "fusion_lat": 0.0, "name": "7a84c16124872ee1ce2ab6a49e32b484", "fusion_lon": 0.0}, {"is_reserved": 0, "type": "electric_scooter", "bike_id": "c2e0df37c0507f66db710292dc700865", "lat": 38.916337, "lon": -77.02550383333333, "rental_uris": {"android": "https://dc.lft.to/lastmile_qr_scan", "ios": "https://dc.lft.to/lastmile_qr_scan"}, "is_disabled": 0, "fusion_lat": 0.0, "name": "c2e0df37c0507f66db710292dc700865", "fusion_lon": 0.0}, {"is_reserved": 0, "type": "electric_scooter", "bike_id": "b8a261af8cba86d98687027abf11074b", "lat": 38.95184066666667, "lon": -77.01266583333333, "rental_uris": {"android": "https://dc.lft.to/lastmile_qr_scan", "ios": "https://dc.lft.to/lastmile_qr_scan"}, "is_disabled": 0, "fusion_lat": 0.0, "name": "b8a261af8cba86d98687027abf11074b", "fusion_lon": 0.0}, {"is_reserved": 0, "type": "electric_scooter", "bike_id": "1ba297f4e4c2a4575e54757fb5809fc3", "lat": 38.9482185, "lon": -77.02583716666666, "rental_uris": {"android": "https://dc.lft.to/lastmile_qr_scan", "ios": "https://dc.lft.to/lastmile_qr_scan"}, "is_disabled": 0, "fusion_lat": 0.0, "name": "1ba297f4e4c2a4575e54757fb5809fc3", "fusion_lon": 0.0}, {"is_reserved": 0, "type": "electric_scooter", "bike_id": "e81047a9036de98e21f8d47fed5b92b1", "lat": 38.909665333333336, "lon": -77.01104016666666, "rental_uris": {"android": "https://dc.lft.to/lastmile_qr_scan", "ios": "https://dc.lft.to/lastmile_qr_scan"}, "is_disabled": 0, "fusion_lat": 0.0, "name": "e81047a9036de98e21f8d47fed5b92b1", "fusion_lon": 0.0}, {"is_reserved": 0, "type": "electric_scooter", "bike_id": "19a06354e216eeadbcc300ad4e66b5bb", "lat": 38.9203005, "lon": -76.995606, "rental_uris": {"android": "https://dc.lft.to/lastmile_qr_scan", "ios": "https://dc.lft.to/lastmile_qr_scan"}, "is_disabled": 0, "fusion_lat": 0.0, "name": "19a06354e216eeadbcc300ad4e66b5bb", "fusion_lon": 0.0}, {"is_reserved": 0, "type": "electric_scooter", "bike_id": "d422e600dcb3bdc4ce14cb29188684ba", "lat": 38.930034166666665, "lon": -77.018263, "rental_uris": {"android": "https://dc.lft.to/lastmile_qr_scan", "ios": "https://dc.lft.to/lastmile_qr_scan"}, "is_disabled": 0, "fusion_lat": 0.0, "name": "d422e600dcb3bdc4ce14cb29188684ba", "fusion_lon": 0.0}, {"is_reserved": 0, "type": "electric_scooter", "bike_id": "fd05742d0e64787c7d2df360b5a9961a", "lat": 38.90842516666667, "lon": -77.02591733333334, "rental_uris": {"android": "https://dc.lft.to/lastmile_qr_scan", "ios": "https://dc.lft.to/lastmile_qr_scan"}, "is_disabled": 0, "fusion_lat": 0.0, "name": "fd05742d0e64787c7d2df360b5a9961a", "fusion_lon": 0.0}, {"is_reserved": 0, "type": "electric_scooter", "bike_id": "5e0b698deb78d384e39f07a05d290efc", "lat": 38.9207545, "lon": -77.02412066666666, "rental_uris": {"android": "https://dc.lft.to/lastmile_qr_scan", "ios": "https://dc.lft.to/lastmile_qr_scan"}, "is_disabled": 0, "fusion_lat": 0.0, "name": "5e0b698deb78d384e39f07a05d290efc", "fusion_lon": 0.0}, {"is_reserved": 0, "type": "electric_scooter", "bike_id": "58d5f165e6e651030fc57f9a4e865a4a", "lat": 38.92073533333333, "lon": -77.02411183333334, "rental_uris": {"android": "https://dc.lft.to/lastmile_qr_scan", "ios": "https://dc.lft.to/lastmile_qr_scan"}, "is_disabled": 0, "fusion_lat": 0.0, "name": "58d5f165e6e651030fc57f9a4e865a4a", "fusion_lon": 0.0}, {"is_reserved": 0, "type": "electric_scooter", "bike_id": "e1325bdc2188f2f2dd0cceb901cc161c", "lat": 38.90014583333333, "lon": -76.93027033333334, "rental_uris": {"android": "https://dc.lft.to/lastmile_qr_scan", "ios": "https://dc.lft.to/lastmile_qr_scan"}, "is_disabled": 0, "fusion_lat": 0.0, "name": "e1325bdc2188f2f2dd0cceb901cc161c", "fusion_lon": 0.0}, {"is_reserved": 0, "type": "electric_scooter", "bike_id": "f298eb2e84a7fb8224cfd6f87b312f67", "lat": 38.896153166666664, "lon": -76.97682033333334, "rental_uris": {"android": "https://dc.lft.to/lastmile_qr_scan", "ios": "https://dc.lft.to/lastmile_qr_scan"}, "is_disabled": 0, "fusion_lat": 0.0, "name": "f298eb2e84a7fb8224cfd6f87b312f67", "fusion_lon": 0.0}, {"is_reserved": 0, "type": "electric_scooter", "bike_id": "7139bbbaa01e006d67cad7123713ee13", "lat": 38.921498166666666, "lon": -77.02094716666667, "rental_uris": {"android": "https://dc.lft.to/lastmile_qr_scan", "ios": "https://dc.lft.to/lastmile_qr_scan"}, "is_disabled": 0, "fusion_lat": 0.0, "name": "7139bbbaa01e006d67cad7123713ee13", "fusion_lon": 0.0}, {"is_reserved": 0, "type": "electric_scooter", "bike_id": "77be2687a71ba628909af14ac374f906", "lat": 38.92465583333333, "lon": -77.02711833333333, "rental_uris": {"android": "https://dc.lft.to/lastmile_qr_scan", "ios": "https://dc.lft.to/lastmile_qr_scan"}, "is_disabled": 0, "fusion_lat": 0.0, "name": "77be2687a71ba628909af14ac374f906", "fusion_lon": 0.0}, {"is_reserved": 0, "type": "electric_scooter", "bike_id": "1bd1524b9065f391a439c20dfbf3e499", "lat": 38.90184033333333, "lon": -77.03387783333334, "rental_uris": {"android": "https://dc.lft.to/lastmile_qr_scan", "ios": "https://dc.lft.to/lastmile_qr_scan"}, "is_disabled": 0, "fusion_lat": 0.0, "name": "1bd1524b9065f391a439c20dfbf3e499", "fusion_lon": 0.0}, {"is_reserved": 0, "type": "electric_scooter", "bike_id": "0b425463b2fd71da7a67df2562ea0693", "lat": 38.896427333333335, "lon": -76.99029016666667, "rental_uris": {"android": "https://dc.lft.to/lastmile_qr_scan", "ios": "https://dc.lft.to/lastmile_qr_scan"}, "is_disabled": 0, "fusion_lat": 0.0, "name": "0b425463b2fd71da7a67df2562ea0693", "fusion_lon": 0.0}, {"is_reserved": 0, "type": "electric_scooter", "bike_id": "62cb493fed655aba3c40aba5f4dc5bbb", "lat": 38.883839333333334, "lon": -76.93047416666667, "rental_uris": {"android": "https://dc.lft.to/lastmile_qr_scan", "ios": "https://dc.lft.to/lastmile_qr_scan"}, "is_disabled": 0, "fusion_lat": 0.0, "name": "62cb493fed655aba3c40aba5f4dc5bbb", "fusion_lon": 0.0}, {"is_reserved": 0, "type": "electric_scooter", "bike_id": "113230de2ee7929669865f905b2199ce", "lat": 38.8926605, "lon": -76.92996683333334, "rental_uris": {"android": "https://dc.lft.to/lastmile_qr_scan", "ios": "https://dc.lft.to/lastmile_qr_scan"}, "is_disabled": 0, "fusion_lat": 0.0, "name": "113230de2ee7929669865f905b2199ce", "fusion_lon": 0.0}, {"is_reserved": 0, "type": "electric_scooter", "bike_id": "a56ccb43319e3e72754c67e7d435694d", "lat": 38.879234333333336, "lon": -77.02155266666666, "rental_uris": {"android": "https://dc.lft.to/lastmile_qr_scan", "ios": "https://dc.lft.to/lastmile_qr_scan"}, "is_disabled": 0, "fusion_lat": 0.0, "name": "a56ccb43319e3e72754c67e7d435694d", "fusion_lon": 0.0}, {"is_reserved": 0, "type": "electric_scooter", "bike_id": "26da5aed34eebf91dddf0a6b575515cf", "lat": 38.922899, "lon": -77.034009, "rental_uris": {"android": "https://dc.lft.to/lastmile_qr_scan", "ios": "https://dc.lft.to/lastmile_qr_scan"}, "is_disabled": 0, "fusion_lat": 0.0, "name": "26da5aed34eebf91dddf0a6b575515cf", "fusion_lon": 0.0}, {"is_reserved": 0, "type": "electric_bike", "bike_id": "a7209e6e213e9f31021edd3b30b335c9", "lat": 38.88752616666667, "lon": -76.90081716666667, "rental_uris": {"android": "https://dc.lft.to/lastmile_qr_scan", "ios": "https://dc.lft.to/lastmile_qr_scan"}, "is_disabled": 0, "fusion_lat": 0.0, "name": "a7209e6e213e9f31021edd3b30b335c9", "fusion_lon": 0.0}, {"is_reserved": 0, "type": "electric_bike", "bike_id": "f932682bffd4490bcbe0539ba72645b0", "lat": 38.96678816666667, "lon": -77.02302733333333, "rental_uris": {"android": "https://dc.lft.to/lastmile_qr_scan", "ios": "https://dc.lft.to/lastmile_qr_scan"}, "is_disabled": 0, "fusion_lat": 0.0, "name": "f932682bffd4490bcbe0539ba72645b0", "fusion_lon": 0.0}, {"is_reserved": 0, "type": "electric_scooter", "bike_id": "3b2ed0afc7a1e5aaacaeedc245edc601", "lat": 38.920276, "lon": -76.98546933333333, "rental_uris": {"android": "https://dc.lft.to/lastmile_qr_scan", "ios": "https://dc.lft.to/lastmile_qr_scan"}, "is_disabled": 0, "fusion_lat": 0.0, "name": "3b2ed0afc7a1e5aaacaeedc245edc601", "fusion_lon": 0.0}, {"is_reserved": 0, "type": "electric_scooter", "bike_id": "41cd617e02874156943398405cd591c6", "lat": 38.887715166666666, "lon": -76.9326575, "rental_uris": {"android": "https://dc.lft.to/lastmile_qr_scan", "ios": "https://dc.lft.to/lastmile_qr_scan"}, "is_disabled": 0, "fusion_lat": 0.0, "name": "41cd617e02874156943398405cd591c6", "fusion_lon": 0.0}, {"is_reserved": 0, "type": "electric_scooter", "bike_id": "dd37a4e67f438e761485af206d939638", "lat": 38.90443416666667, "lon": -77.04884066666666, "rental_uris": {"android": "https://dc.lft.to/lastmile_qr_scan", "ios": "https://dc.lft.to/lastmile_qr_scan"}, "is_disabled": 0, "fusion_lat": 0.0, "name": "dd37a4e67f438e761485af206d939638", "fusion_lon": 0.0}, {"is_reserved": 0, "type": "electric_scooter", "bike_id": "71788a2c9161ceaa9adf099c3cf923d1", "lat": 38.9072255, "lon": -77.03955233333333, "rental_uris": {"android": "https://dc.lft.to/lastmile_qr_scan", "ios": "https://dc.lft.to/lastmile_qr_scan"}, "is_disabled": 0, "fusion_lat": 0.0, "name": "71788a2c9161ceaa9adf099c3cf923d1", "fusion_lon": 0.0}, {"is_reserved": 0, "type": "electric_scooter", "bike_id": "a8c073662e095940a8a3909857e5de5d", "lat": 38.8989605, "lon": -76.97606483333334, "rental_uris": {"android": "https://dc.lft.to/lastmile_qr_scan", "ios": "https://dc.lft.to/lastmile_qr_scan"}, "is_disabled": 0, "fusion_lat": 0.0, "name": "a8c073662e095940a8a3909857e5de5d", "fusion_lon": 0.0}, {"is_reserved": 0, "type": "electric_scooter", "bike_id": "2bc5dfaa997f37bcdfc6dcd3dc10a539", "lat": 38.93399816666667, "lon": -77.03274466666667, "rental_uris": {"android": "https://dc.lft.to/lastmile_qr_scan", "ios": "https://dc.lft.to/lastmile_qr_scan"}, "is_disabled": 0, "fusion_lat": 0.0, "name": "2bc5dfaa997f37bcdfc6dcd3dc10a539", "fusion_lon": 0.0}, {"is_reserved": 0, "type": "electric_scooter", "bike_id": "f65e89ed40139c48c6deed53b684af1c", "lat": 38.89529866666667, "lon": -77.04473266666666, "rental_uris": {"android": "https://dc.lft.to/lastmile_qr_scan", "ios": "https://dc.lft.to/lastmile_qr_scan"}, "is_disabled": 0, "fusion_lat": 0.0, "name": "f65e89ed40139c48c6deed53b684af1c", "fusion_lon": 0.0}, {"is_reserved": 0, "type": "electric_scooter", "bike_id": "3321066d58592b54424da5cbd7393e07", "lat": 38.90895883333334, "lon": -77.043973, "rental_uris": {"android": "https://dc.lft.to/lastmile_qr_scan", "ios": "https://dc.lft.to/lastmile_qr_scan"}, "is_disabled": 0, "fusion_lat": 0.0, "name": "3321066d58592b54424da5cbd7393e07", "fusion_lon": 0.0}, {"is_reserved": 0, "type": "electric_scooter", "bike_id": "256ead6c0a9c3c432dd38693471e9f00", "lat": 38.90642916666667, "lon": -76.99379616666667, "rental_uris": {"android": "https://dc.lft.to/lastmile_qr_scan", "ios": "https://dc.lft.to/lastmile_qr_scan"}, "is_disabled": 0, "fusion_lat": 0.0, "name": "256ead6c0a9c3c432dd38693471e9f00", "fusion_lon": 0.0}, {"is_reserved": 0, "type": "electric_bike", "bike_id": "a249add8236cf83dc6facd74508fb167", "lat": 39.08491216666667, "lon": -76.95059466666666, "rental_uris": {"android": "https://dc.lft.to/lastmile_qr_scan", "ios": "https://dc.lft.to/lastmile_qr_scan"}, "is_disabled": 0, "fusion_lat": 0.0, "name": "a249add8236cf83dc6facd74508fb167", "fusion_lon": 0.0}, {"is_reserved": 0, "type": "electric_scooter", "bike_id": "979296c445b88299dcb8eb538d8c9156", "lat": 38.914804, "lon": -77.032351, "rental_uris": {"android": "https://dc.lft.to/lastmile_qr_scan", "ios": "https://dc.lft.to/lastmile_qr_scan"}, "is_disabled": 0, "fusion_lat": 0.0, "name": "979296c445b88299dcb8eb538d8c9156", "fusion_lon": 0.0}, {"is_reserved": 0, "type": "electric_scooter", "bike_id": "f2f99461bc9120ad1429352ddee3bb7e", "lat": 38.92138216666667, "lon": -77.04598883333334, "rental_uris": {"android": "https://dc.lft.to/lastmile_qr_scan", "ios": "https://dc.lft.to/lastmile_qr_scan"}, "is_disabled": 0, "fusion_lat": 0.0, "name": "f2f99461bc9120ad1429352ddee3bb7e", "fusion_lon": 0.0}, {"is_reserved": 0, "type": "electric_scooter", "bike_id": "232acbcf4b82ca7dfd0af098613cdb18", "lat": 38.957488, "lon": -77.0301545, "rental_uris": {"android": "https://dc.lft.to/lastmile_qr_scan", "ios": "https://dc.lft.to/lastmile_qr_scan"}, "is_disabled": 0, "fusion_lat": 0.0, "name": "232acbcf4b82ca7dfd0af098613cdb18", "fusion_lon": 0.0}, {"is_reserved": 0, "type": "electric_scooter", "bike_id": "888572f24b83abb701a6404f2f0bd68b", "lat": 38.916448833333334, "lon": -77.0466755, "rental_uris": {"android": "https://dc.lft.to/lastmile_qr_scan", "ios": "https://dc.lft.to/lastmile_qr_scan"}, "is_disabled": 0, "fusion_lat": 0.0, "name": "888572f24b83abb701a6404f2f0bd68b", "fusion_lon": 0.0}, {"is_reserved": 0, "type": "electric_scooter", "bike_id": "a1583caab3239e9c8a0ea9c813a94eb4", "lat": 38.92046716666667, "lon": -77.01693733333333, "rental_uris": {"android": "https://dc.lft.to/lastmile_qr_scan", "ios": "https://dc.lft.to/lastmile_qr_scan"}, "is_disabled": 0, "fusion_lat": 0.0, "name": "a1583caab3239e9c8a0ea9c813a94eb4", "fusion_lon": 0.0}, {"is_reserved": 0, "type": "electric_bike", "bike_id": "4846c03378e5b273e295033e6137862a", "lat": 38.88540316666667, "lon": -76.998174, "rental_uris": {"android": "https://dc.lft.to/lastmile_qr_scan", "ios": "https://dc.lft.to/lastmile_qr_scan"}, "is_disabled": 0, "fusion_lat": 0.0, "name": "4846c03378e5b273e295033e6137862a", "fusion_lon": 0.0}, {"is_reserved": 0, "type": "electric_scooter", "bike_id": "a9940a4b30feea113449fc3de78723d5", "lat": 38.88363533333333, "lon": -77.02001016666667, "rental_uris": {"android": "https://dc.lft.to/lastmile_qr_scan", "ios": "https://dc.lft.to/lastmile_qr_scan"}, "is_disabled": 0, "fusion_lat": 0.0, "name": "a9940a4b30feea113449fc3de78723d5", "fusion_lon": 0.0}, {"is_reserved": 0, "type": "electric_scooter", "bike_id": "a525af0710fec785783cac312299916c", "lat": 38.95288033333333, "lon": -77.00363133333333, "rental_uris": {"android": "https://dc.lft.to/lastmile_qr_scan", "ios": "https://dc.lft.to/lastmile_qr_scan"}, "is_disabled": 0, "fusion_lat": 0.0, "name": "a525af0710fec785783cac312299916c", "fusion_lon": 0.0}, {"is_reserved": 0, "type": "electric_scooter", "bike_id": "2bfadd12c4c2bd0b802802570e8d56ad", "lat": 38.9172655, "lon": -77.028828, "rental_uris": {"android": "https://dc.lft.to/lastmile_qr_scan", "ios": "https://dc.lft.to/lastmile_qr_scan"}, "is_disabled": 0, "fusion_lat": 0.0, "name": "2bfadd12c4c2bd0b802802570e8d56ad", "fusion_lon": 0.0}, {"is_reserved": 0, "type": "electric_scooter", "bike_id": "a60a323eda74e181792c0b21d60e8a21", "lat": 38.956540833333335, "lon": -77.0131725, "rental_uris": {"android": "https://dc.lft.to/lastmile_qr_scan", "ios": "https://dc.lft.to/lastmile_qr_scan"}, "is_disabled": 0, "fusion_lat": 0.0, "name": "a60a323eda74e181792c0b21d60e8a21", "fusion_lon": 0.0}, {"is_reserved": 0, "type": "electric_scooter", "bike_id": "49b0d97ba53443142f9257f44c60d73c", "lat": 38.90156983333333, "lon": -76.97410216666667, "rental_uris": {"android": "https://dc.lft.to/lastmile_qr_scan", "ios": "https://dc.lft.to/lastmile_qr_scan"}, "is_disabled": 0, "fusion_lat": 0.0, "name": "49b0d97ba53443142f9257f44c60d73c", "fusion_lon": 0.0}, {"is_reserved": 0, "type": "electric_scooter", "bike_id": "bd6ed768e6ef38a15e6585b404a7642a", "lat": 38.87938233333333, "lon": -77.007297, "rental_uris": {"android": "https://dc.lft.to/lastmile_qr_scan", "ios": "https://dc.lft.to/lastmile_qr_scan"}, "is_disabled": 0, "fusion_lat": 0.0, "name": "bd6ed768e6ef38a15e6585b404a7642a", "fusion_lon": 0.0}, {"is_reserved": 0, "type": "electric_scooter", "bike_id": "dc34a9388465479e34a7e2c5c54910f8", "lat": 38.908736166666664, "lon": -77.02356183333333, "rental_uris": {"android": "https://dc.lft.to/lastmile_qr_scan", "ios": "https://dc.lft.to/lastmile_qr_scan"}, "is_disabled": 0, "fusion_lat": 0.0, "name": "dc34a9388465479e34a7e2c5c54910f8", "fusion_lon": 0.0}, {"is_reserved": 0, "type": "electric_scooter", "bike_id": "0ce2a2e941dd9823e4f7103a4dbf21f4", "lat": 38.901944666666665, "lon": -77.02370666666667, "rental_uris": {"android": "https://dc.lft.to/lastmile_qr_scan", "ios": "https://dc.lft.to/lastmile_qr_scan"}, "is_disabled": 0, "fusion_lat": 0.0, "name": "0ce2a2e941dd9823e4f7103a4dbf21f4", "fusion_lon": 0.0}, {"is_reserved": 0, "type": "electric_scooter", "bike_id": "e2b0ab9f9ead2265499b2cb079e8831e", "lat": 38.90268566666667, "lon": -77.03443916666667, "rental_uris": {"android": "https://dc.lft.to/lastmile_qr_scan", "ios": "https://dc.lft.to/lastmile_qr_scan"}, "is_disabled": 0, "fusion_lat": 0.0, "name": "e2b0ab9f9ead2265499b2cb079e8831e", "fusion_lon": 0.0}, {"is_reserved": 0, "type": "electric_scooter", "bike_id": "c9a37eea15156fa608bcedef09c884cc", "lat": 38.918152166666665, "lon": -77.03304416666667, "rental_uris": {"android": "https://dc.lft.to/lastmile_qr_scan", "ios": "https://dc.lft.to/lastmile_qr_scan"}, "is_disabled": 0, "fusion_lat": 0.0, "name": "c9a37eea15156fa608bcedef09c884cc", "fusion_lon": 0.0}, {"is_reserved": 0, "type": "electric_scooter", "bike_id": "e98be2587c6a2b306a65fd00974f4b49", "lat": 38.92257016666667, "lon": -77.04256233333334, "rental_uris": {"android": "https://dc.lft.to/lastmile_qr_scan", "ios": "https://dc.lft.to/lastmile_qr_scan"}, "is_disabled": 0, "fusion_lat": 0.0, "name": "e98be2587c6a2b306a65fd00974f4b49", "fusion_lon": 0.0}, {"is_reserved": 0, "type": "electric_bike", "bike_id": "c316f0cbbc2d293423a1e9735797ee12", "lat": 38.924089333333335, "lon": -77.04046816666667, "rental_uris": {"android": "https://dc.lft.to/lastmile_qr_scan", "ios": "https://dc.lft.to/lastmile_qr_scan"}, "is_disabled": 0, "fusion_lat": 0.0, "name": "c316f0cbbc2d293423a1e9735797ee12", "fusion_lon": 0.0}, {"is_reserved": 0, "type": "electric_scooter", "bike_id": "73545541db7000d25b62a86bd66e452a", "lat": 38.912674833333334, "lon": -77.03174916666667, "rental_uris": {"android": "https://dc.lft.to/lastmile_qr_scan", "ios": "https://dc.lft.to/lastmile_qr_scan"}, "is_disabled": 0, "fusion_lat": 0.0, "name": "73545541db7000d25b62a86bd66e452a", "fusion_lon": 0.0}, {"is_reserved": 0, "type": "electric_scooter", "bike_id": "b7ce118d21abf0feffc725c859f7162d", "lat": 38.91419233333333, "lon": -77.01800666666666, "rental_uris": {"android": "https://dc.lft.to/lastmile_qr_scan", "ios": "https://dc.lft.to/lastmile_qr_scan"}, "is_disabled": 0, "fusion_lat": 0.0, "name": "b7ce118d21abf0feffc725c859f7162d", "fusion_lon": 0.0}, {"is_reserved": 0, "type": "electric_bike", "bike_id": "7bbc219ea86fcb093aba00d5948bdbe9", "lat": 38.898774333333336, "lon": -76.9788595, "rental_uris": {"android": "https://dc.lft.to/lastmile_qr_scan", "ios": "https://dc.lft.to/lastmile_qr_scan"}, "is_disabled": 0, "fusion_lat": 0.0, "name": "7bbc219ea86fcb093aba00d5948bdbe9", "fusion_lon": 0.0}, {"is_reserved": 0, "type": "electric_scooter", "bike_id": "ce23d282ef40ce62051526ab9c5de1fe", "lat": 38.896255, "lon": -77.00209233333334, "rental_uris": {"android": "https://dc.lft.to/lastmile_qr_scan", "ios": "https://dc.lft.to/lastmile_qr_scan"}, "is_disabled": 0, "fusion_lat": 0.0, "name": "ce23d282ef40ce62051526ab9c5de1fe", "fusion_lon": 0.0}, {"is_reserved": 0, "type": "electric_scooter", "bike_id": "27e15e0ca7ab5983cae5cf3686216fab", "lat": 38.91526316666667, "lon": -77.02180716666666, "rental_uris": {"android": "https://dc.lft.to/lastmile_qr_scan", "ios": "https://dc.lft.to/lastmile_qr_scan"}, "is_disabled": 0, "fusion_lat": 0.0, "name": "27e15e0ca7ab5983cae5cf3686216fab", "fusion_lon": 0.0}, {"is_reserved": 0, "type": "electric_scooter", "bike_id": "95581da395be6e61454e313673791ac5", "lat": 38.89846983333333, "lon": -77.02721616666666, "rental_uris": {"android": "https://dc.lft.to/lastmile_qr_scan", "ios": "https://dc.lft.to/lastmile_qr_scan"}, "is_disabled": 0, "fusion_lat": 0.0, "name": "95581da395be6e61454e313673791ac5", "fusion_lon": 0.0}, {"is_reserved": 0, "type": "electric_scooter", "bike_id": "c5a6fe059d9ca00d626df0c95ebeecb2", "lat": 38.90314866666667, "lon": -77.01641133333334, "rental_uris": {"android": "https://dc.lft.to/lastmile_qr_scan", "ios": "https://dc.lft.to/lastmile_qr_scan"}, "is_disabled": 0, "fusion_lat": 0.0, "name": "c5a6fe059d9ca00d626df0c95ebeecb2", "fusion_lon": 0.0}, {"is_reserved": 0, "type": "electric_scooter", "bike_id": "691cd58763029567fed918d29f4793ce", "lat": 38.92802316666667, "lon": -77.036372, "rental_uris": {"android": "https://dc.lft.to/lastmile_qr_scan", "ios": "https://dc.lft.to/lastmile_qr_scan"}, "is_disabled": 0, "fusion_lat": 0.0, "name": "691cd58763029567fed918d29f4793ce", "fusion_lon": 0.0}, {"is_reserved": 0, "type": "electric_scooter", "bike_id": "101e266376e1f6266c12d31618348a8b", "lat": 38.90964983333333, "lon": -77.0144435, "rental_uris": {"android": "https://dc.lft.to/lastmile_qr_scan", "ios": "https://dc.lft.to/lastmile_qr_scan"}, "is_disabled": 0, "fusion_lat": 0.0, "name": "101e266376e1f6266c12d31618348a8b", "fusion_lon": 0.0}, {"is_reserved": 0, "type": "electric_scooter", "bike_id": "a2552277f337b670661218f397889fc6", "lat": 38.907778, "lon": -77.02193716666666, "rental_uris": {"android": "https://dc.lft.to/lastmile_qr_scan", "ios": "https://dc.lft.to/lastmile_qr_scan"}, "is_disabled": 0, "fusion_lat": 0.0, "name": "a2552277f337b670661218f397889fc6", "fusion_lon": 0.0}, {"is_reserved": 0, "type": "electric_scooter", "bike_id": "17264348c134ff4575759e5efc2592c0", "lat": 38.908544666666664, "lon": -76.9998015, "rental_uris": {"android": "https://dc.lft.to/lastmile_qr_scan", "ios": "https://dc.lft.to/lastmile_qr_scan"}, "is_disabled": 0, "fusion_lat": 0.0, "name": "17264348c134ff4575759e5efc2592c0", "fusion_lon": 0.0}, {"is_reserved": 0, "type": "electric_scooter", "bike_id": "a0f4f88c8b10c2b19e6aa5740eefbbaf", "lat": 38.92400766666667, "lon": -76.9514295, "rental_uris": {"android": "https://dc.lft.to/lastmile_qr_scan", "ios": "https://dc.lft.to/lastmile_qr_scan"}, "is_disabled": 0, "fusion_lat": 0.0, "name": "a0f4f88c8b10c2b19e6aa5740eefbbaf", "fusion_lon": 0.0}, {"is_reserved": 0, "type": "electric_bike", "bike_id": "df246613973841ad046599ad932b7488", "lat": 38.87967, "lon": -77.10707933333333, "rental_uris": {"android": "https://dc.lft.to/lastmile_qr_scan", "ios": "https://dc.lft.to/lastmile_qr_scan"}, "is_disabled": 0, "fusion_lat": 0.0, "name": "df246613973841ad046599ad932b7488", "fusion_lon": 0.0}, {"is_reserved": 0, "type": "electric_scooter", "bike_id": "bf049cbfa1cf8eb545b5cedc06acb8a8", "lat": 38.913966333333335, "lon": -77.046779, "rental_uris": {"android": "https://dc.lft.to/lastmile_qr_scan", "ios": "https://dc.lft.to/lastmile_qr_scan"}, "is_disabled": 0, "fusion_lat": 0.0, "name": "bf049cbfa1cf8eb545b5cedc06acb8a8", "fusion_lon": 0.0}, {"is_reserved": 0, "type": "electric_scooter", "bike_id": "8285fea7286ecd62f7b1189bec31a27d", "lat": 38.905719166666664, "lon": -77.042342, "rental_uris": {"android": "https://dc.lft.to/lastmile_qr_scan", "ios": "https://dc.lft.to/lastmile_qr_scan"}, "is_disabled": 0, "fusion_lat": 0.0, "name": "8285fea7286ecd62f7b1189bec31a27d", "fusion_lon": 0.0}, {"is_reserved": 0, "type": "electric_scooter", "bike_id": "ecb36524577eadf75991bc95a321d5a6", "lat": 38.916818166666665, "lon": -77.02975666666667, "rental_uris": {"android": "https://dc.lft.to/lastmile_qr_scan", "ios": "https://dc.lft.to/lastmile_qr_scan"}, "is_disabled": 0, "fusion_lat": 0.0, "name": "ecb36524577eadf75991bc95a321d5a6", "fusion_lon": 0.0}, {"is_reserved": 0, "type": "electric_scooter", "bike_id": "701ef132af1e2dd371bddfa3c71058eb", "lat": 38.917153, "lon": -77.02966016666667, "rental_uris": {"android": "https://dc.lft.to/lastmile_qr_scan", "ios": "https://dc.lft.to/lastmile_qr_scan"}, "is_disabled": 0, "fusion_lat": 0.0, "name": "701ef132af1e2dd371bddfa3c71058eb", "fusion_lon": 0.0}, {"is_reserved": 0, "type": "electric_scooter", "bike_id": "c2fb0d3ee086d4eef2e7833d365f2c2f", "lat": 38.91351616666667, "lon": -77.03203316666666, "rental_uris": {"android": "https://dc.lft.to/lastmile_qr_scan", "ios": "https://dc.lft.to/lastmile_qr_scan"}, "is_disabled": 0, "fusion_lat": 0.0, "name": "c2fb0d3ee086d4eef2e7833d365f2c2f", "fusion_lon": 0.0}, {"is_reserved": 0, "type": "electric_bike", "bike_id": "165e67dc5d333fa6595fb97c54175e26", "lat": 38.9921745, "lon": -77.032169, "rental_uris": {"android": "https://dc.lft.to/lastmile_qr_scan", "ios": "https://dc.lft.to/lastmile_qr_scan"}, "is_disabled": 0, "fusion_lat": 0.0, "name": "165e67dc5d333fa6595fb97c54175e26", "fusion_lon": 0.0}, {"is_reserved": 0, "type": "electric_bike", "bike_id": "d77235fdfb4971e0257cdd127253d4b0", "lat": 38.9620415, "lon": -77.07401816666666, "rental_uris": {"android": "https://dc.lft.to/lastmile_qr_scan", "ios": "https://dc.lft.to/lastmile_qr_scan"}, "is_disabled": 0, "fusion_lat": 0.0, "name": "d77235fdfb4971e0257cdd127253d4b0", "fusion_lon": 0.0}, {"is_reserved": 0, "type": "electric_scooter", "bike_id": "154ccd285a3702d13aca82d62459d1f4", "lat": 38.90007266666667, "lon": -77.03115583333333, "rental_uris": {"android": "https://dc.lft.to/lastmile_qr_scan", "ios": "https://dc.lft.to/lastmile_qr_scan"}, "is_disabled": 0, "fusion_lat": 0.0, "name": "154ccd285a3702d13aca82d62459d1f4", "fusion_lon": 0.0}, {"is_reserved": 0, "type": "electric_scooter", "bike_id": "a28758532dfbc347375bb1013826a90b", "lat": 38.95466483333333, "lon": -77.07772466666667, "rental_uris": {"android": "https://dc.lft.to/lastmile_qr_scan", "ios": "https://dc.lft.to/lastmile_qr_scan"}, "is_disabled": 0, "fusion_lat": 0.0, "name": "a28758532dfbc347375bb1013826a90b", "fusion_lon": 0.0}, {"is_reserved": 0, "type": "electric_scooter", "bike_id": "d61f7c7f39cfa1378e777c2224234d9b", "lat": 38.874913166666666, "lon": -76.99974083333333, "rental_uris": {"android": "https://dc.lft.to/lastmile_qr_scan", "ios": "https://dc.lft.to/lastmile_qr_scan"}, "is_disabled": 0, "fusion_lat": 0.0, "name": "d61f7c7f39cfa1378e777c2224234d9b", "fusion_lon": 0.0}, {"is_reserved": 0, "type": "electric_scooter", "bike_id": "9a8c0269c708fc7e6abb80505f911534", "lat": 38.90648316666667, "lon": -77.05344433333333, "rental_uris": {"android": "https://dc.lft.to/lastmile_qr_scan", "ios": "https://dc.lft.to/lastmile_qr_scan"}, "is_disabled": 0, "fusion_lat": 0.0, "name": "9a8c0269c708fc7e6abb80505f911534", "fusion_lon": 0.0}, {"is_reserved": 0, "type": "electric_scooter", "bike_id": "83adc24010784e00044e42fa6627a838", "lat": 38.88105733333333, "lon": -77.02636216666667, "rental_uris": {"android": "https://dc.lft.to/lastmile_qr_scan", "ios": "https://dc.lft.to/lastmile_qr_scan"}, "is_disabled": 0, "fusion_lat": 0.0, "name": "83adc24010784e00044e42fa6627a838", "fusion_lon": 0.0}, {"is_reserved": 0, "type": "electric_scooter", "bike_id": "370ccf818fc18ab6b42cf79b8d39a118", "lat": 38.9097655, "lon": -77.03183516666667, "rental_uris": {"android": "https://dc.lft.to/lastmile_qr_scan", "ios": "https://dc.lft.to/lastmile_qr_scan"}, "is_disabled": 0, "fusion_lat": 0.0, "name": "370ccf818fc18ab6b42cf79b8d39a118", "fusion_lon": 0.0}, {"is_reserved": 0, "type": "electric_scooter", "bike_id": "708731fb7360cdb1ce42f77b73128f64", "lat": 38.91706766666667, "lon": -77.0399145, "rental_uris": {"android": "https://dc.lft.to/lastmile_qr_scan", "ios": "https://dc.lft.to/lastmile_qr_scan"}, "is_disabled": 0, "fusion_lat": 0.0, "name": "708731fb7360cdb1ce42f77b73128f64", "fusion_lon": 0.0}, {"is_reserved": 0, "type": "electric_bike", "bike_id": "7ac21f40093562177b24a12e9b975847", "lat": 38.99998383333333, "lon": -76.91801616666666, "rental_uris": {"android": "https://dc.lft.to/lastmile_qr_scan", "ios": "https://dc.lft.to/lastmile_qr_scan"}, "is_disabled": 0, "fusion_lat": 0.0, "name": "7ac21f40093562177b24a12e9b975847", "fusion_lon": 0.0}, {"is_reserved": 0, "type": "electric_scooter", "bike_id": "d50cb5e57036580a571425b545b66625", "lat": 38.924672666666666, "lon": -77.0214945, "rental_uris": {"android": "https://dc.lft.to/lastmile_qr_scan", "ios": "https://dc.lft.to/lastmile_qr_scan"}, "is_disabled": 0, "fusion_lat": 0.0, "name": "d50cb5e57036580a571425b545b66625", "fusion_lon": 0.0}, {"is_reserved": 0, "type": "electric_scooter", "bike_id": "b155c25c4dc249594fea8a140687acb6", "lat": 38.92437416666667, "lon": -76.996767, "rental_uris": {"android": "https://dc.lft.to/lastmile_qr_scan", "ios": "https://dc.lft.to/lastmile_qr_scan"}, "is_disabled": 0, "fusion_lat": 0.0, "name": "b155c25c4dc249594fea8a140687acb6", "fusion_lon": 0.0}, {"is_reserved": 0, "type": "electric_bike", "bike_id": "ac5bab41a8a7d2cde70e0e699fd13bec", "lat": 39.0109545, "lon": -77.04958516666666, "rental_uris": {"android": "https://dc.lft.to/lastmile_qr_scan", "ios": "https://dc.lft.to/lastmile_qr_scan"}, "is_disabled": 0, "fusion_lat": 0.0, "name": "ac5bab41a8a7d2cde70e0e699fd13bec", "fusion_lon": 0.0}, {"is_reserved": 0, "type": "electric_scooter", "bike_id": "bce91e52b09c3ef9683d59147d7a9def", "lat": 38.8995825, "lon": -77.01599816666666, "rental_uris": {"android": "https://dc.lft.to/lastmile_qr_scan", "ios": "https://dc.lft.to/lastmile_qr_scan"}, "is_disabled": 0, "fusion_lat": 0.0, "name": "bce91e52b09c3ef9683d59147d7a9def", "fusion_lon": 0.0}, {"is_reserved": 0, "type": "electric_bike", "bike_id": "dad30e3da3a5b2ffc4383ee272530342", "lat": 38.921144166666664, "lon": -76.98881466666667, "rental_uris": {"android": "https://dc.lft.to/lastmile_qr_scan", "ios": "https://dc.lft.to/lastmile_qr_scan"}, "is_disabled": 0, "fusion_lat": 0.0, "name": "dad30e3da3a5b2ffc4383ee272530342", "fusion_lon": 0.0}, {"is_reserved": 0, "type": "electric_scooter", "bike_id": "214c217b260efbc1f1e457d9419f1a3e", "lat": 38.90789766666666, "lon": -77.01070516666667, "rental_uris": {"android": "https://dc.lft.to/lastmile_qr_scan", "ios": "https://dc.lft.to/lastmile_qr_scan"}, "is_disabled": 0, "fusion_lat": 0.0, "name": "214c217b260efbc1f1e457d9419f1a3e", "fusion_lon": 0.0}, {"is_reserved": 0, "type": "electric_bike", "bike_id": "f2cfee5ed6d324afbf8e7790454690cd", "lat": 38.8578595, "lon": -76.98761916666666, "rental_uris": {"android": "https://dc.lft.to/lastmile_qr_scan", "ios": "https://dc.lft.to/lastmile_qr_scan"}, "is_disabled": 0, "fusion_lat": 0.0, "name": "f2cfee5ed6d324afbf8e7790454690cd", "fusion_lon": 0.0}, {"is_reserved": 0, "type": "electric_scooter", "bike_id": "b6ce2f3307714257e38745a8d9ba53c4", "lat": 38.92552933333333, "lon": -76.98151883333334, "rental_uris": {"android": "https://dc.lft.to/lastmile_qr_scan", "ios": "https://dc.lft.to/lastmile_qr_scan"}, "is_disabled": 0, "fusion_lat": 0.0, "name": "b6ce2f3307714257e38745a8d9ba53c4", "fusion_lon": 0.0}, {"is_reserved": 0, "type": "electric_scooter", "bike_id": "16e617b1d051762d1b6d352cd303d258", "lat": 38.93378533333333, "lon": -77.0203345, "rental_uris": {"android": "https://dc.lft.to/lastmile_qr_scan", "ios": "https://dc.lft.to/lastmile_qr_scan"}, "is_disabled": 0, "fusion_lat": 0.0, "name": "16e617b1d051762d1b6d352cd303d258", "fusion_lon": 0.0}, {"is_reserved": 0, "type": "electric_scooter", "bike_id": "b0e8e56a84cc6dcbb3a5063f6c4c63ba", "lat": 38.91180883333333, "lon": -77.0026725, "rental_uris": {"android": "https://dc.lft.to/lastmile_qr_scan", "ios": "https://dc.lft.to/lastmile_qr_scan"}, "is_disabled": 0, "fusion_lat": 0.0, "name": "b0e8e56a84cc6dcbb3a5063f6c4c63ba", "fusion_lon": 0.0}, {"is_reserved": 0, "type": "electric_scooter", "bike_id": "52b2438bc4a8f658db9dfdf7823cda6e", "lat": 38.916942166666665, "lon": -77.05296316666667, "rental_uris": {"android": "https://dc.lft.to/lastmile_qr_scan", "ios": "https://dc.lft.to/lastmile_qr_scan"}, "is_disabled": 0, "fusion_lat": 0.0, "name": "52b2438bc4a8f658db9dfdf7823cda6e", "fusion_lon": 0.0}, {"is_reserved": 0, "type": "electric_scooter", "bike_id": "58e7256ba3ec71978408a569a1490205", "lat": 38.87292716666666, "lon": -77.009874, "rental_uris": {"android": "https://dc.lft.to/lastmile_qr_scan", "ios": "https://dc.lft.to/lastmile_qr_scan"}, "is_disabled": 0, "fusion_lat": 0.0, "name": "58e7256ba3ec71978408a569a1490205", "fusion_lon": 0.0}, {"is_reserved": 0, "type": "electric_scooter", "bike_id": "5c85614dd72f791983786eaaa81af3eb", "lat": 38.90768166666667, "lon": -77.03421733333333, "rental_uris": {"android": "https://dc.lft.to/lastmile_qr_scan", "ios": "https://dc.lft.to/lastmile_qr_scan"}, "is_disabled": 0, "fusion_lat": 0.0, "name": "5c85614dd72f791983786eaaa81af3eb", "fusion_lon": 0.0}, {"is_reserved": 0, "type": "electric_scooter", "bike_id": "86fd9b2433297973fcb65b7a3584c930", "lat": 38.897214, "lon": -77.02724983333333, "rental_uris": {"android": "https://dc.lft.to/lastmile_qr_scan", "ios": "https://dc.lft.to/lastmile_qr_scan"}, "is_disabled": 0, "fusion_lat": 0.0, "name": "86fd9b2433297973fcb65b7a3584c930", "fusion_lon": 0.0}, {"is_reserved": 0, "type": "electric_scooter", "bike_id": "784195b01546495fae146169a90d194e", "lat": 38.90369283333333, "lon": -77.01851116666667, "rental_uris": {"android": "https://dc.lft.to/lastmile_qr_scan", "ios": "https://dc.lft.to/lastmile_qr_scan"}, "is_disabled": 0, "fusion_lat": 0.0, "name": "784195b01546495fae146169a90d194e", "fusion_lon": 0.0}, {"is_reserved": 0, "type": "electric_scooter", "bike_id": "1c9e40a4337074ebe3828fff909f394e", "lat": 38.927860833333334, "lon": -77.03082366666666, "rental_uris": {"android": "https://dc.lft.to/lastmile_qr_scan", "ios": "https://dc.lft.to/lastmile_qr_scan"}, "is_disabled": 0, "fusion_lat": 0.0, "name": "1c9e40a4337074ebe3828fff909f394e", "fusion_lon": 0.0}, {"is_reserved": 0, "type": "electric_scooter", "bike_id": "1754d8f6d5dbd6b2e45bd5d9310945e7", "lat": 38.90442083333333, "lon": -77.06269, "rental_uris": {"android": "https://dc.lft.to/lastmile_qr_scan", "ios": "https://dc.lft.to/lastmile_qr_scan"}, "is_disabled": 0, "fusion_lat": 0.0, "name": "1754d8f6d5dbd6b2e45bd5d9310945e7", "fusion_lon": 0.0}, {"is_reserved": 0, "type": "electric_scooter", "bike_id": "c4e3fd45252cc1cef6c095bc53ec00f9", "lat": 38.92748116666667, "lon": -77.021088, "rental_uris": {"android": "https://dc.lft.to/lastmile_qr_scan", "ios": "https://dc.lft.to/lastmile_qr_scan"}, "is_disabled": 0, "fusion_lat": 0.0, "name": "c4e3fd45252cc1cef6c095bc53ec00f9", "fusion_lon": 0.0}, {"is_reserved": 0, "type": "electric_scooter", "bike_id": "c5c755a6d5ac25379796f08b746ff7c2", "lat": 38.904113333333335, "lon": -76.99067966666667, "rental_uris": {"android": "https://dc.lft.to/lastmile_qr_scan", "ios": "https://dc.lft.to/lastmile_qr_scan"}, "is_disabled": 0, "fusion_lat": 0.0, "name": "c5c755a6d5ac25379796f08b746ff7c2", "fusion_lon": 0.0}, {"is_reserved": 0, "type": "electric_scooter", "bike_id": "b8bcc8dff9e91f6ad53fa718906005d4", "lat": 38.91403666666667, "lon": -77.04682866666667, "rental_uris": {"android": "https://dc.lft.to/lastmile_qr_scan", "ios": "https://dc.lft.to/lastmile_qr_scan"}, "is_disabled": 0, "fusion_lat": 0.0, "name": "b8bcc8dff9e91f6ad53fa718906005d4", "fusion_lon": 0.0}, {"is_reserved": 0, "type": "electric_bike", "bike_id": "a2e89a58fb97a1ea98d10bafdb0da3aa", "lat": 38.989245833333335, "lon": -77.0254175, "rental_uris": {"android": "https://dc.lft.to/lastmile_qr_scan", "ios": "https://dc.lft.to/lastmile_qr_scan"}, "is_disabled": 0, "fusion_lat": 0.0, "name": "a2e89a58fb97a1ea98d10bafdb0da3aa", "fusion_lon": 0.0}, {"is_reserved": 0, "type": "electric_scooter", "bike_id": "e1013a173009a38a06e18551108b5ec9", "lat": 38.92373, "lon": -77.00215683333333, "rental_uris": {"android": "https://dc.lft.to/lastmile_qr_scan", "ios": "https://dc.lft.to/lastmile_qr_scan"}, "is_disabled": 0, "fusion_lat": 0.0, "name": "e1013a173009a38a06e18551108b5ec9", "fusion_lon": 0.0}, {"is_reserved": 0, "type": "electric_scooter", "bike_id": "e2543529ef10cc8b0cc82c257dc9609b", "lat": 38.8997765, "lon": -77.02300583333333, "rental_uris": {"android": "https://dc.lft.to/lastmile_qr_scan", "ios": "https://dc.lft.to/lastmile_qr_scan"}, "is_disabled": 0, "fusion_lat": 0.0, "name": "e2543529ef10cc8b0cc82c257dc9609b", "fusion_lon": 0.0}, {"is_reserved": 0, "type": "electric_scooter", "bike_id": "03164580a932ca58dc2c21dfbd05734b", "lat": 38.9347085, "lon": -77.04163466666667, "rental_uris": {"android": "https://dc.lft.to/lastmile_qr_scan", "ios": "https://dc.lft.to/lastmile_qr_scan"}, "is_disabled": 0, "fusion_lat": 0.0, "name": "03164580a932ca58dc2c21dfbd05734b", "fusion_lon": 0.0}, {"is_reserved": 0, "type": "electric_scooter", "bike_id": "de3c937d3e5fb0797f6ce5f6e99aa000", "lat": 38.95823733333334, "lon": -77.07646883333334, "rental_uris": {"android": "https://dc.lft.to/lastmile_qr_scan", "ios": "https://dc.lft.to/lastmile_qr_scan"}, "is_disabled": 0, "fusion_lat": 0.0, "name": "de3c937d3e5fb0797f6ce5f6e99aa000", "fusion_lon": 0.0}, {"is_reserved": 0, "type": "electric_bike", "bike_id": "4e9f4dc288279a9a14f561fcecae3126", "lat": 38.898545666666664, "lon": -77.11868583333333, "rental_uris": {"android": "https://dc.lft.to/lastmile_qr_scan", "ios": "https://dc.lft.to/lastmile_qr_scan"}, "is_disabled": 0, "fusion_lat": 0.0, "name": "4e9f4dc288279a9a14f561fcecae3126", "fusion_lon": 0.0}, {"is_reserved": 0, "type": "electric_scooter", "bike_id": "a3bfa34db490db9fa29180d5f4605db0", "lat": 38.916869, "lon": -77.0252775, "rental_uris": {"android": "https://dc.lft.to/lastmile_qr_scan", "ios": "https://dc.lft.to/lastmile_qr_scan"}, "is_disabled": 0, "fusion_lat": 0.0, "name": "a3bfa34db490db9fa29180d5f4605db0", "fusion_lon": 0.0}, {"is_reserved": 0, "type": "electric_scooter", "bike_id": "53a8433ac9bd66af6b0643da804fe20c", "lat": 38.91419416666667, "lon": -77.03259216666666, "rental_uris": {"android": "https://dc.lft.to/lastmile_qr_scan", "ios": "https://dc.lft.to/lastmile_qr_scan"}, "is_disabled": 0, "fusion_lat": 0.0, "name": "53a8433ac9bd66af6b0643da804fe20c", "fusion_lon": 0.0}, {"is_reserved": 0, "type": "electric_scooter", "bike_id": "d65826f720e838882a039f4190acfdb1", "lat": 38.904890333333334, "lon": -77.01698533333334, "rental_uris": {"android": "https://dc.lft.to/lastmile_qr_scan", "ios": "https://dc.lft.to/lastmile_qr_scan"}, "is_disabled": 0, "fusion_lat": 0.0, "name": "d65826f720e838882a039f4190acfdb1", "fusion_lon": 0.0}, {"is_reserved": 0, "type": "electric_scooter", "bike_id": "ead57be55396a751a8dfd734f25bba1d", "lat": 38.86264766666667, "lon": -76.98194033333333, "rental_uris": {"android": "https://dc.lft.to/lastmile_qr_scan", "ios": "https://dc.lft.to/lastmile_qr_scan"}, "is_disabled": 0, "fusion_lat": 0.0, "name": "ead57be55396a751a8dfd734f25bba1d", "fusion_lon": 0.0}, {"is_reserved": 0, "type": "electric_scooter", "bike_id": "d9a43bfc1f19e77b31206be22e7b5c18", "lat": 38.928712, "lon": -77.03727133333334, "rental_uris": {"android": "https://dc.lft.to/lastmile_qr_scan", "ios": "https://dc.lft.to/lastmile_qr_scan"}, "is_disabled": 0, "fusion_lat": 0.0, "name": "d9a43bfc1f19e77b31206be22e7b5c18", "fusion_lon": 0.0}, {"is_reserved": 0, "type": "electric_scooter", "bike_id": "727e9a88fc7b8e71a3599c283adbd6ee", "lat": 38.989892166666664, "lon": -77.03363883333333, "rental_uris": {"android": "https://dc.lft.to/lastmile_qr_scan", "ios": "https://dc.lft.to/lastmile_qr_scan"}, "is_disabled": 0, "fusion_lat": 0.0, "name": "727e9a88fc7b8e71a3599c283adbd6ee", "fusion_lon": 0.0}, {"is_reserved": 0, "type": "electric_scooter", "bike_id": "674997ff1af141b639643ce5721f847f", "lat": 38.906340666666665, "lon": -77.02501133333334, "rental_uris": {"android": "https://dc.lft.to/lastmile_qr_scan", "ios": "https://dc.lft.to/lastmile_qr_scan"}, "is_disabled": 0, "fusion_lat": 0.0, "name": "674997ff1af141b639643ce5721f847f", "fusion_lon": 0.0}, {"is_reserved": 0, "type": "electric_scooter", "bike_id": "fef835015fa7b58c2fc1f2a205c1a389", "lat": 38.8990795, "lon": -76.93369133333333, "rental_uris": {"android": "https://dc.lft.to/lastmile_qr_scan", "ios": "https://dc.lft.to/lastmile_qr_scan"}, "is_disabled": 0, "fusion_lat": 0.0, "name": "fef835015fa7b58c2fc1f2a205c1a389", "fusion_lon": 0.0}, {"is_reserved": 0, "type": "electric_scooter", "bike_id": "b92be798d6d6ea137fa426b92b5043d4", "lat": 38.8860635, "lon": -77.0034075, "rental_uris": {"android": "https://dc.lft.to/lastmile_qr_scan", "ios": "https://dc.lft.to/lastmile_qr_scan"}, "is_disabled": 0, "fusion_lat": 0.0, "name": "b92be798d6d6ea137fa426b92b5043d4", "fusion_lon": 0.0}, {"is_reserved": 0, "type": "electric_scooter", "bike_id": "26da2365b3ee10cd57c0fc60b55491c8", "lat": 38.9055855, "lon": -77.01717366666666, "rental_uris": {"android": "https://dc.lft.to/lastmile_qr_scan", "ios": "https://dc.lft.to/lastmile_qr_scan"}, "is_disabled": 0, "fusion_lat": 0.0, "name": "26da2365b3ee10cd57c0fc60b55491c8", "fusion_lon": 0.0}, {"is_reserved": 0, "type": "electric_scooter", "bike_id": "4e03d8b34277018cb774400220505720", "lat": 38.926470333333334, "lon": -77.025095, "rental_uris": {"android": "https://dc.lft.to/lastmile_qr_scan", "ios": "https://dc.lft.to/lastmile_qr_scan"}, "is_disabled": 0, "fusion_lat": 0.0, "name": "4e03d8b34277018cb774400220505720", "fusion_lon": 0.0}, {"is_reserved": 0, "type": "electric_scooter", "bike_id": "6e8255ad06a96cce63e91cb1bdeeda6e", "lat": 38.88354316666667, "lon": -77.0262655, "rental_uris": {"android": "https://dc.lft.to/lastmile_qr_scan", "ios": "https://dc.lft.to/lastmile_qr_scan"}, "is_disabled": 0, "fusion_lat": 0.0, "name": "6e8255ad06a96cce63e91cb1bdeeda6e", "fusion_lon": 0.0}, {"is_reserved": 0, "type": "electric_scooter", "bike_id": "087bde902ffbd7e023abd0635db9e899", "lat": 38.89880633333333, "lon": -76.98837483333334, "rental_uris": {"android": "https://dc.lft.to/lastmile_qr_scan", "ios": "https://dc.lft.to/lastmile_qr_scan"}, "is_disabled": 0, "fusion_lat": 0.0, "name": "087bde902ffbd7e023abd0635db9e899", "fusion_lon": 0.0}, {"is_reserved": 0, "type": "electric_scooter", "bike_id": "271c0de732643a721a08a64ae9ee3342", "lat": 38.89776166666667, "lon": -76.9927155, "rental_uris": {"android": "https://dc.lft.to/lastmile_qr_scan", "ios": "https://dc.lft.to/lastmile_qr_scan"}, "is_disabled": 0, "fusion_lat": 0.0, "name": "271c0de732643a721a08a64ae9ee3342", "fusion_lon": 0.0}, {"is_reserved": 0, "type": "electric_bike", "bike_id": "011364401969df4f8e600cd003cfa811", "lat": 38.981345, "lon": -77.0076785, "rental_uris": {"android": "https://dc.lft.to/lastmile_qr_scan", "ios": "https://dc.lft.to/lastmile_qr_scan"}, "is_disabled": 0, "fusion_lat": 0.0, "name": "011364401969df4f8e600cd003cfa811", "fusion_lon": 0.0}, {"is_reserved": 0, "type": "electric_scooter", "bike_id": "aada0fc8d2c49a51563db5c2637a6900", "lat": 38.9349745, "lon": -77.044568, "rental_uris": {"android": "https://dc.lft.to/lastmile_qr_scan", "ios": "https://dc.lft.to/lastmile_qr_scan"}, "is_disabled": 0, "fusion_lat": 0.0, "name": "aada0fc8d2c49a51563db5c2637a6900", "fusion_lon": 0.0}, {"is_reserved": 0, "type": "electric_scooter", "bike_id": "54fd67f04b31638247e7a353c470da90", "lat": 38.92552033333333, "lon": -77.05319066666667, "rental_uris": {"android": "https://dc.lft.to/lastmile_qr_scan", "ios": "https://dc.lft.to/lastmile_qr_scan"}, "is_disabled": 0, "fusion_lat": 0.0, "name": "54fd67f04b31638247e7a353c470da90", "fusion_lon": 0.0}, {"is_reserved": 0, "type": "electric_scooter", "bike_id": "0ca7b4d38158f04717866629063b04a1", "lat": 38.898863, "lon": -76.9317905, "rental_uris": {"android": "https://dc.lft.to/lastmile_qr_scan", "ios": "https://dc.lft.to/lastmile_qr_scan"}, "is_disabled": 0, "fusion_lat": 0.0, "name": "0ca7b4d38158f04717866629063b04a1", "fusion_lon": 0.0}, {"is_reserved": 0, "type": "electric_scooter", "bike_id": "fe853ce7b542ccea5551b01a403cb03a", "lat": 38.913767666666665, "lon": -77.046003, "rental_uris": {"android": "https://dc.lft.to/lastmile_qr_scan", "ios": "https://dc.lft.to/lastmile_qr_scan"}, "is_disabled": 0, "fusion_lat": 0.0, "name": "fe853ce7b542ccea5551b01a403cb03a", "fusion_lon": 0.0}, {"is_reserved": 0, "type": "electric_scooter", "bike_id": "5ea4b5aee7cdc68968a93648ed0d4ddb", "lat": 38.91333516666667, "lon": -77.03195366666667, "rental_uris": {"android": "https://dc.lft.to/lastmile_qr_scan", "ios": "https://dc.lft.to/lastmile_qr_scan"}, "is_disabled": 0, "fusion_lat": 0.0, "name": "5ea4b5aee7cdc68968a93648ed0d4ddb", "fusion_lon": 0.0}, {"is_reserved": 0, "type": "electric_scooter", "bike_id": "b7c25f05815b30caa6a00fb4f05ad254", "lat": 38.917116, "lon": -77.0298855, "rental_uris": {"android": "https://dc.lft.to/lastmile_qr_scan", "ios": "https://dc.lft.to/lastmile_qr_scan"}, "is_disabled": 0, "fusion_lat": 0.0, "name": "b7c25f05815b30caa6a00fb4f05ad254", "fusion_lon": 0.0}, {"is_reserved": 0, "type": "electric_scooter", "bike_id": "079527a49bb4cd61ba4f189403352231", "lat": 38.9000805, "lon": -77.04657183333333, "rental_uris": {"android": "https://dc.lft.to/lastmile_qr_scan", "ios": "https://dc.lft.to/lastmile_qr_scan"}, "is_disabled": 0, "fusion_lat": 0.0, "name": "079527a49bb4cd61ba4f189403352231", "fusion_lon": 0.0}, {"is_reserved": 0, "type": "electric_scooter", "bike_id": "ce263ec5b771fdf97b816b3ebe1d2069", "lat": 38.883825333333334, "lon": -76.99355716666666, "rental_uris": {"android": "https://dc.lft.to/lastmile_qr_scan", "ios": "https://dc.lft.to/lastmile_qr_scan"}, "is_disabled": 0, "fusion_lat": 0.0, "name": "ce263ec5b771fdf97b816b3ebe1d2069", "fusion_lon": 0.0}, {"is_reserved": 0, "type": "electric_scooter", "bike_id": "395d4ab96a6a971bc09c525e90ab8d8e", "lat": 38.8996595, "lon": -76.93850783333333, "rental_uris": {"android": "https://dc.lft.to/lastmile_qr_scan", "ios": "https://dc.lft.to/lastmile_qr_scan"}, "is_disabled": 0, "fusion_lat": 0.0, "name": "395d4ab96a6a971bc09c525e90ab8d8e", "fusion_lon": 0.0}, {"is_reserved": 0, "type": "electric_scooter", "bike_id": "b08f1d9d9f3487bf3ee50b00b0cfb824", "lat": 38.883724666666666, "lon": -76.92420533333333, "rental_uris": {"android": "https://dc.lft.to/lastmile_qr_scan", "ios": "https://dc.lft.to/lastmile_qr_scan"}, "is_disabled": 0, "fusion_lat": 0.0, "name": "b08f1d9d9f3487bf3ee50b00b0cfb824", "fusion_lon": 0.0}, {"is_reserved": 0, "type": "electric_scooter", "bike_id": "2c27d383579da896173519d208cb03b5", "lat": 38.922605833333336, "lon": -77.04697133333333, "rental_uris": {"android": "https://dc.lft.to/lastmile_qr_scan", "ios": "https://dc.lft.to/lastmile_qr_scan"}, "is_disabled": 0, "fusion_lat": 0.0, "name": "2c27d383579da896173519d208cb03b5", "fusion_lon": 0.0}, {"is_reserved": 0, "type": "electric_scooter", "bike_id": "eb915700d70b335910bba85fc45b291c", "lat": 38.927201333333336, "lon": -77.02299816666667, "rental_uris": {"android": "https://dc.lft.to/lastmile_qr_scan", "ios": "https://dc.lft.to/lastmile_qr_scan"}, "is_disabled": 0, "fusion_lat": 0.0, "name": "eb915700d70b335910bba85fc45b291c", "fusion_lon": 0.0}, {"is_reserved": 0, "type": "electric_scooter", "bike_id": "746712935e8b389330b93ce13c312fb3", "lat": 38.92487283333333, "lon": -77.02133716666667, "rental_uris": {"android": "https://dc.lft.to/lastmile_qr_scan", "ios": "https://dc.lft.to/lastmile_qr_scan"}, "is_disabled": 0, "fusion_lat": 0.0, "name": "746712935e8b389330b93ce13c312fb3", "fusion_lon": 0.0}, {"is_reserved": 0, "type": "electric_scooter", "bike_id": "6196b60b19544efb299719aed7a015f8", "lat": 38.926792, "lon": -77.03111933333334, "rental_uris": {"android": "https://dc.lft.to/lastmile_qr_scan", "ios": "https://dc.lft.to/lastmile_qr_scan"}, "is_disabled": 0, "fusion_lat": 0.0, "name": "6196b60b19544efb299719aed7a015f8", "fusion_lon": 0.0}, {"is_reserved": 0, "type": "electric_scooter", "bike_id": "62de4d42d49185fe325d07a4e85b64d3", "lat": 38.8984445, "lon": -77.03940916666667, "rental_uris": {"android": "https://dc.lft.to/lastmile_qr_scan", "ios": "https://dc.lft.to/lastmile_qr_scan"}, "is_disabled": 0, "fusion_lat": 0.0, "name": "62de4d42d49185fe325d07a4e85b64d3", "fusion_lon": 0.0}, {"is_reserved": 0, "type": "electric_scooter", "bike_id": "5eaf6d8e799cf9c130ab62d268eb61f0", "lat": 38.90518083333333, "lon": -77.06614, "rental_uris": {"android": "https://dc.lft.to/lastmile_qr_scan", "ios": "https://dc.lft.to/lastmile_qr_scan"}, "is_disabled": 0, "fusion_lat": 0.0, "name": "5eaf6d8e799cf9c130ab62d268eb61f0", "fusion_lon": 0.0}, {"is_reserved": 0, "type": "electric_scooter", "bike_id": "d59b90408a4ab9c36855696be775e310", "lat": 38.92959366666667, "lon": -77.04124366666667, "rental_uris": {"android": "https://dc.lft.to/lastmile_qr_scan", "ios": "https://dc.lft.to/lastmile_qr_scan"}, "is_disabled": 0, "fusion_lat": 0.0, "name": "d59b90408a4ab9c36855696be775e310", "fusion_lon": 0.0}, {"is_reserved": 0, "type": "electric_scooter", "bike_id": "0504a4e0727bb5896ae50d0b259444dc", "lat": 38.91712616666667, "lon": -77.02971016666666, "rental_uris": {"android": "https://dc.lft.to/lastmile_qr_scan", "ios": "https://dc.lft.to/lastmile_qr_scan"}, "is_disabled": 0, "fusion_lat": 0.0, "name": "0504a4e0727bb5896ae50d0b259444dc", "fusion_lon": 0.0}, {"is_reserved": 0, "type": "electric_scooter", "bike_id": "c1145823808a4db5051edbd4f1472cc8", "lat": 38.91239083333333, "lon": -77.031976, "rental_uris": {"android": "https://dc.lft.to/lastmile_qr_scan", "ios": "https://dc.lft.to/lastmile_qr_scan"}, "is_disabled": 0, "fusion_lat": 0.0, "name": "c1145823808a4db5051edbd4f1472cc8", "fusion_lon": 0.0}, {"is_reserved": 0, "type": "electric_scooter", "bike_id": "6d0c347f30706cc7c3b4fdcf432577c5", "lat": 38.922098, "lon": -77.02654233333334, "rental_uris": {"android": "https://dc.lft.to/lastmile_qr_scan", "ios": "https://dc.lft.to/lastmile_qr_scan"}, "is_disabled": 0, "fusion_lat": 0.0, "name": "6d0c347f30706cc7c3b4fdcf432577c5", "fusion_lon": 0.0}, {"is_reserved": 0, "type": "electric_scooter", "bike_id": "911bd75211e63ee0371f8027f5630818", "lat": 38.948989, "lon": -77.0318205, "rental_uris": {"android": "https://dc.lft.to/lastmile_qr_scan", "ios": "https://dc.lft.to/lastmile_qr_scan"}, "is_disabled": 0, "fusion_lat": 0.0, "name": "911bd75211e63ee0371f8027f5630818", "fusion_lon": 0.0}, {"is_reserved": 0, "type": "electric_scooter", "bike_id": "f7d2c37e11a8768afd0c64fbbb141bf9", "lat": 38.874699166666666, "lon": -77.00563516666666, "rental_uris": {"android": "https://dc.lft.to/lastmile_qr_scan", "ios": "https://dc.lft.to/lastmile_qr_scan"}, "is_disabled": 0, "fusion_lat": 0.0, "name": "f7d2c37e11a8768afd0c64fbbb141bf9", "fusion_lon": 0.0}, {"is_reserved": 0, "type": "electric_scooter", "bike_id": "2f1cfd4cbcb33bcbf0527332cd0fbec6", "lat": 38.919575333333334, "lon": -77.02305716666666, "rental_uris": {"android": "https://dc.lft.to/lastmile_qr_scan", "ios": "https://dc.lft.to/lastmile_qr_scan"}, "is_disabled": 0, "fusion_lat": 0.0, "name": "2f1cfd4cbcb33bcbf0527332cd0fbec6", "fusion_lon": 0.0}, {"is_reserved": 0, "type": "electric_scooter", "bike_id": "388d5153b226fdffacfc962efc313fab", "lat": 38.8851315, "lon": -76.996754, "rental_uris": {"android": "https://dc.lft.to/lastmile_qr_scan", "ios": "https://dc.lft.to/lastmile_qr_scan"}, "is_disabled": 0, "fusion_lat": 0.0, "name": "388d5153b226fdffacfc962efc313fab", "fusion_lon": 0.0}, {"is_reserved": 0, "type": "electric_scooter", "bike_id": "1ef8917a255d2d1db60e40e08b596159", "lat": 38.982238, "lon": -77.02642983333334, "rental_uris": {"android": "https://dc.lft.to/lastmile_qr_scan", "ios": "https://dc.lft.to/lastmile_qr_scan"}, "is_disabled": 0, "fusion_lat": 0.0, "name": "1ef8917a255d2d1db60e40e08b596159", "fusion_lon": 0.0}, {"is_reserved": 0, "type": "electric_bike", "bike_id": "275acb1c0e3a12ccbdf14174c5656824", "lat": 38.87079683333333, "lon": -76.96679333333333, "rental_uris": {"android": "https://dc.lft.to/lastmile_qr_scan", "ios": "https://dc.lft.to/lastmile_qr_scan"}, "is_disabled": 0, "fusion_lat": 0.0, "name": "275acb1c0e3a12ccbdf14174c5656824", "fusion_lon": 0.0}, {"is_reserved": 0, "type": "electric_scooter", "bike_id": "d277ef88392a502af5c7d041310b4c3e", "lat": 38.92355933333333, "lon": -77.04322416666666, "rental_uris": {"android": "https://dc.lft.to/lastmile_qr_scan", "ios": "https://dc.lft.to/lastmile_qr_scan"}, "is_disabled": 0, "fusion_lat": 0.0, "name": "d277ef88392a502af5c7d041310b4c3e", "fusion_lon": 0.0}, {"is_reserved": 0, "type": "electric_scooter", "bike_id": "0995d05e6dc657c1f8f73b8df1069008", "lat": 38.901261, "lon": -77.04990716666667, "rental_uris": {"android": "https://dc.lft.to/lastmile_qr_scan", "ios": "https://dc.lft.to/lastmile_qr_scan"}, "is_disabled": 0, "fusion_lat": 0.0, "name": "0995d05e6dc657c1f8f73b8df1069008", "fusion_lon": 0.0}, {"is_reserved": 0, "type": "electric_scooter", "bike_id": "6774039104c8e99fabb8869be53a97c4", "lat": 38.895428833333334, "lon": -76.98337983333333, "rental_uris": {"android": "https://dc.lft.to/lastmile_qr_scan", "ios": "https://dc.lft.to/lastmile_qr_scan"}, "is_disabled": 0, "fusion_lat": 0.0, "name": "6774039104c8e99fabb8869be53a97c4", "fusion_lon": 0.0},