{"data": {"bikes": [{"fusion_lat": 0.0, "name": "e3c0e66a7322d8069fd3e9181ae004e2", "is_disabled": 0, "rental_uris": {"android": "https://dc.lft.to/lastmile_qr_scan", "ios": "https://dc.lft.to/lastmile_qr_scan"}, "fusion_lon": 0.0, "lat": 38.9078125, "bike_id": "e3c0e66a7322d8069fd3e9181ae004e2", "type": "electric_scooter", "is_reserved": 0, "lon": -77.05598566666667}, {"fusion_lat": 0.0, "name": "e90e1276122b33f8bbf6f0d8c4d4a2f4", "is_disabled": 0, "rental_uris": {"android": "https://dc.lft.to/lastmile_qr_scan", "ios": "https://dc.lft.to/lastmile_qr_scan"}, "fusion_lon": 0.0, "lat": 38.89276816666667, "bike_id": "e90e1276122b33f8bbf6f0d8c4d4a2f4", "type": "electric_scooter", "is_reserved": 0, "lon": -77.03192966666667}, {"fusion_lat": 0.0, "name": "ac11f8b7287b19214413f3f60fd4ba4c", "is_disabled": 0, "rental_uris": {"android": "https://dc.lft.to/lastmile_qr_scan", "ios": "https://dc.lft.to/lastmile_qr_scan"}, "fusion_lon": 0.0, "lat": 38.904762166666664, "bike_id": "ac11f8b7287b19214413f3f60fd4ba4c", "type": "electric_scooter", "is_reserved": 0, "lon": -77.04860633333334}, {"fusion_lat": 0.0, "name": "54618439e7ea681997bee16a836b2304", "is_disabled": 0, "rental_uris": {"android": "https://dc.lft.to/lastmile_qr_scan", "ios": "https://dc.lft.to/lastmile_qr_scan"}, "fusion_lon": 0.0, "lat": 38.9286405, "bike_id": "54618439e7ea681997bee16a836b2304", "type": "electric_scooter", "is_reserved": 0, "lon": -77.05427866666666}, {"fusion_lat": 0.0, "name": "00893d3f3c80c315ecfddd59854a3a4d", "is_disabled": 0, "rental_uris": {"android": "https://dc.lft.to/lastmile_qr_scan", "ios": "https://dc.lft.to/lastmile_qr_scan"}, "fusion_lon": 0.0, "lat": 38.916790666666664, "bike_id": "00893d3f3c80c315ecfddd59854a3a4d", "type": "electric_scooter", "is_reserved": 0, "lon": -77.032074}, {"fusion_lat": 0.0, "name": "9c6ea8cc5ff7d8adb707b336dc541ee7", "is_disabled": 0, "rental_uris": {"android": "https://dc.lft.to/lastmile_qr_scan", "ios": "https://dc.lft.to/lastmile_qr_scan"}, "fusion_lon": 0.0, "lat": 38.884038833333335, "bike_id": "9c6ea8cc5ff7d8adb707b336dc541ee7", "type": "electric_scooter", "is_reserved": 0, "lon": -77.00832083333333}, {"fusion_lat": 0.0, "name": "2a6a5d2e99f8cc0fc0de83d84145cc5d", "is_disabled": 0, "rental_uris": {"android": "https://dc.lft.to/lastmile_qr_scan", "ios": "https://dc.lft.to/lastmile_qr_scan"}, "fusion_lon": 0.0, "lat": 38.90399516666667, "bike_id": "2a6a5d2e99f8cc0fc0de83d84145cc5d", "type": "electric_scooter", "is_reserved": 0, "lon": -77.06294233333334}, {"fusion_lat": 0.0, "name": "0285d84dc8a5427d24becdaaa576a18e", "is_disabled": 0, "rental_uris": {"android": "https://dc.lft.to/lastmile_qr_scan", "ios": "https://dc.lft.to/lastmile_qr_scan"}, "fusion_lon": 0.0, "lat": 38.90350633333333, "bike_id": "0285d84dc8a5427d24becdaaa576a18e", "type": "electric_scooter", "is_reserved": 0, "lon": -76.97476766666666}, {"fusion_lat": 0.0, "name": "f229b4d2e32f8643de210d84b3f56823", "is_disabled": 0, "rental_uris": {"android": "https://dc.lft.to/lastmile_qr_scan", "ios": "https://dc.lft.to/lastmile_qr_scan"}, "fusion_lon": 0.0, "lat": 38.93279916666667, "bike_id": "f229b4d2e32f8643de210d84b3f56823", "type": "electric_scooter", "is_reserved": 0, "lon": -77.02832016666666}, {"fusion_lat": 0.0, "name": "2758246a5c9178224868d29786114dd4", "is_disabled": 0, "rental_uris": {"android": "https://dc.lft.to/lastmile_qr_scan", "ios": "https://dc.lft.to/lastmile_qr_scan"}, "fusion_lon": 0.0, "lat": 38.910617333333334, "bike_id": "2758246a5c9178224868d29786114dd4", "type": "electric_scooter", "is_reserved": 0, "lon": -77.04396716666666}, {"fusion_lat": 0.0, "name": "96a085977d2b9e52b97010d16c33f60f", "is_disabled": 0, "rental_uris": {"android": "https://dc.lft.to/lastmile_qr_scan", "ios": "https://dc.lft.to/lastmile_qr_scan"}, "fusion_lon": 0.0, "lat": 38.912154, "bike_id": "96a085977d2b9e52b97010d16c33f60f", "type": "electric_scooter", "is_reserved": 0, "lon": -77.03184883333333}, {"fusion_lat": 0.0, "name": "7cf17e1f4a471374e77595f91a47da8a", "is_disabled": 0, "rental_uris": {"android": "https://dc.lft.to/lastmile_qr_scan", "ios": "https://dc.lft.to/lastmile_qr_scan"}, "fusion_lon": 0.0, "lat": 38.900399666666665, "bike_id": "7cf17e1f4a471374e77595f91a47da8a", "type": "electric_scooter", "is_reserved": 0, "lon": -76.98816433333333}, {"fusion_lat": 0.0, "name": "27ac0a0f609b8015b0662aa98716934f", "is_disabled": 0, "rental_uris": {"android": "https://dc.lft.to/lastmile_qr_scan", "ios": "https://dc.lft.to/lastmile_qr_scan"}, "fusion_lon": 0.0, "lat": 38.89849783333333, "bike_id": "27ac0a0f609b8015b0662aa98716934f", "type": "electric_scooter", "is_reserved": 0, "lon": -77.03322033333333}, {"fusion_lat": 0.0, "name": "204583bff499b4020ed4ca383d023279", "is_disabled": 0, "rental_uris": {"android": "https://dc.lft.to/lastmile_qr_scan", "ios": "https://dc.lft.to/lastmile_qr_scan"}, "fusion_lon": 0.0, "lat": 38.97368516666667, "bike_id": "204583bff499b4020ed4ca383d023279", "type": "electric_scooter", "is_reserved": 0, "lon": -77.01292433333333}, {"fusion_lat": 0.0, "name": "9c85ef3ca7a3687bc8a77e81210bf186", "is_disabled": 0, "rental_uris": {"android": "https://dc.lft.to/lastmile_qr_scan", "ios": "https://dc.lft.to/lastmile_qr_scan"}, "fusion_lon": 0.0, "lat": 38.932027166666664, "bike_id": "9c85ef3ca7a3687bc8a77e81210bf186", "type": "electric_scooter", "is_reserved": 0, "lon": -77.01966133333333}, {"fusion_lat": 0.0, "name": "a1f5ec9d4a392bd8b5cdee3fe60af729", "is_disabled": 0, "rental_uris": {"android": "https://dc.lft.to/lastmile_qr_scan", "ios": "https://dc.lft.to/lastmile_qr_scan"}, "fusion_lon": 0.0, "lat": 38.897420333333336, "bike_id": "a1f5ec9d4a392bd8b5cdee3fe60af729", "type": "electric_scooter", "is_reserved": 0, "lon": -77.00360766666667}, {"fusion_lat": 0.0, "name": "b6363739d7d27667c923e6514b9717b6", "is_disabled": 0, "rental_uris": {"android": "https://dc.lft.to/lastmile_qr_scan", "ios": "https://dc.lft.to/lastmile_qr_scan"}, "fusion_lon": 0.0, "lat": 38.897193666666666, "bike_id": "b6363739d7d27667c923e6514b9717b6", "type": "electric_scooter", "is_reserved": 0, "lon": -77.0079645}, {"fusion_lat": 0.0, "name": "3e73be9927ca908322dd9ac1969c1fbc", "is_disabled": 0, "rental_uris": {"android": "https://dc.lft.to/lastmile_qr_scan", "ios": "https://dc.lft.to/lastmile_qr_scan"}, "fusion_lon": 0.0, "lat": 38.926852, "bike_id": "3e73be9927ca908322dd9ac1969c1fbc", "type": "electric_scooter", "is_reserved": 0, "lon": -77.03098116666666}, {"fusion_lat": 0.0, "name": "b0525fce30736033028ed6fa3cda94e4", "is_disabled": 0, "rental_uris": {"android": "https://dc.lft.to/lastmile_qr_scan", "ios": "https://dc.lft.to/lastmile_qr_scan"}, "fusion_lon": 0.0, "lat": 38.9212255, "bike_id": "b0525fce30736033028ed6fa3cda94e4", "type": "electric_scooter", "is_reserved": 0, "lon": -77.04389066666667}, {"fusion_lat": 0.0, "name": "1bda226b3f456ba302c869cbfc7cb212", "is_disabled": 0, "rental_uris": {"android": "https://dc.lft.to/lastmile_qr_scan", "ios": "https://dc.lft.to/lastmile_qr_scan"}, "fusion_lon": 0.0, "lat": 38.913875166666664, "bike_id": "1bda226b3f456ba302c869cbfc7cb212", "type": "electric_scooter", "is_reserved": 0, "lon": -77.01800883333334}, {"fusion_lat": 0.0, "name": "962fd6586b73d38e27fa2fe479d79ab9", "is_disabled": 0, "rental_uris": {"android": "https://dc.lft.to/lastmile_qr_scan", "ios": "https://dc.lft.to/lastmile_qr_scan"}, "fusion_lon": 0.0, "lat": 38.887626166666664, "bike_id": "962fd6586b73d38e27fa2fe479d79ab9", "type": "electric_scooter", "is_reserved": 0, "lon": -76.99360533333333}, {"fusion_lat": 0.0, "name": "e40540363956b1eb2f2528175c4cf9ea", "is_disabled": 0, "rental_uris": {"android": "https://dc.lft.to/lastmile_qr_scan", "ios": "https://dc.lft.to/lastmile_qr_scan"}, "fusion_lon": 0.0, "lat": 38.890193333333336, "bike_id": "e40540363956b1eb2f2528175c4cf9ea", "type": "electric_scooter", "is_reserved": 0, "lon": -76.93734083333334}, {"fusion_lat": 0.0, "name": "1e077f7946b72cc5d3c9021eeb36a062", "is_disabled": 0, "rental_uris": {"android": "https://dc.lft.to/lastmile_qr_scan", "ios": "https://dc.lft.to/lastmile_qr_scan"}, "fusion_lon": 0.0, "lat": 38.91669683333333, "bike_id": "1e077f7946b72cc5d3c9021eeb36a062", "type": "electric_scooter", "is_reserved": 0, "lon": -77.02590066666667}, {"fusion_lat": 0.0, "name": "38a47d839c593d4ecf54694f192b6908", "is_disabled": 0, "rental_uris": {"android": "https://dc.lft.to/lastmile_qr_scan", "ios": "https://dc.lft.to/lastmile_qr_scan"}, "fusion_lon": 0.0, "lat": 38.92174166666667, "bike_id": "38a47d839c593d4ecf54694f192b6908", "type": "electric_scooter", "is_reserved": 0, "lon": -77.04245783333333}, {"fusion_lat": 0.0, "name": "6742228db8e60a9fa7d773a306b08d9b", "is_disabled": 0, "rental_uris": {"android": "https://dc.lft.to/lastmile_qr_scan", "ios": "https://dc.lft.to/lastmile_qr_scan"}, "fusion_lon": 0.0, "lat": 38.9167445, "bike_id": "6742228db8e60a9fa7d773a306b08d9b", "type": "electric_scooter", "is_reserved": 0, "lon": -77.03196783333334}, {"fusion_lat": 0.0, "name": "7ee93f20dab0a8f55fa2cbf60baeb5c5", "is_disabled": 0, "rental_uris": {"android": "https://dc.lft.to/lastmile_qr_scan", "ios": "https://dc.lft.to/lastmile_qr_scan"}, "fusion_lon": 0.0, "lat": 38.93080066666667, "bike_id": "7ee93f20dab0a8f55fa2cbf60baeb5c5", "type": "electric_scooter", "is_reserved": 0, "lon": -77.02272416666666}, {"fusion_lat": 0.0, "name": "31c88ac84c9cb35544cb0cb833a94dc3", "is_disabled": 0, "rental_uris": {"android": "https://dc.lft.to/lastmile_qr_scan", "ios": "https://dc.lft.to/lastmile_qr_scan"}, "fusion_lon": 0.0, "lat": 38.88743216666667, "bike_id": "31c88ac84c9cb35544cb0cb833a94dc3", "type": "electric_scooter", "is_reserved": 0, "lon": -77.0152895}, {"fusion_lat": 0.0, "name": "f166ee9f83371a0c1e152d5f27f0f35d", "is_disabled": 0, "rental_uris": {"android": "https://dc.lft.to/lastmile_qr_scan", "ios": "https://dc.lft.to/lastmile_qr_scan"}, "fusion_lon": 0.0, "lat": 38.935920333333335, "bike_id": "f166ee9f83371a0c1e152d5f27f0f35d", "type": "electric_scooter", "is_reserved": 0, "lon": -77.03345766666666}, {"fusion_lat": 0.0, "name": "b8ccd4407f3f3c4555ce954974c0e41a", "is_disabled": 0, "rental_uris": {"android": "https://dc.lft.to/lastmile_qr_scan", "ios": "https://dc.lft.to/lastmile_qr_scan"}, "fusion_lon": 0.0, "lat": 38.92148233333333, "bike_id": "b8ccd4407f3f3c4555ce954974c0e41a", "type": "electric_scooter", "is_reserved": 0, "lon": -77.04342583333333}, {"fusion_lat": 0.0, "name": "4b53700a91a5b3051889df26c0312ad0", "is_disabled": 0, "rental_uris": {"android": "https://dc.lft.to/lastmile_qr_scan", "ios": "https://dc.lft.to/lastmile_qr_scan"}, "fusion_lon": 0.0, "lat": 38.90634216666667, "bike_id": "4b53700a91a5b3051889df26c0312ad0", "type": "electric_scooter", "is_reserved": 0, "lon": -77.02520466666667}, {"fusion_lat": 0.0, "name": "84d6a29fa794a51cbf103de8d2132d5e", "is_disabled": 0, "rental_uris": {"android": "https://dc.lft.to/lastmile_qr_scan", "ios": "https://dc.lft.to/lastmile_qr_scan"}, "fusion_lon": 0.0, "lat": 38.89229233333333, "bike_id": "84d6a29fa794a51cbf103de8d2132d5e", "type": "electric_scooter", "is_reserved": 0, "lon": -77.02576533333334}, {"fusion_lat": 0.0, "name": "741cfc129ab47e6f9a49d6fa7987ebd7", "is_disabled": 0, "rental_uris": {"android": "https://dc.lft.to/lastmile_qr_scan", "ios": "https://dc.lft.to/lastmile_qr_scan"}, "fusion_lon": 0.0, "lat": 38.922908166666666, "bike_id": "741cfc129ab47e6f9a49d6fa7987ebd7", "type": "electric_scooter", "is_reserved": 0, "lon": -77.023304}, {"fusion_lat": 0.0, "name": "b784d0974c0b49146173f5f09e21c1aa", "is_disabled": 0, "rental_uris": {"android": "https://dc.lft.to/lastmile_qr_scan", "ios": "https://dc.lft.to/lastmile_qr_scan"}, "fusion_lon": 0.0, "lat": 38.9192285, "bike_id": "b784d0974c0b49146173f5f09e21c1aa", "type": "electric_scooter", "is_reserved": 0, "lon": -77.03483533333333}, {"fusion_lat": 0.0, "name": "3fb8faca2db688cb7b90b31ae8d5b201", "is_disabled": 0, "rental_uris": {"android": "https://dc.lft.to/lastmile_qr_scan", "ios": "https://dc.lft.to/lastmile_qr_scan"}, "fusion_lon": 0.0, "lat": 38.88310516666667, "bike_id": "3fb8faca2db688cb7b90b31ae8d5b201", "type": "electric_scooter", "is_reserved": 0, "lon": -77.01368616666667}, {"fusion_lat": 0.0, "name": "38f5545a94a39bcdeba8d3635c7e9c2e", "is_disabled": 0, "rental_uris": {"android": "https://dc.lft.to/lastmile_qr_scan", "ios": "https://dc.lft.to/lastmile_qr_scan"}, "fusion_lon": 0.0, "lat": 38.920750166666664, "bike_id": "38f5545a94a39bcdeba8d3635c7e9c2e", "type": "electric_scooter", "is_reserved": 0, "lon": -77.0231845}, {"fusion_lat": 0.0, "name": "0925bfe5c7f8c4151246b6abb8b3c391", "is_disabled": 0, "rental_uris": {"android": "https://dc.lft.to/lastmile_qr_scan", "ios": "https://dc.lft.to/lastmile_qr_scan"}, "fusion_lon": 0.0, "lat": 38.89983016666667, "bike_id": "0925bfe5c7f8c4151246b6abb8b3c391", "type": "electric_scooter", "is_reserved": 0, "lon": -76.99270733333333}, {"fusion_lat": 0.0, "name": "bb15cae665d6baa662e8a45abe6c985d", "is_disabled": 0, "rental_uris": {"android": "https://dc.lft.to/lastmile_qr_scan", "ios": "https://dc.lft.to/lastmile_qr_scan"}, "fusion_lon": 0.0, "lat": 38.926854, "bike_id": "bb15cae665d6baa662e8a45abe6c985d", "type": "electric_scooter", "is_reserved": 0, "lon": -77.02773116666667}, {"fusion_lat": 0.0, "name": "c94ce803da06b3814260fd6ae2d65ebe", "is_disabled": 0, "rental_uris": {"android": "https://dc.lft.to/lastmile_qr_scan", "ios": "https://dc.lft.to/lastmile_qr_scan"}, "fusion_lon": 0.0, "lat": 38.901884333333335, "bike_id": "c94ce803da06b3814260fd6ae2d65ebe", "type": "electric_scooter", "is_reserved": 0, "lon": -77.02742683333334}, {"fusion_lat": 0.0, "name": "6f5d152545747a9f7a7905e4ec4dcac1", "is_disabled": 0, "rental_uris": {"android": "https://dc.lft.to/lastmile_qr_scan", "ios": "https://dc.lft.to/lastmile_qr_scan"}, "fusion_lon": 0.0, "lat": 38.9618755, "bike_id": "6f5d152545747a9f7a7905e4ec4dcac1", "type": "electric_bike", "is_reserved": 0, "lon": -77.05263016666666}, {"fusion_lat": 0.0, "name": "8047e8733002a4af7ff8b0271eb8913e", "is_disabled": 0, "rental_uris": {"android": "https://dc.lft.to/lastmile_qr_scan", "ios": "https://dc.lft.to/lastmile_qr_scan"}, "fusion_lon": 0.0, "lat": 38.92086483333333, "bike_id": "8047e8733002a4af7ff8b0271eb8913e", "type": "electric_scooter", "is_reserved": 0, "lon": -77.01477266666667}, {"fusion_lat": 0.0, "name": "260e870952731cd42fa164001f7bd2e5", "is_disabled": 0, "rental_uris": {"android": "https://dc.lft.to/lastmile_qr_scan", "ios": "https://dc.lft.to/lastmile_qr_scan"}, "fusion_lon": 0.0, "lat": 38.97287933333333, "bike_id": "260e870952731cd42fa164001f7bd2e5", "type": "electric_scooter", "is_reserved": 0, "lon": -77.01158766666667}, {"fusion_lat": 0.0, "name": "f0b3d2b8c53df90516b2521ea4ae963d", "is_disabled": 0, "rental_uris": {"android": "https://dc.lft.to/lastmile_qr_scan", "ios": "https://dc.lft.to/lastmile_qr_scan"}, "fusion_lon": 0.0, "lat": 38.924377166666666, "bike_id": "f0b3d2b8c53df90516b2521ea4ae963d", "type": "electric_scooter", "is_reserved": 0, "lon": -77.044575}, {"fusion_lat": 0.0, "name": "68ca7c4fcda2c2253a77555d759cb90f", "is_disabled": 0, "rental_uris": {"android": "https://dc.lft.to/lastmile_qr_scan", "ios": "https://dc.lft.to/lastmile_qr_scan"}, "fusion_lon": 0.0, "lat": 38.8673775, "bike_id": "68ca7c4fcda2c2253a77555d759cb90f", "type": "electric_scooter", "is_reserved": 0, "lon": -76.98788716666667}, {"fusion_lat": 0.0, "name": "fa41ef2a95d6dddb597363368898bef0", "is_disabled": 0, "rental_uris": {"android": "https://dc.lft.to/lastmile_qr_scan", "ios": "https://dc.lft.to/lastmile_qr_scan"}, "fusion_lon": 0.0, "lat": 38.88382933333333, "bike_id": "fa41ef2a95d6dddb597363368898bef0", "type": "electric_scooter", "is_reserved": 0, "lon": -77.04610183333334}, {"fusion_lat": 0.0, "name": "0220ed7cefccb42383c7de7fe01346ad", "is_disabled": 0, "rental_uris": {"android": "https://dc.lft.to/lastmile_qr_scan", "ios": "https://dc.lft.to/lastmile_qr_scan"}, "fusion_lon": 0.0, "lat": 38.91726633333333, "bike_id": "0220ed7cefccb42383c7de7fe01346ad", "type": "electric_scooter", "is_reserved": 0, "lon": -77.02699283333334}, {"fusion_lat": 0.0, "name": "a8e6146688969e390c4021dae0a06bd0", "is_disabled": 0, "rental_uris": {"android": "https://dc.lft.to/lastmile_qr_scan", "ios": "https://dc.lft.to/lastmile_qr_scan"}, "fusion_lon": 0.0, "lat": 38.90019316666667, "bike_id": "a8e6146688969e390c4021dae0a06bd0", "type": "electric_scooter", "is_reserved": 0, "lon": -77.01191316666667}, {"fusion_lat": 0.0, "name": "8654a1912786b1d40a628e3c922450ef", "is_disabled": 0, "rental_uris": {"android": "https://dc.lft.to/lastmile_qr_scan", "ios": "https://dc.lft.to/lastmile_qr_scan"}, "fusion_lon": 0.0, "lat": 38.89714433333333, "bike_id": "8654a1912786b1d40a628e3c922450ef", "type": "electric_scooter", "is_reserved": 0, "lon": -77.0129275}, {"fusion_lat": 0.0, "name": "a42c45f0a6d99d99e830e7fbb2df1ff9", "is_disabled": 0, "rental_uris": {"android": "https://dc.lft.to/lastmile_qr_scan", "ios": "https://dc.lft.to/lastmile_qr_scan"}, "fusion_lon": 0.0, "lat": 38.90262583333333, "bike_id": "a42c45f0a6d99d99e830e7fbb2df1ff9", "type": "electric_scooter", "is_reserved": 0, "lon": -77.05324133333333}, {"fusion_lat": 0.0, "name": "ade7b3d4ad01c43c240407315e5f5a2a", "is_disabled": 0, "rental_uris": {"android": "https://dc.lft.to/lastmile_qr_scan", "ios": "https://dc.lft.to/lastmile_qr_scan"}, "fusion_lon": 0.0, "lat": 38.91559566666667, "bike_id": "ade7b3d4ad01c43c240407315e5f5a2a", "type": "electric_scooter", "is_reserved": 0, "lon": -77.038603}, {"fusion_lat": 0.0, "name": "41829ab641689d434d9b9cebcf3a6502", "is_disabled": 0, "rental_uris": {"android": "https://dc.lft.to/lastmile_qr_scan", "ios": "https://dc.lft.to/lastmile_qr_scan"}, "fusion_lon": 0.0, "lat": 38.91331383333333, "bike_id": "41829ab641689d434d9b9cebcf3a6502", "type": "electric_scooter", "is_reserved": 0, "lon": -77.03193966666667}, {"fusion_lat": 0.0, "name": "7d52dbb260fe688aadfdff753cecfd17", "is_disabled": 0, "rental_uris": {"android": "https://dc.lft.to/lastmile_qr_scan", "ios": "https://dc.lft.to/lastmile_qr_scan"}, "fusion_lon": 0.0, "lat": 38.9204735, "bike_id": "7d52dbb260fe688aadfdff753cecfd17", "type": "electric_scooter", "is_reserved": 0, "lon": -77.0179285}, {"fusion_lat": 0.0, "name": "f3253e9c620ccc68bde938989c61ed6b", "is_disabled": 0, "rental_uris": {"android": "https://dc.lft.to/lastmile_qr_scan", "ios": "https://dc.lft.to/lastmile_qr_scan"}, "fusion_lon": 0.0, "lat": 38.92136516666667, "bike_id": "f3253e9c620ccc68bde938989c61ed6b", "type": "electric_scooter", "is_reserved": 0, "lon": -77.004014}, {"fusion_lat": 0.0, "name": "0fe20ab571a303dd271316d0be2ff596", "is_disabled": 0, "rental_uris": {"android": "https://dc.lft.to/lastmile_qr_scan", "ios": "https://dc.lft.to/lastmile_qr_scan"}, "fusion_lon": 0.0, "lat": 38.91995166666667, "bike_id": "0fe20ab571a303dd271316d0be2ff596", "type": "electric_scooter", "is_reserved": 0, "lon": -77.04087766666666}, {"fusion_lat": 0.0, "name": "45a33647d38d3afb0324a3d19b007f5f", "is_disabled": 0, "rental_uris": {"android": "https://dc.lft.to/lastmile_qr_scan", "ios": "https://dc.lft.to/lastmile_qr_scan"}, "fusion_lon": 0.0, "lat": 38.8985445, "bike_id": "45a33647d38d3afb0324a3d19b007f5f", "type": "electric_scooter", "is_reserved": 0, "lon": -77.02248283333333}, {"fusion_lat": 0.0, "name": "8dce6ddd8a91c2b2a0ad529f3d07683e", "is_disabled": 0, "rental_uris": {"android": "https://dc.lft.to/lastmile_qr_scan", "ios": "https://dc.lft.to/lastmile_qr_scan"}, "fusion_lon": 0.0, "lat": 38.90983516666667, "bike_id": "8dce6ddd8a91c2b2a0ad529f3d07683e", "type": "electric_scooter", "is_reserved": 0, "lon": -77.04612466666667}, {"fusion_lat": 0.0, "name": "5ffa79d5636c73b72ee3314fd860fc59", "is_disabled": 0, "rental_uris": {"android": "https://dc.lft.to/lastmile_qr_scan", "ios": "https://dc.lft.to/lastmile_qr_scan"}, "fusion_lon": 0.0, "lat": 38.99236416666667, "bike_id": "5ffa79d5636c73b72ee3314fd860fc59", "type": "electric_bike", "is_reserved": 0, "lon": -76.94418383333333}, {"fusion_lat": 0.0, "name": "c75b297b6ceeb2f2c6ae223256b1740b", "is_disabled": 0, "rental_uris": {"android": "https://dc.lft.to/lastmile_qr_scan", "ios": "https://dc.lft.to/lastmile_qr_scan"}, "fusion_lon": 0.0, "lat": 38.90357633333333, "bike_id": "c75b297b6ceeb2f2c6ae223256b1740b", "type": "electric_scooter", "is_reserved": 0, "lon": -77.03646816666667}, {"fusion_lat": 0.0, "name": "414aea80b42aaf21ab7f149677680b5c", "is_disabled": 0, "rental_uris": {"android": "https://dc.lft.to/lastmile_qr_scan", "ios": "https://dc.lft.to/lastmile_qr_scan"}, "fusion_lon": 0.0, "lat": 38.93085883333333, "bike_id": "414aea80b42aaf21ab7f149677680b5c", "type": "electric_scooter", "is_reserved": 0, "lon": -77.03660766666667}, {"fusion_lat": 0.0, "name": "9e6b9aeab1dc06a7c015d2b56c4bd3b3", "is_disabled": 0, "rental_uris": {"android": "https://dc.lft.to/lastmile_qr_scan", "ios": "https://dc.lft.to/lastmile_qr_scan"}, "fusion_lon": 0.0, "lat": 38.87742716666666, "bike_id": "9e6b9aeab1dc06a7c015d2b56c4bd3b3", "type": "electric_scooter", "is_reserved": 0, "lon": -76.97035616666666}, {"fusion_lat": 0.0, "name": "fc428fa9e2844bb301014abaca15d532", "is_disabled": 0, "rental_uris": {"android": "https://dc.lft.to/lastmile_qr_scan", "ios": "https://dc.lft.to/lastmile_qr_scan"}, "fusion_lon": 0.0, "lat": 38.918086, "bike_id": "fc428fa9e2844bb301014abaca15d532", "type": "electric_scooter", "is_reserved": 0, "lon": -77.0344105}, {"fusion_lat": 0.0, "name": "89a6ad309410b37ced41672223cc49b9", "is_disabled": 0, "rental_uris": {"android": "https://dc.lft.to/lastmile_qr_scan", "ios": "https://dc.lft.to/lastmile_qr_scan"}, "fusion_lon": 0.0, "lat": 38.92611616666667, "bike_id": "89a6ad309410b37ced41672223cc49b9", "type": "electric_bike", "is_reserved": 0, "lon": -77.06419733333334}, {"fusion_lat": 0.0, "name": "8428ba582ba36c7119111e2f0ea0f14f", "is_disabled": 0, "rental_uris": {"android": "https://dc.lft.to/lastmile_qr_scan", "ios": "https://dc.lft.to/lastmile_qr_scan"}, "fusion_lon": 0.0, "lat": 38.92071033333333, "bike_id": "8428ba582ba36c7119111e2f0ea0f14f", "type": "electric_bike", "is_reserved": 0, "lon": -77.23952616666666}, {"fusion_lat": 0.0, "name": "269b10cda694f8bb3300910123d9d7b6", "is_disabled": 0, "rental_uris": {"android": "https://dc.lft.to/lastmile_qr_scan", "ios": "https://dc.lft.to/lastmile_qr_scan"}, "fusion_lon": 0.0, "lat": 38.94187483333333, "bike_id": "269b10cda694f8bb3300910123d9d7b6", "type": "electric_scooter", "is_reserved": 0, "lon": -77.0248935}, {"fusion_lat": 0.0, "name": "16b75b64e13416d05b614440bca2cf4f", "is_disabled": 0, "rental_uris": {"android": "https://dc.lft.to/lastmile_qr_scan", "ios": "https://dc.lft.to/lastmile_qr_scan"}, "fusion_lon": 0.0, "lat": 38.921585666666665, "bike_id": "16b75b64e13416d05b614440bca2cf4f", "type": "electric_scooter", "is_reserved": 0, "lon": -77.04233066666667}, {"fusion_lat": 0.0, "name": "78690d2016ba4b67b466db9a881e9f50", "is_disabled": 0, "rental_uris": {"android": "https://dc.lft.to/lastmile_qr_scan", "ios": "https://dc.lft.to/lastmile_qr_scan"}, "fusion_lon": 0.0, "lat": 38.917910666666664, "bike_id": "78690d2016ba4b67b466db9a881e9f50", "type": "electric_scooter", "is_reserved": 0, "lon": -77.04042016666666}, {"fusion_lat": 0.0, "name": "15811b7ed65fc602e0fefc505840abce", "is_disabled": 0, "rental_uris": {"android": "https://dc.lft.to/lastmile_qr_scan", "ios": "https://dc.lft.to/lastmile_qr_scan"}, "fusion_lon": 0.0, "lat": 38.91680266666667, "bike_id": "15811b7ed65fc602e0fefc505840abce", "type": "electric_scooter", "is_reserved": 0, "lon": -77.029705}, {"fusion_lat": 0.0, "name": "30be2fca1567315d92a838acafe80c76", "is_disabled": 0, "rental_uris": {"android": "https://dc.lft.to/lastmile_qr_scan", "ios": "https://dc.lft.to/lastmile_qr_scan"}, "fusion_lon": 0.0, "lat": 38.898542666666664, "bike_id": "30be2fca1567315d92a838acafe80c76", "type": "electric_scooter", "is_reserved": 0, "lon": -76.95034666666666}, {"fusion_lat": 0.0, "name": "e892e5d9c5324d62f51fa46174b581c0", "is_disabled": 0, "rental_uris": {"android": "https://dc.lft.to/lastmile_qr_scan", "ios": "https://dc.lft.to/lastmile_qr_scan"}, "fusion_lon": 0.0, "lat": 38.885197833333336, "bike_id": "e892e5d9c5324d62f51fa46174b581c0", "type": "electric_scooter", "is_reserved": 0, "lon": -76.996003}, {"fusion_lat": 0.0, "name": "fe70e0f528533feba453b082cbcb83b9", "is_disabled": 0, "rental_uris": {"android": "https://dc.lft.to/lastmile_qr_scan", "ios": "https://dc.lft.to/lastmile_qr_scan"}, "fusion_lon": 0.0, "lat": 38.9059985, "bike_id": "fe70e0f528533feba453b082cbcb83b9", "type": "electric_scooter", "is_reserved": 0, "lon": -77.0470715}, {"fusion_lat": 0.0, "name": "f9c4ebad413b4cc4a727eafaa5e93835", "is_disabled": 0, "rental_uris": {"android": "https://dc.lft.to/lastmile_qr_scan", "ios": "https://dc.lft.to/lastmile_qr_scan"}, "fusion_lon": 0.0, "lat": 38.89938433333333, "bike_id": "f9c4ebad413b4cc4a727eafaa5e93835", "type": "electric_scooter", "is_reserved": 0, "lon": -77.040451}, {"fusion_lat": 0.0, "name": "49d7633319388f9a981ff6124318d13e", "is_disabled": 0, "rental_uris": {"android": "https://dc.lft.to/lastmile_qr_scan", "ios": "https://dc.lft.to/lastmile_qr_scan"}, "fusion_lon": 0.0, "lat": 38.911764, "bike_id": "49d7633319388f9a981ff6124318d13e", "type": "electric_scooter", "is_reserved": 0, "lon": -77.0317905}, {"fusion_lat": 0.0, "name": "347f3ea57aa790a5833bd5e4176c4165", "is_disabled": 0, "rental_uris": {"android": "https://dc.lft.to/lastmile_qr_scan", "ios": "https://dc.lft.to/lastmile_qr_scan"}, "fusion_lon": 0.0, "lat": 38.90127483333333, "bike_id": "347f3ea57aa790a5833bd5e4176c4165", "type": "electric_scooter", "is_reserved": 0, "lon": -77.0259715}, {"fusion_lat": 0.0, "name": "e0b7140591e5f9d31d42759b873bdc21", "is_disabled": 0, "rental_uris": {"android": "https://dc.lft.to/lastmile_qr_scan", "ios": "https://dc.lft.to/lastmile_qr_scan"}, "fusion_lon": 0.0, "lat": 39.05256, "bike_id": "e0b7140591e5f9d31d42759b873bdc21", "type": "electric_bike", "is_reserved": 0, "lon": -77.08067616666666}, {"fusion_lat": 0.0, "name": "aa98076d732c493bcae8e4bbe7459b2d", "is_disabled": 0, "rental_uris": {"android": "https://dc.lft.to/lastmile_qr_scan", "ios": "https://dc.lft.to/lastmile_qr_scan"}, "fusion_lon": 0.0, "lat": 38.92853266666667, "bike_id": "aa98076d732c493bcae8e4bbe7459b2d", "type": "electric_scooter", "is_reserved": 0, "lon": -77.05429683333334}, {"fusion_lat": 0.0, "name": "376ee1b29105e2f33280baec8e89e8af", "is_disabled": 0, "rental_uris": {"android": "https://dc.lft.to/lastmile_qr_scan", "ios": "https://dc.lft.to/lastmile_qr_scan"}, "fusion_lon": 0.0, "lat": 38.90333916666667, "bike_id": "376ee1b29105e2f33280baec8e89e8af", "type": "electric_scooter", "is_reserved": 0, "lon": -77.06278316666666}, {"fusion_lat": 0.0, "name": "885db26e28b9510fca1941fe5fd0d0db", "is_disabled": 0, "rental_uris": {"android": "https://dc.lft.to/lastmile_qr_scan", "ios": "https://dc.lft.to/lastmile_qr_scan"}, "fusion_lon": 0.0, "lat": 38.923757, "bike_id": "885db26e28b9510fca1941fe5fd0d0db", "type": "electric_scooter", "is_reserved": 0, "lon": -77.05176216666666}, {"fusion_lat": 0.0, "name": "598fb10560a5905549dc08edfaed526a", "is_disabled": 0, "rental_uris": {"android": "https://dc.lft.to/lastmile_qr_scan", "ios": "https://dc.lft.to/lastmile_qr_scan"}, "fusion_lon": 0.0, "lat": 38.92017116666667, "bike_id": "598fb10560a5905549dc08edfaed526a", "type": "electric_scooter", "is_reserved": 0, "lon": -77.04168033333333}, {"fusion_lat": 0.0, "name": "a53ec90fb98ff1ea11f3e49ce6182c5b", "is_disabled": 0, "rental_uris": {"android": "https://dc.lft.to/lastmile_qr_scan", "ios": "https://dc.lft.to/lastmile_qr_scan"}, "fusion_lon": 0.0, "lat": 38.91809383333333, "bike_id": "a53ec90fb98ff1ea11f3e49ce6182c5b", "type": "electric_scooter", "is_reserved": 0, "lon": -77.0401765}, {"fusion_lat": 0.0, "name": "c173dd8eb99438fd1ca4dbd5c3ca0819", "is_disabled": 0, "rental_uris": {"android": "https://dc.lft.to/lastmile_qr_scan", "ios": "https://dc.lft.to/lastmile_qr_scan"}, "fusion_lon": 0.0, "lat": 38.900553, "bike_id": "c173dd8eb99438fd1ca4dbd5c3ca0819", "type": "electric_scooter", "is_reserved": 0, "lon": -77.0384495}, {"fusion_lat": 0.0, "name": "18c5a64da68028e52198c3e9cead51ab", "is_disabled": 0, "rental_uris": {"android": "https://dc.lft.to/lastmile_qr_scan", "ios": "https://dc.lft.to/lastmile_qr_scan"}, "fusion_lon": 0.0, "lat": 38.895452666666664, "bike_id": "18c5a64da68028e52198c3e9cead51ab", "type": "electric_scooter", "is_reserved": 0, "lon": -76.980978}, {"fusion_lat": 0.0, "name": "2f9c7aa9fa9a9f8952da9680ea7a1f37", "is_disabled": 0, "rental_uris": {"android": "https://dc.lft.to/lastmile_qr_scan", "ios": "https://dc.lft.to/lastmile_qr_scan"}, "fusion_lon": 0.0, "lat": 38.87722866666667, "bike_id": "2f9c7aa9fa9a9f8952da9680ea7a1f37", "type": "electric_scooter", "is_reserved": 0, "lon": -77.01756183333333}, {"fusion_lat": 0.0, "name": "5e96c3e5f8fcbe0fac76dd6ae3751bab", "is_disabled": 0, "rental_uris": {"android": "https://dc.lft.to/lastmile_qr_scan", "ios": "https://dc.lft.to/lastmile_qr_scan"}, "fusion_lon": 0.0, "lat": 38.91933266666667, "bike_id": "5e96c3e5f8fcbe0fac76dd6ae3751bab", "type": "electric_scooter", "is_reserved": 0, "lon": -77.0317345}, {"fusion_lat": 0.0, "name": "7c8c5439a84879ead3e1696598c35a0f", "is_disabled": 0, "rental_uris": {"android": "https://dc.lft.to/lastmile_qr_scan", "ios": "https://dc.lft.to/lastmile_qr_scan"}, "fusion_lon": 0.0, "lat": 38.847592666666664, "bike_id": "7c8c5439a84879ead3e1696598c35a0f", "type": "electric_scooter", "is_reserved": 0, "lon": -76.99498866666667}, {"fusion_lat": 0.0, "name": "b35741b104bb0fc427d55e097f293aac", "is_disabled": 0, "rental_uris": {"android": "https://dc.lft.to/lastmile_qr_scan", "ios": "https://dc.lft.to/lastmile_qr_scan"}, "fusion_lon": 0.0, "lat": 38.8922145, "bike_id": "b35741b104bb0fc427d55e097f293aac", "type": "electric_scooter", "is_reserved": 0, "lon": -77.02362133333334}, {"fusion_lat": 0.0, "name": "a0c62a7e5e513160cd7fc74077d8ddc3", "is_disabled": 0, "rental_uris": {"android": "https://dc.lft.to/lastmile_qr_scan", "ios": "https://dc.lft.to/lastmile_qr_scan"}, "fusion_lon": 0.0, "lat": 38.898777, "bike_id": "a0c62a7e5e513160cd7fc74077d8ddc3", "type": "electric_scooter", "is_reserved": 0, "lon": -76.93185883333334}, {"fusion_lat": 0.0, "name": "4d0b77fef45835128db66a4f7649039f", "is_disabled": 0, "rental_uris": {"android": "https://dc.lft.to/lastmile_qr_scan", "ios": "https://dc.lft.to/lastmile_qr_scan"}, "fusion_lon": 0.0, "lat": 38.90382233333333, "bike_id": "4d0b77fef45835128db66a4f7649039f", "type": "electric_scooter", "is_reserved": 0, "lon": -77.038197}, {"fusion_lat": 0.0, "name": "20bb5bf2c35569b7912f4d7b1ef8a112", "is_disabled": 0, "rental_uris": {"android": "https://dc.lft.to/lastmile_qr_scan", "ios": "https://dc.lft.to/lastmile_qr_scan"}, "fusion_lon": 0.0, "lat": 38.902566, "bike_id": "20bb5bf2c35569b7912f4d7b1ef8a112", "type": "electric_scooter", "is_reserved": 0, "lon": -77.03971666666666}, {"fusion_lat": 0.0, "name": "cceee77fb7de0a214bdb6945025ad464", "is_disabled": 0, "rental_uris": {"android": "https://dc.lft.to/lastmile_qr_scan", "ios": "https://dc.lft.to/lastmile_qr_scan"}, "fusion_lon": 0.0, "lat": 38.923411, "bike_id": "cceee77fb7de0a214bdb6945025ad464", "type": "electric_scooter", "is_reserved": 0, "lon": -77.05228266666667}, {"fusion_lat": 0.0, "name": "f85b26873dc07ca187c2c1ff19959a5b", "is_disabled": 0, "rental_uris": {"android": "https://dc.lft.to/lastmile_qr_scan", "ios": "https://dc.lft.to/lastmile_qr_scan"}, "fusion_lon": 0.0, "lat": 38.89669266666667, "bike_id": "f85b26873dc07ca187c2c1ff19959a5b", "type": "electric_scooter", "is_reserved": 0, "lon": -77.0247965}, {"fusion_lat": 0.0, "name": "154e3207957b44bbac1d5285a03145f8", "is_disabled": 0, "rental_uris": {"android": "https://dc.lft.to/lastmile_qr_scan", "ios": "https://dc.lft.to/lastmile_qr_scan"}, "fusion_lon": 0.0, "lat": 38.917177833333334, "bike_id": "154e3207957b44bbac1d5285a03145f8", "type": "electric_scooter", "is_reserved": 0, "lon": -77.0322735}, {"fusion_lat": 0.0, "name": "73c4d2b44bf737430acf06732f725136", "is_disabled": 0, "rental_uris": {"android": "https://dc.lft.to/lastmile_qr_scan", "ios": "https://dc.lft.to/lastmile_qr_scan"}, "fusion_lon": 0.0, "lat": 38.9157365, "bike_id": "73c4d2b44bf737430acf06732f725136", "type": "electric_scooter", "is_reserved": 0, "lon": -76.98395533333333}, {"fusion_lat": 0.0, "name": "cf71bd01aacc788cc324d00d281f2f2a", "is_disabled": 0, "rental_uris": {"android": "https://dc.lft.to/lastmile_qr_scan", "ios": "https://dc.lft.to/lastmile_qr_scan"}, "fusion_lon": 0.0, "lat": 38.908120833333335, "bike_id": "cf71bd01aacc788cc324d00d281f2f2a", "type": "electric_scooter", "is_reserved": 0, "lon": -77.03452233333333}, {"fusion_lat": 0.0, "name": "c241bb7c73228ca2b0315f6a7392cae4", "is_disabled": 0, "rental_uris": {"android": "https://dc.lft.to/lastmile_qr_scan", "ios": "https://dc.lft.to/lastmile_qr_scan"}, "fusion_lon": 0.0, "lat": 38.9243065, "bike_id": "c241bb7c73228ca2b0315f6a7392cae4", "type": "electric_scooter", "is_reserved": 0, "lon": -77.02978616666667}, {"fusion_lat": 0.0, "name": "c8286a15e7c7f8356598f176a9602164", "is_disabled": 0, "rental_uris": {"android": "https://dc.lft.to/lastmile_qr_scan", "ios": "https://dc.lft.to/lastmile_qr_scan"}, "fusion_lon": 0.0, "lat": 38.94507816666667, "bike_id": "c8286a15e7c7f8356598f176a9602164", "type": "electric_scooter", "is_reserved": 0, "lon": -77.03148316666666}, {"fusion_lat": 0.0, "name": "034305f615a5434f61fbdbe66d36ce20", "is_disabled": 0, "rental_uris": {"android": "https://dc.lft.to/lastmile_qr_scan", "ios": "https://dc.lft.to/lastmile_qr_scan"}, "fusion_lon": 0.0, "lat": 38.84355, "bike_id": "034305f615a5434f61fbdbe66d36ce20", "type": "electric_bike", "is_reserved": 0, "lon": -76.97825783333333}, {"fusion_lat": 0.0, "name": "b58e175776e59b3bba681800a62ff4e2", "is_disabled": 0, "rental_uris": {"android": "https://dc.lft.to/lastmile_qr_scan", "ios": "https://dc.lft.to/lastmile_qr_scan"}, "fusion_lon": 0.0, "lat": 38.94135883333333, "bike_id": "b58e175776e59b3bba681800a62ff4e2", "type": "electric_scooter", "is_reserved": 0, "lon": -77.00611966666666}, {"fusion_lat": 0.0, "name": "9056467fa6f4324ab499888d5803e6e5", "is_disabled": 0, "rental_uris": {"android": "https://dc.lft.to/lastmile_qr_scan", "ios": "https://dc.lft.to/lastmile_qr_scan"}, "fusion_lon": 0.0, "lat": 38.839483666666666, "bike_id": "9056467fa6f4324ab499888d5803e6e5", "type": "electric_bike", "is_reserved": 0, "lon": -77.078974}, {"fusion_lat": 0.0, "name": "f2c6dc6517e405c2ad461e341ce291fa", "is_disabled": 0, "rental_uris": {"android": "https://dc.lft.to/lastmile_qr_scan", "ios": "https://dc.lft.to/lastmile_qr_scan"}, "fusion_lon": 0.0, "lat": 38.895093333333335, "bike_id": "f2c6dc6517e405c2ad461e341ce291fa", "type": "electric_scooter", "is_reserved": 0, "lon": -77.0032415}, {"fusion_lat": 0.0, "name": "5552c4d3e914a5f980b089826907f02d", "is_disabled": 0, "rental_uris": {"android": "https://dc.lft.to/lastmile_qr_scan", "ios": "https://dc.lft.to/lastmile_qr_scan"}, "fusion_lon": 0.0, "lat": 38.930476, "bike_id": "5552c4d3e914a5f980b089826907f02d", "type": "electric_scooter", "is_reserved": 0, "lon": -77.03225666666667}, {"fusion_lat": 0.0, "name": "0b9ecfdbe2558f37ce0020c9bfa7dd3a", "is_disabled": 0, "rental_uris": {"android": "https://dc.lft.to/lastmile_qr_scan", "ios": "https://dc.lft.to/lastmile_qr_scan"}, "fusion_lon": 0.0, "lat": 38.92610766666667, "bike_id": "0b9ecfdbe2558f37ce0020c9bfa7dd3a", "type": "electric_scooter", "is_reserved": 0, "lon": -77.02390033333333}, {"fusion_lat": 0.0, "name": "c70836c0591f7d2f3bd8792116009e0c", "is_disabled": 0, "rental_uris": {"android": "https://dc.lft.to/lastmile_qr_scan", "ios": "https://dc.lft.to/lastmile_qr_scan"}, "fusion_lon": 0.0, "lat": 38.92628633333333, "bike_id": "c70836c0591f7d2f3bd8792116009e0c", "type": "electric_scooter", "is_reserved": 0, "lon": -77.04191283333333}, {"fusion_lat": 0.0, "name": "517f4b6de82623999b18858fc7f2287a", "is_disabled": 0, "rental_uris": {"android": "https://dc.lft.to/lastmile_qr_scan", "ios": "https://dc.lft.to/lastmile_qr_scan"}, "fusion_lon": 0.0, "lat": 38.93381516666667, "bike_id": "517f4b6de82623999b18858fc7f2287a", "type": "electric_scooter", "is_reserved": 0, "lon": -77.0440805}, {"fusion_lat": 0.0, "name": "45093a916b683dfbc36202bf4bbb4c07", "is_disabled": 0, "rental_uris": {"android": "https://dc.lft.to/lastmile_qr_scan", "ios": "https://dc.lft.to/lastmile_qr_scan"}, "fusion_lon": 0.0, "lat": 38.93373716666667, "bike_id": "45093a916b683dfbc36202bf4bbb4c07", "type": "electric_scooter", "is_reserved": 0, "lon": -77.03864466666667}, {"fusion_lat": 0.0, "name": "0af66f4bc476aacd3fca8fe2da556d0a", "is_disabled": 0, "rental_uris": {"android": "https://dc.lft.to/lastmile_qr_scan", "ios": "https://dc.lft.to/lastmile_qr_scan"}, "fusion_lon": 0.0, "lat": 38.906886666666665, "bike_id": "0af66f4bc476aacd3fca8fe2da556d0a", "type": "electric_scooter", "is_reserved": 0, "lon": -77.05048933333333}, {"fusion_lat": 0.0, "name": "89d25700c44ffc97f1c72f5398257381", "is_disabled": 0, "rental_uris": {"android": "https://dc.lft.to/lastmile_qr_scan", "ios": "https://dc.lft.to/lastmile_qr_scan"}, "fusion_lon": 0.0, "lat": 38.90178733333333, "bike_id": "89d25700c44ffc97f1c72f5398257381", "type": "electric_scooter", "is_reserved": 0, "lon": -76.99251716666667}, {"fusion_lat": 0.0, "name": "ea169e955b47b54cf38e9b8c448a0beb", "is_disabled": 0, "rental_uris": {"android": "https://dc.lft.to/lastmile_qr_scan", "ios": "https://dc.lft.to/lastmile_qr_scan"}, "fusion_lon": 0.0, "lat": 38.9058575, "bike_id": "ea169e955b47b54cf38e9b8c448a0beb", "type": "electric_scooter", "is_reserved": 0, "lon": -77.04561416666667}, {"fusion_lat": 0.0, "name": "9a845ef3a85918f392b05b1d1037dafc", "is_disabled": 0, "rental_uris": {"android": "https://dc.lft.to/lastmile_qr_scan", "ios": "https://dc.lft.to/lastmile_qr_scan"}, "fusion_lon": 0.0, "lat": 38.904997, "bike_id": "9a845ef3a85918f392b05b1d1037dafc", "type": "electric_scooter", "is_reserved": 0, "lon": -77.00937416666666}, {"fusion_lat": 0.0, "name": "1fe9ed8efe169dbb10362f72c97be2d2", "is_disabled": 0, "rental_uris": {"android": "https://dc.lft.to/lastmile_qr_scan", "ios": "https://dc.lft.to/lastmile_qr_scan"}, "fusion_lon": 0.0, "lat": 38.90279266666667, "bike_id": "1fe9ed8efe169dbb10362f72c97be2d2", "type": "electric_scooter", "is_reserved": 0, "lon": -77.013642}, {"fusion_lat": 0.0, "name": "b8cc769e366b21aafbbeecebf0f7eb89", "is_disabled": 0, "rental_uris": {"android": "https://dc.lft.to/lastmile_qr_scan", "ios": "https://dc.lft.to/lastmile_qr_scan"}, "fusion_lon": 0.0, "lat": 38.871437, "bike_id": "b8cc769e366b21aafbbeecebf0f7eb89", "type": "electric_scooter", "is_reserved": 0, "lon": -77.005835}, {"fusion_lat": 0.0, "name": "3e8d4107fc77a4ff82c7c9e8d40f5f60", "is_disabled": 0, "rental_uris": {"android": "https://dc.lft.to/lastmile_qr_scan", "ios": "https://dc.lft.to/lastmile_qr_scan"}, "fusion_lon": 0.0, "lat": 38.928757, "bike_id": "3e8d4107fc77a4ff82c7c9e8d40f5f60", "type": "electric_scooter", "is_reserved": 0, "lon": -77.01372983333333}, {"fusion_lat": 0.0, "name": "af758af95bea17317f7d5d0b2cd12dc1", "is_disabled": 0, "rental_uris": {"android": "https://dc.lft.to/lastmile_qr_scan", "ios": "https://dc.lft.to/lastmile_qr_scan"}, "fusion_lon": 0.0, "lat": 38.92182316666667, "bike_id": "af758af95bea17317f7d5d0b2cd12dc1", "type": "electric_scooter", "is_reserved": 0, "lon": -77.04015383333333}, {"fusion_lat": 0.0, "name": "248990ffb209aded10090730878dfcc9", "is_disabled": 0, "rental_uris": {"android": "https://dc.lft.to/lastmile_qr_scan", "ios": "https://dc.lft.to/lastmile_qr_scan"}, "fusion_lon": 0.0, "lat": 38.92240983333333, "bike_id": "248990ffb209aded10090730878dfcc9", "type": "electric_scooter", "is_reserved": 0, "lon": -77.029109}, {"fusion_lat": 0.0, "name": "3f6e60108fd3ed3d147c08c12a1b112e", "is_disabled": 0, "rental_uris": {"android": "https://dc.lft.to/lastmile_qr_scan", "ios": "https://dc.lft.to/lastmile_qr_scan"}, "fusion_lon": 0.0, "lat": 38.905776833333334, "bike_id": "3f6e60108fd3ed3d147c08c12a1b112e", "type": "electric_scooter", "is_reserved": 0, "lon": -77.0209885}, {"fusion_lat": 0.0, "name": "03044a4e82cf522b6ce0af6a3764e870", "is_disabled": 0, "rental_uris": {"android": "https://dc.lft.to/lastmile_qr_scan", "ios": "https://dc.lft.to/lastmile_qr_scan"}, "fusion_lon": 0.0, "lat": 38.887432, "bike_id": "03044a4e82cf522b6ce0af6a3764e870", "type": "electric_scooter", "is_reserved": 0, "lon": -77.01515666666667}, {"fusion_lat": 0.0, "name": "4af7bc703e80e8295273313f42e92de0", "is_disabled": 0, "rental_uris": {"android": "https://dc.lft.to/lastmile_qr_scan", "ios": "https://dc.lft.to/lastmile_qr_scan"}, "fusion_lon": 0.0, "lat": 38.80687866666667, "bike_id": "4af7bc703e80e8295273313f42e92de0", "type": "electric_bike", "is_reserved": 0, "lon": -77.06919366666666}, {"fusion_lat": 0.0, "name": "2e6b66564a8f333af32e8069d0cc2961", "is_disabled": 0, "rental_uris": {"android": "https://dc.lft.to/lastmile_qr_scan", "ios": "https://dc.lft.to/lastmile_qr_scan"}, "fusion_lon": 0.0, "lat": 38.892321333333335, "bike_id": "2e6b66564a8f333af32e8069d0cc2961", "type": "electric_scooter", "is_reserved": 0, "lon": -76.98817866666667}, {"fusion_lat": 0.0, "name": "e4e72871d99ad9f3f4a3a5dbc32cfdaf", "is_disabled": 0, "rental_uris": {"android": "https://dc.lft.to/lastmile_qr_scan", "ios": "https://dc.lft.to/lastmile_qr_scan"}, "fusion_lon": 0.0, "lat": 38.9021545, "bike_id": "e4e72871d99ad9f3f4a3a5dbc32cfdaf", "type": "electric_scooter", "is_reserved": 0, "lon": -77.01880016666667}, {"fusion_lat": 0.0, "name": "7b9c55f2ac9efc5dbe46934d42567957", "is_disabled": 0, "rental_uris": {"android": "https://dc.lft.to/lastmile_qr_scan", "ios": "https://dc.lft.to/lastmile_qr_scan"}, "fusion_lon": 0.0, "lat": 38.91518033333333, "bike_id": "7b9c55f2ac9efc5dbe46934d42567957", "type": "electric_scooter", "is_reserved": 0, "lon": -77.03260333333333}, {"fusion_lat": 0.0, "name": "2877c127dbe51ddf512d6d87df536726", "is_disabled": 0, "rental_uris": {"android": "https://dc.lft.to/lastmile_qr_scan", "ios": "https://dc.lft.to/lastmile_qr_scan"}, "fusion_lon": 0.0, "lat": 38.90538983333333, "bike_id": "2877c127dbe51ddf512d6d87df536726", "type": "electric_bike", "is_reserved": 0, "lon": -76.99810033333333}, {"fusion_lat": 0.0, "name": "27812e0c4304bbc2e64289a97efbb215", "is_disabled": 0, "rental_uris": {"android": "https://dc.lft.to/lastmile_qr_scan", "ios": "https://dc.lft.to/lastmile_qr_scan"}, "fusion_lon": 0.0, "lat": 38.90343633333333, "bike_id": "27812e0c4304bbc2e64289a97efbb215", "type": "electric_scooter", "is_reserved": 0, "lon": -77.04489533333333}, {"fusion_lat": 0.0, "name": "9b11a4f534a20319d7b35a76928e7f77", "is_disabled": 0, "rental_uris": {"android": "https://dc.lft.to/lastmile_qr_scan", "ios": "https://dc.lft.to/lastmile_qr_scan"}, "fusion_lon": 0.0, "lat": 38.90898116666666, "bike_id": "9b11a4f534a20319d7b35a76928e7f77", "type": "electric_scooter", "is_reserved": 0, "lon": -77.042925}, {"fusion_lat": 0.0, "name": "a6311d29ed58f0f30bdb83cce56170b3", "is_disabled": 0, "rental_uris": {"android": "https://dc.lft.to/lastmile_qr_scan", "ios": "https://dc.lft.to/lastmile_qr_scan"}, "fusion_lon": 0.0, "lat": 38.930593, "bike_id": "a6311d29ed58f0f30bdb83cce56170b3", "type": "electric_scooter", "is_reserved": 0, "lon": -77.037966}, {"fusion_lat": 0.0, "name": "2eef297e8493f397e30a7ef06a28b970", "is_disabled": 0, "rental_uris": {"android": "https://dc.lft.to/lastmile_qr_scan", "ios": "https://dc.lft.to/lastmile_qr_scan"}, "fusion_lon": 0.0, "lat": 38.91534816666667, "bike_id": "2eef297e8493f397e30a7ef06a28b970", "type": "electric_scooter", "is_reserved": 0, "lon": -77.0121965}, {"fusion_lat": 0.0, "name": "f01286187fdb52f910a8b7296bf8779d", "is_disabled": 0, "rental_uris": {"android": "https://dc.lft.to/lastmile_qr_scan", "ios": "https://dc.lft.to/lastmile_qr_scan"}, "fusion_lon": 0.0, "lat": 38.89565266666666, "bike_id": "f01286187fdb52f910a8b7296bf8779d", "type": "electric_scooter", "is_reserved": 0, "lon": -76.94878866666667}, {"fusion_lat": 0.0, "name": "a73cfd51f63ddb802303ae60be7286ce", "is_disabled": 0, "rental_uris": {"android": "https://dc.lft.to/lastmile_qr_scan", "ios": "https://dc.lft.to/lastmile_qr_scan"}, "fusion_lon": 0.0, "lat": 38.93505, "bike_id": "a73cfd51f63ddb802303ae60be7286ce", "type": "electric_scooter", "is_reserved": 0, "lon": -77.0733345}, {"fusion_lat": 0.0, "name": "7453ad4bced51c994d86140a7b2abbc6", "is_disabled": 0, "rental_uris": {"android": "https://dc.lft.to/lastmile_qr_scan", "ios": "https://dc.lft.to/lastmile_qr_scan"}, "fusion_lon": 0.0, "lat": 38.92252283333333, "bike_id": "7453ad4bced51c994d86140a7b2abbc6", "type": "electric_scooter", "is_reserved": 0, "lon": -77.03080016666667}, {"fusion_lat": 0.0, "name": "37e587850e0292597d50522836026da7", "is_disabled": 0, "rental_uris": {"android": "https://dc.lft.to/lastmile_qr_scan", "ios": "https://dc.lft.to/lastmile_qr_scan"}, "fusion_lon": 0.0, "lat": 38.89730516666667, "bike_id": "37e587850e0292597d50522836026da7", "type": "electric_scooter", "is_reserved": 0, "lon": -77.019175}, {"fusion_lat": 0.0, "name": "98e87ffc075fdcbf9d678f29f9ab564f", "is_disabled": 0, "rental_uris": {"android": "https://dc.lft.to/lastmile_qr_scan", "ios": "https://dc.lft.to/lastmile_qr_scan"}, "fusion_lon": 0.0, "lat": 38.890935166666665, "bike_id": "98e87ffc075fdcbf9d678f29f9ab564f", "type": "electric_scooter", "is_reserved": 0, "lon": -76.91924616666667}, {"fusion_lat": 0.0, "name": "02915627efef2f0caee13b9f79ba295f", "is_disabled": 0, "rental_uris": {"android": "https://dc.lft.to/lastmile_qr_scan", "ios": "https://dc.lft.to/lastmile_qr_scan"}, "fusion_lon": 0.0, "lat": 38.908843166666664, "bike_id": "02915627efef2f0caee13b9f79ba295f", "type": "electric_scooter", "is_reserved": 0, "lon": -76.99815083333333}, {"fusion_lat": 0.0, "name": "d01e51cf38ca7bc2d90cc07a63076070", "is_disabled": 0, "rental_uris": {"android": "https://dc.lft.to/lastmile_qr_scan", "ios": "https://dc.lft.to/lastmile_qr_scan"}, "fusion_lon": 0.0, "lat": 38.923387, "bike_id": "d01e51cf38ca7bc2d90cc07a63076070", "type": "electric_scooter", "is_reserved": 0, "lon": -77.036116}, {"fusion_lat": 0.0, "name": "c2d3d2f5b054b25c9a1d3245881e8228", "is_disabled": 0, "rental_uris": {"android": "https://dc.lft.to/lastmile_qr_scan", "ios": "https://dc.lft.to/lastmile_qr_scan"}, "fusion_lon": 0.0, "lat": 38.9280795, "bike_id": "c2d3d2f5b054b25c9a1d3245881e8228", "type": "electric_scooter", "is_reserved": 0, "lon": -77.0432885}, {"fusion_lat": 0.0, "name": "2698971b92b59b6997b8693953e4d8eb", "is_disabled": 0, "rental_uris": {"android": "https://dc.lft.to/lastmile_qr_scan", "ios": "https://dc.lft.to/lastmile_qr_scan"}, "fusion_lon": 0.0, "lat": 38.9444635, "bike_id": "2698971b92b59b6997b8693953e4d8eb", "type": "electric_bike", "is_reserved": 0, "lon": -77.026018}, {"fusion_lat": 0.0, "name": "4ee9c3206402458498a5351c33545243", "is_disabled": 0, "rental_uris": {"android": "https://dc.lft.to/lastmile_qr_scan", "ios": "https://dc.lft.to/lastmile_qr_scan"}, "fusion_lon": 0.0, "lat": 38.905103833333335, "bike_id": "4ee9c3206402458498a5351c33545243", "type": "electric_scooter", "is_reserved": 0, "lon": -76.984805}, {"fusion_lat": 0.0, "name": "6bb0b8722dde88aedab5285a2ab73627", "is_disabled": 0, "rental_uris": {"android": "https://dc.lft.to/lastmile_qr_scan", "ios": "https://dc.lft.to/lastmile_qr_scan"}, "fusion_lon": 0.0, "lat": 38.911125166666665, "bike_id": "6bb0b8722dde88aedab5285a2ab73627", "type": "electric_scooter", "is_reserved": 0, "lon": -77.0210485}, {"fusion_lat": 0.0, "name": "6ed1adf40bc5ef3b4cac61167f32a8dc", "is_disabled": 0, "rental_uris": {"android": "https://dc.lft.to/lastmile_qr_scan", "ios": "https://dc.lft.to/lastmile_qr_scan"}, "fusion_lon": 0.0, "lat": 38.9076185, "bike_id": "6ed1adf40bc5ef3b4cac61167f32a8dc", "type": "electric_scooter", "is_reserved": 0, "lon": -77.00038716666667}, {"fusion_lat": 0.0, "name": "9b4cc3c4d053f4d4929216b692e40111", "is_disabled": 0, "rental_uris": {"android": "https://dc.lft.to/lastmile_qr_scan", "ios": "https://dc.lft.to/lastmile_qr_scan"}, "fusion_lon": 0.0, "lat": 38.924578833333335, "bike_id": "9b4cc3c4d053f4d4929216b692e40111", "type": "electric_scooter", "is_reserved": 0, "lon": -76.971105}, {"fusion_lat": 0.0, "name": "f504888b869c98ccc4be27ae03418bc9", "is_disabled": 0, "rental_uris": {"android": "https://dc.lft.to/lastmile_qr_scan", "ios": "https://dc.lft.to/lastmile_qr_scan"}, "fusion_lon": 0.0, "lat": 38.9237435, "bike_id": "f504888b869c98ccc4be27ae03418bc9", "type": "electric_scooter", "is_reserved": 0, "lon": -77.05021316666667}, {"fusion_lat": 0.0, "name": "d138087d10957ed287c47eeb9f81b119", "is_disabled": 0, "rental_uris": {"android": "https://dc.lft.to/lastmile_qr_scan", "ios": "https://dc.lft.to/lastmile_qr_scan"}, "fusion_lon": 0.0, "lat": 38.954483333333336, "bike_id": "d138087d10957ed287c47eeb9f81b119", "type": "electric_scooter", "is_reserved": 0, "lon": -77.0077045}, {"fusion_lat": 0.0, "name": "910939505df69b548514291ac54c1c8d", "is_disabled": 0, "rental_uris": {"android": "https://dc.lft.to/lastmile_qr_scan", "ios": "https://dc.lft.to/lastmile_qr_scan"}, "fusion_lon": 0.0, "lat": 38.907965833333336, "bike_id": "910939505df69b548514291ac54c1c8d", "type": "electric_scooter", "is_reserved": 0, "lon": -77.04328416666667}, {"fusion_lat": 0.0, "name": "e313ee1da510835c9f98839a8bf55d02", "is_disabled": 0, "rental_uris": {"android": "https://dc.lft.to/lastmile_qr_scan", "ios": "https://dc.lft.to/lastmile_qr_scan"}, "fusion_lon": 0.0, "lat": 38.93081383333333, "bike_id": "e313ee1da510835c9f98839a8bf55d02", "type": "electric_scooter", "is_reserved": 0, "lon": -77.0315715}, {"fusion_lat": 0.0, "name": "5c14bd5dd2217a05ace46672b22823c3", "is_disabled": 0, "rental_uris": {"android": "https://dc.lft.to/lastmile_qr_scan", "ios": "https://dc.lft.to/lastmile_qr_scan"}, "fusion_lon": 0.0, "lat": 38.874809166666665, "bike_id": "5c14bd5dd2217a05ace46672b22823c3", "type": "electric_scooter", "is_reserved": 0, "lon": -77.0040275}, {"fusion_lat": 0.0, "name": "a097ffe0b7cbf7b27f810f7f64290bfe", "is_disabled": 0, "rental_uris": {"android": "https://dc.lft.to/lastmile_qr_scan", "ios": "https://dc.lft.to/lastmile_qr_scan"}, "fusion_lon": 0.0, "lat": 38.907250833333336, "bike_id": "a097ffe0b7cbf7b27f810f7f64290bfe", "type": "electric_scooter", "is_reserved": 0, "lon": -77.01199}, {"fusion_lat": 0.0, "name": "c4ff3f18bd5ff593d42fb5ff78097280", "is_disabled": 0, "rental_uris": {"android": "https://dc.lft.to/lastmile_qr_scan", "ios": "https://dc.lft.to/lastmile_qr_scan"}, "fusion_lon": 0.0, "lat": 38.88437533333333, "bike_id": "c4ff3f18bd5ff593d42fb5ff78097280", "type": "electric_scooter", "is_reserved": 0, "lon": -77.02974866666666}, {"fusion_lat": 0.0, "name": "41ee5001d55a1673e4b2419c296d73e7", "is_disabled": 0, "rental_uris": {"android": "https://dc.lft.to/lastmile_qr_scan", "ios": "https://dc.lft.to/lastmile_qr_scan"}, "fusion_lon": 0.0, "lat": 38.90445016666666, "bike_id": "41ee5001d55a1673e4b2419c296d73e7", "type": "electric_scooter", "is_reserved": 0, "lon": -76.97947683333334}, {"fusion_lat": 0.0, "name": "135117d35f588945ad117b837b27e76f", "is_disabled": 0, "rental_uris": {"android": "https://dc.lft.to/lastmile_qr_scan", "ios": "https://dc.lft.to/lastmile_qr_scan"}, "fusion_lon": 0.0, "lat": 38.8361145, "bike_id": "135117d35f588945ad117b837b27e76f", "type": "electric_bike", "is_reserved": 0, "lon": -77.003778}, {"fusion_lat": 0.0, "name": "b81929f981814d0bb9ee47a6fe41a723", "is_disabled": 0, "rental_uris": {"android": "https://dc.lft.to/lastmile_qr_scan", "ios": "https://dc.lft.to/lastmile_qr_scan"}, "fusion_lon": 0.0, "lat": 38.895869, "bike_id": "b81929f981814d0bb9ee47a6fe41a723", "type": "electric_scooter", "is_reserved": 0, "lon": -77.02312516666667}, {"fusion_lat": 0.0, "name": "3a8ff003b247b3e2bd260e2f280440e8", "is_disabled": 0, "rental_uris": {"android": "https://dc.lft.to/lastmile_qr_scan", "ios": "https://dc.lft.to/lastmile_qr_scan"}, "fusion_lon": 0.0, "lat": 38.89759733333333, "bike_id": "3a8ff003b247b3e2bd260e2f280440e8", "type": "electric_scooter", "is_reserved": 0, "lon": -77.02578683333333}, {"fusion_lat": 0.0, "name": "52975398e8bd8dd3d85377bd3aa48075", "is_disabled": 0, "rental_uris": {"android": "https://dc.lft.to/lastmile_qr_scan", "ios": "https://dc.lft.to/lastmile_qr_scan"}, "fusion_lon": 0.0, "lat": 38.8880435, "bike_id": "52975398e8bd8dd3d85377bd3aa48075", "type": "electric_bike", "is_reserved": 0, "lon": -76.9299565}, {"fusion_lat": 0.0, "name": "3a26ff2038fc2b53b3910f8933e87584", "is_disabled": 0, "rental_uris": {"android": "https://dc.lft.to/lastmile_qr_scan", "ios": "https://dc.lft.to/lastmile_qr_scan"}, "fusion_lon": 0.0, "lat": 38.93510583333333, "bike_id": "3a26ff2038fc2b53b3910f8933e87584", "type": "electric_scooter", "is_reserved": 0, "lon": -77.03287483333334}, {"fusion_lat": 0.0, "name": "ea5634f3e123565fd0da952b6758ec56", "is_disabled": 0, "rental_uris": {"android": "https://dc.lft.to/lastmile_qr_scan", "ios": "https://dc.lft.to/lastmile_qr_scan"}, "fusion_lon": 0.0, "lat": 38.921305833333335, "bike_id": "ea5634f3e123565fd0da952b6758ec56", "type": "electric_scooter", "is_reserved": 0, "lon": -77.04422566666666}, {"fusion_lat": 0.0, "name": "398a4b6ed4effa3e27bcf9b547bdd462", "is_disabled": 0, "rental_uris": {"android": "https://dc.lft.to/lastmile_qr_scan", "ios": "https://dc.lft.to/lastmile_qr_scan"}, "fusion_lon": 0.0, "lat": 38.91806533333333, "bike_id": "398a4b6ed4effa3e27bcf9b547bdd462", "type": "electric_scooter", "is_reserved": 0, "lon": -77.0401485}, {"fusion_lat": 0.0, "name": "ca142188aeea4b49d4ed6946087e6344", "is_disabled": 0, "rental_uris": {"android": "https://dc.lft.to/lastmile_qr_scan", "ios": "https://dc.lft.to/lastmile_qr_scan"}, "fusion_lon": 0.0, "lat": 38.92182116666667, "bike_id": "ca142188aeea4b49d4ed6946087e6344", "type": "electric_scooter", "is_reserved": 0, "lon": -77.0266445}, {"fusion_lat": 0.0, "name": "01bb142afc7d40caa76255deb4ebd318", "is_disabled": 0, "rental_uris": {"android": "https://dc.lft.to/lastmile_qr_scan", "ios": "https://dc.lft.to/lastmile_qr_scan"}, "fusion_lon": 0.0, "lat": 38.92992116666667, "bike_id": "01bb142afc7d40caa76255deb4ebd318", "type": "electric_scooter", "is_reserved": 0, "lon": -77.03472133333334}, {"fusion_lat": 0.0, "name": "6b40803e3c053d40181e7d632907cdf4", "is_disabled": 0, "rental_uris": {"android": "https://dc.lft.to/lastmile_qr_scan", "ios": "https://dc.lft.to/lastmile_qr_scan"}, "fusion_lon": 0.0, "lat": 38.90397883333333, "bike_id": "6b40803e3c053d40181e7d632907cdf4", "type": "electric_scooter", "is_reserved": 0, "lon": -77.034247}, {"fusion_lat": 0.0, "name": "c46de6aec8a27c7b14afac4993330cbb", "is_disabled": 0, "rental_uris": {"android": "https://dc.lft.to/lastmile_qr_scan", "ios": "https://dc.lft.to/lastmile_qr_scan"}, "fusion_lon": 0.0, "lat": 38.898313333333334, "bike_id": "c46de6aec8a27c7b14afac4993330cbb", "type": "electric_scooter", "is_reserved": 0, "lon": -77.02981816666667}, {"fusion_lat": 0.0, "name": "ba19105e8a1f725a30ade5b31a222ddb", "is_disabled": 0, "rental_uris": {"android": "https://dc.lft.to/lastmile_qr_scan", "ios": "https://dc.lft.to/lastmile_qr_scan"}, "fusion_lon": 0.0, "lat": 38.922197, "bike_id": "ba19105e8a1f725a30ade5b31a222ddb", "type": "electric_scooter", "is_reserved": 0, "lon": -77.0201745}, {"fusion_lat": 0.0, "name": "94bb7a415ae1f461424deb2489ab4bb9", "is_disabled": 0, "rental_uris": {"android": "https://dc.lft.to/lastmile_qr_scan", "ios": "https://dc.lft.to/lastmile_qr_scan"}, "fusion_lon": 0.0, "lat": 38.890178166666665, "bike_id": "94bb7a415ae1f461424deb2489ab4bb9", "type": "electric_scooter", "is_reserved": 0, "lon": -76.93736916666667}, {"fusion_lat": 0.0, "name": "1a1bf4d62abe4c93bbc1424f9a976e6b", "is_disabled": 0, "rental_uris": {"android": "https://dc.lft.to/lastmile_qr_scan", "ios": "https://dc.lft.to/lastmile_qr_scan"}, "fusion_lon": 0.0, "lat": 38.876582666666664, "bike_id": "1a1bf4d62abe4c93bbc1424f9a976e6b", "type": "electric_scooter", "is_reserved": 0, "lon": -77.00324}, {"fusion_lat": 0.0, "name": "f5a7c9837a701732d4229dc2702199e6", "is_disabled": 0, "rental_uris": {"android": "https://dc.lft.to/lastmile_qr_scan", "ios": "https://dc.lft.to/lastmile_qr_scan"}, "fusion_lon": 0.0, "lat": 38.89241333333333, "bike_id": "f5a7c9837a701732d4229dc2702199e6", "type": "electric_scooter", "is_reserved": 0, "lon": -77.03962416666667}, {"fusion_lat": 0.0, "name": "f21036da3af8cf915aa69a5eb634a275", "is_disabled": 0, "rental_uris": {"android": "https://dc.lft.to/lastmile_qr_scan", "ios": "https://dc.lft.to/lastmile_qr_scan"}, "fusion_lon": 0.0, "lat": 38.920899, "bike_id": "f21036da3af8cf915aa69a5eb634a275", "type": "electric_scooter", "is_reserved": 0, "lon": -77.0147665}, {"fusion_lat": 0.0, "name": "ca9f68ff9d7710cb6ce01afe8f019d6e", "is_disabled": 0, "rental_uris": {"android": "https://dc.lft.to/lastmile_qr_scan", "ios": "https://dc.lft.to/lastmile_qr_scan"}, "fusion_lon": 0.0, "lat": 38.967025, "bike_id": "ca9f68ff9d7710cb6ce01afe8f019d6e", "type": "electric_bike", "is_reserved": 0, "lon": -77.02827116666667}, {"fusion_lat": 0.0, "name": "1d6f7997f245f29c6229df0314d65599", "is_disabled": 0, "rental_uris": {"android": "https://dc.lft.to/lastmile_qr_scan", "ios": "https://dc.lft.to/lastmile_qr_scan"}, "fusion_lon": 0.0, "lat": 38.902470666666666, "bike_id": "1d6f7997f245f29c6229df0314d65599", "type": "electric_scooter", "is_reserved": 0, "lon": -77.01884216666667}, {"fusion_lat": 0.0, "name": "14b920744fdd220a1d59609382886710", "is_disabled": 0, "rental_uris": {"android": "https://dc.lft.to/lastmile_qr_scan", "ios": "https://dc.lft.to/lastmile_qr_scan"}, "fusion_lon": 0.0, "lat": 38.90208883333333, "bike_id": "14b920744fdd220a1d59609382886710", "type": "electric_scooter", "is_reserved": 0, "lon": -77.01839883333334}, {"fusion_lat": 0.0, "name": "a5dcbd3c5e17dc16dc8857113f421356", "is_disabled": 0, "rental_uris": {"android": "https://dc.lft.to/lastmile_qr_scan", "ios": "https://dc.lft.to/lastmile_qr_scan"}, "fusion_lon": 0.0, "lat": 38.892365, "bike_id": "a5dcbd3c5e17dc16dc8857113f421356", "type": "electric_scooter", "is_reserved": 0, "lon": -77.02382066666667}, {"fusion_lat": 0.0, "name": "acbf0a660b0694845adcbf590dc2d7ef", "is_disabled": 0, "rental_uris": {"android": "https://dc.lft.to/lastmile_qr_scan", "ios": "https://dc.lft.to/lastmile_qr_scan"}, "fusion_lon": 0.0, "lat": 38.9047245, "bike_id": "acbf0a660b0694845adcbf590dc2d7ef", "type": "electric_scooter", "is_reserved": 0, "lon": -77.053196}, {"fusion_lat": 0.0, "name": "6e3a1e229f6293c8b8d65d29b29061cd", "is_disabled": 0, "rental_uris": {"android": "https://dc.lft.to/lastmile_qr_scan", "ios": "https://dc.lft.to/lastmile_qr_scan"}, "fusion_lon": 0.0, "lat": 38.871796833333335, "bike_id": "6e3a1e229f6293c8b8d65d29b29061cd", "type": "electric_scooter", "is_reserved": 0, "lon": -77.00904033333333}, {"fusion_lat": 0.0, "name": "eea8ad8bfffa3e65d71833025750fe82", "is_disabled": 0, "rental_uris": {"android": "https://dc.lft.to/lastmile_qr_scan", "ios": "https://dc.lft.to/lastmile_qr_scan"}, "fusion_lon": 0.0, "lat": 38.921170000000004, "bike_id": "eea8ad8bfffa3e65d71833025750fe82", "type": "electric_scooter", "is_reserved": 0, "lon": -77.0176305}, {"fusion_lat": 0.0, "name": "eec23c4572ef94a3f25fd9fd5a8962fb", "is_disabled": 0, "rental_uris": {"android": "https://dc.lft.to/lastmile_qr_scan", "ios": "https://dc.lft.to/lastmile_qr_scan"}, "fusion_lon": 0.0, "lat": 38.923529, "bike_id": "eec23c4572ef94a3f25fd9fd5a8962fb", "type": "electric_scooter", "is_reserved": 0, "lon": -77.0341475}, {"fusion_lat": 0.0, "name": "1c9379d7b4c2b1624d2b2fdf1974a87a", "is_disabled": 0, "rental_uris": {"android": "https://dc.lft.to/lastmile_qr_scan", "ios": "https://dc.lft.to/lastmile_qr_scan"}, "fusion_lon": 0.0, "lat": 38.892223, "bike_id": "1c9379d7b4c2b1624d2b2fdf1974a87a", "type": "electric_scooter", "is_reserved": 0, "lon": -77.02219816666667}, {"fusion_lat": 0.0, "name": "68aca4ac46bb72151b9b56f17222bafd", "is_disabled": 0, "rental_uris": {"android": "https://dc.lft.to/lastmile_qr_scan", "ios": "https://dc.lft.to/lastmile_qr_scan"}, "fusion_lon": 0.0, "lat": 38.91431816666667, "bike_id": "68aca4ac46bb72151b9b56f17222bafd", "type": "electric_scooter", "is_reserved": 0, "lon": -77.04488316666666}, {"fusion_lat": 0.0, "name": "db8253232c03a220b24a1d6aa6aae113", "is_disabled": 0, "rental_uris": {"android": "https://dc.lft.to/lastmile_qr_scan", "ios": "https://dc.lft.to/lastmile_qr_scan"}, "fusion_lon": 0.0, "lat": 38.902718, "bike_id": "db8253232c03a220b24a1d6aa6aae113", "type": "electric_scooter", "is_reserved": 0, "lon": -77.01763183333334}, {"fusion_lat": 0.0, "name": "d67af96f1eeb40cfa47a3ea36578b311", "is_disabled": 0, "rental_uris": {"android": "https://dc.lft.to/lastmile_qr_scan", "ios": "https://dc.lft.to/lastmile_qr_scan"}, "fusion_lon": 0.0, "lat": 38.9418175, "bike_id": "d67af96f1eeb40cfa47a3ea36578b311", "type": "electric_scooter", "is_reserved": 0, "lon": -77.036555}, {"fusion_lat": 0.0, "name": "b064280b5a7bf32c7f519f05f4630d7c", "is_disabled": 0, "rental_uris": {"android": "https://dc.lft.to/lastmile_qr_scan", "ios": "https://dc.lft.to/lastmile_qr_scan"}, "fusion_lon": 0.0, "lat": 38.92142466666667, "bike_id": "b064280b5a7bf32c7f519f05f4630d7c", "type": "electric_scooter", "is_reserved": 0, "lon": -77.040079}, {"fusion_lat": 0.0, "name": "ccf75f109c12ee9715fc5ca5f20e1813", "is_disabled": 0, "rental_uris": {"android": "https://dc.lft.to/lastmile_qr_scan", "ios": "https://dc.lft.to/lastmile_qr_scan"}, "fusion_lon": 0.0, "lat": 38.91726116666667, "bike_id": "ccf75f109c12ee9715fc5ca5f20e1813", "type": "electric_scooter", "is_reserved": 0, "lon": -77.00811033333333}, {"fusion_lat": 0.0, "name": "8cb7e2e866ba92a0b399a8391c368ae5", "is_disabled": 0, "rental_uris": {"android": "https://dc.lft.to/lastmile_qr_scan", "ios": "https://dc.lft.to/lastmile_qr_scan"}, "fusion_lon": 0.0, "lat": 38.8579415, "bike_id": "8cb7e2e866ba92a0b399a8391c368ae5", "type": "electric_bike", "is_reserved": 0, "lon": -76.9874085}, {"fusion_lat": 0.0, "name": "c444342dedc52f31bca98f42c6b78aa2", "is_disabled": 0, "rental_uris": {"android": "https://dc.lft.to/lastmile_qr_scan", "ios": "https://dc.lft.to/lastmile_qr_scan"}, "fusion_lon": 0.0, "lat": 38.88546683333333, "bike_id": "c444342dedc52f31bca98f42c6b78aa2", "type": "electric_scooter", "is_reserved": 0, "lon": -77.03335216666666}, {"fusion_lat": 0.0, "name": "843a7cf52b9800fc1b566c8393a7f552", "is_disabled": 0, "rental_uris": {"android": "https://dc.lft.to/lastmile_qr_scan", "ios": "https://dc.lft.to/lastmile_qr_scan"}, "fusion_lon": 0.0, "lat": 38.923298833333334, "bike_id": "843a7cf52b9800fc1b566c8393a7f552", "type": "electric_scooter", "is_reserved": 0, "lon": -77.03748383333334}, {"fusion_lat": 0.0, "name": "1c4d78e53067fe0113a0fe6e5448f6cc", "is_disabled": 0, "rental_uris": {"android": "https://dc.lft.to/lastmile_qr_scan", "ios": "https://dc.lft.to/lastmile_qr_scan"}, "fusion_lon": 0.0, "lat": 38.8922145, "bike_id": "1c4d78e53067fe0113a0fe6e5448f6cc", "type": "electric_scooter", "is_reserved": 0, "lon": -77.02625066666667}, {"fusion_lat": 0.0, "name": "e910c79d046185206a4a22ee10ec03b7", "is_disabled": 0, "rental_uris": {"android": "https://dc.lft.to/lastmile_qr_scan", "ios": "https://dc.lft.to/lastmile_qr_scan"}, "fusion_lon": 0.0, "lat": 38.90110766666667, "bike_id": "e910c79d046185206a4a22ee10ec03b7", "type": "electric_scooter", "is_reserved": 0, "lon": -77.01973083333333}, {"fusion_lat": 0.0, "name": "1116ffcef79eaab1f78416c4800f65c3", "is_disabled": 0, "rental_uris": {"android": "https://dc.lft.to/lastmile_qr_scan", "ios": "https://dc.lft.to/lastmile_qr_scan"}, "fusion_lon": 0.0, "lat": 38.91027716666667, "bike_id": "1116ffcef79eaab1f78416c4800f65c3", "type": "electric_scooter", "is_reserved": 0, "lon": -77.0075465}, {"fusion_lat": 0.0, "name": "889a43849f500c616ce31379174a293f", "is_disabled": 0, "rental_uris": {"android": "https://dc.lft.to/lastmile_qr_scan", "ios": "https://dc.lft.to/lastmile_qr_scan"}, "fusion_lon": 0.0, "lat": 38.918157666666666, "bike_id": "889a43849f500c616ce31379174a293f", "type": "electric_scooter", "is_reserved": 0, "lon": -77.03999733333333}, {"fusion_lat": 0.0, "name": "bebb0d8943ccb596d5703e7f42c70eaa", "is_disabled": 0, "rental_uris": {"android": "https://dc.lft.to/lastmile_qr_scan", "ios": "https://dc.lft.to/lastmile_qr_scan"}, "fusion_lon": 0.0, "lat": 38.862610333333336, "bike_id": "bebb0d8943ccb596d5703e7f42c70eaa", "type": "electric_bike", "is_reserved": 0, "lon": -76.98331066666667}, {"fusion_lat": 0.0, "name": "df1ce6b50b70453f4adaf28c79275464", "is_disabled": 0, "rental_uris": {"android": "https://dc.lft.to/lastmile_qr_scan", "ios": "https://dc.lft.to/lastmile_qr_scan"}, "fusion_lon": 0.0, "lat": 38.902681333333334, "bike_id": "df1ce6b50b70453f4adaf28c79275464", "type": "electric_scooter", "is_reserved": 0, "lon": -76.99610766666666}, {"fusion_lat": 0.0, "name": "6627314aaed4b77a9db3743dcf2e50b3", "is_disabled": 0, "rental_uris": {"android": "https://dc.lft.to/lastmile_qr_scan", "ios": "https://dc.lft.to/lastmile_qr_scan"}, "fusion_lon": 0.0, "lat": 38.9228495, "bike_id": "6627314aaed4b77a9db3743dcf2e50b3", "type": "electric_scooter", "is_reserved": 0, "lon": -77.02241266666667}, {"fusion_lat": 0.0, "name": "c221a5d91769a5a9c61ac5d82a5de200", "is_disabled": 0, "rental_uris": {"android": "https://dc.lft.to/lastmile_qr_scan", "ios": "https://dc.lft.to/lastmile_qr_scan"}, "fusion_lon": 0.0, "lat": 38.884153833333336, "bike_id": "c221a5d91769a5a9c61ac5d82a5de200", "type": "electric_scooter", "is_reserved": 0, "lon": -77.025533}, {"fusion_lat": 0.0, "name": "a2fcb2fd7f72c1a126ca3a5bf8f8bfcb", "is_disabled": 0, "rental_uris": {"android": "https://dc.lft.to/lastmile_qr_scan", "ios": "https://dc.lft.to/lastmile_qr_scan"}, "fusion_lon": 0.0, "lat": 38.94097133333333, "bike_id": "a2fcb2fd7f72c1a126ca3a5bf8f8bfcb", "type": "electric_scooter", "is_reserved": 0, "lon": -77.023109}, {"fusion_lat": 0.0, "name": "d64cec42ef33efb4a41c84e826ca778a", "is_disabled": 0, "rental_uris": {"android": "https://dc.lft.to/lastmile_qr_scan", "ios": "https://dc.lft.to/lastmile_qr_scan"}, "fusion_lon": 0.0, "lat": 38.89675233333333, "bike_id": "d64cec42ef33efb4a41c84e826ca778a", "type": "electric_scooter", "is_reserved": 0, "lon": -77.0505465}, {"fusion_lat": 0.0, "name": "e6b13e795f6f071e474c128bfdb357f9", "is_disabled": 0, "rental_uris": {"android": "https://dc.lft.to/lastmile_qr_scan", "ios": "https://dc.lft.to/lastmile_qr_scan"}, "fusion_lon": 0.0, "lat": 38.8872965, "bike_id": "e6b13e795f6f071e474c128bfdb357f9", "type": "electric_scooter", "is_reserved": 0, "lon": -77.01338483333333}, {"fusion_lat": 0.0, "name": "cc681b62d38f9a40bdc73cfd6d88690e", "is_disabled": 0, "rental_uris": {"android": "https://dc.lft.to/lastmile_qr_scan", "ios": "https://dc.lft.to/lastmile_qr_scan"}, "fusion_lon": 0.0, "lat": 38.90067166666667, "bike_id": "cc681b62d38f9a40bdc73cfd6d88690e", "type": "electric_scooter", "is_reserved": 0, "lon": -77.02198883333334}, {"fusion_lat": 0.0, "name": "9cdc3d5e70ed0da67a06bdc25afc5097", "is_disabled": 0, "rental_uris": {"android": "https://dc.lft.to/lastmile_qr_scan", "ios": "https://dc.lft.to/lastmile_qr_scan"}, "fusion_lon": 0.0, "lat": 38.896133166666665, "bike_id": "9cdc3d5e70ed0da67a06bdc25afc5097", "type": "electric_scooter", "is_reserved": 0, "lon": -77.02192516666666}, {"fusion_lat": 0.0, "name": "2f815f8196709af4f50f9fa04236ab70", "is_disabled": 0, "rental_uris": {"android": "https://dc.lft.to/lastmile_qr_scan", "ios": "https://dc.lft.to/lastmile_qr_scan"}, "fusion_lon": 0.0, "lat": 38.90618933333333, "bike_id": "2f815f8196709af4f50f9fa04236ab70", "type": "electric_scooter", "is_reserved": 0, "lon": -77.04990783333334}, {"fusion_lat": 0.0, "name": "7c6b696d841e5a407fbca5627572e4f5", "is_disabled": 0, "rental_uris": {"android": "https://dc.lft.to/lastmile_qr_scan", "ios": "https://dc.lft.to/lastmile_qr_scan"}, "fusion_lon": 0.0, "lat": 38.89224216666667, "bike_id": "7c6b696d841e5a407fbca5627572e4f5", "type": "electric_scooter", "is_reserved": 0, "lon": -77.03339933333334}, {"fusion_lat": 0.0, "name": "cd86c7a7d19e3515ca8fb662e127284e", "is_disabled": 0, "rental_uris": {"android": "https://dc.lft.to/lastmile_qr_scan", "ios": "https://dc.lft.to/lastmile_qr_scan"}, "fusion_lon": 0.0, "lat": 38.9233115, "bike_id": "cd86c7a7d19e3515ca8fb662e127284e", "type": "electric_scooter", "is_reserved": 0, "lon": -77.0462585}, {"fusion_lat": 0.0, "name": "4826c06ae565737bac4d017fba014169", "is_disabled": 0, "rental_uris": {"android": "https://dc.lft.to/lastmile_qr_scan", "ios": "https://dc.lft.to/lastmile_qr_scan"}, "fusion_lon": 0.0, "lat": 38.897398, "bike_id": "4826c06ae565737bac4d017fba014169", "type": "electric_scooter", "is_reserved": 0, "lon": -76.94721283333334}, {"fusion_lat": 0.0, "name": "6f4804886f568a2adec36e7863dd9298", "is_disabled": 0, "rental_uris": {"android": "https://dc.lft.to/lastmile_qr_scan", "ios": "https://dc.lft.to/lastmile_qr_scan"}, "fusion_lon": 0.0, "lat": 38.933518, "bike_id": "6f4804886f568a2adec36e7863dd9298", "type": "electric_scooter", "is_reserved": 0, "lon": -77.06200233333334}, {"fusion_lat": 0.0, "name": "bd5270a7caa92096815496c1047415c2", "is_disabled": 0, "rental_uris": {"android": "https://dc.lft.to/lastmile_qr_scan", "ios": "https://dc.lft.to/lastmile_qr_scan"}, "fusion_lon": 0.0, "lat": 38.93283533333334, "bike_id": "bd5270a7caa92096815496c1047415c2", "type": "electric_scooter", "is_reserved": 0, "lon": -77.0362675}, {"fusion_lat": 0.0, "name": "da547fbe338c612add0a077b31165eb4", "is_disabled": 0, "rental_uris": {"android": "https://dc.lft.to/lastmile_qr_scan", "ios": "https://dc.lft.to/lastmile_qr_scan"}, "fusion_lon": 0.0, "lat": 38.884570333333336, "bike_id": "da547fbe338c612add0a077b31165eb4", "type": "electric_scooter", "is_reserved": 0, "lon": -77.0289935}, {"fusion_lat": 0.0, "name": "350f6cd106deb98b73bd22ca5ff8d054", "is_disabled": 0, "rental_uris": {"android": "https://dc.lft.to/lastmile_qr_scan", "ios": "https://dc.lft.to/lastmile_qr_scan"}, "fusion_lon": 0.0, "lat": 38.96993783333333, "bike_id": "350f6cd106deb98b73bd22ca5ff8d054", "type": "electric_scooter", "is_reserved": 0, "lon": -77.0115955}, {"fusion_lat": 0.0, "name": "9d6e26cca6a6b81998a70d54803ef49c", "is_disabled": 0, "rental_uris": {"android": "https://dc.lft.to/lastmile_qr_scan", "ios": "https://dc.lft.to/lastmile_qr_scan"}, "fusion_lon": 0.0, "lat": 38.907409, "bike_id": "9d6e26cca6a6b81998a70d54803ef49c", "type": "electric_scooter", "is_reserved": 0, "lon": -77.02502533333333}, {"fusion_lat": 0.0, "name": "b0439a7d07228a2799f5286dd237a75a", "is_disabled": 0, "rental_uris": {"android": "https://dc.lft.to/lastmile_qr_scan", "ios": "https://dc.lft.to/lastmile_qr_scan"}, "fusion_lon": 0.0, "lat": 38.8922015, "bike_id": "b0439a7d07228a2799f5286dd237a75a", "type": "electric_scooter", "is_reserved": 0, "lon": -77.0262245}, {"fusion_lat": 0.0, "name": "8fb8f9d1a259af32f82c78f1c230f198", "is_disabled": 0, "rental_uris": {"android": "https://dc.lft.to/lastmile_qr_scan", "ios": "https://dc.lft.to/lastmile_qr_scan"}, "fusion_lon": 0.0, "lat": 38.87467733333333, "bike_id": "8fb8f9d1a259af32f82c78f1c230f198", "type": "electric_scooter", "is_reserved": 0, "lon": -77.01845016666667}, {"fusion_lat": 0.0, "name": "9f6e2ddf555a3e0486b20d08a74b232a", "is_disabled": 0, "rental_uris": {"android": "https://dc.lft.to/lastmile_qr_scan", "ios": "https://dc.lft.to/lastmile_qr_scan"}, "fusion_lon": 0.0, "lat": 38.90579183333333, "bike_id": "9f6e2ddf555a3e0486b20d08a74b232a", "type": "electric_scooter", "is_reserved": 0, "lon": -77.042018}, {"fusion_lat": 0.0, "name": "b1807a73bdfad14d151f1b8a36fa2a84", "is_disabled": 0, "rental_uris": {"android": "https://dc.lft.to/lastmile_qr_scan", "ios": "https://dc.lft.to/lastmile_qr_scan"}, "fusion_lon": 0.0, "lat": 38.905184, "bike_id": "b1807a73bdfad14d151f1b8a36fa2a84", "type": "electric_scooter", "is_reserved": 0, "lon": -77.0678665}, {"fusion_lat": 0.0, "name": "69e5daeaf4643dffb0baa3d6c3fe6bda", "is_disabled": 0, "rental_uris": {"android": "https://dc.lft.to/lastmile_qr_scan", "ios": "https://dc.lft.to/lastmile_qr_scan"}, "fusion_lon": 0.0, "lat": 38.896757666666666, "bike_id": "69e5daeaf4643dffb0baa3d6c3fe6bda", "type": "electric_scooter", "is_reserved": 0, "lon": -76.93207333333334}, {"fusion_lat": 0.0, "name": "03c1a2133bfea130dc21282611090571", "is_disabled": 0, "rental_uris": {"android": "https://dc.lft.to/lastmile_qr_scan", "ios": "https://dc.lft.to/lastmile_qr_scan"}, "fusion_lon": 0.0, "lat": 38.90740533333334, "bike_id": "03c1a2133bfea130dc21282611090571", "type": "electric_scooter", "is_reserved": 0, "lon": -77.03178133333333}, {"fusion_lat": 0.0, "name": "f0a6a366e76efcf2f48d31fa2fcd50ae", "is_disabled": 0, "rental_uris": {"android": "https://dc.lft.to/lastmile_qr_scan", "ios": "https://dc.lft.to/lastmile_qr_scan"}, "fusion_lon": 0.0, "lat": 38.93242516666667, "bike_id": "f0a6a366e76efcf2f48d31fa2fcd50ae", "type": "electric_bike", "is_reserved": 0, "lon": -76.97424516666666}, {"fusion_lat": 0.0, "name": "799a95cab4b357b401805f9bfcb85bc0", "is_disabled": 0, "rental_uris": {"android": "https://dc.lft.to/lastmile_qr_scan", "ios": "https://dc.lft.to/lastmile_qr_scan"}, "fusion_lon": 0.0, "lat": 38.93269016666667, "bike_id": "799a95cab4b357b401805f9bfcb85bc0", "type": "electric_scooter", "is_reserved": 0, "lon": -77.0191385}, {"fusion_lat": 0.0, "name": "07e76cadbee9258ebbe36d363c755b6c", "is_disabled": 0, "rental_uris": {"android": "https://dc.lft.to/lastmile_qr_scan", "ios": "https://dc.lft.to/lastmile_qr_scan"}, "fusion_lon": 0.0, "lat": 38.88660433333333, "bike_id": "07e76cadbee9258ebbe36d363c755b6c", "type": "electric_scooter", "is_reserved": 0, "lon": -77.03389266666667}, {"fusion_lat": 0.0, "name": "26ab51d2edcc5c0552d88e32fb38fd26", "is_disabled": 0, "rental_uris": {"android": "https://dc.lft.to/lastmile_qr_scan", "ios": "https://dc.lft.to/lastmile_qr_scan"}, "fusion_lon": 0.0, "lat": 38.925077333333334, "bike_id": "26ab51d2edcc5c0552d88e32fb38fd26", "type": "electric_bike", "is_reserved": 0, "lon": -77.23346016666666}, {"fusion_lat": 0.0, "name": "4424f067b80780746c9a82706336a165", "is_disabled": 0, "rental_uris": {"android": "https://dc.lft.to/lastmile_qr_scan", "ios": "https://dc.lft.to/lastmile_qr_scan"}, "fusion_lon": 0.0, "lat": 38.9055135, "bike_id": "4424f067b80780746c9a82706336a165", "type": "electric_scooter", "is_reserved": 0, "lon": -76.9832845}, {"fusion_lat": 0.0, "name": "cf10e86c5358753a800661380e58b102", "is_disabled": 0, "rental_uris": {"android": "https://dc.lft.to/lastmile_qr_scan", "ios": "https://dc.lft.to/lastmile_qr_scan"}, "fusion_lon": 0.0, "lat": 38.89827916666667, "bike_id": "cf10e86c5358753a800661380e58b102", "type": "electric_scooter", "is_reserved": 0, "lon": -77.028066}, {"fusion_lat": 0.0, "name": "a98d2e459db2125cbc6bdc49014786ef", "is_disabled": 0, "rental_uris": {"android": "https://dc.lft.to/lastmile_qr_scan", "ios": "https://dc.lft.to/lastmile_qr_scan"}, "fusion_lon": 0.0, "lat": 38.902327666666665, "bike_id": "a98d2e459db2125cbc6bdc49014786ef", "type": "electric_scooter", "is_reserved": 0, "lon": -77.0347435}, {"fusion_lat": 0.0, "name": "5049b35d1d54fd10d7a3115491e13dba", "is_disabled": 0, "rental_uris": {"android": "https://dc.lft.to/lastmile_qr_scan", "ios": "https://dc.lft.to/lastmile_qr_scan"}, "fusion_lon": 0.0, "lat": 38.9349335, "bike_id": "5049b35d1d54fd10d7a3115491e13dba", "type": "electric_scooter", "is_reserved": 0, "lon": -77.0452755}, {"fusion_lat": 0.0, "name": "dd797dd56e8fd30becc654452222f03d", "is_disabled": 0, "rental_uris": {"android": "https://dc.lft.to/lastmile_qr_scan", "ios": "https://dc.lft.to/lastmile_qr_scan"}, "fusion_lon": 0.0, "lat": 38.93173683333333, "bike_id": "dd797dd56e8fd30becc654452222f03d", "type": "electric_scooter", "is_reserved": 0, "lon": -77.05647366666666}, {"fusion_lat": 0.0, "name": "22fccb5862b1d5f8013609371e0c01f5", "is_disabled": 0, "rental_uris": {"android": "https://dc.lft.to/lastmile_qr_scan", "ios": "https://dc.lft.to/lastmile_qr_scan"}, "fusion_lon": 0.0, "lat": 38.912773333333334, "bike_id": "22fccb5862b1d5f8013609371e0c01f5", "type": "electric_scooter", "is_reserved": 0, "lon": -77.03200866666667}, {"fusion_lat": 0.0, "name": "8ef88531923636e37ad7a52cc9f7ca58", "is_disabled": 0, "rental_uris": {"android": "https://dc.lft.to/lastmile_qr_scan", "ios": "https://dc.lft.to/lastmile_qr_scan"}, "fusion_lon": 0.0, "lat": 38.943280333333334, "bike_id": "8ef88531923636e37ad7a52cc9f7ca58", "type": "electric_scooter", "is_reserved": 0, "lon": -77.015485}, {"fusion_lat": 0.0, "name": "78936be236ddc89a662fefcc2eb85f4c", "is_disabled": 0, "rental_uris": {"android": "https://dc.lft.to/lastmile_qr_scan", "ios": "https://dc.lft.to/lastmile_qr_scan"}, "fusion_lon": 0.0, "lat": 38.9170445, "bike_id": "78936be236ddc89a662fefcc2eb85f4c", "type": "electric_scooter", "is_reserved": 0, "lon": -77.03456216666666}, {"fusion_lat": 0.0, "name": "db1081a60f12f13866b312c434f32779", "is_disabled": 0, "rental_uris": {"android": "https://dc.lft.to/lastmile_qr_scan", "ios": "https://dc.lft.to/lastmile_qr_scan"}, "fusion_lon": 0.0, "lat": 38.899737, "bike_id": "db1081a60f12f13866b312c434f32779", "type": "electric_scooter", "is_reserved": 0, "lon": -77.0526345}, {"fusion_lat": 0.0, "name": "304af5f30f49a3d043592a767e5ccc2d", "is_disabled": 0, "rental_uris": {"android": "https://dc.lft.to/lastmile_qr_scan", "ios": "https://dc.lft.to/lastmile_qr_scan"}, "fusion_lon": 0.0, "lat": 38.89013416666667, "bike_id": "304af5f30f49a3d043592a767e5ccc2d", "type": "electric_scooter", "is_reserved": 0, "lon": -76.93734016666667}, {"fusion_lat": 0.0, "name": "e5913f8c7f142e2f5ea0cde9de78b4b2", "is_disabled": 0, "rental_uris": {"android": "https://dc.lft.to/lastmile_qr_scan", "ios": "https://dc.lft.to/lastmile_qr_scan"}, "fusion_lon": 0.0, "lat": 38.90222983333334, "bike_id": "e5913f8c7f142e2f5ea0cde9de78b4b2", "type": "electric_scooter", "is_reserved": 0, "lon": -77.05055716666666}, {"fusion_lat": 0.0, "name": "184c85b92daf3973e5f818ab4d08452a", "is_disabled": 0, "rental_uris": {"android": "https://dc.lft.to/lastmile_qr_scan", "ios": "https://dc.lft.to/lastmile_qr_scan"}, "fusion_lon": 0.0, "lat": 38.8948655, "bike_id": "184c85b92daf3973e5f818ab4d08452a", "type": "electric_scooter", "is_reserved": 0, "lon": -77.02191133333334}, {"fusion_lat": 0.0, "name": "237d7df96df71b7d11aa69a392f3fbd4", "is_disabled": 0, "rental_uris": {"android": "https://dc.lft.to/lastmile_qr_scan", "ios": "https://dc.lft.to/lastmile_qr_scan"}, "fusion_lon": 0.0, "lat": 38.90263866666667, "bike_id": "237d7df96df71b7d11aa69a392f3fbd4", "type": "electric_scooter", "is_reserved": 0, "lon": -77.034359}, {"fusion_lat": 0.0, "name": "685fd70cb4e93be6c66ce2aefa6f2047", "is_disabled": 0, "rental_uris": {"android": "https://dc.lft.to/lastmile_qr_scan", "ios": "https://dc.lft.to/lastmile_qr_scan"}, "fusion_lon": 0.0, "lat": 38.9111105, "bike_id": "685fd70cb4e93be6c66ce2aefa6f2047", "type": "electric_scooter", "is_reserved": 0, "lon": -77.01000366666666}, {"fusion_lat": 0.0, "name": "38a08b15c4b4c9d82fa922a18d73d9aa", "is_disabled": 0, "rental_uris": {"android": "https://dc.lft.to/lastmile_qr_scan", "ios": "https://dc.lft.to/lastmile_qr_scan"}, "fusion_lon": 0.0, "lat": 38.896161, "bike_id": "38a08b15c4b4c9d82fa922a18d73d9aa", "type": "electric_scooter", "is_reserved": 0, "lon": -76.9811175}, {"fusion_lat": 0.0, "name": "ffb3cba6da8c1d591348f456565c545d", "is_disabled": 0, "rental_uris": {"android": "https://dc.lft.to/lastmile_qr_scan", "ios": "https://dc.lft.to/lastmile_qr_scan"}, "fusion_lon": 0.0, "lat": 38.897518166666664, "bike_id": "ffb3cba6da8c1d591348f456565c545d", "type": "electric_scooter", "is_reserved": 0, "lon": -77.03376583333333}, {"fusion_lat": 0.0, "name": "53b5515cbff2ce26978fda3a743116ee", "is_disabled": 0, "rental_uris": {"android": "https://dc.lft.to/lastmile_qr_scan", "ios": "https://dc.lft.to/lastmile_qr_scan"}, "fusion_lon": 0.0, "lat": 38.923455, "bike_id": "53b5515cbff2ce26978fda3a743116ee", "type": "electric_scooter", "is_reserved": 0, "lon": -77.05179716666666}, {"fusion_lat": 0.0, "name": "0b8afa1cc1c2b1a382ff8445ea6e719a", "is_disabled": 0, "rental_uris": {"android": "https://dc.lft.to/lastmile_qr_scan", "ios": "https://dc.lft.to/lastmile_qr_scan"}, "fusion_lon": 0.0, "lat": 38.899420666666664, "bike_id": "0b8afa1cc1c2b1a382ff8445ea6e719a", "type": "electric_scooter", "is_reserved": 0, "lon": -77.02181983333334}, {"fusion_lat": 0.0, "name": "5acc4d5e2618dbdaa863e75e00772d72", "is_disabled": 0, "rental_uris": {"android": "https://dc.lft.to/lastmile_qr_scan", "ios": "https://dc.lft.to/lastmile_qr_scan"}, "fusion_lon": 0.0, "lat": 38.9247165, "bike_id": "5acc4d5e2618dbdaa863e75e00772d72", "type": "electric_scooter", "is_reserved": 0, "lon": -77.03976716666666}, {"fusion_lat": 0.0, "name": "e96322f9c6805326ea59e73983c8b05f", "is_disabled": 0, "rental_uris": {"android": "https://dc.lft.to/lastmile_qr_scan", "ios": "https://dc.lft.to/lastmile_qr_scan"}, "fusion_lon": 0.0, "lat": 38.906705, "bike_id": "e96322f9c6805326ea59e73983c8b05f", "type": "electric_scooter", "is_reserved": 0, "lon": -77.02704566666667}, {"fusion_lat": 0.0, "name": "b257661b06b8d89f47353eb567e17003", "is_disabled": 0, "rental_uris": {"android": "https://dc.lft.to/lastmile_qr_scan", "ios": "https://dc.lft.to/lastmile_qr_scan"}, "fusion_lon": 0.0, "lat": 38.92133316666666, "bike_id": "b257661b06b8d89f47353eb567e17003", "type": "electric_scooter", "is_reserved": 0, "lon": -77.04422333333333}, {"fusion_lat": 0.0, "name": "58987d4b2e892f2f1d5d4273ef1ebe59", "is_disabled": 0, "rental_uris": {"android": "https://dc.lft.to/lastmile_qr_scan", "ios": "https://dc.lft.to/lastmile_qr_scan"}, "fusion_lon": 0.0, "lat": 38.9008385, "bike_id": "58987d4b2e892f2f1d5d4273ef1ebe59", "type": "electric_bike", "is_reserved": 0, "lon": -77.03916216666667}, {"fusion_lat": 0.0, "name": "48ca1b91b4a29766416d5778aea985e2", "is_disabled": 0, "rental_uris": {"android": "https://dc.lft.to/lastmile_qr_scan", "ios": "https://dc.lft.to/lastmile_qr_scan"}, "fusion_lon": 0.0, "lat": 38.9003475, "bike_id": "48ca1b91b4a29766416d5778aea985e2", "type": "electric_scooter", "is_reserved": 0, "lon": -77.0160915}, {"fusion_lat": 0.0, "name": "5753d00598e142e6df7f9ebfbca59a74", "is_disabled": 0, "rental_uris": {"android": "https://dc.lft.to/lastmile_qr_scan", "ios": "https://dc.lft.to/lastmile_qr_scan"}, "fusion_lon": 0.0, "lat": 38.91121616666667, "bike_id": "5753d00598e142e6df7f9ebfbca59a74", "type": "electric_scooter", "is_reserved": 0, "lon": -77.03281883333334}, {"fusion_lat": 0.0, "name": "aa1cc7f2e124df217d08c80c64254690", "is_disabled": 0, "rental_uris": {"android": "https://dc.lft.to/lastmile_qr_scan", "ios": "https://dc.lft.to/lastmile_qr_scan"}, "fusion_lon": 0.0, "lat": 38.8877195, "bike_id": "aa1cc7f2e124df217d08c80c64254690", "type": "electric_scooter", "is_reserved": 0, "lon": -77.02142416666666}, {"fusion_lat": 0.0, "name": "dfe138de928ebfd3fe9199a8e812e84b", "is_disabled": 0, "rental_uris": {"android": "https://dc.lft.to/lastmile_qr_scan", "ios": "https://dc.lft.to/lastmile_qr_scan"}, "fusion_lon": 0.0, "lat": 38.95892166666667, "bike_id": "dfe138de928ebfd3fe9199a8e812e84b", "type": "electric_scooter", "is_reserved": 0, "lon": -77.002859}, {"fusion_lat": 0.0, "name": "756f8f9fbf72b2c40b3631685c13f336", "is_disabled": 0, "rental_uris": {"android": "https://dc.lft.to/lastmile_qr_scan", "ios": "https://dc.lft.to/lastmile_qr_scan"}, "fusion_lon": 0.0, "lat": 38.9181525, "bike_id": "756f8f9fbf72b2c40b3631685c13f336", "type": "electric_scooter", "is_reserved": 0, "lon": -77.026797}, {"fusion_lat": 0.0, "name": "5164acefbb5e615e6689dc1e21e9026f", "is_disabled": 0, "rental_uris": {"android": "https://dc.lft.to/lastmile_qr_scan", "ios": "https://dc.lft.to/lastmile_qr_scan"}, "fusion_lon": 0.0, "lat": 38.9230445, "bike_id": "5164acefbb5e615e6689dc1e21e9026f", "type": "electric_scooter", "is_reserved": 0, "lon": -77.04208933333334}, {"fusion_lat": 0.0, "name": "6e8b7d0e9c4900361efcce7a849cd665", "is_disabled": 0, "rental_uris": {"android": "https://dc.lft.to/lastmile_qr_scan", "ios": "https://dc.lft.to/lastmile_qr_scan"}, "fusion_lon": 0.0, "lat": 38.902405333333334, "bike_id": "6e8b7d0e9c4900361efcce7a849cd665", "type": "electric_scooter", "is_reserved": 0, "lon": -77.001995}, {"fusion_lat": 0.0, "name": "751b66445a250249bd50f845e606f3c4", "is_disabled": 0, "rental_uris": {"android": "https://dc.lft.to/lastmile_qr_scan", "ios": "https://dc.lft.to/lastmile_qr_scan"}, "fusion_lon": 0.0, "lat": 38.931591, "bike_id": "751b66445a250249bd50f845e606f3c4", "type": "electric_scooter", "is_reserved": 0, "lon": -77.02133133333334}, {"fusion_lat": 0.0, "name": "783486f5cf5d82d19cf942b73888163d", "is_disabled": 0, "rental_uris": {"android": "https://dc.lft.to/lastmile_qr_scan", "ios": "https://dc.lft.to/lastmile_qr_scan"}, "fusion_lon": 0.0, "lat": 38.89283366666667, "bike_id": "783486f5cf5d82d19cf942b73888163d", "type": "electric_scooter", "is_reserved": 0, "lon": -77.03207433333333}, {"fusion_lat": 0.0, "name": "5db27213c7f38f23ddead6bfa4896094", "is_disabled": 0, "rental_uris": {"android": "https://dc.lft.to/lastmile_qr_scan", "ios": "https://dc.lft.to/lastmile_qr_scan"}, "fusion_lon": 0.0, "lat": 38.87132166666667, "bike_id": "5db27213c7f38f23ddead6bfa4896094", "type": "electric_scooter", "is_reserved": 0, "lon": -77.0076585}, {"fusion_lat": 0.0, "name": "6e70c0a6bf61ba33c7dd231136024803", "is_disabled": 0, "rental_uris": {"android": "https://dc.lft.to/lastmile_qr_scan", "ios": "https://dc.lft.to/lastmile_qr_scan"}, "fusion_lon": 0.0, "lat": 38.8794845, "bike_id": "6e70c0a6bf61ba33c7dd231136024803", "type": "electric_scooter", "is_reserved": 0, "lon": -77.02374916666666}, {"fusion_lat": 0.0, "name": "b03652c0b26fedddc8c343ab21b6e4a8", "is_disabled": 0, "rental_uris": {"android": "https://dc.lft.to/lastmile_qr_scan", "ios": "https://dc.lft.to/lastmile_qr_scan"}, "fusion_lon": 0.0, "lat": 38.8739675, "bike_id": "b03652c0b26fedddc8c343ab21b6e4a8", "type": "electric_scooter", "is_reserved": 0, "lon": -77.00065483333333}, {"fusion_lat": 0.0, "name": "40738b68b1cfed3d2709a11bf0db0958", "is_disabled": 0, "rental_uris": {"android": "https://dc.lft.to/lastmile_qr_scan", "ios": "https://dc.lft.to/lastmile_qr_scan"}, "fusion_lon": 0.0, "lat": 38.926523, "bike_id": "40738b68b1cfed3d2709a11bf0db0958", "type": "electric_scooter", "is_reserved": 0, "lon": -77.04139283333333}, {"fusion_lat": 0.0, "name": "fd178597df9972b194c535b7616cca24", "is_disabled": 0, "rental_uris": {"android": "https://dc.lft.to/lastmile_qr_scan", "ios": "https://dc.lft.to/lastmile_qr_scan"}, "fusion_lon": 0.0, "lat": 38.92763516666667, "bike_id": "fd178597df9972b194c535b7616cca24", "type": "electric_scooter", "is_reserved": 0, "lon": -77.029558}, {"fusion_lat": 0.0, "name": "b2b8cbe74bea407758231801b400aeae", "is_disabled": 0, "rental_uris": {"android": "https://dc.lft.to/lastmile_qr_scan", "ios": "https://dc.lft.to/lastmile_qr_scan"}, "fusion_lon": 0.0, "lat": 38.90036466666667, "bike_id": "b2b8cbe74bea407758231801b400aeae", "type": "electric_scooter", "is_reserved": 0, "lon": -76.99600433333333}, {"fusion_lat": 0.0, "name": "bfc31a6107de553fd570f19b1e0c7e68", "is_disabled": 0, "rental_uris": {"android": "https://dc.lft.to/lastmile_qr_scan", "ios": "https://dc.lft.to/lastmile_qr_scan"}, "fusion_lon": 0.0, "lat": 38.9069365, "bike_id": "bfc31a6107de553fd570f19b1e0c7e68", "type": "electric_scooter", "is_reserved": 0, "lon": -77.06334683333333}, {"fusion_lat": 0.0, "name": "4f2ce5854cb9a096427bf2af7003f064", "is_disabled": 0, "rental_uris": {"android": "https://dc.lft.to/lastmile_qr_scan", "ios": "https://dc.lft.to/lastmile_qr_scan"}, "fusion_lon": 0.0, "lat": 38.894751666666664, "bike_id": "4f2ce5854cb9a096427bf2af7003f064", "type": "electric_scooter", "is_reserved": 0, "lon": -77.01763783333334}, {"fusion_lat": 0.0, "name": "cdc2d6f7c5858968c7987674246fd955", "is_disabled": 0, "rental_uris": {"android": "https://dc.lft.to/lastmile_qr_scan", "ios": "https://dc.lft.to/lastmile_qr_scan"}, "fusion_lon": 0.0, "lat": 38.87846416666667, "bike_id": "cdc2d6f7c5858968c7987674246fd955", "type": "electric_scooter", "is_reserved": 0, "lon": -77.005456}, {"fusion_lat": 0.0, "name": "03c8bba0f967e427f522a518f274597a", "is_disabled": 0, "rental_uris": {"android": "https://dc.lft.to/lastmile_qr_scan", "ios": "https://dc.lft.to/lastmile_qr_scan"}, "fusion_lon": 0.0, "lat": 38.90804933333333, "bike_id": "03c8bba0f967e427f522a518f274597a", "type": "electric_scooter", "is_reserved": 0, "lon": -77.043456}, {"fusion_lat": 0.0, "name": "bbee538b7bfa628cfe81ca6854cafa2c", "is_disabled": 0, "rental_uris": {"android": "https://dc.lft.to/lastmile_qr_scan", "ios": "https://dc.lft.to/lastmile_qr_scan"}, "fusion_lon": 0.0, "lat": 38.8614655, "bike_id": "bbee538b7bfa628cfe81ca6854cafa2c", "type": "electric_bike", "is_reserved": 0, "lon": -76.97171716666666}, {"fusion_lat": 0.0, "name": "c6d65fe4a8bd50f8196760db4e33fae3", "is_disabled": 0, "rental_uris": {"android": "https://dc.lft.to/lastmile_qr_scan", "ios": "https://dc.lft.to/lastmile_qr_scan"}, "fusion_lon": 0.0, "lat": 38.9025275, "bike_id": "c6d65fe4a8bd50f8196760db4e33fae3", "type": "electric_scooter", "is_reserved": 0, "lon": -77.01090033333334}, {"fusion_lat": 0.0, "name": "3f86805debef45c23a60356208cc36cd", "is_disabled": 0, "rental_uris": {"android": "https://dc.lft.to/lastmile_qr_scan", "ios": "https://dc.lft.to/lastmile_qr_scan"}, "fusion_lon": 0.0, "lat": 38.92038483333333, "bike_id": "3f86805debef45c23a60356208cc36cd", "type": "electric_scooter", "is_reserved": 0, "lon": -77.08188816666667}, {"fusion_lat": 0.0, "name": "d111126abfaa826e70cf2e8347032973", "is_disabled": 0, "rental_uris": {"android": "https://dc.lft.to/lastmile_qr_scan", "ios": "https://dc.lft.to/lastmile_qr_scan"}, "fusion_lon": 0.0, "lat": 38.902333166666665, "bike_id": "d111126abfaa826e70cf2e8347032973", "type": "electric_scooter", "is_reserved": 0, "lon": -77.00585916666667}, {"fusion_lat": 0.0, "name": "351127d0d8773806728c29a68496db4f", "is_disabled": 0, "rental_uris": {"android": "https://dc.lft.to/lastmile_qr_scan", "ios": "https://dc.lft.to/lastmile_qr_scan"}, "fusion_lon": 0.0, "lat": 38.90531216666667, "bike_id": "351127d0d8773806728c29a68496db4f", "type": "electric_scooter", "is_reserved": 0, "lon": -77.06603583333333}, {"fusion_lat": 0.0, "name": "4520b7d4295173832c9853afb0202922", "is_disabled": 0, "rental_uris": {"android": "https://dc.lft.to/lastmile_qr_scan", "ios": "https://dc.lft.to/lastmile_qr_scan"}, "fusion_lon": 0.0, "lat": 38.9155315, "bike_id": "4520b7d4295173832c9853afb0202922", "type": "electric_scooter", "is_reserved": 0, "lon": -77.02088883333333}, {"fusion_lat": 0.0, "name": "decb17409ea063b604697b992b3ecd1b", "is_disabled": 0, "rental_uris": {"android": "https://dc.lft.to/lastmile_qr_scan", "ios": "https://dc.lft.to/lastmile_qr_scan"}, "fusion_lon": 0.0, "lat": 38.91177283333333, "bike_id": "decb17409ea063b604697b992b3ecd1b", "type": "electric_scooter", "is_reserved": 0, "lon": -77.03209433333333}, {"fusion_lat": 0.0, "name": "30a8a02c3e3ed990fd41b90a83d33e7d", "is_disabled": 0, "rental_uris": {"android": "https://dc.lft.to/lastmile_qr_scan", "ios": "https://dc.lft.to/lastmile_qr_scan"}, "fusion_lon": 0.0, "lat": 38.9342875, "bike_id": "30a8a02c3e3ed990fd41b90a83d33e7d", "type": "electric_scooter", "is_reserved": 0, "lon": -77.04278616666667}, {"fusion_lat": 0.0, "name": "40be753601d251fb377e185e0cfb7dd1", "is_disabled": 0, "rental_uris": {"android": "https://dc.lft.to/lastmile_qr_scan", "ios": "https://dc.lft.to/lastmile_qr_scan"}, "fusion_lon": 0.0, "lat": 38.89657033333334, "bike_id": "40be753601d251fb377e185e0cfb7dd1", "type": "electric_scooter", "is_reserved": 0, "lon": -77.02407883333333}, {"fusion_lat": 0.0, "name": "e5de339dafed6cb1f2df47b1906c6644", "is_disabled": 0, "rental_uris": {"android": "https://dc.lft.to/lastmile_qr_scan", "ios": "https://dc.lft.to/lastmile_qr_scan"}, "fusion_lon": 0.0, "lat": 38.91224533333333, "bike_id": "e5de339dafed6cb1f2df47b1906c6644", "type": "electric_scooter", "is_reserved": 0, "lon": -77.03185683333334}, {"fusion_lat": 0.0, "name": "062b6d08e363d9277798e0059426802f", "is_disabled": 0, "rental_uris": {"android": "https://dc.lft.to/lastmile_qr_scan", "ios": "https://dc.lft.to/lastmile_qr_scan"}, "fusion_lon": 0.0, "lat": 38.930745333333334, "bike_id": "062b6d08e363d9277798e0059426802f", "type": "electric_scooter", "is_reserved": 0, "lon": -77.03806083333333}, {"fusion_lat": 0.0, "name": "f72b543da76560d5b6da2140412e9200", "is_disabled": 0, "rental_uris": {"android": "https://dc.lft.to/lastmile_qr_scan", "ios": "https://dc.lft.to/lastmile_qr_scan"}, "fusion_lon": 0.0, "lat": 38.90110633333333, "bike_id": "f72b543da76560d5b6da2140412e9200", "type": "electric_scooter", "is_reserved": 0, "lon": -77.0254065}, {"fusion_lat": 0.0, "name": "49b51c52b87be933391992e53f018559", "is_disabled": 0, "rental_uris": {"android": "https://dc.lft.to/lastmile_qr_scan", "ios": "https://dc.lft.to/lastmile_qr_scan"}, "fusion_lon": 0.0, "lat": 38.892208333333336, "bike_id": "49b51c52b87be933391992e53f018559", "type": "electric_scooter", "is_reserved": 0, "lon": -77.02371783333334}, {"fusion_lat": 0.0, "name": "1c040de6f446ad09ce9a950dc32be80b", "is_disabled": 0, "rental_uris": {"android": "https://dc.lft.to/lastmile_qr_scan", "ios": "https://dc.lft.to/lastmile_qr_scan"}, "fusion_lon": 0.0, "lat": 38.8931525, "bike_id": "1c040de6f446ad09ce9a950dc32be80b", "type": "electric_scooter", "is_reserved": 0, "lon": -77.05583933333334}, {"fusion_lat": 0.0, "name": "26e31d3e520788a6831c7834151533db", "is_disabled": 0, "rental_uris": {"android": "https://dc.lft.to/lastmile_qr_scan", "ios": "https://dc.lft.to/lastmile_qr_scan"}, "fusion_lon": 0.0, "lat": 38.920835, "bike_id": "26e31d3e520788a6831c7834151533db", "type": "electric_scooter", "is_reserved": 0, "lon": -77.02409}, {"fusion_lat": 0.0, "name": "1ea9d538ce3f02d5dbb998f9e8aab68c", "is_disabled": 0, "rental_uris": {"android": "https://dc.lft.to/lastmile_qr_scan", "ios": "https://dc.lft.to/lastmile_qr_scan"}, "fusion_lon": 0.0, "lat": 38.92139016666667, "bike_id": "1ea9d538ce3f02d5dbb998f9e8aab68c", "type": "electric_scooter", "is_reserved": 0, "lon": -77.02515766666667}, {"fusion_lat": 0.0, "name": "3c7741d9f963f93c3ec9fc11113e2519", "is_disabled": 0, "rental_uris": {"android": "https://dc.lft.to/lastmile_qr_scan", "ios": "https://dc.lft.to/lastmile_qr_scan"}, "fusion_lon": 0.0, "lat": 38.9158175, "bike_id": "3c7741d9f963f93c3ec9fc11113e2519", "type": "electric_scooter", "is_reserved": 0, "lon": -77.03178}, {"fusion_lat": 0.0, "name": "6feef3acc36ae63ea062d46ed654a4c5", "is_disabled": 0, "rental_uris": {"android": "https://dc.lft.to/lastmile_qr_scan", "ios": "https://dc.lft.to/lastmile_qr_scan"}, "fusion_lon": 0.0, "lat": 38.906858, "bike_id": "6feef3acc36ae63ea062d46ed654a4c5", "type": "electric_scooter", "is_reserved": 0, "lon": -77.02690866666667}, {"fusion_lat": 0.0, "name": "688f4f4b22a827ebef2cd3fe6db2d45d", "is_disabled": 0, "rental_uris": {"android": "https://dc.lft.to/lastmile_qr_scan", "ios": "https://dc.lft.to/lastmile_qr_scan"}, "fusion_lon": 0.0, "lat": 38.907391, "bike_id": "688f4f4b22a827ebef2cd3fe6db2d45d", "type": "electric_scooter", "is_reserved": 0, "lon": -77.00510016666667}, {"fusion_lat": 0.0, "name": "4aeb9db5c486476ee3c61f6bffc065c4", "is_disabled": 0, "rental_uris": {"android": "https://dc.lft.to/lastmile_qr_scan", "ios": "https://dc.lft.to/lastmile_qr_scan"}, "fusion_lon": 0.0, "lat": 38.907089166666665, "bike_id": "4aeb9db5c486476ee3c61f6bffc065c4", "type": "electric_scooter", "is_reserved": 0, "lon": -77.049651}, {"fusion_lat": 0.0, "name": "575525fb378731274f413e7e57d562c6", "is_disabled": 0, "rental_uris": {"android": "https://dc.lft.to/lastmile_qr_scan", "ios": "https://dc.lft.to/lastmile_qr_scan"}, "fusion_lon": 0.0, "lat": 38.911352, "bike_id": "575525fb378731274f413e7e57d562c6", "type": "electric_scooter", "is_reserved": 0, "lon": -77.03214733333333}, {"fusion_lat": 0.0, "name": "265a1ae2f3804eddd842a0c5722c747f", "is_disabled": 0, "rental_uris": {"android": "https://dc.lft.to/lastmile_qr_scan", "ios": "https://dc.lft.to/lastmile_qr_scan"}, "fusion_lon": 0.0, "lat": 38.903931, "bike_id": "265a1ae2f3804eddd842a0c5722c747f", "type": "electric_scooter", "is_reserved": 0, "lon": -77.007318}, {"fusion_lat": 0.0, "name": "d0326ac5b21c96921eae44b4d2eeaff7", "is_disabled": 0, "rental_uris": {"android": "https://dc.lft.to/lastmile_qr_scan", "ios": "https://dc.lft.to/lastmile_qr_scan"}, "fusion_lon": 0.0, "lat": 38.92879683333334, "bike_id": "d0326ac5b21c96921eae44b4d2eeaff7", "type": "electric_scooter", "is_reserved": 0, "lon": -77.01358366666666}, {"fusion_lat": 0.0, "name": "e8396fb3f25df06f5db8fd58e8cb51c3", "is_disabled": 0, "rental_uris": {"android": "https://dc.lft.to/lastmile_qr_scan", "ios": "https://dc.lft.to/lastmile_qr_scan"}, "fusion_lon": 0.0, "lat": 38.87873833333333, "bike_id": "e8396fb3f25df06f5db8fd58e8cb51c3", "type": "electric_scooter", "is_reserved": 0, "lon": -77.02301333333334}, {"fusion_lat": 0.0, "name": "73260a5ed497c4ea08510c9dc9303afe", "is_disabled": 0, "rental_uris": {"android": "https://dc.lft.to/lastmile_qr_scan", "ios": "https://dc.lft.to/lastmile_qr_scan"}, "fusion_lon": 0.0, "lat": 38.911690166666666, "bike_id": "73260a5ed497c4ea08510c9dc9303afe", "type": "electric_scooter", "is_reserved": 0, "lon": -77.0111095}, {"fusion_lat": 0.0, "name": "b9c707cccd9e9e79e021ca55384a1803", "is_disabled": 0, "rental_uris": {"android": "https://dc.lft.to/lastmile_qr_scan", "ios": "https://dc.lft.to/lastmile_qr_scan"}, "fusion_lon": 0.0, "lat": 38.87848416666667, "bike_id": "b9c707cccd9e9e79e021ca55384a1803", "type": "electric_scooter", "is_reserved": 0, "lon": -77.00108483333334}, {"fusion_lat": 0.0, "name": "660e14fe3ba0802a70772e21360ad3cd", "is_disabled": 0, "rental_uris": {"android": "https://dc.lft.to/lastmile_qr_scan", "ios": "https://dc.lft.to/lastmile_qr_scan"}, "fusion_lon": 0.0, "lat": 38.871104, "bike_id": "660e14fe3ba0802a70772e21360ad3cd", "type": "electric_scooter", "is_reserved": 0, "lon": -76.96570016666666}, {"fusion_lat": 0.0, "name": "9eba253bc70417e8cf542b7c72153142", "is_disabled": 0, "rental_uris": {"android": "https://dc.lft.to/lastmile_qr_scan", "ios": "https://dc.lft.to/lastmile_qr_scan"}, "fusion_lon": 0.0, "lat": 38.9101275, "bike_id": "9eba253bc70417e8cf542b7c72153142", "type": "electric_scooter", "is_reserved": 0, "lon": -77.03849533333333}, {"fusion_lat": 0.0, "name": "8be1fd2c4e1cb0eb1c0aab7b417ab84f", "is_disabled": 0, "rental_uris": {"android": "https://dc.lft.to/lastmile_qr_scan", "ios": "https://dc.lft.to/lastmile_qr_scan"}, "fusion_lon": 0.0, "lat": 38.91935983333333, "bike_id": "8be1fd2c4e1cb0eb1c0aab7b417ab84f", "type": "electric_scooter", "is_reserved": 0, "lon": -77.03183833333334}, {"fusion_lat": 0.0, "name": "69d04817370bd5e0785ffde69ed22dfe", "is_disabled": 0, "rental_uris": {"android": "https://dc.lft.to/lastmile_qr_scan", "ios": "https://dc.lft.to/lastmile_qr_scan"}, "fusion_lon": 0.0, "lat": 38.89653116666667, "bike_id": "69d04817370bd5e0785ffde69ed22dfe", "type": "electric_scooter", "is_reserved": 0, "lon": -77.01188933333333}, {"fusion_lat": 0.0, "name": "73386386a7a9eae1e561e62717c7d2a9", "is_disabled": 0, "rental_uris": {"android": "https://dc.lft.to/lastmile_qr_scan", "ios": "https://dc.lft.to/lastmile_qr_scan"}, "fusion_lon": 0.0, "lat": 38.9003765, "bike_id": "73386386a7a9eae1e561e62717c7d2a9", "type": "electric_scooter", "is_reserved": 0, "lon": -77.02967683333334}, {"fusion_lat": 0.0, "name": "f139eb2cfe8c6e195456ae178c40e017", "is_disabled": 0, "rental_uris": {"android": "https://dc.lft.to/lastmile_qr_scan", "ios": "https://dc.lft.to/lastmile_qr_scan"}, "fusion_lon": 0.0, "lat": 38.89811816666667, "bike_id": "f139eb2cfe8c6e195456ae178c40e017", "type": "electric_scooter", "is_reserved": 0, "lon": -77.050085},