{"data": {"bikes": [{"lon": -76.99793483333333, "bike_id": "218ffec89ab8362d7955e5017755d4fe", "lat": 38.950870333333334, "fusion_lon": 0.0, "fusion_lat": 0.0, "type": "electric_bike", "name": "218ffec89ab8362d7955e5017755d4fe", "is_disabled": 0, "rental_uris": {"ios": "https://dc.lft.to/lastmile_qr_scan", "android": "https://dc.lft.to/lastmile_qr_scan"}, "is_reserved": 0}, {"lon": -77.0153345, "bike_id": "c1957805236fdd6d247397ae5e39d9ca", "lat": 38.89225716666667, "fusion_lon": 0.0, "fusion_lat": 0.0, "type": "electric_scooter", "name": "c1957805236fdd6d247397ae5e39d9ca", "is_disabled": 0, "rental_uris": {"ios": "https://dc.lft.to/lastmile_qr_scan", "android": "https://dc.lft.to/lastmile_qr_scan"}, "is_reserved": 0}, {"lon": -77.04389216666667, "bike_id": "2aa36aebb8f6276767fcae96c78fcda4", "lat": 38.92112266666667, "fusion_lon": 0.0, "fusion_lat": 0.0, "type": "electric_scooter", "name": "2aa36aebb8f6276767fcae96c78fcda4", "is_disabled": 0, "rental_uris": {"ios": "https://dc.lft.to/lastmile_qr_scan", "android": "https://dc.lft.to/lastmile_qr_scan"}, "is_reserved": 0}, {"lon": -77.06606133333334, "bike_id": "0d1b67460a63e20af129391c97f92dcf", "lat": 38.9035025, "fusion_lon": 0.0, "fusion_lat": 0.0, "type": "electric_scooter", "name": "0d1b67460a63e20af129391c97f92dcf", "is_disabled": 0, "rental_uris": {"ios": "https://dc.lft.to/lastmile_qr_scan", "android": "https://dc.lft.to/lastmile_qr_scan"}, "is_reserved": 0}, {"lon": -77.01766233333333, "bike_id": "1220223d96d5e17a52a59fd1334c6ed8", "lat": 38.88586133333333, "fusion_lon": 0.0, "fusion_lat": 0.0, "type": "electric_scooter", "name": "1220223d96d5e17a52a59fd1334c6ed8", "is_disabled": 0, "rental_uris": {"ios": "https://dc.lft.to/lastmile_qr_scan", "android": "https://dc.lft.to/lastmile_qr_scan"}, "is_reserved": 0}, {"lon": -77.02245883333333, "bike_id": "593cdec90cba4859a5f8e7d16c413554", "lat": 38.92278816666666, "fusion_lon": 0.0, "fusion_lat": 0.0, "type": "electric_scooter", "name": "593cdec90cba4859a5f8e7d16c413554", "is_disabled": 0, "rental_uris": {"ios": "https://dc.lft.to/lastmile_qr_scan", "android": "https://dc.lft.to/lastmile_qr_scan"}, "is_reserved": 0}, {"lon": -77.00601583333334, "bike_id": "da2171663f49586d9fa773ccd9c37863", "lat": 38.8851825, "fusion_lon": 0.0, "fusion_lat": 0.0, "type": "electric_scooter", "name": "da2171663f49586d9fa773ccd9c37863", "is_disabled": 0, "rental_uris": {"ios": "https://dc.lft.to/lastmile_qr_scan", "android": "https://dc.lft.to/lastmile_qr_scan"}, "is_reserved": 0}, {"lon": -77.04238033333333, "bike_id": "825791a172cfdf4e525a2e19fe323e3b", "lat": 38.92164916666667, "fusion_lon": 0.0, "fusion_lat": 0.0, "type": "electric_scooter", "name": "825791a172cfdf4e525a2e19fe323e3b", "is_disabled": 0, "rental_uris": {"ios": "https://dc.lft.to/lastmile_qr_scan", "android": "https://dc.lft.to/lastmile_qr_scan"}, "is_reserved": 0}, {"lon": -77.02204416666666, "bike_id": "93bd59445c962b76be36c9eee6dc9405", "lat": 38.910993500000004, "fusion_lon": 0.0, "fusion_lat": 0.0, "type": "electric_scooter", "name": "93bd59445c962b76be36c9eee6dc9405", "is_disabled": 0, "rental_uris": {"ios": "https://dc.lft.to/lastmile_qr_scan", "android": "https://dc.lft.to/lastmile_qr_scan"}, "is_reserved": 0}, {"lon": -77.03859666666666, "bike_id": "8be71d07fcdaa531f40871c6fccb9309", "lat": 38.92313716666666, "fusion_lon": 0.0, "fusion_lat": 0.0, "type": "electric_scooter", "name": "8be71d07fcdaa531f40871c6fccb9309", "is_disabled": 0, "rental_uris": {"ios": "https://dc.lft.to/lastmile_qr_scan", "android": "https://dc.lft.to/lastmile_qr_scan"}, "is_reserved": 0}, {"lon": -77.044893, "bike_id": "76c4fa7a386baf52a6979cc565f14574", "lat": 38.910978166666666, "fusion_lon": 0.0, "fusion_lat": 0.0, "type": "electric_scooter", "name": "76c4fa7a386baf52a6979cc565f14574", "is_disabled": 0, "rental_uris": {"ios": "https://dc.lft.to/lastmile_qr_scan", "android": "https://dc.lft.to/lastmile_qr_scan"}, "is_reserved": 0}, {"lon": -76.9950765, "bike_id": "d7580ba311cc525c9b4411c27b81675b", "lat": 38.879142333333334, "fusion_lon": 0.0, "fusion_lat": 0.0, "type": "electric_scooter", "name": "d7580ba311cc525c9b4411c27b81675b", "is_disabled": 0, "rental_uris": {"ios": "https://dc.lft.to/lastmile_qr_scan", "android": "https://dc.lft.to/lastmile_qr_scan"}, "is_reserved": 0}, {"lon": -77.02696483333334, "bike_id": "a21d66168b02b35c7cd656c95619fdc7", "lat": 38.90927966666667, "fusion_lon": 0.0, "fusion_lat": 0.0, "type": "electric_scooter", "name": "a21d66168b02b35c7cd656c95619fdc7", "is_disabled": 0, "rental_uris": {"ios": "https://dc.lft.to/lastmile_qr_scan", "android": "https://dc.lft.to/lastmile_qr_scan"}, "is_reserved": 0}, {"lon": -76.982485, "bike_id": "5fbe918a8dafd8d7163a8022240cde81", "lat": 38.864577, "fusion_lon": 0.0, "fusion_lat": 0.0, "type": "electric_scooter", "name": "5fbe918a8dafd8d7163a8022240cde81", "is_disabled": 0, "rental_uris": {"ios": "https://dc.lft.to/lastmile_qr_scan", "android": "https://dc.lft.to/lastmile_qr_scan"}, "is_reserved": 0}, {"lon": -77.00568083333333, "bike_id": "914bab6bd2a938f57b4d1f9e8b779fc0", "lat": 38.900402166666666, "fusion_lon": 0.0, "fusion_lat": 0.0, "type": "electric_scooter", "name": "914bab6bd2a938f57b4d1f9e8b779fc0", "is_disabled": 0, "rental_uris": {"ios": "https://dc.lft.to/lastmile_qr_scan", "android": "https://dc.lft.to/lastmile_qr_scan"}, "is_reserved": 0}, {"lon": -77.0469085, "bike_id": "377a412bfecda2e799c4bd9422a033bd", "lat": 38.918994166666664, "fusion_lon": 0.0, "fusion_lat": 0.0, "type": "electric_scooter", "name": "377a412bfecda2e799c4bd9422a033bd", "is_disabled": 0, "rental_uris": {"ios": "https://dc.lft.to/lastmile_qr_scan", "android": "https://dc.lft.to/lastmile_qr_scan"}, "is_reserved": 0}, {"lon": -77.00190733333334, "bike_id": "6603b9cbfb24dc89bd304f1569f5f11e", "lat": 38.894733333333335, "fusion_lon": 0.0, "fusion_lat": 0.0, "type": "electric_scooter", "name": "6603b9cbfb24dc89bd304f1569f5f11e", "is_disabled": 0, "rental_uris": {"ios": "https://dc.lft.to/lastmile_qr_scan", "android": "https://dc.lft.to/lastmile_qr_scan"}, "is_reserved": 0}, {"lon": -76.98110083333333, "bike_id": "5395429d626bbe7baecc84d693bdf010", "lat": 38.8772895, "fusion_lon": 0.0, "fusion_lat": 0.0, "type": "electric_bike", "name": "5395429d626bbe7baecc84d693bdf010", "is_disabled": 0, "rental_uris": {"ios": "https://dc.lft.to/lastmile_qr_scan", "android": "https://dc.lft.to/lastmile_qr_scan"}, "is_reserved": 0}, {"lon": -77.020043, "bike_id": "0d4a4cb9d01e1443694659005d00fa4f", "lat": 38.90066933333333, "fusion_lon": 0.0, "fusion_lat": 0.0, "type": "electric_scooter", "name": "0d4a4cb9d01e1443694659005d00fa4f", "is_disabled": 0, "rental_uris": {"ios": "https://dc.lft.to/lastmile_qr_scan", "android": "https://dc.lft.to/lastmile_qr_scan"}, "is_reserved": 0}, {"lon": -77.025321, "bike_id": "c473ff89d4da7321bf1362c380ecad41", "lat": 38.919844499999996, "fusion_lon": 0.0, "fusion_lat": 0.0, "type": "electric_scooter", "name": "c473ff89d4da7321bf1362c380ecad41", "is_disabled": 0, "rental_uris": {"ios": "https://dc.lft.to/lastmile_qr_scan", "android": "https://dc.lft.to/lastmile_qr_scan"}, "is_reserved": 0}, {"lon": -77.0217985, "bike_id": "61b5d582ecf29cf0eb6f5017bc8708f5", "lat": 38.89864583333333, "fusion_lon": 0.0, "fusion_lat": 0.0, "type": "electric_scooter", "name": "61b5d582ecf29cf0eb6f5017bc8708f5", "is_disabled": 0, "rental_uris": {"ios": "https://dc.lft.to/lastmile_qr_scan", "android": "https://dc.lft.to/lastmile_qr_scan"}, "is_reserved": 0}, {"lon": -76.99789733333333, "bike_id": "fa4443a1d237c334041ff457f6e0fa6c", "lat": 38.8909165, "fusion_lon": 0.0, "fusion_lat": 0.0, "type": "electric_scooter", "name": "fa4443a1d237c334041ff457f6e0fa6c", "is_disabled": 0, "rental_uris": {"ios": "https://dc.lft.to/lastmile_qr_scan", "android": "https://dc.lft.to/lastmile_qr_scan"}, "is_reserved": 0}, {"lon": -77.03240066666666, "bike_id": "7d81e3738bf88f8a45faf3e6b960f835", "lat": 38.92992433333333, "fusion_lon": 0.0, "fusion_lat": 0.0, "type": "electric_scooter", "name": "7d81e3738bf88f8a45faf3e6b960f835", "is_disabled": 0, "rental_uris": {"ios": "https://dc.lft.to/lastmile_qr_scan", "android": "https://dc.lft.to/lastmile_qr_scan"}, "is_reserved": 0}, {"lon": -77.0630245, "bike_id": "3627a8f3f788c5bcf452d7e9561cfb1a", "lat": 38.9067705, "fusion_lon": 0.0, "fusion_lat": 0.0, "type": "electric_scooter", "name": "3627a8f3f788c5bcf452d7e9561cfb1a", "is_disabled": 0, "rental_uris": {"ios": "https://dc.lft.to/lastmile_qr_scan", "android": "https://dc.lft.to/lastmile_qr_scan"}, "is_reserved": 0}, {"lon": -77.01600583333334, "bike_id": "a7349f6858a3093aae859b5757e222ef", "lat": 38.949371166666666, "fusion_lon": 0.0, "fusion_lat": 0.0, "type": "electric_scooter", "name": "a7349f6858a3093aae859b5757e222ef", "is_disabled": 0, "rental_uris": {"ios": "https://dc.lft.to/lastmile_qr_scan", "android": "https://dc.lft.to/lastmile_qr_scan"}, "is_reserved": 0}, {"lon": -76.985533, "bike_id": "1a8b86214db43b7eec37c9dee7ae1126", "lat": 38.910290833333335, "fusion_lon": 0.0, "fusion_lat": 0.0, "type": "electric_scooter", "name": "1a8b86214db43b7eec37c9dee7ae1126", "is_disabled": 0, "rental_uris": {"ios": "https://dc.lft.to/lastmile_qr_scan", "android": "https://dc.lft.to/lastmile_qr_scan"}, "is_reserved": 0}, {"lon": -77.03373883333333, "bike_id": "c47400111cfba34b275b40f46a6e143e", "lat": 38.909661, "fusion_lon": 0.0, "fusion_lat": 0.0, "type": "electric_scooter", "name": "c47400111cfba34b275b40f46a6e143e", "is_disabled": 0, "rental_uris": {"ios": "https://dc.lft.to/lastmile_qr_scan", "android": "https://dc.lft.to/lastmile_qr_scan"}, "is_reserved": 0}, {"lon": -77.04754983333333, "bike_id": "6c3fdf9a320ec50654dd62764b8c2734", "lat": 38.92316683333333, "fusion_lon": 0.0, "fusion_lat": 0.0, "type": "electric_scooter", "name": "6c3fdf9a320ec50654dd62764b8c2734", "is_disabled": 0, "rental_uris": {"ios": "https://dc.lft.to/lastmile_qr_scan", "android": "https://dc.lft.to/lastmile_qr_scan"}, "is_reserved": 0}, {"lon": -77.04179916666666, "bike_id": "0965cbbc95677f196d750e0c8fe51304", "lat": 38.915537666666665, "fusion_lon": 0.0, "fusion_lat": 0.0, "type": "electric_scooter", "name": "0965cbbc95677f196d750e0c8fe51304", "is_disabled": 0, "rental_uris": {"ios": "https://dc.lft.to/lastmile_qr_scan", "android": "https://dc.lft.to/lastmile_qr_scan"}, "is_reserved": 0}, {"lon": -77.02381116666666, "bike_id": "e0fa85a04c423983d9a0d8997868ad83", "lat": 38.9063475, "fusion_lon": 0.0, "fusion_lat": 0.0, "type": "electric_scooter", "name": "e0fa85a04c423983d9a0d8997868ad83", "is_disabled": 0, "rental_uris": {"ios": "https://dc.lft.to/lastmile_qr_scan", "android": "https://dc.lft.to/lastmile_qr_scan"}, "is_reserved": 0}, {"lon": -77.02000083333333, "bike_id": "86ebe878d40028380213bdd0ef14cf19", "lat": 38.89528116666666, "fusion_lon": 0.0, "fusion_lat": 0.0, "type": "electric_scooter", "name": "86ebe878d40028380213bdd0ef14cf19", "is_disabled": 0, "rental_uris": {"ios": "https://dc.lft.to/lastmile_qr_scan", "android": "https://dc.lft.to/lastmile_qr_scan"}, "is_reserved": 0}, {"lon": -77.035542, "bike_id": "fb4f20e16a8db1f2e5d88af9346d3509", "lat": 38.9270585, "fusion_lon": 0.0, "fusion_lat": 0.0, "type": "electric_scooter", "name": "fb4f20e16a8db1f2e5d88af9346d3509", "is_disabled": 0, "rental_uris": {"ios": "https://dc.lft.to/lastmile_qr_scan", "android": "https://dc.lft.to/lastmile_qr_scan"}, "is_reserved": 0}, {"lon": -77.02320683333333, "bike_id": "c106dcf3077e64941c70ac6ce1827f6f", "lat": 38.95519866666667, "fusion_lon": 0.0, "fusion_lat": 0.0, "type": "electric_scooter", "name": "c106dcf3077e64941c70ac6ce1827f6f", "is_disabled": 0, "rental_uris": {"ios": "https://dc.lft.to/lastmile_qr_scan", "android": "https://dc.lft.to/lastmile_qr_scan"}, "is_reserved": 0}, {"lon": -76.94571866666666, "bike_id": "46a4c6ac08903634ff421f88805a1cf4", "lat": 38.93744133333333, "fusion_lon": 0.0, "fusion_lat": 0.0, "type": "electric_bike", "name": "46a4c6ac08903634ff421f88805a1cf4", "is_disabled": 0, "rental_uris": {"ios": "https://dc.lft.to/lastmile_qr_scan", "android": "https://dc.lft.to/lastmile_qr_scan"}, "is_reserved": 0}, {"lon": -77.03203733333334, "bike_id": "610f7ac6f05d6b1db57f78b4330fec44", "lat": 38.91529383333334, "fusion_lon": 0.0, "fusion_lat": 0.0, "type": "electric_scooter", "name": "610f7ac6f05d6b1db57f78b4330fec44", "is_disabled": 0, "rental_uris": {"ios": "https://dc.lft.to/lastmile_qr_scan", "android": "https://dc.lft.to/lastmile_qr_scan"}, "is_reserved": 0}, {"lon": -77.02650183333333, "bike_id": "9b6969bb4ad0f4c73c081d3b8915e54d", "lat": 38.8963065, "fusion_lon": 0.0, "fusion_lat": 0.0, "type": "electric_scooter", "name": "9b6969bb4ad0f4c73c081d3b8915e54d", "is_disabled": 0, "rental_uris": {"ios": "https://dc.lft.to/lastmile_qr_scan", "android": "https://dc.lft.to/lastmile_qr_scan"}, "is_reserved": 0}, {"lon": -77.03465783333333, "bike_id": "87f82faf09aeeb6bc3d74bc6ed45c9a1", "lat": 38.91483483333333, "fusion_lon": 0.0, "fusion_lat": 0.0, "type": "electric_scooter", "name": "87f82faf09aeeb6bc3d74bc6ed45c9a1", "is_disabled": 0, "rental_uris": {"ios": "https://dc.lft.to/lastmile_qr_scan", "android": "https://dc.lft.to/lastmile_qr_scan"}, "is_reserved": 0}, {"lon": -77.02836016666667, "bike_id": "a32cc2452c089f2f242816025d22b943", "lat": 38.9171065, "fusion_lon": 0.0, "fusion_lat": 0.0, "type": "electric_scooter", "name": "a32cc2452c089f2f242816025d22b943", "is_disabled": 0, "rental_uris": {"ios": "https://dc.lft.to/lastmile_qr_scan", "android": "https://dc.lft.to/lastmile_qr_scan"}, "is_reserved": 0}, {"lon": -77.04484416666666, "bike_id": "b27275c980d39d4b5cb80778da9f3d11", "lat": 38.91601283333333, "fusion_lon": 0.0, "fusion_lat": 0.0, "type": "electric_scooter", "name": "b27275c980d39d4b5cb80778da9f3d11", "is_disabled": 0, "rental_uris": {"ios": "https://dc.lft.to/lastmile_qr_scan", "android": "https://dc.lft.to/lastmile_qr_scan"}, "is_reserved": 0}, {"lon": -77.031939, "bike_id": "39b55e43a1d922c6944f26d342950a33", "lat": 38.908643833333336, "fusion_lon": 0.0, "fusion_lat": 0.0, "type": "electric_scooter", "name": "39b55e43a1d922c6944f26d342950a33", "is_disabled": 0, "rental_uris": {"ios": "https://dc.lft.to/lastmile_qr_scan", "android": "https://dc.lft.to/lastmile_qr_scan"}, "is_reserved": 0}, {"lon": -77.005795, "bike_id": "c3f3bf23e7b93ecc16072544259f1459", "lat": 38.878881666666665, "fusion_lon": 0.0, "fusion_lat": 0.0, "type": "electric_scooter", "name": "c3f3bf23e7b93ecc16072544259f1459", "is_disabled": 0, "rental_uris": {"ios": "https://dc.lft.to/lastmile_qr_scan", "android": "https://dc.lft.to/lastmile_qr_scan"}, "is_reserved": 0}, {"lon": -76.98018683333333, "bike_id": "3f2fbd1c24cf16620893768046e0f4d6", "lat": 38.85316316666667, "fusion_lon": 0.0, "fusion_lat": 0.0, "type": "electric_scooter", "name": "3f2fbd1c24cf16620893768046e0f4d6", "is_disabled": 0, "rental_uris": {"ios": "https://dc.lft.to/lastmile_qr_scan", "android": "https://dc.lft.to/lastmile_qr_scan"}, "is_reserved": 0}, {"lon": -77.032132, "bike_id": "ed81aab927e7b839a4651d1a6993c53e", "lat": 38.913849666666664, "fusion_lon": 0.0, "fusion_lat": 0.0, "type": "electric_scooter", "name": "ed81aab927e7b839a4651d1a6993c53e", "is_disabled": 0, "rental_uris": {"ios": "https://dc.lft.to/lastmile_qr_scan", "android": "https://dc.lft.to/lastmile_qr_scan"}, "is_reserved": 0}, {"lon": -76.98509616666666, "bike_id": "d775b4a3d0232bcd507bac422aa1c0aa", "lat": 38.903385, "fusion_lon": 0.0, "fusion_lat": 0.0, "type": "electric_scooter", "name": "d775b4a3d0232bcd507bac422aa1c0aa", "is_disabled": 0, "rental_uris": {"ios": "https://dc.lft.to/lastmile_qr_scan", "android": "https://dc.lft.to/lastmile_qr_scan"}, "is_reserved": 0}, {"lon": -77.041981, "bike_id": "d5f255ecf6c77bba7ff6f851f6fe85f5", "lat": 38.926208, "fusion_lon": 0.0, "fusion_lat": 0.0, "type": "electric_scooter", "name": "d5f255ecf6c77bba7ff6f851f6fe85f5", "is_disabled": 0, "rental_uris": {"ios": "https://dc.lft.to/lastmile_qr_scan", "android": "https://dc.lft.to/lastmile_qr_scan"}, "is_reserved": 0}, {"lon": -76.9983985, "bike_id": "70c6e44f166f9ff2b9d1c51420ef13d5", "lat": 38.902364, "fusion_lon": 0.0, "fusion_lat": 0.0, "type": "electric_scooter", "name": "70c6e44f166f9ff2b9d1c51420ef13d5", "is_disabled": 0, "rental_uris": {"ios": "https://dc.lft.to/lastmile_qr_scan", "android": "https://dc.lft.to/lastmile_qr_scan"}, "is_reserved": 0}, {"lon": -76.93370983333334, "bike_id": "8ec92076c976c08c20bc85318c394316", "lat": 38.89913716666667, "fusion_lon": 0.0, "fusion_lat": 0.0, "type": "electric_scooter", "name": "8ec92076c976c08c20bc85318c394316", "is_disabled": 0, "rental_uris": {"ios": "https://dc.lft.to/lastmile_qr_scan", "android": "https://dc.lft.to/lastmile_qr_scan"}, "is_reserved": 0}, {"lon": -77.03275816666667, "bike_id": "7c738c08c4d654909db9cf86a8c28287", "lat": 38.9290425, "fusion_lon": 0.0, "fusion_lat": 0.0, "type": "electric_scooter", "name": "7c738c08c4d654909db9cf86a8c28287", "is_disabled": 0, "rental_uris": {"ios": "https://dc.lft.to/lastmile_qr_scan", "android": "https://dc.lft.to/lastmile_qr_scan"}, "is_reserved": 0}, {"lon": -76.95194283333333, "bike_id": "b0b70a69bf03eeb8d54bae54bcd458dc", "lat": 38.900008, "fusion_lon": 0.0, "fusion_lat": 0.0, "type": "electric_scooter", "name": "b0b70a69bf03eeb8d54bae54bcd458dc", "is_disabled": 0, "rental_uris": {"ios": "https://dc.lft.to/lastmile_qr_scan", "android": "https://dc.lft.to/lastmile_qr_scan"}, "is_reserved": 0}, {"lon": -76.99476983333334, "bike_id": "bfe918df3262224d5573915a7047d2e4", "lat": 38.86211316666667, "fusion_lon": 0.0, "fusion_lat": 0.0, "type": "electric_scooter", "name": "bfe918df3262224d5573915a7047d2e4", "is_disabled": 0, "rental_uris": {"ios": "https://dc.lft.to/lastmile_qr_scan", "android": "https://dc.lft.to/lastmile_qr_scan"}, "is_reserved": 0}, {"lon": -77.03266933333333, "bike_id": "a748592c5e528b2967b79ea61112e993", "lat": 38.932481333333335, "fusion_lon": 0.0, "fusion_lat": 0.0, "type": "electric_scooter", "name": "a748592c5e528b2967b79ea61112e993", "is_disabled": 0, "rental_uris": {"ios": "https://dc.lft.to/lastmile_qr_scan", "android": "https://dc.lft.to/lastmile_qr_scan"}, "is_reserved": 0}, {"lon": -76.98094, "bike_id": "496128676ee963a5a443c65ea81b856b", "lat": 38.881309333333334, "fusion_lon": 0.0, "fusion_lat": 0.0, "type": "electric_bike", "name": "496128676ee963a5a443c65ea81b856b", "is_disabled": 0, "rental_uris": {"ios": "https://dc.lft.to/lastmile_qr_scan", "android": "https://dc.lft.to/lastmile_qr_scan"}, "is_reserved": 0}, {"lon": -77.02402183333334, "bike_id": "d67e89acacdb20043d6a025eb1f0359f", "lat": 38.918209833333336, "fusion_lon": 0.0, "fusion_lat": 0.0, "type": "electric_scooter", "name": "d67e89acacdb20043d6a025eb1f0359f", "is_disabled": 0, "rental_uris": {"ios": "https://dc.lft.to/lastmile_qr_scan", "android": "https://dc.lft.to/lastmile_qr_scan"}, "is_reserved": 0}, {"lon": -77.02199166666666, "bike_id": "ae9fb9610682cd938e53e216a65a74b6", "lat": 38.89511366666667, "fusion_lon": 0.0, "fusion_lat": 0.0, "type": "electric_scooter", "name": "ae9fb9610682cd938e53e216a65a74b6", "is_disabled": 0, "rental_uris": {"ios": "https://dc.lft.to/lastmile_qr_scan", "android": "https://dc.lft.to/lastmile_qr_scan"}, "is_reserved": 0}, {"lon": -77.0239245, "bike_id": "d34662f3d2728b4e8bb872a7d43c7dd6", "lat": 38.9095185, "fusion_lon": 0.0, "fusion_lat": 0.0, "type": "electric_scooter", "name": "d34662f3d2728b4e8bb872a7d43c7dd6", "is_disabled": 0, "rental_uris": {"ios": "https://dc.lft.to/lastmile_qr_scan", "android": "https://dc.lft.to/lastmile_qr_scan"}, "is_reserved": 0}, {"lon": -77.03659216666667, "bike_id": "bcaafe548fa680be0dc05510e7d679a7", "lat": 38.902861333333334, "fusion_lon": 0.0, "fusion_lat": 0.0, "type": "electric_scooter", "name": "bcaafe548fa680be0dc05510e7d679a7", "is_disabled": 0, "rental_uris": {"ios": "https://dc.lft.to/lastmile_qr_scan", "android": "https://dc.lft.to/lastmile_qr_scan"}, "is_reserved": 0}, {"lon": -77.01727583333333, "bike_id": "06adf9c4926e23bac1c811305535dae0", "lat": 38.915006166666664, "fusion_lon": 0.0, "fusion_lat": 0.0, "type": "electric_scooter", "name": "06adf9c4926e23bac1c811305535dae0", "is_disabled": 0, "rental_uris": {"ios": "https://dc.lft.to/lastmile_qr_scan", "android": "https://dc.lft.to/lastmile_qr_scan"}, "is_reserved": 0}, {"lon": -76.94974233333333, "bike_id": "fb3c3d36eb39cc6f251aaedd76b661a6", "lat": 38.89456166666667, "fusion_lon": 0.0, "fusion_lat": 0.0, "type": "electric_scooter", "name": "fb3c3d36eb39cc6f251aaedd76b661a6", "is_disabled": 0, "rental_uris": {"ios": "https://dc.lft.to/lastmile_qr_scan", "android": "https://dc.lft.to/lastmile_qr_scan"}, "is_reserved": 0}, {"lon": -77.025173, "bike_id": "31d69e3cd2b5b156d956eca687f9570c", "lat": 38.9176285, "fusion_lon": 0.0, "fusion_lat": 0.0, "type": "electric_scooter", "name": "31d69e3cd2b5b156d956eca687f9570c", "is_disabled": 0, "rental_uris": {"ios": "https://dc.lft.to/lastmile_qr_scan", "android": "https://dc.lft.to/lastmile_qr_scan"}, "is_reserved": 0}, {"lon": -77.04713, "bike_id": "ea44ca977ba4ab21cb69ac4519c12c7e", "lat": 38.922276333333336, "fusion_lon": 0.0, "fusion_lat": 0.0, "type": "electric_scooter", "name": "ea44ca977ba4ab21cb69ac4519c12c7e", "is_disabled": 0, "rental_uris": {"ios": "https://dc.lft.to/lastmile_qr_scan", "android": "https://dc.lft.to/lastmile_qr_scan"}, "is_reserved": 0}, {"lon": -77.04106783333333, "bike_id": "2256f007708c42615d972bfb97d9e453", "lat": 38.9185045, "fusion_lon": 0.0, "fusion_lat": 0.0, "type": "electric_scooter", "name": "2256f007708c42615d972bfb97d9e453", "is_disabled": 0, "rental_uris": {"ios": "https://dc.lft.to/lastmile_qr_scan", "android": "https://dc.lft.to/lastmile_qr_scan"}, "is_reserved": 0}, {"lon": -76.99373366666667, "bike_id": "18324d5f4711341e2e7791b4cb4d3b29", "lat": 38.8833735, "fusion_lon": 0.0, "fusion_lat": 0.0, "type": "electric_scooter", "name": "18324d5f4711341e2e7791b4cb4d3b29", "is_disabled": 0, "rental_uris": {"ios": "https://dc.lft.to/lastmile_qr_scan", "android": "https://dc.lft.to/lastmile_qr_scan"}, "is_reserved": 0}, {"lon": -77.02710566666667, "bike_id": "28254e2f7a9253119b81c9b51ace47b8", "lat": 38.90448933333333, "fusion_lon": 0.0, "fusion_lat": 0.0, "type": "electric_scooter", "name": "28254e2f7a9253119b81c9b51ace47b8", "is_disabled": 0, "rental_uris": {"ios": "https://dc.lft.to/lastmile_qr_scan", "android": "https://dc.lft.to/lastmile_qr_scan"}, "is_reserved": 0}, {"lon": -77.03664866666666, "bike_id": "fe53fe80d4ad6e68939b2da46c1e8c47", "lat": 38.9225115, "fusion_lon": 0.0, "fusion_lat": 0.0, "type": "electric_scooter", "name": "fe53fe80d4ad6e68939b2da46c1e8c47", "is_disabled": 0, "rental_uris": {"ios": "https://dc.lft.to/lastmile_qr_scan", "android": "https://dc.lft.to/lastmile_qr_scan"}, "is_reserved": 0}, {"lon": -76.92741483333333, "bike_id": "cbeefe30f4a065b3fe1d531ff96bbe04", "lat": 38.88965233333333, "fusion_lon": 0.0, "fusion_lat": 0.0, "type": "electric_scooter", "name": "cbeefe30f4a065b3fe1d531ff96bbe04", "is_disabled": 0, "rental_uris": {"ios": "https://dc.lft.to/lastmile_qr_scan", "android": "https://dc.lft.to/lastmile_qr_scan"}, "is_reserved": 0}, {"lon": -76.98288566666666, "bike_id": "18a7a4dc231eb0a3a8bbccda24cbb588", "lat": 38.900437333333336, "fusion_lon": 0.0, "fusion_lat": 0.0, "type": "electric_scooter", "name": "18a7a4dc231eb0a3a8bbccda24cbb588", "is_disabled": 0, "rental_uris": {"ios": "https://dc.lft.to/lastmile_qr_scan", "android": "https://dc.lft.to/lastmile_qr_scan"}, "is_reserved": 0}, {"lon": -76.93349216666667, "bike_id": "4c696eed9f1ab49ad8567842b82e39f7", "lat": 38.899129, "fusion_lon": 0.0, "fusion_lat": 0.0, "type": "electric_scooter", "name": "4c696eed9f1ab49ad8567842b82e39f7", "is_disabled": 0, "rental_uris": {"ios": "https://dc.lft.to/lastmile_qr_scan", "android": "https://dc.lft.to/lastmile_qr_scan"}, "is_reserved": 0}, {"lon": -77.0425195, "bike_id": "338cf087f496828f84eb66ea01aa1a42", "lat": 38.925453, "fusion_lon": 0.0, "fusion_lat": 0.0, "type": "electric_scooter", "name": "338cf087f496828f84eb66ea01aa1a42", "is_disabled": 0, "rental_uris": {"ios": "https://dc.lft.to/lastmile_qr_scan", "android": "https://dc.lft.to/lastmile_qr_scan"}, "is_reserved": 0}, {"lon": -76.98554683333333, "bike_id": "db38e97d997b05f7083f383458726380", "lat": 38.920023666666665, "fusion_lon": 0.0, "fusion_lat": 0.0, "type": "electric_scooter", "name": "db38e97d997b05f7083f383458726380", "is_disabled": 0, "rental_uris": {"ios": "https://dc.lft.to/lastmile_qr_scan", "android": "https://dc.lft.to/lastmile_qr_scan"}, "is_reserved": 0}, {"lon": -77.02101416666666, "bike_id": "2bd76db55783cb44a731baaaff587966", "lat": 38.927131833333334, "fusion_lon": 0.0, "fusion_lat": 0.0, "type": "electric_bike", "name": "2bd76db55783cb44a731baaaff587966", "is_disabled": 0, "rental_uris": {"ios": "https://dc.lft.to/lastmile_qr_scan", "android": "https://dc.lft.to/lastmile_qr_scan"}, "is_reserved": 0}, {"lon": -77.0065095, "bike_id": "8f0284b7bc99c4f0e44ea1464d719d6b", "lat": 38.87639, "fusion_lon": 0.0, "fusion_lat": 0.0, "type": "electric_scooter", "name": "8f0284b7bc99c4f0e44ea1464d719d6b", "is_disabled": 0, "rental_uris": {"ios": "https://dc.lft.to/lastmile_qr_scan", "android": "https://dc.lft.to/lastmile_qr_scan"}, "is_reserved": 0}, {"lon": -77.02181233333333, "bike_id": "87cd7692a8b6e750901dad3a0a74cbcb", "lat": 38.899758, "fusion_lon": 0.0, "fusion_lat": 0.0, "type": "electric_scooter", "name": "87cd7692a8b6e750901dad3a0a74cbcb", "is_disabled": 0, "rental_uris": {"ios": "https://dc.lft.to/lastmile_qr_scan", "android": "https://dc.lft.to/lastmile_qr_scan"}, "is_reserved": 0}, {"lon": -77.03956733333334, "bike_id": "a4818cc4599d6232772e02ba79496242", "lat": 38.89241416666667, "fusion_lon": 0.0, "fusion_lat": 0.0, "type": "electric_scooter", "name": "a4818cc4599d6232772e02ba79496242", "is_disabled": 0, "rental_uris": {"ios": "https://dc.lft.to/lastmile_qr_scan", "android": "https://dc.lft.to/lastmile_qr_scan"}, "is_reserved": 0}, {"lon": -77.08328583333333, "bike_id": "6ecff7e0285fa2d98ab4b61c63a70eff", "lat": 38.929839333333334, "fusion_lon": 0.0, "fusion_lat": 0.0, "type": "electric_scooter", "name": "6ecff7e0285fa2d98ab4b61c63a70eff", "is_disabled": 0, "rental_uris": {"ios": "https://dc.lft.to/lastmile_qr_scan", "android": "https://dc.lft.to/lastmile_qr_scan"}, "is_reserved": 0}, {"lon": -77.03303916666667, "bike_id": "78bd12075caa1f3e964a58444dfb28ef", "lat": 38.909611, "fusion_lon": 0.0, "fusion_lat": 0.0, "type": "electric_scooter", "name": "78bd12075caa1f3e964a58444dfb28ef", "is_disabled": 0, "rental_uris": {"ios": "https://dc.lft.to/lastmile_qr_scan", "android": "https://dc.lft.to/lastmile_qr_scan"}, "is_reserved": 0}, {"lon": -77.04471733333334, "bike_id": "548f29b7106e4874fbd7fe9322cd88da", "lat": 38.915639166666665, "fusion_lon": 0.0, "fusion_lat": 0.0, "type": "electric_scooter", "name": "548f29b7106e4874fbd7fe9322cd88da", "is_disabled": 0, "rental_uris": {"ios": "https://dc.lft.to/lastmile_qr_scan", "android": "https://dc.lft.to/lastmile_qr_scan"}, "is_reserved": 0}, {"lon": -77.02959883333334, "bike_id": "8ea8317c8716685b6ad50886a35bfcfc", "lat": 38.89972066666667, "fusion_lon": 0.0, "fusion_lat": 0.0, "type": "electric_scooter", "name": "8ea8317c8716685b6ad50886a35bfcfc", "is_disabled": 0, "rental_uris": {"ios": "https://dc.lft.to/lastmile_qr_scan", "android": "https://dc.lft.to/lastmile_qr_scan"}, "is_reserved": 0}, {"lon": -77.05857133333333, "bike_id": "d3ddd42dc5c7ac44958bec06b83004c4", "lat": 38.93586233333333, "fusion_lon": 0.0, "fusion_lat": 0.0, "type": "electric_scooter", "name": "d3ddd42dc5c7ac44958bec06b83004c4", "is_disabled": 0, "rental_uris": {"ios": "https://dc.lft.to/lastmile_qr_scan", "android": "https://dc.lft.to/lastmile_qr_scan"}, "is_reserved": 0}, {"lon": -77.03286083333333, "bike_id": "a2bb5205b7b643b5c6d0aec2bb848891", "lat": 38.92839883333333, "fusion_lon": 0.0, "fusion_lat": 0.0, "type": "electric_scooter", "name": "a2bb5205b7b643b5c6d0aec2bb848891", "is_disabled": 0, "rental_uris": {"ios": "https://dc.lft.to/lastmile_qr_scan", "android": "https://dc.lft.to/lastmile_qr_scan"}, "is_reserved": 0}, {"lon": -77.11256466666667, "bike_id": "e2f415d4bcee70c44879702855b2aa64", "lat": 38.856509, "fusion_lon": 0.0, "fusion_lat": 0.0, "type": "electric_bike", "name": "e2f415d4bcee70c44879702855b2aa64", "is_disabled": 0, "rental_uris": {"ios": "https://dc.lft.to/lastmile_qr_scan", "android": "https://dc.lft.to/lastmile_qr_scan"}, "is_reserved": 0}, {"lon": -77.02419966666666, "bike_id": "47eebed658c8fdd8e2dab28bc259f21e", "lat": 38.9203745, "fusion_lon": 0.0, "fusion_lat": 0.0, "type": "electric_scooter", "name": "47eebed658c8fdd8e2dab28bc259f21e", "is_disabled": 0, "rental_uris": {"ios": "https://dc.lft.to/lastmile_qr_scan", "android": "https://dc.lft.to/lastmile_qr_scan"}, "is_reserved": 0}, {"lon": -77.03265, "bike_id": "79b8e75098d49ab34fd85d04eede88e2", "lat": 38.928387666666666, "fusion_lon": 0.0, "fusion_lat": 0.0, "type": "electric_scooter", "name": "79b8e75098d49ab34fd85d04eede88e2", "is_disabled": 0, "rental_uris": {"ios": "https://dc.lft.to/lastmile_qr_scan", "android": "https://dc.lft.to/lastmile_qr_scan"}, "is_reserved": 0}, {"lon": -76.98492933333333, "bike_id": "91329a3c9b2bd7f412fb34f53c61df43", "lat": 38.87936366666667, "fusion_lon": 0.0, "fusion_lat": 0.0, "type": "electric_bike", "name": "91329a3c9b2bd7f412fb34f53c61df43", "is_disabled": 0, "rental_uris": {"ios": "https://dc.lft.to/lastmile_qr_scan", "android": "https://dc.lft.to/lastmile_qr_scan"}, "is_reserved": 0}, {"lon": -77.061752, "bike_id": "da62cc7595204c174445093d24eb1893", "lat": 38.943064666666665, "fusion_lon": 0.0, "fusion_lat": 0.0, "type": "electric_scooter", "name": "da62cc7595204c174445093d24eb1893", "is_disabled": 0, "rental_uris": {"ios": "https://dc.lft.to/lastmile_qr_scan", "android": "https://dc.lft.to/lastmile_qr_scan"}, "is_reserved": 0}, {"lon": -77.05043316666666, "bike_id": "6168cd3daf78a4ed4c612c6253ec5bc0", "lat": 38.923603166666666, "fusion_lon": 0.0, "fusion_lat": 0.0, "type": "electric_scooter", "name": "6168cd3daf78a4ed4c612c6253ec5bc0", "is_disabled": 0, "rental_uris": {"ios": "https://dc.lft.to/lastmile_qr_scan", "android": "https://dc.lft.to/lastmile_qr_scan"}, "is_reserved": 0}, {"lon": -77.007265, "bike_id": "6f5e74f6453e757ea8c10581c862420f", "lat": 38.89822683333333, "fusion_lon": 0.0, "fusion_lat": 0.0, "type": "electric_scooter", "name": "6f5e74f6453e757ea8c10581c862420f", "is_disabled": 0, "rental_uris": {"ios": "https://dc.lft.to/lastmile_qr_scan", "android": "https://dc.lft.to/lastmile_qr_scan"}, "is_reserved": 0}, {"lon": -77.0260655, "bike_id": "fbccf69ad8f29b6c7aea4c494d829b19", "lat": 38.89849266666667, "fusion_lon": 0.0, "fusion_lat": 0.0, "type": "electric_scooter", "name": "fbccf69ad8f29b6c7aea4c494d829b19", "is_disabled": 0, "rental_uris": {"ios": "https://dc.lft.to/lastmile_qr_scan", "android": "https://dc.lft.to/lastmile_qr_scan"}, "is_reserved": 0}, {"lon": -77.02004116666667, "bike_id": "8a434020d3612aff18b60bf711f2207d", "lat": 38.901970666666664, "fusion_lon": 0.0, "fusion_lat": 0.0, "type": "electric_scooter", "name": "8a434020d3612aff18b60bf711f2207d", "is_disabled": 0, "rental_uris": {"ios": "https://dc.lft.to/lastmile_qr_scan", "android": "https://dc.lft.to/lastmile_qr_scan"}, "is_reserved": 0}, {"lon": -77.0202185, "bike_id": "4d63c5d016d52d63ebe120a171578ae4", "lat": 38.8944695, "fusion_lon": 0.0, "fusion_lat": 0.0, "type": "electric_scooter", "name": "4d63c5d016d52d63ebe120a171578ae4", "is_disabled": 0, "rental_uris": {"ios": "https://dc.lft.to/lastmile_qr_scan", "android": "https://dc.lft.to/lastmile_qr_scan"}, "is_reserved": 0}, {"lon": -77.11711833333334, "bike_id": "8aa0446147ace6c3fdb0c60cfa6c169d", "lat": 38.867441166666666, "fusion_lon": 0.0, "fusion_lat": 0.0, "type": "electric_bike", "name": "8aa0446147ace6c3fdb0c60cfa6c169d", "is_disabled": 0, "rental_uris": {"ios": "https://dc.lft.to/lastmile_qr_scan", "android": "https://dc.lft.to/lastmile_qr_scan"}, "is_reserved": 0}, {"lon": -77.02301566666667, "bike_id": "acdfd425b711fef46b9ab9d25b5874bb", "lat": 38.89624, "fusion_lon": 0.0, "fusion_lat": 0.0, "type": "electric_scooter", "name": "acdfd425b711fef46b9ab9d25b5874bb", "is_disabled": 0, "rental_uris": {"ios": "https://dc.lft.to/lastmile_qr_scan", "android": "https://dc.lft.to/lastmile_qr_scan"}, "is_reserved": 0}, {"lon": -77.0385165, "bike_id": "d3381fb33e41d974a5fb5a6fb1041b45", "lat": 38.90354216666667, "fusion_lon": 0.0, "fusion_lat": 0.0, "type": "electric_scooter", "name": "d3381fb33e41d974a5fb5a6fb1041b45", "is_disabled": 0, "rental_uris": {"ios": "https://dc.lft.to/lastmile_qr_scan", "android": "https://dc.lft.to/lastmile_qr_scan"}, "is_reserved": 0}, {"lon": -77.00123116666667, "bike_id": "b0e3752cde1dbeef4f4aea2cf78f0d0c", "lat": 38.87487266666667, "fusion_lon": 0.0, "fusion_lat": 0.0, "type": "electric_scooter", "name": "b0e3752cde1dbeef4f4aea2cf78f0d0c", "is_disabled": 0, "rental_uris": {"ios": "https://dc.lft.to/lastmile_qr_scan", "android": "https://dc.lft.to/lastmile_qr_scan"}, "is_reserved": 0}, {"lon": -77.06150483333333, "bike_id": "9c5b8da973ed1783d5b8f46eef555966", "lat": 38.902801833333335, "fusion_lon": 0.0, "fusion_lat": 0.0, "type": "electric_scooter", "name": "9c5b8da973ed1783d5b8f46eef555966", "is_disabled": 0, "rental_uris": {"ios": "https://dc.lft.to/lastmile_qr_scan", "android": "https://dc.lft.to/lastmile_qr_scan"}, "is_reserved": 0}, {"lon": -77.0401265, "bike_id": "6080b1555e44a0c91332ecc5aac8563e", "lat": 38.9183735, "fusion_lon": 0.0, "fusion_lat": 0.0, "type": "electric_scooter", "name": "6080b1555e44a0c91332ecc5aac8563e", "is_disabled": 0, "rental_uris": {"ios": "https://dc.lft.to/lastmile_qr_scan", "android": "https://dc.lft.to/lastmile_qr_scan"}, "is_reserved": 0}, {"lon": -76.985353, "bike_id": "ad86a5251d137b5240879c9c33633d22", "lat": 38.9045785, "fusion_lon": 0.0, "fusion_lat": 0.0, "type": "electric_scooter", "name": "ad86a5251d137b5240879c9c33633d22", "is_disabled": 0, "rental_uris": {"ios": "https://dc.lft.to/lastmile_qr_scan", "android": "https://dc.lft.to/lastmile_qr_scan"}, "is_reserved": 0}, {"lon": -76.91804533333334, "bike_id": "c4b3d2efc30826c53d57c210f12e9956", "lat": 38.999996333333335, "fusion_lon": 0.0, "fusion_lat": 0.0, "type": "electric_bike", "name": "c4b3d2efc30826c53d57c210f12e9956", "is_disabled": 0, "rental_uris": {"ios": "https://dc.lft.to/lastmile_qr_scan", "android": "https://dc.lft.to/lastmile_qr_scan"}, "is_reserved": 0}, {"lon": -77.03963616666667, "bike_id": "d118a1ac02fe91aad39d7ed2be10b94c", "lat": 38.89985766666667, "fusion_lon": 0.0, "fusion_lat": 0.0, "type": "electric_scooter", "name": "d118a1ac02fe91aad39d7ed2be10b94c", "is_disabled": 0, "rental_uris": {"ios": "https://dc.lft.to/lastmile_qr_scan", "android": "https://dc.lft.to/lastmile_qr_scan"}, "is_reserved": 0}, {"lon": -77.01973366666667, "bike_id": "3964fc28e336332456e0a3b8ff7694fe", "lat": 38.950163, "fusion_lon": 0.0, "fusion_lat": 0.0, "type": "electric_scooter", "name": "3964fc28e336332456e0a3b8ff7694fe", "is_disabled": 0, "rental_uris": {"ios": "https://dc.lft.to/lastmile_qr_scan", "android": "https://dc.lft.to/lastmile_qr_scan"}, "is_reserved": 0}, {"lon": -77.029917, "bike_id": "dc6497242eacf29cde2a5f12a09a9783", "lat": 38.89757683333333, "fusion_lon": 0.0, "fusion_lat": 0.0, "type": "electric_scooter", "name": "dc6497242eacf29cde2a5f12a09a9783", "is_disabled": 0, "rental_uris": {"ios": "https://dc.lft.to/lastmile_qr_scan", "android": "https://dc.lft.to/lastmile_qr_scan"}, "is_reserved": 0}, {"lon": -76.95409716666667, "bike_id": "09c389000c8e9adf76bfb02d8876f925", "lat": 38.884663333333336, "fusion_lon": 0.0, "fusion_lat": 0.0, "type": "electric_scooter", "name": "09c389000c8e9adf76bfb02d8876f925", "is_disabled": 0, "rental_uris": {"ios": "https://dc.lft.to/lastmile_qr_scan", "android": "https://dc.lft.to/lastmile_qr_scan"}, "is_reserved": 0}, {"lon": -77.02973783333333, "bike_id": "67391221ff4ab5c962df2696b7d108d3", "lat": 38.90787983333333, "fusion_lon": 0.0, "fusion_lat": 0.0, "type": "electric_scooter", "name": "67391221ff4ab5c962df2696b7d108d3", "is_disabled": 0, "rental_uris": {"ios": "https://dc.lft.to/lastmile_qr_scan", "android": "https://dc.lft.to/lastmile_qr_scan"}, "is_reserved": 0}, {"lon": -76.98715, "bike_id": "16332390794e40bf229f028567ec5c3c", "lat": 38.86622366666667, "fusion_lon": 0.0, "fusion_lat": 0.0, "type": "electric_scooter", "name": "16332390794e40bf229f028567ec5c3c", "is_disabled": 0, "rental_uris": {"ios": "https://dc.lft.to/lastmile_qr_scan", "android": "https://dc.lft.to/lastmile_qr_scan"}, "is_reserved": 0}, {"lon": -77.04893633333333, "bike_id": "4baad9841a845f1dec5fcea321235715", "lat": 38.90664683333333, "fusion_lon": 0.0, "fusion_lat": 0.0, "type": "electric_scooter", "name": "4baad9841a845f1dec5fcea321235715", "is_disabled": 0, "rental_uris": {"ios": "https://dc.lft.to/lastmile_qr_scan", "android": "https://dc.lft.to/lastmile_qr_scan"}, "is_reserved": 0}, {"lon": -77.033649, "bike_id": "0da64ddac487bf2b7c6165aa8d835c09", "lat": 38.92234833333333, "fusion_lon": 0.0, "fusion_lat": 0.0, "type": "electric_scooter", "name": "0da64ddac487bf2b7c6165aa8d835c09", "is_disabled": 0, "rental_uris": {"ios": "https://dc.lft.to/lastmile_qr_scan", "android": "https://dc.lft.to/lastmile_qr_scan"}, "is_reserved": 0}, {"lon": -77.02155616666667, "bike_id": "e7ae3c9a4ff5a6c46f77c023c31f6001", "lat": 38.894037, "fusion_lon": 0.0, "fusion_lat": 0.0, "type": "electric_scooter", "name": "e7ae3c9a4ff5a6c46f77c023c31f6001", "is_disabled": 0, "rental_uris": {"ios": "https://dc.lft.to/lastmile_qr_scan", "android": "https://dc.lft.to/lastmile_qr_scan"}, "is_reserved": 0}, {"lon": -77.01761566666667, "bike_id": "58bb8942bbab453504567e699cdc1d8b", "lat": 38.8857345, "fusion_lon": 0.0, "fusion_lat": 0.0, "type": "electric_scooter", "name": "58bb8942bbab453504567e699cdc1d8b", "is_disabled": 0, "rental_uris": {"ios": "https://dc.lft.to/lastmile_qr_scan", "android": "https://dc.lft.to/lastmile_qr_scan"}, "is_reserved": 0}, {"lon": -77.03342233333333, "bike_id": "e402a664dde2ee42bd115e629f85b5ea", "lat": 38.92872716666667, "fusion_lon": 0.0, "fusion_lat": 0.0, "type": "electric_scooter", "name": "e402a664dde2ee42bd115e629f85b5ea", "is_disabled": 0, "rental_uris": {"ios": "https://dc.lft.to/lastmile_qr_scan", "android": "https://dc.lft.to/lastmile_qr_scan"}, "is_reserved": 0}, {"lon": -77.04527716666666, "bike_id": "23ef211a672e06b86e64b1f527c0ef68", "lat": 38.94192283333334, "fusion_lon": 0.0, "fusion_lat": 0.0, "type": "electric_bike", "name": "23ef211a672e06b86e64b1f527c0ef68", "is_disabled": 0, "rental_uris": {"ios": "https://dc.lft.to/lastmile_qr_scan", "android": "https://dc.lft.to/lastmile_qr_scan"}, "is_reserved": 0}, {"lon": -77.04344266666666, "bike_id": "7549da2027ef844f832a4afe2ad4cdf8", "lat": 38.908842666666665, "fusion_lon": 0.0, "fusion_lat": 0.0, "type": "electric_scooter", "name": "7549da2027ef844f832a4afe2ad4cdf8", "is_disabled": 0, "rental_uris": {"ios": "https://dc.lft.to/lastmile_qr_scan", "android": "https://dc.lft.to/lastmile_qr_scan"}, "is_reserved": 0}, {"lon": -77.03390383333333, "bike_id": "e2d0e67b5aee48c5592c3e4a8675c2d4", "lat": 38.938795166666665, "fusion_lon": 0.0, "fusion_lat": 0.0, "type": "electric_scooter", "name": "e2d0e67b5aee48c5592c3e4a8675c2d4", "is_disabled": 0, "rental_uris": {"ios": "https://dc.lft.to/lastmile_qr_scan", "android": "https://dc.lft.to/lastmile_qr_scan"}, "is_reserved": 0}, {"lon": -77.02798333333334, "bike_id": "e9db7ce8688fa0b953caabf8f7cff4b1", "lat": 38.929697, "fusion_lon": 0.0, "fusion_lat": 0.0, "type": "electric_scooter", "name": "e9db7ce8688fa0b953caabf8f7cff4b1", "is_disabled": 0, "rental_uris": {"ios": "https://dc.lft.to/lastmile_qr_scan", "android": "https://dc.lft.to/lastmile_qr_scan"}, "is_reserved": 0}, {"lon": -76.9978365, "bike_id": "71a0b78d0c20db3562fe1e2f7ad49366", "lat": 38.844282, "fusion_lon": 0.0, "fusion_lat": 0.0, "type": "electric_scooter", "name": "71a0b78d0c20db3562fe1e2f7ad49366", "is_disabled": 0, "rental_uris": {"ios": "https://dc.lft.to/lastmile_qr_scan", "android": "https://dc.lft.to/lastmile_qr_scan"}, "is_reserved": 0}, {"lon": -76.9375635, "bike_id": "1c1774acf4dc5c3c3f7b701bb9f9163a", "lat": 38.89049283333333, "fusion_lon": 0.0, "fusion_lat": 0.0, "type": "electric_scooter", "name": "1c1774acf4dc5c3c3f7b701bb9f9163a", "is_disabled": 0, "rental_uris": {"ios": "https://dc.lft.to/lastmile_qr_scan", "android": "https://dc.lft.to/lastmile_qr_scan"}, "is_reserved": 0}, {"lon": -77.02408766666667, "bike_id": "26bd102f83072976b32030a8e1d675df", "lat": 38.900214, "fusion_lon": 0.0, "fusion_lat": 0.0, "type": "electric_scooter", "name": "26bd102f83072976b32030a8e1d675df", "is_disabled": 0, "rental_uris": {"ios": "https://dc.lft.to/lastmile_qr_scan", "android": "https://dc.lft.to/lastmile_qr_scan"}, "is_reserved": 0}, {"lon": -77.043621, "bike_id": "11df69036d03774a317cd3406f2a23bd", "lat": 38.9042055, "fusion_lon": 0.0, "fusion_lat": 0.0, "type": "electric_scooter", "name": "11df69036d03774a317cd3406f2a23bd", "is_disabled": 0, "rental_uris": {"ios": "https://dc.lft.to/lastmile_qr_scan", "android": "https://dc.lft.to/lastmile_qr_scan"}, "is_reserved": 0}, {"lon": -76.9952265, "bike_id": "ef2b8e2c1a37c29b03706a2b0e3228f9", "lat": 38.896085166666666, "fusion_lon": 0.0, "fusion_lat": 0.0, "type": "electric_scooter", "name": "ef2b8e2c1a37c29b03706a2b0e3228f9", "is_disabled": 0, "rental_uris": {"ios": "https://dc.lft.to/lastmile_qr_scan", "android": "https://dc.lft.to/lastmile_qr_scan"}, "is_reserved": 0}, {"lon": -76.99841, "bike_id": "0d465a9f87028ea11895bb6e6f41ad76", "lat": 38.89985466666667, "fusion_lon": 0.0, "fusion_lat": 0.0, "type": "electric_scooter", "name": "0d465a9f87028ea11895bb6e6f41ad76", "is_disabled": 0, "rental_uris": {"ios": "https://dc.lft.to/lastmile_qr_scan", "android": "https://dc.lft.to/lastmile_qr_scan"}, "is_reserved": 0}, {"lon": -77.0294335, "bike_id": "bbef1ecca7bcecfc8dd257f065e22655", "lat": 38.92076483333334, "fusion_lon": 0.0, "fusion_lat": 0.0, "type": "electric_scooter", "name": "bbef1ecca7bcecfc8dd257f065e22655", "is_disabled": 0, "rental_uris": {"ios": "https://dc.lft.to/lastmile_qr_scan", "android": "https://dc.lft.to/lastmile_qr_scan"}, "is_reserved": 0}, {"lon": -76.94806466666667, "bike_id": "673e5fbc442c62a5a9a1716b0ca03063", "lat": 38.86192916666667, "fusion_lon": 0.0, "fusion_lat": 0.0, "type": "electric_bike", "name": "673e5fbc442c62a5a9a1716b0ca03063", "is_disabled": 0, "rental_uris": {"ios": "https://dc.lft.to/lastmile_qr_scan", "android": "https://dc.lft.to/lastmile_qr_scan"}, "is_reserved": 0}, {"lon": -77.0155625, "bike_id": "35efb1506d0382fe8b972c7c89e99939", "lat": 38.8921865, "fusion_lon": 0.0, "fusion_lat": 0.0, "type": "electric_scooter", "name": "35efb1506d0382fe8b972c7c89e99939", "is_disabled": 0, "rental_uris": {"ios": "https://dc.lft.to/lastmile_qr_scan", "android": "https://dc.lft.to/lastmile_qr_scan"}, "is_reserved": 0}, {"lon": -77.0225095, "bike_id": "f0b6a71eca147c8fbf3b36776f7384da", "lat": 38.912735166666664, "fusion_lon": 0.0, "fusion_lat": 0.0, "type": "electric_scooter", "name": "f0b6a71eca147c8fbf3b36776f7384da", "is_disabled": 0, "rental_uris": {"ios": "https://dc.lft.to/lastmile_qr_scan", "android": "https://dc.lft.to/lastmile_qr_scan"}, "is_reserved": 0}, {"lon": -76.99058016666666, "bike_id": "7dc9fbf1f929016374282f0f04c9b3f1", "lat": 38.91366266666667, "fusion_lon": 0.0, "fusion_lat": 0.0, "type": "electric_scooter", "name": "7dc9fbf1f929016374282f0f04c9b3f1", "is_disabled": 0, "rental_uris": {"ios": "https://dc.lft.to/lastmile_qr_scan", "android": "https://dc.lft.to/lastmile_qr_scan"}, "is_reserved": 0}, {"lon": -77.0410415, "bike_id": "e0fb8f5e2f4ec37ba51318e7439a81bd", "lat": 38.89845966666667, "fusion_lon": 0.0, "fusion_lat": 0.0, "type": "electric_scooter", "name": "e0fb8f5e2f4ec37ba51318e7439a81bd", "is_disabled": 0, "rental_uris": {"ios": "https://dc.lft.to/lastmile_qr_scan", "android": "https://dc.lft.to/lastmile_qr_scan"}, "is_reserved": 0}, {"lon": -77.03189116666667, "bike_id": "e664cf9718a0769c06426fc0908e7763", "lat": 38.914223, "fusion_lon": 0.0, "fusion_lat": 0.0, "type": "electric_scooter", "name": "e664cf9718a0769c06426fc0908e7763", "is_disabled": 0, "rental_uris": {"ios": "https://dc.lft.to/lastmile_qr_scan", "android": "https://dc.lft.to/lastmile_qr_scan"}, "is_reserved": 0}, {"lon": -77.027457, "bike_id": "29ad22b16bfd79bdc52d073fd18283c8", "lat": 38.881462, "fusion_lon": 0.0, "fusion_lat": 0.0, "type": "electric_scooter", "name": "29ad22b16bfd79bdc52d073fd18283c8", "is_disabled": 0, "rental_uris": {"ios": "https://dc.lft.to/lastmile_qr_scan", "android": "https://dc.lft.to/lastmile_qr_scan"}, "is_reserved": 0}, {"lon": -77.03560833333333, "bike_id": "8e62e39cc04a743907dfee92f6312f63", "lat": 38.92709716666667, "fusion_lon": 0.0, "fusion_lat": 0.0, "type": "electric_scooter", "name": "8e62e39cc04a743907dfee92f6312f63", "is_disabled": 0, "rental_uris": {"ios": "https://dc.lft.to/lastmile_qr_scan", "android": "https://dc.lft.to/lastmile_qr_scan"}, "is_reserved": 0}, {"lon": -77.02190216666666, "bike_id": "30324330a5eabc766162aa4dee60be15", "lat": 38.91217483333333, "fusion_lon": 0.0, "fusion_lat": 0.0, "type": "electric_scooter", "name": "30324330a5eabc766162aa4dee60be15", "is_disabled": 0, "rental_uris": {"ios": "https://dc.lft.to/lastmile_qr_scan", "android": "https://dc.lft.to/lastmile_qr_scan"}, "is_reserved": 0}, {"lon": -77.0092795, "bike_id": "4c52bd11fa499f35895cb68fbbf3f412", "lat": 38.89604816666667, "fusion_lon": 0.0, "fusion_lat": 0.0, "type": "electric_scooter", "name": "4c52bd11fa499f35895cb68fbbf3f412", "is_disabled": 0, "rental_uris": {"ios": "https://dc.lft.to/lastmile_qr_scan", "android": "https://dc.lft.to/lastmile_qr_scan"}, "is_reserved": 0}, {"lon": -77.03281083333333, "bike_id": "b9b221817bded4daf304d1b946e33f20", "lat": 38.9364105, "fusion_lon": 0.0, "fusion_lat": 0.0, "type": "electric_scooter", "name": "b9b221817bded4daf304d1b946e33f20", "is_disabled": 0, "rental_uris": {"ios": "https://dc.lft.to/lastmile_qr_scan", "android": "https://dc.lft.to/lastmile_qr_scan"}, "is_reserved": 0}, {"lon": -77.0249605, "bike_id": "fe27db5330532eb76c052cc51b765366", "lat": 38.941832833333336, "fusion_lon": 0.0, "fusion_lat": 0.0, "type": "electric_scooter", "name": "fe27db5330532eb76c052cc51b765366", "is_disabled": 0, "rental_uris": {"ios": "https://dc.lft.to/lastmile_qr_scan", "android": "https://dc.lft.to/lastmile_qr_scan"}, "is_reserved": 0}, {"lon": -76.9945855, "bike_id": "231549d0c5bb95f520b5ce77203123a7", "lat": 38.86219883333333, "fusion_lon": 0.0, "fusion_lat": 0.0, "type": "electric_scooter", "name": "231549d0c5bb95f520b5ce77203123a7", "is_disabled": 0, "rental_uris": {"ios": "https://dc.lft.to/lastmile_qr_scan", "android": "https://dc.lft.to/lastmile_qr_scan"}, "is_reserved": 0}, {"lon": -77.041596, "bike_id": "1cc1cf3309d10fdd6ce99a227ed3802f", "lat": 38.918662833333336, "fusion_lon": 0.0, "fusion_lat": 0.0, "type": "electric_scooter", "name": "1cc1cf3309d10fdd6ce99a227ed3802f", "is_disabled": 0, "rental_uris": {"ios": "https://dc.lft.to/lastmile_qr_scan", "android": "https://dc.lft.to/lastmile_qr_scan"}, "is_reserved": 0}, {"lon": -77.0287475, "bike_id": "f20b50cba16f331172aba02dc12727c1", "lat": 38.928207, "fusion_lon": 0.0, "fusion_lat": 0.0, "type": "electric_scooter", "name": "f20b50cba16f331172aba02dc12727c1", "is_disabled": 0, "rental_uris": {"ios": "https://dc.lft.to/lastmile_qr_scan", "android": "https://dc.lft.to/lastmile_qr_scan"}, "is_reserved": 0}, {"lon": -77.06277283333333, "bike_id": "11325754676922ebd0a097aaea592aef", "lat": 38.905876166666665, "fusion_lon": 0.0, "fusion_lat": 0.0, "type": "electric_scooter", "name": "11325754676922ebd0a097aaea592aef", "is_disabled": 0, "rental_uris": {"ios": "https://dc.lft.to/lastmile_qr_scan", "android": "https://dc.lft.to/lastmile_qr_scan"}, "is_reserved": 0}, {"lon": -77.02699966666667, "bike_id": "49f53eeeaed4f3a51b0415364a56edd3", "lat": 38.926637, "fusion_lon": 0.0, "fusion_lat": 0.0, "type": "electric_scooter", "name": "49f53eeeaed4f3a51b0415364a56edd3", "is_disabled": 0, "rental_uris": {"ios": "https://dc.lft.to/lastmile_qr_scan", "android": "https://dc.lft.to/lastmile_qr_scan"}, "is_reserved": 0}, {"lon": -77.00772433333333, "bike_id": "af865b6cc740c0a863e3da1ae59b586d", "lat": 38.98383333333334, "fusion_lon": 0.0, "fusion_lat": 0.0, "type": "electric_bike", "name": "af865b6cc740c0a863e3da1ae59b586d", "is_disabled": 0, "rental_uris": {"ios": "https://dc.lft.to/lastmile_qr_scan", "android": "https://dc.lft.to/lastmile_qr_scan"}, "is_reserved": 0}, {"lon": -77.01659166666667, "bike_id": "fa01fa63ec4d84d4c8326d6a3475e0de", "lat": 38.887462, "fusion_lon": 0.0, "fusion_lat": 0.0, "type": "electric_scooter", "name": "fa01fa63ec4d84d4c8326d6a3475e0de", "is_disabled": 0, "rental_uris": {"ios": "https://dc.lft.to/lastmile_qr_scan", "android": "https://dc.lft.to/lastmile_qr_scan"}, "is_reserved": 0}, {"lon": -77.02497966666667, "bike_id": "c54ad2f1ec999554614983d425d0ad40", "lat": 38.906322, "fusion_lon": 0.0, "fusion_lat": 0.0, "type": "electric_scooter", "name": "c54ad2f1ec999554614983d425d0ad40", "is_disabled": 0, "rental_uris": {"ios": "https://dc.lft.to/lastmile_qr_scan", "android": "https://dc.lft.to/lastmile_qr_scan"}, "is_reserved": 0}, {"lon": -77.00213733333334, "bike_id": "ecca42bd8095b7de06f956ad5d4856f6", "lat": 38.881265, "fusion_lon": 0.0, "fusion_lat": 0.0, "type": "electric_scooter", "name": "ecca42bd8095b7de06f956ad5d4856f6", "is_disabled": 0, "rental_uris": {"ios": "https://dc.lft.to/lastmile_qr_scan", "android": "https://dc.lft.to/lastmile_qr_scan"}, "is_reserved": 0}, {"lon": -77.36091883333333, "bike_id": "3a3db9d9792904997639c9c881ece57a", "lat": 38.939541, "fusion_lon": 0.0, "fusion_lat": 0.0, "type": "electric_bike", "name": "3a3db9d9792904997639c9c881ece57a", "is_disabled": 0, "rental_uris": {"ios": "https://dc.lft.to/lastmile_qr_scan", "android": "https://dc.lft.to/lastmile_qr_scan"}, "is_reserved": 0}, {"lon": -77.01592666666667, "bike_id": "4413e42eafd3a4eb0a3bfa2e5681d2b1", "lat": 38.903895, "fusion_lon": 0.0, "fusion_lat": 0.0, "type": "electric_scooter", "name": "4413e42eafd3a4eb0a3bfa2e5681d2b1", "is_disabled": 0, "rental_uris": {"ios": "https://dc.lft.to/lastmile_qr_scan", "android": "https://dc.lft.to/lastmile_qr_scan"}, "is_reserved": 0}, {"lon": -77.03408583333334, "bike_id": "85b60d606f5b525c710b73e2e50eaf0c", "lat": 38.90395083333333, "fusion_lon": 0.0, "fusion_lat": 0.0, "type": "electric_scooter", "name": "85b60d606f5b525c710b73e2e50eaf0c", "is_disabled": 0, "rental_uris": {"ios": "https://dc.lft.to/lastmile_qr_scan", "android": "https://dc.lft.to/lastmile_qr_scan"}, "is_reserved": 0}, {"lon": -76.9770555, "bike_id": "1fb4eb8bb8539646a4321e9a6ee481e7", "lat": 38.9491385, "fusion_lon": 0.0, "fusion_lat": 0.0, "type": "electric_bike", "name": "1fb4eb8bb8539646a4321e9a6ee481e7", "is_disabled": 0, "rental_uris": {"ios": "https://dc.lft.to/lastmile_qr_scan", "android": "https://dc.lft.to/lastmile_qr_scan"}, "is_reserved": 0}, {"lon": -76.98030116666666, "bike_id": "7df15202d3ebf7f9961ccb38dd620466", "lat": 38.900770333333334, "fusion_lon": 0.0, "fusion_lat": 0.0, "type": "electric_bike", "name": "7df15202d3ebf7f9961ccb38dd620466", "is_disabled": 0, "rental_uris": {"ios": "https://dc.lft.to/lastmile_qr_scan", "android": "https://dc.lft.to/lastmile_qr_scan"}, "is_reserved": 0}, {"lon": -77.02966933333333, "bike_id": "1bc2907ff939b8dd53b1d1244c980779", "lat": 38.907748166666664, "fusion_lon": 0.0, "fusion_lat": 0.0, "type": "electric_scooter", "name": "1bc2907ff939b8dd53b1d1244c980779", "is_disabled": 0, "rental_uris": {"ios": "https://dc.lft.to/lastmile_qr_scan", "android": "https://dc.lft.to/lastmile_qr_scan"}, "is_reserved": 0}, {"lon": -77.02407283333334, "bike_id": "2b0adfdf4150336b5b57a70f2cee644e", "lat": 38.91422283333333, "fusion_lon": 0.0, "fusion_lat": 0.0, "type": "electric_scooter", "name": "2b0adfdf4150336b5b57a70f2cee644e", "is_disabled": 0, "rental_uris": {"ios": "https://dc.lft.to/lastmile_qr_scan", "android": "https://dc.lft.to/lastmile_qr_scan"}, "is_reserved": 0}, {"lon": -76.968148, "bike_id": "d748fe4a1fc50af0628038a0161f56d9", "lat": 38.9254625, "fusion_lon": 0.0, "fusion_lat": 0.0, "type": "electric_bike", "name": "d748fe4a1fc50af0628038a0161f56d9", "is_disabled": 0, "rental_uris": {"ios": "https://dc.lft.to/lastmile_qr_scan", "android": "https://dc.lft.to/lastmile_qr_scan"}, "is_reserved": 0}, {"lon": -77.00504316666667, "bike_id": "8896b3c417229343c2380f03ec55fcf5", "lat": 38.87944516666667, "fusion_lon": 0.0, "fusion_lat": 0.0, "type": "electric_scooter", "name": "8896b3c417229343c2380f03ec55fcf5", "is_disabled": 0, "rental_uris": {"ios": "https://dc.lft.to/lastmile_qr_scan", "android": "https://dc.lft.to/lastmile_qr_scan"}, "is_reserved": 0}, {"lon": -77.04179716666667, "bike_id": "6f109ffc5848ab5a5eaa56666b46dcf9", "lat": 38.916518333333336, "fusion_lon": 0.0, "fusion_lat": 0.0, "type": "electric_scooter", "name": "6f109ffc5848ab5a5eaa56666b46dcf9", "is_disabled": 0, "rental_uris": {"ios": "https://dc.lft.to/lastmile_qr_scan", "android": "https://dc.lft.to/lastmile_qr_scan"}, "is_reserved": 0}, {"lon": -76.98616866666667, "bike_id": "2c7e34df214538fad755f9a3153e2a90", "lat": 38.938267, "fusion_lon": 0.0, "fusion_lat": 0.0, "type": "electric_scooter", "name": "2c7e34df214538fad755f9a3153e2a90", "is_disabled": 0, "rental_uris": {"ios": "https://dc.lft.to/lastmile_qr_scan", "android": "https://dc.lft.to/lastmile_qr_scan"}, "is_reserved": 0}, {"lon": -77.00682366666666, "bike_id": "68f37845af6efd7708a4cab0dc919fda", "lat": 38.90013783333333, "fusion_lon": 0.0, "fusion_lat": 0.0, "type": "electric_scooter", "name": "68f37845af6efd7708a4cab0dc919fda", "is_disabled": 0, "rental_uris": {"ios": "https://dc.lft.to/lastmile_qr_scan", "android": "https://dc.lft.to/lastmile_qr_scan"}, "is_reserved": 0}, {"lon": -77.0217265, "bike_id": "9c7ba3f710dcacb10e466c6ee3b7d4b2", "lat": 38.919122, "fusion_lon": 0.0, "fusion_lat": 0.0, "type": "electric_scooter", "name": "9c7ba3f710dcacb10e466c6ee3b7d4b2", "is_disabled": 0, "rental_uris": {"ios": "https://dc.lft.to/lastmile_qr_scan", "android": "https://dc.lft.to/lastmile_qr_scan"}, "is_reserved": 0}, {"lon": -76.99020366666667, "bike_id": "742306197f8e9a7e47119c169e2daa04", "lat": 38.86644066666667, "fusion_lon": 0.0, "fusion_lat": 0.0, "type": "electric_scooter", "name": "742306197f8e9a7e47119c169e2daa04", "is_disabled": 0, "rental_uris": {"ios": "https://dc.lft.to/lastmile_qr_scan", "android": "https://dc.lft.to/lastmile_qr_scan"}, "is_reserved": 0}, {"lon": -77.03281416666667, "bike_id": "92c866551072c1aa1bbc9927eb61fb1b", "lat": 38.93202183333333, "fusion_lon": 0.0, "fusion_lat": 0.0, "type": "electric_scooter", "name": "92c866551072c1aa1bbc9927eb61fb1b", "is_disabled": 0, "rental_uris": {"ios": "https://dc.lft.to/lastmile_qr_scan", "android": "https://dc.lft.to/lastmile_qr_scan"}, "is_reserved": 0}, {"lon": -77.04158683333333, "bike_id": "d31852a6df4ebefaf557c08298615e93", "lat": 38.912679, "fusion_lon": 0.0, "fusion_lat": 0.0, "type": "electric_scooter", "name": "d31852a6df4ebefaf557c08298615e93", "is_disabled": 0, "rental_uris": {"ios": "https://dc.lft.to/lastmile_qr_scan", "android": "https://dc.lft.to/lastmile_qr_scan"}, "is_reserved": 0}, {"lon": -77.02336766666667, "bike_id": "e17dd50afd8ec027706f41968fe2e2e9", "lat": 38.92475433333333, "fusion_lon": 0.0, "fusion_lat": 0.0, "type": "electric_scooter", "name": "e17dd50afd8ec027706f41968fe2e2e9", "is_disabled": 0, "rental_uris": {"ios": "https://dc.lft.to/lastmile_qr_scan", "android": "https://dc.lft.to/lastmile_qr_scan"}, "is_reserved": 0}, {"lon": -77.07518083333333, "bike_id": "5929958b2e2d40d2d412c57ee75752ff", "lat": 38.90673916666667, "fusion_lon": 0.0, "fusion_lat": 0.0, "type": "electric_scooter", "name": "5929958b2e2d40d2d412c57ee75752ff", "is_disabled": 0, "rental_uris": {"ios": "https://dc.lft.to/lastmile_qr_scan", "android": "https://dc.lft.to/lastmile_qr_scan"}, "is_reserved": 0}, {"lon": -76.9748125, "bike_id": "8e3078c4f1ddc166c03613d992cb45f4", "lat": 38.90348516666667, "fusion_lon": 0.0, "fusion_lat": 0.0, "type": "electric_scooter", "name": "8e3078c4f1ddc166c03613d992cb45f4", "is_disabled": 0, "rental_uris": {"ios": "https://dc.lft.to/lastmile_qr_scan", "android": "https://dc.lft.to/lastmile_qr_scan"}, "is_reserved": 0}, {"lon": -77.08071566666666, "bike_id": "e939561289ce9c767ae2369e1143ffda", "lat": 39.052802, "fusion_lon": 0.0, "fusion_lat": 0.0, "type": "electric_bike", "name": "e939561289ce9c767ae2369e1143ffda", "is_disabled": 0, "rental_uris": {"ios": "https://dc.lft.to/lastmile_qr_scan", "android": "https://dc.lft.to/lastmile_qr_scan"}, "is_reserved": 0}, {"lon": -77.02808833333333, "bike_id": "b67ced649e100f47fd1b69875b165870", "lat": 38.931405833333336, "fusion_lon": 0.0, "fusion_lat": 0.0, "type": "electric_scooter", "name": "b67ced649e100f47fd1b69875b165870", "is_disabled": 0, "rental_uris": {"ios": "https://dc.lft.to/lastmile_qr_scan", "android": "https://dc.lft.to/lastmile_qr_scan"}, "is_reserved": 0}, {"lon": -77.0482895, "bike_id": "7312dee63680b74b4a9387d668506b1f", "lat": 38.918624, "fusion_lon": 0.0, "fusion_lat": 0.0, "type": "electric_scooter", "name": "7312dee63680b74b4a9387d668506b1f", "is_disabled": 0, "rental_uris": {"ios": "https://dc.lft.to/lastmile_qr_scan", "android": "https://dc.lft.to/lastmile_qr_scan"}, "is_reserved": 0}, {"lon": -76.98764066666666, "bike_id": "2ad3e6e066b453063f510f822d33e3df", "lat": 38.857678666666665, "fusion_lon": 0.0, "fusion_lat": 0.0, "type": "electric_bike", "name": "2ad3e6e066b453063f510f822d33e3df", "is_disabled": 0, "rental_uris": {"ios": "https://dc.lft.to/lastmile_qr_scan", "android": "https://dc.lft.to/lastmile_qr_scan"}, "is_reserved": 0}, {"lon": -77.038686, "bike_id": "fc094068073dafb6147cc005eff58612", "lat": 38.9126785, "fusion_lon": 0.0, "fusion_lat": 0.0, "type": "electric_scooter", "name": "fc094068073dafb6147cc005eff58612", "is_disabled": 0, "rental_uris": {"ios": "https://dc.lft.to/lastmile_qr_scan", "android": "https://dc.lft.to/lastmile_qr_scan"}, "is_reserved": 0}, {"lon": -77.041841, "bike_id": "1c4468b0f1214d284eb8b4cf888bbb9c", "lat": 38.9066635, "fusion_lon": 0.0, "fusion_lat": 0.0, "type": "electric_scooter", "name": "1c4468b0f1214d284eb8b4cf888bbb9c", "is_disabled": 0, "rental_uris": {"ios": "https://dc.lft.to/lastmile_qr_scan", "android": "https://dc.lft.to/lastmile_qr_scan"}, "is_reserved": 0}, {"lon": -77.00919616666667, "bike_id": "b47f5b97bf35a98045630b8f89afd476", "lat": 38.89555883333333, "fusion_lon": 0.0, "fusion_lat": 0.0, "type": "electric_scooter", "name": "b47f5b97bf35a98045630b8f89afd476", "is_disabled": 0, "rental_uris": {"ios": "https://dc.lft.to/lastmile_qr_scan", "android": "https://dc.lft.to/lastmile_qr_scan"}, "is_reserved": 0}, {"lon": -77.02246216666667, "bike_id": "2bfae90acb81a0a4d7e30d4669574da3", "lat": 38.922633, "fusion_lon": 0.0, "fusion_lat": 0.0, "type": "electric_scooter", "name": "2bfae90acb81a0a4d7e30d4669574da3", "is_disabled": 0, "rental_uris": {"ios": "https://dc.lft.to/lastmile_qr_scan", "android": "https://dc.lft.to/lastmile_qr_scan"}, "is_reserved": 0}, {"lon": -77.00941783333333, "bike_id": "60f9cc90b7359e5dc6f0600e7dc9f255", "lat": 38.88308033333333, "fusion_lon": 0.0, "fusion_lat": 0.0, "type": "electric_scooter", "name": "60f9cc90b7359e5dc6f0600e7dc9f255", "is_disabled": 0, "rental_uris": {"ios": "https://dc.lft.to/lastmile_qr_scan", "android": "https://dc.lft.to/lastmile_qr_scan"}, "is_reserved": 0}, {"lon": -77.04111083333333, "bike_id": "8564bf58bf0f5146dc1dd856345ff357", "lat": 38.9169705, "fusion_lon": 0.0, "fusion_lat": 0.0, "type": "electric_scooter", "name": "8564bf58bf0f5146dc1dd856345ff357", "is_disabled": 0, "rental_uris": {"ios": "https://dc.lft.to/lastmile_qr_scan", "android": "https://dc.lft.to/lastmile_qr_scan"}, "is_reserved": 0}, {"lon": -77.04111966666666, "bike_id": "10ee65ba0b4cecc0545ab4216491fef4", "lat": 38.92800616666667, "fusion_lon": 0.0, "fusion_lat": 0.0, "type": "electric_scooter", "name": "10ee65ba0b4cecc0545ab4216491fef4", "is_disabled": 0, "rental_uris": {"ios": "https://dc.lft.to/lastmile_qr_scan", "android": "https://dc.lft.to/lastmile_qr_scan"}, "is_reserved": 0}, {"lon": -77.00202016666667, "bike_id": "53380ebd18c0d614cfa2f73e836f7518", "lat": 38.902365333333336, "fusion_lon": 0.0, "fusion_lat": 0.0, "type": "electric_scooter", "name": "53380ebd18c0d614cfa2f73e836f7518", "is_disabled": 0, "rental_uris": {"ios": "https://dc.lft.to/lastmile_qr_scan", "android": "https://dc.lft.to/lastmile_qr_scan"}, "is_reserved": 0}, {"lon": -77.03583, "bike_id": "aa451b47114c30392370f5feed379f5c", "lat": 38.907557, "fusion_lon": 0.0, "fusion_lat": 0.0, "type": "electric_scooter", "name": "aa451b47114c30392370f5feed379f5c", "is_disabled": 0, "rental_uris": {"ios": "https://dc.lft.to/lastmile_qr_scan", "android": "https://dc.lft.to/lastmile_qr_scan"}, "is_reserved": 0}, {"lon": -76.9958465, "bike_id": "250853f673c07416dab5c5035f25a3b0", "lat": 38.852896, "fusion_lon": 0.0, "fusion_lat": 0.0, "type": "electric_bike", "name": "250853f673c07416dab5c5035f25a3b0", "is_disabled": 0, "rental_uris": {"ios": "https://dc.lft.to/lastmile_qr_scan", "android": "https://dc.lft.to/lastmile_qr_scan"}, "is_reserved": 0}, {"lon": -76.99842116666667, "bike_id": "555f6ca862a53b1f0079fbf7dacc5083", "lat": 38.90001383333333, "fusion_lon": 0.0, "fusion_lat": 0.0, "type": "electric_scooter", "name": "555f6ca862a53b1f0079fbf7dacc5083", "is_disabled": 0, "rental_uris": {"ios": "https://dc.lft.to/lastmile_qr_scan", "android": "https://dc.lft.to/lastmile_qr_scan"}, "is_reserved": 0}, {"lon": -77.0415365, "bike_id": "0feb85d182e51c8022e6cb71d48fbdc0", "lat": 38.923529, "fusion_lon": 0.0, "fusion_lat": 0.0, "type": "electric_scooter", "name": "0feb85d182e51c8022e6cb71d48fbdc0", "is_disabled": 0, "rental_uris": {"ios": "https://dc.lft.to/lastmile_qr_scan", "android": "https://dc.lft.to/lastmile_qr_scan"}, "is_reserved": 0}, {"lon": -77.02617016666666, "bike_id": "8009c3bb2541220cd930dc0e982680be", "lat": 38.900226833333335, "fusion_lon": 0.0, "fusion_lat": 0.0, "type": "electric_scooter", "name": "8009c3bb2541220cd930dc0e982680be", "is_disabled": 0, "rental_uris": {"ios": "https://dc.lft.to/lastmile_qr_scan", "android": "https://dc.lft.to/lastmile_qr_scan"}, "is_reserved": 0}, {"lon": -77.03226683333334, "bike_id": "19ebe79b759402c0589f72ab4a7c5e48", "lat": 38.91402866666667, "fusion_lon": 0.0, "fusion_lat": 0.0, "type": "electric_scooter", "name": "19ebe79b759402c0589f72ab4a7c5e48", "is_disabled": 0, "rental_uris": {"ios": "https://dc.lft.to/lastmile_qr_scan", "android": "https://dc.lft.to/lastmile_qr_scan"}, "is_reserved": 0}, {"lon": -76.987194, "bike_id": "19d7f2f566af5c89bf0b5667d1b8be9c", "lat": 38.86622283333333, "fusion_lon": 0.0, "fusion_lat": 0.0, "type": "electric_scooter", "name": "19d7f2f566af5c89bf0b5667d1b8be9c", "is_disabled": 0, "rental_uris": {"ios": "https://dc.lft.to/lastmile_qr_scan", "android": "https://dc.lft.to/lastmile_qr_scan"}, "is_reserved": 0}, {"lon": -77.0243065, "bike_id": "8b24d8e6761af6e17498f4cabd90bd63", "lat": 38.914006666666666, "fusion_lon": 0.0, "fusion_lat": 0.0, "type": "electric_scooter", "name": "8b24d8e6761af6e17498f4cabd90bd63", "is_disabled": 0, "rental_uris": {"ios": "https://dc.lft.to/lastmile_qr_scan", "android": "https://dc.lft.to/lastmile_qr_scan"}, "is_reserved": 0}, {"lon": -77.03990533333334, "bike_id": "145b4acf5e2ad8c9163baa18ef7814a5", "lat": 38.905645, "fusion_lon": 0.0, "fusion_lat": 0.0, "type": "electric_scooter", "name": "145b4acf5e2ad8c9163baa18ef7814a5", "is_disabled": 0, "rental_uris": {"ios": "https://dc.lft.to/lastmile_qr_scan", "android": "https://dc.lft.to/lastmile_qr_scan"}, "is_reserved": 0}, {"lon": -77.007399, "bike_id": "bef7c2ae2c776a89e1e8b8268915aeeb", "lat": 38.916206, "fusion_lon": 0.0, "fusion_lat": 0.0, "type": "electric_scooter", "name": "bef7c2ae2c776a89e1e8b8268915aeeb", "is_disabled": 0, "rental_uris": {"ios": "https://dc.lft.to/lastmile_qr_scan", "android": "https://dc.lft.to/lastmile_qr_scan"}, "is_reserved": 0}, {"lon": -76.99160833333333, "bike_id": "1f309336efcfb1aa15880e94b3b5cf57", "lat": 38.88768183333333, "fusion_lon": 0.0, "fusion_lat": 0.0, "type": "electric_bike", "name": "1f309336efcfb1aa15880e94b3b5cf57", "is_disabled": 0, "rental_uris": {"ios": "https://dc.lft.to/lastmile_qr_scan", "android": "https://dc.lft.to/lastmile_qr_scan"}, "is_reserved": 0}, {"lon": -77.032644, "bike_id": "2740b0f09a4e7ddecf4f6dc2160590e4", "lat": 38.935590833333336, "fusion_lon": 0.0, "fusion_lat": 0.0, "type": "electric_scooter", "name": "2740b0f09a4e7ddecf4f6dc2160590e4", "is_disabled": 0, "rental_uris": {"ios": "https://dc.lft.to/lastmile_qr_scan", "android": "https://dc.lft.to/lastmile_qr_scan"}, "is_reserved": 0}, {"lon": -77.07437483333334, "bike_id": "2de7f641d47c176611a592493dd35db6", "lat": 38.999446666666664, "fusion_lon": 0.0, "fusion_lat": 0.0, "type": "electric_bike", "name": "2de7f641d47c176611a592493dd35db6", "is_disabled": 0, "rental_uris": {"ios": "https://dc.lft.to/lastmile_qr_scan", "android": "https://dc.lft.to/lastmile_qr_scan"}, "is_reserved": 0}, {"lon": -77.02394466666667, "bike_id": "eefeb1b9746555440b8fad737f28fc88", "lat": 38.9192275, "fusion_lon": 0.0, "fusion_lat": 0.0, "type": "electric_scooter", "name": "eefeb1b9746555440b8fad737f28fc88", "is_disabled": 0, "rental_uris": {"ios": "https://dc.lft.to/lastmile_qr_scan", "android": "https://dc.lft.to/lastmile_qr_scan"}, "is_reserved": 0}, {"lon": -77.04487733333333, "bike_id": "9274d2d58bf2c7c692ad581b643b83ff", "lat": 38.92420466666667, "fusion_lon": 0.0, "fusion_lat": 0.0, "type": "electric_scooter", "name": "9274d2d58bf2c7c692ad581b643b83ff", "is_disabled": 0, "rental_uris": {"ios": "https://dc.lft.to/lastmile_qr_scan", "android": "https://dc.lft.to/lastmile_qr_scan"}, "is_reserved": 0}, {"lon": -77.02615416666667, "bike_id": "cc7d3f318f376819682657e7df0f0ad3", "lat": 38.9141395, "fusion_lon": 0.0, "fusion_lat": 0.0, "type": "electric_scooter", "name": "cc7d3f318f376819682657e7df0f0ad3", "is_disabled": 0, "rental_uris": {"ios": "https://dc.lft.to/lastmile_qr_scan", "android": "https://dc.lft.to/lastmile_qr_scan"}, "is_reserved": 0}, {"lon": -77.027079, "bike_id": "5affc7097f4d6ca9bc0eddeffe5bbfcc", "lat": 38.9277565, "fusion_lon": 0.0, "fusion_lat": 0.0, "type": "electric_scooter", "name": "5affc7097f4d6ca9bc0eddeffe5bbfcc", "is_disabled": 0, "rental_uris": {"ios": "https://dc.lft.to/lastmile_qr_scan", "android": "https://dc.lft.to/lastmile_qr_scan"}, "is_reserved": 0}, {"lon": -77.00889216666667, "bike_id": "7193fee13dd29c4a8498cab4262e00bd", "lat": 38.9227735, "fusion_lon": 0.0, "fusion_lat": 0.0, "type": "electric_scooter", "name": "7193fee13dd29c4a8498cab4262e00bd", "is_disabled": 0, "rental_uris": {"ios": "https://dc.lft.to/lastmile_qr_scan", "android": "https://dc.lft.to/lastmile_qr_scan"}, "is_reserved": 0}, {"lon": -77.03267716666667, "bike_id": "9cd96877bc4ed472231e78634e5b354c", "lat": 38.92934133333333, "fusion_lon": 0.0, "fusion_lat": 0.0, "type": "electric_scooter", "name": "9cd96877bc4ed472231e78634e5b354c", "is_disabled": 0, "rental_uris": {"ios": "https://dc.lft.to/lastmile_qr_scan", "android": "https://dc.lft.to/lastmile_qr_scan"}, "is_reserved": 0}, {"lon": -77.031817, "bike_id": "b832182f3e5213bef645d30c687ac537", "lat": 38.90375783333333, "fusion_lon": 0.0, "fusion_lat": 0.0, "type": "electric_scooter", "name": "b832182f3e5213bef645d30c687ac537", "is_disabled": 0, "rental_uris": {"ios": "https://dc.lft.to/lastmile_qr_scan", "android": "https://dc.lft.to/lastmile_qr_scan"}, "is_reserved": 0}, {"lon": -77.06259333333334, "bike_id": "04c287e520eb19c9101a4b19c9be9139", "lat": 38.94361516666667, "fusion_lon": 0.0, "fusion_lat": 0.0, "type": "electric_bike", "name": "04c287e520eb19c9101a4b19c9be9139", "is_disabled": 0, "rental_uris": {"ios": "https://dc.lft.to/lastmile_qr_scan", "android": "https://dc.lft.to/lastmile_qr_scan"}, "is_reserved": 0}, {"lon": -77.233219, "bike_id": "e024025a94c502be991ea9325ed3af83", "lat": 38.8728125, "fusion_lon": 0.0, "fusion_lat": 0.0, "type": "electric_bike", "name": "e024025a94c502be991ea9325ed3af83", "is_disabled": 0, "rental_uris": {"ios": "https://dc.lft.to/lastmile_qr_scan", "android": "https://dc.lft.to/lastmile_qr_scan"}, "is_reserved": 0}, {"lon": -77.0282045, "bike_id": "2a68b114a3238d3d281424b85dfd26e4", "lat": 38.91683416666667, "fusion_lon": 0.0, "fusion_lat": 0.0, "type": "electric_scooter", "name": "2a68b114a3238d3d281424b85dfd26e4", "is_disabled": 0, "rental_uris": {"ios": "https://dc.lft.to/lastmile_qr_scan", "android": "https://dc.lft.to/lastmile_qr_scan"}, "is_reserved": 0}, {"lon": -76.973019, "bike_id": "d39dc265ebaea751491afdafaae815a2", "lat": 38.916473833333335, "fusion_lon": 0.0, "fusion_lat": 0.0, "type": "electric_bike", "name": "d39dc265ebaea751491afdafaae815a2", "is_disabled": 0, "rental_uris": {"ios": "https://dc.lft.to/lastmile_qr_scan", "android": "https://dc.lft.to/lastmile_qr_scan"}, "is_reserved": 0}, {"lon": -77.23334716666666, "bike_id": "23b570c4ec3de580409dde040d47946b", "lat": 38.8727395, "fusion_lon": 0.0, "fusion_lat": 0.0, "type": "electric_bike", "name": "23b570c4ec3de580409dde040d47946b", "is_disabled": 0, "rental_uris": {"ios": "https://dc.lft.to/lastmile_qr_scan", "android": "https://dc.lft.to/lastmile_qr_scan"}, "is_reserved": 0}, {"lon": -76.93756866666666, "bike_id": "0745a5ee02a8f8bbf3d6c5b9156cb3ea", "lat": 38.890496666666664, "fusion_lon": 0.0, "fusion_lat": 0.0, "type": "electric_scooter", "name": "0745a5ee02a8f8bbf3d6c5b9156cb3ea", "is_disabled": 0, "rental_uris": {"ios": "https://dc.lft.to/lastmile_qr_scan", "android": "https://dc.lft.to/lastmile_qr_scan"}, "is_reserved": 0}, {"lon": -77.04173533333334, "bike_id": "e6c1a3f772fe22b07bc7984ef6a45509", "lat": 38.917703, "fusion_lon": 0.0, "fusion_lat": 0.0, "type": "electric_scooter", "name": "e6c1a3f772fe22b07bc7984ef6a45509", "is_disabled": 0, "rental_uris": {"ios": "https://dc.lft.to/lastmile_qr_scan", "android": "https://dc.lft.to/lastmile_qr_scan"}, "is_reserved": 0}, {"lon": -77.028798, "bike_id": "467d75fa07032e14e7cdb3fd01ca444c", "lat": 38.90425666666667, "fusion_lon": 0.0, "fusion_lat": 0.0, "type": "electric_scooter", "name": "467d75fa07032e14e7cdb3fd01ca444c", "is_disabled": 0, "rental_uris": {"ios": "https://dc.lft.to/lastmile_qr_scan", "android": "https://dc.lft.to/lastmile_qr_scan"}, "is_reserved": 0}, {"lon": -77.04289833333333, "bike_id": "f48bb454185272b8c69803845c70379b", "lat": 38.90734666666667, "fusion_lon": 0.0, "fusion_lat": 0.0, "type": "electric_scooter", "name": "f48bb454185272b8c69803845c70379b", "is_disabled": 0, "rental_uris": {"ios": "https://dc.lft.to/lastmile_qr_scan", "android": "https://dc.lft.to/lastmile_qr_scan"}, "is_reserved": 0}, {"lon": -77.03269966666667, "bike_id": "62197e39652ae3300b3ac7d5b2189e14", "lat": 38.93722433333333, "fusion_lon": 0.0, "fusion_lat": 0.0, "type": "electric_scooter", "name": "62197e39652ae3300b3ac7d5b2189e14", "is_disabled": 0, "rental_uris": {"ios": "https://dc.lft.to/lastmile_qr_scan", "android": "https://dc.lft.to/lastmile_qr_scan"}, "is_reserved": 0}, {"lon": -77.03561183333333, "bike_id": "5cc2c75ecec237a59e41227a31310f55", "lat": 38.92709133333334, "fusion_lon": 0.0, "fusion_lat": 0.0, "type": "electric_scooter", "name": "5cc2c75ecec237a59e41227a31310f55", "is_disabled": 0, "rental_uris": {"ios": "https://dc.lft.to/lastmile_qr_scan", "android": "https://dc.lft.to/lastmile_qr_scan"}, "is_reserved": 0}, {"lon": -77.02771166666666, "bike_id": "9ddbffd3b44981099d0f4caaec6285fa", "lat": 38.9542305, "fusion_lon": 0.0, "fusion_lat": 0.0, "type": "electric_scooter", "name": "9ddbffd3b44981099d0f4caaec6285fa", "is_disabled": 0, "rental_uris": {"ios": "https://dc.lft.to/lastmile_qr_scan", "android": "https://dc.lft.to/lastmile_qr_scan"}, "is_reserved": 0}, {"lon": -77.04413133333334, "bike_id": "2c9c1b9aa72657a5b9c3bd9b178f2e6d", "lat": 38.91961, "fusion_lon": 0.0, "fusion_lat": 0.0, "type": "electric_scooter", "name": "2c9c1b9aa72657a5b9c3bd9b178f2e6d", "is_disabled": 0, "rental_uris": {"ios": "https://dc.lft.to/lastmile_qr_scan", "android": "https://dc.lft.to/lastmile_qr_scan"}, "is_reserved": 0}, {"lon": -77.034263, "bike_id": "a696f46719d64e46d09ab14e01a35509", "lat": 38.90958083333334, "fusion_lon": 0.0, "fusion_lat": 0.0, "type": "electric_scooter", "name": "a696f46719d64e46d09ab14e01a35509", "is_disabled": 0, "rental_uris": {"ios": "https://dc.lft.to/lastmile_qr_scan", "android": "https://dc.lft.to/lastmile_qr_scan"}, "is_reserved": 0}, {"lon": -77.06489233333333, "bike_id": "9f824874bed0ffd8b0ead1d17df9a460", "lat": 38.90975016666667, "fusion_lon": 0.0, "fusion_lat": 0.0, "type": "electric_scooter", "name": "9f824874bed0ffd8b0ead1d17df9a460", "is_disabled": 0, "rental_uris": {"ios": "https://dc.lft.to/lastmile_qr_scan", "android": "https://dc.lft.to/lastmile_qr_scan"}, "is_reserved": 0}, {"lon": -77.04435066666667, "bike_id": "25f45686f47fd0813e1d287820608ef6", "lat": 38.905877333333336, "fusion_lon": 0.0, "fusion_lat": 0.0, "type": "electric_scooter", "name": "25f45686f47fd0813e1d287820608ef6", "is_disabled": 0, "rental_uris": {"ios": "https://dc.lft.to/lastmile_qr_scan", "android": "https://dc.lft.to/lastmile_qr_scan"}, "is_reserved": 0}, {"lon": -77.01618516666667, "bike_id": "bfa49e44d9d37c16cbe4e3c984697767", "lat": 38.89507566666666, "fusion_lon": 0.0, "fusion_lat": 0.0, "type": "electric_scooter", "name": "bfa49e44d9d37c16cbe4e3c984697767", "is_disabled": 0, "rental_uris": {"ios": "https://dc.lft.to/lastmile_qr_scan", "android": "https://dc.lft.to/lastmile_qr_scan"}, "is_reserved": 0}, {"lon": -76.99093016666667, "bike_id": "b8739329b7973f2fb6325f970759b452", "lat": 38.8623535, "fusion_lon": 0.0, "fusion_lat": 0.0, "type": "electric_bike", "name": "b8739329b7973f2fb6325f970759b452", "is_disabled": 0, "rental_uris": {"ios": "https://dc.lft.to/lastmile_qr_scan", "android": "https://dc.lft.to/lastmile_qr_scan"}, "is_reserved": 0}, {"lon": -77.02955366666667, "bike_id": "87a2b4dadb4c13abf29cff8a4d2f15e3", "lat": 38.896163666666666, "fusion_lon": 0.0, "fusion_lat": 0.0, "type": "electric_scooter", "name": "87a2b4dadb4c13abf29cff8a4d2f15e3", "is_disabled": 0, "rental_uris": {"ios": "https://dc.lft.to/lastmile_qr_scan", "android": "https://dc.lft.to/lastmile_qr_scan"}, "is_reserved": 0}, {"lon": -76.98085766666667, "bike_id": "643108ff74b9a32c2b3b7ce9e8cdc1a5", "lat": 38.90705583333333, "fusion_lon": 0.0, "fusion_lat": 0.0, "type": "electric_scooter", "name": "643108ff74b9a32c2b3b7ce9e8cdc1a5", "is_disabled": 0, "rental_uris": {"ios": "https://dc.lft.to/lastmile_qr_scan", "android": "https://dc.lft.to/lastmile_qr_scan"}, "is_reserved": 0}, {"lon": -77.068355, "bike_id": "2031cf68591b569bfffe75a9ef23096d", "lat": 38.805646833333334, "fusion_lon": 0.0, "fusion_lat": 0.0, "type": "electric_bike", "name": "2031cf68591b569bfffe75a9ef23096d", "is_disabled": 0, "rental_uris": {"ios": "https://dc.lft.to/lastmile_qr_scan", "android": "https://dc.lft.to/lastmile_qr_scan"}, "is_reserved": 0}, {"lon": -77.03311483333333, "bike_id": "726ec2d2ed06ae3e93681a26d12b8174", "lat": 38.95639116666667, "fusion_lon": 0.0, "fusion_lat": 0.0, "type": "electric_scooter", "name": "726ec2d2ed06ae3e93681a26d12b8174", "is_disabled": 0, "rental_uris": {"ios": "https://dc.lft.to/lastmile_qr_scan", "android": "https://dc.lft.to/lastmile_qr_scan"}, "is_reserved": 0}, {"lon": -77.026841, "bike_id": "f024d2bc427f0636ebac1207a6d6f75e", "lat": 38.94832666666667, "fusion_lon": 0.0, "fusion_lat": 0.0, "type": "electric_scooter", "name": "f024d2bc427f0636ebac1207a6d6f75e", "is_disabled": 0, "rental_uris": {"ios": "https://dc.lft.to/lastmile_qr_scan", "android": "https://dc.lft.to/lastmile_qr_scan"}, "is_reserved": 0}, {"lon": -77.01849583333333, "bike_id": "fbfa46fe8e063a7fd0d23b8d027d9a29", "lat": 38.94989966666667, "fusion_lon": 0.0, "fusion_lat": 0.0, "type": "electric_scooter", "name": "fbfa46fe8e063a7fd0d23b8d027d9a29", "is_disabled": 0, "rental_uris": {"ios": "https://dc.lft.to/lastmile_qr_scan", "android": "https://dc.lft.to/lastmile_qr_scan"}, "is_reserved": 0}, {"lon": -77.1310855, "bike_id": "34c82f62150f87142c78eb394710469a", "lat": 39.024279666666665, "fusion_lon": 0.0, "fusion_lat": 0.0, "type": "electric_bike", "name": "34c82f62150f87142c78eb394710469a", "is_disabled": 0, "rental_uris": {"ios": "https://dc.lft.to/lastmile_qr_scan", "android": "https://dc.lft.to/lastmile_qr_scan"}, "is_reserved": 0}, {"lon": -77.03224633333333, "bike_id": "d8bc55c1df0eef41eb02d738beaee63a", "lat": 38.914049166666665, "fusion_lon": 0.0, "fusion_lat": 0.0, "type": "electric_scooter", "name": "d8bc55c1df0eef41eb02d738beaee63a", "is_disabled": 0, "rental_uris": {"ios": "https://dc.lft.to/lastmile_qr_scan", "android": "https://dc.lft.to/lastmile_qr_scan"}, "is_reserved": 0}, {"lon": -77.00301816666666, "bike_id": "5223e6e4ced0544a425ea523420567f6", "lat": 38.87738216666666, "fusion_lon": 0.0, "fusion_lat": 0.0, "type": "electric_scooter", "name": "5223e6e4ced0544a425ea523420567f6", "is_disabled": 0, "rental_uris": {"ios": "https://dc.lft.to/lastmile_qr_scan", "android": "https://dc.lft.to/lastmile_qr_scan"}, "is_reserved": 0}, {"lon": -77.04349483333333, "bike_id": "1a03acf0f72213cf84b8351d556c1ca4", "lat": 38.92137616666667, "fusion_lon": 0.0, "fusion_lat": 0.0, "type": "electric_scooter", "name": "1a03acf0f72213cf84b8351d556c1ca4", "is_disabled": 0, "rental_uris": {"ios": "https://dc.lft.to/lastmile_qr_scan", "android": "https://dc.lft.to/lastmile_qr_scan"}, "is_reserved": 0}, {"lon": -77.0393575, "bike_id": "aca733605cc9542fdb3cee275c0fc763", "lat": 38.92105433333333, "fusion_lon": 0.0, "fusion_lat": 0.0, "type": "electric_scooter", "name": "aca733605cc9542fdb3cee275c0fc763", "is_disabled": 0, "rental_uris": {"ios": "https://dc.lft.to/lastmile_qr_scan", "android": "https://dc.lft.to/lastmile_qr_scan"}, "is_reserved": 0}, {"lon": -77.0111755, "bike_id": "a2a36cfd8cb4bcc98cf0af6794fec997", "lat": 38.88549883333334, "fusion_lon": 0.0, "fusion_lat": 0.0, "type": "electric_scooter", "name": "a2a36cfd8cb4bcc98cf0af6794fec997", "is_disabled": 0, "rental_uris": {"ios": "https://dc.lft.to/lastmile_qr_scan", "android": "https://dc.lft.to/lastmile_qr_scan"}, "is_reserved": 0}, {"lon": -77.039993, "bike_id": "db70cda5c369da8c0c4136868dc8f546", "lat": 38.898855166666664, "fusion_lon": 0.0, "fusion_lat": 0.0, "type": "electric_scooter", "name": "db70cda5c369da8c0c4136868dc8f546", "is_disabled": 0, "rental_uris": {"ios": "https://dc.lft.to/lastmile_qr_scan", "android": "https://dc.lft.to/lastmile_qr_scan"}, "is_reserved": 0}, {"lon": -77.035335, "bike_id": "f07526b37ff7ddacedac31946a8f554e", "lat": 38.90364966666667, "fusion_lon": 0.0, "fusion_lat": 0.0, "type": "electric_scooter", "name": "f07526b37ff7ddacedac31946a8f554e", "is_disabled": 0, "rental_uris": {"ios": "https://dc.lft.to/lastmile_qr_scan", "android": "https://dc.lft.to/lastmile_qr_scan"}, "is_reserved": 0}, {"lon": -77.02413633333333, "bike_id": "1b518912cfba907f05f33a8dddd7ccff", "lat": 38.90968766666667, "fusion_lon": 0.0, "fusion_lat": 0.0, "type": "electric_scooter", "name": "1b518912cfba907f05f33a8dddd7ccff", "is_disabled": 0, "rental_uris": {"ios": "https://dc.lft.to/lastmile_qr_scan", "android": "https://dc.lft.to/lastmile_qr_scan"}, "is_reserved": 0}, {"lon": -77.00625266666667, "bike_id": "e6ad71fc5bbc1292dbc60cde69314bbc", "lat": 38.9081855, "fusion_lon": 0.0, "fusion_lat": 0.0, "type": "electric_scooter", "name": "e6ad71fc5bbc1292dbc60cde69314bbc", "is_disabled": 0, "rental_uris": {"ios": "https://dc.lft.to/lastmile_qr_scan", "android": "https://dc.lft.to/lastmile_qr_scan"}, "is_reserved": 0}, {"lon": -77.05633183333333, "bike_id": "f0f4bacae4a5ca8c9eb01b7c865cd817", "lat": 38.96070133333333, "fusion_lon": 0.0, "fusion_lat": 0.0, "type": "electric_scooter", "name": "f0f4bacae4a5ca8c9eb01b7c865cd817", "is_disabled": 0, "rental_uris": {"ios": "https://dc.lft.to/lastmile_qr_scan", "android": "https://dc.lft.to/lastmile_qr_scan"}, "is_reserved": 0}, {"lon": -77.096008, "bike_id": "27f97d8e777a7d6602768f44472e2178", "lat": 39.02889183333333, "fusion_lon": 0.0, "fusion_lat": 0.0, "type": "electric_bike", "name": "27f97d8e777a7d6602768f44472e2178", "is_disabled": 0, "rental_uris": {"ios": "https://dc.lft.to/lastmile_qr_scan", "android": "https://dc.lft.to/lastmile_qr_scan"}, "is_reserved": 0}, {"lon": -77.04468683333333, "bike_id": "5aa1691c7c7f2e7bf005599ef8affdef", "lat": 38.9153305, "fusion_lon": 0.0, "fusion_lat": 0.0, "type": "electric_scooter", "name": "5aa1691c7c7f2e7bf005599ef8affdef", "is_disabled": 0, "rental_uris": {"ios": "https://dc.lft.to/lastmile_qr_scan", "android": "https://dc.lft.to/lastmile_qr_scan"}, "is_reserved": 0}, {"lon": -77.0304245, "bike_id": "23b7c9e01806df6b291fe5b7a5762fd3", "lat": 38.917020666666666, "fusion_lon": 0.0, "fusion_lat": 0.0, "type": "electric_scooter", "name": "23b7c9e01806df6b291fe5b7a5762fd3", "is_disabled": 0, "rental_uris": {"ios": "https://dc.lft.to/lastmile_qr_scan", "android": "https://dc.lft.to/lastmile_qr_scan"}, "is_reserved": 0}, {"lon": -76.98060533333333, "bike_id": "46c48de310263d21f195059e6adedd5b", "lat": 38.8849575, "fusion_lon": 0.0, "fusion_lat": 0.0, "type": "electric_scooter", "name": "46c48de310263d21f195059e6adedd5b", "is_disabled": 0, "rental_uris": {"ios": "https://dc.lft.to/lastmile_qr_scan", "android": "https://dc.lft.to/lastmile_qr_scan"}, "is_reserved": 0}, {"lon": -77.024957, "bike_id": "31ada7e3c2a9253cde3faf21268f5afe", "lat": 38.939092333333335, "fusion_lon": 0.0, "fusion_lat": 0.0, "type": "electric_scooter", "name": "31ada7e3c2a9253cde3faf21268f5afe", "is_disabled": 0, "rental_uris": {"ios": "https://dc.lft.to/lastmile_qr_scan", "android": "https://dc.lft.to/lastmile_qr_scan"}, "is_reserved": 0}, {"lon": -77.090425, "bike_id": "1b5b32fb4a3224066dda863924cf2724", "lat": 38.849696, "fusion_lon": 0.0, "fusion_lat": 0.0, "type": "electric_bike", "name": "1b5b32fb4a3224066dda863924cf2724", "is_disabled": 0, "rental_uris": {"ios": "https://dc.lft.to/lastmile_qr_scan", "android": "https://dc.lft.to/lastmile_qr_scan"}, "is_reserved": 0}, {"lon": -76.9739755, "bike_id": "cf0aa5b9e5771ff33944ff7d24e7bd0a", "lat": 38.90298333333333, "fusion_lon": 0.0, "fusion_lat": 0.0, "type": "electric_scooter", "name": "cf0aa5b9e5771ff33944ff7d24e7bd0a", "is_disabled": 0, "rental_uris": {"ios": "https://dc.lft.to/lastmile_qr_scan", "android": "https://dc.lft.to/lastmile_qr_scan"}, "is_reserved": 0}, {"lon": -77.02469383333333, "bike_id": "396faf52cdad8f709988ece4be9e08a3", "lat": 38.9370985, "fusion_lon": 0.0, "fusion_lat": 0.0, "type": "electric_scooter", "name": "396faf52cdad8f709988ece4be9e08a3", "is_disabled": 0, "rental_uris": {"ios": "https://dc.lft.to/lastmile_qr_scan", "android": "https://dc.lft.to/lastmile_qr_scan"}, "is_reserved": 0}, {"lon": -77.01819, "bike_id": "d92ee1296034cbcd4e078ed15dce0e86", "lat": 38.93041766666666, "fusion_lon": 0.0, "fusion_lat": 0.0, "type": "electric_scooter", "name": "d92ee1296034cbcd4e078ed15dce0e86", "is_disabled": 0, "rental_uris": {"ios": "https://dc.lft.to/lastmile_qr_scan", "android": "https://dc.lft.to/lastmile_qr_scan"}, "is_reserved": 0}, {"lon": -77.055654, "bike_id": "414afff93ab188f0b1b7fc2cd74ccf91", "lat": 38.90849383333333, "fusion_lon": 0.0, "fusion_lat": 0.0, "type": "electric_scooter", "name": "414afff93ab188f0b1b7fc2cd74ccf91", "is_disabled": 0, "rental_uris": {"ios": "https://dc.lft.to/lastmile_qr_scan", "android": "https://dc.lft.to/lastmile_qr_scan"}, "is_reserved": 0}, {"lon": -77.07417583333333, "bike_id": "66ac9ecaaf3547335013027e38ab4cf7", "lat": 38.92889683333333, "fusion_lon": 0.0, "fusion_lat": 0.0, "type": "electric_scooter", "name": "66ac9ecaaf3547335013027e38ab4cf7", "is_disabled": 0, "rental_uris": {"ios": "https://dc.lft.to/lastmile_qr_scan", "android": "https://dc.lft.to/lastmile_qr_scan"}, "is_reserved": 0}, {"lon": -77.00060383333333, "bike_id": "4b5f18cad8166b5a275cdcbea84e3f79", "lat": 38.900062166666665, "fusion_lon": 0.0, "fusion_lat": 0.0, "type": "electric_scooter", "name": "4b5f18cad8166b5a275cdcbea84e3f79", "is_disabled": 0, "rental_uris": {"ios": "https://dc.lft.to/lastmile_qr_scan", "android": "https://dc.lft.to/lastmile_qr_scan"}, "is_reserved": 0}, {"lon": -76.989295, "bike_id": "1f43abc0eb13c42f195cc13ead2f9553", "lat": 38.86492666666667, "fusion_lon": 0.0, "fusion_lat": 0.0, "type": "electric_scooter", "name": "1f43abc0eb13c42f195cc13ead2f9553", "is_disabled": 0, "rental_uris": {"ios": "https://dc.lft.to/lastmile_qr_scan", "android": "https://dc.lft.to/lastmile_qr_scan"}, "is_reserved": 0}, {"lon": -77.02792183333334, "bike_id": "b40db9b8e1f8f74425f9401e2e1259f3", "lat": 38.91226116666667, "fusion_lon": 0.0, "fusion_lat": 0.0, "type": "electric_scooter", "name": "b40db9b8e1f8f74425f9401e2e1259f3", "is_disabled": 0, "rental_uris": {"ios": "https://dc.lft.to/lastmile_qr_scan", "android": "https://dc.lft.to/lastmile_qr_scan"}, "is_reserved": 0}, {"lon": -77.0228115, "bike_id": "cf3965594f83b68e28acf0929a1d5668", "lat": 38.916285333333335, "fusion_lon": 0.0, "fusion_lat": 0.0, "type": "electric_scooter", "name": "cf3965594f83b68e28acf0929a1d5668", "is_disabled": 0, "rental_uris": {"ios": "https://dc.lft.to/lastmile_qr_scan", "android": "https://dc.lft.to/lastmile_qr_scan"}, "is_reserved": 0}, {"lon": -77.05523983333333, "bike_id": "b46003ad29c0f2fa0c1542bb580fb139", "lat": 38.8974, "fusion_lon": 0.0, "fusion_lat": 0.0, "type": "electric_scooter", "name": "b46003ad29c0f2fa0c1542bb580fb139", "is_disabled": 0, "rental_uris": {"ios": "https://dc.lft.to/lastmile_qr_scan", "android": "https://dc.lft.to/lastmile_qr_scan"}, "is_reserved": 0}, {"lon": -76.93483166666667, "bike_id": "0d4253f327f256c1487a4a29b16ba9d7", "lat": 38.90582933333334, "fusion_lon": 0.0, "fusion_lat": 0.0, "type": "electric_scooter", "name": "0d4253f327f256c1487a4a29b16ba9d7", "is_disabled": 0, "rental_uris": {"ios": "https://dc.lft.to/lastmile_qr_scan", "android": "https://dc.lft.to/lastmile_qr_scan"}, "is_reserved": 0}, {"lon": -76.94600916666667, "bike_id": "6aa86a84080fac010c6ad5c049042928", "lat": 38.901506, "fusion_lon": 0.0, "fusion_lat": 0.0, "type": "electric_scooter", "name": "6aa86a84080fac010c6ad5c049042928", "is_disabled": 0, "rental_uris": {"ios": "https://dc.lft.to/lastmile_qr_scan", "android": "https://dc.lft.to/lastmile_qr_scan"}, "is_reserved": 0}, {"lon": -77.01860233333333, "bike_id": "9cca4eb9678f0c298e3e9504cb757fd1", "lat": 38.91498816666667, "fusion_lon": 0.0, "fusion_lat": 0.0, "type": "electric_scooter", "name": "9cca4eb9678f0c298e3e9504cb757fd1", "is_disabled": 0, "rental_uris": {"ios": "https://dc.lft.to/lastmile_qr_scan", "android": "https://dc.lft.to/lastmile_qr_scan"}, "is_reserved": 0}, {"lon": -76.98998266666666, "bike_id": "8a2d78e9940dd5dcbc7d3039408a0afe", "lat": 38.864314, "fusion_lon": 0.0, "fusion_lat": 0.0, "type": "electric_scooter", "name": "8a2d78e9940dd5dcbc7d3039408a0afe", "is_disabled": 0, "rental_uris": {"ios": "https://dc.lft.to/lastmile_qr_scan", "android": "https://dc.lft.to/lastmile_qr_scan"}, "is_reserved": 0}, {"lon": -77.0399635, "bike_id": "51cb9160c5df8dea6c25d1198dfcf50f", "lat": 38.9343275, "fusion_lon": 0.0, "fusion_lat": 0.0, "type": "electric_scooter", "name": "51cb9160c5df8dea6c25d1198dfcf50f", "is_disabled": 0, "rental_uris": {"ios": "https://dc.lft.to/lastmile_qr_scan", "android": "https://dc.lft.to/lastmile_qr_scan"}, "is_reserved": 0}, {"lon": -77.039414, "bike_id": "613a344579d2ce0ff7d729ec1e66780b", "lat": 38.91566816666667, "fusion_lon": 0.0, "fusion_lat": 0.0, "type": "electric_scooter", "name": "613a344579d2ce0ff7d729ec1e66780b", "is_disabled": 0, "rental_uris": {"ios": "https://dc.lft.to/lastmile_qr_scan", "android": "https://dc.lft.to/lastmile_qr_scan"}, "is_reserved": 0}, {"lon": -77.02608783333334, "bike_id": "47a70340e538833afdc43f967e034b4f", "lat": 38.898305666666666, "fusion_lon": 0.0, "fusion_lat": 0.0, "type": "electric_scooter", "name": "47a70340e538833afdc43f967e034b4f", "is_disabled": 0, "rental_uris": {"ios": "https://dc.lft.to/lastmile_qr_scan", "android": "https://dc.lft.to/lastmile_qr_scan"}, "is_reserved": 0}, {"lon": -76.98019333333333, "bike_id": "45147f7c05ed1994570f8a5d1b7e2a24", "lat": 38.900747833333334, "fusion_lon": 0.0, "fusion_lat": 0.0, "type": "electric_scooter", "name": "45147f7c05ed1994570f8a5d1b7e2a24", "is_disabled": 0, "rental_uris": {"ios": "https://dc.lft.to/lastmile_qr_scan", "android": "https://dc.lft.to/lastmile_qr_scan"}, "is_reserved": 0}, {"lon": -77.02308416666666, "bike_id": "8657a20b51205394ed9cdd7f98ad960d", "lat": 38.92834633333333, "fusion_lon": 0.0, "fusion_lat": 0.0, "type": "electric_scooter", "name": "8657a20b51205394ed9cdd7f98ad960d", "is_disabled": 0, "rental_uris": {"ios": "https://dc.lft.to/lastmile_qr_scan", "android": "https://dc.lft.to/lastmile_qr_scan"}, "is_reserved": 0}, {"lon": -77.028065, "bike_id": "f81eea0fb41ae6c58a1352830e218ee2", "lat": 38.90236616666667, "fusion_lon": 0.0, "fusion_lat": 0.0, "type": "electric_scooter", "name": "f81eea0fb41ae6c58a1352830e218ee2", "is_disabled": 0, "rental_uris": {"ios": "https://dc.lft.to/lastmile_qr_scan", "android": "https://dc.lft.to/lastmile_qr_scan"}, "is_reserved": 0}, {"lon": -77.05124033333334, "bike_id": "d80f6dd793036ea5e440bc9ba4d6c513", "lat": 38.905268, "fusion_lon": 0.0, "fusion_lat": 0.0, "type": "electric_scooter", "name": "d80f6dd793036ea5e440bc9ba4d6c513", "is_disabled": 0, "rental_uris": {"ios": "https://dc.lft.to/lastmile_qr_scan", "android": "https://dc.lft.to/lastmile_qr_scan"}, "is_reserved": 0}, {"lon": -77.0215785, "bike_id": "a0e8dbdf7fcf3e46483eae75fd17496d", "lat": 38.930852333333334, "fusion_lon": 0.0, "fusion_lat": 0.0, "type": "electric_scooter", "name": "a0e8dbdf7fcf3e46483eae75fd17496d", "is_disabled": 0, "rental_uris": {"ios": "https://dc.lft.to/lastmile_qr_scan", "android": "https://dc.lft.to/lastmile_qr_scan"}, "is_reserved": 0}, {"lon": -77.01411366666666, "bike_id": "8c09ee57f08fd5dbae2f40073eb19c45", "lat": 38.92808766666667, "fusion_lon": 0.0, "fusion_lat": 0.0, "type": "electric_scooter", "name": "8c09ee57f08fd5dbae2f40073eb19c45", "is_disabled": 0, "rental_uris": {"ios": "https://dc.lft.to/lastmile_qr_scan", "android": "https://dc.lft.to/lastmile_qr_scan"}, "is_reserved": 0}, {"lon": -77.02007466666667, "bike_id": "e0aac923dfc938ad93eb85dc771f852e", "lat": 38.92419616666667, "fusion_lon": 0.0, "fusion_lat": 0.0, "type": "electric_scooter", "name": "e0aac923dfc938ad93eb85dc771f852e", "is_disabled": 0, "rental_uris": {"ios": "https://dc.lft.to/lastmile_qr_scan", "android": "https://dc.lft.to/lastmile_qr_scan"}, "is_reserved": 0}, {"lon": -77.03415566666666, "bike_id": "341dcc7a28c23a5f3b608e747ac86095", "lat": 38.91925633333334, "fusion_lon": 0.0, "fusion_lat": 0.0, "type": "electric_scooter", "name": "341dcc7a28c23a5f3b608e747ac86095", "is_disabled": 0, "rental_uris": {"ios": "https://dc.lft.to/lastmile_qr_scan", "android": "https://dc.lft.to/lastmile_qr_scan"}, "is_reserved": 0}, {"lon": -77.03170433333334, "bike_id": "9b726820e1e685cd46e478263af13475", "lat": 38.91119, "fusion_lon": 0.0, "fusion_lat": 0.0, "type": "electric_scooter", "name": "9b726820e1e685cd46e478263af13475", "is_disabled": 0, "rental_uris": {"ios": "https://dc.lft.to/lastmile_qr_scan", "android": "https://dc.lft.to/lastmile_qr_scan"}, "is_reserved": 0}, {"lon": -77.03286333333334, "bike_id": "e61f619b10695804f7f896097f09e9d6", "lat": 38.941688166666665, "fusion_lon": 0.0, "fusion_lat": 0.0, "type": "electric_scooter", "name": "e61f619b10695804f7f896097f09e9d6", "is_disabled": 0, "rental_uris": {"ios": "https://dc.lft.to/lastmile_qr_scan", "android": "https://dc.lft.to/lastmile_qr_scan"}, "is_reserved": 0}, {"lon": -76.977314, "bike_id": "55735fa859e8822b19711011741cb30a", "lat": 38.87287083333333, "fusion_lon": 0.0, "fusion_lat": 0.0, "type": "electric_scooter", "name": "55735fa859e8822b19711011741cb30a", "is_disabled": 0, "rental_uris": {"ios": "https://dc.lft.to/lastmile_qr_scan", "android": "https://dc.lft.to/lastmile_qr_scan"}, "is_reserved": 0}, {"lon": -77.03459666666667, "bike_id": "f281539cbbc9b3f114e70ffc04e5963b", "lat": 38.905637166666665, "fusion_lon": 0.0, "fusion_lat": 0.0, "type": "electric_scooter", "name": "f281539cbbc9b3f114e70ffc04e5963b", "is_disabled": 0, "rental_uris": {"ios": "https://dc.lft.to/lastmile_qr_scan", "android": "https://dc.lft.to/lastmile_qr_scan"}, "is_reserved": 0}, {"lon": -77.044352, "bike_id": "8aab91b67756f9bb9a5023393b2903e9", "lat": 38.92163766666667, "fusion_lon": 0.0, "fusion_lat": 0.0, "type": "electric_scooter", "name": "8aab91b67756f9bb9a5023393b2903e9", "is_disabled": 0, "rental_uris": {"ios": "https://dc.lft.to/lastmile_qr_scan", "android": "https://dc.lft.to/lastmile_qr_scan"}, "is_reserved": 0}, {"lon": -76.99057016666667, "bike_id": "b5236d0b4ef98901adda3e05d06ee6b9", "lat": 38.8635575, "fusion_lon": 0.0, "fusion_lat": 0.0, "type": "electric_scooter", "name": "b5236d0b4ef98901adda3e05d06ee6b9", "is_disabled": 0, "rental_uris": {"ios": "https://dc.lft.to/lastmile_qr_scan", "android": "https://dc.lft.to/lastmile_qr_scan"}, "is_reserved": 0}, {"lon": -77.0162365, "bike_id": "9ccaa6ba868134ffb2812f7929b5b422", "lat": 38.9012165, "fusion_lon": 0.0, "fusion_lat": 0.0, "type": "electric_scooter", "name": "9ccaa6ba868134ffb2812f7929b5b422", "is_disabled": 0, "rental_uris": {"ios": "https://dc.lft.to/lastmile_qr_scan", "android": "https://dc.lft.to/lastmile_qr_scan"}, "is_reserved": 0}, {"lon": -77.00485216666667, "bike_id": "e87c7592e7751f57392315392e190326", "lat": 38.874729333333335, "fusion_lon": 0.0, "fusion_lat": 0.0, "type": "electric_scooter", "name": "e87c7592e7751f57392315392e190326", "is_disabled": 0, "rental_uris": {"ios": "https://dc.lft.to/lastmile_qr_scan", "android": "https://dc.lft.to/lastmile_qr_scan"}, "is_reserved": 0}, {"lon": -76.95539, "bike_id": "df6ed00cea517079ad73d4b3ecd952d6", "lat": 38.88764966666667, "fusion_lon": 0.0, "fusion_lat": 0.0, "type": "electric_scooter", "name": "df6ed00cea517079ad73d4b3ecd952d6", "is_disabled": 0, "rental_uris": {"ios": "https://dc.lft.to/lastmile_qr_scan", "android": "https://dc.lft.to/lastmile_qr_scan"}, "is_reserved": 0}, {"lon": -76.9979965, "bike_id": "cdf4b692bbfe2d3f8a4c83ef6d6bf1c5", "lat": 38.956391333333336, "fusion_lon": 0.0, "fusion_lat": 0.0, "type": "electric_bike", "name": "cdf4b692bbfe2d3f8a4c83ef6d6bf1c5", "is_disabled": 0, "rental_uris": {"ios": "https://dc.lft.to/lastmile_qr_scan", "android": "https://dc.lft.to/lastmile_qr_scan"}, "is_reserved": 0}, {"lon": -77.00198416666667, "bike_id": "d6ad6a8370b3d54a1e09d89dae403f3d", "lat": 38.8946285, "fusion_lon": 0.0, "fusion_lat": 0.0, "type": "electric_scooter", "name": "d6ad6a8370b3d54a1e09d89dae403f3d", "is_disabled": 0, "rental_uris": {"ios": "https://dc.lft.to/lastmile_qr_scan", "android": "https://dc.lft.to/lastmile_qr_scan"}, "is_reserved": 0}, {"lon": -77.0346835, "bike_id": "0d3b6e049ef3f41fe9756ff24d863d24", "lat": 38.91869033333333, "fusion_lon": 0.0, "fusion_lat": 0.0, "type": "electric_scooter", "name": "0d3b6e049ef3f41fe9756ff24d863d24", "is_disabled": 0, "rental_uris": {"ios": "https://dc.lft.to/lastmile_qr_scan", "android": "https://dc.lft.to/lastmile_qr_scan"}, "is_reserved": 0}, {"lon": -77.02879366666667, "bike_id": "525c61df961e8f49dba611e707778085", "lat": 38.917018, "fusion_lon": 0.0, "fusion_lat": 0.0, "type": "electric_scooter", "name": "525c61df961e8f49dba611e707778085", "is_disabled": 0, "rental_uris": {"ios": "https://dc.lft.to/lastmile_qr_scan", "android": "https://dc.lft.to/lastmile_qr_scan"}, "is_reserved": 0}, {"lon": -77.00348883333334, "bike_id": "d06b75873c77084cd7b003d7387ec9c4", "lat": 38.886177833333335, "fusion_lon": 0.0, "fusion_lat": 0.0, "type": "electric_scooter", "name": "d06b75873c77084cd7b003d7387ec9c4", "is_disabled": 0, "rental_uris": {"ios": "https://dc.lft.to/lastmile_qr_scan", "android": "https://dc.lft.to/lastmile_qr_scan"}, "is_reserved": 0}, {"lon": -77.00674083333334, "bike_id": "dd3b95ea9bd6f371d968f6b9519cbdae", "lat": 38.9169375, "fusion_lon": 0.0, "fusion_lat": 0.0, "type": "electric_scooter", "name": "dd3b95ea9bd6f371d968f6b9519cbdae", "is_disabled": 0, "rental_uris": {"ios": "https://dc.lft.to/lastmile_qr_scan", "android": "https://dc.lft.to/lastmile_qr_scan"}, "is_reserved": 0}, {"lon": -76.99795333333333, "bike_id": "9d5c9380cc24844ff5439d83c616d99f", "lat": 38.921787, "fusion_lon": 0.0, "fusion_lat": 0.0, "type": "electric_scooter", "name": "9d5c9380cc24844ff5439d83c616d99f", "is_disabled": 0, "rental_uris": {"ios": "https://dc.lft.to/lastmile_qr_scan", "android": "https://dc.lft.to/lastmile_qr_scan"}, "is_reserved": 0}, {"lon": -77.045634, "bike_id": "36c1f473461e76ff09afa74148b472a0", "lat": 38.91466966666667, "fusion_lon": 0.0, "fusion_lat": 0.0, "type": "electric_scooter", "name": "36c1f473461e76ff09afa74148b472a0", "is_disabled": 0, "rental_uris": {"ios": "https://dc.lft.to/lastmile_qr_scan", "android": "https://dc.lft.to/lastmile_qr_scan"}, "is_reserved": 0}, {"lon": -77.04569033333334, "bike_id": "d1ed890af3b0ba4922bdbce458253bd7", "lat": 38.914648666666665, "fusion_lon": 0.0, "fusion_lat": 0.0, "type": "electric_scooter", "name": "d1ed890af3b0ba4922bdbce458253bd7", "is_disabled": 0, "rental_uris": {"ios": "https://dc.lft.to/lastmile_qr_scan", "android": "https://dc.lft.to/lastmile_qr_scan"}, "is_reserved": 0}, {"lon": -77.00597016666667, "bike_id": "4706086acb4979ae4adb6a7bda3c54be", "lat": 38.90921983333333, "fusion_lon": 0.0, "fusion_lat": 0.0, "type": "electric_scooter", "name": "4706086acb4979ae4adb6a7bda3c54be", "is_disabled": 0, "rental_uris": {"ios": "https://dc.lft.to/lastmile_qr_scan", "android": "https://dc.lft.to/lastmile_qr_scan"}, "is_reserved": 0}, {"lon": -77.04329016666667, "bike_id": "f7bb7be8a235c6268e6dfd129dfbc948", "lat": 38.89221083333333, "fusion_lon": 0.0, "fusion_lat": 0.0, "type": "electric_scooter", "name": "f7bb7be8a235c6268e6dfd129dfbc948", "is_disabled": 0, "rental_uris": {"ios": "https://dc.lft.to/lastmile_qr_scan", "android": "https://dc.lft.to/lastmile_qr_scan"}, "is_reserved": 0}, {"lon": -76.980936, "bike_id": "9f20d32d892211dc92b2e81c325b352b", "lat": 38.921103333333335, "fusion_lon": 0.0, "fusion_lat": 0.0, "type": "electric_bike", "name": "9f20d32d892211dc92b2e81c325b352b", "is_disabled": 0, "rental_uris": {"ios": "https://dc.lft.to/lastmile_qr_scan", "android": "https://dc.lft.to/lastmile_qr_scan"}, "is_reserved": 0}, {"lon": -77.02687033333333, "bike_id": "a3ab35a887ba248176b19a33797ed5ef", "lat": 38.897917666666665, "fusion_lon": 0.0, "fusion_lat": 0.0, "type": "electric_scooter", "name": "a3ab35a887ba248176b19a33797ed5ef", "is_disabled": 0, "rental_uris": {"ios": "https://dc.lft.to/lastmile_qr_scan", "android": "https://dc.lft.to/lastmile_qr_scan"}, "is_reserved": 0}, {"lon": -77.035481, "bike_id": "d7eabedf166db55110b35ebd99d0d5a2", "lat": 38.9182865, "fusion_lon": 0.0, "fusion_lat": 0.0, "type": "electric_scooter", "name": "d7eabedf166db55110b35ebd99d0d5a2", "is_disabled": 0, "rental_uris": {"ios": "https://dc.lft.to/lastmile_qr_scan", "android": "https://dc.lft.to/lastmile_qr_scan"}, "is_reserved": 0}, {"lon": -77.0382935, "bike_id": "b66ef196697bfdd726605fa137c16a7f", "lat": 38.911205333333335, "fusion_lon": 0.0, "fusion_lat": 0.0, "type": "electric_scooter", "name": "b66ef196697bfdd726605fa137c16a7f", "is_disabled": 0, "rental_uris": {"ios": "https://dc.lft.to/lastmile_qr_scan", "android": "https://dc.lft.to/lastmile_qr_scan"}, "is_reserved": 0}, {"lon": -77.0093055, "bike_id": "77f74cf2d600892409580cb62d414bda", "lat": 38.89602266666667, "fusion_lon": 0.0, "fusion_lat": 0.0, "type": "electric_scooter", "name": "77f74cf2d600892409580cb62d414bda", "is_disabled": 0, "rental_uris": {"ios": "https://dc.lft.to/lastmile_qr_scan", "android": "https://dc.lft.to/lastmile_qr_scan"}, "is_reserved": 0},