{"data": {"bikes": [{"is_reserved": 0, "type": "electric_scooter", "bike_id": "4b934ab08e6bf86e5b69ae68c3e0ddec", "lat": 38.9155295, "lon": -77.0310505, "rental_uris": {"android": "https://dc.lft.to/lastmile_qr_scan", "ios": "https://dc.lft.to/lastmile_qr_scan"}, "is_disabled": 0, "fusion_lat": 0.0, "name": "4b934ab08e6bf86e5b69ae68c3e0ddec", "fusion_lon": 0.0}, {"is_reserved": 0, "type": "electric_scooter", "bike_id": "7d2b5d28ce6fac4d1b3be33d378361b7", "lat": 38.93407533333333, "lon": -77.03992816666667, "rental_uris": {"android": "https://dc.lft.to/lastmile_qr_scan", "ios": "https://dc.lft.to/lastmile_qr_scan"}, "is_disabled": 0, "fusion_lat": 0.0, "name": "7d2b5d28ce6fac4d1b3be33d378361b7", "fusion_lon": 0.0}, {"is_reserved": 0, "type": "electric_scooter", "bike_id": "789b07e91df3e5308df51af89a59cfcd", "lat": 38.887286833333334, "lon": -76.98376566666667, "rental_uris": {"android": "https://dc.lft.to/lastmile_qr_scan", "ios": "https://dc.lft.to/lastmile_qr_scan"}, "is_disabled": 0, "fusion_lat": 0.0, "name": "789b07e91df3e5308df51af89a59cfcd", "fusion_lon": 0.0}, {"is_reserved": 0, "type": "electric_scooter", "bike_id": "d72db20d6ff82cf25d566fb1a667b75e", "lat": 38.898424, "lon": -77.02497983333333, "rental_uris": {"android": "https://dc.lft.to/lastmile_qr_scan", "ios": "https://dc.lft.to/lastmile_qr_scan"}, "is_disabled": 0, "fusion_lat": 0.0, "name": "d72db20d6ff82cf25d566fb1a667b75e", "fusion_lon": 0.0}, {"is_reserved": 0, "type": "electric_scooter", "bike_id": "d66f2c84f529ec9b983f843990796721", "lat": 38.91939983333333, "lon": -77.048004, "rental_uris": {"android": "https://dc.lft.to/lastmile_qr_scan", "ios": "https://dc.lft.to/lastmile_qr_scan"}, "is_disabled": 0, "fusion_lat": 0.0, "name": "d66f2c84f529ec9b983f843990796721", "fusion_lon": 0.0}, {"is_reserved": 0, "type": "electric_scooter", "bike_id": "64e1179a7019c618412749acecc51bca", "lat": 38.93086516666666, "lon": -77.02808566666667, "rental_uris": {"android": "https://dc.lft.to/lastmile_qr_scan", "ios": "https://dc.lft.to/lastmile_qr_scan"}, "is_disabled": 0, "fusion_lat": 0.0, "name": "64e1179a7019c618412749acecc51bca", "fusion_lon": 0.0}, {"is_reserved": 0, "type": "electric_scooter", "bike_id": "0022c11f0f8bf36466e583032c8af9c6", "lat": 38.92061133333333, "lon": -77.0319715, "rental_uris": {"android": "https://dc.lft.to/lastmile_qr_scan", "ios": "https://dc.lft.to/lastmile_qr_scan"}, "is_disabled": 0, "fusion_lat": 0.0, "name": "0022c11f0f8bf36466e583032c8af9c6", "fusion_lon": 0.0}, {"is_reserved": 0, "type": "electric_scooter", "bike_id": "6f00190b48d42d1eee42d29ad01e7afd", "lat": 38.90032816666667, "lon": -76.9883375, "rental_uris": {"android": "https://dc.lft.to/lastmile_qr_scan", "ios": "https://dc.lft.to/lastmile_qr_scan"}, "is_disabled": 0, "fusion_lat": 0.0, "name": "6f00190b48d42d1eee42d29ad01e7afd", "fusion_lon": 0.0}, {"is_reserved": 0, "type": "electric_bike", "bike_id": "dc86de5034c5efc02e5d5b811341e674", "lat": 38.89461933333333, "lon": -77.10364466666667, "rental_uris": {"android": "https://dc.lft.to/lastmile_qr_scan", "ios": "https://dc.lft.to/lastmile_qr_scan"}, "is_disabled": 0, "fusion_lat": 0.0, "name": "dc86de5034c5efc02e5d5b811341e674", "fusion_lon": 0.0}, {"is_reserved": 0, "type": "electric_scooter", "bike_id": "0748340d26a64c69ca59195e9ecbe488", "lat": 38.9350385, "lon": -77.042837, "rental_uris": {"android": "https://dc.lft.to/lastmile_qr_scan", "ios": "https://dc.lft.to/lastmile_qr_scan"}, "is_disabled": 0, "fusion_lat": 0.0, "name": "0748340d26a64c69ca59195e9ecbe488", "fusion_lon": 0.0}, {"is_reserved": 0, "type": "electric_scooter", "bike_id": "0fada477595186666e94d0e97ac99a23", "lat": 38.907955666666666, "lon": -77.00196383333333, "rental_uris": {"android": "https://dc.lft.to/lastmile_qr_scan", "ios": "https://dc.lft.to/lastmile_qr_scan"}, "is_disabled": 0, "fusion_lat": 0.0, "name": "0fada477595186666e94d0e97ac99a23", "fusion_lon": 0.0}, {"is_reserved": 0, "type": "electric_scooter", "bike_id": "151009bc7dad62f20684fd077d4b83f4", "lat": 38.908336166666665, "lon": -77.04363216666667, "rental_uris": {"android": "https://dc.lft.to/lastmile_qr_scan", "ios": "https://dc.lft.to/lastmile_qr_scan"}, "is_disabled": 0, "fusion_lat": 0.0, "name": "151009bc7dad62f20684fd077d4b83f4", "fusion_lon": 0.0}, {"is_reserved": 0, "type": "electric_scooter", "bike_id": "44f0d6cef71ceecdc3ba85290cc061c2", "lat": 38.9107665, "lon": -77.01617016666667, "rental_uris": {"android": "https://dc.lft.to/lastmile_qr_scan", "ios": "https://dc.lft.to/lastmile_qr_scan"}, "is_disabled": 0, "fusion_lat": 0.0, "name": "44f0d6cef71ceecdc3ba85290cc061c2", "fusion_lon": 0.0}, {"is_reserved": 0, "type": "electric_scooter", "bike_id": "c00f1e1869a7417bc63e565762dde48b", "lat": 38.904506166666664, "lon": -76.99618833333334, "rental_uris": {"android": "https://dc.lft.to/lastmile_qr_scan", "ios": "https://dc.lft.to/lastmile_qr_scan"}, "is_disabled": 0, "fusion_lat": 0.0, "name": "c00f1e1869a7417bc63e565762dde48b", "fusion_lon": 0.0}, {"is_reserved": 0, "type": "electric_scooter", "bike_id": "733ef2c362e761b1a0930342bbcf128a", "lat": 38.87717633333333, "lon": -77.01847466666666, "rental_uris": {"android": "https://dc.lft.to/lastmile_qr_scan", "ios": "https://dc.lft.to/lastmile_qr_scan"}, "is_disabled": 0, "fusion_lat": 0.0, "name": "733ef2c362e761b1a0930342bbcf128a", "fusion_lon": 0.0}, {"is_reserved": 0, "type": "electric_scooter", "bike_id": "53df46da430f9423ce1f5d91be2f9fc8", "lat": 38.874942833333336, "lon": -77.00028366666666, "rental_uris": {"android": "https://dc.lft.to/lastmile_qr_scan", "ios": "https://dc.lft.to/lastmile_qr_scan"}, "is_disabled": 0, "fusion_lat": 0.0, "name": "53df46da430f9423ce1f5d91be2f9fc8", "fusion_lon": 0.0}, {"is_reserved": 0, "type": "electric_scooter", "bike_id": "399961e7f4b83653ddf96a5f6a059628", "lat": 38.856518, "lon": -76.99673983333334, "rental_uris": {"android": "https://dc.lft.to/lastmile_qr_scan", "ios": "https://dc.lft.to/lastmile_qr_scan"}, "is_disabled": 0, "fusion_lat": 0.0, "name": "399961e7f4b83653ddf96a5f6a059628", "fusion_lon": 0.0}, {"is_reserved": 0, "type": "electric_scooter", "bike_id": "694b2707e7616fff8c2618bd69cdede1", "lat": 38.9128465, "lon": -77.07275216666666, "rental_uris": {"android": "https://dc.lft.to/lastmile_qr_scan", "ios": "https://dc.lft.to/lastmile_qr_scan"}, "is_disabled": 0, "fusion_lat": 0.0, "name": "694b2707e7616fff8c2618bd69cdede1", "fusion_lon": 0.0}, {"is_reserved": 0, "type": "electric_scooter", "bike_id": "f5e97b3533c75e80eb28f0fc30be64d3", "lat": 38.8967985, "lon": -77.012119, "rental_uris": {"android": "https://dc.lft.to/lastmile_qr_scan", "ios": "https://dc.lft.to/lastmile_qr_scan"}, "is_disabled": 0, "fusion_lat": 0.0, "name": "f5e97b3533c75e80eb28f0fc30be64d3", "fusion_lon": 0.0}, {"is_reserved": 0, "type": "electric_scooter", "bike_id": "bc926d69ef8fc6e4c069171871eef599", "lat": 38.90382983333333, "lon": -77.0313755, "rental_uris": {"android": "https://dc.lft.to/lastmile_qr_scan", "ios": "https://dc.lft.to/lastmile_qr_scan"}, "is_disabled": 0, "fusion_lat": 0.0, "name": "bc926d69ef8fc6e4c069171871eef599", "fusion_lon": 0.0}, {"is_reserved": 0, "type": "electric_scooter", "bike_id": "34ffbb6ef045bcd5a21b0a0590381b96", "lat": 38.908316166666665, "lon": -77.03478316666667, "rental_uris": {"android": "https://dc.lft.to/lastmile_qr_scan", "ios": "https://dc.lft.to/lastmile_qr_scan"}, "is_disabled": 0, "fusion_lat": 0.0, "name": "34ffbb6ef045bcd5a21b0a0590381b96", "fusion_lon": 0.0}, {"is_reserved": 0, "type": "electric_bike", "bike_id": "1c940222fab139e5e1c9c51be81c6a98", "lat": 38.92028766666667, "lon": -76.99572483333333, "rental_uris": {"android": "https://dc.lft.to/lastmile_qr_scan", "ios": "https://dc.lft.to/lastmile_qr_scan"}, "is_disabled": 0, "fusion_lat": 0.0, "name": "1c940222fab139e5e1c9c51be81c6a98", "fusion_lon": 0.0}, {"is_reserved": 0, "type": "electric_scooter", "bike_id": "6cc55dc344561adf6b2b9d33a20314b2", "lat": 38.917985333333334, "lon": -77.02710333333333, "rental_uris": {"android": "https://dc.lft.to/lastmile_qr_scan", "ios": "https://dc.lft.to/lastmile_qr_scan"}, "is_disabled": 0, "fusion_lat": 0.0, "name": "6cc55dc344561adf6b2b9d33a20314b2", "fusion_lon": 0.0}, {"is_reserved": 0, "type": "electric_scooter", "bike_id": "3ed67f38483d4fd07edc149c36c061ab", "lat": 38.925524833333334, "lon": -76.999549, "rental_uris": {"android": "https://dc.lft.to/lastmile_qr_scan", "ios": "https://dc.lft.to/lastmile_qr_scan"}, "is_disabled": 0, "fusion_lat": 0.0, "name": "3ed67f38483d4fd07edc149c36c061ab", "fusion_lon": 0.0}, {"is_reserved": 0, "type": "electric_scooter", "bike_id": "4e5c7e1ec522ce04c02a46f070f7be58", "lat": 38.89829, "lon": -77.02864316666667, "rental_uris": {"android": "https://dc.lft.to/lastmile_qr_scan", "ios": "https://dc.lft.to/lastmile_qr_scan"}, "is_disabled": 0, "fusion_lat": 0.0, "name": "4e5c7e1ec522ce04c02a46f070f7be58", "fusion_lon": 0.0}, {"is_reserved": 0, "type": "electric_scooter", "bike_id": "22c984454524e0f7ec8c2fb44374d2d0", "lat": 38.9195445, "lon": -77.04454333333334, "rental_uris": {"android": "https://dc.lft.to/lastmile_qr_scan", "ios": "https://dc.lft.to/lastmile_qr_scan"}, "is_disabled": 0, "fusion_lat": 0.0, "name": "22c984454524e0f7ec8c2fb44374d2d0", "fusion_lon": 0.0}, {"is_reserved": 0, "type": "electric_scooter", "bike_id": "ddfe576f2b22e1895f51eb9745fa2985", "lat": 38.8918725, "lon": -77.01589833333334, "rental_uris": {"android": "https://dc.lft.to/lastmile_qr_scan", "ios": "https://dc.lft.to/lastmile_qr_scan"}, "is_disabled": 0, "fusion_lat": 0.0, "name": "ddfe576f2b22e1895f51eb9745fa2985", "fusion_lon": 0.0}, {"is_reserved": 0, "type": "electric_scooter", "bike_id": "2dc423927d47d0137bb1c3bcf5343e04", "lat": 38.914973833333335, "lon": -77.012225, "rental_uris": {"android": "https://dc.lft.to/lastmile_qr_scan", "ios": "https://dc.lft.to/lastmile_qr_scan"}, "is_disabled": 0, "fusion_lat": 0.0, "name": "2dc423927d47d0137bb1c3bcf5343e04", "fusion_lon": 0.0}, {"is_reserved": 0, "type": "electric_scooter", "bike_id": "9d4a7e0a81fa43ba3a402ddb289e9314", "lat": 38.899075333333336, "lon": -77.003652, "rental_uris": {"android": "https://dc.lft.to/lastmile_qr_scan", "ios": "https://dc.lft.to/lastmile_qr_scan"}, "is_disabled": 0, "fusion_lat": 0.0, "name": "9d4a7e0a81fa43ba3a402ddb289e9314", "fusion_lon": 0.0}, {"is_reserved": 0, "type": "electric_scooter", "bike_id": "b033b323a3f9e039b5d793afcca0a533", "lat": 38.92626216666667, "lon": -77.077079, "rental_uris": {"android": "https://dc.lft.to/lastmile_qr_scan", "ios": "https://dc.lft.to/lastmile_qr_scan"}, "is_disabled": 0, "fusion_lat": 0.0, "name": "b033b323a3f9e039b5d793afcca0a533", "fusion_lon": 0.0}, {"is_reserved": 0, "type": "electric_scooter", "bike_id": "2209c9cbc44550b8db8ae27bfaa15bae", "lat": 38.913301, "lon": -77.04799066666666, "rental_uris": {"android": "https://dc.lft.to/lastmile_qr_scan", "ios": "https://dc.lft.to/lastmile_qr_scan"}, "is_disabled": 0, "fusion_lat": 0.0, "name": "2209c9cbc44550b8db8ae27bfaa15bae", "fusion_lon": 0.0}, {"is_reserved": 0, "type": "electric_scooter", "bike_id": "84b4eb11ed1117467d3aaa29b62d51e4", "lat": 38.92357966666667, "lon": -76.990857, "rental_uris": {"android": "https://dc.lft.to/lastmile_qr_scan", "ios": "https://dc.lft.to/lastmile_qr_scan"}, "is_disabled": 0, "fusion_lat": 0.0, "name": "84b4eb11ed1117467d3aaa29b62d51e4", "fusion_lon": 0.0}, {"is_reserved": 0, "type": "electric_scooter", "bike_id": "8c639d55532d110a9008fbabd080e101", "lat": 38.89106016666667, "lon": -76.99309083333333, "rental_uris": {"android": "https://dc.lft.to/lastmile_qr_scan", "ios": "https://dc.lft.to/lastmile_qr_scan"}, "is_disabled": 0, "fusion_lat": 0.0, "name": "8c639d55532d110a9008fbabd080e101", "fusion_lon": 0.0}, {"is_reserved": 0, "type": "electric_scooter", "bike_id": "1b871debbc68d47f817e60ffe1ce1a05", "lat": 38.92074566666667, "lon": -77.02389733333334, "rental_uris": {"android": "https://dc.lft.to/lastmile_qr_scan", "ios": "https://dc.lft.to/lastmile_qr_scan"}, "is_disabled": 0, "fusion_lat": 0.0, "name": "1b871debbc68d47f817e60ffe1ce1a05", "fusion_lon": 0.0}, {"is_reserved": 0, "type": "electric_scooter", "bike_id": "e9205eebc6a45bf95057af53018701d7", "lat": 38.90239483333333, "lon": -77.053251, "rental_uris": {"android": "https://dc.lft.to/lastmile_qr_scan", "ios": "https://dc.lft.to/lastmile_qr_scan"}, "is_disabled": 0, "fusion_lat": 0.0, "name": "e9205eebc6a45bf95057af53018701d7", "fusion_lon": 0.0}, {"is_reserved": 0, "type": "electric_scooter", "bike_id": "1749d4da0d9ef9038e81ec5ecd6d82b3", "lat": 38.918071, "lon": -77.04030333333333, "rental_uris": {"android": "https://dc.lft.to/lastmile_qr_scan", "ios": "https://dc.lft.to/lastmile_qr_scan"}, "is_disabled": 0, "fusion_lat": 0.0, "name": "1749d4da0d9ef9038e81ec5ecd6d82b3", "fusion_lon": 0.0}, {"is_reserved": 0, "type": "electric_scooter", "bike_id": "dd46cec1631d87f386c6e1a6a56d7be1", "lat": 38.922711666666665, "lon": -77.03635233333334, "rental_uris": {"android": "https://dc.lft.to/lastmile_qr_scan", "ios": "https://dc.lft.to/lastmile_qr_scan"}, "is_disabled": 0, "fusion_lat": 0.0, "name": "dd46cec1631d87f386c6e1a6a56d7be1", "fusion_lon": 0.0}, {"is_reserved": 0, "type": "electric_bike", "bike_id": "2c8ec3e5350c06162976c844f71d5485", "lat": 38.8878855, "lon": -76.92342483333333, "rental_uris": {"android": "https://dc.lft.to/lastmile_qr_scan", "ios": "https://dc.lft.to/lastmile_qr_scan"}, "is_disabled": 0, "fusion_lat": 0.0, "name": "2c8ec3e5350c06162976c844f71d5485", "fusion_lon": 0.0}, {"is_reserved": 0, "type": "electric_scooter", "bike_id": "076aa4876b32006c7def08a55370d214", "lat": 38.924336333333336, "lon": -77.02113966666667, "rental_uris": {"android": "https://dc.lft.to/lastmile_qr_scan", "ios": "https://dc.lft.to/lastmile_qr_scan"}, "is_disabled": 0, "fusion_lat": 0.0, "name": "076aa4876b32006c7def08a55370d214", "fusion_lon": 0.0}, {"is_reserved": 0, "type": "electric_scooter", "bike_id": "da665091016279b812be3bbfd7c19f1e", "lat": 38.916239166666664, "lon": -77.00201266666667, "rental_uris": {"android": "https://dc.lft.to/lastmile_qr_scan", "ios": "https://dc.lft.to/lastmile_qr_scan"}, "is_disabled": 0, "fusion_lat": 0.0, "name": "da665091016279b812be3bbfd7c19f1e", "fusion_lon": 0.0}, {"is_reserved": 0, "type": "electric_scooter", "bike_id": "56cdad4c5c15e15c88df87b15cd7a584", "lat": 38.892228833333334, "lon": -77.03300166666666, "rental_uris": {"android": "https://dc.lft.to/lastmile_qr_scan", "ios": "https://dc.lft.to/lastmile_qr_scan"}, "is_disabled": 0, "fusion_lat": 0.0, "name": "56cdad4c5c15e15c88df87b15cd7a584", "fusion_lon": 0.0}, {"is_reserved": 0, "type": "electric_scooter", "bike_id": "6f0eccd0e094699adfd492723304a041", "lat": 38.90389833333333, "lon": -77.05388833333333, "rental_uris": {"android": "https://dc.lft.to/lastmile_qr_scan", "ios": "https://dc.lft.to/lastmile_qr_scan"}, "is_disabled": 0, "fusion_lat": 0.0, "name": "6f0eccd0e094699adfd492723304a041", "fusion_lon": 0.0}, {"is_reserved": 0, "type": "electric_scooter", "bike_id": "ee76c694d9a137ae986712ff86f990ec", "lat": 38.88325533333333, "lon": -77.00956566666666, "rental_uris": {"android": "https://dc.lft.to/lastmile_qr_scan", "ios": "https://dc.lft.to/lastmile_qr_scan"}, "is_disabled": 0, "fusion_lat": 0.0, "name": "ee76c694d9a137ae986712ff86f990ec", "fusion_lon": 0.0}, {"is_reserved": 0, "type": "electric_scooter", "bike_id": "6fa7c3f7e5e92bacc8fcc83d5007dee0", "lat": 38.9139225, "lon": -77.01982283333334, "rental_uris": {"android": "https://dc.lft.to/lastmile_qr_scan", "ios": "https://dc.lft.to/lastmile_qr_scan"}, "is_disabled": 0, "fusion_lat": 0.0, "name": "6fa7c3f7e5e92bacc8fcc83d5007dee0", "fusion_lon": 0.0}, {"is_reserved": 0, "type": "electric_bike", "bike_id": "38f77253234db5ca51be0641f3c15d39", "lat": 38.784074833333335, "lon": -77.12060883333334, "rental_uris": {"android": "https://dc.lft.to/lastmile_qr_scan", "ios": "https://dc.lft.to/lastmile_qr_scan"}, "is_disabled": 0, "fusion_lat": 0.0, "name": "38f77253234db5ca51be0641f3c15d39", "fusion_lon": 0.0}, {"is_reserved": 0, "type": "electric_scooter", "bike_id": "d8c0a5cb5cfd3a6d91971c2addd4b798", "lat": 38.9189395, "lon": -77.03455983333333, "rental_uris": {"android": "https://dc.lft.to/lastmile_qr_scan", "ios": "https://dc.lft.to/lastmile_qr_scan"}, "is_disabled": 0, "fusion_lat": 0.0, "name": "d8c0a5cb5cfd3a6d91971c2addd4b798", "fusion_lon": 0.0}, {"is_reserved": 0, "type": "electric_scooter", "bike_id": "40af36c2912bfc48deb5900a7fddd155", "lat": 38.92233566666667, "lon": -77.02331583333333, "rental_uris": {"android": "https://dc.lft.to/lastmile_qr_scan", "ios": "https://dc.lft.to/lastmile_qr_scan"}, "is_disabled": 0, "fusion_lat": 0.0, "name": "40af36c2912bfc48deb5900a7fddd155", "fusion_lon": 0.0}, {"is_reserved": 0, "type": "electric_scooter", "bike_id": "fb7c72a96c932458949f30d1b53a6085", "lat": 38.92486266666667, "lon": -77.02273183333334, "rental_uris": {"android": "https://dc.lft.to/lastmile_qr_scan", "ios": "https://dc.lft.to/lastmile_qr_scan"}, "is_disabled": 0, "fusion_lat": 0.0, "name": "fb7c72a96c932458949f30d1b53a6085", "fusion_lon": 0.0}, {"is_reserved": 0, "type": "electric_scooter", "bike_id": "b9b251f219aa27e61b018921d92b01b0", "lat": 38.913142, "lon": -77.0363855, "rental_uris": {"android": "https://dc.lft.to/lastmile_qr_scan", "ios": "https://dc.lft.to/lastmile_qr_scan"}, "is_disabled": 0, "fusion_lat": 0.0, "name": "b9b251f219aa27e61b018921d92b01b0", "fusion_lon": 0.0}, {"is_reserved": 0, "type": "electric_scooter", "bike_id": "1eeefd0340bf9be4f3b1d776b91e6ca5", "lat": 38.9209895, "lon": -77.0317985, "rental_uris": {"android": "https://dc.lft.to/lastmile_qr_scan", "ios": "https://dc.lft.to/lastmile_qr_scan"}, "is_disabled": 0, "fusion_lat": 0.0, "name": "1eeefd0340bf9be4f3b1d776b91e6ca5", "fusion_lon": 0.0}, {"is_reserved": 0, "type": "electric_scooter", "bike_id": "13a34fa4ac4b2b40f23a99e570e68b7f", "lat": 38.903801333333334, "lon": -77.0314135, "rental_uris": {"android": "https://dc.lft.to/lastmile_qr_scan", "ios": "https://dc.lft.to/lastmile_qr_scan"}, "is_disabled": 0, "fusion_lat": 0.0, "name": "13a34fa4ac4b2b40f23a99e570e68b7f", "fusion_lon": 0.0}, {"is_reserved": 0, "type": "electric_scooter", "bike_id": "54cc8b0a49117a2865063e458bf211f1", "lat": 38.899436333333334, "lon": -76.9819835, "rental_uris": {"android": "https://dc.lft.to/lastmile_qr_scan", "ios": "https://dc.lft.to/lastmile_qr_scan"}, "is_disabled": 0, "fusion_lat": 0.0, "name": "54cc8b0a49117a2865063e458bf211f1", "fusion_lon": 0.0}, {"is_reserved": 0, "type": "electric_scooter", "bike_id": "694dcd67bffebc80b6731c48b390378a", "lat": 38.8955415, "lon": -77.01116633333334, "rental_uris": {"android": "https://dc.lft.to/lastmile_qr_scan", "ios": "https://dc.lft.to/lastmile_qr_scan"}, "is_disabled": 0, "fusion_lat": 0.0, "name": "694dcd67bffebc80b6731c48b390378a", "fusion_lon": 0.0}, {"is_reserved": 0, "type": "electric_scooter", "bike_id": "32c635d293dedd02ab69da033c1c896a", "lat": 38.921414166666665, "lon": -77.04701616666667, "rental_uris": {"android": "https://dc.lft.to/lastmile_qr_scan", "ios": "https://dc.lft.to/lastmile_qr_scan"}, "is_disabled": 0, "fusion_lat": 0.0, "name": "32c635d293dedd02ab69da033c1c896a", "fusion_lon": 0.0}, {"is_reserved": 0, "type": "electric_scooter", "bike_id": "6fbded1e497b86ae7f75beef0d68b3f5", "lat": 38.89975966666667, "lon": -77.05085733333334, "rental_uris": {"android": "https://dc.lft.to/lastmile_qr_scan", "ios": "https://dc.lft.to/lastmile_qr_scan"}, "is_disabled": 0, "fusion_lat": 0.0, "name": "6fbded1e497b86ae7f75beef0d68b3f5", "fusion_lon": 0.0}, {"is_reserved": 0, "type": "electric_scooter", "bike_id": "aef8eb66262df139c6d98d1e311ef44b", "lat": 38.9333015, "lon": -77.08197833333334, "rental_uris": {"android": "https://dc.lft.to/lastmile_qr_scan", "ios": "https://dc.lft.to/lastmile_qr_scan"}, "is_disabled": 0, "fusion_lat": 0.0, "name": "aef8eb66262df139c6d98d1e311ef44b", "fusion_lon": 0.0}, {"is_reserved": 0, "type": "electric_scooter", "bike_id": "bed81445a5aef9027bb6717bc34afa95", "lat": 38.90670433333333, "lon": -77.02713433333334, "rental_uris": {"android": "https://dc.lft.to/lastmile_qr_scan", "ios": "https://dc.lft.to/lastmile_qr_scan"}, "is_disabled": 0, "fusion_lat": 0.0, "name": "bed81445a5aef9027bb6717bc34afa95", "fusion_lon": 0.0}, {"is_reserved": 0, "type": "electric_scooter", "bike_id": "cccfcefce23aef19afdc4d16acfcc18a", "lat": 38.904048, "lon": -77.02501416666667, "rental_uris": {"android": "https://dc.lft.to/lastmile_qr_scan", "ios": "https://dc.lft.to/lastmile_qr_scan"}, "is_disabled": 0, "fusion_lat": 0.0, "name": "cccfcefce23aef19afdc4d16acfcc18a", "fusion_lon": 0.0}, {"is_reserved": 0, "type": "electric_scooter", "bike_id": "40fa5e530f79c38fdb38557158f5269a", "lat": 38.94199016666666, "lon": -77.02515266666667, "rental_uris": {"android": "https://dc.lft.to/lastmile_qr_scan", "ios": "https://dc.lft.to/lastmile_qr_scan"}, "is_disabled": 0, "fusion_lat": 0.0, "name": "40fa5e530f79c38fdb38557158f5269a", "fusion_lon": 0.0}, {"is_reserved": 0, "type": "electric_scooter", "bike_id": "c87d724486577732a66613ee8034163c", "lat": 38.919997, "lon": -76.98505883333333, "rental_uris": {"android": "https://dc.lft.to/lastmile_qr_scan", "ios": "https://dc.lft.to/lastmile_qr_scan"}, "is_disabled": 0, "fusion_lat": 0.0, "name": "c87d724486577732a66613ee8034163c", "fusion_lon": 0.0}, {"is_reserved": 0, "type": "electric_scooter", "bike_id": "8240b0b3997978b3ea7da6a01686b06d", "lat": 38.930983, "lon": -77.0247705, "rental_uris": {"android": "https://dc.lft.to/lastmile_qr_scan", "ios": "https://dc.lft.to/lastmile_qr_scan"}, "is_disabled": 0, "fusion_lat": 0.0, "name": "8240b0b3997978b3ea7da6a01686b06d", "fusion_lon": 0.0}, {"is_reserved": 0, "type": "electric_scooter", "bike_id": "249581e87c1c2c8d4a4f3444330fdb54", "lat": 38.91575266666667, "lon": -77.019985, "rental_uris": {"android": "https://dc.lft.to/lastmile_qr_scan", "ios": "https://dc.lft.to/lastmile_qr_scan"}, "is_disabled": 0, "fusion_lat": 0.0, "name": "249581e87c1c2c8d4a4f3444330fdb54", "fusion_lon": 0.0}, {"is_reserved": 0, "type": "electric_scooter", "bike_id": "5fa6936f4e2860605ef88574d582cad7", "lat": 38.92609133333333, "lon": -77.05182, "rental_uris": {"android": "https://dc.lft.to/lastmile_qr_scan", "ios": "https://dc.lft.to/lastmile_qr_scan"}, "is_disabled": 0, "fusion_lat": 0.0, "name": "5fa6936f4e2860605ef88574d582cad7", "fusion_lon": 0.0}, {"is_reserved": 0, "type": "electric_scooter", "bike_id": "baf4090479894ad7bf4878377e80c3d4", "lat": 38.918188, "lon": -77.03166666666667, "rental_uris": {"android": "https://dc.lft.to/lastmile_qr_scan", "ios": "https://dc.lft.to/lastmile_qr_scan"}, "is_disabled": 0, "fusion_lat": 0.0, "name": "baf4090479894ad7bf4878377e80c3d4", "fusion_lon": 0.0}, {"is_reserved": 0, "type": "electric_scooter", "bike_id": "a2ae33cab5daaa20edd8487f139a5ad1", "lat": 38.908305666666664, "lon": -76.9871815, "rental_uris": {"android": "https://dc.lft.to/lastmile_qr_scan", "ios": "https://dc.lft.to/lastmile_qr_scan"}, "is_disabled": 0, "fusion_lat": 0.0, "name": "a2ae33cab5daaa20edd8487f139a5ad1", "fusion_lon": 0.0}, {"is_reserved": 0, "type": "electric_scooter", "bike_id": "8b068b8d21fe4906ede9a4ca4d8b3b10", "lat": 38.88511866666666, "lon": -77.01114116666666, "rental_uris": {"android": "https://dc.lft.to/lastmile_qr_scan", "ios": "https://dc.lft.to/lastmile_qr_scan"}, "is_disabled": 0, "fusion_lat": 0.0, "name": "8b068b8d21fe4906ede9a4ca4d8b3b10", "fusion_lon": 0.0}, {"is_reserved": 0, "type": "electric_scooter", "bike_id": "35a8398310cdcc99efcc390bd114ac93", "lat": 38.886279333333334, "lon": -77.0153805, "rental_uris": {"android": "https://dc.lft.to/lastmile_qr_scan", "ios": "https://dc.lft.to/lastmile_qr_scan"}, "is_disabled": 0, "fusion_lat": 0.0, "name": "35a8398310cdcc99efcc390bd114ac93", "fusion_lon": 0.0}, {"is_reserved": 0, "type": "electric_scooter", "bike_id": "173e752f342bc7528655e44b4cb964d9", "lat": 38.905805666666666, "lon": -77.00597883333333, "rental_uris": {"android": "https://dc.lft.to/lastmile_qr_scan", "ios": "https://dc.lft.to/lastmile_qr_scan"}, "is_disabled": 0, "fusion_lat": 0.0, "name": "173e752f342bc7528655e44b4cb964d9", "fusion_lon": 0.0}, {"is_reserved": 0, "type": "electric_scooter", "bike_id": "1ea33918d402991d5c556836cc21a016", "lat": 38.886048333333335, "lon": -77.00396516666666, "rental_uris": {"android": "https://dc.lft.to/lastmile_qr_scan", "ios": "https://dc.lft.to/lastmile_qr_scan"}, "is_disabled": 0, "fusion_lat": 0.0, "name": "1ea33918d402991d5c556836cc21a016", "fusion_lon": 0.0}, {"is_reserved": 0, "type": "electric_bike", "bike_id": "abe5dbc532d5ff9922e0074dccedaa39", "lat": 38.991034, "lon": -76.88152566666666, "rental_uris": {"android": "https://dc.lft.to/lastmile_qr_scan", "ios": "https://dc.lft.to/lastmile_qr_scan"}, "is_disabled": 0, "fusion_lat": 0.0, "name": "abe5dbc532d5ff9922e0074dccedaa39", "fusion_lon": 0.0}, {"is_reserved": 0, "type": "electric_scooter", "bike_id": "dbb152a478cefc4f9c468051b14547d2", "lat": 38.9241145, "lon": -77.0355255, "rental_uris": {"android": "https://dc.lft.to/lastmile_qr_scan", "ios": "https://dc.lft.to/lastmile_qr_scan"}, "is_disabled": 0, "fusion_lat": 0.0, "name": "dbb152a478cefc4f9c468051b14547d2", "fusion_lon": 0.0}, {"is_reserved": 0, "type": "electric_bike", "bike_id": "8cf9294bae4f40c442f371581ee67826", "lat": 38.843311666666665, "lon": -76.99739983333333, "rental_uris": {"android": "https://dc.lft.to/lastmile_qr_scan", "ios": "https://dc.lft.to/lastmile_qr_scan"}, "is_disabled": 0, "fusion_lat": 0.0, "name": "8cf9294bae4f40c442f371581ee67826", "fusion_lon": 0.0}, {"is_reserved": 0, "type": "electric_scooter", "bike_id": "1140d5a6a5f813c9c15f463ffd50df05", "lat": 38.93066, "lon": -77.0296905, "rental_uris": {"android": "https://dc.lft.to/lastmile_qr_scan", "ios": "https://dc.lft.to/lastmile_qr_scan"}, "is_disabled": 0, "fusion_lat": 0.0, "name": "1140d5a6a5f813c9c15f463ffd50df05", "fusion_lon": 0.0}, {"is_reserved": 0, "type": "electric_scooter", "bike_id": "02b45b6484fc07ba6268515e0e235eb3", "lat": 38.920271, "lon": -77.018771, "rental_uris": {"android": "https://dc.lft.to/lastmile_qr_scan", "ios": "https://dc.lft.to/lastmile_qr_scan"}, "is_disabled": 0, "fusion_lat": 0.0, "name": "02b45b6484fc07ba6268515e0e235eb3", "fusion_lon": 0.0}, {"is_reserved": 0, "type": "electric_scooter", "bike_id": "a4bb6c0747a4971cdf3ad131161ad3ea", "lat": 38.9273415, "lon": -77.05250716666667, "rental_uris": {"android": "https://dc.lft.to/lastmile_qr_scan", "ios": "https://dc.lft.to/lastmile_qr_scan"}, "is_disabled": 0, "fusion_lat": 0.0, "name": "a4bb6c0747a4971cdf3ad131161ad3ea", "fusion_lon": 0.0}, {"is_reserved": 0, "type": "electric_scooter", "bike_id": "98a362fd76efcf397547cef21488ba41", "lat": 38.94520033333333, "lon": -77.029798, "rental_uris": {"android": "https://dc.lft.to/lastmile_qr_scan", "ios": "https://dc.lft.to/lastmile_qr_scan"}, "is_disabled": 0, "fusion_lat": 0.0, "name": "98a362fd76efcf397547cef21488ba41", "fusion_lon": 0.0}, {"is_reserved": 0, "type": "electric_scooter", "bike_id": "1d6b936bdbbc98205ee79abd7fb1fb7b", "lat": 38.9077325, "lon": -76.99996166666666, "rental_uris": {"android": "https://dc.lft.to/lastmile_qr_scan", "ios": "https://dc.lft.to/lastmile_qr_scan"}, "is_disabled": 0, "fusion_lat": 0.0, "name": "1d6b936bdbbc98205ee79abd7fb1fb7b", "fusion_lon": 0.0}, {"is_reserved": 0, "type": "electric_scooter", "bike_id": "abcc4661f84d229690e1f886c5b1f2d1", "lat": 38.92290966666667, "lon": -77.03656316666667, "rental_uris": {"android": "https://dc.lft.to/lastmile_qr_scan", "ios": "https://dc.lft.to/lastmile_qr_scan"}, "is_disabled": 0, "fusion_lat": 0.0, "name": "abcc4661f84d229690e1f886c5b1f2d1", "fusion_lon": 0.0}, {"is_reserved": 0, "type": "electric_scooter", "bike_id": "152b700ca1950563af241d40951fba78", "lat": 38.9497985, "lon": -77.0201645, "rental_uris": {"android": "https://dc.lft.to/lastmile_qr_scan", "ios": "https://dc.lft.to/lastmile_qr_scan"}, "is_disabled": 0, "fusion_lat": 0.0, "name": "152b700ca1950563af241d40951fba78", "fusion_lon": 0.0}, {"is_reserved": 0, "type": "electric_scooter", "bike_id": "fd75625af64af7afd4bb9b729431c26a", "lat": 38.892306, "lon": -77.0490215, "rental_uris": {"android": "https://dc.lft.to/lastmile_qr_scan", "ios": "https://dc.lft.to/lastmile_qr_scan"}, "is_disabled": 0, "fusion_lat": 0.0, "name": "fd75625af64af7afd4bb9b729431c26a", "fusion_lon": 0.0}, {"is_reserved": 0, "type": "electric_scooter", "bike_id": "17b23452031fcb2a9a95898e202ed8b0", "lat": 38.922023, "lon": -77.04249833333333, "rental_uris": {"android": "https://dc.lft.to/lastmile_qr_scan", "ios": "https://dc.lft.to/lastmile_qr_scan"}, "is_disabled": 0, "fusion_lat": 0.0, "name": "17b23452031fcb2a9a95898e202ed8b0", "fusion_lon": 0.0}, {"is_reserved": 0, "type": "electric_scooter", "bike_id": "250a0c9ab3d130dddb1d9ff3793de832", "lat": 38.892305666666665, "lon": -77.04898, "rental_uris": {"android": "https://dc.lft.to/lastmile_qr_scan", "ios": "https://dc.lft.to/lastmile_qr_scan"}, "is_disabled": 0, "fusion_lat": 0.0, "name": "250a0c9ab3d130dddb1d9ff3793de832", "fusion_lon": 0.0}, {"is_reserved": 0, "type": "electric_scooter", "bike_id": "8c81eaa38d24e4b7fb9904363b9a082a", "lat": 38.92048116666667, "lon": -77.017216, "rental_uris": {"android": "https://dc.lft.to/lastmile_qr_scan", "ios": "https://dc.lft.to/lastmile_qr_scan"}, "is_disabled": 0, "fusion_lat": 0.0, "name": "8c81eaa38d24e4b7fb9904363b9a082a", "fusion_lon": 0.0}, {"is_reserved": 0, "type": "electric_scooter", "bike_id": "33078d9efd042c72b60a2ff41e6bb602", "lat": 38.921691, "lon": -77.04224733333334, "rental_uris": {"android": "https://dc.lft.to/lastmile_qr_scan", "ios": "https://dc.lft.to/lastmile_qr_scan"}, "is_disabled": 0, "fusion_lat": 0.0, "name": "33078d9efd042c72b60a2ff41e6bb602", "fusion_lon": 0.0}, {"is_reserved": 0, "type": "electric_scooter", "bike_id": "8bba42db4015cb9457ab7240b7daecfd", "lat": 38.9056495, "lon": -76.98141783333334, "rental_uris": {"android": "https://dc.lft.to/lastmile_qr_scan", "ios": "https://dc.lft.to/lastmile_qr_scan"}, "is_disabled": 0, "fusion_lat": 0.0, "name": "8bba42db4015cb9457ab7240b7daecfd", "fusion_lon": 0.0}, {"is_reserved": 0, "type": "electric_scooter", "bike_id": "1710eda4bde065be0787cb478f695ef7", "lat": 38.91694366666667, "lon": -77.0257185, "rental_uris": {"android": "https://dc.lft.to/lastmile_qr_scan", "ios": "https://dc.lft.to/lastmile_qr_scan"}, "is_disabled": 0, "fusion_lat": 0.0, "name": "1710eda4bde065be0787cb478f695ef7", "fusion_lon": 0.0}, {"is_reserved": 0, "type": "electric_scooter", "bike_id": "d7469b5e83b9ff53611c2e64066fa15a", "lat": 38.9184505, "lon": -77.04516516666666, "rental_uris": {"android": "https://dc.lft.to/lastmile_qr_scan", "ios": "https://dc.lft.to/lastmile_qr_scan"}, "is_disabled": 0, "fusion_lat": 0.0, "name": "d7469b5e83b9ff53611c2e64066fa15a", "fusion_lon": 0.0}, {"is_reserved": 0, "type": "electric_scooter", "bike_id": "b768ca4d753d93be057862d072043afb", "lat": 38.90569583333333, "lon": -77.02654733333334, "rental_uris": {"android": "https://dc.lft.to/lastmile_qr_scan", "ios": "https://dc.lft.to/lastmile_qr_scan"}, "is_disabled": 0, "fusion_lat": 0.0, "name": "b768ca4d753d93be057862d072043afb", "fusion_lon": 0.0}, {"is_reserved": 0, "type": "electric_scooter", "bike_id": "09160b1861149c42b0bee7d354373625", "lat": 38.905592166666665, "lon": -77.0416785, "rental_uris": {"android": "https://dc.lft.to/lastmile_qr_scan", "ios": "https://dc.lft.to/lastmile_qr_scan"}, "is_disabled": 0, "fusion_lat": 0.0, "name": "09160b1861149c42b0bee7d354373625", "fusion_lon": 0.0}, {"is_reserved": 0, "type": "electric_scooter", "bike_id": "53cfa0945055c5975404cbea61583550", "lat": 38.93305933333333, "lon": -77.0388305, "rental_uris": {"android": "https://dc.lft.to/lastmile_qr_scan", "ios": "https://dc.lft.to/lastmile_qr_scan"}, "is_disabled": 0, "fusion_lat": 0.0, "name": "53cfa0945055c5975404cbea61583550", "fusion_lon": 0.0}, {"is_reserved": 0, "type": "electric_bike", "bike_id": "ab10b7f420faf3639929201fbc8daf9d", "lat": 38.849417333333335, "lon": -77.11747833333334, "rental_uris": {"android": "https://dc.lft.to/lastmile_qr_scan", "ios": "https://dc.lft.to/lastmile_qr_scan"}, "is_disabled": 0, "fusion_lat": 0.0, "name": "ab10b7f420faf3639929201fbc8daf9d", "fusion_lon": 0.0}, {"is_reserved": 0, "type": "electric_scooter", "bike_id": "3b552128c710a30856a1d0afa27a5ad0", "lat": 38.921874833333334, "lon": -76.99621266666666, "rental_uris": {"android": "https://dc.lft.to/lastmile_qr_scan", "ios": "https://dc.lft.to/lastmile_qr_scan"}, "is_disabled": 0, "fusion_lat": 0.0, "name": "3b552128c710a30856a1d0afa27a5ad0", "fusion_lon": 0.0}, {"is_reserved": 0, "type": "electric_scooter", "bike_id": "3350678bbecb9b6e8910d7ead1e759fc", "lat": 38.89992683333333, "lon": -77.02568683333334, "rental_uris": {"android": "https://dc.lft.to/lastmile_qr_scan", "ios": "https://dc.lft.to/lastmile_qr_scan"}, "is_disabled": 0, "fusion_lat": 0.0, "name": "3350678bbecb9b6e8910d7ead1e759fc", "fusion_lon": 0.0}, {"is_reserved": 0, "type": "electric_scooter", "bike_id": "9c919ee8d9740f39247bda51ef224960", "lat": 38.90026483333333, "lon": -76.98856816666667, "rental_uris": {"android": "https://dc.lft.to/lastmile_qr_scan", "ios": "https://dc.lft.to/lastmile_qr_scan"}, "is_disabled": 0, "fusion_lat": 0.0, "name": "9c919ee8d9740f39247bda51ef224960", "fusion_lon": 0.0}, {"is_reserved": 0, "type": "electric_scooter", "bike_id": "a9778348caee83fa1d3bc51597e2810a", "lat": 38.920020666666666, "lon": -77.03222266666667, "rental_uris": {"android": "https://dc.lft.to/lastmile_qr_scan", "ios": "https://dc.lft.to/lastmile_qr_scan"}, "is_disabled": 0, "fusion_lat": 0.0, "name": "a9778348caee83fa1d3bc51597e2810a", "fusion_lon": 0.0}, {"is_reserved": 0, "type": "electric_scooter", "bike_id": "5d067d20f08fdf796a301623c50abe6d", "lat": 38.9231685, "lon": -77.038038, "rental_uris": {"android": "https://dc.lft.to/lastmile_qr_scan", "ios": "https://dc.lft.to/lastmile_qr_scan"}, "is_disabled": 0, "fusion_lat": 0.0, "name": "5d067d20f08fdf796a301623c50abe6d", "fusion_lon": 0.0}, {"is_reserved": 0, "type": "electric_scooter", "bike_id": "8fbc0040e8cc8024dc6fe08368dd0e0f", "lat": 38.89544316666667, "lon": -76.98335933333334, "rental_uris": {"android": "https://dc.lft.to/lastmile_qr_scan", "ios": "https://dc.lft.to/lastmile_qr_scan"}, "is_disabled": 0, "fusion_lat": 0.0, "name": "8fbc0040e8cc8024dc6fe08368dd0e0f", "fusion_lon": 0.0}, {"is_reserved": 0, "type": "electric_scooter", "bike_id": "579b0f8e2d74a5c13c579d6dd6e3e3b2", "lat": 38.9156305, "lon": -77.0372215, "rental_uris": {"android": "https://dc.lft.to/lastmile_qr_scan", "ios": "https://dc.lft.to/lastmile_qr_scan"}, "is_disabled": 0, "fusion_lat": 0.0, "name": "579b0f8e2d74a5c13c579d6dd6e3e3b2", "fusion_lon": 0.0}, {"is_reserved": 0, "type": "electric_scooter", "bike_id": "faad57975f17f16df5416064ad64e0ec", "lat": 38.90601133333333, "lon": -77.006948, "rental_uris": {"android": "https://dc.lft.to/lastmile_qr_scan", "ios": "https://dc.lft.to/lastmile_qr_scan"}, "is_disabled": 0, "fusion_lat": 0.0, "name": "faad57975f17f16df5416064ad64e0ec", "fusion_lon": 0.0}, {"is_reserved": 0, "type": "electric_scooter", "bike_id": "a6c68b5eab73c2057896e391584fb11a", "lat": 38.92700266666667, "lon": -77.02071616666667, "rental_uris": {"android": "https://dc.lft.to/lastmile_qr_scan", "ios": "https://dc.lft.to/lastmile_qr_scan"}, "is_disabled": 0, "fusion_lat": 0.0, "name": "a6c68b5eab73c2057896e391584fb11a", "fusion_lon": 0.0}, {"is_reserved": 0, "type": "electric_scooter", "bike_id": "fe259601fdcfc2ba50b3e900ca575c68", "lat": 38.9215925, "lon": -77.03357366666667, "rental_uris": {"android": "https://dc.lft.to/lastmile_qr_scan", "ios": "https://dc.lft.to/lastmile_qr_scan"}, "is_disabled": 0, "fusion_lat": 0.0, "name": "fe259601fdcfc2ba50b3e900ca575c68", "fusion_lon": 0.0}, {"is_reserved": 0, "type": "electric_scooter", "bike_id": "2caf8d3ef91f12cc4fcae9c26abe2064", "lat": 38.90865483333333, "lon": -77.046558, "rental_uris": {"android": "https://dc.lft.to/lastmile_qr_scan", "ios": "https://dc.lft.to/lastmile_qr_scan"}, "is_disabled": 0, "fusion_lat": 0.0, "name": "2caf8d3ef91f12cc4fcae9c26abe2064", "fusion_lon": 0.0}, {"is_reserved": 0, "type": "electric_scooter", "bike_id": "234fcbf2a36bad5a4630514e5c24779e", "lat": 38.922422, "lon": -77.03519216666666, "rental_uris": {"android": "https://dc.lft.to/lastmile_qr_scan", "ios": "https://dc.lft.to/lastmile_qr_scan"}, "is_disabled": 0, "fusion_lat": 0.0, "name": "234fcbf2a36bad5a4630514e5c24779e", "fusion_lon": 0.0}, {"is_reserved": 0, "type": "electric_scooter", "bike_id": "e36f999af5d5f9f9d6ce650d0c1d57f6", "lat": 38.940113833333335, "lon": -77.01906066666666, "rental_uris": {"android": "https://dc.lft.to/lastmile_qr_scan", "ios": "https://dc.lft.to/lastmile_qr_scan"}, "is_disabled": 0, "fusion_lat": 0.0, "name": "e36f999af5d5f9f9d6ce650d0c1d57f6", "fusion_lon": 0.0}, {"is_reserved": 0, "type": "electric_scooter", "bike_id": "f1d41745a0c7c619559efa245f1848ee", "lat": 38.92679733333333, "lon": -77.00735383333334, "rental_uris": {"android": "https://dc.lft.to/lastmile_qr_scan", "ios": "https://dc.lft.to/lastmile_qr_scan"}, "is_disabled": 0, "fusion_lat": 0.0, "name": "f1d41745a0c7c619559efa245f1848ee", "fusion_lon": 0.0}, {"is_reserved": 0, "type": "electric_scooter", "bike_id": "436f6842d2fa25b07be5316a7218c7ac", "lat": 38.9170695, "lon": -77.03865683333333, "rental_uris": {"android": "https://dc.lft.to/lastmile_qr_scan", "ios": "https://dc.lft.to/lastmile_qr_scan"}, "is_disabled": 0, "fusion_lat": 0.0, "name": "436f6842d2fa25b07be5316a7218c7ac", "fusion_lon": 0.0}, {"is_reserved": 0, "type": "electric_scooter", "bike_id": "aab0f02fbb6cfeb0ad4cdfa3b80a4fb0", "lat": 38.91992316666666, "lon": -77.028859, "rental_uris": {"android": "https://dc.lft.to/lastmile_qr_scan", "ios": "https://dc.lft.to/lastmile_qr_scan"}, "is_disabled": 0, "fusion_lat": 0.0, "name": "aab0f02fbb6cfeb0ad4cdfa3b80a4fb0", "fusion_lon": 0.0}, {"is_reserved": 0, "type": "electric_scooter", "bike_id": "35f5a8dd872356b9f987fc50a7b2f722", "lat": 38.94077766666667, "lon": -77.03330583333333, "rental_uris": {"android": "https://dc.lft.to/lastmile_qr_scan", "ios": "https://dc.lft.to/lastmile_qr_scan"}, "is_disabled": 0, "fusion_lat": 0.0, "name": "35f5a8dd872356b9f987fc50a7b2f722", "fusion_lon": 0.0}, {"is_reserved": 0, "type": "electric_scooter", "bike_id": "cf360af54c2b2dc27c58cccfee948cea", "lat": 38.88397066666667, "lon": -76.98983133333333, "rental_uris": {"android": "https://dc.lft.to/lastmile_qr_scan", "ios": "https://dc.lft.to/lastmile_qr_scan"}, "is_disabled": 0, "fusion_lat": 0.0, "name": "cf360af54c2b2dc27c58cccfee948cea", "fusion_lon": 0.0}, {"is_reserved": 0, "type": "electric_scooter", "bike_id": "78af3221b89defd194100eb4811d8470", "lat": 38.9146855, "lon": -77.04576333333333, "rental_uris": {"android": "https://dc.lft.to/lastmile_qr_scan", "ios": "https://dc.lft.to/lastmile_qr_scan"}, "is_disabled": 0, "fusion_lat": 0.0, "name": "78af3221b89defd194100eb4811d8470", "fusion_lon": 0.0}, {"is_reserved": 0, "type": "electric_scooter", "bike_id": "089739a60e5bc9a7bfbc81661a312748", "lat": 38.92112683333333, "lon": -77.01757866666667, "rental_uris": {"android": "https://dc.lft.to/lastmile_qr_scan", "ios": "https://dc.lft.to/lastmile_qr_scan"}, "is_disabled": 0, "fusion_lat": 0.0, "name": "089739a60e5bc9a7bfbc81661a312748", "fusion_lon": 0.0}, {"is_reserved": 0, "type": "electric_scooter", "bike_id": "8c8ae1837f59b6a4686f5743bb8124a5", "lat": 38.94242466666667, "lon": -77.0358665, "rental_uris": {"android": "https://dc.lft.to/lastmile_qr_scan", "ios": "https://dc.lft.to/lastmile_qr_scan"}, "is_disabled": 0, "fusion_lat": 0.0, "name": "8c8ae1837f59b6a4686f5743bb8124a5", "fusion_lon": 0.0}, {"is_reserved": 0, "type": "electric_scooter", "bike_id": "2731559d4ee57b377ade35c227127470", "lat": 38.877575, "lon": -76.99419333333333, "rental_uris": {"android": "https://dc.lft.to/lastmile_qr_scan", "ios": "https://dc.lft.to/lastmile_qr_scan"}, "is_disabled": 0, "fusion_lat": 0.0, "name": "2731559d4ee57b377ade35c227127470", "fusion_lon": 0.0}, {"is_reserved": 0, "type": "electric_scooter", "bike_id": "afd92c043b1b92bdecaa5f5490dc2a25", "lat": 38.912815, "lon": -77.03854333333334, "rental_uris": {"android": "https://dc.lft.to/lastmile_qr_scan", "ios": "https://dc.lft.to/lastmile_qr_scan"}, "is_disabled": 0, "fusion_lat": 0.0, "name": "afd92c043b1b92bdecaa5f5490dc2a25", "fusion_lon": 0.0}, {"is_reserved": 0, "type": "electric_scooter", "bike_id": "e9454c4847029d4dddd2fae07a9b482d", "lat": 38.89887566666667, "lon": -76.9317605, "rental_uris": {"android": "https://dc.lft.to/lastmile_qr_scan", "ios": "https://dc.lft.to/lastmile_qr_scan"}, "is_disabled": 0, "fusion_lat": 0.0, "name": "e9454c4847029d4dddd2fae07a9b482d", "fusion_lon": 0.0}, {"is_reserved": 0, "type": "electric_bike", "bike_id": "0fc1a481d1a63ae1fce08a1df207c588", "lat": 38.94372033333333, "lon": -77.07749566666666, "rental_uris": {"android": "https://dc.lft.to/lastmile_qr_scan", "ios": "https://dc.lft.to/lastmile_qr_scan"}, "is_disabled": 0, "fusion_lat": 0.0, "name": "0fc1a481d1a63ae1fce08a1df207c588", "fusion_lon": 0.0}, {"is_reserved": 0, "type": "electric_scooter", "bike_id": "0e3676d0ce5aac3a08e9811b9e404786", "lat": 38.915816166666666, "lon": -77.01233616666667, "rental_uris": {"android": "https://dc.lft.to/lastmile_qr_scan", "ios": "https://dc.lft.to/lastmile_qr_scan"}, "is_disabled": 0, "fusion_lat": 0.0, "name": "0e3676d0ce5aac3a08e9811b9e404786", "fusion_lon": 0.0}, {"is_reserved": 0, "type": "electric_scooter", "bike_id": "daddc0d6c3510dbe0e3e0aef97b045ca", "lat": 38.930582, "lon": -77.032159, "rental_uris": {"android": "https://dc.lft.to/lastmile_qr_scan", "ios": "https://dc.lft.to/lastmile_qr_scan"}, "is_disabled": 0, "fusion_lat": 0.0, "name": "daddc0d6c3510dbe0e3e0aef97b045ca", "fusion_lon": 0.0}, {"is_reserved": 0, "type": "electric_bike", "bike_id": "43c9f3810afb8e4362a440d290f5f066", "lat": 38.94797716666667, "lon": -76.94255283333334, "rental_uris": {"android": "https://dc.lft.to/lastmile_qr_scan", "ios": "https://dc.lft.to/lastmile_qr_scan"}, "is_disabled": 0, "fusion_lat": 0.0, "name": "43c9f3810afb8e4362a440d290f5f066", "fusion_lon": 0.0}, {"is_reserved": 0, "type": "electric_scooter", "bike_id": "3e9f3e400e0a196f4369d1a7657d713d", "lat": 38.903554, "lon": -77.02210666666667, "rental_uris": {"android": "https://dc.lft.to/lastmile_qr_scan", "ios": "https://dc.lft.to/lastmile_qr_scan"}, "is_disabled": 0, "fusion_lat": 0.0, "name": "3e9f3e400e0a196f4369d1a7657d713d", "fusion_lon": 0.0}, {"is_reserved": 0, "type": "electric_scooter", "bike_id": "a6e98593d7a7f65ea47b9a18275ff055", "lat": 38.90027833333333, "lon": -76.98763583333333, "rental_uris": {"android": "https://dc.lft.to/lastmile_qr_scan", "ios": "https://dc.lft.to/lastmile_qr_scan"}, "is_disabled": 0, "fusion_lat": 0.0, "name": "a6e98593d7a7f65ea47b9a18275ff055", "fusion_lon": 0.0}, {"is_reserved": 0, "type": "electric_bike", "bike_id": "d2f7d457fbf89bc6e2f664b275ada480", "lat": 38.8056385, "lon": -77.132247, "rental_uris": {"android": "https://dc.lft.to/lastmile_qr_scan", "ios": "https://dc.lft.to/lastmile_qr_scan"}, "is_disabled": 0, "fusion_lat": 0.0, "name": "d2f7d457fbf89bc6e2f664b275ada480", "fusion_lon": 0.0}, {"is_reserved": 0, "type": "electric_scooter", "bike_id": "e74d246b4038cb0175b2853c7487e6a0", "lat": 38.88649316666667, "lon": -76.99609616666666, "rental_uris": {"android": "https://dc.lft.to/lastmile_qr_scan", "ios": "https://dc.lft.to/lastmile_qr_scan"}, "is_disabled": 0, "fusion_lat": 0.0, "name": "e74d246b4038cb0175b2853c7487e6a0", "fusion_lon": 0.0}, {"is_reserved": 0, "type": "electric_bike", "bike_id": "13d35d0dac8618ca3b1b4f58ce968f86", "lat": 38.987182, "lon": -76.94584233333333, "rental_uris": {"android": "https://dc.lft.to/lastmile_qr_scan", "ios": "https://dc.lft.to/lastmile_qr_scan"}, "is_disabled": 0, "fusion_lat": 0.0, "name": "13d35d0dac8618ca3b1b4f58ce968f86", "fusion_lon": 0.0}, {"is_reserved": 0, "type": "electric_scooter", "bike_id": "f83bbc02d512da3691686944fedeb514", "lat": 38.93613166666667, "lon": -77.08185766666666, "rental_uris": {"android": "https://dc.lft.to/lastmile_qr_scan", "ios": "https://dc.lft.to/lastmile_qr_scan"}, "is_disabled": 0, "fusion_lat": 0.0, "name": "f83bbc02d512da3691686944fedeb514", "fusion_lon": 0.0}, {"is_reserved": 0, "type": "electric_scooter", "bike_id": "b92edae54d565e450cbb006965384bc2", "lat": 38.899296666666665, "lon": -77.0035915, "rental_uris": {"android": "https://dc.lft.to/lastmile_qr_scan", "ios": "https://dc.lft.to/lastmile_qr_scan"}, "is_disabled": 0, "fusion_lat": 0.0, "name": "b92edae54d565e450cbb006965384bc2", "fusion_lon": 0.0}, {"is_reserved": 0, "type": "electric_scooter", "bike_id": "ec90a9afd5750a0b06ef689a42f1fd71", "lat": 38.911218, "lon": -77.0382515, "rental_uris": {"android": "https://dc.lft.to/lastmile_qr_scan", "ios": "https://dc.lft.to/lastmile_qr_scan"}, "is_disabled": 0, "fusion_lat": 0.0, "name": "ec90a9afd5750a0b06ef689a42f1fd71", "fusion_lon": 0.0}, {"is_reserved": 0, "type": "electric_scooter", "bike_id": "ba87bbe7f123b95025342d127791d1f8", "lat": 38.88401016666667, "lon": -77.01929316666667, "rental_uris": {"android": "https://dc.lft.to/lastmile_qr_scan", "ios": "https://dc.lft.to/lastmile_qr_scan"}, "is_disabled": 0, "fusion_lat": 0.0, "name": "ba87bbe7f123b95025342d127791d1f8", "fusion_lon": 0.0}, {"is_reserved": 0, "type": "electric_scooter", "bike_id": "19809c0b9fe1a7426b29e7982d1973b2", "lat": 38.92116333333333, "lon": -77.0318595, "rental_uris": {"android": "https://dc.lft.to/lastmile_qr_scan", "ios": "https://dc.lft.to/lastmile_qr_scan"}, "is_disabled": 0, "fusion_lat": 0.0, "name": "19809c0b9fe1a7426b29e7982d1973b2", "fusion_lon": 0.0}, {"is_reserved": 0, "type": "electric_scooter", "bike_id": "f4d34457885293b78dc098ebdfc2ae29", "lat": 38.91706, "lon": -77.03132433333333, "rental_uris": {"android": "https://dc.lft.to/lastmile_qr_scan", "ios": "https://dc.lft.to/lastmile_qr_scan"}, "is_disabled": 0, "fusion_lat": 0.0, "name": "f4d34457885293b78dc098ebdfc2ae29", "fusion_lon": 0.0}, {"is_reserved": 0, "type": "electric_scooter", "bike_id": "638670daf78e2d7565bc0f0692949928", "lat": 38.90959133333333, "lon": -77.04575666666666, "rental_uris": {"android": "https://dc.lft.to/lastmile_qr_scan", "ios": "https://dc.lft.to/lastmile_qr_scan"}, "is_disabled": 0, "fusion_lat": 0.0, "name": "638670daf78e2d7565bc0f0692949928", "fusion_lon": 0.0}, {"is_reserved": 0, "type": "electric_scooter", "bike_id": "615b5dbd3989130b78ed7304f80f6532", "lat": 38.927278666666666, "lon": -77.03553883333333, "rental_uris": {"android": "https://dc.lft.to/lastmile_qr_scan", "ios": "https://dc.lft.to/lastmile_qr_scan"}, "is_disabled": 0, "fusion_lat": 0.0, "name": "615b5dbd3989130b78ed7304f80f6532", "fusion_lon": 0.0}, {"is_reserved": 0, "type": "electric_scooter", "bike_id": "d17928a5cbb985e974c535bb55b0827f", "lat": 38.90061266666667, "lon": -76.99830533333333, "rental_uris": {"android": "https://dc.lft.to/lastmile_qr_scan", "ios": "https://dc.lft.to/lastmile_qr_scan"}, "is_disabled": 0, "fusion_lat": 0.0, "name": "d17928a5cbb985e974c535bb55b0827f", "fusion_lon": 0.0}, {"is_reserved": 0, "type": "electric_scooter", "bike_id": "09d94f2bc9245e3c0abbb1804b7b16e2", "lat": 38.92156933333333, "lon": -77.03485883333333, "rental_uris": {"android": "https://dc.lft.to/lastmile_qr_scan", "ios": "https://dc.lft.to/lastmile_qr_scan"}, "is_disabled": 0, "fusion_lat": 0.0, "name": "09d94f2bc9245e3c0abbb1804b7b16e2", "fusion_lon": 0.0}, {"is_reserved": 0, "type": "electric_scooter", "bike_id": "c6262b3efc89cf42c979250013181f21", "lat": 38.92914533333333, "lon": -77.020872, "rental_uris": {"android": "https://dc.lft.to/lastmile_qr_scan", "ios": "https://dc.lft.to/lastmile_qr_scan"}, "is_disabled": 0, "fusion_lat": 0.0, "name": "c6262b3efc89cf42c979250013181f21", "fusion_lon": 0.0}, {"is_reserved": 0, "type": "electric_scooter", "bike_id": "c084a671ca11c268d2c8f7f651b75d17", "lat": 38.902498, "lon": -77.01731066666666, "rental_uris": {"android": "https://dc.lft.to/lastmile_qr_scan", "ios": "https://dc.lft.to/lastmile_qr_scan"}, "is_disabled": 0, "fusion_lat": 0.0, "name": "c084a671ca11c268d2c8f7f651b75d17", "fusion_lon": 0.0}, {"is_reserved": 0, "type": "electric_scooter", "bike_id": "230c2efec17176adacbcaf315a8de03f", "lat": 38.9370875, "lon": -77.023969, "rental_uris": {"android": "https://dc.lft.to/lastmile_qr_scan", "ios": "https://dc.lft.to/lastmile_qr_scan"}, "is_disabled": 0, "fusion_lat": 0.0, "name": "230c2efec17176adacbcaf315a8de03f", "fusion_lon": 0.0}, {"is_reserved": 0, "type": "electric_scooter", "bike_id": "295b08276d9824b9ab643095011abd33", "lat": 38.91203866666667, "lon": -77.02003883333333, "rental_uris": {"android": "https://dc.lft.to/lastmile_qr_scan", "ios": "https://dc.lft.to/lastmile_qr_scan"}, "is_disabled": 0, "fusion_lat": 0.0, "name": "295b08276d9824b9ab643095011abd33", "fusion_lon": 0.0}, {"is_reserved": 0, "type": "electric_bike", "bike_id": "6cc651dad5079f75f5036372b7c4d84f", "lat": 38.802482, "lon": -77.11440016666667, "rental_uris": {"android": "https://dc.lft.to/lastmile_qr_scan", "ios": "https://dc.lft.to/lastmile_qr_scan"}, "is_disabled": 0, "fusion_lat": 0.0, "name": "6cc651dad5079f75f5036372b7c4d84f", "fusion_lon": 0.0}, {"is_reserved": 0, "type": "electric_scooter", "bike_id": "b19270daf481cf92bbbb60ff875e2255", "lat": 38.900318666666664, "lon": -77.00198766666666, "rental_uris": {"android": "https://dc.lft.to/lastmile_qr_scan", "ios": "https://dc.lft.to/lastmile_qr_scan"}, "is_disabled": 0, "fusion_lat": 0.0, "name": "b19270daf481cf92bbbb60ff875e2255", "fusion_lon": 0.0}, {"is_reserved": 0, "type": "electric_scooter", "bike_id": "b4eefa3290cb2db2791f1695677fb33a", "lat": 38.9285595, "lon": -77.0273215, "rental_uris": {"android": "https://dc.lft.to/lastmile_qr_scan", "ios": "https://dc.lft.to/lastmile_qr_scan"}, "is_disabled": 0, "fusion_lat": 0.0, "name": "b4eefa3290cb2db2791f1695677fb33a", "fusion_lon": 0.0}, {"is_reserved": 0, "type": "electric_scooter", "bike_id": "36a32b6c85ca4188b0fe43df9bff94a1", "lat": 38.8923225, "lon": -77.0318225, "rental_uris": {"android": "https://dc.lft.to/lastmile_qr_scan", "ios": "https://dc.lft.to/lastmile_qr_scan"}, "is_disabled": 0, "fusion_lat": 0.0, "name": "36a32b6c85ca4188b0fe43df9bff94a1", "fusion_lon": 0.0}, {"is_reserved": 0, "type": "electric_scooter", "bike_id": "0f02fcc19939a2cac1fcba5ecc57f228", "lat": 38.922087166666664, "lon": -77.02029166666667, "rental_uris": {"android": "https://dc.lft.to/lastmile_qr_scan", "ios": "https://dc.lft.to/lastmile_qr_scan"}, "is_disabled": 0, "fusion_lat": 0.0, "name": "0f02fcc19939a2cac1fcba5ecc57f228", "fusion_lon": 0.0}, {"is_reserved": 0, "type": "electric_scooter", "bike_id": "d2cc7f3ef0a2b815236777519b7f4f67", "lat": 38.897706166666666, "lon": -77.04783316666666, "rental_uris": {"android": "https://dc.lft.to/lastmile_qr_scan", "ios": "https://dc.lft.to/lastmile_qr_scan"}, "is_disabled": 0, "fusion_lat": 0.0, "name": "d2cc7f3ef0a2b815236777519b7f4f67", "fusion_lon": 0.0}, {"is_reserved": 0, "type": "electric_scooter", "bike_id": "e646be496e059f1b0efa31d34569569b", "lat": 38.918840833333334, "lon": -77.04310116666667, "rental_uris": {"android": "https://dc.lft.to/lastmile_qr_scan", "ios": "https://dc.lft.to/lastmile_qr_scan"}, "is_disabled": 0, "fusion_lat": 0.0, "name": "e646be496e059f1b0efa31d34569569b", "fusion_lon": 0.0}, {"is_reserved": 0, "type": "electric_scooter", "bike_id": "dda68716bceb675466623edfd1b7ab18", "lat": 38.91881633333333, "lon": -77.04308816666666, "rental_uris": {"android": "https://dc.lft.to/lastmile_qr_scan", "ios": "https://dc.lft.to/lastmile_qr_scan"}, "is_disabled": 0, "fusion_lat": 0.0, "name": "dda68716bceb675466623edfd1b7ab18", "fusion_lon": 0.0}, {"is_reserved": 0, "type": "electric_scooter", "bike_id": "0ec4f8e881c23ced51f60cf73be525ab", "lat": 38.91190316666667, "lon": -77.002441, "rental_uris": {"android": "https://dc.lft.to/lastmile_qr_scan", "ios": "https://dc.lft.to/lastmile_qr_scan"}, "is_disabled": 0, "fusion_lat": 0.0, "name": "0ec4f8e881c23ced51f60cf73be525ab", "fusion_lon": 0.0}, {"is_reserved": 0, "type": "electric_scooter", "bike_id": "2b993f706e7e1a9f7fe57ef017b6bccf", "lat": 38.9102085, "lon": -76.99377216666667, "rental_uris": {"android": "https://dc.lft.to/lastmile_qr_scan", "ios": "https://dc.lft.to/lastmile_qr_scan"}, "is_disabled": 0, "fusion_lat": 0.0, "name": "2b993f706e7e1a9f7fe57ef017b6bccf", "fusion_lon": 0.0}, {"is_reserved": 0, "type": "electric_scooter", "bike_id": "52167cb1f8210c265f793fb9b5b3268f", "lat": 38.87474, "lon": -77.00339633333333, "rental_uris": {"android": "https://dc.lft.to/lastmile_qr_scan", "ios": "https://dc.lft.to/lastmile_qr_scan"}, "is_disabled": 0, "fusion_lat": 0.0, "name": "52167cb1f8210c265f793fb9b5b3268f", "fusion_lon": 0.0}, {"is_reserved": 0, "type": "electric_scooter", "bike_id": "f0343cd36a28b77947cf22b479c6b664", "lat": 38.922885666666666, "lon": -77.03663816666666, "rental_uris": {"android": "https://dc.lft.to/lastmile_qr_scan", "ios": "https://dc.lft.to/lastmile_qr_scan"}, "is_disabled": 0, "fusion_lat": 0.0, "name": "f0343cd36a28b77947cf22b479c6b664", "fusion_lon": 0.0}, {"is_reserved": 0, "type": "electric_scooter", "bike_id": "686d68fb19b28162265ef822baa3dbbc", "lat": 38.892224, "lon": -77.04367533333334, "rental_uris": {"android": "https://dc.lft.to/lastmile_qr_scan", "ios": "https://dc.lft.to/lastmile_qr_scan"}, "is_disabled": 0, "fusion_lat": 0.0, "name": "686d68fb19b28162265ef822baa3dbbc", "fusion_lon": 0.0}, {"is_reserved": 0, "type": "electric_scooter", "bike_id": "f3b0ff4de752b1caa044129601453d78", "lat": 38.891991166666664, "lon": -77.02229816666667, "rental_uris": {"android": "https://dc.lft.to/lastmile_qr_scan", "ios": "https://dc.lft.to/lastmile_qr_scan"}, "is_disabled": 0, "fusion_lat": 0.0, "name": "f3b0ff4de752b1caa044129601453d78", "fusion_lon": 0.0}, {"is_reserved": 0, "type": "electric_scooter", "bike_id": "bb2b5fae1669acbf097111ee49c478fb", "lat": 38.9077085, "lon": -77.03536166666666, "rental_uris": {"android": "https://dc.lft.to/lastmile_qr_scan", "ios": "https://dc.lft.to/lastmile_qr_scan"}, "is_disabled": 0, "fusion_lat": 0.0, "name": "bb2b5fae1669acbf097111ee49c478fb", "fusion_lon": 0.0}, {"is_reserved": 0, "type": "electric_scooter", "bike_id": "95619a01cebdfc3bdaf42002794c61c0", "lat": 38.915244333333334, "lon": -77.003406, "rental_uris": {"android": "https://dc.lft.to/lastmile_qr_scan", "ios": "https://dc.lft.to/lastmile_qr_scan"}, "is_disabled": 0, "fusion_lat": 0.0, "name": "95619a01cebdfc3bdaf42002794c61c0", "fusion_lon": 0.0}, {"is_reserved": 0, "type": "electric_scooter", "bike_id": "1cb4065515c803ef63d36e994b5a65cc", "lat": 38.922317, "lon": -77.01818783333333, "rental_uris": {"android": "https://dc.lft.to/lastmile_qr_scan", "ios": "https://dc.lft.to/lastmile_qr_scan"}, "is_disabled": 0, "fusion_lat": 0.0, "name": "1cb4065515c803ef63d36e994b5a65cc", "fusion_lon": 0.0}, {"is_reserved": 0, "type": "electric_scooter", "bike_id": "a75d4b81a9b80cfea935bba84969060b", "lat": 38.9075455, "lon": -76.99872916666666, "rental_uris": {"android": "https://dc.lft.to/lastmile_qr_scan", "ios": "https://dc.lft.to/lastmile_qr_scan"}, "is_disabled": 0, "fusion_lat": 0.0, "name": "a75d4b81a9b80cfea935bba84969060b", "fusion_lon": 0.0}, {"is_reserved": 0, "type": "electric_scooter", "bike_id": "f0f8ad0eb4e5469ff8b3b70da8b1ab89", "lat": 38.87941516666667, "lon": -77.0166305, "rental_uris": {"android": "https://dc.lft.to/lastmile_qr_scan", "ios": "https://dc.lft.to/lastmile_qr_scan"}, "is_disabled": 0, "fusion_lat": 0.0, "name": "f0f8ad0eb4e5469ff8b3b70da8b1ab89", "fusion_lon": 0.0}, {"is_reserved": 0, "type": "electric_scooter", "bike_id": "67ed135ed027fae466dc21afe297fef9", "lat": 38.92793316666667, "lon": -77.040645, "rental_uris": {"android": "https://dc.lft.to/lastmile_qr_scan", "ios": "https://dc.lft.to/lastmile_qr_scan"}, "is_disabled": 0, "fusion_lat": 0.0, "name": "67ed135ed027fae466dc21afe297fef9", "fusion_lon": 0.0}, {"is_reserved": 0, "type": "electric_bike", "bike_id": "695baa409158b2199864855d4b6b6194", "lat": 38.99038766666666, "lon": -77.0254035, "rental_uris": {"android": "https://dc.lft.to/lastmile_qr_scan", "ios": "https://dc.lft.to/lastmile_qr_scan"}, "is_disabled": 0, "fusion_lat": 0.0, "name": "695baa409158b2199864855d4b6b6194", "fusion_lon": 0.0}, {"is_reserved": 0, "type": "electric_scooter", "bike_id": "3d471d3f0f03cd894a61f0e843f3eb65", "lat": 38.95631683333333, "lon": -77.03565016666667, "rental_uris": {"android": "https://dc.lft.to/lastmile_qr_scan", "ios": "https://dc.lft.to/lastmile_qr_scan"}, "is_disabled": 0, "fusion_lat": 0.0, "name": "3d471d3f0f03cd894a61f0e843f3eb65", "fusion_lon": 0.0}, {"is_reserved": 0, "type": "electric_scooter", "bike_id": "fcb0f09fcb954fd4e39a2c0c0e4eae62", "lat": 38.918136, "lon": -77.0396185, "rental_uris": {"android": "https://dc.lft.to/lastmile_qr_scan", "ios": "https://dc.lft.to/lastmile_qr_scan"}, "is_disabled": 0, "fusion_lat": 0.0, "name": "fcb0f09fcb954fd4e39a2c0c0e4eae62", "fusion_lon": 0.0}, {"is_reserved": 0, "type": "electric_scooter", "bike_id": "764c1e5685d306606850d56269e0822a", "lat": 38.91728416666667, "lon": -77.02386183333333, "rental_uris": {"android": "https://dc.lft.to/lastmile_qr_scan", "ios": "https://dc.lft.to/lastmile_qr_scan"}, "is_disabled": 0, "fusion_lat": 0.0, "name": "764c1e5685d306606850d56269e0822a", "fusion_lon": 0.0}, {"is_reserved": 0, "type": "electric_scooter", "bike_id": "6940e269b916115a4fd649be2cb8bc88", "lat": 38.8747435, "lon": -77.00334333333333, "rental_uris": {"android": "https://dc.lft.to/lastmile_qr_scan", "ios": "https://dc.lft.to/lastmile_qr_scan"}, "is_disabled": 0, "fusion_lat": 0.0, "name": "6940e269b916115a4fd649be2cb8bc88", "fusion_lon": 0.0}, {"is_reserved": 0, "type": "electric_bike", "bike_id": "d731ca78a05c89fb6734daf49f25d511", "lat": 38.973125833333334, "lon": -76.994868, "rental_uris": {"android": "https://dc.lft.to/lastmile_qr_scan", "ios": "https://dc.lft.to/lastmile_qr_scan"}, "is_disabled": 0, "fusion_lat": 0.0, "name": "d731ca78a05c89fb6734daf49f25d511", "fusion_lon": 0.0}, {"is_reserved": 0, "type": "electric_scooter", "bike_id": "fe3cb4f02fc910c9e503e8e621ac6448", "lat": 38.912655666666666, "lon": -77.03868866666667, "rental_uris": {"android": "https://dc.lft.to/lastmile_qr_scan", "ios": "https://dc.lft.to/lastmile_qr_scan"}, "is_disabled": 0, "fusion_lat": 0.0, "name": "fe3cb4f02fc910c9e503e8e621ac6448", "fusion_lon": 0.0}, {"is_reserved": 0, "type": "electric_scooter", "bike_id": "1064c9f1dd4c65b283504637a9076ff3", "lat": 38.89903616666667, "lon": -76.9799985, "rental_uris": {"android": "https://dc.lft.to/lastmile_qr_scan", "ios": "https://dc.lft.to/lastmile_qr_scan"}, "is_disabled": 0, "fusion_lat": 0.0, "name": "1064c9f1dd4c65b283504637a9076ff3", "fusion_lon": 0.0}, {"is_reserved": 0, "type": "electric_scooter", "bike_id": "c7df8333d7bb5353c1ed90134026f14c", "lat": 38.90031466666667, "lon": -76.98766066666667, "rental_uris": {"android": "https://dc.lft.to/lastmile_qr_scan", "ios": "https://dc.lft.to/lastmile_qr_scan"}, "is_disabled": 0, "fusion_lat": 0.0, "name": "c7df8333d7bb5353c1ed90134026f14c", "fusion_lon": 0.0}, {"is_reserved": 0, "type": "electric_scooter", "bike_id": "44fa6660b14b76057eedff92dee935f8", "lat": 38.875596333333334, "lon": -77.00599283333334, "rental_uris": {"android": "https://dc.lft.to/lastmile_qr_scan", "ios": "https://dc.lft.to/lastmile_qr_scan"}, "is_disabled": 0, "fusion_lat": 0.0, "name": "44fa6660b14b76057eedff92dee935f8", "fusion_lon": 0.0}, {"is_reserved": 0, "type": "electric_scooter", "bike_id": "bf6722bcab956e5e08e210a638f0841b", "lat": 38.903042, "lon": -76.97651916666666, "rental_uris": {"android": "https://dc.lft.to/lastmile_qr_scan", "ios": "https://dc.lft.to/lastmile_qr_scan"}, "is_disabled": 0, "fusion_lat": 0.0, "name": "bf6722bcab956e5e08e210a638f0841b", "fusion_lon": 0.0}, {"is_reserved": 0, "type": "electric_scooter", "bike_id": "5a5dfbb6be7c4874f9150bc70427bd30", "lat": 38.9359245, "lon": -77.0336705, "rental_uris": {"android": "https://dc.lft.to/lastmile_qr_scan", "ios": "https://dc.lft.to/lastmile_qr_scan"}, "is_disabled": 0, "fusion_lat": 0.0, "name": "5a5dfbb6be7c4874f9150bc70427bd30", "fusion_lon": 0.0}, {"is_reserved": 0, "type": "electric_scooter", "bike_id": "fb32d2219502fd067909e1acd479d963", "lat": 38.9170885, "lon": -77.04030383333334, "rental_uris": {"android": "https://dc.lft.to/lastmile_qr_scan", "ios": "https://dc.lft.to/lastmile_qr_scan"}, "is_disabled": 0, "fusion_lat": 0.0, "name": "fb32d2219502fd067909e1acd479d963", "fusion_lon": 0.0}, {"is_reserved": 0, "type": "electric_scooter", "bike_id": "cad6114846120c474ebc67be8a334235", "lat": 38.92427216666667, "lon": -77.03422066666667, "rental_uris": {"android": "https://dc.lft.to/lastmile_qr_scan", "ios": "https://dc.lft.to/lastmile_qr_scan"}, "is_disabled": 0, "fusion_lat": 0.0, "name": "cad6114846120c474ebc67be8a334235", "fusion_lon": 0.0}, {"is_reserved": 0, "type": "electric_scooter", "bike_id": "543e2661b3a86be03fbc027ae184763c", "lat": 38.9304085, "lon": -77.05540566666667, "rental_uris": {"android": "https://dc.lft.to/lastmile_qr_scan", "ios": "https://dc.lft.to/lastmile_qr_scan"}, "is_disabled": 0, "fusion_lat": 0.0, "name": "543e2661b3a86be03fbc027ae184763c", "fusion_lon": 0.0}, {"is_reserved": 0, "type": "electric_scooter", "bike_id": "1b6215f6216fe48cfd674e73b0d20c57", "lat": 38.90906416666667, "lon": -76.9961995, "rental_uris": {"android": "https://dc.lft.to/lastmile_qr_scan", "ios": "https://dc.lft.to/lastmile_qr_scan"}, "is_disabled": 0, "fusion_lat": 0.0, "name": "1b6215f6216fe48cfd674e73b0d20c57", "fusion_lon": 0.0}, {"is_reserved": 0, "type": "electric_scooter", "bike_id": "3686d0b8153f037698d0b93f7b4b0450", "lat": 38.92632533333333, "lon": -77.0425215, "rental_uris": {"android": "https://dc.lft.to/lastmile_qr_scan", "ios": "https://dc.lft.to/lastmile_qr_scan"}, "is_disabled": 0, "fusion_lat": 0.0, "name": "3686d0b8153f037698d0b93f7b4b0450", "fusion_lon": 0.0}, {"is_reserved": 0, "type": "electric_scooter", "bike_id": "f17d466e4c89f843511db837530ae0b4", "lat": 38.88392283333334, "lon": -77.01940316666666, "rental_uris": {"android": "https://dc.lft.to/lastmile_qr_scan", "ios": "https://dc.lft.to/lastmile_qr_scan"}, "is_disabled": 0, "fusion_lat": 0.0, "name": "f17d466e4c89f843511db837530ae0b4", "fusion_lon": 0.0}, {"is_reserved": 0, "type": "electric_scooter", "bike_id": "6e80845f43658da7f97327648c5b043d", "lat": 38.921057833333336, "lon": -77.046932, "rental_uris": {"android": "https://dc.lft.to/lastmile_qr_scan", "ios": "https://dc.lft.to/lastmile_qr_scan"}, "is_disabled": 0, "fusion_lat": 0.0, "name": "6e80845f43658da7f97327648c5b043d", "fusion_lon": 0.0}, {"is_reserved": 0, "type": "electric_scooter", "bike_id": "83fcced3a5d66e8b6e87e04c84c77f6f", "lat": 38.9432795, "lon": -77.0125395, "rental_uris": {"android": "https://dc.lft.to/lastmile_qr_scan", "ios": "https://dc.lft.to/lastmile_qr_scan"}, "is_disabled": 0, "fusion_lat": 0.0, "name": "83fcced3a5d66e8b6e87e04c84c77f6f", "fusion_lon": 0.0}, {"is_reserved": 0, "type": "electric_scooter", "bike_id": "862d5689e284fb67c6b10c85edb191c2", "lat": 38.89534183333333, "lon": -76.979009, "rental_uris": {"android": "https://dc.lft.to/lastmile_qr_scan", "ios": "https://dc.lft.to/lastmile_qr_scan"}, "is_disabled": 0, "fusion_lat": 0.0, "name": "862d5689e284fb67c6b10c85edb191c2", "fusion_lon": 0.0}, {"is_reserved": 0, "type": "electric_scooter", "bike_id": "d8649925b39054060b76cd6262665c99", "lat": 38.91198883333333, "lon": -77.03758783333333, "rental_uris": {"android": "https://dc.lft.to/lastmile_qr_scan", "ios": "https://dc.lft.to/lastmile_qr_scan"}, "is_disabled": 0, "fusion_lat": 0.0, "name": "d8649925b39054060b76cd6262665c99", "fusion_lon": 0.0}, {"is_reserved": 0, "type": "electric_scooter", "bike_id": "4e895aab16875a8c8945a1be206d0d91", "lat": 38.892239000000004, "lon": -77.01604066666667, "rental_uris": {"android": "https://dc.lft.to/lastmile_qr_scan", "ios": "https://dc.lft.to/lastmile_qr_scan"}, "is_disabled": 0, "fusion_lat": 0.0, "name": "4e895aab16875a8c8945a1be206d0d91", "fusion_lon": 0.0}, {"is_reserved": 0, "type": "electric_scooter", "bike_id": "6e5012bf4340eef89a2685b3e9782dc6", "lat": 38.89941266666666, "lon": -77.01870283333334, "rental_uris": {"android": "https://dc.lft.to/lastmile_qr_scan", "ios": "https://dc.lft.to/lastmile_qr_scan"}, "is_disabled": 0, "fusion_lat": 0.0, "name": "6e5012bf4340eef89a2685b3e9782dc6", "fusion_lon": 0.0}, {"is_reserved": 0, "type": "electric_scooter", "bike_id": "0a9bd8d7377c9c489515abfecfbf3e41", "lat": 38.924048166666665, "lon": -76.95152716666666, "rental_uris": {"android": "https://dc.lft.to/lastmile_qr_scan", "ios": "https://dc.lft.to/lastmile_qr_scan"}, "is_disabled": 0, "fusion_lat": 0.0, "name": "0a9bd8d7377c9c489515abfecfbf3e41", "fusion_lon": 0.0}, {"is_reserved": 0, "type": "electric_scooter", "bike_id": "84b2447b59042824797d0323234b97d6", "lat": 38.898813833333335, "lon": -77.0488855, "rental_uris": {"android": "https://dc.lft.to/lastmile_qr_scan", "ios": "https://dc.lft.to/lastmile_qr_scan"}, "is_disabled": 0, "fusion_lat": 0.0, "name": "84b2447b59042824797d0323234b97d6", "fusion_lon": 0.0}, {"is_reserved": 0, "type": "electric_scooter", "bike_id": "6906d250ba86dd5799a1aa462966e703", "lat": 38.90370583333333, "lon": -77.028319, "rental_uris": {"android": "https://dc.lft.to/lastmile_qr_scan", "ios": "https://dc.lft.to/lastmile_qr_scan"}, "is_disabled": 0, "fusion_lat": 0.0, "name": "6906d250ba86dd5799a1aa462966e703", "fusion_lon": 0.0}, {"is_reserved": 0, "type": "electric_scooter", "bike_id": "05f33c69b82bdc8cf04c31ca1519efac", "lat": 38.90040283333333, "lon": -76.99034516666667, "rental_uris": {"android": "https://dc.lft.to/lastmile_qr_scan", "ios": "https://dc.lft.to/lastmile_qr_scan"}, "is_disabled": 0, "fusion_lat": 0.0, "name": "05f33c69b82bdc8cf04c31ca1519efac", "fusion_lon": 0.0}, {"is_reserved": 0, "type": "electric_scooter", "bike_id": "ac9eb6c3af6748f8d749ffae60955b2c", "lat": 38.909646333333335, "lon": -77.02397783333333, "rental_uris": {"android": "https://dc.lft.to/lastmile_qr_scan", "ios": "https://dc.lft.to/lastmile_qr_scan"}, "is_disabled": 0, "fusion_lat": 0.0, "name": "ac9eb6c3af6748f8d749ffae60955b2c", "fusion_lon": 0.0}, {"is_reserved": 0, "type": "electric_scooter", "bike_id": "bf604662f74723ec5031b8aec879c1cb", "lat": 38.87088166666667, "lon": -77.01375316666666, "rental_uris": {"android": "https://dc.lft.to/lastmile_qr_scan", "ios": "https://dc.lft.to/lastmile_qr_scan"}, "is_disabled": 0, "fusion_lat": 0.0, "name": "bf604662f74723ec5031b8aec879c1cb", "fusion_lon": 0.0}, {"is_reserved": 0, "type": "electric_bike", "bike_id": "6b70f9976cc67c7b29adca304b8489a1", "lat": 38.91226416666667, "lon": -77.0476965, "rental_uris": {"android": "https://dc.lft.to/lastmile_qr_scan", "ios": "https://dc.lft.to/lastmile_qr_scan"}, "is_disabled": 0, "fusion_lat": 0.0, "name": "6b70f9976cc67c7b29adca304b8489a1", "fusion_lon": 0.0}, {"is_reserved": 0, "type": "electric_scooter", "bike_id": "bd9dd173482fd4ccf2c3d35ff97c445c", "lat": 38.8924765, "lon": -77.033466, "rental_uris": {"android": "https://dc.lft.to/lastmile_qr_scan", "ios": "https://dc.lft.to/lastmile_qr_scan"}, "is_disabled": 0, "fusion_lat": 0.0, "name": "bd9dd173482fd4ccf2c3d35ff97c445c", "fusion_lon": 0.0}, {"is_reserved": 0, "type": "electric_scooter", "bike_id": "c748323f73b3b585870d83d30f991375", "lat": 38.90172183333333, "lon": -77.023686, "rental_uris": {"android": "https://dc.lft.to/lastmile_qr_scan", "ios": "https://dc.lft.to/lastmile_qr_scan"}, "is_disabled": 0, "fusion_lat": 0.0, "name": "c748323f73b3b585870d83d30f991375", "fusion_lon": 0.0}, {"is_reserved": 0, "type": "electric_scooter", "bike_id": "e7edbc1336bb94f0c269be631d9cd225", "lat": 38.933273666666665, "lon": -77.02913583333333, "rental_uris": {"android": "https://dc.lft.to/lastmile_qr_scan", "ios": "https://dc.lft.to/lastmile_qr_scan"}, "is_disabled": 0, "fusion_lat": 0.0, "name": "e7edbc1336bb94f0c269be631d9cd225", "fusion_lon": 0.0}, {"is_reserved": 0, "type": "electric_scooter", "bike_id": "005d48d2388a364f084a5c4850ae6c99", "lat": 38.898348666666664, "lon": -77.02206366666667, "rental_uris": {"android": "https://dc.lft.to/lastmile_qr_scan", "ios": "https://dc.lft.to/lastmile_qr_scan"}, "is_disabled": 0, "fusion_lat": 0.0, "name": "005d48d2388a364f084a5c4850ae6c99", "fusion_lon": 0.0}, {"is_reserved": 0, "type": "electric_scooter", "bike_id": "aeb8f78567407402a1dca987063cc35b", "lat": 38.91914833333333, "lon": -77.04812816666667, "rental_uris": {"android": "https://dc.lft.to/lastmile_qr_scan", "ios": "https://dc.lft.to/lastmile_qr_scan"}, "is_disabled": 0, "fusion_lat": 0.0, "name": "aeb8f78567407402a1dca987063cc35b", "fusion_lon": 0.0}, {"is_reserved": 0, "type": "electric_scooter", "bike_id": "e333e95d704d3ac7cf6219c4280b6e8c", "lat": 38.91181183333333, "lon": -77.02303466666666, "rental_uris": {"android": "https://dc.lft.to/lastmile_qr_scan", "ios": "https://dc.lft.to/lastmile_qr_scan"}, "is_disabled": 0, "fusion_lat": 0.0, "name": "e333e95d704d3ac7cf6219c4280b6e8c", "fusion_lon": 0.0}, {"is_reserved": 0, "type": "electric_scooter", "bike_id": "7f8ca1a785eeb11071b401aa8a1e9944", "lat": 38.90623633333333, "lon": -77.065161, "rental_uris": {"android": "https://dc.lft.to/lastmile_qr_scan", "ios": "https://dc.lft.to/lastmile_qr_scan"}, "is_disabled": 0, "fusion_lat": 0.0, "name": "7f8ca1a785eeb11071b401aa8a1e9944", "fusion_lon": 0.0}, {"is_reserved": 0, "type": "electric_scooter", "bike_id": "944c0a084608b696db5829c0c999f90d", "lat": 38.930243, "lon": -77.02357016666667, "rental_uris": {"android": "https://dc.lft.to/lastmile_qr_scan", "ios": "https://dc.lft.to/lastmile_qr_scan"}, "is_disabled": 0, "fusion_lat": 0.0, "name": "944c0a084608b696db5829c0c999f90d", "fusion_lon": 0.0}, {"is_reserved": 0, "type": "electric_scooter", "bike_id": "4bb978ff83f88560a0fdb68257bf8049", "lat": 38.908648166666666, "lon": -77.04586266666666, "rental_uris": {"android": "https://dc.lft.to/lastmile_qr_scan", "ios": "https://dc.lft.to/lastmile_qr_scan"}, "is_disabled": 0, "fusion_lat": 0.0, "name": "4bb978ff83f88560a0fdb68257bf8049", "fusion_lon": 0.0}, {"is_reserved": 0, "type": "electric_scooter", "bike_id": "4bb62f45c573bc1214ba82ce0cfd32f8", "lat": 38.94166383333334, "lon": -77.01820983333333, "rental_uris": {"android": "https://dc.lft.to/lastmile_qr_scan", "ios": "https://dc.lft.to/lastmile_qr_scan"}, "is_disabled": 0, "fusion_lat": 0.0, "name": "4bb62f45c573bc1214ba82ce0cfd32f8", "fusion_lon": 0.0}, {"is_reserved": 0, "type": "electric_scooter", "bike_id": "a7186fcdb029a14a723195a6c315bed6", "lat": 38.90729283333334, "lon": -77.0480265, "rental_uris": {"android": "https://dc.lft.to/lastmile_qr_scan", "ios": "https://dc.lft.to/lastmile_qr_scan"}, "is_disabled": 0, "fusion_lat": 0.0, "name": "a7186fcdb029a14a723195a6c315bed6", "fusion_lon": 0.0}, {"is_reserved": 0, "type": "electric_scooter", "bike_id": "49abbdb4f44822ea4f36661273839815", "lat": 38.92452383333333, "lon": -77.0203465, "rental_uris": {"android": "https://dc.lft.to/lastmile_qr_scan", "ios": "https://dc.lft.to/lastmile_qr_scan"}, "is_disabled": 0, "fusion_lat": 0.0, "name": "49abbdb4f44822ea4f36661273839815", "fusion_lon": 0.0}, {"is_reserved": 0, "type": "electric_scooter", "bike_id": "36940cdde001d0ae71b4f05a197539cf", "lat": 38.92197933333333, "lon": -77.03900233333333, "rental_uris": {"android": "https://dc.lft.to/lastmile_qr_scan", "ios": "https://dc.lft.to/lastmile_qr_scan"}, "is_disabled": 0, "fusion_lat": 0.0, "name": "36940cdde001d0ae71b4f05a197539cf", "fusion_lon": 0.0}, {"is_reserved": 0, "type": "electric_scooter", "bike_id": "beca12ba2eb7f4a583ff1b85241e6b90", "lat": 38.900623333333336, "lon": -76.98558866666667, "rental_uris": {"android": "https://dc.lft.to/lastmile_qr_scan", "ios": "https://dc.lft.to/lastmile_qr_scan"}, "is_disabled": 0, "fusion_lat": 0.0, "name": "beca12ba2eb7f4a583ff1b85241e6b90", "fusion_lon": 0.0}, {"is_reserved": 0, "type": "electric_scooter", "bike_id": "ea0552e42a9dd2ff179fe79fde41db1e", "lat": 38.875626833333335, "lon": -77.006019, "rental_uris": {"android": "https://dc.lft.to/lastmile_qr_scan", "ios": "https://dc.lft.to/lastmile_qr_scan"}, "is_disabled": 0, "fusion_lat": 0.0, "name": "ea0552e42a9dd2ff179fe79fde41db1e", "fusion_lon": 0.0}, {"is_reserved": 0, "type": "electric_scooter", "bike_id": "782e9814d8599219b102a09c545390c8", "lat": 38.9065735, "lon": -77.00896783333333, "rental_uris": {"android": "https://dc.lft.to/lastmile_qr_scan", "ios": "https://dc.lft.to/lastmile_qr_scan"}, "is_disabled": 0, "fusion_lat": 0.0, "name": "782e9814d8599219b102a09c545390c8", "fusion_lon": 0.0}, {"is_reserved": 0, "type": "electric_scooter", "bike_id": "d939c3516ef7e4ef58db222c706a04c3", "lat": 38.92033883333333, "lon": -77.04189416666667, "rental_uris": {"android": "https://dc.lft.to/lastmile_qr_scan", "ios": "https://dc.lft.to/lastmile_qr_scan"}, "is_disabled": 0, "fusion_lat": 0.0, "name": "d939c3516ef7e4ef58db222c706a04c3", "fusion_lon": 0.0}, {"is_reserved": 0, "type": "electric_scooter", "bike_id": "0283d0684f3f7d1d7d3ea92363c9d8d6", "lat": 38.927713833333335, "lon": -77.0277365, "rental_uris": {"android": "https://dc.lft.to/lastmile_qr_scan", "ios": "https://dc.lft.to/lastmile_qr_scan"}, "is_disabled": 0, "fusion_lat": 0.0, "name": "0283d0684f3f7d1d7d3ea92363c9d8d6", "fusion_lon": 0.0}, {"is_reserved": 0, "type": "electric_scooter", "bike_id": "a8234528b04419f82592a11fc30e2fc2", "lat": 38.900318166666665, "lon": -77.01186266666667, "rental_uris": {"android": "https://dc.lft.to/lastmile_qr_scan", "ios": "https://dc.lft.to/lastmile_qr_scan"}, "is_disabled": 0, "fusion_lat": 0.0, "name": "a8234528b04419f82592a11fc30e2fc2", "fusion_lon": 0.0}, {"is_reserved": 0, "type": "electric_scooter", "bike_id": "eb2ff783cf9abdfc53fc3f2af7672b07", "lat": 38.927493, "lon": -77.02450733333333, "rental_uris": {"android": "https://dc.lft.to/lastmile_qr_scan", "ios": "https://dc.lft.to/lastmile_qr_scan"}, "is_disabled": 0, "fusion_lat": 0.0, "name": "eb2ff783cf9abdfc53fc3f2af7672b07", "fusion_lon": 0.0}, {"is_reserved": 0, "type": "electric_scooter", "bike_id": "ba74e70a07b5f26654bb2a2eb2b13fdd", "lat": 38.92840616666667, "lon": -77.05510933333333, "rental_uris": {"android": "https://dc.lft.to/lastmile_qr_scan", "ios": "https://dc.lft.to/lastmile_qr_scan"}, "is_disabled": 0, "fusion_lat": 0.0, "name": "ba74e70a07b5f26654bb2a2eb2b13fdd", "fusion_lon": 0.0}, {"is_reserved": 0, "type": "electric_scooter", "bike_id": "8e2282caacd2163e4584f00cf4bd4733", "lat": 38.916793, "lon": -77.0368815, "rental_uris": {"android": "https://dc.lft.to/lastmile_qr_scan", "ios": "https://dc.lft.to/lastmile_qr_scan"}, "is_disabled": 0, "fusion_lat": 0.0, "name": "8e2282caacd2163e4584f00cf4bd4733", "fusion_lon": 0.0}, {"is_reserved": 0, "type": "electric_scooter", "bike_id": "e3820929edb8cf52e8ac680158b19cc5", "lat": 38.94079416666667, "lon": -77.05494583333333, "rental_uris": {"android": "https://dc.lft.to/lastmile_qr_scan", "ios": "https://dc.lft.to/lastmile_qr_scan"}, "is_disabled": 0, "fusion_lat": 0.0, "name": "e3820929edb8cf52e8ac680158b19cc5", "fusion_lon": 0.0}, {"is_reserved": 0, "type": "electric_scooter", "bike_id": "cecf7b626de26d9cee941e535ea17e6d", "lat": 38.8923275, "lon": -77.03183283333334, "rental_uris": {"android": "https://dc.lft.to/lastmile_qr_scan", "ios": "https://dc.lft.to/lastmile_qr_scan"}, "is_disabled": 0, "fusion_lat": 0.0, "name": "cecf7b626de26d9cee941e535ea17e6d", "fusion_lon": 0.0}, {"is_reserved": 0, "type": "electric_scooter", "bike_id": "8f3875eae556b12582410c219ef312c4", "lat": 38.92204433333333, "lon": -77.04697516666667, "rental_uris": {"android": "https://dc.lft.to/lastmile_qr_scan", "ios": "https://dc.lft.to/lastmile_qr_scan"}, "is_disabled": 0, "fusion_lat": 0.0, "name": "8f3875eae556b12582410c219ef312c4", "fusion_lon": 0.0}, {"is_reserved": 0, "type": "electric_scooter", "bike_id": "e0485aa2aacd14cafb6e866ba5e6d6ce", "lat": 38.88525933333333, "lon": -76.99611216666666, "rental_uris": {"android": "https://dc.lft.to/lastmile_qr_scan", "ios": "https://dc.lft.to/lastmile_qr_scan"}, "is_disabled": 0, "fusion_lat": 0.0, "name": "e0485aa2aacd14cafb6e866ba5e6d6ce", "fusion_lon": 0.0}, {"is_reserved": 0, "type": "electric_scooter", "bike_id": "398a4a987833fbef3f9c9f7e4bcbce36", "lat": 38.916286666666664, "lon": -77.04548966666667, "rental_uris": {"android": "https://dc.lft.to/lastmile_qr_scan", "ios": "https://dc.lft.to/lastmile_qr_scan"}, "is_disabled": 0, "fusion_lat": 0.0, "name": "398a4a987833fbef3f9c9f7e4bcbce36", "fusion_lon": 0.0}, {"is_reserved": 0, "type": "electric_scooter", "bike_id": "22f23a1f99f48be7dccfa8b1bfb1af9d", "lat": 38.90087583333333, "lon": -77.04884166666666, "rental_uris": {"android": "https://dc.lft.to/lastmile_qr_scan", "ios": "https://dc.lft.to/lastmile_qr_scan"}, "is_disabled": 0, "fusion_lat": 0.0, "name": "22f23a1f99f48be7dccfa8b1bfb1af9d", "fusion_lon": 0.0}, {"is_reserved": 0, "type": "electric_scooter", "bike_id": "78938aa6f03fe2089c46c47ea6080405", "lat": 38.89877716666667, "lon": -76.93184633333334, "rental_uris": {"android": "https://dc.lft.to/lastmile_qr_scan", "ios": "https://dc.lft.to/lastmile_qr_scan"}, "is_disabled": 0, "fusion_lat": 0.0, "name": "78938aa6f03fe2089c46c47ea6080405", "fusion_lon": 0.0}, {"is_reserved": 0, "type": "electric_scooter", "bike_id": "6d9c4b1799effe36a01d0bebec62d936", "lat": 38.926276666666666, "lon": -77.03624716666667, "rental_uris": {"android": "https://dc.lft.to/lastmile_qr_scan", "ios": "https://dc.lft.to/lastmile_qr_scan"}, "is_disabled": 0, "fusion_lat": 0.0, "name": "6d9c4b1799effe36a01d0bebec62d936", "fusion_lon": 0.0}, {"is_reserved": 0, "type": "electric_scooter", "bike_id": "43b3b46991aad2191dec9ae4cf8e505f", "lat": 38.917455833333335, "lon": -77.02791266666667, "rental_uris": {"android": "https://dc.lft.to/lastmile_qr_scan", "ios": "https://dc.lft.to/lastmile_qr_scan"}, "is_disabled": 0, "fusion_lat": 0.0, "name": "43b3b46991aad2191dec9ae4cf8e505f", "fusion_lon": 0.0}, {"is_reserved": 0, "type": "electric_scooter", "bike_id": "4f331ca75571e78f9906b1ec47e390e3", "lat": 38.91946633333333, "lon": -77.01370316666667, "rental_uris": {"android": "https://dc.lft.to/lastmile_qr_scan", "ios": "https://dc.lft.to/lastmile_qr_scan"}, "is_disabled": 0, "fusion_lat": 0.0, "name": "4f331ca75571e78f9906b1ec47e390e3", "fusion_lon": 0.0}, {"is_reserved": 0, "type": "electric_scooter", "bike_id": "a2c5f8feb375c6287ddecc6bbf1cc8ba", "lat": 38.906820333333336, "lon": -77.0625135, "rental_uris": {"android": "https://dc.lft.to/lastmile_qr_scan", "ios": "https://dc.lft.to/lastmile_qr_scan"}, "is_disabled": 0, "fusion_lat": 0.0, "name": "a2c5f8feb375c6287ddecc6bbf1cc8ba", "fusion_lon": 0.0}, {"is_reserved": 0, "type": "electric_scooter", "bike_id": "4295b6bc528e329269aa8bbf0790e600", "lat": 38.90362916666667, "lon": -77.031859, "rental_uris": {"android": "https://dc.lft.to/lastmile_qr_scan", "ios": "https://dc.lft.to/lastmile_qr_scan"}, "is_disabled": 0, "fusion_lat": 0.0, "name": "4295b6bc528e329269aa8bbf0790e600", "fusion_lon": 0.0}, {"is_reserved": 0, "type": "electric_scooter", "bike_id": "214096764e001e46af41691c3299da9b", "lat": 38.9141585, "lon": -77.02211466666667, "rental_uris": {"android": "https://dc.lft.to/lastmile_qr_scan", "ios": "https://dc.lft.to/lastmile_qr_scan"}, "is_disabled": 0, "fusion_lat": 0.0, "name": "214096764e001e46af41691c3299da9b", "fusion_lon": 0.0}, {"is_reserved": 0, "type": "electric_scooter", "bike_id": "41e677ae4d359bfa602a0f20e613e1d4", "lat": 38.90473766666667, "lon": -77.007153, "rental_uris": {"android": "https://dc.lft.to/lastmile_qr_scan", "ios": "https://dc.lft.to/lastmile_qr_scan"}, "is_disabled": 0, "fusion_lat": 0.0, "name": "41e677ae4d359bfa602a0f20e613e1d4", "fusion_lon": 0.0}, {"is_reserved": 0, "type": "electric_scooter", "bike_id": "232f25609f72370e3163ba2df478a70b", "lat": 38.8936385, "lon": -76.98682416666666, "rental_uris": {"android": "https://dc.lft.to/lastmile_qr_scan", "ios": "https://dc.lft.to/lastmile_qr_scan"}, "is_disabled": 0, "fusion_lat": 0.0, "name": "232f25609f72370e3163ba2df478a70b", "fusion_lon": 0.0}, {"is_reserved": 0, "type": "electric_scooter", "bike_id": "1b7d05b9fc7ad438fa36abb3b809b667", "lat": 38.9073125, "lon": -77.007046, "rental_uris": {"android": "https://dc.lft.to/lastmile_qr_scan", "ios": "https://dc.lft.to/lastmile_qr_scan"}, "is_disabled": 0, "fusion_lat": 0.0, "name": "1b7d05b9fc7ad438fa36abb3b809b667", "fusion_lon": 0.0}, {"is_reserved": 0, "type": "electric_scooter", "bike_id": "f4512575ced5dac2616ebf35df7fcc92", "lat": 38.91266683333333, "lon": -77.03870383333333, "rental_uris": {"android": "https://dc.lft.to/lastmile_qr_scan", "ios": "https://dc.lft.to/lastmile_qr_scan"}, "is_disabled": 0, "fusion_lat": 0.0, "name": "f4512575ced5dac2616ebf35df7fcc92", "fusion_lon": 0.0}, {"is_reserved": 0, "type": "electric_scooter", "bike_id": "eed0651197aa69b2e62403c041b04af8", "lat": 38.917087, "lon": -77.03871466666666, "rental_uris": {"android": "https://dc.lft.to/lastmile_qr_scan", "ios": "https://dc.lft.to/lastmile_qr_scan"}, "is_disabled": 0, "fusion_lat": 0.0, "name": "eed0651197aa69b2e62403c041b04af8", "fusion_lon": 0.0}, {"is_reserved": 0, "type": "electric_scooter", "bike_id": "cefeac5735f6ff58fc0db64553da3e24", "lat": 38.989897, "lon": -77.033602, "rental_uris": {"android": "https://dc.lft.to/lastmile_qr_scan", "ios": "https://dc.lft.to/lastmile_qr_scan"}, "is_disabled": 0, "fusion_lat": 0.0, "name": "cefeac5735f6ff58fc0db64553da3e24", "fusion_lon": 0.0}, {"is_reserved": 0, "type": "electric_scooter", "bike_id": "eda147afa4fdad52a1f1909ea80ce777", "lat": 38.9228615, "lon": -77.03659716666667, "rental_uris": {"android": "https://dc.lft.to/lastmile_qr_scan", "ios": "https://dc.lft.to/lastmile_qr_scan"}, "is_disabled": 0, "fusion_lat": 0.0, "name": "eda147afa4fdad52a1f1909ea80ce777", "fusion_lon": 0.0}, {"is_reserved": 0, "type": "electric_scooter", "bike_id": "56e791c89f8e9eec597f0bbfea2c12e5", "lat": 38.935797, "lon": -77.03260266666666, "rental_uris": {"android": "https://dc.lft.to/lastmile_qr_scan", "ios": "https://dc.lft.to/lastmile_qr_scan"}, "is_disabled": 0, "fusion_lat": 0.0, "name": "56e791c89f8e9eec597f0bbfea2c12e5", "fusion_lon": 0.0}, {"is_reserved": 0, "type": "electric_scooter", "bike_id": "077287bdc227b680b3d4bad8fd06147c", "lat": 38.9126935, "lon": -77.038712, "rental_uris": {"android": "https://dc.lft.to/lastmile_qr_scan", "ios": "https://dc.lft.to/lastmile_qr_scan"}, "is_disabled": 0, "fusion_lat": 0.0, "name": "077287bdc227b680b3d4bad8fd06147c", "fusion_lon": 0.0}, {"is_reserved": 0, "type": "electric_scooter", "bike_id": "1422da857556620631ae344aefeaf06f", "lat": 38.89493566666667, "lon": -76.92789516666667, "rental_uris": {"android": "https://dc.lft.to/lastmile_qr_scan", "ios": "https://dc.lft.to/lastmile_qr_scan"}, "is_disabled": 0, "fusion_lat": 0.0, "name": "1422da857556620631ae344aefeaf06f", "fusion_lon": 0.0}, {"is_reserved": 0, "type": "electric_scooter", "bike_id": "f5bca7fb8ca40712689f0201534e7c8e", "lat": 38.898782, "lon": -76.93181833333334, "rental_uris": {"android": "https://dc.lft.to/lastmile_qr_scan", "ios": "https://dc.lft.to/lastmile_qr_scan"}, "is_disabled": 0, "fusion_lat": 0.0, "name": "f5bca7fb8ca40712689f0201534e7c8e", "fusion_lon": 0.0}, {"is_reserved": 0, "type": "electric_scooter", "bike_id": "9ea9e06f34cfe99361d506fde0d765c1", "lat": 38.92634666666667, "lon": -77.035015, "rental_uris": {"android": "https://dc.lft.to/lastmile_qr_scan", "ios": "https://dc.lft.to/lastmile_qr_scan"}, "is_disabled": 0, "fusion_lat": 0.0, "name": "9ea9e06f34cfe99361d506fde0d765c1", "fusion_lon": 0.0}, {"is_reserved": 0, "type": "electric_scooter", "bike_id": "3ddb7926bb684c2fffb99f3948023d56", "lat": 38.887400666666665, "lon": -77.01351833333334, "rental_uris": {"android": "https://dc.lft.to/lastmile_qr_scan", "ios": "https://dc.lft.to/lastmile_qr_scan"}, "is_disabled": 0, "fusion_lat": 0.0, "name": "3ddb7926bb684c2fffb99f3948023d56", "fusion_lon": 0.0}, {"is_reserved": 0, "type": "electric_bike", "bike_id": "92f2db8fde62c6bcf6a560920fedfff9", "lat": 38.905185833333334, "lon": -77.04186783333333, "rental_uris": {"android": "https://dc.lft.to/lastmile_qr_scan", "ios": "https://dc.lft.to/lastmile_qr_scan"}, "is_disabled": 0, "fusion_lat": 0.0, "name": "92f2db8fde62c6bcf6a560920fedfff9", "fusion_lon": 0.0}, {"is_reserved": 0, "type": "electric_scooter", "bike_id": "8ff4597e6297d1b06028e12b50cce6d0", "lat": 38.916938333333334, "lon": -77.02595883333333, "rental_uris": {"android": "https://dc.lft.to/lastmile_qr_scan", "ios": "https://dc.lft.to/lastmile_qr_scan"}, "is_disabled": 0, "fusion_lat": 0.0, "name": "8ff4597e6297d1b06028e12b50cce6d0", "fusion_lon": 0.0}, {"is_reserved": 0, "type": "electric_scooter", "bike_id": "48e8832af4d9344cbec2e2015abbd6f0", "lat": 38.9061125, "lon": -77.00905066666667, "rental_uris": {"android": "https://dc.lft.to/lastmile_qr_scan", "ios": "https://dc.lft.to/lastmile_qr_scan"}, "is_disabled": 0, "fusion_lat": 0.0, "name": "48e8832af4d9344cbec2e2015abbd6f0", "fusion_lon": 0.0}, {"is_reserved": 0, "type": "electric_scooter", "bike_id": "206fe0d5c34811890fea3859e267eeaa", "lat": 38.8999095, "lon": -77.02282566666666, "rental_uris": {"android": "https://dc.lft.to/lastmile_qr_scan", "ios": "https://dc.lft.to/lastmile_qr_scan"}, "is_disabled": 0, "fusion_lat": 0.0, "name": "206fe0d5c34811890fea3859e267eeaa", "fusion_lon": 0.0}, {"is_reserved": 0, "type": "electric_scooter", "bike_id": "9321868468d5e19fc0f13807c0eba6c8", "lat": 38.9118365, "lon": -77.00498866666666, "rental_uris": {"android": "https://dc.lft.to/lastmile_qr_scan", "ios": "https://dc.lft.to/lastmile_qr_scan"}, "is_disabled": 0, "fusion_lat": 0.0, "name": "9321868468d5e19fc0f13807c0eba6c8", "fusion_lon": 0.0}, {"is_reserved": 0, "type": "electric_scooter", "bike_id": "145f32eb5263dafa95d8020a53d2bca2", "lat": 38.92564683333333, "lon": -76.97006433333334, "rental_uris": {"android": "https://dc.lft.to/lastmile_qr_scan", "ios": "https://dc.lft.to/lastmile_qr_scan"}, "is_disabled": 0, "fusion_lat": 0.0, "name": "145f32eb5263dafa95d8020a53d2bca2", "fusion_lon": 0.0}, {"is_reserved": 0, "type": "electric_scooter", "bike_id": "3c2c07e472108dbf6105fe1f9d355c9b", "lat": 38.900429, "lon": -76.99156383333333, "rental_uris": {"android": "https://dc.lft.to/lastmile_qr_scan", "ios": "https://dc.lft.to/lastmile_qr_scan"}, "is_disabled": 0, "fusion_lat": 0.0, "name": "3c2c07e472108dbf6105fe1f9d355c9b", "fusion_lon": 0.0}, {"is_reserved": 0, "type": "electric_scooter", "bike_id": "e3303ed4e82191a07f305db76db3f4f7", "lat": 38.8992865, "lon": -77.0320715, "rental_uris": {"android": "https://dc.lft.to/lastmile_qr_scan", "ios": "https://dc.lft.to/lastmile_qr_scan"}, "is_disabled": 0, "fusion_lat": 0.0, "name": "e3303ed4e82191a07f305db76db3f4f7", "fusion_lon": 0.0}, {"is_reserved": 0, "type": "electric_scooter", "bike_id": "4a7ac0a621bcbb8f0125b59b9005d979", "lat": 38.922957333333336, "lon": -76.997688, "rental_uris": {"android": "https://dc.lft.to/lastmile_qr_scan", "ios": "https://dc.lft.to/lastmile_qr_scan"}, "is_disabled": 0, "fusion_lat": 0.0, "name": "4a7ac0a621bcbb8f0125b59b9005d979", "fusion_lon": 0.0}, {"is_reserved": 0, "type": "electric_scooter", "bike_id": "f2bbb07f329adf2dde3a01216efd1e03", "lat": 38.929675833333334, "lon": -77.02343133333333, "rental_uris": {"android": "https://dc.lft.to/lastmile_qr_scan", "ios": "https://dc.lft.to/lastmile_qr_scan"}, "is_disabled": 0, "fusion_lat": 0.0, "name": "f2bbb07f329adf2dde3a01216efd1e03", "fusion_lon": 0.0}, {"is_reserved": 0, "type": "electric_bike", "bike_id": "114ab26c17d1b9f42582286bffce85c7", "lat": 38.95134383333333, "lon": -76.96592, "rental_uris": {"android": "https://dc.lft.to/lastmile_qr_scan", "ios": "https://dc.lft.to/lastmile_qr_scan"}, "is_disabled": 0, "fusion_lat": 0.0, "name": "114ab26c17d1b9f42582286bffce85c7", "fusion_lon": 0.0}, {"is_reserved": 0, "type": "electric_scooter", "bike_id": "89f692383aa511f3d1ebcb2b282a166d", "lat": 38.9473135, "lon": -77.0245885, "rental_uris": {"android": "https://dc.lft.to/lastmile_qr_scan", "ios": "https://dc.lft.to/lastmile_qr_scan"}, "is_disabled": 0, "fusion_lat": 0.0, "name": "89f692383aa511f3d1ebcb2b282a166d", "fusion_lon": 0.0}, {"is_reserved": 0, "type": "electric_scooter", "bike_id": "e15dae0171da2f0050fce8a4fc155363", "lat": 38.93090216666667, "lon": -77.03442283333334, "rental_uris": {"android": "https://dc.lft.to/lastmile_qr_scan", "ios": "https://dc.lft.to/lastmile_qr_scan"}, "is_disabled": 0, "fusion_lat": 0.0, "name": "e15dae0171da2f0050fce8a4fc155363", "fusion_lon": 0.0}, {"is_reserved": 0, "type": "electric_scooter", "bike_id": "b9d9723cc093d271cdb57600bda6681e", "lat": 38.89361666666667, "lon": -76.9410655, "rental_uris": {"android": "https://dc.lft.to/lastmile_qr_scan", "ios": "https://dc.lft.to/lastmile_qr_scan"}, "is_disabled": 0, "fusion_lat": 0.0, "name": "b9d9723cc093d271cdb57600bda6681e", "fusion_lon": 0.0}, {"is_reserved": 0, "type": "electric_scooter", "bike_id": "99cd0a91b20fd3fce3e2607da3be0c2a", "lat": 38.93371533333333, "lon": -77.0572985, "rental_uris": {"android": "https://dc.lft.to/lastmile_qr_scan", "ios": "https://dc.lft.to/lastmile_qr_scan"}, "is_disabled": 0, "fusion_lat": 0.0, "name": "99cd0a91b20fd3fce3e2607da3be0c2a", "fusion_lon": 0.0}, {"is_reserved": 0, "type": "electric_scooter", "bike_id": "187a71323c91be2b8f0b8d323dd1a360", "lat": 38.89222016666667, "lon": -77.023157, "rental_uris": {"android": "https://dc.lft.to/lastmile_qr_scan", "ios": "https://dc.lft.to/lastmile_qr_scan"}, "is_disabled": 0, "fusion_lat": 0.0, "name": "187a71323c91be2b8f0b8d323dd1a360", "fusion_lon": 0.0}, {"is_reserved": 0, "type": "electric_scooter", "bike_id": "b7341b6c76dc8fe7ec0481eb9e9ab326", "lat": 38.922378, "lon": -77.02127216666666, "rental_uris": {"android": "https://dc.lft.to/lastmile_qr_scan", "ios": "https://dc.lft.to/lastmile_qr_scan"}, "is_disabled": 0, "fusion_lat": 0.0, "name": "b7341b6c76dc8fe7ec0481eb9e9ab326", "fusion_lon": 0.0}, {"is_reserved": 0, "type": "electric_scooter", "bike_id": "70a9e7fe31a65c7ddb0674d976e77d66", "lat": 38.937177, "lon": -77.03634433333333, "rental_uris": {"android": "https://dc.lft.to/lastmile_qr_scan", "ios": "https://dc.lft.to/lastmile_qr_scan"}, "is_disabled": 0, "fusion_lat": 0.0, "name": "70a9e7fe31a65c7ddb0674d976e77d66", "fusion_lon": 0.0}, {"is_reserved": 0, "type": "electric_scooter", "bike_id": "23a9a5c64388f004a0bed42689eb2406", "lat": 38.90063116666666, "lon": -77.04956866666667, "rental_uris": {"android": "https://dc.lft.to/lastmile_qr_scan", "ios": "https://dc.lft.to/lastmile_qr_scan"}, "is_disabled": 0, "fusion_lat": 0.0, "name": "23a9a5c64388f004a0bed42689eb2406", "fusion_lon": 0.0}, {"is_reserved": 0, "type": "electric_scooter", "bike_id": "a878e348e8c42ff4282b8d4fb2e98ff2", "lat": 38.89244883333333, "lon": -77.03341866666666, "rental_uris": {"android": "https://dc.lft.to/lastmile_qr_scan", "ios": "https://dc.lft.to/lastmile_qr_scan"}, "is_disabled": 0, "fusion_lat": 0.0, "name": "a878e348e8c42ff4282b8d4fb2e98ff2", "fusion_lon": 0.0}, {"is_reserved": 0, "type": "electric_bike", "bike_id": "d263e54ce2f75dfcf9bf636a1e71a551", "lat": 38.883419333333336, "lon": -76.936275, "rental_uris": {"android": "https://dc.lft.to/lastmile_qr_scan", "ios": "https://dc.lft.to/lastmile_qr_scan"}, "is_disabled": 0, "fusion_lat": 0.0, "name": "d263e54ce2f75dfcf9bf636a1e71a551", "fusion_lon": 0.0}, {"is_reserved": 0, "type": "electric_scooter", "bike_id": "1d3a523d1b51225410e29916e509d07d", "lat": 38.93456716666667, "lon": -77.02950316666667, "rental_uris": {"android": "https://dc.lft.to/lastmile_qr_scan", "ios": "https://dc.lft.to/lastmile_qr_scan"}, "is_disabled": 0, "fusion_lat": 0.0, "name": "1d3a523d1b51225410e29916e509d07d", "fusion_lon": 0.0}, {"is_reserved": 0, "type": "electric_scooter", "bike_id": "83446bee317b96aea7edc1d9b8d93dbf", "lat": 38.921102166666664, "lon": -77.02219333333333, "rental_uris": {"android": "https://dc.lft.to/lastmile_qr_scan", "ios": "https://dc.lft.to/lastmile_qr_scan"}, "is_disabled": 0, "fusion_lat": 0.0, "name": "83446bee317b96aea7edc1d9b8d93dbf", "fusion_lon": 0.0}, {"is_reserved": 0, "type": "electric_scooter", "bike_id": "02803c8896b725e6cfc278dea8f8bf51", "lat": 38.93070616666667, "lon": -77.03812983333333, "rental_uris": {"android": "https://dc.lft.to/lastmile_qr_scan", "ios": "https://dc.lft.to/lastmile_qr_scan"}, "is_disabled": 0, "fusion_lat": 0.0, "name": "02803c8896b725e6cfc278dea8f8bf51", "fusion_lon": 0.0}, {"is_reserved": 0, "type": "electric_scooter", "bike_id": "5ecda4005d0c9d11346d09911f19008f", "lat": 38.900085, "lon": -77.0273165, "rental_uris": {"android": "https://dc.lft.to/lastmile_qr_scan", "ios": "https://dc.lft.to/lastmile_qr_scan"}, "is_disabled": 0, "fusion_lat": 0.0, "name": "5ecda4005d0c9d11346d09911f19008f", "fusion_lon": 0.0}, {"is_reserved": 0, "type": "electric_scooter", "bike_id": "29fa4a94cc091b0aa278ac1031e4439e", "lat": 38.907323, "lon": -77.02441783333333, "rental_uris": {"android": "https://dc.lft.to/lastmile_qr_scan", "ios": "https://dc.lft.to/lastmile_qr_scan"}, "is_disabled": 0, "fusion_lat": 0.0, "name": "29fa4a94cc091b0aa278ac1031e4439e", "fusion_lon": 0.0}, {"is_reserved": 0, "type": "electric_scooter", "bike_id": "54874e8e9bbd0fa4b7f99a9a23d86ea9", "lat": 38.919169, "lon": -77.03431483333334, "rental_uris": {"android": "https://dc.lft.to/lastmile_qr_scan", "ios": "https://dc.lft.to/lastmile_qr_scan"}, "is_disabled": 0, "fusion_lat": 0.0, "name": "54874e8e9bbd0fa4b7f99a9a23d86ea9", "fusion_lon": 0.0}, {"is_reserved": 0, "type": "electric_scooter", "bike_id": "e4c1a97e78e965057693bf95f63ba2a1", "lat": 38.92382283333333, "lon": -77.02958466666666, "rental_uris": {"android": "https://dc.lft.to/lastmile_qr_scan", "ios": "https://dc.lft.to/lastmile_qr_scan"}, "is_disabled": 0, "fusion_lat": 0.0, "name": "e4c1a97e78e965057693bf95f63ba2a1", "fusion_lon": 0.0}, {"is_reserved": 0, "type": "electric_scooter", "bike_id": "da80f4d59a32e26f9a473cf30d379194", "lat": 38.92302933333333, "lon": -77.0303455, "rental_uris": {"android": "https://dc.lft.to/lastmile_qr_scan", "ios": "https://dc.lft.to/lastmile_qr_scan"}, "is_disabled": 0, "fusion_lat": 0.0, "name": "da80f4d59a32e26f9a473cf30d379194", "fusion_lon": 0.0}, {"is_reserved": 0, "type": "electric_scooter", "bike_id": "0bec4d8a39d8de77eed6433a2ef9fcf7", "lat": 38.897003833333336, "lon": -77.0502325, "rental_uris": {"android": "https://dc.lft.to/lastmile_qr_scan", "ios": "https://dc.lft.to/lastmile_qr_scan"}, "is_disabled": 0, "fusion_lat": 0.0, "name": "0bec4d8a39d8de77eed6433a2ef9fcf7", "fusion_lon": 0.0}, {"is_reserved": 0, "type": "electric_scooter", "bike_id": "c496dba789ff8ec1822841fbcff3b4fc", "lat": 38.9212095, "lon": -77.03185483333333, "rental_uris": {"android": "https://dc.lft.to/lastmile_qr_scan", "ios": "https://dc.lft.to/lastmile_qr_scan"}, "is_disabled": 0, "fusion_lat": 0.0, "name": "c496dba789ff8ec1822841fbcff3b4fc", "fusion_lon": 0.0}, {"is_reserved": 0, "type": "electric_scooter", "bike_id": "4f25ab0f5a8d4d19ce88a9796fc1c42e", "lat": 38.899059, "lon": -77.03347116666667, "rental_uris": {"android": "https://dc.lft.to/lastmile_qr_scan", "ios": "https://dc.lft.to/lastmile_qr_scan"}, "is_disabled": 0, "fusion_lat": 0.0, "name": "4f25ab0f5a8d4d19ce88a9796fc1c42e", "fusion_lon": 0.0}, {"is_reserved": 0, "type": "electric_scooter", "bike_id": "29cc786918c7da20ac3a86a5eaf0a0f1", "lat": 38.90580966666667, "lon": -77.00615483333333, "rental_uris": {"android": "https://dc.lft.to/lastmile_qr_scan", "ios": "https://dc.lft.to/lastmile_qr_scan"}, "is_disabled": 0, "fusion_lat": 0.0, "name": "29cc786918c7da20ac3a86a5eaf0a0f1", "fusion_lon": 0.0}, {"is_reserved": 0, "type": "electric_scooter", "bike_id": "012108e4679b620b0f5be6d9888bd840", "lat": 38.92166066666667, "lon": -77.033802, "rental_uris": {"android": "https://dc.lft.to/lastmile_qr_scan", "ios": "https://dc.lft.to/lastmile_qr_scan"}, "is_disabled": 0, "fusion_lat": 0.0, "name": "012108e4679b620b0f5be6d9888bd840", "fusion_lon": 0.0}, {"is_reserved": 0, "type": "electric_scooter", "bike_id": "02fe8ab1665c4437df1014276b23ea01", "lat": 38.8801405, "lon": -76.99747733333334, "rental_uris": {"android": "https://dc.lft.to/lastmile_qr_scan", "ios": "https://dc.lft.to/lastmile_qr_scan"}, "is_disabled": 0, "fusion_lat": 0.0, "name": "02fe8ab1665c4437df1014276b23ea01", "fusion_lon": 0.0}, {"is_reserved": 0, "type": "electric_scooter", "bike_id": "a1a6e79a44423b219a65ace43f3ab753", "lat": 38.9294225, "lon": -77.03769466666667, "rental_uris": {"android": "https://dc.lft.to/lastmile_qr_scan", "ios": "https://dc.lft.to/lastmile_qr_scan"}, "is_disabled": 0, "fusion_lat": 0.0, "name": "a1a6e79a44423b219a65ace43f3ab753", "fusion_lon": 0.0}, {"is_reserved": 0, "type": "electric_scooter", "bike_id": "70ea2719a0b6174196698a32743fef9c", "lat": 38.93486133333333, "lon": -77.03602566666666, "rental_uris": {"android": "https://dc.lft.to/lastmile_qr_scan", "ios": "https://dc.lft.to/lastmile_qr_scan"}, "is_disabled": 0, "fusion_lat": 0.0, "name": "70ea2719a0b6174196698a32743fef9c", "fusion_lon": 0.0}, {"is_reserved": 0, "type": "electric_scooter", "bike_id": "46fea8c04f1d2c63631b8796e219741d", "lat": 38.9247975, "lon": -77.02717766666666, "rental_uris": {"android": "https://dc.lft.to/lastmile_qr_scan", "ios": "https://dc.lft.to/lastmile_qr_scan"}, "is_disabled": 0, "fusion_lat": 0.0, "name": "46fea8c04f1d2c63631b8796e219741d", "fusion_lon": 0.0}, {"is_reserved": 0, "type": "electric_scooter", "bike_id": "de2fd990daa552668853da3185cd94bd", "lat": 38.8935265, "lon": -77.01731716666667, "rental_uris": {"android": "https://dc.lft.to/lastmile_qr_scan", "ios": "https://dc.lft.to/lastmile_qr_scan"}, "is_disabled": 0, "fusion_lat": 0.0, "name": "de2fd990daa552668853da3185cd94bd", "fusion_lon": 0.0}, {"is_reserved": 0, "type": "electric_scooter", "bike_id": "09683737d7c41438acbad4a469849ddb", "lat": 38.887866333333335, "lon": -77.00341533333334, "rental_uris": {"android": "https://dc.lft.to/lastmile_qr_scan", "ios": "https://dc.lft.to/lastmile_qr_scan"}, "is_disabled": 0, "fusion_lat": 0.0, "name": "09683737d7c41438acbad4a469849ddb", "fusion_lon": 0.0}, {"is_reserved": 0, "type": "electric_scooter", "bike_id": "252077020c7463f973e366fd108b4e46", "lat": 38.919633833333336, "lon": -77.02393583333334, "rental_uris": {"android": "https://dc.lft.to/lastmile_qr_scan", "ios": "https://dc.lft.to/lastmile_qr_scan"}, "is_disabled": 0, "fusion_lat": 0.0, "name": "252077020c7463f973e366fd108b4e46", "fusion_lon": 0.0}, {"is_reserved": 0, "type": "electric_scooter", "bike_id": "09a258a8c00245951c60ce8f1fef42f7", "lat": 38.88613433333333, "lon": -76.996602, "rental_uris": {"android": "https://dc.lft.to/lastmile_qr_scan", "ios": "https://dc.lft.to/lastmile_qr_scan"}, "is_disabled": 0, "fusion_lat": 0.0, "name": "09a258a8c00245951c60ce8f1fef42f7", "fusion_lon": 0.0}, {"is_reserved": 0, "type": "electric_scooter", "bike_id": "80f3d4cab00ec6f5d57072b376325ad1", "lat": 38.920980166666666, "lon": -77.03253983333333, "rental_uris": {"android": "https://dc.lft.to/lastmile_qr_scan", "ios": "https://dc.lft.to/lastmile_qr_scan"}, "is_disabled": 0, "fusion_lat": 0.0, "name": "80f3d4cab00ec6f5d57072b376325ad1", "fusion_lon": 0.0}, {"is_reserved": 0, "type": "electric_scooter", "bike_id": "6b023469839973d4de4eed0160c016bc", "lat": 38.91709433333333, "lon": -77.03871083333334, "rental_uris": {"android": "https://dc.lft.to/lastmile_qr_scan", "ios": "https://dc.lft.to/lastmile_qr_scan"}, "is_disabled": 0, "fusion_lat": 0.0, "name": "6b023469839973d4de4eed0160c016bc", "fusion_lon": 0.0}, {"is_reserved": 0, "type": "electric_scooter", "bike_id": "a7bd75e00a49c18006f28b664e54473d", "lat": 38.89346066666667, "lon": -77.0282835, "rental_uris": {"android": "https://dc.lft.to/lastmile_qr_scan", "ios": "https://dc.lft.to/lastmile_qr_scan"}, "is_disabled": 0, "fusion_lat": 0.0, "name": "a7bd75e00a49c18006f28b664e54473d", "fusion_lon": 0.0},