{"data": {"bikes": [{"bike_id": "08fba295c925bdf30d20be2e4e340bcc", "is_reserved": 0, "fusion_lon": 0.0, "lat": 38.90377383333333, "is_disabled": 0, "name": "08fba295c925bdf30d20be2e4e340bcc", "fusion_lat": 0.0, "rental_uris": {"ios": "https://dc.lft.to/lastmile_qr_scan", "android": "https://dc.lft.to/lastmile_qr_scan"}, "lon": -77.04459666666666, "type": "electric_scooter"}, {"bike_id": "130592c61311a13d94e981d6c599f5d8", "is_reserved": 0, "fusion_lon": 0.0, "lat": 38.852241666666664, "is_disabled": 0, "name": "130592c61311a13d94e981d6c599f5d8", "fusion_lat": 0.0, "rental_uris": {"ios": "https://dc.lft.to/lastmile_qr_scan", "android": "https://dc.lft.to/lastmile_qr_scan"}, "lon": -77.12957066666667, "type": "electric_bike"}, {"bike_id": "88fe67a7e0b1efb3a7e0b2d7ed9af3ec", "is_reserved": 0, "fusion_lon": 0.0, "lat": 38.90062416666667, "is_disabled": 0, "name": "88fe67a7e0b1efb3a7e0b2d7ed9af3ec", "fusion_lat": 0.0, "rental_uris": {"ios": "https://dc.lft.to/lastmile_qr_scan", "android": "https://dc.lft.to/lastmile_qr_scan"}, "lon": -77.00753833333333, "type": "electric_scooter"}, {"bike_id": "a8df531f6cbbaaa71b19d16def1b717f", "is_reserved": 0, "fusion_lon": 0.0, "lat": 38.8655945, "is_disabled": 0, "name": "a8df531f6cbbaaa71b19d16def1b717f", "fusion_lat": 0.0, "rental_uris": {"ios": "https://dc.lft.to/lastmile_qr_scan", "android": "https://dc.lft.to/lastmile_qr_scan"}, "lon": -76.98951566666666, "type": "electric_scooter"}, {"bike_id": "3cbcb99c4cdc8c7797d2d1965e77e310", "is_reserved": 0, "fusion_lon": 0.0, "lat": 38.8659265, "is_disabled": 0, "name": "3cbcb99c4cdc8c7797d2d1965e77e310", "fusion_lat": 0.0, "rental_uris": {"ios": "https://dc.lft.to/lastmile_qr_scan", "android": "https://dc.lft.to/lastmile_qr_scan"}, "lon": -76.932294, "type": "electric_bike"}, {"bike_id": "83f55694c8e39a0fe01fd60fcdb9d605", "is_reserved": 0, "fusion_lon": 0.0, "lat": 38.939506, "is_disabled": 0, "name": "83f55694c8e39a0fe01fd60fcdb9d605", "fusion_lat": 0.0, "rental_uris": {"ios": "https://dc.lft.to/lastmile_qr_scan", "android": "https://dc.lft.to/lastmile_qr_scan"}, "lon": -77.032646, "type": "electric_scooter"}, {"bike_id": "f40826d15727bb215bbf51f9cf7a7e1d", "is_reserved": 0, "fusion_lon": 0.0, "lat": 38.90411733333333, "is_disabled": 0, "name": "f40826d15727bb215bbf51f9cf7a7e1d", "fusion_lat": 0.0, "rental_uris": {"ios": "https://dc.lft.to/lastmile_qr_scan", "android": "https://dc.lft.to/lastmile_qr_scan"}, "lon": -77.03443316666667, "type": "electric_scooter"}, {"bike_id": "5f407db04030f503b9c056cec66987e0", "is_reserved": 0, "fusion_lon": 0.0, "lat": 38.892311166666666, "is_disabled": 0, "name": "5f407db04030f503b9c056cec66987e0", "fusion_lat": 0.0, "rental_uris": {"ios": "https://dc.lft.to/lastmile_qr_scan", "android": "https://dc.lft.to/lastmile_qr_scan"}, "lon": -77.02586716666667, "type": "electric_scooter"}, {"bike_id": "cd22fae0fc479bb40841535f84040ae1", "is_reserved": 0, "fusion_lon": 0.0, "lat": 38.921249, "is_disabled": 0, "name": "cd22fae0fc479bb40841535f84040ae1", "fusion_lat": 0.0, "rental_uris": {"ios": "https://dc.lft.to/lastmile_qr_scan", "android": "https://dc.lft.to/lastmile_qr_scan"}, "lon": -77.01213933333334, "type": "electric_scooter"}, {"bike_id": "523c6b955f01b524a587af7b5228533d", "is_reserved": 0, "fusion_lon": 0.0, "lat": 38.985944, "is_disabled": 0, "name": "523c6b955f01b524a587af7b5228533d", "fusion_lat": 0.0, "rental_uris": {"ios": "https://dc.lft.to/lastmile_qr_scan", "android": "https://dc.lft.to/lastmile_qr_scan"}, "lon": -77.03754216666667, "type": "electric_bike"}, {"bike_id": "f19697bac2ef9c5fb1a95362edaa178f", "is_reserved": 0, "fusion_lon": 0.0, "lat": 38.932287, "is_disabled": 0, "name": "f19697bac2ef9c5fb1a95362edaa178f", "fusion_lat": 0.0, "rental_uris": {"ios": "https://dc.lft.to/lastmile_qr_scan", "android": "https://dc.lft.to/lastmile_qr_scan"}, "lon": -77.028333, "type": "electric_scooter"}, {"bike_id": "8100d0f1e7cbd3665fa92f3a9d8fa53c", "is_reserved": 0, "fusion_lon": 0.0, "lat": 38.892202833333336, "is_disabled": 0, "name": "8100d0f1e7cbd3665fa92f3a9d8fa53c", "fusion_lat": 0.0, "rental_uris": {"ios": "https://dc.lft.to/lastmile_qr_scan", "android": "https://dc.lft.to/lastmile_qr_scan"}, "lon": -77.027764, "type": "electric_scooter"}, {"bike_id": "6ca7a6a99b09949dc81d2f51602a15f0", "is_reserved": 0, "fusion_lon": 0.0, "lat": 38.89617066666667, "is_disabled": 0, "name": "6ca7a6a99b09949dc81d2f51602a15f0", "fusion_lat": 0.0, "rental_uris": {"ios": "https://dc.lft.to/lastmile_qr_scan", "android": "https://dc.lft.to/lastmile_qr_scan"}, "lon": -76.99065533333334, "type": "electric_scooter"}, {"bike_id": "278d10bf0c2265c2035db7e47c403b96", "is_reserved": 0, "fusion_lon": 0.0, "lat": 38.902792, "is_disabled": 0, "name": "278d10bf0c2265c2035db7e47c403b96", "fusion_lat": 0.0, "rental_uris": {"ios": "https://dc.lft.to/lastmile_qr_scan", "android": "https://dc.lft.to/lastmile_qr_scan"}, "lon": -77.04071666666667, "type": "electric_scooter"}, {"bike_id": "4a29c48db0013a8bd684e4601dd02be2", "is_reserved": 0, "fusion_lon": 0.0, "lat": 38.93884383333334, "is_disabled": 0, "name": "4a29c48db0013a8bd684e4601dd02be2", "fusion_lat": 0.0, "rental_uris": {"ios": "https://dc.lft.to/lastmile_qr_scan", "android": "https://dc.lft.to/lastmile_qr_scan"}, "lon": -77.03282266666666, "type": "electric_scooter"}, {"bike_id": "b1ae257b1a81ad56869d2ad67cc0f2f9", "is_reserved": 0, "fusion_lon": 0.0, "lat": 38.926540833333334, "is_disabled": 0, "name": "b1ae257b1a81ad56869d2ad67cc0f2f9", "fusion_lat": 0.0, "rental_uris": {"ios": "https://dc.lft.to/lastmile_qr_scan", "android": "https://dc.lft.to/lastmile_qr_scan"}, "lon": -77.037094, "type": "electric_scooter"}, {"bike_id": "06dc640cd45e4cc59d0c113282c482c9", "is_reserved": 0, "fusion_lon": 0.0, "lat": 38.923647, "is_disabled": 0, "name": "06dc640cd45e4cc59d0c113282c482c9", "fusion_lat": 0.0, "rental_uris": {"ios": "https://dc.lft.to/lastmile_qr_scan", "android": "https://dc.lft.to/lastmile_qr_scan"}, "lon": -77.0192255, "type": "electric_scooter"}, {"bike_id": "fbbddd6cd7c23bb5bd6872f74a95ea9b", "is_reserved": 0, "fusion_lon": 0.0, "lat": 38.927523, "is_disabled": 0, "name": "fbbddd6cd7c23bb5bd6872f74a95ea9b", "fusion_lat": 0.0, "rental_uris": {"ios": "https://dc.lft.to/lastmile_qr_scan", "android": "https://dc.lft.to/lastmile_qr_scan"}, "lon": -77.05388716666667, "type": "electric_scooter"}, {"bike_id": "09e31b2253389dfaea906ba65fb7902e", "is_reserved": 0, "fusion_lon": 0.0, "lat": 38.92348716666667, "is_disabled": 0, "name": "09e31b2253389dfaea906ba65fb7902e", "fusion_lat": 0.0, "rental_uris": {"ios": "https://dc.lft.to/lastmile_qr_scan", "android": "https://dc.lft.to/lastmile_qr_scan"}, "lon": -77.01911933333334, "type": "electric_scooter"}, {"bike_id": "affa94cc88bb3c97212d60331894788b", "is_reserved": 0, "fusion_lon": 0.0, "lat": 38.984642666666666, "is_disabled": 0, "name": "affa94cc88bb3c97212d60331894788b", "fusion_lat": 0.0, "rental_uris": {"ios": "https://dc.lft.to/lastmile_qr_scan", "android": "https://dc.lft.to/lastmile_qr_scan"}, "lon": -76.955255, "type": "electric_bike"}, {"bike_id": "aaa1be4adc6eb8e7efb3c15525ae4e4f", "is_reserved": 0, "fusion_lon": 0.0, "lat": 38.939755, "is_disabled": 0, "name": "aaa1be4adc6eb8e7efb3c15525ae4e4f", "fusion_lat": 0.0, "rental_uris": {"ios": "https://dc.lft.to/lastmile_qr_scan", "android": "https://dc.lft.to/lastmile_qr_scan"}, "lon": -77.03589883333333, "type": "electric_scooter"}, {"bike_id": "366f2a3c7bd6425440c48a797bbd830c", "is_reserved": 0, "fusion_lon": 0.0, "lat": 38.894799666666664, "is_disabled": 0, "name": "366f2a3c7bd6425440c48a797bbd830c", "fusion_lat": 0.0, "rental_uris": {"ios": "https://dc.lft.to/lastmile_qr_scan", "android": "https://dc.lft.to/lastmile_qr_scan"}, "lon": -77.049986, "type": "electric_scooter"}, {"bike_id": "458349687f81dc692a5f4ecb017d552c", "is_reserved": 0, "fusion_lon": 0.0, "lat": 38.90527133333333, "is_disabled": 0, "name": "458349687f81dc692a5f4ecb017d552c", "fusion_lat": 0.0, "rental_uris": {"ios": "https://dc.lft.to/lastmile_qr_scan", "android": "https://dc.lft.to/lastmile_qr_scan"}, "lon": -77.04473866666666, "type": "electric_scooter"}, {"bike_id": "0bda5795239c0444fd685e176af46ddd", "is_reserved": 0, "fusion_lon": 0.0, "lat": 38.9236875, "is_disabled": 0, "name": "0bda5795239c0444fd685e176af46ddd", "fusion_lat": 0.0, "rental_uris": {"ios": "https://dc.lft.to/lastmile_qr_scan", "android": "https://dc.lft.to/lastmile_qr_scan"}, "lon": -77.02054516666666, "type": "electric_scooter"}, {"bike_id": "9d8b8b694f187279923a1f0125e3f7c1", "is_reserved": 0, "fusion_lon": 0.0, "lat": 38.9053815, "is_disabled": 0, "name": "9d8b8b694f187279923a1f0125e3f7c1", "fusion_lat": 0.0, "rental_uris": {"ios": "https://dc.lft.to/lastmile_qr_scan", "android": "https://dc.lft.to/lastmile_qr_scan"}, "lon": -77.05020916666666, "type": "electric_scooter"}, {"bike_id": "fccd2f5369c607a63d0cf11e69915191", "is_reserved": 0, "fusion_lon": 0.0, "lat": 38.90269333333333, "is_disabled": 0, "name": "fccd2f5369c607a63d0cf11e69915191", "fusion_lat": 0.0, "rental_uris": {"ios": "https://dc.lft.to/lastmile_qr_scan", "android": "https://dc.lft.to/lastmile_qr_scan"}, "lon": -77.06020283333334, "type": "electric_scooter"}, {"bike_id": "d136cd451cc3cce47fe7a97fcd291b9c", "is_reserved": 0, "fusion_lon": 0.0, "lat": 38.90507816666667, "is_disabled": 0, "name": "d136cd451cc3cce47fe7a97fcd291b9c", "fusion_lat": 0.0, "rental_uris": {"ios": "https://dc.lft.to/lastmile_qr_scan", "android": "https://dc.lft.to/lastmile_qr_scan"}, "lon": -77.05693533333333, "type": "electric_bike"}, {"bike_id": "46c118cbf91c09bb8e97abf5fcd14e63", "is_reserved": 0, "fusion_lon": 0.0, "lat": 38.90512916666667, "is_disabled": 0, "name": "46c118cbf91c09bb8e97abf5fcd14e63", "fusion_lat": 0.0, "rental_uris": {"ios": "https://dc.lft.to/lastmile_qr_scan", "android": "https://dc.lft.to/lastmile_qr_scan"}, "lon": -77.041473, "type": "electric_scooter"}, {"bike_id": "71be0ceef4c4062a983855a9ffad90c6", "is_reserved": 0, "fusion_lon": 0.0, "lat": 38.93502933333333, "is_disabled": 0, "name": "71be0ceef4c4062a983855a9ffad90c6", "fusion_lat": 0.0, "rental_uris": {"ios": "https://dc.lft.to/lastmile_qr_scan", "android": "https://dc.lft.to/lastmile_qr_scan"}, "lon": -77.027194, "type": "electric_scooter"}, {"bike_id": "080a42c9dbb719df7b762fb0b73493de", "is_reserved": 0, "fusion_lon": 0.0, "lat": 38.866485833333336, "is_disabled": 0, "name": "080a42c9dbb719df7b762fb0b73493de", "fusion_lat": 0.0, "rental_uris": {"ios": "https://dc.lft.to/lastmile_qr_scan", "android": "https://dc.lft.to/lastmile_qr_scan"}, "lon": -76.988895, "type": "electric_scooter"}, {"bike_id": "1ffb419bd7c454d09e0ad6f2db48c182", "is_reserved": 0, "fusion_lon": 0.0, "lat": 38.862065, "is_disabled": 0, "name": "1ffb419bd7c454d09e0ad6f2db48c182", "fusion_lat": 0.0, "rental_uris": {"ios": "https://dc.lft.to/lastmile_qr_scan", "android": "https://dc.lft.to/lastmile_qr_scan"}, "lon": -76.99470283333333, "type": "electric_scooter"}, {"bike_id": "98b6f4ee39ec1444a31a691c8b29ddff", "is_reserved": 0, "fusion_lon": 0.0, "lat": 38.9007605, "is_disabled": 0, "name": "98b6f4ee39ec1444a31a691c8b29ddff", "fusion_lat": 0.0, "rental_uris": {"ios": "https://dc.lft.to/lastmile_qr_scan", "android": "https://dc.lft.to/lastmile_qr_scan"}, "lon": -77.02806766666667, "type": "electric_scooter"}, {"bike_id": "9c3808d48e95bbeeac9d848cc59b92b2", "is_reserved": 0, "fusion_lon": 0.0, "lat": 38.906456666666664, "is_disabled": 0, "name": "9c3808d48e95bbeeac9d848cc59b92b2", "fusion_lat": 0.0, "rental_uris": {"ios": "https://dc.lft.to/lastmile_qr_scan", "android": "https://dc.lft.to/lastmile_qr_scan"}, "lon": -77.03907033333333, "type": "electric_scooter"}, {"bike_id": "debb0e05d8429490e3caffc238b6eea3", "is_reserved": 0, "fusion_lon": 0.0, "lat": 38.9185715, "is_disabled": 0, "name": "debb0e05d8429490e3caffc238b6eea3", "fusion_lat": 0.0, "rental_uris": {"ios": "https://dc.lft.to/lastmile_qr_scan", "android": "https://dc.lft.to/lastmile_qr_scan"}, "lon": -77.04461383333333, "type": "electric_scooter"}, {"bike_id": "df241782bef667c5feb8a4c40234c38d", "is_reserved": 0, "fusion_lon": 0.0, "lat": 38.90670166666666, "is_disabled": 0, "name": "df241782bef667c5feb8a4c40234c38d", "fusion_lat": 0.0, "rental_uris": {"ios": "https://dc.lft.to/lastmile_qr_scan", "android": "https://dc.lft.to/lastmile_qr_scan"}, "lon": -77.0499805, "type": "electric_scooter"}, {"bike_id": "bf51977ecb1b51635c55e332c77dc2f7", "is_reserved": 0, "fusion_lon": 0.0, "lat": 38.90383683333334, "is_disabled": 0, "name": "bf51977ecb1b51635c55e332c77dc2f7", "fusion_lat": 0.0, "rental_uris": {"ios": "https://dc.lft.to/lastmile_qr_scan", "android": "https://dc.lft.to/lastmile_qr_scan"}, "lon": -77.02998233333334, "type": "electric_scooter"}, {"bike_id": "ef49b85934cf33ebf10e155682e5b877", "is_reserved": 0, "fusion_lon": 0.0, "lat": 38.9185685, "is_disabled": 0, "name": "ef49b85934cf33ebf10e155682e5b877", "fusion_lat": 0.0, "rental_uris": {"ios": "https://dc.lft.to/lastmile_qr_scan", "android": "https://dc.lft.to/lastmile_qr_scan"}, "lon": -77.04460333333333, "type": "electric_scooter"}, {"bike_id": "0d3e82996ec0384130a392b7eaffb7d7", "is_reserved": 0, "fusion_lon": 0.0, "lat": 38.912194, "is_disabled": 0, "name": "0d3e82996ec0384130a392b7eaffb7d7", "fusion_lat": 0.0, "rental_uris": {"ios": "https://dc.lft.to/lastmile_qr_scan", "android": "https://dc.lft.to/lastmile_qr_scan"}, "lon": -77.0280265, "type": "electric_scooter"}, {"bike_id": "af5bfa2f2af7b1920440baa9b6a10bad", "is_reserved": 0, "fusion_lon": 0.0, "lat": 38.9386475, "is_disabled": 0, "name": "af5bfa2f2af7b1920440baa9b6a10bad", "fusion_lat": 0.0, "rental_uris": {"ios": "https://dc.lft.to/lastmile_qr_scan", "android": "https://dc.lft.to/lastmile_qr_scan"}, "lon": -77.0245915, "type": "electric_scooter"}, {"bike_id": "1732f8b3238bd69eb2a8525279894571", "is_reserved": 0, "fusion_lon": 0.0, "lat": 38.909570333333335, "is_disabled": 0, "name": "1732f8b3238bd69eb2a8525279894571", "fusion_lat": 0.0, "rental_uris": {"ios": "https://dc.lft.to/lastmile_qr_scan", "android": "https://dc.lft.to/lastmile_qr_scan"}, "lon": -77.0347185, "type": "electric_scooter"}, {"bike_id": "294038e0467c7e92352ad5cec32acb27", "is_reserved": 0, "fusion_lon": 0.0, "lat": 38.90916883333333, "is_disabled": 0, "name": "294038e0467c7e92352ad5cec32acb27", "fusion_lat": 0.0, "rental_uris": {"ios": "https://dc.lft.to/lastmile_qr_scan", "android": "https://dc.lft.to/lastmile_qr_scan"}, "lon": -77.080063, "type": "electric_scooter"}, {"bike_id": "75e32b9768effd7b16af9238a14b42b0", "is_reserved": 0, "fusion_lon": 0.0, "lat": 38.92012666666667, "is_disabled": 0, "name": "75e32b9768effd7b16af9238a14b42b0", "fusion_lat": 0.0, "rental_uris": {"ios": "https://dc.lft.to/lastmile_qr_scan", "android": "https://dc.lft.to/lastmile_qr_scan"}, "lon": -77.0278285, "type": "electric_scooter"}, {"bike_id": "70246e8092d70c4f22a7a48642ffe38c", "is_reserved": 0, "fusion_lon": 0.0, "lat": 38.904414, "is_disabled": 0, "name": "70246e8092d70c4f22a7a48642ffe38c", "fusion_lat": 0.0, "rental_uris": {"ios": "https://dc.lft.to/lastmile_qr_scan", "android": "https://dc.lft.to/lastmile_qr_scan"}, "lon": -76.9887755, "type": "electric_scooter"}, {"bike_id": "cac76beee745b62dc8e55111056c654e", "is_reserved": 0, "fusion_lon": 0.0, "lat": 38.9236945, "is_disabled": 0, "name": "cac76beee745b62dc8e55111056c654e", "fusion_lat": 0.0, "rental_uris": {"ios": "https://dc.lft.to/lastmile_qr_scan", "android": "https://dc.lft.to/lastmile_qr_scan"}, "lon": -77.032021, "type": "electric_scooter"}, {"bike_id": "78d73416dadc46e1dd5161f858a4e93c", "is_reserved": 0, "fusion_lon": 0.0, "lat": 38.899709666666666, "is_disabled": 0, "name": "78d73416dadc46e1dd5161f858a4e93c", "fusion_lat": 0.0, "rental_uris": {"ios": "https://dc.lft.to/lastmile_qr_scan", "android": "https://dc.lft.to/lastmile_qr_scan"}, "lon": -77.02686116666666, "type": "electric_scooter"}, {"bike_id": "2c66cce04a71751475d5d2e9721a63d4", "is_reserved": 0, "fusion_lon": 0.0, "lat": 38.8921975, "is_disabled": 0, "name": "2c66cce04a71751475d5d2e9721a63d4", "fusion_lat": 0.0, "rental_uris": {"ios": "https://dc.lft.to/lastmile_qr_scan", "android": "https://dc.lft.to/lastmile_qr_scan"}, "lon": -77.1077895, "type": "electric_bike"}, {"bike_id": "c6d7b50c4b5a4c6b6a9cd0630e447650", "is_reserved": 0, "fusion_lon": 0.0, "lat": 38.908559, "is_disabled": 0, "name": "c6d7b50c4b5a4c6b6a9cd0630e447650", "fusion_lat": 0.0, "rental_uris": {"ios": "https://dc.lft.to/lastmile_qr_scan", "android": "https://dc.lft.to/lastmile_qr_scan"}, "lon": -77.0272955, "type": "electric_scooter"}, {"bike_id": "b9ddee2ee86400b38ad8c90a5edc9292", "is_reserved": 0, "fusion_lon": 0.0, "lat": 38.914809, "is_disabled": 0, "name": "b9ddee2ee86400b38ad8c90a5edc9292", "fusion_lat": 0.0, "rental_uris": {"ios": "https://dc.lft.to/lastmile_qr_scan", "android": "https://dc.lft.to/lastmile_qr_scan"}, "lon": -77.022001, "type": "electric_scooter"}, {"bike_id": "130d1ae95c27b2d281157f1cedcfd055", "is_reserved": 0, "fusion_lon": 0.0, "lat": 38.90372933333333, "is_disabled": 0, "name": "130d1ae95c27b2d281157f1cedcfd055", "fusion_lat": 0.0, "rental_uris": {"ios": "https://dc.lft.to/lastmile_qr_scan", "android": "https://dc.lft.to/lastmile_qr_scan"}, "lon": -77.03770466666667, "type": "electric_scooter"}, {"bike_id": "0086bd8cd0bdbba68cd853e08c876df7", "is_reserved": 0, "fusion_lon": 0.0, "lat": 38.916666666666664, "is_disabled": 0, "name": "0086bd8cd0bdbba68cd853e08c876df7", "fusion_lat": 0.0, "rental_uris": {"ios": "https://dc.lft.to/lastmile_qr_scan", "android": "https://dc.lft.to/lastmile_qr_scan"}, "lon": -77.02376816666667, "type": "electric_scooter"}, {"bike_id": "95d597813af512ce8749246153762240", "is_reserved": 0, "fusion_lon": 0.0, "lat": 38.91263716666667, "is_disabled": 0, "name": "95d597813af512ce8749246153762240", "fusion_lat": 0.0, "rental_uris": {"ios": "https://dc.lft.to/lastmile_qr_scan", "android": "https://dc.lft.to/lastmile_qr_scan"}, "lon": -77.02560783333334, "type": "electric_scooter"}, {"bike_id": "c9457be4c2d900fe4a6f6d98e6f81217", "is_reserved": 0, "fusion_lon": 0.0, "lat": 38.8922105, "is_disabled": 0, "name": "c9457be4c2d900fe4a6f6d98e6f81217", "fusion_lat": 0.0, "rental_uris": {"ios": "https://dc.lft.to/lastmile_qr_scan", "android": "https://dc.lft.to/lastmile_qr_scan"}, "lon": -77.03216983333333, "type": "electric_scooter"}, {"bike_id": "2727effc20d028a34364055cfbdc1eff", "is_reserved": 0, "fusion_lon": 0.0, "lat": 38.892452166666665, "is_disabled": 0, "name": "2727effc20d028a34364055cfbdc1eff", "fusion_lat": 0.0, "rental_uris": {"ios": "https://dc.lft.to/lastmile_qr_scan", "android": "https://dc.lft.to/lastmile_qr_scan"}, "lon": -77.03958166666666, "type": "electric_scooter"}, {"bike_id": "4a0d04efe8c3b0f59c3e61a6533fd89a", "is_reserved": 0, "fusion_lon": 0.0, "lat": 38.89716683333333, "is_disabled": 0, "name": "4a0d04efe8c3b0f59c3e61a6533fd89a", "fusion_lat": 0.0, "rental_uris": {"ios": "https://dc.lft.to/lastmile_qr_scan", "android": "https://dc.lft.to/lastmile_qr_scan"}, "lon": -77.04876883333333, "type": "electric_scooter"}, {"bike_id": "f31478d7dc1058d04afd0c39498ac527", "is_reserved": 0, "fusion_lon": 0.0, "lat": 38.9049365, "is_disabled": 0, "name": "f31478d7dc1058d04afd0c39498ac527", "fusion_lat": 0.0, "rental_uris": {"ios": "https://dc.lft.to/lastmile_qr_scan", "android": "https://dc.lft.to/lastmile_qr_scan"}, "lon": -77.06789983333333, "type": "electric_scooter"}, {"bike_id": "0679815a34954cd8f7fc8c66e3865b0a", "is_reserved": 0, "fusion_lon": 0.0, "lat": 38.898473333333335, "is_disabled": 0, "name": "0679815a34954cd8f7fc8c66e3865b0a", "fusion_lat": 0.0, "rental_uris": {"ios": "https://dc.lft.to/lastmile_qr_scan", "android": "https://dc.lft.to/lastmile_qr_scan"}, "lon": -77.032782, "type": "electric_scooter"}, {"bike_id": "fcc630df44c9faff8819685c4efcf40b", "is_reserved": 0, "fusion_lon": 0.0, "lat": 38.90395566666667, "is_disabled": 0, "name": "fcc630df44c9faff8819685c4efcf40b", "fusion_lat": 0.0, "rental_uris": {"ios": "https://dc.lft.to/lastmile_qr_scan", "android": "https://dc.lft.to/lastmile_qr_scan"}, "lon": -77.04350316666667, "type": "electric_scooter"}, {"bike_id": "2f2bfe769cdf3b47cb7a63c1459a31b7", "is_reserved": 0, "fusion_lon": 0.0, "lat": 38.90236433333333, "is_disabled": 0, "name": "2f2bfe769cdf3b47cb7a63c1459a31b7", "fusion_lat": 0.0, "rental_uris": {"ios": "https://dc.lft.to/lastmile_qr_scan", "android": "https://dc.lft.to/lastmile_qr_scan"}, "lon": -77.06078966666666, "type": "electric_scooter"}, {"bike_id": "91cb068c6896cf24e3b69b3408dd1172", "is_reserved": 0, "fusion_lon": 0.0, "lat": 38.90023983333333, "is_disabled": 0, "name": "91cb068c6896cf24e3b69b3408dd1172", "fusion_lat": 0.0, "rental_uris": {"ios": "https://dc.lft.to/lastmile_qr_scan", "android": "https://dc.lft.to/lastmile_qr_scan"}, "lon": -76.9879325, "type": "electric_scooter"}, {"bike_id": "eb008efca23a68b3b305d03be0a6aa55", "is_reserved": 0, "fusion_lon": 0.0, "lat": 38.88022516666667, "is_disabled": 0, "name": "eb008efca23a68b3b305d03be0a6aa55", "fusion_lat": 0.0, "rental_uris": {"ios": "https://dc.lft.to/lastmile_qr_scan", "android": "https://dc.lft.to/lastmile_qr_scan"}, "lon": -76.99503, "type": "electric_scooter"}, {"bike_id": "e41bef61119de15e7355522bc7bb9260", "is_reserved": 0, "fusion_lon": 0.0, "lat": 38.9209075, "is_disabled": 0, "name": "e41bef61119de15e7355522bc7bb9260", "fusion_lat": 0.0, "rental_uris": {"ios": "https://dc.lft.to/lastmile_qr_scan", "android": "https://dc.lft.to/lastmile_qr_scan"}, "lon": -77.02485616666667, "type": "electric_scooter"}, {"bike_id": "af526f6d60cbdc6024b7de12611949bc", "is_reserved": 0, "fusion_lon": 0.0, "lat": 38.933593333333334, "is_disabled": 0, "name": "af526f6d60cbdc6024b7de12611949bc", "fusion_lat": 0.0, "rental_uris": {"ios": "https://dc.lft.to/lastmile_qr_scan", "android": "https://dc.lft.to/lastmile_qr_scan"}, "lon": -77.05717516666667, "type": "electric_scooter"}, {"bike_id": "394b6436d524a9122cdefaa59be00130", "is_reserved": 0, "fusion_lon": 0.0, "lat": 38.90371833333333, "is_disabled": 0, "name": "394b6436d524a9122cdefaa59be00130", "fusion_lat": 0.0, "rental_uris": {"ios": "https://dc.lft.to/lastmile_qr_scan", "android": "https://dc.lft.to/lastmile_qr_scan"}, "lon": -77.0540925, "type": "electric_scooter"}, {"bike_id": "b9736a31fe6603956cd75aba5c8e2eba", "is_reserved": 0, "fusion_lon": 0.0, "lat": 38.921909, "is_disabled": 0, "name": "b9736a31fe6603956cd75aba5c8e2eba", "fusion_lat": 0.0, "rental_uris": {"ios": "https://dc.lft.to/lastmile_qr_scan", "android": "https://dc.lft.to/lastmile_qr_scan"}, "lon": -77.042368, "type": "electric_scooter"}, {"bike_id": "9fa42b2c6521445d682c92d92d1bb2c1", "is_reserved": 0, "fusion_lon": 0.0, "lat": 38.91979166666667, "is_disabled": 0, "name": "9fa42b2c6521445d682c92d92d1bb2c1", "fusion_lat": 0.0, "rental_uris": {"ios": "https://dc.lft.to/lastmile_qr_scan", "android": "https://dc.lft.to/lastmile_qr_scan"}, "lon": -77.04437933333334, "type": "electric_scooter"}, {"bike_id": "943642bdc71520519073e9a3595330d7", "is_reserved": 0, "fusion_lon": 0.0, "lat": 38.90783183333333, "is_disabled": 0, "name": "943642bdc71520519073e9a3595330d7", "fusion_lat": 0.0, "rental_uris": {"ios": "https://dc.lft.to/lastmile_qr_scan", "android": "https://dc.lft.to/lastmile_qr_scan"}, "lon": -77.03842483333334, "type": "electric_scooter"}, {"bike_id": "9b6880b282fd3ce691c0a6f600ce99bb", "is_reserved": 0, "fusion_lon": 0.0, "lat": 38.92468566666667, "is_disabled": 0, "name": "9b6880b282fd3ce691c0a6f600ce99bb", "fusion_lat": 0.0, "rental_uris": {"ios": "https://dc.lft.to/lastmile_qr_scan", "android": "https://dc.lft.to/lastmile_qr_scan"}, "lon": -77.02710633333334, "type": "electric_scooter"}, {"bike_id": "d37b3fc20a446798c7da3e16684c4bba", "is_reserved": 0, "fusion_lon": 0.0, "lat": 38.90061566666667, "is_disabled": 0, "name": "d37b3fc20a446798c7da3e16684c4bba", "fusion_lat": 0.0, "rental_uris": {"ios": "https://dc.lft.to/lastmile_qr_scan", "android": "https://dc.lft.to/lastmile_qr_scan"}, "lon": -77.00223883333334, "type": "electric_scooter"}, {"bike_id": "02f195b695d318d299f97c9040fff5e1", "is_reserved": 0, "fusion_lon": 0.0, "lat": 38.944353166666666, "is_disabled": 0, "name": "02f195b695d318d299f97c9040fff5e1", "fusion_lat": 0.0, "rental_uris": {"ios": "https://dc.lft.to/lastmile_qr_scan", "android": "https://dc.lft.to/lastmile_qr_scan"}, "lon": -77.0635335, "type": "electric_scooter"}, {"bike_id": "2d9442914e42cce633e6f69db006d3cb", "is_reserved": 0, "fusion_lon": 0.0, "lat": 38.913340166666664, "is_disabled": 0, "name": "2d9442914e42cce633e6f69db006d3cb", "fusion_lat": 0.0, "rental_uris": {"ios": "https://dc.lft.to/lastmile_qr_scan", "android": "https://dc.lft.to/lastmile_qr_scan"}, "lon": -77.048155, "type": "electric_scooter"}, {"bike_id": "191df213778f0d1398ddb1aab8624955", "is_reserved": 0, "fusion_lon": 0.0, "lat": 38.87927583333333, "is_disabled": 0, "name": "191df213778f0d1398ddb1aab8624955", "fusion_lat": 0.0, "rental_uris": {"ios": "https://dc.lft.to/lastmile_qr_scan", "android": "https://dc.lft.to/lastmile_qr_scan"}, "lon": -76.9925365, "type": "electric_scooter"}, {"bike_id": "5892985f07ddb8ce2c4d385b402fdf43", "is_reserved": 0, "fusion_lon": 0.0, "lat": 38.884104666666666, "is_disabled": 0, "name": "5892985f07ddb8ce2c4d385b402fdf43", "fusion_lat": 0.0, "rental_uris": {"ios": "https://dc.lft.to/lastmile_qr_scan", "android": "https://dc.lft.to/lastmile_qr_scan"}, "lon": -77.02617116666667, "type": "electric_scooter"}, {"bike_id": "b161a3285e33bc01b80d688f331d78e2", "is_reserved": 0, "fusion_lon": 0.0, "lat": 38.9056895, "is_disabled": 0, "name": "b161a3285e33bc01b80d688f331d78e2", "fusion_lat": 0.0, "rental_uris": {"ios": "https://dc.lft.to/lastmile_qr_scan", "android": "https://dc.lft.to/lastmile_qr_scan"}, "lon": -77.03840733333334, "type": "electric_scooter"}, {"bike_id": "74e8a6c771a35a8fb425a54fdc472420", "is_reserved": 0, "fusion_lon": 0.0, "lat": 38.935337, "is_disabled": 0, "name": "74e8a6c771a35a8fb425a54fdc472420", "fusion_lat": 0.0, "rental_uris": {"ios": "https://dc.lft.to/lastmile_qr_scan", "android": "https://dc.lft.to/lastmile_qr_scan"}, "lon": -77.02351166666666, "type": "electric_scooter"}, {"bike_id": "07660bac34dee000881fca53e6e7858b", "is_reserved": 0, "fusion_lon": 0.0, "lat": 38.913395, "is_disabled": 0, "name": "07660bac34dee000881fca53e6e7858b", "fusion_lat": 0.0, "rental_uris": {"ios": "https://dc.lft.to/lastmile_qr_scan", "android": "https://dc.lft.to/lastmile_qr_scan"}, "lon": -77.04841366666666, "type": "electric_scooter"}, {"bike_id": "0eeb7b3284fc0a38c6181b9ef153a283", "is_reserved": 0, "fusion_lon": 0.0, "lat": 38.902489, "is_disabled": 0, "name": "0eeb7b3284fc0a38c6181b9ef153a283", "fusion_lat": 0.0, "rental_uris": {"ios": "https://dc.lft.to/lastmile_qr_scan", "android": "https://dc.lft.to/lastmile_qr_scan"}, "lon": -77.05034316666666, "type": "electric_bike"}, {"bike_id": "1a18d63a4b1ecd9fcddce828c2bde4bc", "is_reserved": 0, "fusion_lon": 0.0, "lat": 38.866166666666665, "is_disabled": 0, "name": "1a18d63a4b1ecd9fcddce828c2bde4bc", "fusion_lat": 0.0, "rental_uris": {"ios": "https://dc.lft.to/lastmile_qr_scan", "android": "https://dc.lft.to/lastmile_qr_scan"}, "lon": -76.98661616666666, "type": "electric_scooter"}, {"bike_id": "eac1a6d02a3375d465523d6715958348", "is_reserved": 0, "fusion_lon": 0.0, "lat": 38.9013755, "is_disabled": 0, "name": "eac1a6d02a3375d465523d6715958348", "fusion_lat": 0.0, "rental_uris": {"ios": "https://dc.lft.to/lastmile_qr_scan", "android": "https://dc.lft.to/lastmile_qr_scan"}, "lon": -77.02719066666667, "type": "electric_scooter"}, {"bike_id": "08c0011182c9a96aa3537bcf855ecc75", "is_reserved": 0, "fusion_lon": 0.0, "lat": 38.9167805, "is_disabled": 0, "name": "08c0011182c9a96aa3537bcf855ecc75", "fusion_lat": 0.0, "rental_uris": {"ios": "https://dc.lft.to/lastmile_qr_scan", "android": "https://dc.lft.to/lastmile_qr_scan"}, "lon": -77.0260615, "type": "electric_scooter"}, {"bike_id": "ec1308c13838f9943017fadab1c8b286", "is_reserved": 0, "fusion_lon": 0.0, "lat": 38.90864416666667, "is_disabled": 0, "name": "ec1308c13838f9943017fadab1c8b286", "fusion_lat": 0.0, "rental_uris": {"ios": "https://dc.lft.to/lastmile_qr_scan", "android": "https://dc.lft.to/lastmile_qr_scan"}, "lon": -77.0253935, "type": "electric_scooter"}, {"bike_id": "1876f2b057226126effd324a156f2d64", "is_reserved": 0, "fusion_lon": 0.0, "lat": 38.8974345, "is_disabled": 0, "name": "1876f2b057226126effd324a156f2d64", "fusion_lat": 0.0, "rental_uris": {"ios": "https://dc.lft.to/lastmile_qr_scan", "android": "https://dc.lft.to/lastmile_qr_scan"}, "lon": -77.04675433333334, "type": "electric_scooter"}, {"bike_id": "f8e69b275123a3538a02c0ae7fcf9d82", "is_reserved": 0, "fusion_lon": 0.0, "lat": 38.901867833333334, "is_disabled": 0, "name": "f8e69b275123a3538a02c0ae7fcf9d82", "fusion_lat": 0.0, "rental_uris": {"ios": "https://dc.lft.to/lastmile_qr_scan", "android": "https://dc.lft.to/lastmile_qr_scan"}, "lon": -76.9300005, "type": "electric_scooter"}, {"bike_id": "e2fc24906becb04c841bb88a1afe35ab", "is_reserved": 0, "fusion_lon": 0.0, "lat": 38.9026625, "is_disabled": 0, "name": "e2fc24906becb04c841bb88a1afe35ab", "fusion_lat": 0.0, "rental_uris": {"ios": "https://dc.lft.to/lastmile_qr_scan", "android": "https://dc.lft.to/lastmile_qr_scan"}, "lon": -77.061727, "type": "electric_scooter"}, {"bike_id": "d771458e4bb1b9b7e907a371c2d3ba52", "is_reserved": 0, "fusion_lon": 0.0, "lat": 38.890903, "is_disabled": 0, "name": "d771458e4bb1b9b7e907a371c2d3ba52", "fusion_lat": 0.0, "rental_uris": {"ios": "https://dc.lft.to/lastmile_qr_scan", "android": "https://dc.lft.to/lastmile_qr_scan"}, "lon": -76.987471, "type": "electric_scooter"}, {"bike_id": "c65de3b4a16ebd5e76edd800ecfa0aeb", "is_reserved": 0, "fusion_lon": 0.0, "lat": 38.88373433333334, "is_disabled": 0, "name": "c65de3b4a16ebd5e76edd800ecfa0aeb", "fusion_lat": 0.0, "rental_uris": {"ios": "https://dc.lft.to/lastmile_qr_scan", "android": "https://dc.lft.to/lastmile_qr_scan"}, "lon": -76.99568183333334, "type": "electric_scooter"}, {"bike_id": "6e98047d3f035d234b9bda5106103f0d", "is_reserved": 0, "fusion_lon": 0.0, "lat": 38.88146233333333, "is_disabled": 0, "name": "6e98047d3f035d234b9bda5106103f0d", "fusion_lat": 0.0, "rental_uris": {"ios": "https://dc.lft.to/lastmile_qr_scan", "android": "https://dc.lft.to/lastmile_qr_scan"}, "lon": -77.02703383333333, "type": "electric_bike"}, {"bike_id": "89452aede010b6d7a7aa2076ccdce388", "is_reserved": 0, "fusion_lon": 0.0, "lat": 38.92263583333333, "is_disabled": 0, "name": "89452aede010b6d7a7aa2076ccdce388", "fusion_lat": 0.0, "rental_uris": {"ios": "https://dc.lft.to/lastmile_qr_scan", "android": "https://dc.lft.to/lastmile_qr_scan"}, "lon": -76.97424283333334, "type": "electric_bike"}, {"bike_id": "381ba1cfbc650e8c6aea29b9ad84ce93", "is_reserved": 0, "fusion_lon": 0.0, "lat": 38.89555333333333, "is_disabled": 0, "name": "381ba1cfbc650e8c6aea29b9ad84ce93", "fusion_lat": 0.0, "rental_uris": {"ios": "https://dc.lft.to/lastmile_qr_scan", "android": "https://dc.lft.to/lastmile_qr_scan"}, "lon": -77.00912566666666, "type": "electric_scooter"}, {"bike_id": "184289575cd75fe94a2c5661a69026f8", "is_reserved": 0, "fusion_lon": 0.0, "lat": 38.940442166666664, "is_disabled": 0, "name": "184289575cd75fe94a2c5661a69026f8", "fusion_lat": 0.0, "rental_uris": {"ios": "https://dc.lft.to/lastmile_qr_scan", "android": "https://dc.lft.to/lastmile_qr_scan"}, "lon": -77.02913216666667, "type": "electric_scooter"}, {"bike_id": "dc19686a6752a40e47af8147ac8ebbba", "is_reserved": 0, "fusion_lon": 0.0, "lat": 38.923671, "is_disabled": 0, "name": "dc19686a6752a40e47af8147ac8ebbba", "fusion_lat": 0.0, "rental_uris": {"ios": "https://dc.lft.to/lastmile_qr_scan", "android": "https://dc.lft.to/lastmile_qr_scan"}, "lon": -77.0503025, "type": "electric_scooter"}, {"bike_id": "06ca5f800958504a1b87937e7c254f41", "is_reserved": 0, "fusion_lon": 0.0, "lat": 38.86618716666667, "is_disabled": 0, "name": "06ca5f800958504a1b87937e7c254f41", "fusion_lat": 0.0, "rental_uris": {"ios": "https://dc.lft.to/lastmile_qr_scan", "android": "https://dc.lft.to/lastmile_qr_scan"}, "lon": -76.9866665, "type": "electric_scooter"}, {"bike_id": "efe54d5decffc4e5004f7866db196a0b", "is_reserved": 0, "fusion_lon": 0.0, "lat": 38.90785916666667, "is_disabled": 0, "name": "efe54d5decffc4e5004f7866db196a0b", "fusion_lat": 0.0, "rental_uris": {"ios": "https://dc.lft.to/lastmile_qr_scan", "android": "https://dc.lft.to/lastmile_qr_scan"}, "lon": -77.04268483333334, "type": "electric_scooter"}, {"bike_id": "48256340146cad4e2fc5cd23804ff4eb", "is_reserved": 0, "fusion_lon": 0.0, "lat": 38.892211833333334, "is_disabled": 0, "name": "48256340146cad4e2fc5cd23804ff4eb", "fusion_lat": 0.0, "rental_uris": {"ios": "https://dc.lft.to/lastmile_qr_scan", "android": "https://dc.lft.to/lastmile_qr_scan"}, "lon": -77.0419285, "type": "electric_scooter"}, {"bike_id": "9059defeffd5b80ea6beadca572b0185", "is_reserved": 0, "fusion_lon": 0.0, "lat": 38.89219816666667, "is_disabled": 0, "name": "9059defeffd5b80ea6beadca572b0185", "fusion_lat": 0.0, "rental_uris": {"ios": "https://dc.lft.to/lastmile_qr_scan", "android": "https://dc.lft.to/lastmile_qr_scan"}, "lon": -77.04653166666667, "type": "electric_scooter"}, {"bike_id": "9626bc19bc52433996106a576f21dda4", "is_reserved": 0, "fusion_lon": 0.0, "lat": 38.92015466666667, "is_disabled": 0, "name": "9626bc19bc52433996106a576f21dda4", "fusion_lat": 0.0, "rental_uris": {"ios": "https://dc.lft.to/lastmile_qr_scan", "android": "https://dc.lft.to/lastmile_qr_scan"}, "lon": -77.03124566666666, "type": "electric_scooter"}, {"bike_id": "575eb1b8a234e926738cea75177ac456", "is_reserved": 0, "fusion_lon": 0.0, "lat": 38.92064216666667, "is_disabled": 0, "name": "575eb1b8a234e926738cea75177ac456", "fusion_lat": 0.0, "rental_uris": {"ios": "https://dc.lft.to/lastmile_qr_scan", "android": "https://dc.lft.to/lastmile_qr_scan"}, "lon": -77.024207, "type": "electric_scooter"}, {"bike_id": "a02a017fc2f2f2d4b756d09217b8816d", "is_reserved": 0, "fusion_lon": 0.0, "lat": 38.90421683333334, "is_disabled": 0, "name": "a02a017fc2f2f2d4b756d09217b8816d", "fusion_lat": 0.0, "rental_uris": {"ios": "https://dc.lft.to/lastmile_qr_scan", "android": "https://dc.lft.to/lastmile_qr_scan"}, "lon": -77.03249466666666, "type": "electric_scooter"}, {"bike_id": "f9b27f03367a7d7dabddd5ae676f78cf", "is_reserved": 0, "fusion_lon": 0.0, "lat": 38.927587833333334, "is_disabled": 0, "name": "f9b27f03367a7d7dabddd5ae676f78cf", "fusion_lat": 0.0, "rental_uris": {"ios": "https://dc.lft.to/lastmile_qr_scan", "android": "https://dc.lft.to/lastmile_qr_scan"}, "lon": -77.03275466666666, "type": "electric_scooter"}, {"bike_id": "1ede7dd807a88f6f1467ed1c8e53c3dd", "is_reserved": 0, "fusion_lon": 0.0, "lat": 38.904702, "is_disabled": 0, "name": "1ede7dd807a88f6f1467ed1c8e53c3dd", "fusion_lat": 0.0, "rental_uris": {"ios": "https://dc.lft.to/lastmile_qr_scan", "android": "https://dc.lft.to/lastmile_qr_scan"}, "lon": -77.0347415, "type": "electric_scooter"}, {"bike_id": "f25f75521162b37e0fe8b85951400f60", "is_reserved": 0, "fusion_lon": 0.0, "lat": 38.89731116666667, "is_disabled": 0, "name": "f25f75521162b37e0fe8b85951400f60", "fusion_lat": 0.0, "rental_uris": {"ios": "https://dc.lft.to/lastmile_qr_scan", "android": "https://dc.lft.to/lastmile_qr_scan"}, "lon": -77.05474283333334, "type": "electric_scooter"}, {"bike_id": "e15014ad44f36d35beccd16e34f4e665", "is_reserved": 0, "fusion_lon": 0.0, "lat": 38.959355333333335, "is_disabled": 0, "name": "e15014ad44f36d35beccd16e34f4e665", "fusion_lat": 0.0, "rental_uris": {"ios": "https://dc.lft.to/lastmile_qr_scan", "android": "https://dc.lft.to/lastmile_qr_scan"}, "lon": -77.0312315, "type": "electric_scooter"}, {"bike_id": "7ed8b97e6b431b6bc2a0a64bbc80da84", "is_reserved": 0, "fusion_lon": 0.0, "lat": 38.88499683333333, "is_disabled": 0, "name": "7ed8b97e6b431b6bc2a0a64bbc80da84", "fusion_lat": 0.0, "rental_uris": {"ios": "https://dc.lft.to/lastmile_qr_scan", "android": "https://dc.lft.to/lastmile_qr_scan"}, "lon": -77.0056745, "type": "electric_scooter"}, {"bike_id": "a64c845a5c64061c0c63f2a5b340f41c", "is_reserved": 0, "fusion_lon": 0.0, "lat": 38.91959033333333, "is_disabled": 0, "name": "a64c845a5c64061c0c63f2a5b340f41c", "fusion_lat": 0.0, "rental_uris": {"ios": "https://dc.lft.to/lastmile_qr_scan", "android": "https://dc.lft.to/lastmile_qr_scan"}, "lon": -77.014795, "type": "electric_scooter"}, {"bike_id": "f73d95c9ed5d6bfcc8bf7e9ee6dba7c2", "is_reserved": 0, "fusion_lon": 0.0, "lat": 38.90504583333333, "is_disabled": 0, "name": "f73d95c9ed5d6bfcc8bf7e9ee6dba7c2", "fusion_lat": 0.0, "rental_uris": {"ios": "https://dc.lft.to/lastmile_qr_scan", "android": "https://dc.lft.to/lastmile_qr_scan"}, "lon": -76.99012516666667, "type": "electric_scooter"}, {"bike_id": "ba8e51a058f6725b1c82949b067a72c9", "is_reserved": 0, "fusion_lon": 0.0, "lat": 38.89197166666667, "is_disabled": 0, "name": "ba8e51a058f6725b1c82949b067a72c9", "fusion_lat": 0.0, "rental_uris": {"ios": "https://dc.lft.to/lastmile_qr_scan", "android": "https://dc.lft.to/lastmile_qr_scan"}, "lon": -77.0283665, "type": "electric_scooter"}, {"bike_id": "9296660038ece6e675124142f3079756", "is_reserved": 0, "fusion_lon": 0.0, "lat": 38.904816333333336, "is_disabled": 0, "name": "9296660038ece6e675124142f3079756", "fusion_lat": 0.0, "rental_uris": {"ios": "https://dc.lft.to/lastmile_qr_scan", "android": "https://dc.lft.to/lastmile_qr_scan"}, "lon": -77.046506, "type": "electric_scooter"}, {"bike_id": "44c2555f2a81bfd1572b0bf4b9859255", "is_reserved": 0, "fusion_lon": 0.0, "lat": 38.882365666666665, "is_disabled": 0, "name": "44c2555f2a81bfd1572b0bf4b9859255", "fusion_lat": 0.0, "rental_uris": {"ios": "https://dc.lft.to/lastmile_qr_scan", "android": "https://dc.lft.to/lastmile_qr_scan"}, "lon": -76.99087783333333, "type": "electric_scooter"}, {"bike_id": "5843a05e8b547a262a762650a611e844", "is_reserved": 0, "fusion_lon": 0.0, "lat": 38.9198425, "is_disabled": 0, "name": "5843a05e8b547a262a762650a611e844", "fusion_lat": 0.0, "rental_uris": {"ios": "https://dc.lft.to/lastmile_qr_scan", "android": "https://dc.lft.to/lastmile_qr_scan"}, "lon": -76.97309833333334, "type": "electric_scooter"}, {"bike_id": "4e704c783eeced8fdeef2e212870f9bf", "is_reserved": 0, "fusion_lon": 0.0, "lat": 38.887492333333334, "is_disabled": 0, "name": "4e704c783eeced8fdeef2e212870f9bf", "fusion_lat": 0.0, "rental_uris": {"ios": "https://dc.lft.to/lastmile_qr_scan", "android": "https://dc.lft.to/lastmile_qr_scan"}, "lon": -77.02025433333333, "type": "electric_scooter"}, {"bike_id": "94564d4c9641305e71e22885612aafba", "is_reserved": 0, "fusion_lon": 0.0, "lat": 38.900992, "is_disabled": 0, "name": "94564d4c9641305e71e22885612aafba", "fusion_lat": 0.0, "rental_uris": {"ios": "https://dc.lft.to/lastmile_qr_scan", "android": "https://dc.lft.to/lastmile_qr_scan"}, "lon": -77.0257455, "type": "electric_scooter"}, {"bike_id": "e8c5c3d7e990966de962668355463532", "is_reserved": 0, "fusion_lon": 0.0, "lat": 38.887533833333336, "is_disabled": 0, "name": "e8c5c3d7e990966de962668355463532", "fusion_lat": 0.0, "rental_uris": {"ios": "https://dc.lft.to/lastmile_qr_scan", "android": "https://dc.lft.to/lastmile_qr_scan"}, "lon": -77.03135416666667, "type": "electric_scooter"}, {"bike_id": "5ba941f3316b0e711fc34d4191873b06", "is_reserved": 0, "fusion_lon": 0.0, "lat": 38.90275066666667, "is_disabled": 0, "name": "5ba941f3316b0e711fc34d4191873b06", "fusion_lat": 0.0, "rental_uris": {"ios": "https://dc.lft.to/lastmile_qr_scan", "android": "https://dc.lft.to/lastmile_qr_scan"}, "lon": -77.02818883333333, "type": "electric_scooter"}, {"bike_id": "d11022b5658e5b7258dfeaf76a695880", "is_reserved": 0, "fusion_lon": 0.0, "lat": 38.93531516666667, "is_disabled": 0, "name": "d11022b5658e5b7258dfeaf76a695880", "fusion_lat": 0.0, "rental_uris": {"ios": "https://dc.lft.to/lastmile_qr_scan", "android": "https://dc.lft.to/lastmile_qr_scan"}, "lon": -77.02350766666666, "type": "electric_scooter"}, {"bike_id": "d62ded764ff5e3cf648107362195e038", "is_reserved": 0, "fusion_lon": 0.0, "lat": 38.883690333333334, "is_disabled": 0, "name": "d62ded764ff5e3cf648107362195e038", "fusion_lat": 0.0, "rental_uris": {"ios": "https://dc.lft.to/lastmile_qr_scan", "android": "https://dc.lft.to/lastmile_qr_scan"}, "lon": -76.99525666666666, "type": "electric_scooter"}, {"bike_id": "6b6169d9e322098b0e9f71b52befda6a", "is_reserved": 0, "fusion_lon": 0.0, "lat": 38.9126105, "is_disabled": 0, "name": "6b6169d9e322098b0e9f71b52befda6a", "fusion_lat": 0.0, "rental_uris": {"ios": "https://dc.lft.to/lastmile_qr_scan", "android": "https://dc.lft.to/lastmile_qr_scan"}, "lon": -77.01208733333333, "type": "electric_scooter"}, {"bike_id": "a95abfb1c1f3a544c972f1ff76daf6da", "is_reserved": 0, "fusion_lon": 0.0, "lat": 38.953854, "is_disabled": 0, "name": "a95abfb1c1f3a544c972f1ff76daf6da", "fusion_lat": 0.0, "rental_uris": {"ios": "https://dc.lft.to/lastmile_qr_scan", "android": "https://dc.lft.to/lastmile_qr_scan"}, "lon": -76.99920483333334, "type": "electric_scooter"}, {"bike_id": "899fa0df29988432ed956b5c6046ffeb", "is_reserved": 0, "fusion_lon": 0.0, "lat": 38.896119666666664, "is_disabled": 0, "name": "899fa0df29988432ed956b5c6046ffeb", "fusion_lat": 0.0, "rental_uris": {"ios": "https://dc.lft.to/lastmile_qr_scan", "android": "https://dc.lft.to/lastmile_qr_scan"}, "lon": -77.04542583333334, "type": "electric_scooter"}, {"bike_id": "e52b67dcc36eb0a491e72dd691a70278", "is_reserved": 0, "fusion_lon": 0.0, "lat": 38.9037955, "is_disabled": 0, "name": "e52b67dcc36eb0a491e72dd691a70278", "fusion_lat": 0.0, "rental_uris": {"ios": "https://dc.lft.to/lastmile_qr_scan", "android": "https://dc.lft.to/lastmile_qr_scan"}, "lon": -77.04354133333334, "type": "electric_scooter"}, {"bike_id": "88d50167e2f72256071ae71b7e3f8335", "is_reserved": 0, "fusion_lon": 0.0, "lat": 38.92668116666667, "is_disabled": 0, "name": "88d50167e2f72256071ae71b7e3f8335", "fusion_lat": 0.0, "rental_uris": {"ios": "https://dc.lft.to/lastmile_qr_scan", "android": "https://dc.lft.to/lastmile_qr_scan"}, "lon": -76.99537583333333, "type": "electric_scooter"}, {"bike_id": "cc737913bbc1b2aa5acd9f9be7a33c74", "is_reserved": 0, "fusion_lon": 0.0, "lat": 38.89612, "is_disabled": 0, "name": "cc737913bbc1b2aa5acd9f9be7a33c74", "fusion_lat": 0.0, "rental_uris": {"ios": "https://dc.lft.to/lastmile_qr_scan", "android": "https://dc.lft.to/lastmile_qr_scan"}, "lon": -77.04598783333333, "type": "electric_scooter"}, {"bike_id": "a4ba54359a624cecfbe9e0d93f5d4db9", "is_reserved": 0, "fusion_lon": 0.0, "lat": 38.89836233333333, "is_disabled": 0, "name": "a4ba54359a624cecfbe9e0d93f5d4db9", "fusion_lat": 0.0, "rental_uris": {"ios": "https://dc.lft.to/lastmile_qr_scan", "android": "https://dc.lft.to/lastmile_qr_scan"}, "lon": -77.0074355, "type": "electric_scooter"}, {"bike_id": "ac58c3da657f5c565405c8f6d1def625", "is_reserved": 0, "fusion_lon": 0.0, "lat": 38.87389616666667, "is_disabled": 0, "name": "ac58c3da657f5c565405c8f6d1def625", "fusion_lat": 0.0, "rental_uris": {"ios": "https://dc.lft.to/lastmile_qr_scan", "android": "https://dc.lft.to/lastmile_qr_scan"}, "lon": -77.00091083333334, "type": "electric_scooter"}, {"bike_id": "fa2100f667c1f45e0f0f507769806299", "is_reserved": 0, "fusion_lon": 0.0, "lat": 38.89330616666667, "is_disabled": 0, "name": "fa2100f667c1f45e0f0f507769806299", "fusion_lat": 0.0, "rental_uris": {"ios": "https://dc.lft.to/lastmile_qr_scan", "android": "https://dc.lft.to/lastmile_qr_scan"}, "lon": -76.92988166666666, "type": "electric_scooter"}, {"bike_id": "f6f8c73ff93f82dfa4dd032a4f58e7f0", "is_reserved": 0, "fusion_lon": 0.0, "lat": 38.905319666666664, "is_disabled": 0, "name": "f6f8c73ff93f82dfa4dd032a4f58e7f0", "fusion_lat": 0.0, "rental_uris": {"ios": "https://dc.lft.to/lastmile_qr_scan", "android": "https://dc.lft.to/lastmile_qr_scan"}, "lon": -77.05032583333333, "type": "electric_scooter"}, {"bike_id": "8d73c11e1026d0d86689a5d72d8da496", "is_reserved": 0, "fusion_lon": 0.0, "lat": 38.917143333333335, "is_disabled": 0, "name": "8d73c11e1026d0d86689a5d72d8da496", "fusion_lat": 0.0, "rental_uris": {"ios": "https://dc.lft.to/lastmile_qr_scan", "android": "https://dc.lft.to/lastmile_qr_scan"}, "lon": -77.03221566666667, "type": "electric_scooter"}, {"bike_id": "6da5f2c91de0847bd72cbfe565e9a163", "is_reserved": 0, "fusion_lon": 0.0, "lat": 38.915508, "is_disabled": 0, "name": "6da5f2c91de0847bd72cbfe565e9a163", "fusion_lat": 0.0, "rental_uris": {"ios": "https://dc.lft.to/lastmile_qr_scan", "android": "https://dc.lft.to/lastmile_qr_scan"}, "lon": -77.02157233333334, "type": "electric_scooter"}, {"bike_id": "2bfca94db80bac9be1da2b82401737f0", "is_reserved": 0, "fusion_lon": 0.0, "lat": 38.90566583333333, "is_disabled": 0, "name": "2bfca94db80bac9be1da2b82401737f0", "fusion_lat": 0.0, "rental_uris": {"ios": "https://dc.lft.to/lastmile_qr_scan", "android": "https://dc.lft.to/lastmile_qr_scan"}, "lon": -76.981418, "type": "electric_scooter"}, {"bike_id": "9e0ee6910c295da340b6c40c40f57640", "is_reserved": 0, "fusion_lon": 0.0, "lat": 38.8962675, "is_disabled": 0, "name": "9e0ee6910c295da340b6c40c40f57640", "fusion_lat": 0.0, "rental_uris": {"ios": "https://dc.lft.to/lastmile_qr_scan", "android": "https://dc.lft.to/lastmile_qr_scan"}, "lon": -77.04500666666667, "type": "electric_scooter"}, {"bike_id": "3199f66c7fa48d54e4855ec229c46961", "is_reserved": 0, "fusion_lon": 0.0, "lat": 38.898516, "is_disabled": 0, "name": "3199f66c7fa48d54e4855ec229c46961", "fusion_lat": 0.0, "rental_uris": {"ios": "https://dc.lft.to/lastmile_qr_scan", "android": "https://dc.lft.to/lastmile_qr_scan"}, "lon": -77.03274483333334, "type": "electric_scooter"}, {"bike_id": "78001bcdd842f9ee76fcd9c6f588e604", "is_reserved": 0, "fusion_lon": 0.0, "lat": 38.87630016666667, "is_disabled": 0, "name": "78001bcdd842f9ee76fcd9c6f588e604", "fusion_lat": 0.0, "rental_uris": {"ios": "https://dc.lft.to/lastmile_qr_scan", "android": "https://dc.lft.to/lastmile_qr_scan"}, "lon": -76.96525433333333, "type": "electric_scooter"}, {"bike_id": "98efea6a389746bdca8df9c7e24875be", "is_reserved": 0, "fusion_lon": 0.0, "lat": 38.923659666666666, "is_disabled": 0, "name": "98efea6a389746bdca8df9c7e24875be", "fusion_lat": 0.0, "rental_uris": {"ios": "https://dc.lft.to/lastmile_qr_scan", "android": "https://dc.lft.to/lastmile_qr_scan"}, "lon": -77.01952483333334, "type": "electric_scooter"}, {"bike_id": "dfbaedd1ff3d3b9a7787f9772d72df40", "is_reserved": 0, "fusion_lon": 0.0, "lat": 38.90529516666667, "is_disabled": 0, "name": "dfbaedd1ff3d3b9a7787f9772d72df40", "fusion_lat": 0.0, "rental_uris": {"ios": "https://dc.lft.to/lastmile_qr_scan", "android": "https://dc.lft.to/lastmile_qr_scan"}, "lon": -77.06113083333334, "type": "electric_bike"}, {"bike_id": "5d63bc249b4edfd44a1d33f7262fcdb1", "is_reserved": 0, "fusion_lon": 0.0, "lat": 38.89219466666667, "is_disabled": 0, "name": "5d63bc249b4edfd44a1d33f7262fcdb1", "fusion_lat": 0.0, "rental_uris": {"ios": "https://dc.lft.to/lastmile_qr_scan", "android": "https://dc.lft.to/lastmile_qr_scan"}, "lon": -77.0316295, "type": "electric_scooter"}, {"bike_id": "e8cf83a1d0e6085c6239a2e32ab68fba", "is_reserved": 0, "fusion_lon": 0.0, "lat": 38.88498766666667, "is_disabled": 0, "name": "e8cf83a1d0e6085c6239a2e32ab68fba", "fusion_lat": 0.0, "rental_uris": {"ios": "https://dc.lft.to/lastmile_qr_scan", "android": "https://dc.lft.to/lastmile_qr_scan"}, "lon": -77.00891516666667, "type": "electric_scooter"}, {"bike_id": "36795c0242c036513ee5abffdc723587", "is_reserved": 0, "fusion_lon": 0.0, "lat": 38.912144166666664, "is_disabled": 0, "name": "36795c0242c036513ee5abffdc723587", "fusion_lat": 0.0, "rental_uris": {"ios": "https://dc.lft.to/lastmile_qr_scan", "android": "https://dc.lft.to/lastmile_qr_scan"}, "lon": -77.07605266666667, "type": "electric_scooter"}, {"bike_id": "0d9099e8a39f71e8ad0660a598b6af2b", "is_reserved": 0, "fusion_lon": 0.0, "lat": 38.922185999999996, "is_disabled": 0, "name": "0d9099e8a39f71e8ad0660a598b6af2b", "fusion_lat": 0.0, "rental_uris": {"ios": "https://dc.lft.to/lastmile_qr_scan", "android": "https://dc.lft.to/lastmile_qr_scan"}, "lon": -77.04259266666666, "type": "electric_scooter"}, {"bike_id": "be620dd26f52866d2e5715098e95e6df", "is_reserved": 0, "fusion_lon": 0.0, "lat": 38.90380483333333, "is_disabled": 0, "name": "be620dd26f52866d2e5715098e95e6df", "fusion_lat": 0.0, "rental_uris": {"ios": "https://dc.lft.to/lastmile_qr_scan", "android": "https://dc.lft.to/lastmile_qr_scan"}, "lon": -77.03644283333334, "type": "electric_scooter"}, {"bike_id": "8218acf97d13440597c6d17ebba31b2f", "is_reserved": 0, "fusion_lon": 0.0, "lat": 38.892232666666665, "is_disabled": 0, "name": "8218acf97d13440597c6d17ebba31b2f", "fusion_lat": 0.0, "rental_uris": {"ios": "https://dc.lft.to/lastmile_qr_scan", "android": "https://dc.lft.to/lastmile_qr_scan"}, "lon": -77.030968, "type": "electric_scooter"}, {"bike_id": "ad648d25919ddb83206f9cd9a537216d", "is_reserved": 0, "fusion_lon": 0.0, "lat": 38.88491233333333, "is_disabled": 0, "name": "ad648d25919ddb83206f9cd9a537216d", "fusion_lat": 0.0, "rental_uris": {"ios": "https://dc.lft.to/lastmile_qr_scan", "android": "https://dc.lft.to/lastmile_qr_scan"}, "lon": -77.00711483333333, "type": "electric_scooter"}, {"bike_id": "b1db0dd168ce6e8993cbeb96a710b020", "is_reserved": 0, "fusion_lon": 0.0, "lat": 38.9967805, "is_disabled": 0, "name": "b1db0dd168ce6e8993cbeb96a710b020", "fusion_lat": 0.0, "rental_uris": {"ios": "https://dc.lft.to/lastmile_qr_scan", "android": "https://dc.lft.to/lastmile_qr_scan"}, "lon": -77.03803966666666, "type": "electric_bike"}, {"bike_id": "4709f092e8fd27085891881693332a01", "is_reserved": 0, "fusion_lon": 0.0, "lat": 38.891690833333335, "is_disabled": 0, "name": "4709f092e8fd27085891881693332a01", "fusion_lat": 0.0, "rental_uris": {"ios": "https://dc.lft.to/lastmile_qr_scan", "android": "https://dc.lft.to/lastmile_qr_scan"}, "lon": -77.01545816666666, "type": "electric_scooter"}, {"bike_id": "bc8631cf591d6d88b12f28051d9d5872", "is_reserved": 0, "fusion_lon": 0.0, "lat": 38.92217616666667, "is_disabled": 0, "name": "bc8631cf591d6d88b12f28051d9d5872", "fusion_lat": 0.0, "rental_uris": {"ios": "https://dc.lft.to/lastmile_qr_scan", "android": "https://dc.lft.to/lastmile_qr_scan"}, "lon": -77.03660783333333, "type": "electric_scooter"}, {"bike_id": "3ab9afe6ad121c79184f6262e8dc4642", "is_reserved": 0, "fusion_lon": 0.0, "lat": 38.876462, "is_disabled": 0, "name": "3ab9afe6ad121c79184f6262e8dc4642", "fusion_lat": 0.0, "rental_uris": {"ios": "https://dc.lft.to/lastmile_qr_scan", "android": "https://dc.lft.to/lastmile_qr_scan"}, "lon": -76.995889, "type": "electric_scooter"}, {"bike_id": "aa67bfdcf49122f5645ba4612cb5f824", "is_reserved": 0, "fusion_lon": 0.0, "lat": 38.89830516666667, "is_disabled": 0, "name": "aa67bfdcf49122f5645ba4612cb5f824", "fusion_lat": 0.0, "rental_uris": {"ios": "https://dc.lft.to/lastmile_qr_scan", "android": "https://dc.lft.to/lastmile_qr_scan"}, "lon": -77.03324783333333, "type": "electric_scooter"}, {"bike_id": "967b75977222850b34f324a838bcb5b0", "is_reserved": 0, "fusion_lon": 0.0, "lat": 38.91844433333333, "is_disabled": 0, "name": "967b75977222850b34f324a838bcb5b0", "fusion_lat": 0.0, "rental_uris": {"ios": "https://dc.lft.to/lastmile_qr_scan", "android": "https://dc.lft.to/lastmile_qr_scan"}, "lon": -77.03900166666666, "type": "electric_scooter"}, {"bike_id": "e56a91366848c9de1a04ca273969a1d7", "is_reserved": 0, "fusion_lon": 0.0, "lat": 38.934276833333335, "is_disabled": 0, "name": "e56a91366848c9de1a04ca273969a1d7", "fusion_lat": 0.0, "rental_uris": {"ios": "https://dc.lft.to/lastmile_qr_scan", "android": "https://dc.lft.to/lastmile_qr_scan"}, "lon": -76.96506383333333, "type": "electric_scooter"}, {"bike_id": "39f697af7eec76474f87ec9641c502a1", "is_reserved": 0, "fusion_lon": 0.0, "lat": 38.905643833333336, "is_disabled": 0, "name": "39f697af7eec76474f87ec9641c502a1", "fusion_lat": 0.0, "rental_uris": {"ios": "https://dc.lft.to/lastmile_qr_scan", "android": "https://dc.lft.to/lastmile_qr_scan"}, "lon": -77.0249105, "type": "electric_scooter"}, {"bike_id": "4f60ce371b79787c2f903f9fd35b0247", "is_reserved": 0, "fusion_lon": 0.0, "lat": 38.90716883333333, "is_disabled": 0, "name": "4f60ce371b79787c2f903f9fd35b0247", "fusion_lat": 0.0, "rental_uris": {"ios": "https://dc.lft.to/lastmile_qr_scan", "android": "https://dc.lft.to/lastmile_qr_scan"}, "lon": -77.02398416666666, "type": "electric_scooter"}, {"bike_id": "17129dfcf90d90b9662ce92302433541", "is_reserved": 0, "fusion_lon": 0.0, "lat": 38.896882166666664, "is_disabled": 0, "name": "17129dfcf90d90b9662ce92302433541", "fusion_lat": 0.0, "rental_uris": {"ios": "https://dc.lft.to/lastmile_qr_scan", "android": "https://dc.lft.to/lastmile_qr_scan"}, "lon": -76.9962815, "type": "electric_scooter"}, {"bike_id": "fbf748e19b2fb02a2601ea1e52d42e2e", "is_reserved": 0, "fusion_lon": 0.0, "lat": 38.902550833333336, "is_disabled": 0, "name": "fbf748e19b2fb02a2601ea1e52d42e2e", "fusion_lat": 0.0, "rental_uris": {"ios": "https://dc.lft.to/lastmile_qr_scan", "android": "https://dc.lft.to/lastmile_qr_scan"}, "lon": -77.04349733333333, "type": "electric_scooter"}, {"bike_id": "fc9c42a2ffc83bda3b9c15bbe4b71adb", "is_reserved": 0, "fusion_lon": 0.0, "lat": 38.90532266666666, "is_disabled": 0, "name": "fc9c42a2ffc83bda3b9c15bbe4b71adb", "fusion_lat": 0.0, "rental_uris": {"ios": "https://dc.lft.to/lastmile_qr_scan", "android": "https://dc.lft.to/lastmile_qr_scan"}, "lon": -77.04337383333333, "type": "electric_scooter"}, {"bike_id": "1a453d07e232be4160d3bcc424aeaf24", "is_reserved": 0, "fusion_lon": 0.0, "lat": 38.87916333333333, "is_disabled": 0, "name": "1a453d07e232be4160d3bcc424aeaf24", "fusion_lat": 0.0, "rental_uris": {"ios": "https://dc.lft.to/lastmile_qr_scan", "android": "https://dc.lft.to/lastmile_qr_scan"}, "lon": -76.9950785, "type": "electric_scooter"}, {"bike_id": "0ef861c6d87efcadb045aef1d1811f4e", "is_reserved": 0, "fusion_lon": 0.0, "lat": 38.89224033333333, "is_disabled": 0, "name": "0ef861c6d87efcadb045aef1d1811f4e", "fusion_lat": 0.0, "rental_uris": {"ios": "https://dc.lft.to/lastmile_qr_scan", "android": "https://dc.lft.to/lastmile_qr_scan"}, "lon": -77.04194316666667, "type": "electric_scooter"}, {"bike_id": "64a455b626fd99f3c083fffd3a23d3c3", "is_reserved": 0, "fusion_lon": 0.0, "lat": 38.9167645, "is_disabled": 0, "name": "64a455b626fd99f3c083fffd3a23d3c3", "fusion_lat": 0.0, "rental_uris": {"ios": "https://dc.lft.to/lastmile_qr_scan", "android": "https://dc.lft.to/lastmile_qr_scan"}, "lon": -77.0297645, "type": "electric_scooter"}, {"bike_id": "d68d7090158d841f921071e9f58f163f", "is_reserved": 0, "fusion_lon": 0.0, "lat": 38.91858083333333, "is_disabled": 0, "name": "d68d7090158d841f921071e9f58f163f", "fusion_lat": 0.0, "rental_uris": {"ios": "https://dc.lft.to/lastmile_qr_scan", "android": "https://dc.lft.to/lastmile_qr_scan"}, "lon": -77.0416905, "type": "electric_scooter"}, {"bike_id": "bb7751cc3dc5391bb4d23d062bd3362a", "is_reserved": 0, "fusion_lon": 0.0, "lat": 38.8910665, "is_disabled": 0, "name": "bb7751cc3dc5391bb4d23d062bd3362a", "fusion_lat": 0.0, "rental_uris": {"ios": "https://dc.lft.to/lastmile_qr_scan", "android": "https://dc.lft.to/lastmile_qr_scan"}, "lon": -76.98707166666667, "type": "electric_scooter"}, {"bike_id": "de7d6e57588f0d180ea2338dbaab4841", "is_reserved": 0, "fusion_lon": 0.0, "lat": 38.89536966666667, "is_disabled": 0, "name": "de7d6e57588f0d180ea2338dbaab4841", "fusion_lat": 0.0, "rental_uris": {"ios": "https://dc.lft.to/lastmile_qr_scan", "android": "https://dc.lft.to/lastmile_qr_scan"}, "lon": -77.01903033333333, "type": "electric_scooter"}, {"bike_id": "b8506c313c390d0c2015441b28a2e8a8", "is_reserved": 0, "fusion_lon": 0.0, "lat": 38.9286565, "is_disabled": 0, "name": "b8506c313c390d0c2015441b28a2e8a8", "fusion_lat": 0.0, "rental_uris": {"ios": "https://dc.lft.to/lastmile_qr_scan", "android": "https://dc.lft.to/lastmile_qr_scan"}, "lon": -77.0138535, "type": "electric_scooter"}, {"bike_id": "01cfeb12f299f6f4b8478c3fb164247d", "is_reserved": 0, "fusion_lon": 0.0, "lat": 38.9200645, "is_disabled": 0, "name": "01cfeb12f299f6f4b8478c3fb164247d", "fusion_lat": 0.0, "rental_uris": {"ios": "https://dc.lft.to/lastmile_qr_scan", "android": "https://dc.lft.to/lastmile_qr_scan"}, "lon": -77.02201233333334, "type": "electric_scooter"}, {"bike_id": "fefa1333b36b6a9945f022d3e0ddb517", "is_reserved": 0, "fusion_lon": 0.0, "lat": 38.893718666666665, "is_disabled": 0, "name": "fefa1333b36b6a9945f022d3e0ddb517", "fusion_lat": 0.0, "rental_uris": {"ios": "https://dc.lft.to/lastmile_qr_scan", "android": "https://dc.lft.to/lastmile_qr_scan"}, "lon": -76.94958433333333, "type": "electric_scooter"}, {"bike_id": "6bc63582eb6664ebe33fe75696db1bd9", "is_reserved": 0, "fusion_lon": 0.0, "lat": 38.922468333333335, "is_disabled": 0, "name": "6bc63582eb6664ebe33fe75696db1bd9", "fusion_lat": 0.0, "rental_uris": {"ios": "https://dc.lft.to/lastmile_qr_scan", "android": "https://dc.lft.to/lastmile_qr_scan"}, "lon": -77.01949883333333, "type": "electric_scooter"}, {"bike_id": "6471f685e056862a08ac4b20b0a029a0", "is_reserved": 0, "fusion_lon": 0.0, "lat": 38.892242833333334, "is_disabled": 0, "name": "6471f685e056862a08ac4b20b0a029a0", "fusion_lat": 0.0, "rental_uris": {"ios": "https://dc.lft.to/lastmile_qr_scan", "android": "https://dc.lft.to/lastmile_qr_scan"}, "lon": -77.04870533333333, "type": "electric_scooter"}, {"bike_id": "93e46d9373800403c42ed6d814829132", "is_reserved": 0, "fusion_lon": 0.0, "lat": 38.927106, "is_disabled": 0, "name": "93e46d9373800403c42ed6d814829132", "fusion_lat": 0.0, "rental_uris": {"ios": "https://dc.lft.to/lastmile_qr_scan", "android": "https://dc.lft.to/lastmile_qr_scan"}, "lon": -77.04055666666666, "type": "electric_scooter"}, {"bike_id": "c4cf4d4ee20e1ef0dbf471c304d476e8", "is_reserved": 0, "fusion_lon": 0.0, "lat": 38.89192383333334, "is_disabled": 0, "name": "c4cf4d4ee20e1ef0dbf471c304d476e8", "fusion_lat": 0.0, "rental_uris": {"ios": "https://dc.lft.to/lastmile_qr_scan", "android": "https://dc.lft.to/lastmile_qr_scan"}, "lon": -77.0224015, "type": "electric_scooter"}, {"bike_id": "fbab57cf712431a44e0c71a8a8680328", "is_reserved": 0, "fusion_lon": 0.0, "lat": 38.92271433333333, "is_disabled": 0, "name": "fbab57cf712431a44e0c71a8a8680328", "fusion_lat": 0.0, "rental_uris": {"ios": "https://dc.lft.to/lastmile_qr_scan", "android": "https://dc.lft.to/lastmile_qr_scan"}, "lon": -77.01824866666666, "type": "electric_scooter"}, {"bike_id": "6a9d27f9b92b2fbbee4013aac1ab1ae4", "is_reserved": 0, "fusion_lon": 0.0, "lat": 38.90525233333334, "is_disabled": 0, "name": "6a9d27f9b92b2fbbee4013aac1ab1ae4", "fusion_lat": 0.0, "rental_uris": {"ios": "https://dc.lft.to/lastmile_qr_scan", "android": "https://dc.lft.to/lastmile_qr_scan"}, "lon": -77.06524083333333, "type": "electric_scooter"}, {"bike_id": "ca459caed50ee73625b7e5addc3f2851", "is_reserved": 0, "fusion_lon": 0.0, "lat": 38.90130083333333, "is_disabled": 0, "name": "ca459caed50ee73625b7e5addc3f2851", "fusion_lat": 0.0, "rental_uris": {"ios": "https://dc.lft.to/lastmile_qr_scan", "android": "https://dc.lft.to/lastmile_qr_scan"}, "lon": -76.99709316666667, "type": "electric_scooter"}, {"bike_id": "af48a46a662d2c7cbefbc2d240c9e494", "is_reserved": 0, "fusion_lon": 0.0, "lat": 38.91159566666666, "is_disabled": 0, "name": "af48a46a662d2c7cbefbc2d240c9e494", "fusion_lat": 0.0, "rental_uris": {"ios": "https://dc.lft.to/lastmile_qr_scan", "android": "https://dc.lft.to/lastmile_qr_scan"}, "lon": -76.98662033333333, "type": "electric_scooter"}, {"bike_id": "f61a9501b1cc88d135b846d1e3d67063", "is_reserved": 0, "fusion_lon": 0.0, "lat": 38.88749716666667, "is_disabled": 0, "name": "f61a9501b1cc88d135b846d1e3d67063", "fusion_lat": 0.0, "rental_uris": {"ios": "https://dc.lft.to/lastmile_qr_scan", "android": "https://dc.lft.to/lastmile_qr_scan"}, "lon": -77.0315495, "type": "electric_scooter"}, {"bike_id": "76c5516da74a69bcb7c2c8a479dd447b", "is_reserved": 0, "fusion_lon": 0.0, "lat": 38.948043166666665, "is_disabled": 0, "name": "76c5516da74a69bcb7c2c8a479dd447b", "fusion_lat": 0.0, "rental_uris": {"ios": "https://dc.lft.to/lastmile_qr_scan", "android": "https://dc.lft.to/lastmile_qr_scan"}, "lon": -77.07907116666667, "type": "electric_scooter"}, {"bike_id": "8582d4666232a301ff8150d550b51fcf", "is_reserved": 0, "fusion_lon": 0.0, "lat": 38.90511866666667, "is_disabled": 0, "name": "8582d4666232a301ff8150d550b51fcf", "fusion_lat": 0.0, "rental_uris": {"ios": "https://dc.lft.to/lastmile_qr_scan", "android": "https://dc.lft.to/lastmile_qr_scan"}, "lon": -77.0568735, "type": "electric_bike"}, {"bike_id": "e6e9ec9118eb16d15fa8af3f57e07ef5", "is_reserved": 0, "fusion_lon": 0.0, "lat": 38.8937415, "is_disabled": 0, "name": "e6e9ec9118eb16d15fa8af3f57e07ef5", "fusion_lat": 0.0, "rental_uris": {"ios": "https://dc.lft.to/lastmile_qr_scan", "android": "https://dc.lft.to/lastmile_qr_scan"}, "lon": -77.04786883333334, "type": "electric_scooter"}, {"bike_id": "c47c068cf93ed1da2420874bed12b030", "is_reserved": 0, "fusion_lon": 0.0, "lat": 38.9308345, "is_disabled": 0, "name": "c47c068cf93ed1da2420874bed12b030", "fusion_lat": 0.0, "rental_uris": {"ios": "https://dc.lft.to/lastmile_qr_scan", "android": "https://dc.lft.to/lastmile_qr_scan"}, "lon": -77.031385, "type": "electric_scooter"}, {"bike_id": "d67fff660b7dfa63c6477abecdc231c4", "is_reserved": 0, "fusion_lon": 0.0, "lat": 38.86010866666667, "is_disabled": 0, "name": "d67fff660b7dfa63c6477abecdc231c4", "fusion_lat": 0.0, "rental_uris": {"ios": "https://dc.lft.to/lastmile_qr_scan", "android": "https://dc.lft.to/lastmile_qr_scan"}, "lon": -77.057722, "type": "electric_bike"}, {"bike_id": "27ec203bab2eac54868d77ae0dc4da84", "is_reserved": 0, "fusion_lon": 0.0, "lat": 38.86620083333333, "is_disabled": 0, "name": "27ec203bab2eac54868d77ae0dc4da84", "fusion_lat": 0.0, "rental_uris": {"ios": "https://dc.lft.to/lastmile_qr_scan", "android": "https://dc.lft.to/lastmile_qr_scan"}, "lon": -76.94571516666667, "type": "electric_bike"}, {"bike_id": "bad79637559c7eb509f398872be254b5", "is_reserved": 0, "fusion_lon": 0.0, "lat": 38.903802666666664, "is_disabled": 0, "name": "bad79637559c7eb509f398872be254b5", "fusion_lat": 0.0, "rental_uris": {"ios": "https://dc.lft.to/lastmile_qr_scan", "android": "https://dc.lft.to/lastmile_qr_scan"}, "lon": -77.04496083333333, "type": "electric_scooter"}, {"bike_id": "a5837840669ef1e39def99eedafbfa05", "is_reserved": 0, "fusion_lon": 0.0, "lat": 38.902935, "is_disabled": 0, "name": "a5837840669ef1e39def99eedafbfa05", "fusion_lat": 0.0, "rental_uris": {"ios": "https://dc.lft.to/lastmile_qr_scan", "android": "https://dc.lft.to/lastmile_qr_scan"}, "lon": -76.990391, "type": "electric_scooter"}, {"bike_id": "af642ff2e6118d5f192078b63a78a2d5", "is_reserved": 0, "fusion_lon": 0.0, "lat": 38.900833, "is_disabled": 0, "name": "af642ff2e6118d5f192078b63a78a2d5", "fusion_lat": 0.0, "rental_uris": {"ios": "https://dc.lft.to/lastmile_qr_scan", "android": "https://dc.lft.to/lastmile_qr_scan"}, "lon": -76.9387635, "type": "electric_scooter"}, {"bike_id": "b96f9c6ce8313b0ab0d820b045d68385", "is_reserved": 0, "fusion_lon": 0.0, "lat": 38.90375933333333, "is_disabled": 0, "name": "b96f9c6ce8313b0ab0d820b045d68385", "fusion_lat": 0.0, "rental_uris": {"ios": "https://dc.lft.to/lastmile_qr_scan", "android": "https://dc.lft.to/lastmile_qr_scan"}, "lon": -77.0450205, "type": "electric_scooter"}, {"bike_id": "ab1a8658ca39e51c445c819088643b83", "is_reserved": 0, "fusion_lon": 0.0, "lat": 38.8972945, "is_disabled": 0, "name": "ab1a8658ca39e51c445c819088643b83", "fusion_lat": 0.0, "rental_uris": {"ios": "https://dc.lft.to/lastmile_qr_scan", "android": "https://dc.lft.to/lastmile_qr_scan"}, "lon": -77.05573383333333, "type": "electric_scooter"}, {"bike_id": "dff48aa3b231dd246524fc88f1a22698", "is_reserved": 0, "fusion_lon": 0.0, "lat": 38.94970983333333, "is_disabled": 0, "name": "dff48aa3b231dd246524fc88f1a22698", "fusion_lat": 0.0, "rental_uris": {"ios": "https://dc.lft.to/lastmile_qr_scan", "android": "https://dc.lft.to/lastmile_qr_scan"}, "lon": -76.97280333333333, "type": "electric_bike"}, {"bike_id": "7b8ec03177674ba6eb92629c82689aac", "is_reserved": 0, "fusion_lon": 0.0, "lat": 38.888472, "is_disabled": 0, "name": "7b8ec03177674ba6eb92629c82689aac", "fusion_lat": 0.0, "rental_uris": {"ios": "https://dc.lft.to/lastmile_qr_scan", "android": "https://dc.lft.to/lastmile_qr_scan"}, "lon": -76.92680916666667, "type": "electric_scooter"}, {"bike_id": "ae7d77e49244f4cb9d1b86878e64e65a", "is_reserved": 0, "fusion_lon": 0.0, "lat": 38.916907333333334, "is_disabled": 0, "name": "ae7d77e49244f4cb9d1b86878e64e65a", "fusion_lat": 0.0, "rental_uris": {"ios": "https://dc.lft.to/lastmile_qr_scan", "android": "https://dc.lft.to/lastmile_qr_scan"}, "lon": -77.03772666666667, "type": "electric_scooter"}, {"bike_id": "21fdd15b88f12ba1e032e2d16f960423", "is_reserved": 0, "fusion_lon": 0.0, "lat": 38.898778666666665, "is_disabled": 0, "name": "21fdd15b88f12ba1e032e2d16f960423", "fusion_lat": 0.0, "rental_uris": {"ios": "https://dc.lft.to/lastmile_qr_scan", "android": "https://dc.lft.to/lastmile_qr_scan"}, "lon": -76.93159616666667, "type": "electric_scooter"}, {"bike_id": "88b8a3092be4a8c970228969e0ee259f", "is_reserved": 0, "fusion_lon": 0.0, "lat": 38.906103333333334, "is_disabled": 0, "name": "88b8a3092be4a8c970228969e0ee259f", "fusion_lat": 0.0, "rental_uris": {"ios": "https://dc.lft.to/lastmile_qr_scan", "android": "https://dc.lft.to/lastmile_qr_scan"}, "lon": -77.03987333333333, "type": "electric_scooter"}, {"bike_id": "9be55c75d6c1e46ba59641ef8210366c", "is_reserved": 0, "fusion_lon": 0.0, "lat": 38.879175833333335, "is_disabled": 0, "name": "9be55c75d6c1e46ba59641ef8210366c", "fusion_lat": 0.0, "rental_uris": {"ios": "https://dc.lft.to/lastmile_qr_scan", "android": "https://dc.lft.to/lastmile_qr_scan"}, "lon": -77.00770866666667, "type": "electric_scooter"}, {"bike_id": "a110a06f3be5d1010e6445c493333c68", "is_reserved": 0, "fusion_lon": 0.0, "lat": 38.912166666666664, "is_disabled": 0, "name": "a110a06f3be5d1010e6445c493333c68", "fusion_lat": 0.0, "rental_uris": {"ios": "https://dc.lft.to/lastmile_qr_scan", "android": "https://dc.lft.to/lastmile_qr_scan"}, "lon": -77.0487665, "type": "electric_scooter"}, {"bike_id": "b3c96e15ef15d743b3156a4a01a39571", "is_reserved": 0, "fusion_lon": 0.0, "lat": 38.912456166666665, "is_disabled": 0, "name": "b3c96e15ef15d743b3156a4a01a39571", "fusion_lat": 0.0, "rental_uris": {"ios": "https://dc.lft.to/lastmile_qr_scan", "android": "https://dc.lft.to/lastmile_qr_scan"}, "lon": -77.01619183333334, "type": "electric_scooter"}, {"bike_id": "44b92ec1b79c279e6a9daefce250dbb1", "is_reserved": 0, "fusion_lon": 0.0, "lat": 38.901031333333336, "is_disabled": 0, "name": "44b92ec1b79c279e6a9daefce250dbb1", "fusion_lat": 0.0, "rental_uris": {"ios": "https://dc.lft.to/lastmile_qr_scan", "android": "https://dc.lft.to/lastmile_qr_scan"}, "lon": -77.04377783333334, "type": "electric_scooter"}, {"bike_id": "ff62984288f3cfedadbed3c55cba1f77", "is_reserved": 0, "fusion_lon": 0.0, "lat": 38.91218933333333, "is_disabled": 0, "name": "ff62984288f3cfedadbed3c55cba1f77", "fusion_lat": 0.0, "rental_uris": {"ios": "https://dc.lft.to/lastmile_qr_scan", "android": "https://dc.lft.to/lastmile_qr_scan"}, "lon": -77.00466033333333, "type": "electric_scooter"}, {"bike_id": "fb822c5b5181021d1cf4c80c22da9e12", "is_reserved": 0, "fusion_lon": 0.0, "lat": 38.92161883333333, "is_disabled": 0, "name": "fb822c5b5181021d1cf4c80c22da9e12", "fusion_lat": 0.0, "rental_uris": {"ios": "https://dc.lft.to/lastmile_qr_scan", "android": "https://dc.lft.to/lastmile_qr_scan"}, "lon": -77.0328935, "type": "electric_scooter"}, {"bike_id": "cc9cd41e86846e8081f662fcaf6284c1", "is_reserved": 0, "fusion_lon": 0.0, "lat": 38.909694, "is_disabled": 0, "name": "cc9cd41e86846e8081f662fcaf6284c1", "fusion_lat": 0.0, "rental_uris": {"ios": "https://dc.lft.to/lastmile_qr_scan", "android": "https://dc.lft.to/lastmile_qr_scan"}, "lon": -77.027277, "type": "electric_scooter"}, {"bike_id": "2f1b4b1b450273b6425296d0503ef4b8", "is_reserved": 0, "fusion_lon": 0.0, "lat": 38.9439895, "is_disabled": 0, "name": "2f1b4b1b450273b6425296d0503ef4b8", "fusion_lat": 0.0, "rental_uris": {"ios": "https://dc.lft.to/lastmile_qr_scan", "android": "https://dc.lft.to/lastmile_qr_scan"}, "lon": -77.03892016666667, "type": "electric_scooter"}, {"bike_id": "59ea9c31c55ac3e95a44b6fcff168390", "is_reserved": 0, "fusion_lon": 0.0, "lat": 38.921057833333336, "is_disabled": 0, "name": "59ea9c31c55ac3e95a44b6fcff168390", "fusion_lat": 0.0, "rental_uris": {"ios": "https://dc.lft.to/lastmile_qr_scan", "android": "https://dc.lft.to/lastmile_qr_scan"}, "lon": -77.017702, "type": "electric_scooter"}, {"bike_id": "07850633f07842044423a2e35e86c7ff", "is_reserved": 0, "fusion_lon": 0.0, "lat": 38.90863483333333, "is_disabled": 0, "name": "07850633f07842044423a2e35e86c7ff", "fusion_lat": 0.0, "rental_uris": {"ios": "https://dc.lft.to/lastmile_qr_scan", "android": "https://dc.lft.to/lastmile_qr_scan"}, "lon": -77.04496483333334, "type": "electric_scooter"}, {"bike_id": "a5eeb5a970625844aab928a3b6a9ab92", "is_reserved": 0, "fusion_lon": 0.0, "lat": 38.881532, "is_disabled": 0, "name": "a5eeb5a970625844aab928a3b6a9ab92", "fusion_lat": 0.0, "rental_uris": {"ios": "https://dc.lft.to/lastmile_qr_scan", "android": "https://dc.lft.to/lastmile_qr_scan"}, "lon": -77.02732833333333, "type": "electric_scooter"}, {"bike_id": "ddf0502deecf6b1a5c78584c55905b22", "is_reserved": 0, "fusion_lon": 0.0, "lat": 38.90539233333333, "is_disabled": 0, "name": "ddf0502deecf6b1a5c78584c55905b22", "fusion_lat": 0.0, "rental_uris": {"ios": "https://dc.lft.to/lastmile_qr_scan", "android": "https://dc.lft.to/lastmile_qr_scan"}, "lon": -77.03982816666667, "type": "electric_scooter"}, {"bike_id": "31a7ad352836356315539a92cc26017e", "is_reserved": 0, "fusion_lon": 0.0, "lat": 38.90463333333334, "is_disabled": 0, "name": "31a7ad352836356315539a92cc26017e", "fusion_lat": 0.0, "rental_uris": {"ios": "https://dc.lft.to/lastmile_qr_scan", "android": "https://dc.lft.to/lastmile_qr_scan"}, "lon": -77.038571, "type": "electric_scooter"}, {"bike_id": "f0b5b2f90c9939291a254e8436835fb6", "is_reserved": 0, "fusion_lon": 0.0, "lat": 38.8386465, "is_disabled": 0, "name": "f0b5b2f90c9939291a254e8436835fb6", "fusion_lat": 0.0, "rental_uris": {"ios": "https://dc.lft.to/lastmile_qr_scan", "android": "https://dc.lft.to/lastmile_qr_scan"}, "lon": -76.99697516666667, "type": "electric_bike"}, {"bike_id": "3fc67dcaea436cc1f864b68f8eeb48a2", "is_reserved": 0, "fusion_lon": 0.0, "lat": 38.865212166666666, "is_disabled": 0, "name": "3fc67dcaea436cc1f864b68f8eeb48a2", "fusion_lat": 0.0, "rental_uris": {"ios": "https://dc.lft.to/lastmile_qr_scan", "android": "https://dc.lft.to/lastmile_qr_scan"}, "lon": -76.99031933333333, "type": "electric_scooter"}, {"bike_id": "246ad17d50bccd983bf08ee4917c96c5", "is_reserved": 0, "fusion_lon": 0.0, "lat": 38.897453166666665, "is_disabled": 0, "name": "246ad17d50bccd983bf08ee4917c96c5", "fusion_lat": 0.0, "rental_uris": {"ios": "https://dc.lft.to/lastmile_qr_scan", "android": "https://dc.lft.to/lastmile_qr_scan"}, "lon": -76.93845333333333, "type": "electric_scooter"}, {"bike_id": "5d6fe82314b0b892bb24c3951e1bc650", "is_reserved": 0, "fusion_lon": 0.0, "lat": 38.89610733333333, "is_disabled": 0, "name": "5d6fe82314b0b892bb24c3951e1bc650", "fusion_lat": 0.0, "rental_uris": {"ios": "https://dc.lft.to/lastmile_qr_scan", "android": "https://dc.lft.to/lastmile_qr_scan"}, "lon": -77.04451333333333, "type": "electric_scooter"}, {"bike_id": "0d4e3c3c0889c760a0a7618db4481a25", "is_reserved": 0, "fusion_lon": 0.0, "lat": 38.919959166666665, "is_disabled": 0, "name": "0d4e3c3c0889c760a0a7618db4481a25", "fusion_lat": 0.0, "rental_uris": {"ios": "https://dc.lft.to/lastmile_qr_scan", "android": "https://dc.lft.to/lastmile_qr_scan"}, "lon": -77.03234133333333, "type": "electric_scooter"}, {"bike_id": "b204125b08bf35cbb2b4c6a2761ff4af", "is_reserved": 0, "fusion_lon": 0.0, "lat": 38.91462633333333, "is_disabled": 0, "name": "b204125b08bf35cbb2b4c6a2761ff4af", "fusion_lat": 0.0, "rental_uris": {"ios": "https://dc.lft.to/lastmile_qr_scan", "android": "https://dc.lft.to/lastmile_qr_scan"}, "lon": -76.98434716666667, "type": "electric_scooter"}, {"bike_id": "72e3b94d8295850baaf912edc9eb2d04", "is_reserved": 0, "fusion_lon": 0.0, "lat": 38.904780333333335, "is_disabled": 0, "name": "72e3b94d8295850baaf912edc9eb2d04", "fusion_lat": 0.0, "rental_uris": {"ios": "https://dc.lft.to/lastmile_qr_scan", "android": "https://dc.lft.to/lastmile_qr_scan"}, "lon": -77.02964766666666, "type": "electric_scooter"}, {"bike_id": "a80b468f207626dcbc2570b9dd98cc27", "is_reserved": 0, "fusion_lon": 0.0, "lat": 38.924677333333335, "is_disabled": 0, "name": "a80b468f207626dcbc2570b9dd98cc27", "fusion_lat": 0.0, "rental_uris": {"ios": "https://dc.lft.to/lastmile_qr_scan", "android": "https://dc.lft.to/lastmile_qr_scan"}, "lon": -77.02710266666666, "type": "electric_scooter"}, {"bike_id": "fc62f1126dfd439772f997da9187d938", "is_reserved": 0, "fusion_lon": 0.0, "lat": 38.91968516666667, "is_disabled": 0, "name": "fc62f1126dfd439772f997da9187d938", "fusion_lat": 0.0, "rental_uris": {"ios": "https://dc.lft.to/lastmile_qr_scan", "android": "https://dc.lft.to/lastmile_qr_scan"}, "lon": -77.036624, "type": "electric_bike"}, {"bike_id": "b41816ceb55c615c65083f49474913f4", "is_reserved": 0, "fusion_lon": 0.0, "lat": 38.8381005, "is_disabled": 0, "name": "b41816ceb55c615c65083f49474913f4", "fusion_lat": 0.0, "rental_uris": {"ios": "https://dc.lft.to/lastmile_qr_scan", "android": "https://dc.lft.to/lastmile_qr_scan"}, "lon": -77.09521216666667, "type": "electric_bike"}, {"bike_id": "2290c499287c64f408aed751967fbebe", "is_reserved": 0, "fusion_lon": 0.0, "lat": 38.86665033333333, "is_disabled": 0, "name": "2290c499287c64f408aed751967fbebe", "fusion_lat": 0.0, "rental_uris": {"ios": "https://dc.lft.to/lastmile_qr_scan", "android": "https://dc.lft.to/lastmile_qr_scan"}, "lon": -76.98902966666667, "type": "electric_scooter"}, {"bike_id": "d3481c80fc98d28f143d0b178f825676", "is_reserved": 0, "fusion_lon": 0.0, "lat": 38.94628183333333, "is_disabled": 0, "name": "d3481c80fc98d28f143d0b178f825676", "fusion_lat": 0.0, "rental_uris": {"ios": "https://dc.lft.to/lastmile_qr_scan", "android": "https://dc.lft.to/lastmile_qr_scan"}, "lon": -77.01843066666666, "type": "electric_scooter"}, {"bike_id": "00fd96dc5ed54f8179e526cefb9adaa1", "is_reserved": 0, "fusion_lon": 0.0, "lat": 38.876305333333335, "is_disabled": 0, "name": "00fd96dc5ed54f8179e526cefb9adaa1", "fusion_lat": 0.0, "rental_uris": {"ios": "https://dc.lft.to/lastmile_qr_scan", "android": "https://dc.lft.to/lastmile_qr_scan"}, "lon": -76.9652755, "type": "electric_scooter"}, {"bike_id": "a695f11f5593e3cb483f8236c63e2ed0", "is_reserved": 0, "fusion_lon": 0.0, "lat": 38.93287866666667, "is_disabled": 0, "name": "a695f11f5593e3cb483f8236c63e2ed0", "fusion_lat": 0.0, "rental_uris": {"ios": "https://dc.lft.to/lastmile_qr_scan", "android": "https://dc.lft.to/lastmile_qr_scan"}, "lon": -77.03978866666667, "type": "electric_scooter"}, {"bike_id": "88ea089bf1490761488b6dee3ca39474", "is_reserved": 0, "fusion_lon": 0.0, "lat": 38.904437, "is_disabled": 0, "name": "88ea089bf1490761488b6dee3ca39474", "fusion_lat": 0.0, "rental_uris": {"ios": "https://dc.lft.to/lastmile_qr_scan", "android": "https://dc.lft.to/lastmile_qr_scan"}, "lon": -77.06122166666667, "type": "electric_scooter"}, {"bike_id": "d3341ae9b06996f2ef390dae4ddef906", "is_reserved": 0, "fusion_lon": 0.0, "lat": 38.926863, "is_disabled": 0, "name": "d3341ae9b06996f2ef390dae4ddef906", "fusion_lat": 0.0, "rental_uris": {"ios": "https://dc.lft.to/lastmile_qr_scan", "android": "https://dc.lft.to/lastmile_qr_scan"}, "lon": -77.0157075, "type": "electric_scooter"}, {"bike_id": "f89189ac07720a311d545deb605fe204", "is_reserved": 0, "fusion_lon": 0.0, "lat": 38.90870833333334, "is_disabled": 0, "name": "f89189ac07720a311d545deb605fe204", "fusion_lat": 0.0, "rental_uris": {"ios": "https://dc.lft.to/lastmile_qr_scan", "android": "https://dc.lft.to/lastmile_qr_scan"}, "lon": -77.03276783333334, "type": "electric_scooter"}, {"bike_id": "19f1b174cf945bfff04cc3a5baa53d36", "is_reserved": 0, "fusion_lon": 0.0, "lat": 38.90522683333333, "is_disabled": 0, "name": "19f1b174cf945bfff04cc3a5baa53d36", "fusion_lat": 0.0, "rental_uris": {"ios": "https://dc.lft.to/lastmile_qr_scan", "android": "https://dc.lft.to/lastmile_qr_scan"}, "lon": -77.06534733333334, "type": "electric_scooter"}, {"bike_id": "c8d8339a0724d69cd0787ad4619e5d32", "is_reserved": 0, "fusion_lon": 0.0, "lat": 38.845723666666665, "is_disabled": 0, "name": "c8d8339a0724d69cd0787ad4619e5d32", "fusion_lat": 0.0, "rental_uris": {"ios": "https://dc.lft.to/lastmile_qr_scan", "android": "https://dc.lft.to/lastmile_qr_scan"}, "lon": -77.09623483333333, "type": "electric_bike"}, {"bike_id": "ebcf3a5fa4ccb7511537fc80ac9717c5", "is_reserved": 0, "fusion_lon": 0.0, "lat": 38.90080833333333, "is_disabled": 0, "name": "ebcf3a5fa4ccb7511537fc80ac9717c5", "fusion_lat": 0.0, "rental_uris": {"ios": "https://dc.lft.to/lastmile_qr_scan", "android": "https://dc.lft.to/lastmile_qr_scan"}, "lon": -77.05031233333334, "type": "electric_scooter"}, {"bike_id": "1768a2d0212e457477022034bf618fa6", "is_reserved": 0, "fusion_lon": 0.0, "lat": 38.8903985, "is_disabled": 0, "name": "1768a2d0212e457477022034bf618fa6", "fusion_lat": 0.0, "rental_uris": {"ios": "https://dc.lft.to/lastmile_qr_scan", "android": "https://dc.lft.to/lastmile_qr_scan"}, "lon": -77.0266235, "type": "electric_scooter"}, {"bike_id": "e3412467bc6a4d7603402a3b3ddc9d7d", "is_reserved": 0, "fusion_lon": 0.0, "lat": 38.901415, "is_disabled": 0, "name": "e3412467bc6a4d7603402a3b3ddc9d7d", "fusion_lat": 0.0, "rental_uris": {"ios": "https://dc.lft.to/lastmile_qr_scan", "android": "https://dc.lft.to/lastmile_qr_scan"}, "lon": -77.04188466666666, "type": "electric_scooter"}, {"bike_id": "e540bee218d81f6d8db6c65e4fe074ac", "is_reserved": 0, "fusion_lon": 0.0, "lat": 38.921568, "is_disabled": 0, "name": "e540bee218d81f6d8db6c65e4fe074ac", "fusion_lat": 0.0, "rental_uris": {"ios": "https://dc.lft.to/lastmile_qr_scan", "android": "https://dc.lft.to/lastmile_qr_scan"}, "lon": -77.04688166666666, "type": "electric_scooter"}, {"bike_id": "de2adc251a7471ab657ef566778b34b8", "is_reserved": 0, "fusion_lon": 0.0, "lat": 38.85159933333333, "is_disabled": 0, "name": "de2adc251a7471ab657ef566778b34b8", "fusion_lat": 0.0, "rental_uris": {"ios": "https://dc.lft.to/lastmile_qr_scan", "android": "https://dc.lft.to/lastmile_qr_scan"}, "lon": -77.12883866666667, "type": "electric_bike"}, {"bike_id": "154af626eb3e88c6f147e754cd5e1c17", "is_reserved": 0, "fusion_lon": 0.0, "lat": 38.89350366666667, "is_disabled": 0, "name": "154af626eb3e88c6f147e754cd5e1c17", "fusion_lat": 0.0, "rental_uris": {"ios": "https://dc.lft.to/lastmile_qr_scan", "android": "https://dc.lft.to/lastmile_qr_scan"}, "lon": -77.001981, "type": "electric_scooter"}, {"bike_id": "6e08ffffd665876dca5c0839549acec1", "is_reserved": 0, "fusion_lon": 0.0, "lat": 38.86576183333333, "is_disabled": 0, "name": "6e08ffffd665876dca5c0839549acec1", "fusion_lat": 0.0, "rental_uris": {"ios": "https://dc.lft.to/lastmile_qr_scan", "android": "https://dc.lft.to/lastmile_qr_scan"}, "lon": -76.989552, "type": "electric_scooter"}, {"bike_id": "3267ccebb6e8706a7f4752f2cff936d9", "is_reserved": 0, "fusion_lon": 0.0, "lat": 38.914843833333336, "is_disabled": 0, "name": "3267ccebb6e8706a7f4752f2cff936d9", "fusion_lat": 0.0, "rental_uris": {"ios": "https://dc.lft.to/lastmile_qr_scan", "android": "https://dc.lft.to/lastmile_qr_scan"}, "lon": -77.02190616666667, "type": "electric_scooter"}, {"bike_id": "74b8d32a94df51f752a190880b4fe2a8", "is_reserved": 0, "fusion_lon": 0.0, "lat": 38.89478616666667, "is_disabled": 0, "name": "74b8d32a94df51f752a190880b4fe2a8", "fusion_lat": 0.0, "rental_uris": {"ios": "https://dc.lft.to/lastmile_qr_scan", "android": "https://dc.lft.to/lastmile_qr_scan"}, "lon": -76.98404466666666, "type": "electric_scooter"}, {"bike_id": "706b38284e113eb385d6230a411d0daf", "is_reserved": 0, "fusion_lon": 0.0, "lat": 38.902894833333335, "is_disabled": 0, "name": "706b38284e113eb385d6230a411d0daf", "fusion_lat": 0.0, "rental_uris": {"ios": "https://dc.lft.to/lastmile_qr_scan", "android": "https://dc.lft.to/lastmile_qr_scan"}, "lon": -77.04605466666666, "type": "electric_scooter"}, {"bike_id": "2a675e336030b9b41d44a48bb0d1290b", "is_reserved": 0, "fusion_lon": 0.0, "lat": 38.900634333333336, "is_disabled": 0, "name": "2a675e336030b9b41d44a48bb0d1290b", "fusion_lat": 0.0, "rental_uris": {"ios": "https://dc.lft.to/lastmile_qr_scan", "android": "https://dc.lft.to/lastmile_qr_scan"}, "lon": -77.05012166666667, "type": "electric_scooter"}, {"bike_id": "291e9e802e17e24ac495e6f9d38ac424", "is_reserved": 0, "fusion_lon": 0.0, "lat": 38.89617533333333, "is_disabled": 0, "name": "291e9e802e17e24ac495e6f9d38ac424", "fusion_lat": 0.0, "rental_uris": {"ios": "https://dc.lft.to/lastmile_qr_scan", "android": "https://dc.lft.to/lastmile_qr_scan"}, "lon": -76.98122916666667, "type": "electric_scooter"}, {"bike_id": "80966a7dc9af39fed718ddb5483adda5", "is_reserved": 0, "fusion_lon": 0.0, "lat": 38.950935, "is_disabled": 0, "name": "80966a7dc9af39fed718ddb5483adda5", "fusion_lat": 0.0, "rental_uris": {"ios": "https://dc.lft.to/lastmile_qr_scan", "android": "https://dc.lft.to/lastmile_qr_scan"}, "lon": -77.02335383333333, "type": "electric_scooter"}, {"bike_id": "efd9d94a2cc1f3b4a86efc5d260f957d", "is_reserved": 0, "fusion_lon": 0.0, "lat": 38.96616183333333, "is_disabled": 0, "name": "efd9d94a2cc1f3b4a86efc5d260f957d", "fusion_lat": 0.0, "rental_uris": {"ios": "https://dc.lft.to/lastmile_qr_scan", "android": "https://dc.lft.to/lastmile_qr_scan"}, "lon": -77.034234, "type": "electric_bike"}, {"bike_id": "dce0d4f9121c1d32ac71f5db65042ae2", "is_reserved": 0, "fusion_lon": 0.0, "lat": 38.89727416666667, "is_disabled": 0, "name": "dce0d4f9121c1d32ac71f5db65042ae2", "fusion_lat": 0.0, "rental_uris": {"ios": "https://dc.lft.to/lastmile_qr_scan", "android": "https://dc.lft.to/lastmile_qr_scan"}, "lon": -76.92594116666666, "type": "electric_scooter"}, {"bike_id": "431529b6476781786d038616f79f6568", "is_reserved": 0, "fusion_lon": 0.0, "lat": 38.90770333333333, "is_disabled": 0, "name": "431529b6476781786d038616f79f6568", "fusion_lat": 0.0, "rental_uris": {"ios": "https://dc.lft.to/lastmile_qr_scan", "android": "https://dc.lft.to/lastmile_qr_scan"}, "lon": -77.069155, "type": "electric_scooter"}, {"bike_id": "f76be3ea1aaeeeab774724e7da22b0b4", "is_reserved": 0, "fusion_lon": 0.0, "lat": 38.887697333333335, "is_disabled": 0, "name": "f76be3ea1aaeeeab774724e7da22b0b4", "fusion_lat": 0.0, "rental_uris": {"ios": "https://dc.lft.to/lastmile_qr_scan", "android": "https://dc.lft.to/lastmile_qr_scan"}, "lon": -77.02231533333334, "type": "electric_scooter"}, {"bike_id": "c3f32009f94a7896e23e07df61f733fd", "is_reserved": 0, "fusion_lon": 0.0, "lat": 38.921557, "is_disabled": 0, "name": "c3f32009f94a7896e23e07df61f733fd", "fusion_lat": 0.0, "rental_uris": {"ios": "https://dc.lft.to/lastmile_qr_scan", "android": "https://dc.lft.to/lastmile_qr_scan"}, "lon": -77.03438433333334, "type": "electric_scooter"}, {"bike_id": "8749f486c2f02a1b4255d1d422366c3b", "is_reserved": 0, "fusion_lon": 0.0, "lat": 38.90284233333333, "is_disabled": 0, "name": "8749f486c2f02a1b4255d1d422366c3b", "fusion_lat": 0.0, "rental_uris": {"ios": "https://dc.lft.to/lastmile_qr_scan", "android": "https://dc.lft.to/lastmile_qr_scan"}, "lon": -77.0414395, "type": "electric_scooter"}, {"bike_id": "3193c385dc0d08f5d8714637d334d6da", "is_reserved": 0, "fusion_lon": 0.0, "lat": 38.91799483333333, "is_disabled": 0, "name": "3193c385dc0d08f5d8714637d334d6da", "fusion_lat": 0.0, "rental_uris": {"ios": "https://dc.lft.to/lastmile_qr_scan", "android": "https://dc.lft.to/lastmile_qr_scan"}, "lon": -77.03440933333333, "type": "electric_scooter"}, {"bike_id": "ac5043dc8be14fa9f7a04b6c4255b086", "is_reserved": 0, "fusion_lon": 0.0, "lat": 38.90166283333333, "is_disabled": 0, "name": "ac5043dc8be14fa9f7a04b6c4255b086", "fusion_lat": 0.0, "rental_uris": {"ios": "https://dc.lft.to/lastmile_qr_scan", "android": "https://dc.lft.to/lastmile_qr_scan"}, "lon": -77.02603366666666, "type": "electric_scooter"}, {"bike_id": "ef911fc54b4b2cdf25174e43142d2fba", "is_reserved": 0, "fusion_lon": 0.0, "lat": 38.99940633333333, "is_disabled": 0, "name": "ef911fc54b4b2cdf25174e43142d2fba", "fusion_lat": 0.0, "rental_uris": {"ios": "https://dc.lft.to/lastmile_qr_scan", "android": "https://dc.lft.to/lastmile_qr_scan"}, "lon": -77.0176915, "type": "electric_bike"}, {"bike_id": "37a8af2665ab797d8307f01081083d67", "is_reserved": 0, "fusion_lon": 0.0, "lat": 38.899529, "is_disabled": 0, "name": "37a8af2665ab797d8307f01081083d67", "fusion_lat": 0.0, "rental_uris": {"ios": "https://dc.lft.to/lastmile_qr_scan", "android": "https://dc.lft.to/lastmile_qr_scan"}, "lon": -77.03154133333334, "type": "electric_scooter"}, {"bike_id": "d22397096bffbbe7caea342a61ac8ded", "is_reserved": 0, "fusion_lon": 0.0, "lat": 38.92445433333334, "is_disabled": 0, "name": "d22397096bffbbe7caea342a61ac8ded", "fusion_lat": 0.0, "rental_uris": {"ios": "https://dc.lft.to/lastmile_qr_scan", "android": "https://dc.lft.to/lastmile_qr_scan"}, "lon": -77.03406066666666, "type": "electric_scooter"}, {"bike_id": "a8c82b0b6ec6a085468906490705772f", "is_reserved": 0, "fusion_lon": 0.0, "lat": 38.91996866666667, "is_disabled": 0, "name": "a8c82b0b6ec6a085468906490705772f", "fusion_lat": 0.0, "rental_uris": {"ios": "https://dc.lft.to/lastmile_qr_scan", "android": "https://dc.lft.to/lastmile_qr_scan"}, "lon": -77.03236816666667, "type": "electric_scooter"}, {"bike_id": "63124c21e5ab4a20fa2d424ca226a1ed", "is_reserved": 0, "fusion_lon": 0.0, "lat": 38.956450833333335, "is_disabled": 0, "name": "63124c21e5ab4a20fa2d424ca226a1ed", "fusion_lat": 0.0, "rental_uris": {"ios": "https://dc.lft.to/lastmile_qr_scan", "android": "https://dc.lft.to/lastmile_qr_scan"}, "lon": -77.02256316666667, "type": "electric_scooter"}, {"bike_id": "aba2fa46350bbe4b8398489b9246568e", "is_reserved": 0, "fusion_lon": 0.0, "lat": 38.924802666666665, "is_disabled": 0, "name": "aba2fa46350bbe4b8398489b9246568e", "fusion_lat": 0.0, "rental_uris": {"ios": "https://dc.lft.to/lastmile_qr_scan", "android": "https://dc.lft.to/lastmile_qr_scan"}, "lon": -77.0520935, "type": "electric_scooter"}, {"bike_id": "279e90c3ac6a7a9469ffd10881665e1f", "is_reserved": 0, "fusion_lon": 0.0, "lat": 38.925526166666664, "is_disabled": 0, "name": "279e90c3ac6a7a9469ffd10881665e1f", "fusion_lat": 0.0, "rental_uris": {"ios": "https://dc.lft.to/lastmile_qr_scan", "android": "https://dc.lft.to/lastmile_qr_scan"}, "lon": -77.07321383333333, "type": "electric_bike"}, {"bike_id": "16fcf5c7c554449d0170a4359a366f77", "is_reserved": 0, "fusion_lon": 0.0, "lat": 38.85291383333333, "is_disabled": 0, "name": "16fcf5c7c554449d0170a4359a366f77", "fusion_lat": 0.0, "rental_uris": {"ios": "https://dc.lft.to/lastmile_qr_scan", "android": "https://dc.lft.to/lastmile_qr_scan"}, "lon": -77.05275616666667, "type": "electric_bike"}, {"bike_id": "4b74587ec939cf01645dfd86629b261a", "is_reserved": 0, "fusion_lon": 0.0, "lat": 38.924733, "is_disabled": 0, "name": "4b74587ec939cf01645dfd86629b261a", "fusion_lat": 0.0, "rental_uris": {"ios": "https://dc.lft.to/lastmile_qr_scan", "android": "https://dc.lft.to/lastmile_qr_scan"}, "lon": -77.02269383333334, "type": "electric_scooter"}, {"bike_id": "f24f4d1b5cbb370b697563b5bb18834c", "is_reserved": 0, "fusion_lon": 0.0, "lat": 38.856813833333334, "is_disabled": 0, "name": "f24f4d1b5cbb370b697563b5bb18834c", "fusion_lat": 0.0, "rental_uris": {"ios": "https://dc.lft.to/lastmile_qr_scan", "android": "https://dc.lft.to/lastmile_qr_scan"}, "lon": -77.08567633333334, "type": "electric_bike"}, {"bike_id": "b4fa765dfd6510e08247920edebbfd6a", "is_reserved": 0, "fusion_lon": 0.0, "lat": 38.8711765, "is_disabled": 0, "name": "b4fa765dfd6510e08247920edebbfd6a", "fusion_lat": 0.0, "rental_uris": {"ios": "https://dc.lft.to/lastmile_qr_scan", "android": "https://dc.lft.to/lastmile_qr_scan"}, "lon": -76.97748766666666, "type": "electric_scooter"}, {"bike_id": "4d2c7900de961ee73d8aba7e07bb7867", "is_reserved": 0, "fusion_lon": 0.0, "lat": 38.863839166666665, "is_disabled": 0, "name": "4d2c7900de961ee73d8aba7e07bb7867", "fusion_lat": 0.0, "rental_uris": {"ios": "https://dc.lft.to/lastmile_qr_scan", "android": "https://dc.lft.to/lastmile_qr_scan"}, "lon": -76.99059433333333, "type": "electric_scooter"}, {"bike_id": "e1e07df307590f15ff7d9312ba7b912b", "is_reserved": 0, "fusion_lon": 0.0, "lat": 38.86517833333333, "is_disabled": 0, "name": "e1e07df307590f15ff7d9312ba7b912b", "fusion_lat": 0.0, "rental_uris": {"ios": "https://dc.lft.to/lastmile_qr_scan", "android": "https://dc.lft.to/lastmile_qr_scan"}, "lon": -76.990393, "type": "electric_scooter"}, {"bike_id": "15d306d900db2a5a75be0212d584c8f0", "is_reserved": 0, "fusion_lon": 0.0, "lat": 38.90034983333334, "is_disabled": 0, "name": "15d306d900db2a5a75be0212d584c8f0", "fusion_lat": 0.0, "rental_uris": {"ios": "https://dc.lft.to/lastmile_qr_scan", "android": "https://dc.lft.to/lastmile_qr_scan"}, "lon": -76.99828866666667, "type": "electric_scooter"}, {"bike_id": "3190aed6c2662b59a6b6cbe7ce40daa6", "is_reserved": 0, "fusion_lon": 0.0, "lat": 38.918314333333335, "is_disabled": 0, "name": "3190aed6c2662b59a6b6cbe7ce40daa6", "fusion_lat": 0.0, "rental_uris": {"ios": "https://dc.lft.to/lastmile_qr_scan", "android": "https://dc.lft.to/lastmile_qr_scan"}, "lon": -77.0320655, "type": "electric_scooter"}, {"bike_id": "f926e062a5a5672f47660ccfe6c83fe1", "is_reserved": 0, "fusion_lon": 0.0, "lat": 38.91028283333333, "is_disabled": 0, "name": "f926e062a5a5672f47660ccfe6c83fe1", "fusion_lat": 0.0, "rental_uris": {"ios": "https://dc.lft.to/lastmile_qr_scan", "android": "https://dc.lft.to/lastmile_qr_scan"}, "lon": -77.03843466666666, "type": "electric_scooter"}, {"bike_id": "910fd4cd95fcf765815bb3a3b667cbb2", "is_reserved": 0, "fusion_lon": 0.0, "lat": 38.88373566666667, "is_disabled": 0, "name": "910fd4cd95fcf765815bb3a3b667cbb2", "fusion_lat": 0.0, "rental_uris": {"ios": "https://dc.lft.to/lastmile_qr_scan", "android": "https://dc.lft.to/lastmile_qr_scan"}, "lon": -76.99519766666667, "type": "electric_scooter"}, {"bike_id": "921df97a6a68fa1a69621e4b9e57d203", "is_reserved": 0, "fusion_lon": 0.0, "lat": 38.892251, "is_disabled": 0, "name": "921df97a6a68fa1a69621e4b9e57d203", "fusion_lat": 0.0, "rental_uris": {"ios": "https://dc.lft.to/lastmile_qr_scan", "android": "https://dc.lft.to/lastmile_qr_scan"}, "lon": -77.04868266666666, "type": "electric_scooter"}, {"bike_id": "0326df7b922190ae50c04c1d541fb00a", "is_reserved": 0, "fusion_lon": 0.0, "lat": 38.90957016666667, "is_disabled": 0, "name": "0326df7b922190ae50c04c1d541fb00a", "fusion_lat": 0.0, "rental_uris": {"ios": "https://dc.lft.to/lastmile_qr_scan", "android": "https://dc.lft.to/lastmile_qr_scan"}, "lon": -76.98535983333333, "type": "electric_scooter"}, {"bike_id": "78092e53576fae0ab88332378425869a", "is_reserved": 0, "fusion_lon": 0.0, "lat": 38.911093, "is_disabled": 0, "name": "78092e53576fae0ab88332378425869a", "fusion_lat": 0.0, "rental_uris": {"ios": "https://dc.lft.to/lastmile_qr_scan", "android": "https://dc.lft.to/lastmile_qr_scan"}, "lon": -77.00371933333334, "type": "electric_scooter"}, {"bike_id": "5499f6bc32148e8865b4ef875d757af6", "is_reserved": 0, "fusion_lon": 0.0, "lat": 38.9064055, "is_disabled": 0, "name": "5499f6bc32148e8865b4ef875d757af6", "fusion_lat": 0.0, "rental_uris": {"ios": "https://dc.lft.to/lastmile_qr_scan", "android": "https://dc.lft.to/lastmile_qr_scan"}, "lon": -77.05122633333333, "type": "electric_scooter"}, {"bike_id": "d709c1fc69c329355b938be3cdfcb8be", "is_reserved": 0, "fusion_lon": 0.0, "lat": 38.8664765, "is_disabled": 0, "name": "d709c1fc69c329355b938be3cdfcb8be", "fusion_lat": 0.0, "rental_uris": {"ios": "https://dc.lft.to/lastmile_qr_scan", "android": "https://dc.lft.to/lastmile_qr_scan"}, "lon": -77.2319185, "type": "electric_bike"}, {"bike_id": "657675df03a999a82e2a56239f481d42", "is_reserved": 0, "fusion_lon": 0.0, "lat": 38.902608666666666, "is_disabled": 0, "name": "657675df03a999a82e2a56239f481d42", "fusion_lat": 0.0, "rental_uris": {"ios": "https://dc.lft.to/lastmile_qr_scan", "android": "https://dc.lft.to/lastmile_qr_scan"}, "lon": -77.03426116666667, "type": "electric_scooter"}, {"bike_id": "e2026d744643d63d105970b90e668a39", "is_reserved": 0, "fusion_lon": 0.0, "lat": 38.928684833333335, "is_disabled": 0, "name": "e2026d744643d63d105970b90e668a39", "fusion_lat": 0.0, "rental_uris": {"ios": "https://dc.lft.to/lastmile_qr_scan", "android": "https://dc.lft.to/lastmile_qr_scan"}, "lon": -77.02730983333333, "type": "electric_scooter"}, {"bike_id": "ddd8b0acdf243098e372007f6a659fa6", "is_reserved": 0, "fusion_lon": 0.0, "lat": 38.973272, "is_disabled": 0, "name": "ddd8b0acdf243098e372007f6a659fa6", "fusion_lat": 0.0, "rental_uris": {"ios": "https://dc.lft.to/lastmile_qr_scan", "android": "https://dc.lft.to/lastmile_qr_scan"}, "lon": -77.0214855, "type": "electric_bike"}, {"bike_id": "b2562f4a93dcfbf86ad17741106abffd", "is_reserved": 0, "fusion_lon": 0.0, "lat": 38.9049575, "is_disabled": 0, "name": "b2562f4a93dcfbf86ad17741106abffd", "fusion_lat": 0.0, "rental_uris": {"ios": "https://dc.lft.to/lastmile_qr_scan", "android": "https://dc.lft.to/lastmile_qr_scan"}, "lon": -77.00733266666667, "type": "electric_scooter"}, {"bike_id": "3388a15eb91f8e70de1b0a32034efc6e", "is_reserved": 0, "fusion_lon": 0.0, "lat": 38.95883366666666, "is_disabled": 0, "name": "3388a15eb91f8e70de1b0a32034efc6e", "fusion_lat": 0.0, "rental_uris": {"ios": "https://dc.lft.to/lastmile_qr_scan", "android": "https://dc.lft.to/lastmile_qr_scan"}, "lon": -76.92504766666667, "type": "electric_bike"}, {"bike_id": "b7ad7b407a3fdeda60f762b591456eb3", "is_reserved": 0, "fusion_lon": 0.0, "lat": 38.9033065, "is_disabled": 0, "name": "b7ad7b407a3fdeda60f762b591456eb3", "fusion_lat": 0.0, "rental_uris": {"ios": "https://dc.lft.to/lastmile_qr_scan", "android": "https://dc.lft.to/lastmile_qr_scan"}, "lon": -77.03826533333333, "type": "electric_scooter"}, {"bike_id": "a80acf3f3e4b3bb1c9e4566797296794", "is_reserved": 0, "fusion_lon": 0.0, "lat": 38.900608, "is_disabled": 0, "name": "a80acf3f3e4b3bb1c9e4566797296794", "fusion_lat": 0.0, "rental_uris": {"ios": "https://dc.lft.to/lastmile_qr_scan", "android": "https://dc.lft.to/lastmile_qr_scan"}, "lon": -76.9983905, "type": "electric_scooter"}, {"bike_id": "f1cdb55f8c4411f46a6784c2b77bf575", "is_reserved": 0, "fusion_lon": 0.0, "lat": 38.910358333333335, "is_disabled": 0, "name": "f1cdb55f8c4411f46a6784c2b77bf575", "fusion_lat": 0.0, "rental_uris": {"ios": "https://dc.lft.to/lastmile_qr_scan", "android": "https://dc.lft.to/lastmile_qr_scan"}, "lon": -77.043912, "type": "electric_scooter"}, {"bike_id": "f4d27547c17c5c2b5436d507984561c1", "is_reserved": 0, "fusion_lon": 0.0, "lat": 38.89997666666667, "is_disabled": 0, "name": "f4d27547c17c5c2b5436d507984561c1", "fusion_lat": 0.0, "rental_uris": {"ios": "https://dc.lft.to/lastmile_qr_scan", "android": "https://dc.lft.to/lastmile_qr_scan"}, "lon": -77.05227833333333, "type": "electric_scooter"}, {"bike_id": "2876b50de1636b28fc1bab96618ba393", "is_reserved": 0, "fusion_lon": 0.0, "lat": 38.89507066666667, "is_disabled": 0, "name": "2876b50de1636b28fc1bab96618ba393", "fusion_lat": 0.0, "rental_uris": {"ios": "https://dc.lft.to/lastmile_qr_scan", "android": "https://dc.lft.to/lastmile_qr_scan"}, "lon": -77.04841883333333, "type": "electric_scooter"}, {"bike_id": "f91f3a34ea66c7ea55a9243ff465d079", "is_reserved": 0, "fusion_lon": 0.0, "lat": 38.9183505, "is_disabled": 0, "name": "f91f3a34ea66c7ea55a9243ff465d079", "fusion_lat": 0.0, "rental_uris": {"ios": "https://dc.lft.to/lastmile_qr_scan", "android": "https://dc.lft.to/lastmile_qr_scan"}, "lon": -77.02278616666666, "type": "electric_scooter"}, {"bike_id": "e12bd6867c4299cab0c4656096606614", "is_reserved": 0, "fusion_lon": 0.0, "lat": 38.892257, "is_disabled": 0, "name": "e12bd6867c4299cab0c4656096606614", "fusion_lat": 0.0, "rental_uris": {"ios": "https://dc.lft.to/lastmile_qr_scan", "android": "https://dc.lft.to/lastmile_qr_scan"}, "lon": -77.043717, "type": "electric_scooter"}, {"bike_id": "7ef8cf6fd948b38397b3090e710cdccd", "is_reserved": 0, "fusion_lon": 0.0, "lat": 38.958831833333335, "is_disabled": 0, "name": "7ef8cf6fd948b38397b3090e710cdccd", "fusion_lat": 0.0, "rental_uris": {"ios": "https://dc.lft.to/lastmile_qr_scan", "android": "https://dc.lft.to/lastmile_qr_scan"}, "lon": -76.925096, "type": "electric_bike"}, {"bike_id": "1ad044d93c1bed04533681589d41ec24", "is_reserved": 0, "fusion_lon": 0.0, "lat": 38.928801166666666, "is_disabled": 0, "name": "1ad044d93c1bed04533681589d41ec24", "fusion_lat": 0.0, "rental_uris": {"ios": "https://dc.lft.to/lastmile_qr_scan", "android": "https://dc.lft.to/lastmile_qr_scan"}, "lon": -77.03332833333333, "type": "electric_scooter"}, {"bike_id": "d58f2dc9d2050af8830dcda7ca8dfc08", "is_reserved": 0, "fusion_lon": 0.0, "lat": 38.9320255, "is_disabled": 0, "name": "d58f2dc9d2050af8830dcda7ca8dfc08", "fusion_lat": 0.0, "rental_uris": {"ios": "https://dc.lft.to/lastmile_qr_scan", "android": "https://dc.lft.to/lastmile_qr_scan"}, "lon": -77.03873633333333, "type": "electric_scooter"}, {"bike_id": "14c9f6fe7bbbd88b4605fc5ceecee6c5", "is_reserved": 0, "fusion_lon": 0.0, "lat": 38.908600666666665, "is_disabled": 0, "name": "14c9f6fe7bbbd88b4605fc5ceecee6c5", "fusion_lat": 0.0, "rental_uris": {"ios": "https://dc.lft.to/lastmile_qr_scan", "android": "https://dc.lft.to/lastmile_qr_scan"}, "lon": -77.04494583333333, "type": "electric_scooter"}, {"bike_id": "0f29f2594a10d4ae2122d9195d917e4a", "is_reserved": 0, "fusion_lon": 0.0, "lat": 38.90494916666667, "is_disabled": 0, "name": "0f29f2594a10d4ae2122d9195d917e4a", "fusion_lat": 0.0, "rental_uris": {"ios": "https://dc.lft.to/lastmile_qr_scan", "android": "https://dc.lft.to/lastmile_qr_scan"}, "lon": -76.97925633333334, "type": "electric_scooter"}, {"bike_id": "d5b7f8702c1b2d221e045390cd3ae70e", "is_reserved": 0, "fusion_lon": 0.0, "lat": 38.875544833333336, "is_disabled": 0, "name": "d5b7f8702c1b2d221e045390cd3ae70e", "fusion_lat": 0.0, "rental_uris": {"ios": "https://dc.lft.to/lastmile_qr_scan", "android": "https://dc.lft.to/lastmile_qr_scan"}, "lon": -76.96492066666667, "type": "electric_scooter"}, {"bike_id": "04589aa49105a8bb12451c2cde9452f3", "is_reserved": 0, "fusion_lon": 0.0, "lat": 38.894816166666665, "is_disabled": 0, "name": "04589aa49105a8bb12451c2cde9452f3", "fusion_lat": 0.0, "rental_uris": {"ios": "https://dc.lft.to/lastmile_qr_scan", "android": "https://dc.lft.to/lastmile_qr_scan"}, "lon": -76.948711, "type": "electric_scooter"}, {"bike_id": "4f195ad4c6e8f6a8d38db890068216ee", "is_reserved": 0, "fusion_lon": 0.0, "lat": 38.8922285, "is_disabled": 0, "name": "4f195ad4c6e8f6a8d38db890068216ee", "fusion_lat": 0.0, "rental_uris": {"ios": "https://dc.lft.to/lastmile_qr_scan", "android": "https://dc.lft.to/lastmile_qr_scan"}, "lon": -77.02622533333333, "type": "electric_scooter"}, {"bike_id": "404f892c95178b2c68a463b37dd654c2", "is_reserved": 0, "fusion_lon": 0.0, "lat": 38.9067005, "is_disabled": 0, "name": "404f892c95178b2c68a463b37dd654c2", "fusion_lat": 0.0, "rental_uris": {"ios": "https://dc.lft.to/lastmile_qr_scan", "android": "https://dc.lft.to/lastmile_qr_scan"}, "lon": -76.98786316666667, "type": "electric_scooter"}, {"bike_id": "94a89ecdd255fdf378bd819db4072f73", "is_reserved": 0, "fusion_lon": 0.0, "lat": 38.86202216666667, "is_disabled": 0, "name": "94a89ecdd255fdf378bd819db4072f73", "fusion_lat": 0.0, "rental_uris": {"ios": "https://dc.lft.to/lastmile_qr_scan", "android": "https://dc.lft.to/lastmile_qr_scan"}, "lon": -76.9946425, "type": "electric_scooter"},