{"data": {"bikes": [{"is_disabled": 0, "lat": 38.88549233333333, "bike_id": "78bc12a5a0e963766273b2801d1f3dfe", "is_reserved": 0, "rental_uris": {"ios": "https://dc.lft.to/lastmile_qr_scan", "android": "https://dc.lft.to/lastmile_qr_scan"}, "name": "78bc12a5a0e963766273b2801d1f3dfe", "fusion_lon": 0.0, "fusion_lat": 0.0, "lon": -77.1168805, "type": "electric_bike"}, {"is_disabled": 0, "lat": 38.9255595, "bike_id": "6f932b2c6ff10af10890bf8c786c6d8d", "is_reserved": 0, "rental_uris": {"ios": "https://dc.lft.to/lastmile_qr_scan", "android": "https://dc.lft.to/lastmile_qr_scan"}, "name": "6f932b2c6ff10af10890bf8c786c6d8d", "fusion_lon": 0.0, "fusion_lat": 0.0, "lon": -77.02985616666666, "type": "electric_scooter"}, {"is_disabled": 0, "lat": 38.8961755, "bike_id": "a96eb9e94f4048a7e3287f74857a0107", "is_reserved": 0, "rental_uris": {"ios": "https://dc.lft.to/lastmile_qr_scan", "android": "https://dc.lft.to/lastmile_qr_scan"}, "name": "a96eb9e94f4048a7e3287f74857a0107", "fusion_lon": 0.0, "fusion_lat": 0.0, "lon": -77.04055416666667, "type": "electric_scooter"}, {"is_disabled": 0, "lat": 38.83605133333333, "bike_id": "a9cac3520627631c27238d27e0cb5643", "is_reserved": 0, "rental_uris": {"ios": "https://dc.lft.to/lastmile_qr_scan", "android": "https://dc.lft.to/lastmile_qr_scan"}, "name": "a9cac3520627631c27238d27e0cb5643", "fusion_lon": 0.0, "fusion_lat": 0.0, "lon": -77.00385133333333, "type": "electric_bike"}, {"is_disabled": 0, "lat": 38.919222, "bike_id": "0be61ec8a3f0d8023cb48cef042ec45f", "is_reserved": 0, "rental_uris": {"ios": "https://dc.lft.to/lastmile_qr_scan", "android": "https://dc.lft.to/lastmile_qr_scan"}, "name": "0be61ec8a3f0d8023cb48cef042ec45f", "fusion_lon": 0.0, "fusion_lat": 0.0, "lon": -77.03190266666667, "type": "electric_scooter"}, {"is_disabled": 0, "lat": 38.840283666666664, "bike_id": "283ec6f4032f8177bc0dcc4c02ea80e6", "is_reserved": 0, "rental_uris": {"ios": "https://dc.lft.to/lastmile_qr_scan", "android": "https://dc.lft.to/lastmile_qr_scan"}, "name": "283ec6f4032f8177bc0dcc4c02ea80e6", "fusion_lon": 0.0, "fusion_lat": 0.0, "lon": -76.9886025, "type": "electric_bike"}, {"is_disabled": 0, "lat": 38.89468433333333, "bike_id": "0337f9d2ecf9610e4355e4c96bb71a5a", "is_reserved": 0, "rental_uris": {"ios": "https://dc.lft.to/lastmile_qr_scan", "android": "https://dc.lft.to/lastmile_qr_scan"}, "name": "0337f9d2ecf9610e4355e4c96bb71a5a", "fusion_lon": 0.0, "fusion_lat": 0.0, "lon": -76.99262683333333, "type": "electric_scooter"}, {"is_disabled": 0, "lat": 38.925245, "bike_id": "cd9fab86cb2ffb50e2cb37e189f5d9b0", "is_reserved": 0, "rental_uris": {"ios": "https://dc.lft.to/lastmile_qr_scan", "android": "https://dc.lft.to/lastmile_qr_scan"}, "name": "cd9fab86cb2ffb50e2cb37e189f5d9b0", "fusion_lon": 0.0, "fusion_lat": 0.0, "lon": -77.03883416666666, "type": "electric_scooter"}, {"is_disabled": 0, "lat": 38.891976666666665, "bike_id": "bcc403f2f97d92f984d059de06fafa81", "is_reserved": 0, "rental_uris": {"ios": "https://dc.lft.to/lastmile_qr_scan", "android": "https://dc.lft.to/lastmile_qr_scan"}, "name": "bcc403f2f97d92f984d059de06fafa81", "fusion_lon": 0.0, "fusion_lat": 0.0, "lon": -77.00295083333333, "type": "electric_scooter"}, {"is_disabled": 0, "lat": 38.908731, "bike_id": "6652d8a17c46ca065b4395d9fc4b58e1", "is_reserved": 0, "rental_uris": {"ios": "https://dc.lft.to/lastmile_qr_scan", "android": "https://dc.lft.to/lastmile_qr_scan"}, "name": "6652d8a17c46ca065b4395d9fc4b58e1", "fusion_lon": 0.0, "fusion_lat": 0.0, "lon": -77.07527916666666, "type": "electric_bike"}, {"is_disabled": 0, "lat": 38.913157166666664, "bike_id": "14deefc023c942fcbe45fe3674455107", "is_reserved": 0, "rental_uris": {"ios": "https://dc.lft.to/lastmile_qr_scan", "android": "https://dc.lft.to/lastmile_qr_scan"}, "name": "14deefc023c942fcbe45fe3674455107", "fusion_lon": 0.0, "fusion_lat": 0.0, "lon": -77.0200325, "type": "electric_scooter"}, {"is_disabled": 0, "lat": 38.935183, "bike_id": "39150c8d9f761c1156df2ff5e4013ec3", "is_reserved": 0, "rental_uris": {"ios": "https://dc.lft.to/lastmile_qr_scan", "android": "https://dc.lft.to/lastmile_qr_scan"}, "name": "39150c8d9f761c1156df2ff5e4013ec3", "fusion_lon": 0.0, "fusion_lat": 0.0, "lon": -77.07289466666667, "type": "electric_scooter"}, {"is_disabled": 0, "lat": 38.966213333333336, "bike_id": "4cd37003dd4bfae7222442c5f829fa14", "is_reserved": 0, "rental_uris": {"ios": "https://dc.lft.to/lastmile_qr_scan", "android": "https://dc.lft.to/lastmile_qr_scan"}, "name": "4cd37003dd4bfae7222442c5f829fa14", "fusion_lon": 0.0, "fusion_lat": 0.0, "lon": -77.0342725, "type": "electric_bike"}, {"is_disabled": 0, "lat": 38.859375666666665, "bike_id": "736d31fd0f301e5be9f611ffd73b0c00", "is_reserved": 0, "rental_uris": {"ios": "https://dc.lft.to/lastmile_qr_scan", "android": "https://dc.lft.to/lastmile_qr_scan"}, "name": "736d31fd0f301e5be9f611ffd73b0c00", "fusion_lon": 0.0, "fusion_lat": 0.0, "lon": -76.98683116666666, "type": "electric_scooter"}, {"is_disabled": 0, "lat": 38.92088066666667, "bike_id": "bc7191e0ff95adc64685d9c062197883", "is_reserved": 0, "rental_uris": {"ios": "https://dc.lft.to/lastmile_qr_scan", "android": "https://dc.lft.to/lastmile_qr_scan"}, "name": "bc7191e0ff95adc64685d9c062197883", "fusion_lon": 0.0, "fusion_lat": 0.0, "lon": -77.04115633333333, "type": "electric_scooter"}, {"is_disabled": 0, "lat": 38.903697, "bike_id": "25048686af002143da9828225627237e", "is_reserved": 0, "rental_uris": {"ios": "https://dc.lft.to/lastmile_qr_scan", "android": "https://dc.lft.to/lastmile_qr_scan"}, "name": "25048686af002143da9828225627237e", "fusion_lon": 0.0, "fusion_lat": 0.0, "lon": -77.0450305, "type": "electric_scooter"}, {"is_disabled": 0, "lat": 38.91843083333333, "bike_id": "05757a1ad81af85062b434b29e387d52", "is_reserved": 0, "rental_uris": {"ios": "https://dc.lft.to/lastmile_qr_scan", "android": "https://dc.lft.to/lastmile_qr_scan"}, "name": "05757a1ad81af85062b434b29e387d52", "fusion_lon": 0.0, "fusion_lat": 0.0, "lon": -77.0391295, "type": "electric_scooter"}, {"is_disabled": 0, "lat": 38.918087, "bike_id": "3dff5281788a917ae146ad4dc6998906", "is_reserved": 0, "rental_uris": {"ios": "https://dc.lft.to/lastmile_qr_scan", "android": "https://dc.lft.to/lastmile_qr_scan"}, "name": "3dff5281788a917ae146ad4dc6998906", "fusion_lon": 0.0, "fusion_lat": 0.0, "lon": -77.03722866666666, "type": "electric_scooter"}, {"is_disabled": 0, "lat": 38.896839666666665, "bike_id": "90dff29a32728d121ab38019549c62ee", "is_reserved": 0, "rental_uris": {"ios": "https://dc.lft.to/lastmile_qr_scan", "android": "https://dc.lft.to/lastmile_qr_scan"}, "name": "90dff29a32728d121ab38019549c62ee", "fusion_lon": 0.0, "fusion_lat": 0.0, "lon": -76.93906966666667, "type": "electric_scooter"}, {"is_disabled": 0, "lat": 38.88501266666667, "bike_id": "2830fae169a3442dc72cc2784fdf7f0c", "is_reserved": 0, "rental_uris": {"ios": "https://dc.lft.to/lastmile_qr_scan", "android": "https://dc.lft.to/lastmile_qr_scan"}, "name": "2830fae169a3442dc72cc2784fdf7f0c", "fusion_lon": 0.0, "fusion_lat": 0.0, "lon": -77.00564966666667, "type": "electric_scooter"}, {"is_disabled": 0, "lat": 38.919887833333334, "bike_id": "1867f238f8b0f9105b853cbc90a2a2cc", "is_reserved": 0, "rental_uris": {"ios": "https://dc.lft.to/lastmile_qr_scan", "android": "https://dc.lft.to/lastmile_qr_scan"}, "name": "1867f238f8b0f9105b853cbc90a2a2cc", "fusion_lon": 0.0, "fusion_lat": 0.0, "lon": -77.041707, "type": "electric_scooter"}, {"is_disabled": 0, "lat": 38.954507666666665, "bike_id": "dbd0be732520d75d2b936498383ca9f1", "is_reserved": 0, "rental_uris": {"ios": "https://dc.lft.to/lastmile_qr_scan", "android": "https://dc.lft.to/lastmile_qr_scan"}, "name": "dbd0be732520d75d2b936498383ca9f1", "fusion_lon": 0.0, "fusion_lat": 0.0, "lon": -76.98773233333333, "type": "electric_bike"}, {"is_disabled": 0, "lat": 38.910178333333334, "bike_id": "c9b4ead7f082c2013de2741d86f481ac", "is_reserved": 0, "rental_uris": {"ios": "https://dc.lft.to/lastmile_qr_scan", "android": "https://dc.lft.to/lastmile_qr_scan"}, "name": "c9b4ead7f082c2013de2741d86f481ac", "fusion_lon": 0.0, "fusion_lat": 0.0, "lon": -77.04458216666667, "type": "electric_scooter"}, {"is_disabled": 0, "lat": 38.91128766666667, "bike_id": "3558bde12b98ed8d14ec3c87b938e3ab", "is_reserved": 0, "rental_uris": {"ios": "https://dc.lft.to/lastmile_qr_scan", "android": "https://dc.lft.to/lastmile_qr_scan"}, "name": "3558bde12b98ed8d14ec3c87b938e3ab", "fusion_lon": 0.0, "fusion_lat": 0.0, "lon": -77.021988, "type": "electric_scooter"}, {"is_disabled": 0, "lat": 38.88765433333333, "bike_id": "f2eb7c295c8b0e04f7ca799ae2a78cc6", "is_reserved": 0, "rental_uris": {"ios": "https://dc.lft.to/lastmile_qr_scan", "android": "https://dc.lft.to/lastmile_qr_scan"}, "name": "f2eb7c295c8b0e04f7ca799ae2a78cc6", "fusion_lon": 0.0, "fusion_lat": 0.0, "lon": -77.01463766666667, "type": "electric_scooter"}, {"is_disabled": 0, "lat": 38.87463116666667, "bike_id": "7c4e122292bd0995fc66129a990fc233", "is_reserved": 0, "rental_uris": {"ios": "https://dc.lft.to/lastmile_qr_scan", "android": "https://dc.lft.to/lastmile_qr_scan"}, "name": "7c4e122292bd0995fc66129a990fc233", "fusion_lon": 0.0, "fusion_lat": 0.0, "lon": -77.00411533333333, "type": "electric_scooter"}, {"is_disabled": 0, "lat": 38.923756, "bike_id": "e6c03f0e6b43907443bc12b2895988e4", "is_reserved": 0, "rental_uris": {"ios": "https://dc.lft.to/lastmile_qr_scan", "android": "https://dc.lft.to/lastmile_qr_scan"}, "name": "e6c03f0e6b43907443bc12b2895988e4", "fusion_lon": 0.0, "fusion_lat": 0.0, "lon": -77.03096916666667, "type": "electric_scooter"}, {"is_disabled": 0, "lat": 38.9084335, "bike_id": "5849dd9940093e2c410ca8e8bf71a63f", "is_reserved": 0, "rental_uris": {"ios": "https://dc.lft.to/lastmile_qr_scan", "android": "https://dc.lft.to/lastmile_qr_scan"}, "name": "5849dd9940093e2c410ca8e8bf71a63f", "fusion_lon": 0.0, "fusion_lat": 0.0, "lon": -76.934488, "type": "electric_scooter"}, {"is_disabled": 0, "lat": 38.8862305, "bike_id": "1ec42b1b8cc67ce2a82408f3223e4173", "is_reserved": 0, "rental_uris": {"ios": "https://dc.lft.to/lastmile_qr_scan", "android": "https://dc.lft.to/lastmile_qr_scan"}, "name": "1ec42b1b8cc67ce2a82408f3223e4173", "fusion_lon": 0.0, "fusion_lat": 0.0, "lon": -77.02831333333333, "type": "electric_scooter"}, {"is_disabled": 0, "lat": 38.922543833333336, "bike_id": "aad77577e15208be33e7c8b0664e5b27", "is_reserved": 0, "rental_uris": {"ios": "https://dc.lft.to/lastmile_qr_scan", "android": "https://dc.lft.to/lastmile_qr_scan"}, "name": "aad77577e15208be33e7c8b0664e5b27", "fusion_lon": 0.0, "fusion_lat": 0.0, "lon": -77.02967133333334, "type": "electric_scooter"}, {"is_disabled": 0, "lat": 38.9223895, "bike_id": "bd2e2f0123f711dec615894437cc09c4", "is_reserved": 0, "rental_uris": {"ios": "https://dc.lft.to/lastmile_qr_scan", "android": "https://dc.lft.to/lastmile_qr_scan"}, "name": "bd2e2f0123f711dec615894437cc09c4", "fusion_lon": 0.0, "fusion_lat": 0.0, "lon": -77.02122333333334, "type": "electric_scooter"}, {"is_disabled": 0, "lat": 38.91253833333333, "bike_id": "eb6d4d53f03f7733b2af3a2c81f813aa", "is_reserved": 0, "rental_uris": {"ios": "https://dc.lft.to/lastmile_qr_scan", "android": "https://dc.lft.to/lastmile_qr_scan"}, "name": "eb6d4d53f03f7733b2af3a2c81f813aa", "fusion_lon": 0.0, "fusion_lat": 0.0, "lon": -77.01952316666667, "type": "electric_scooter"}, {"is_disabled": 0, "lat": 38.9254415, "bike_id": "bcc783f4963e36aaea258324f5e15e95", "is_reserved": 0, "rental_uris": {"ios": "https://dc.lft.to/lastmile_qr_scan", "android": "https://dc.lft.to/lastmile_qr_scan"}, "name": "bcc783f4963e36aaea258324f5e15e95", "fusion_lon": 0.0, "fusion_lat": 0.0, "lon": -77.0226985, "type": "electric_scooter"}, {"is_disabled": 0, "lat": 38.89220666666667, "bike_id": "c2adbdc4d38b94cbc29e750e19be7773", "is_reserved": 0, "rental_uris": {"ios": "https://dc.lft.to/lastmile_qr_scan", "android": "https://dc.lft.to/lastmile_qr_scan"}, "name": "c2adbdc4d38b94cbc29e750e19be7773", "fusion_lon": 0.0, "fusion_lat": 0.0, "lon": -77.02220466666667, "type": "electric_scooter"}, {"is_disabled": 0, "lat": 38.91424416666667, "bike_id": "cbb58109da76a09bcfec8ceeca714dca", "is_reserved": 0, "rental_uris": {"ios": "https://dc.lft.to/lastmile_qr_scan", "android": "https://dc.lft.to/lastmile_qr_scan"}, "name": "cbb58109da76a09bcfec8ceeca714dca", "fusion_lon": 0.0, "fusion_lat": 0.0, "lon": -77.03173816666667, "type": "electric_scooter"}, {"is_disabled": 0, "lat": 38.9679415, "bike_id": "83613c37e4f76ad563d8cc3cf4ce563a", "is_reserved": 0, "rental_uris": {"ios": "https://dc.lft.to/lastmile_qr_scan", "android": "https://dc.lft.to/lastmile_qr_scan"}, "name": "83613c37e4f76ad563d8cc3cf4ce563a", "fusion_lon": 0.0, "fusion_lat": 0.0, "lon": -77.0243465, "type": "electric_scooter"}, {"is_disabled": 0, "lat": 38.899459666666665, "bike_id": "7d87654e91da3b8a55e2d11e1849bb52", "is_reserved": 0, "rental_uris": {"ios": "https://dc.lft.to/lastmile_qr_scan", "android": "https://dc.lft.to/lastmile_qr_scan"}, "name": "7d87654e91da3b8a55e2d11e1849bb52", "fusion_lon": 0.0, "fusion_lat": 0.0, "lon": -77.04499016666666, "type": "electric_scooter"}, {"is_disabled": 0, "lat": 38.904392333333334, "bike_id": "0071ce71082ed99456bed1220d0f6287", "is_reserved": 0, "rental_uris": {"ios": "https://dc.lft.to/lastmile_qr_scan", "android": "https://dc.lft.to/lastmile_qr_scan"}, "name": "0071ce71082ed99456bed1220d0f6287", "fusion_lon": 0.0, "fusion_lat": 0.0, "lon": -77.03128566666666, "type": "electric_scooter"}, {"is_disabled": 0, "lat": 38.914136, "bike_id": "93b08aefb4365ede560951e5e887abf9", "is_reserved": 0, "rental_uris": {"ios": "https://dc.lft.to/lastmile_qr_scan", "android": "https://dc.lft.to/lastmile_qr_scan"}, "name": "93b08aefb4365ede560951e5e887abf9", "fusion_lon": 0.0, "fusion_lat": 0.0, "lon": -77.031789, "type": "electric_scooter"}, {"is_disabled": 0, "lat": 38.90285166666666, "bike_id": "aba877d54858d247c21609b1df6a42dd", "is_reserved": 0, "rental_uris": {"ios": "https://dc.lft.to/lastmile_qr_scan", "android": "https://dc.lft.to/lastmile_qr_scan"}, "name": "aba877d54858d247c21609b1df6a42dd", "fusion_lon": 0.0, "fusion_lat": 0.0, "lon": -77.03873566666667, "type": "electric_scooter"}, {"is_disabled": 0, "lat": 38.90669, "bike_id": "5bc5a52b8c604a67dde82089163e1488", "is_reserved": 0, "rental_uris": {"ios": "https://dc.lft.to/lastmile_qr_scan", "android": "https://dc.lft.to/lastmile_qr_scan"}, "name": "5bc5a52b8c604a67dde82089163e1488", "fusion_lon": 0.0, "fusion_lat": 0.0, "lon": -77.0270465, "type": "electric_scooter"}, {"is_disabled": 0, "lat": 38.80766583333333, "bike_id": "869fd2ad47734190b9ad36ae436f47f6", "is_reserved": 0, "rental_uris": {"ios": "https://dc.lft.to/lastmile_qr_scan", "android": "https://dc.lft.to/lastmile_qr_scan"}, "name": "869fd2ad47734190b9ad36ae436f47f6", "fusion_lon": 0.0, "fusion_lat": 0.0, "lon": -77.05736683333333, "type": "electric_bike"}, {"is_disabled": 0, "lat": 38.904926, "bike_id": "d8ce7d8dd92cee2fb448d5640b01c767", "is_reserved": 0, "rental_uris": {"ios": "https://dc.lft.to/lastmile_qr_scan", "android": "https://dc.lft.to/lastmile_qr_scan"}, "name": "d8ce7d8dd92cee2fb448d5640b01c767", "fusion_lon": 0.0, "fusion_lat": 0.0, "lon": -76.94972433333334, "type": "electric_scooter"}, {"is_disabled": 0, "lat": 38.92130733333333, "bike_id": "5026fd3039d3bca779cb22c4bdbf6061", "is_reserved": 0, "rental_uris": {"ios": "https://dc.lft.to/lastmile_qr_scan", "android": "https://dc.lft.to/lastmile_qr_scan"}, "name": "5026fd3039d3bca779cb22c4bdbf6061", "fusion_lon": 0.0, "fusion_lat": 0.0, "lon": -77.01901, "type": "electric_scooter"}, {"is_disabled": 0, "lat": 38.86679866666667, "bike_id": "2703c8a18822fc619aaf334da49f2ba7", "is_reserved": 0, "rental_uris": {"ios": "https://dc.lft.to/lastmile_qr_scan", "android": "https://dc.lft.to/lastmile_qr_scan"}, "name": "2703c8a18822fc619aaf334da49f2ba7", "fusion_lon": 0.0, "fusion_lat": 0.0, "lon": -76.9485185, "type": "electric_scooter"}, {"is_disabled": 0, "lat": 38.924371666666666, "bike_id": "cf73a0253bebabf1fb9928d3e9f09f49", "is_reserved": 0, "rental_uris": {"ios": "https://dc.lft.to/lastmile_qr_scan", "android": "https://dc.lft.to/lastmile_qr_scan"}, "name": "cf73a0253bebabf1fb9928d3e9f09f49", "fusion_lon": 0.0, "fusion_lat": 0.0, "lon": -77.034076, "type": "electric_scooter"}, {"is_disabled": 0, "lat": 38.876691666666666, "bike_id": "405ded86446e78448ccdecbe1391c402", "is_reserved": 0, "rental_uris": {"ios": "https://dc.lft.to/lastmile_qr_scan", "android": "https://dc.lft.to/lastmile_qr_scan"}, "name": "405ded86446e78448ccdecbe1391c402", "fusion_lon": 0.0, "fusion_lat": 0.0, "lon": -77.004418, "type": "electric_scooter"}, {"is_disabled": 0, "lat": 38.9078165, "bike_id": "9d8a73d21c55240e1b48acdaf97105f7", "is_reserved": 0, "rental_uris": {"ios": "https://dc.lft.to/lastmile_qr_scan", "android": "https://dc.lft.to/lastmile_qr_scan"}, "name": "9d8a73d21c55240e1b48acdaf97105f7", "fusion_lon": 0.0, "fusion_lat": 0.0, "lon": -77.04251866666667, "type": "electric_scooter"}, {"is_disabled": 0, "lat": 38.856283833333336, "bike_id": "bfc95e9eac4daddc7dcd78020d719998", "is_reserved": 0, "rental_uris": {"ios": "https://dc.lft.to/lastmile_qr_scan", "android": "https://dc.lft.to/lastmile_qr_scan"}, "name": "bfc95e9eac4daddc7dcd78020d719998", "fusion_lon": 0.0, "fusion_lat": 0.0, "lon": -76.98224216666667, "type": "electric_scooter"}, {"is_disabled": 0, "lat": 38.89215266666667, "bike_id": "d97a25bd7689e69520ddf0cd76c1f634", "is_reserved": 0, "rental_uris": {"ios": "https://dc.lft.to/lastmile_qr_scan", "android": "https://dc.lft.to/lastmile_qr_scan"}, "name": "d97a25bd7689e69520ddf0cd76c1f634", "fusion_lon": 0.0, "fusion_lat": 0.0, "lon": -77.023719, "type": "electric_scooter"}, {"is_disabled": 0, "lat": 38.90778233333333, "bike_id": "7a5e6b1717b80e97b80f4a9c1adad160", "is_reserved": 0, "rental_uris": {"ios": "https://dc.lft.to/lastmile_qr_scan", "android": "https://dc.lft.to/lastmile_qr_scan"}, "name": "7a5e6b1717b80e97b80f4a9c1adad160", "fusion_lon": 0.0, "fusion_lat": 0.0, "lon": -77.0451525, "type": "electric_scooter"}, {"is_disabled": 0, "lat": 38.884782, "bike_id": "1ed036df690c64bd2116d4d2ef3f1d39", "is_reserved": 0, "rental_uris": {"ios": "https://dc.lft.to/lastmile_qr_scan", "android": "https://dc.lft.to/lastmile_qr_scan"}, "name": "1ed036df690c64bd2116d4d2ef3f1d39", "fusion_lon": 0.0, "fusion_lat": 0.0, "lon": -77.026406, "type": "electric_scooter"}, {"is_disabled": 0, "lat": 38.9064805, "bike_id": "4be5abadda86ccde9f71376dacc735e1", "is_reserved": 0, "rental_uris": {"ios": "https://dc.lft.to/lastmile_qr_scan", "android": "https://dc.lft.to/lastmile_qr_scan"}, "name": "4be5abadda86ccde9f71376dacc735e1", "fusion_lon": 0.0, "fusion_lat": 0.0, "lon": -77.0069075, "type": "electric_scooter"}, {"is_disabled": 0, "lat": 38.907795, "bike_id": "9e099987b5f93a23050fd04f2aabc4d7", "is_reserved": 0, "rental_uris": {"ios": "https://dc.lft.to/lastmile_qr_scan", "android": "https://dc.lft.to/lastmile_qr_scan"}, "name": "9e099987b5f93a23050fd04f2aabc4d7", "fusion_lon": 0.0, "fusion_lat": 0.0, "lon": -77.04509433333334, "type": "electric_scooter"}, {"is_disabled": 0, "lat": 38.896112333333335, "bike_id": "f98179a6af12ef90d88d2657a9f2c998", "is_reserved": 0, "rental_uris": {"ios": "https://dc.lft.to/lastmile_qr_scan", "android": "https://dc.lft.to/lastmile_qr_scan"}, "name": "f98179a6af12ef90d88d2657a9f2c998", "fusion_lon": 0.0, "fusion_lat": 0.0, "lon": -77.045459, "type": "electric_scooter"}, {"is_disabled": 0, "lat": 38.949183166666664, "bike_id": "8428eb652f615b4c75eb59ff82bc7a95", "is_reserved": 0, "rental_uris": {"ios": "https://dc.lft.to/lastmile_qr_scan", "android": "https://dc.lft.to/lastmile_qr_scan"}, "name": "8428eb652f615b4c75eb59ff82bc7a95", "fusion_lon": 0.0, "fusion_lat": 0.0, "lon": -77.02318233333334, "type": "electric_scooter"}, {"is_disabled": 0, "lat": 38.871578, "bike_id": "2aef7f9ff9b669ef9584f6b272fc4649", "is_reserved": 0, "rental_uris": {"ios": "https://dc.lft.to/lastmile_qr_scan", "android": "https://dc.lft.to/lastmile_qr_scan"}, "name": "2aef7f9ff9b669ef9584f6b272fc4649", "fusion_lon": 0.0, "fusion_lat": 0.0, "lon": -77.0135865, "type": "electric_scooter"}, {"is_disabled": 0, "lat": 38.884411666666665, "bike_id": "140e59af879dd7a494e9029dc40c394a", "is_reserved": 0, "rental_uris": {"ios": "https://dc.lft.to/lastmile_qr_scan", "android": "https://dc.lft.to/lastmile_qr_scan"}, "name": "140e59af879dd7a494e9029dc40c394a", "fusion_lon": 0.0, "fusion_lat": 0.0, "lon": -77.02923083333333, "type": "electric_scooter"}, {"is_disabled": 0, "lat": 38.92358866666667, "bike_id": "ef4fbd7b67a8da9d9d5026c1a89fcdbe", "is_reserved": 0, "rental_uris": {"ios": "https://dc.lft.to/lastmile_qr_scan", "android": "https://dc.lft.to/lastmile_qr_scan"}, "name": "ef4fbd7b67a8da9d9d5026c1a89fcdbe", "fusion_lon": 0.0, "fusion_lat": 0.0, "lon": -77.03373933333333, "type": "electric_scooter"}, {"is_disabled": 0, "lat": 38.89934483333333, "bike_id": "b227d097bb0f6eb9eceafbd810695da8", "is_reserved": 0, "rental_uris": {"ios": "https://dc.lft.to/lastmile_qr_scan", "android": "https://dc.lft.to/lastmile_qr_scan"}, "name": "b227d097bb0f6eb9eceafbd810695da8", "fusion_lon": 0.0, "fusion_lat": 0.0, "lon": -77.03233266666666, "type": "electric_scooter"}, {"is_disabled": 0, "lat": 38.89611033333333, "bike_id": "2fed70e9ff700bca517b442daf748883", "is_reserved": 0, "rental_uris": {"ios": "https://dc.lft.to/lastmile_qr_scan", "android": "https://dc.lft.to/lastmile_qr_scan"}, "name": "2fed70e9ff700bca517b442daf748883", "fusion_lon": 0.0, "fusion_lat": 0.0, "lon": -77.04374466666667, "type": "electric_scooter"}, {"is_disabled": 0, "lat": 38.90584783333333, "bike_id": "7f00172f5d9130d0b01b497296288f65", "is_reserved": 0, "rental_uris": {"ios": "https://dc.lft.to/lastmile_qr_scan", "android": "https://dc.lft.to/lastmile_qr_scan"}, "name": "7f00172f5d9130d0b01b497296288f65", "fusion_lon": 0.0, "fusion_lat": 0.0, "lon": -77.003939, "type": "electric_scooter"}, {"is_disabled": 0, "lat": 38.8982845, "bike_id": "bc75ec4b4dd55396e09d0a3df20b2670", "is_reserved": 0, "rental_uris": {"ios": "https://dc.lft.to/lastmile_qr_scan", "android": "https://dc.lft.to/lastmile_qr_scan"}, "name": "bc75ec4b4dd55396e09d0a3df20b2670", "fusion_lon": 0.0, "fusion_lat": 0.0, "lon": -77.02934933333333, "type": "electric_scooter"}, {"is_disabled": 0, "lat": 39.0264675, "bike_id": "c2d0722b2ca32b14433883e52e398105", "is_reserved": 0, "rental_uris": {"ios": "https://dc.lft.to/lastmile_qr_scan", "android": "https://dc.lft.to/lastmile_qr_scan"}, "name": "c2d0722b2ca32b14433883e52e398105", "fusion_lon": 0.0, "fusion_lat": 0.0, "lon": -77.03684933333334, "type": "electric_bike"}, {"is_disabled": 0, "lat": 38.90507433333333, "bike_id": "9bda028374e1bc70f234a157ac5716d6", "is_reserved": 0, "rental_uris": {"ios": "https://dc.lft.to/lastmile_qr_scan", "android": "https://dc.lft.to/lastmile_qr_scan"}, "name": "9bda028374e1bc70f234a157ac5716d6", "fusion_lon": 0.0, "fusion_lat": 0.0, "lon": -76.95208733333334, "type": "electric_scooter"}, {"is_disabled": 0, "lat": 38.9146735, "bike_id": "df6567491c67ca0408c02998e64c3524", "is_reserved": 0, "rental_uris": {"ios": "https://dc.lft.to/lastmile_qr_scan", "android": "https://dc.lft.to/lastmile_qr_scan"}, "name": "df6567491c67ca0408c02998e64c3524", "fusion_lon": 0.0, "fusion_lat": 0.0, "lon": -77.00923833333333, "type": "electric_scooter"}, {"is_disabled": 0, "lat": 38.914138, "bike_id": "07a46e18d729315102a09023a2b7d0c3", "is_reserved": 0, "rental_uris": {"ios": "https://dc.lft.to/lastmile_qr_scan", "android": "https://dc.lft.to/lastmile_qr_scan"}, "name": "07a46e18d729315102a09023a2b7d0c3", "fusion_lon": 0.0, "fusion_lat": 0.0, "lon": -77.05212116666667, "type": "electric_scooter"}, {"is_disabled": 0, "lat": 38.886173666666664, "bike_id": "11951460d849396924b03288fb09efb6", "is_reserved": 0, "rental_uris": {"ios": "https://dc.lft.to/lastmile_qr_scan", "android": "https://dc.lft.to/lastmile_qr_scan"}, "name": "11951460d849396924b03288fb09efb6", "fusion_lon": 0.0, "fusion_lat": 0.0, "lon": -76.92635133333333, "type": "electric_scooter"}, {"is_disabled": 0, "lat": 38.925118, "bike_id": "1f71ffc445d62ff066e4e3eeac70edc1", "is_reserved": 0, "rental_uris": {"ios": "https://dc.lft.to/lastmile_qr_scan", "android": "https://dc.lft.to/lastmile_qr_scan"}, "name": "1f71ffc445d62ff066e4e3eeac70edc1", "fusion_lon": 0.0, "fusion_lat": 0.0, "lon": -76.995618, "type": "electric_scooter"}, {"is_disabled": 0, "lat": 38.9433115, "bike_id": "daa2982288aa7aad8f1526ed7e990164", "is_reserved": 0, "rental_uris": {"ios": "https://dc.lft.to/lastmile_qr_scan", "android": "https://dc.lft.to/lastmile_qr_scan"}, "name": "daa2982288aa7aad8f1526ed7e990164", "fusion_lon": 0.0, "fusion_lat": 0.0, "lon": -77.02692166666667, "type": "electric_scooter"}, {"is_disabled": 0, "lat": 38.8999905, "bike_id": "11016cf00beaf77c95ca93840e7a8204", "is_reserved": 0, "rental_uris": {"ios": "https://dc.lft.to/lastmile_qr_scan", "android": "https://dc.lft.to/lastmile_qr_scan"}, "name": "11016cf00beaf77c95ca93840e7a8204", "fusion_lon": 0.0, "fusion_lat": 0.0, "lon": -77.02704266666667, "type": "electric_scooter"}, {"is_disabled": 0, "lat": 38.892263, "bike_id": "a3c7f9f008cd04a4705c8202e76bee1c", "is_reserved": 0, "rental_uris": {"ios": "https://dc.lft.to/lastmile_qr_scan", "android": "https://dc.lft.to/lastmile_qr_scan"}, "name": "a3c7f9f008cd04a4705c8202e76bee1c", "fusion_lon": 0.0, "fusion_lat": 0.0, "lon": -77.04336183333334, "type": "electric_scooter"}, {"is_disabled": 0, "lat": 38.9235915, "bike_id": "6dc325e5f7ce5b824e229dc99938f9c0", "is_reserved": 0, "rental_uris": {"ios": "https://dc.lft.to/lastmile_qr_scan", "android": "https://dc.lft.to/lastmile_qr_scan"}, "name": "6dc325e5f7ce5b824e229dc99938f9c0", "fusion_lon": 0.0, "fusion_lat": 0.0, "lon": -77.0213705, "type": "electric_scooter"}, {"is_disabled": 0, "lat": 38.930634166666664, "bike_id": "c4f9556cda11569e5e4afaa662df23c5", "is_reserved": 0, "rental_uris": {"ios": "https://dc.lft.to/lastmile_qr_scan", "android": "https://dc.lft.to/lastmile_qr_scan"}, "name": "c4f9556cda11569e5e4afaa662df23c5", "fusion_lon": 0.0, "fusion_lat": 0.0, "lon": -77.04050516666666, "type": "electric_scooter"}, {"is_disabled": 0, "lat": 38.904547666666666, "bike_id": "61208a0a532bf9ecd3f2832cc50e7c03", "is_reserved": 0, "rental_uris": {"ios": "https://dc.lft.to/lastmile_qr_scan", "android": "https://dc.lft.to/lastmile_qr_scan"}, "name": "61208a0a532bf9ecd3f2832cc50e7c03", "fusion_lon": 0.0, "fusion_lat": 0.0, "lon": -77.0380195, "type": "electric_scooter"}, {"is_disabled": 0, "lat": 38.894948666666664, "bike_id": "81a58a521dfb5c92c9e8b403d7ee17cc", "is_reserved": 0, "rental_uris": {"ios": "https://dc.lft.to/lastmile_qr_scan", "android": "https://dc.lft.to/lastmile_qr_scan"}, "name": "81a58a521dfb5c92c9e8b403d7ee17cc", "fusion_lon": 0.0, "fusion_lat": 0.0, "lon": -77.02838416666667, "type": "electric_scooter"}, {"is_disabled": 0, "lat": 38.85810816666667, "bike_id": "aedd25cbf2a617fc2c10056c307a05da", "is_reserved": 0, "rental_uris": {"ios": "https://dc.lft.to/lastmile_qr_scan", "android": "https://dc.lft.to/lastmile_qr_scan"}, "name": "aedd25cbf2a617fc2c10056c307a05da", "fusion_lon": 0.0, "fusion_lat": 0.0, "lon": -76.98916866666667, "type": "electric_scooter"}, {"is_disabled": 0, "lat": 38.9497755, "bike_id": "ad39fe9e005b9b2b626d66e010e21a13", "is_reserved": 0, "rental_uris": {"ios": "https://dc.lft.to/lastmile_qr_scan", "android": "https://dc.lft.to/lastmile_qr_scan"}, "name": "ad39fe9e005b9b2b626d66e010e21a13", "fusion_lon": 0.0, "fusion_lat": 0.0, "lon": -77.02437783333333, "type": "electric_scooter"}, {"is_disabled": 0, "lat": 38.9178325, "bike_id": "39e08a02fede7a09af42fea32b4c6708", "is_reserved": 0, "rental_uris": {"ios": "https://dc.lft.to/lastmile_qr_scan", "android": "https://dc.lft.to/lastmile_qr_scan"}, "name": "39e08a02fede7a09af42fea32b4c6708", "fusion_lon": 0.0, "fusion_lat": 0.0, "lon": -77.02306783333333, "type": "electric_scooter"}, {"is_disabled": 0, "lat": 38.9222165, "bike_id": "60d9fd9b577289d63f58029b74fa3171", "is_reserved": 0, "rental_uris": {"ios": "https://dc.lft.to/lastmile_qr_scan", "android": "https://dc.lft.to/lastmile_qr_scan"}, "name": "60d9fd9b577289d63f58029b74fa3171", "fusion_lon": 0.0, "fusion_lat": 0.0, "lon": -77.03897133333334, "type": "electric_scooter"}, {"is_disabled": 0, "lat": 38.907104, "bike_id": "e0f3395bf979bce7e0e2b42bb8510f8e", "is_reserved": 0, "rental_uris": {"ios": "https://dc.lft.to/lastmile_qr_scan", "android": "https://dc.lft.to/lastmile_qr_scan"}, "name": "e0f3395bf979bce7e0e2b42bb8510f8e", "fusion_lon": 0.0, "fusion_lat": 0.0, "lon": -77.00589166666667, "type": "electric_scooter"}, {"is_disabled": 0, "lat": 38.92336983333333, "bike_id": "4d2e9cfc664f5f5bd56e51b70864746a", "is_reserved": 0, "rental_uris": {"ios": "https://dc.lft.to/lastmile_qr_scan", "android": "https://dc.lft.to/lastmile_qr_scan"}, "name": "4d2e9cfc664f5f5bd56e51b70864746a", "fusion_lon": 0.0, "fusion_lat": 0.0, "lon": -77.03519766666666, "type": "electric_scooter"}, {"is_disabled": 0, "lat": 38.86490283333333, "bike_id": "b556e21eee3b6c3d89da76019ae1e8f3", "is_reserved": 0, "rental_uris": {"ios": "https://dc.lft.to/lastmile_qr_scan", "android": "https://dc.lft.to/lastmile_qr_scan"}, "name": "b556e21eee3b6c3d89da76019ae1e8f3", "fusion_lon": 0.0, "fusion_lat": 0.0, "lon": -76.9698525, "type": "electric_bike"}, {"is_disabled": 0, "lat": 38.878922333333335, "bike_id": "62177a14b4df0eba48173c408064f9e9", "is_reserved": 0, "rental_uris": {"ios": "https://dc.lft.to/lastmile_qr_scan", "android": "https://dc.lft.to/lastmile_qr_scan"}, "name": "62177a14b4df0eba48173c408064f9e9", "fusion_lon": 0.0, "fusion_lat": 0.0, "lon": -76.93532166666667, "type": "electric_scooter"}, {"is_disabled": 0, "lat": 38.95138133333333, "bike_id": "a3323809581fd7646a1e20ab3085573e", "is_reserved": 0, "rental_uris": {"ios": "https://dc.lft.to/lastmile_qr_scan", "android": "https://dc.lft.to/lastmile_qr_scan"}, "name": "a3323809581fd7646a1e20ab3085573e", "fusion_lon": 0.0, "fusion_lat": 0.0, "lon": -76.96618966666666, "type": "electric_bike"}, {"is_disabled": 0, "lat": 38.95584233333334, "bike_id": "100782018c0ef5168f98ab4d28d1b2f0", "is_reserved": 0, "rental_uris": {"ios": "https://dc.lft.to/lastmile_qr_scan", "android": "https://dc.lft.to/lastmile_qr_scan"}, "name": "100782018c0ef5168f98ab4d28d1b2f0", "fusion_lon": 0.0, "fusion_lat": 0.0, "lon": -77.0281035, "type": "electric_scooter"}, {"is_disabled": 0, "lat": 38.9072855, "bike_id": "4b14b7bdf11e38f4a779d1e1cc3df589", "is_reserved": 0, "rental_uris": {"ios": "https://dc.lft.to/lastmile_qr_scan", "android": "https://dc.lft.to/lastmile_qr_scan"}, "name": "4b14b7bdf11e38f4a779d1e1cc3df589", "fusion_lon": 0.0, "fusion_lat": 0.0, "lon": -77.02730033333333, "type": "electric_scooter"}, {"is_disabled": 0, "lat": 38.95353466666667, "bike_id": "f6215a2a32d8242f3bb2a1c51e2a55e1", "is_reserved": 0, "rental_uris": {"ios": "https://dc.lft.to/lastmile_qr_scan", "android": "https://dc.lft.to/lastmile_qr_scan"}, "name": "f6215a2a32d8242f3bb2a1c51e2a55e1", "fusion_lon": 0.0, "fusion_lat": 0.0, "lon": -76.98095483333333, "type": "electric_bike"}, {"is_disabled": 0, "lat": 38.902955166666665, "bike_id": "c8b8639092c30dea5f0fa4f72d67e050", "is_reserved": 0, "rental_uris": {"ios": "https://dc.lft.to/lastmile_qr_scan", "android": "https://dc.lft.to/lastmile_qr_scan"}, "name": "c8b8639092c30dea5f0fa4f72d67e050", "fusion_lon": 0.0, "fusion_lat": 0.0, "lon": -77.031741, "type": "electric_scooter"}, {"is_disabled": 0, "lat": 38.928515, "bike_id": "e5ae52fc66c139da2a6ef178aee00645", "is_reserved": 0, "rental_uris": {"ios": "https://dc.lft.to/lastmile_qr_scan", "android": "https://dc.lft.to/lastmile_qr_scan"}, "name": "e5ae52fc66c139da2a6ef178aee00645", "fusion_lon": 0.0, "fusion_lat": 0.0, "lon": -77.0360315, "type": "electric_scooter"}, {"is_disabled": 0, "lat": 38.89227616666667, "bike_id": "da8a71b175bf05e6ae62007004764f14", "is_reserved": 0, "rental_uris": {"ios": "https://dc.lft.to/lastmile_qr_scan", "android": "https://dc.lft.to/lastmile_qr_scan"}, "name": "da8a71b175bf05e6ae62007004764f14", "fusion_lon": 0.0, "fusion_lat": 0.0, "lon": -77.0250835, "type": "electric_scooter"}, {"is_disabled": 0, "lat": 38.80974666666667, "bike_id": "5f505c79508e55cc5e9b255edc410c36", "is_reserved": 0, "rental_uris": {"ios": "https://dc.lft.to/lastmile_qr_scan", "android": "https://dc.lft.to/lastmile_qr_scan"}, "name": "5f505c79508e55cc5e9b255edc410c36", "fusion_lon": 0.0, "fusion_lat": 0.0, "lon": -77.076628, "type": "electric_bike"}, {"is_disabled": 0, "lat": 38.9286245, "bike_id": "bd6fcd440ebc15ca379a4b39c83c8481", "is_reserved": 0, "rental_uris": {"ios": "https://dc.lft.to/lastmile_qr_scan", "android": "https://dc.lft.to/lastmile_qr_scan"}, "name": "bd6fcd440ebc15ca379a4b39c83c8481", "fusion_lon": 0.0, "fusion_lat": 0.0, "lon": -77.0330585, "type": "electric_scooter"}, {"is_disabled": 0, "lat": 38.91877933333333, "bike_id": "b6eebc43d6cb95f6ebef11865bd0fca0", "is_reserved": 0, "rental_uris": {"ios": "https://dc.lft.to/lastmile_qr_scan", "android": "https://dc.lft.to/lastmile_qr_scan"}, "name": "b6eebc43d6cb95f6ebef11865bd0fca0", "fusion_lon": 0.0, "fusion_lat": 0.0, "lon": -77.0297075, "type": "electric_scooter"}, {"is_disabled": 0, "lat": 38.917177, "bike_id": "0d547c7af0ccc81dde67803ef72051f4", "is_reserved": 0, "rental_uris": {"ios": "https://dc.lft.to/lastmile_qr_scan", "android": "https://dc.lft.to/lastmile_qr_scan"}, "name": "0d547c7af0ccc81dde67803ef72051f4", "fusion_lon": 0.0, "fusion_lat": 0.0, "lon": -77.03163, "type": "electric_scooter"}, {"is_disabled": 0, "lat": 38.924694, "bike_id": "146e1b81376bc5f79135f53dedc8fd6d", "is_reserved": 0, "rental_uris": {"ios": "https://dc.lft.to/lastmile_qr_scan", "android": "https://dc.lft.to/lastmile_qr_scan"}, "name": "146e1b81376bc5f79135f53dedc8fd6d", "fusion_lon": 0.0, "fusion_lat": 0.0, "lon": -77.02252866666667, "type": "electric_scooter"}, {"is_disabled": 0, "lat": 38.89905233333333, "bike_id": "9393651c6be5af37536e5016b13c50aa", "is_reserved": 0, "rental_uris": {"ios": "https://dc.lft.to/lastmile_qr_scan", "android": "https://dc.lft.to/lastmile_qr_scan"}, "name": "9393651c6be5af37536e5016b13c50aa", "fusion_lon": 0.0, "fusion_lat": 0.0, "lon": -76.99267133333333, "type": "electric_scooter"}, {"is_disabled": 0, "lat": 38.91401183333333, "bike_id": "67feddc5059b099d959903d04abb88e8", "is_reserved": 0, "rental_uris": {"ios": "https://dc.lft.to/lastmile_qr_scan", "android": "https://dc.lft.to/lastmile_qr_scan"}, "name": "67feddc5059b099d959903d04abb88e8", "fusion_lon": 0.0, "fusion_lat": 0.0, "lon": -77.04887416666666, "type": "electric_scooter"}, {"is_disabled": 0, "lat": 38.9220455, "bike_id": "c831d4e91a72648be884c1166860c428", "is_reserved": 0, "rental_uris": {"ios": "https://dc.lft.to/lastmile_qr_scan", "android": "https://dc.lft.to/lastmile_qr_scan"}, "name": "c831d4e91a72648be884c1166860c428", "fusion_lon": 0.0, "fusion_lat": 0.0, "lon": -77.02033016666667, "type": "electric_scooter"}, {"is_disabled": 0, "lat": 38.90830866666667, "bike_id": "ab67eb7d3278b64f0d261f7c39a8e2c0", "is_reserved": 0, "rental_uris": {"ios": "https://dc.lft.to/lastmile_qr_scan", "android": "https://dc.lft.to/lastmile_qr_scan"}, "name": "ab67eb7d3278b64f0d261f7c39a8e2c0", "fusion_lon": 0.0, "fusion_lat": 0.0, "lon": -77.04299866666666, "type": "electric_scooter"}, {"is_disabled": 0, "lat": 38.9747625, "bike_id": "2b75184bdff1f2f895967ea8f5b189e0", "is_reserved": 0, "rental_uris": {"ios": "https://dc.lft.to/lastmile_qr_scan", "android": "https://dc.lft.to/lastmile_qr_scan"}, "name": "2b75184bdff1f2f895967ea8f5b189e0", "fusion_lon": 0.0, "fusion_lat": 0.0, "lon": -77.01491366666667, "type": "electric_scooter"}, {"is_disabled": 0, "lat": 38.925272166666666, "bike_id": "e48df4942328bfcdc603a807f8cfc246", "is_reserved": 0, "rental_uris": {"ios": "https://dc.lft.to/lastmile_qr_scan", "android": "https://dc.lft.to/lastmile_qr_scan"}, "name": "e48df4942328bfcdc603a807f8cfc246", "fusion_lon": 0.0, "fusion_lat": 0.0, "lon": -77.03847683333333, "type": "electric_scooter"}, {"is_disabled": 0, "lat": 38.90671666666667, "bike_id": "0dafe6f25bb93014a8cd8caa7d6ceb8b", "is_reserved": 0, "rental_uris": {"ios": "https://dc.lft.to/lastmile_qr_scan", "android": "https://dc.lft.to/lastmile_qr_scan"}, "name": "0dafe6f25bb93014a8cd8caa7d6ceb8b", "fusion_lon": 0.0, "fusion_lat": 0.0, "lon": -77.02706683333334, "type": "electric_scooter"}, {"is_disabled": 0, "lat": 38.91621766666667, "bike_id": "957ad72b0c3178f4bb73500b06fd285d", "is_reserved": 0, "rental_uris": {"ios": "https://dc.lft.to/lastmile_qr_scan", "android": "https://dc.lft.to/lastmile_qr_scan"}, "name": "957ad72b0c3178f4bb73500b06fd285d", "fusion_lon": 0.0, "fusion_lat": 0.0, "lon": -77.050679, "type": "electric_scooter"}, {"is_disabled": 0, "lat": 38.896613, "bike_id": "c4cf9fa89faa72e98c61f9108c043101", "is_reserved": 0, "rental_uris": {"ios": "https://dc.lft.to/lastmile_qr_scan", "android": "https://dc.lft.to/lastmile_qr_scan"}, "name": "c4cf9fa89faa72e98c61f9108c043101", "fusion_lon": 0.0, "fusion_lat": 0.0, "lon": -77.02726666666666, "type": "electric_scooter"}, {"is_disabled": 0, "lat": 38.873717, "bike_id": "876be0f4d71f209a428233a041a41c78", "is_reserved": 0, "rental_uris": {"ios": "https://dc.lft.to/lastmile_qr_scan", "android": "https://dc.lft.to/lastmile_qr_scan"}, "name": "876be0f4d71f209a428233a041a41c78", "fusion_lon": 0.0, "fusion_lat": 0.0, "lon": -77.00098233333334, "type": "electric_scooter"}, {"is_disabled": 0, "lat": 38.92169033333333, "bike_id": "d7f03c98be7e133f146e884c8d8efec0", "is_reserved": 0, "rental_uris": {"ios": "https://dc.lft.to/lastmile_qr_scan", "android": "https://dc.lft.to/lastmile_qr_scan"}, "name": "d7f03c98be7e133f146e884c8d8efec0", "fusion_lon": 0.0, "fusion_lat": 0.0, "lon": -77.04025216666666, "type": "electric_scooter"}, {"is_disabled": 0, "lat": 38.91031666666667, "bike_id": "332a3fd5356ad57a290334e2eece0ec6", "is_reserved": 0, "rental_uris": {"ios": "https://dc.lft.to/lastmile_qr_scan", "android": "https://dc.lft.to/lastmile_qr_scan"}, "name": "332a3fd5356ad57a290334e2eece0ec6", "fusion_lon": 0.0, "fusion_lat": 0.0, "lon": -76.92338733333334, "type": "electric_bike"}, {"is_disabled": 0, "lat": 38.91864733333333, "bike_id": "621093ec50697d5288339cd23ad24d59", "is_reserved": 0, "rental_uris": {"ios": "https://dc.lft.to/lastmile_qr_scan", "android": "https://dc.lft.to/lastmile_qr_scan"}, "name": "621093ec50697d5288339cd23ad24d59", "fusion_lon": 0.0, "fusion_lat": 0.0, "lon": -77.03188816666666, "type": "electric_scooter"}, {"is_disabled": 0, "lat": 38.91010166666667, "bike_id": "9a0f600051e4774ae364b776d49fca3f", "is_reserved": 0, "rental_uris": {"ios": "https://dc.lft.to/lastmile_qr_scan", "android": "https://dc.lft.to/lastmile_qr_scan"}, "name": "9a0f600051e4774ae364b776d49fca3f", "fusion_lon": 0.0, "fusion_lat": 0.0, "lon": -77.027954, "type": "electric_scooter"}, {"is_disabled": 0, "lat": 38.9334375, "bike_id": "f72077d6eb8570b68c76a8e6e1b4e97f", "is_reserved": 0, "rental_uris": {"ios": "https://dc.lft.to/lastmile_qr_scan", "android": "https://dc.lft.to/lastmile_qr_scan"}, "name": "f72077d6eb8570b68c76a8e6e1b4e97f", "fusion_lon": 0.0, "fusion_lat": 0.0, "lon": -77.0593585, "type": "electric_scooter"}, {"is_disabled": 0, "lat": 38.892254, "bike_id": "048a5fd61487eb7caca17cae0f43024c", "is_reserved": 0, "rental_uris": {"ios": "https://dc.lft.to/lastmile_qr_scan", "android": "https://dc.lft.to/lastmile_qr_scan"}, "name": "048a5fd61487eb7caca17cae0f43024c", "fusion_lon": 0.0, "fusion_lat": 0.0, "lon": -77.0450245, "type": "electric_scooter"}, {"is_disabled": 0, "lat": 38.902651666666664, "bike_id": "5ab44b43b518953a57cb562ccdaf1813", "is_reserved": 0, "rental_uris": {"ios": "https://dc.lft.to/lastmile_qr_scan", "android": "https://dc.lft.to/lastmile_qr_scan"}, "name": "5ab44b43b518953a57cb562ccdaf1813", "fusion_lon": 0.0, "fusion_lat": 0.0, "lon": -77.02644716666667, "type": "electric_scooter"}, {"is_disabled": 0, "lat": 38.896552666666665, "bike_id": "232f63a5921fef3b130d048ca23f5e9a", "is_reserved": 0, "rental_uris": {"ios": "https://dc.lft.to/lastmile_qr_scan", "android": "https://dc.lft.to/lastmile_qr_scan"}, "name": "232f63a5921fef3b130d048ca23f5e9a", "fusion_lon": 0.0, "fusion_lat": 0.0, "lon": -77.02406366666666, "type": "electric_scooter"}, {"is_disabled": 0, "lat": 38.903968166666665, "bike_id": "28f0f13966a891346647bcb3351f6f08", "is_reserved": 0, "rental_uris": {"ios": "https://dc.lft.to/lastmile_qr_scan", "android": "https://dc.lft.to/lastmile_qr_scan"}, "name": "28f0f13966a891346647bcb3351f6f08", "fusion_lon": 0.0, "fusion_lat": 0.0, "lon": -77.04058133333334, "type": "electric_scooter"}, {"is_disabled": 0, "lat": 38.925083666666666, "bike_id": "30e6b313b9e5daf68b859fb06c7925ba", "is_reserved": 0, "rental_uris": {"ios": "https://dc.lft.to/lastmile_qr_scan", "android": "https://dc.lft.to/lastmile_qr_scan"}, "name": "30e6b313b9e5daf68b859fb06c7925ba", "fusion_lon": 0.0, "fusion_lat": 0.0, "lon": -77.02288, "type": "electric_scooter"}, {"is_disabled": 0, "lat": 38.998494666666666, "bike_id": "2886b4cf3489418718e80d40886ae35d", "is_reserved": 0, "rental_uris": {"ios": "https://dc.lft.to/lastmile_qr_scan", "android": "https://dc.lft.to/lastmile_qr_scan"}, "name": "2886b4cf3489418718e80d40886ae35d", "fusion_lon": 0.0, "fusion_lat": 0.0, "lon": -77.00249416666666, "type": "electric_bike"}, {"is_disabled": 0, "lat": 38.898341, "bike_id": "f6840110026b10ea6e98d67718e06d0b", "is_reserved": 0, "rental_uris": {"ios": "https://dc.lft.to/lastmile_qr_scan", "android": "https://dc.lft.to/lastmile_qr_scan"}, "name": "f6840110026b10ea6e98d67718e06d0b", "fusion_lon": 0.0, "fusion_lat": 0.0, "lon": -77.007429, "type": "electric_scooter"}, {"is_disabled": 0, "lat": 38.9051895, "bike_id": "72b77fedc4c598664f733778e64d5743", "is_reserved": 0, "rental_uris": {"ios": "https://dc.lft.to/lastmile_qr_scan", "android": "https://dc.lft.to/lastmile_qr_scan"}, "name": "72b77fedc4c598664f733778e64d5743", "fusion_lon": 0.0, "fusion_lat": 0.0, "lon": -77.06737333333334, "type": "electric_scooter"}, {"is_disabled": 0, "lat": 38.89194766666667, "bike_id": "4f063b23455cae04216930578f73856f", "is_reserved": 0, "rental_uris": {"ios": "https://dc.lft.to/lastmile_qr_scan", "android": "https://dc.lft.to/lastmile_qr_scan"}, "name": "4f063b23455cae04216930578f73856f", "fusion_lon": 0.0, "fusion_lat": 0.0, "lon": -76.99860116666666, "type": "electric_scooter"}, {"is_disabled": 0, "lat": 38.92005183333333, "bike_id": "3d2936bf332501675ed043962fa1aabb", "is_reserved": 0, "rental_uris": {"ios": "https://dc.lft.to/lastmile_qr_scan", "android": "https://dc.lft.to/lastmile_qr_scan"}, "name": "3d2936bf332501675ed043962fa1aabb", "fusion_lon": 0.0, "fusion_lat": 0.0, "lon": -76.985019, "type": "electric_scooter"}, {"is_disabled": 0, "lat": 38.8936445, "bike_id": "75dd965d1edc0c7767ec9d6cd839a3b9", "is_reserved": 0, "rental_uris": {"ios": "https://dc.lft.to/lastmile_qr_scan", "android": "https://dc.lft.to/lastmile_qr_scan"}, "name": "75dd965d1edc0c7767ec9d6cd839a3b9", "fusion_lon": 0.0, "fusion_lat": 0.0, "lon": -77.0155545, "type": "electric_scooter"}, {"is_disabled": 0, "lat": 38.950872333333336, "bike_id": "707110c2254bcc7df925081295aae1d3", "is_reserved": 0, "rental_uris": {"ios": "https://dc.lft.to/lastmile_qr_scan", "android": "https://dc.lft.to/lastmile_qr_scan"}, "name": "707110c2254bcc7df925081295aae1d3", "fusion_lon": 0.0, "fusion_lat": 0.0, "lon": -76.997971, "type": "electric_bike"}, {"is_disabled": 0, "lat": 38.924762, "bike_id": "0fdb00e4f4010b4b10ce3cce65d267f2", "is_reserved": 0, "rental_uris": {"ios": "https://dc.lft.to/lastmile_qr_scan", "android": "https://dc.lft.to/lastmile_qr_scan"}, "name": "0fdb00e4f4010b4b10ce3cce65d267f2", "fusion_lon": 0.0, "fusion_lat": 0.0, "lon": -77.0221445, "type": "electric_scooter"}, {"is_disabled": 0, "lat": 39.042400666666666, "bike_id": "1d2d1423afd317e9dc462ecf6d8beffd", "is_reserved": 0, "rental_uris": {"ios": "https://dc.lft.to/lastmile_qr_scan", "android": "https://dc.lft.to/lastmile_qr_scan"}, "name": "1d2d1423afd317e9dc462ecf6d8beffd", "fusion_lon": 0.0, "fusion_lat": 0.0, "lon": -76.99738233333333, "type": "electric_bike"}, {"is_disabled": 0, "lat": 38.864203333333336, "bike_id": "a99374f8c2f982d3b69d18f4e4f030d5", "is_reserved": 0, "rental_uris": {"ios": "https://dc.lft.to/lastmile_qr_scan", "android": "https://dc.lft.to/lastmile_qr_scan"}, "name": "a99374f8c2f982d3b69d18f4e4f030d5", "fusion_lon": 0.0, "fusion_lat": 0.0, "lon": -76.99000266666667, "type": "electric_scooter"}, {"is_disabled": 0, "lat": 38.91969133333333, "bike_id": "0800fa2b4f3440a573953260c7fa82e4", "is_reserved": 0, "rental_uris": {"ios": "https://dc.lft.to/lastmile_qr_scan", "android": "https://dc.lft.to/lastmile_qr_scan"}, "name": "0800fa2b4f3440a573953260c7fa82e4", "fusion_lon": 0.0, "fusion_lat": 0.0, "lon": -76.99253916666666, "type": "electric_scooter"}, {"is_disabled": 0, "lat": 38.934542, "bike_id": "383d557686dd7ce20e8560f2d96f1508", "is_reserved": 0, "rental_uris": {"ios": "https://dc.lft.to/lastmile_qr_scan", "android": "https://dc.lft.to/lastmile_qr_scan"}, "name": "383d557686dd7ce20e8560f2d96f1508", "fusion_lon": 0.0, "fusion_lat": 0.0, "lon": -77.027314, "type": "electric_scooter"}, {"is_disabled": 0, "lat": 38.93700783333333, "bike_id": "47543cb4329c6c649490ca825de55444", "is_reserved": 0, "rental_uris": {"ios": "https://dc.lft.to/lastmile_qr_scan", "android": "https://dc.lft.to/lastmile_qr_scan"}, "name": "47543cb4329c6c649490ca825de55444", "fusion_lon": 0.0, "fusion_lat": 0.0, "lon": -77.05599383333333, "type": "electric_scooter"}, {"is_disabled": 0, "lat": 38.89852233333333, "bike_id": "ddf622c2b8d680956d2dfc1fe63adbfc", "is_reserved": 0, "rental_uris": {"ios": "https://dc.lft.to/lastmile_qr_scan", "android": "https://dc.lft.to/lastmile_qr_scan"}, "name": "ddf622c2b8d680956d2dfc1fe63adbfc", "fusion_lon": 0.0, "fusion_lat": 0.0, "lon": -77.02741283333333, "type": "electric_scooter"}, {"is_disabled": 0, "lat": 38.932462666666666, "bike_id": "e2e9a341fb8a402652a90a72cd79b574", "is_reserved": 0, "rental_uris": {"ios": "https://dc.lft.to/lastmile_qr_scan", "android": "https://dc.lft.to/lastmile_qr_scan"}, "name": "e2e9a341fb8a402652a90a72cd79b574", "fusion_lon": 0.0, "fusion_lat": 0.0, "lon": -77.0327595, "type": "electric_scooter"}, {"is_disabled": 0, "lat": 38.923962333333336, "bike_id": "314088e16cf5e441d263497cc9097384", "is_reserved": 0, "rental_uris": {"ios": "https://dc.lft.to/lastmile_qr_scan", "android": "https://dc.lft.to/lastmile_qr_scan"}, "name": "314088e16cf5e441d263497cc9097384", "fusion_lon": 0.0, "fusion_lat": 0.0, "lon": -76.9937655, "type": "electric_scooter"}, {"is_disabled": 0, "lat": 38.892881833333334, "bike_id": "bac531156dabc4ada79788acf5244015", "is_reserved": 0, "rental_uris": {"ios": "https://dc.lft.to/lastmile_qr_scan", "android": "https://dc.lft.to/lastmile_qr_scan"}, "name": "bac531156dabc4ada79788acf5244015", "fusion_lon": 0.0, "fusion_lat": 0.0, "lon": -76.97619783333333, "type": "electric_bike"}, {"is_disabled": 0, "lat": 38.90703233333333, "bike_id": "c33339ec75d01e57aa9f5054e8a92cd0", "is_reserved": 0, "rental_uris": {"ios": "https://dc.lft.to/lastmile_qr_scan", "android": "https://dc.lft.to/lastmile_qr_scan"}, "name": "c33339ec75d01e57aa9f5054e8a92cd0", "fusion_lon": 0.0, "fusion_lat": 0.0, "lon": -77.00590766666667, "type": "electric_scooter"}, {"is_disabled": 0, "lat": 38.919957333333336, "bike_id": "0430db78fae33b6a27a7f1b21db39039", "is_reserved": 0, "rental_uris": {"ios": "https://dc.lft.to/lastmile_qr_scan", "android": "https://dc.lft.to/lastmile_qr_scan"}, "name": "0430db78fae33b6a27a7f1b21db39039", "fusion_lon": 0.0, "fusion_lat": 0.0, "lon": -77.0418245, "type": "electric_scooter"}, {"is_disabled": 0, "lat": 38.89208583333333, "bike_id": "ef2eccbdfbf83f6f1258b4fbd6f462e8", "is_reserved": 0, "rental_uris": {"ios": "https://dc.lft.to/lastmile_qr_scan", "android": "https://dc.lft.to/lastmile_qr_scan"}, "name": "ef2eccbdfbf83f6f1258b4fbd6f462e8", "fusion_lon": 0.0, "fusion_lat": 0.0, "lon": -76.99842266666667, "type": "electric_scooter"}, {"is_disabled": 0, "lat": 38.90793466666667, "bike_id": "4984e629151dbb23dc7fed603192668f", "is_reserved": 0, "rental_uris": {"ios": "https://dc.lft.to/lastmile_qr_scan", "android": "https://dc.lft.to/lastmile_qr_scan"}, "name": "4984e629151dbb23dc7fed603192668f", "fusion_lon": 0.0, "fusion_lat": 0.0, "lon": -77.04986066666666, "type": "electric_scooter"}, {"is_disabled": 0, "lat": 38.902547, "bike_id": "8153a35bf77867f19090e6d7374440b5", "is_reserved": 0, "rental_uris": {"ios": "https://dc.lft.to/lastmile_qr_scan", "android": "https://dc.lft.to/lastmile_qr_scan"}, "name": "8153a35bf77867f19090e6d7374440b5", "fusion_lon": 0.0, "fusion_lat": 0.0, "lon": -77.00171416666667, "type": "electric_scooter"}, {"is_disabled": 0, "lat": 38.91105233333333, "bike_id": "3b56e3ff8eb89ca4a79fccd2db974965", "is_reserved": 0, "rental_uris": {"ios": "https://dc.lft.to/lastmile_qr_scan", "android": "https://dc.lft.to/lastmile_qr_scan"}, "name": "3b56e3ff8eb89ca4a79fccd2db974965", "fusion_lon": 0.0, "fusion_lat": 0.0, "lon": -77.0223495, "type": "electric_scooter"}, {"is_disabled": 0, "lat": 38.92353116666666, "bike_id": "cf739d988e4ec6196060d2d90502cc8b", "is_reserved": 0, "rental_uris": {"ios": "https://dc.lft.to/lastmile_qr_scan", "android": "https://dc.lft.to/lastmile_qr_scan"}, "name": "cf739d988e4ec6196060d2d90502cc8b", "fusion_lon": 0.0, "fusion_lat": 0.0, "lon": -77.0730995, "type": "electric_scooter"}, {"is_disabled": 0, "lat": 38.90520866666667, "bike_id": "a0f1161029a086f8fc18ebf549e03048", "is_reserved": 0, "rental_uris": {"ios": "https://dc.lft.to/lastmile_qr_scan", "android": "https://dc.lft.to/lastmile_qr_scan"}, "name": "a0f1161029a086f8fc18ebf549e03048", "fusion_lon": 0.0, "fusion_lat": 0.0, "lon": -77.04167933333333, "type": "electric_scooter"}, {"is_disabled": 0, "lat": 38.9005955, "bike_id": "9ef0a88fcbd97c47c5c27609c747cb73", "is_reserved": 0, "rental_uris": {"ios": "https://dc.lft.to/lastmile_qr_scan", "android": "https://dc.lft.to/lastmile_qr_scan"}, "name": "9ef0a88fcbd97c47c5c27609c747cb73", "fusion_lon": 0.0, "fusion_lat": 0.0, "lon": -77.048448, "type": "electric_scooter"}, {"is_disabled": 0, "lat": 38.90905516666667, "bike_id": "0d32673f5cc50808e2debac2bce1c4a2", "is_reserved": 0, "rental_uris": {"ios": "https://dc.lft.to/lastmile_qr_scan", "android": "https://dc.lft.to/lastmile_qr_scan"}, "name": "0d32673f5cc50808e2debac2bce1c4a2", "fusion_lon": 0.0, "fusion_lat": 0.0, "lon": -77.04210966666666, "type": "electric_scooter"}, {"is_disabled": 0, "lat": 38.899388, "bike_id": "c78cfdff4f1d00696051369d70fe740b", "is_reserved": 0, "rental_uris": {"ios": "https://dc.lft.to/lastmile_qr_scan", "android": "https://dc.lft.to/lastmile_qr_scan"}, "name": "c78cfdff4f1d00696051369d70fe740b", "fusion_lon": 0.0, "fusion_lat": 0.0, "lon": -77.03234, "type": "electric_scooter"}, {"is_disabled": 0, "lat": 38.91314066666666, "bike_id": "af9ea1823963c3ef777c43c895cafa9b", "is_reserved": 0, "rental_uris": {"ios": "https://dc.lft.to/lastmile_qr_scan", "android": "https://dc.lft.to/lastmile_qr_scan"}, "name": "af9ea1823963c3ef777c43c895cafa9b", "fusion_lon": 0.0, "fusion_lat": 0.0, "lon": -77.014363, "type": "electric_scooter"}, {"is_disabled": 0, "lat": 38.862616333333335, "bike_id": "e71691b3cb288a919f41a42950dda1fb", "is_reserved": 0, "rental_uris": {"ios": "https://dc.lft.to/lastmile_qr_scan", "android": "https://dc.lft.to/lastmile_qr_scan"}, "name": "e71691b3cb288a919f41a42950dda1fb", "fusion_lon": 0.0, "fusion_lat": 0.0, "lon": -77.08934483333333, "type": "electric_bike"}, {"is_disabled": 0, "lat": 38.9005545, "bike_id": "39aa176c60a462b16f1e29709c138645", "is_reserved": 0, "rental_uris": {"ios": "https://dc.lft.to/lastmile_qr_scan", "android": "https://dc.lft.to/lastmile_qr_scan"}, "name": "39aa176c60a462b16f1e29709c138645", "fusion_lon": 0.0, "fusion_lat": 0.0, "lon": -76.9870565, "type": "electric_scooter"}, {"is_disabled": 0, "lat": 38.80398, "bike_id": "ced2a5d21d7efa97ccfb79ab49d1e18b", "is_reserved": 0, "rental_uris": {"ios": "https://dc.lft.to/lastmile_qr_scan", "android": "https://dc.lft.to/lastmile_qr_scan"}, "name": "ced2a5d21d7efa97ccfb79ab49d1e18b", "fusion_lon": 0.0, "fusion_lat": 0.0, "lon": -77.11327316666667, "type": "electric_bike"}, {"is_disabled": 0, "lat": 38.921964, "bike_id": "bbeb742f3bfffce0ccbb9cd37f17f489", "is_reserved": 0, "rental_uris": {"ios": "https://dc.lft.to/lastmile_qr_scan", "android": "https://dc.lft.to/lastmile_qr_scan"}, "name": "bbeb742f3bfffce0ccbb9cd37f17f489", "fusion_lon": 0.0, "fusion_lat": 0.0, "lon": -77.04244566666667, "type": "electric_scooter"}, {"is_disabled": 0, "lat": 38.903356333333335, "bike_id": "17003f7745702975127179b6cd9393f6", "is_reserved": 0, "rental_uris": {"ios": "https://dc.lft.to/lastmile_qr_scan", "android": "https://dc.lft.to/lastmile_qr_scan"}, "name": "17003f7745702975127179b6cd9393f6", "fusion_lon": 0.0, "fusion_lat": 0.0, "lon": -77.044781, "type": "electric_scooter"}, {"is_disabled": 0, "lat": 38.89823033333333, "bike_id": "f739e16000e5f8092dd42b081963b6a0", "is_reserved": 0, "rental_uris": {"ios": "https://dc.lft.to/lastmile_qr_scan", "android": "https://dc.lft.to/lastmile_qr_scan"}, "name": "f739e16000e5f8092dd42b081963b6a0", "fusion_lon": 0.0, "fusion_lat": 0.0, "lon": -77.026361, "type": "electric_scooter"}, {"is_disabled": 0, "lat": 38.8995175, "bike_id": "44c95e5959dbed0647b693b23c32a280", "is_reserved": 0, "rental_uris": {"ios": "https://dc.lft.to/lastmile_qr_scan", "android": "https://dc.lft.to/lastmile_qr_scan"}, "name": "44c95e5959dbed0647b693b23c32a280", "fusion_lon": 0.0, "fusion_lat": 0.0, "lon": -77.04531933333334, "type": "electric_scooter"}, {"is_disabled": 0, "lat": 38.9027185, "bike_id": "0e3f5670e304dc64ad9b250266a5fff1", "is_reserved": 0, "rental_uris": {"ios": "https://dc.lft.to/lastmile_qr_scan", "android": "https://dc.lft.to/lastmile_qr_scan"}, "name": "0e3f5670e304dc64ad9b250266a5fff1", "fusion_lon": 0.0, "fusion_lat": 0.0, "lon": -77.02832416666666, "type": "electric_scooter"}, {"is_disabled": 0, "lat": 38.940367333333334, "bike_id": "aa16ba80dc3c056b4c8e15f9b058639f", "is_reserved": 0, "rental_uris": {"ios": "https://dc.lft.to/lastmile_qr_scan", "android": "https://dc.lft.to/lastmile_qr_scan"}, "name": "aa16ba80dc3c056b4c8e15f9b058639f", "fusion_lon": 0.0, "fusion_lat": 0.0, "lon": -77.01769616666667, "type": "electric_scooter"}, {"is_disabled": 0, "lat": 38.8887615, "bike_id": "06b41de2c56649613397f64dde715514", "is_reserved": 0, "rental_uris": {"ios": "https://dc.lft.to/lastmile_qr_scan", "android": "https://dc.lft.to/lastmile_qr_scan"}, "name": "06b41de2c56649613397f64dde715514", "fusion_lon": 0.0, "fusion_lat": 0.0, "lon": -76.95706416666667, "type": "electric_bike"}, {"is_disabled": 0, "lat": 38.92321533333333, "bike_id": "bf84988eea9a41097c440ceb17642e40", "is_reserved": 0, "rental_uris": {"ios": "https://dc.lft.to/lastmile_qr_scan", "android": "https://dc.lft.to/lastmile_qr_scan"}, "name": "bf84988eea9a41097c440ceb17642e40", "fusion_lon": 0.0, "fusion_lat": 0.0, "lon": -77.0196375, "type": "electric_scooter"}, {"is_disabled": 0, "lat": 38.881854833333335, "bike_id": "3e3d99a3527c0fbe097abb9ca0eef831", "is_reserved": 0, "rental_uris": {"ios": "https://dc.lft.to/lastmile_qr_scan", "android": "https://dc.lft.to/lastmile_qr_scan"}, "name": "3e3d99a3527c0fbe097abb9ca0eef831", "fusion_lon": 0.0, "fusion_lat": 0.0, "lon": -77.00598, "type": "electric_scooter"}, {"is_disabled": 0, "lat": 38.91692583333333, "bike_id": "fd8d8a52dbf5376b876fccec2c1201b5", "is_reserved": 0, "rental_uris": {"ios": "https://dc.lft.to/lastmile_qr_scan", "android": "https://dc.lft.to/lastmile_qr_scan"}, "name": "fd8d8a52dbf5376b876fccec2c1201b5", "fusion_lon": 0.0, "fusion_lat": 0.0, "lon": -77.01194016666666, "type": "electric_scooter"}, {"is_disabled": 0, "lat": 38.928360166666664, "bike_id": "2daded20ab1f1aca9f72d078c26216cb", "is_reserved": 0, "rental_uris": {"ios": "https://dc.lft.to/lastmile_qr_scan", "android": "https://dc.lft.to/lastmile_qr_scan"}, "name": "2daded20ab1f1aca9f72d078c26216cb", "fusion_lon": 0.0, "fusion_lat": 0.0, "lon": -77.05419466666666, "type": "electric_scooter"}, {"is_disabled": 0, "lat": 38.903659833333336, "bike_id": "5727ae74b1ce53cdc5873c25f0687602", "is_reserved": 0, "rental_uris": {"ios": "https://dc.lft.to/lastmile_qr_scan", "android": "https://dc.lft.to/lastmile_qr_scan"}, "name": "5727ae74b1ce53cdc5873c25f0687602", "fusion_lon": 0.0, "fusion_lat": 0.0, "lon": -77.05011683333333, "type": "electric_scooter"}, {"is_disabled": 0, "lat": 38.923234666666666, "bike_id": "7c598b1c069296a3b9669ea186710ebd", "is_reserved": 0, "rental_uris": {"ios": "https://dc.lft.to/lastmile_qr_scan", "android": "https://dc.lft.to/lastmile_qr_scan"}, "name": "7c598b1c069296a3b9669ea186710ebd", "fusion_lon": 0.0, "fusion_lat": 0.0, "lon": -77.036118, "type": "electric_scooter"}, {"is_disabled": 0, "lat": 38.89733, "bike_id": "074e6083aa9feb2a900aa1b7e302eb9d", "is_reserved": 0, "rental_uris": {"ios": "https://dc.lft.to/lastmile_qr_scan", "android": "https://dc.lft.to/lastmile_qr_scan"}, "name": "074e6083aa9feb2a900aa1b7e302eb9d", "fusion_lon": 0.0, "fusion_lat": 0.0, "lon": -77.04777916666667, "type": "electric_bike"}, {"is_disabled": 0, "lat": 38.93754333333333, "bike_id": "df272b88cc8210da6fed9e6e8efaaeb4", "is_reserved": 0, "rental_uris": {"ios": "https://dc.lft.to/lastmile_qr_scan", "android": "https://dc.lft.to/lastmile_qr_scan"}, "name": "df272b88cc8210da6fed9e6e8efaaeb4", "fusion_lon": 0.0, "fusion_lat": 0.0, "lon": -77.03268766666666, "type": "electric_scooter"}, {"is_disabled": 0, "lat": 38.90035833333334, "bike_id": "7817087d8c190e2de409df989401fe7c", "is_reserved": 0, "rental_uris": {"ios": "https://dc.lft.to/lastmile_qr_scan", "android": "https://dc.lft.to/lastmile_qr_scan"}, "name": "7817087d8c190e2de409df989401fe7c", "fusion_lon": 0.0, "fusion_lat": 0.0, "lon": -76.99839233333333, "type": "electric_scooter"}, {"is_disabled": 0, "lat": 38.92866083333333, "bike_id": "6c75d434b3b4d97a9c6cee12ff0c61b0", "is_reserved": 0, "rental_uris": {"ios": "https://dc.lft.to/lastmile_qr_scan", "android": "https://dc.lft.to/lastmile_qr_scan"}, "name": "6c75d434b3b4d97a9c6cee12ff0c61b0", "fusion_lon": 0.0, "fusion_lat": 0.0, "lon": -77.03448566666667, "type": "electric_scooter"}, {"is_disabled": 0, "lat": 38.93606033333333, "bike_id": "7d8daff3375a8168d6da15e886f779b7", "is_reserved": 0, "rental_uris": {"ios": "https://dc.lft.to/lastmile_qr_scan", "android": "https://dc.lft.to/lastmile_qr_scan"}, "name": "7d8daff3375a8168d6da15e886f779b7", "fusion_lon": 0.0, "fusion_lat": 0.0, "lon": -77.03880633333333, "type": "electric_scooter"}, {"is_disabled": 0, "lat": 38.90645583333333, "bike_id": "6e59accfc08901a1f1cbdadc0226660d", "is_reserved": 0, "rental_uris": {"ios": "https://dc.lft.to/lastmile_qr_scan", "android": "https://dc.lft.to/lastmile_qr_scan"}, "name": "6e59accfc08901a1f1cbdadc0226660d", "fusion_lon": 0.0, "fusion_lat": 0.0, "lon": -77.02465866666667, "type": "electric_scooter"}, {"is_disabled": 0, "lat": 38.883987166666664, "bike_id": "a0059079e772fceeabdce274f88e2181", "is_reserved": 0, "rental_uris": {"ios": "https://dc.lft.to/lastmile_qr_scan", "android": "https://dc.lft.to/lastmile_qr_scan"}, "name": "a0059079e772fceeabdce274f88e2181", "fusion_lon": 0.0, "fusion_lat": 0.0, "lon": -77.01771483333333, "type": "electric_scooter"}, {"is_disabled": 0, "lat": 38.907808333333335, "bike_id": "4d0bb5dd6fe04ffd12c0dac320c6db2b", "is_reserved": 0, "rental_uris": {"ios": "https://dc.lft.to/lastmile_qr_scan", "android": "https://dc.lft.to/lastmile_qr_scan"}, "name": "4d0bb5dd6fe04ffd12c0dac320c6db2b", "fusion_lon": 0.0, "fusion_lat": 0.0, "lon": -77.0466455, "type": "electric_scooter"}, {"is_disabled": 0, "lat": 38.891768, "bike_id": "bc14531c80d45abb3de4d7a856a60975", "is_reserved": 0, "rental_uris": {"ios": "https://dc.lft.to/lastmile_qr_scan", "android": "https://dc.lft.to/lastmile_qr_scan"}, "name": "bc14531c80d45abb3de4d7a856a60975", "fusion_lon": 0.0, "fusion_lat": 0.0, "lon": -77.015795, "type": "electric_scooter"}, {"is_disabled": 0, "lat": 38.835823833333336, "bike_id": "de7b978fd12557ea851177c51253700f", "is_reserved": 0, "rental_uris": {"ios": "https://dc.lft.to/lastmile_qr_scan", "android": "https://dc.lft.to/lastmile_qr_scan"}, "name": "de7b978fd12557ea851177c51253700f", "fusion_lon": 0.0, "fusion_lat": 0.0, "lon": -76.99026216666667, "type": "electric_bike"}, {"is_disabled": 0, "lat": 38.89840433333333, "bike_id": "01aea32d974686f3b1ba5deed2563cca", "is_reserved": 0, "rental_uris": {"ios": "https://dc.lft.to/lastmile_qr_scan", "android": "https://dc.lft.to/lastmile_qr_scan"}, "name": "01aea32d974686f3b1ba5deed2563cca", "fusion_lon": 0.0, "fusion_lat": 0.0, "lon": -77.02834533333333, "type": "electric_scooter"}, {"is_disabled": 0, "lat": 38.93252066666667, "bike_id": "16e1ea8f826ca7d7d21e659a369a82c1", "is_reserved": 0, "rental_uris": {"ios": "https://dc.lft.to/lastmile_qr_scan", "android": "https://dc.lft.to/lastmile_qr_scan"}, "name": "16e1ea8f826ca7d7d21e659a369a82c1", "fusion_lon": 0.0, "fusion_lat": 0.0, "lon": -77.03285883333334, "type": "electric_scooter"}, {"is_disabled": 0, "lat": 38.919078999999996, "bike_id": "614c412c5318ded5462a802d0f9e1089", "is_reserved": 0, "rental_uris": {"ios": "https://dc.lft.to/lastmile_qr_scan", "android": "https://dc.lft.to/lastmile_qr_scan"}, "name": "614c412c5318ded5462a802d0f9e1089", "fusion_lon": 0.0, "fusion_lat": 0.0, "lon": -77.10184066666666, "type": "electric_bike"}, {"is_disabled": 0, "lat": 38.90512566666666, "bike_id": "a6982ea0106e39f16d7bb6c921453a8c", "is_reserved": 0, "rental_uris": {"ios": "https://dc.lft.to/lastmile_qr_scan", "android": "https://dc.lft.to/lastmile_qr_scan"}, "name": "a6982ea0106e39f16d7bb6c921453a8c", "fusion_lon": 0.0, "fusion_lat": 0.0, "lon": -77.07014416666667, "type": "electric_scooter"}, {"is_disabled": 0, "lat": 38.905332333333334, "bike_id": "857fdfca5242620d7d7eeb5a4d191838", "is_reserved": 0, "rental_uris": {"ios": "https://dc.lft.to/lastmile_qr_scan", "android": "https://dc.lft.to/lastmile_qr_scan"}, "name": "857fdfca5242620d7d7eeb5a4d191838", "fusion_lon": 0.0, "fusion_lat": 0.0, "lon": -77.04197266666667, "type": "electric_scooter"}, {"is_disabled": 0, "lat": 38.959213166666665, "bike_id": "d4501b694b157988ad391e53ba39fc2f", "is_reserved": 0, "rental_uris": {"ios": "https://dc.lft.to/lastmile_qr_scan", "android": "https://dc.lft.to/lastmile_qr_scan"}, "name": "d4501b694b157988ad391e53ba39fc2f", "fusion_lon": 0.0, "fusion_lat": 0.0, "lon": -76.92526416666666, "type": "electric_bike"}, {"is_disabled": 0, "lat": 38.878528, "bike_id": "8a08fd26401ef0b81af9546bd5d7e0d9", "is_reserved": 0, "rental_uris": {"ios": "https://dc.lft.to/lastmile_qr_scan", "android": "https://dc.lft.to/lastmile_qr_scan"}, "name": "8a08fd26401ef0b81af9546bd5d7e0d9", "fusion_lon": 0.0, "fusion_lat": 0.0, "lon": -77.01871916666667, "type": "electric_scooter"}, {"is_disabled": 0, "lat": 38.892745166666664, "bike_id": "be03693ab2b396550acc59b4acdd2de1", "is_reserved": 0, "rental_uris": {"ios": "https://dc.lft.to/lastmile_qr_scan", "android": "https://dc.lft.to/lastmile_qr_scan"}, "name": "be03693ab2b396550acc59b4acdd2de1", "fusion_lon": 0.0, "fusion_lat": 0.0, "lon": -77.04656866666667, "type": "electric_scooter"}, {"is_disabled": 0, "lat": 38.908782333333335, "bike_id": "896d549f263e29d677f8bbbc78f0b72b", "is_reserved": 0, "rental_uris": {"ios": "https://dc.lft.to/lastmile_qr_scan", "android": "https://dc.lft.to/lastmile_qr_scan"}, "name": "896d549f263e29d677f8bbbc78f0b72b", "fusion_lon": 0.0, "fusion_lat": 0.0, "lon": -77.0228915, "type": "electric_scooter"}, {"is_disabled": 0, "lat": 38.916108, "bike_id": "57ef731dede9deb3253cf3419daed82a", "is_reserved": 0, "rental_uris": {"ios": "https://dc.lft.to/lastmile_qr_scan", "android": "https://dc.lft.to/lastmile_qr_scan"}, "name": "57ef731dede9deb3253cf3419daed82a", "fusion_lon": 0.0, "fusion_lat": 0.0, "lon": -77.038939, "type": "electric_scooter"}, {"is_disabled": 0, "lat": 38.8524455, "bike_id": "563ce817841daf4fdf5a07e5f9edbce6", "is_reserved": 0, "rental_uris": {"ios": "https://dc.lft.to/lastmile_qr_scan", "android": "https://dc.lft.to/lastmile_qr_scan"}, "name": "563ce817841daf4fdf5a07e5f9edbce6", "fusion_lon": 0.0, "fusion_lat": 0.0, "lon": -77.10712433333333, "type": "electric_bike"}, {"is_disabled": 0, "lat": 38.928526833333336, "bike_id": "de1899ee535610674b5b725d88cb0113", "is_reserved": 0, "rental_uris": {"ios": "https://dc.lft.to/lastmile_qr_scan", "android": "https://dc.lft.to/lastmile_qr_scan"}, "name": "de1899ee535610674b5b725d88cb0113", "fusion_lon": 0.0, "fusion_lat": 0.0, "lon": -77.01382766666667, "type": "electric_scooter"}, {"is_disabled": 0, "lat": 38.94436783333333, "bike_id": "c8a9d163591afc3c7422a6c7a0ced0fa", "is_reserved": 0, "rental_uris": {"ios": "https://dc.lft.to/lastmile_qr_scan", "android": "https://dc.lft.to/lastmile_qr_scan"}, "name": "c8a9d163591afc3c7422a6c7a0ced0fa", "fusion_lon": 0.0, "fusion_lat": 0.0, "lon": -77.06360416666666, "type": "electric_scooter"}, {"is_disabled": 0, "lat": 38.92054, "bike_id": "4c86d3afc27e64747b8c23ac8229d795", "is_reserved": 0, "rental_uris": {"ios": "https://dc.lft.to/lastmile_qr_scan", "android": "https://dc.lft.to/lastmile_qr_scan"}, "name": "4c86d3afc27e64747b8c23ac8229d795", "fusion_lon": 0.0, "fusion_lat": 0.0, "lon": -76.97074216666667, "type": "electric_bike"}, {"is_disabled": 0, "lat": 38.92717583333334, "bike_id": "53cca0f69805b1b9a61f0da6194e3c8f", "is_reserved": 0, "rental_uris": {"ios": "https://dc.lft.to/lastmile_qr_scan", "android": "https://dc.lft.to/lastmile_qr_scan"}, "name": "53cca0f69805b1b9a61f0da6194e3c8f", "fusion_lon": 0.0, "fusion_lat": 0.0, "lon": -77.0513915, "type": "electric_scooter"}, {"is_disabled": 0, "lat": 38.90002583333333, "bike_id": "4d766d497e0daaa40893b1d6cd5b53e2", "is_reserved": 0, "rental_uris": {"ios": "https://dc.lft.to/lastmile_qr_scan", "android": "https://dc.lft.to/lastmile_qr_scan"}, "name": "4d766d497e0daaa40893b1d6cd5b53e2", "fusion_lon": 0.0, "fusion_lat": 0.0, "lon": -77.0270565, "type": "electric_scooter"}, {"is_disabled": 0, "lat": 38.863731666666666, "bike_id": "f19e04f81c4ebb9d40c0ebd9f4b42387", "is_reserved": 0, "rental_uris": {"ios": "https://dc.lft.to/lastmile_qr_scan", "android": "https://dc.lft.to/lastmile_qr_scan"}, "name": "f19e04f81c4ebb9d40c0ebd9f4b42387", "fusion_lon": 0.0, "fusion_lat": 0.0, "lon": -77.01369583333333, "type": "electric_scooter"}, {"is_disabled": 0, "lat": 38.91789833333333, "bike_id": "5cadd7be3208244289c41a364e0b1360", "is_reserved": 0, "rental_uris": {"ios": "https://dc.lft.to/lastmile_qr_scan", "android": "https://dc.lft.to/lastmile_qr_scan"}, "name": "5cadd7be3208244289c41a364e0b1360", "fusion_lon": 0.0, "fusion_lat": 0.0, "lon": -77.02814066666667, "type": "electric_scooter"}, {"is_disabled": 0, "lat": 38.93657833333333, "bike_id": "81fc7d90445676cdb563bddb21ff158e", "is_reserved": 0, "rental_uris": {"ios": "https://dc.lft.to/lastmile_qr_scan", "android": "https://dc.lft.to/lastmile_qr_scan"}, "name": "81fc7d90445676cdb563bddb21ff158e", "fusion_lon": 0.0, "fusion_lat": 0.0, "lon": -77.0661215, "type": "electric_scooter"}, {"is_disabled": 0, "lat": 38.916955333333334, "bike_id": "5a94fb9b5d41ec59106bf0e843e7d1fd", "is_reserved": 0, "rental_uris": {"ios": "https://dc.lft.to/lastmile_qr_scan", "android": "https://dc.lft.to/lastmile_qr_scan"}, "name": "5a94fb9b5d41ec59106bf0e843e7d1fd", "fusion_lon": 0.0, "fusion_lat": 0.0, "lon": -77.037851, "type": "electric_scooter"}, {"is_disabled": 0, "lat": 38.9257605, "bike_id": "d5835faa128d732c7749c9994b7b2e11", "is_reserved": 0, "rental_uris": {"ios": "https://dc.lft.to/lastmile_qr_scan", "android": "https://dc.lft.to/lastmile_qr_scan"}, "name": "d5835faa128d732c7749c9994b7b2e11", "fusion_lon": 0.0, "fusion_lat": 0.0, "lon": -76.99500133333333, "type": "electric_scooter"}, {"is_disabled": 0, "lat": 38.92968583333333, "bike_id": "866cf126e3e12e0829c5372adda29d2c", "is_reserved": 0, "rental_uris": {"ios": "https://dc.lft.to/lastmile_qr_scan", "android": "https://dc.lft.to/lastmile_qr_scan"}, "name": "866cf126e3e12e0829c5372adda29d2c", "fusion_lon": 0.0, "fusion_lat": 0.0, "lon": -77.023427, "type": "electric_scooter"}, {"is_disabled": 0, "lat": 38.898430833333336, "bike_id": "e1d5adb13f46280bf1f011c92b5ac01d", "is_reserved": 0, "rental_uris": {"ios": "https://dc.lft.to/lastmile_qr_scan", "android": "https://dc.lft.to/lastmile_qr_scan"}, "name": "e1d5adb13f46280bf1f011c92b5ac01d", "fusion_lon": 0.0, "fusion_lat": 0.0, "lon": -77.0293965, "type": "electric_scooter"}, {"is_disabled": 0, "lat": 38.939561166666664, "bike_id": "69874e36b43b2dde4b5d35c77f99d3c1", "is_reserved": 0, "rental_uris": {"ios": "https://dc.lft.to/lastmile_qr_scan", "android": "https://dc.lft.to/lastmile_qr_scan"}, "name": "69874e36b43b2dde4b5d35c77f99d3c1", "fusion_lon": 0.0, "fusion_lat": 0.0, "lon": -77.03601783333333, "type": "electric_scooter"}, {"is_disabled": 0, "lat": 38.894028166666665, "bike_id": "3e59deb22e0402884495c1eb0f991a56", "is_reserved": 0, "rental_uris": {"ios": "https://dc.lft.to/lastmile_qr_scan", "android": "https://dc.lft.to/lastmile_qr_scan"}, "name": "3e59deb22e0402884495c1eb0f991a56", "fusion_lon": 0.0, "fusion_lat": 0.0, "lon": -77.03220016666667, "type": "electric_scooter"}, {"is_disabled": 0, "lat": 38.90788366666666, "bike_id": "75bf3a9d87db708ee038061eee9aa9db", "is_reserved": 0, "rental_uris": {"ios": "https://dc.lft.to/lastmile_qr_scan", "android": "https://dc.lft.to/lastmile_qr_scan"}, "name": "75bf3a9d87db708ee038061eee9aa9db", "fusion_lon": 0.0, "fusion_lat": 0.0, "lon": -76.99725216666667, "type": "electric_scooter"}, {"is_disabled": 0, "lat": 38.89518066666667, "bike_id": "0fb7f8ef76ac9d550bb30567b6a8cb20", "is_reserved": 0, "rental_uris": {"ios": "https://dc.lft.to/lastmile_qr_scan", "android": "https://dc.lft.to/lastmile_qr_scan"}, "name": "0fb7f8ef76ac9d550bb30567b6a8cb20", "fusion_lon": 0.0, "fusion_lat": 0.0, "lon": -77.02943883333333, "type": "electric_scooter"}, {"is_disabled": 0, "lat": 38.892204166666666, "bike_id": "1e03b92d1a5d033496f400ae6acbd63a", "is_reserved": 0, "rental_uris": {"ios": "https://dc.lft.to/lastmile_qr_scan", "android": "https://dc.lft.to/lastmile_qr_scan"}, "name": "1e03b92d1a5d033496f400ae6acbd63a", "fusion_lon": 0.0, "fusion_lat": 0.0, "lon": -77.04642133333333, "type": "electric_scooter"}, {"is_disabled": 0, "lat": 38.896062666666666, "bike_id": "8425cb4fbe9f3c1168fd8cb4c74d66b8", "is_reserved": 0, "rental_uris": {"ios": "https://dc.lft.to/lastmile_qr_scan", "android": "https://dc.lft.to/lastmile_qr_scan"}, "name": "8425cb4fbe9f3c1168fd8cb4c74d66b8", "fusion_lon": 0.0, "fusion_lat": 0.0, "lon": -77.04411816666666, "type": "electric_scooter"}, {"is_disabled": 0, "lat": 38.90048183333333, "bike_id": "69af9d1991d3b16ecb7db765d8550b42", "is_reserved": 0, "rental_uris": {"ios": "https://dc.lft.to/lastmile_qr_scan", "android": "https://dc.lft.to/lastmile_qr_scan"}, "name": "69af9d1991d3b16ecb7db765d8550b42", "fusion_lon": 0.0, "fusion_lat": 0.0, "lon": -76.99154, "type": "electric_scooter"}, {"is_disabled": 0, "lat": 38.89631116666666, "bike_id": "29f82e9b53dd04f28684d8cc8fabf979", "is_reserved": 0, "rental_uris": {"ios": "https://dc.lft.to/lastmile_qr_scan", "android": "https://dc.lft.to/lastmile_qr_scan"}, "name": "29f82e9b53dd04f28684d8cc8fabf979", "fusion_lon": 0.0, "fusion_lat": 0.0, "lon": -77.026117, "type": "electric_scooter"}, {"is_disabled": 0, "lat": 38.920722, "bike_id": "074cb0b18d6c8ea0934c8a8a435908b1", "is_reserved": 0, "rental_uris": {"ios": "https://dc.lft.to/lastmile_qr_scan", "android": "https://dc.lft.to/lastmile_qr_scan"}, "name": "074cb0b18d6c8ea0934c8a8a435908b1", "fusion_lon": 0.0, "fusion_lat": 0.0, "lon": -77.04200933333334, "type": "electric_scooter"}, {"is_disabled": 0, "lat": 38.900670833333336, "bike_id": "14f01b4231c088da6c1a6039312e744c", "is_reserved": 0, "rental_uris": {"ios": "https://dc.lft.to/lastmile_qr_scan", "android": "https://dc.lft.to/lastmile_qr_scan"}, "name": "14f01b4231c088da6c1a6039312e744c", "fusion_lon": 0.0, "fusion_lat": 0.0, "lon": -77.043489, "type": "electric_scooter"}, {"is_disabled": 0, "lat": 38.92440883333333, "bike_id": "e5a0cb4a567ee5e3c0ba7b55f36eb172", "is_reserved": 0, "rental_uris": {"ios": "https://dc.lft.to/lastmile_qr_scan", "android": "https://dc.lft.to/lastmile_qr_scan"}, "name": "e5a0cb4a567ee5e3c0ba7b55f36eb172", "fusion_lon": 0.0, "fusion_lat": 0.0, "lon": -77.02153716666666, "type": "electric_scooter"}, {"is_disabled": 0, "lat": 38.892403, "bike_id": "26c49a172a5bd111e385172a3ad9fb1f", "is_reserved": 0, "rental_uris": {"ios": "https://dc.lft.to/lastmile_qr_scan", "android": "https://dc.lft.to/lastmile_qr_scan"}, "name": "26c49a172a5bd111e385172a3ad9fb1f", "fusion_lon": 0.0, "fusion_lat": 0.0, "lon": -77.03182016666666, "type": "electric_scooter"}, {"is_disabled": 0, "lat": 38.892188833333336, "bike_id": "76516ae0cb4c04f59628600622baaf65", "is_reserved": 0, "rental_uris": {"ios": "https://dc.lft.to/lastmile_qr_scan", "android": "https://dc.lft.to/lastmile_qr_scan"}, "name": "76516ae0cb4c04f59628600622baaf65", "fusion_lon": 0.0, "fusion_lat": 0.0, "lon": -77.02422833333334, "type": "electric_scooter"}, {"is_disabled": 0, "lat": 38.905394333333334, "bike_id": "308a044e2c05a27a940d87414ad5bfbe", "is_reserved": 0, "rental_uris": {"ios": "https://dc.lft.to/lastmile_qr_scan", "android": "https://dc.lft.to/lastmile_qr_scan"}, "name": "308a044e2c05a27a940d87414ad5bfbe", "fusion_lon": 0.0, "fusion_lat": 0.0, "lon": -77.04095983333333, "type": "electric_scooter"}, {"is_disabled": 0, "lat": 38.89357566666666, "bike_id": "3bddc0cdff51056ee3b7f43a0dd7c233", "is_reserved": 0, "rental_uris": {"ios": "https://dc.lft.to/lastmile_qr_scan", "android": "https://dc.lft.to/lastmile_qr_scan"}, "name": "3bddc0cdff51056ee3b7f43a0dd7c233", "fusion_lon": 0.0, "fusion_lat": 0.0, "lon": -77.00337683333333, "type": "electric_scooter"}, {"is_disabled": 0, "lat": 38.92340216666667, "bike_id": "02cb16f42479d65befeaa31365190e7c", "is_reserved": 0, "rental_uris": {"ios": "https://dc.lft.to/lastmile_qr_scan", "android": "https://dc.lft.to/lastmile_qr_scan"}, "name": "02cb16f42479d65befeaa31365190e7c", "fusion_lon": 0.0, "fusion_lat": 0.0, "lon": -76.99873433333333, "type": "electric_scooter"}, {"is_disabled": 0, "lat": 38.87440616666667, "bike_id": "52e02cf91d40d5a08c0b44514898d765", "is_reserved": 0, "rental_uris": {"ios": "https://dc.lft.to/lastmile_qr_scan", "android": "https://dc.lft.to/lastmile_qr_scan"}, "name": "52e02cf91d40d5a08c0b44514898d765", "fusion_lon": 0.0, "fusion_lat": 0.0, "lon": -77.0006605, "type": "electric_scooter"}, {"is_disabled": 0, "lat": 38.89804516666667, "bike_id": "ece575ae41a391adf7810c360fd2181c", "is_reserved": 0, "rental_uris": {"ios": "https://dc.lft.to/lastmile_qr_scan", "android": "https://dc.lft.to/lastmile_qr_scan"}, "name": "ece575ae41a391adf7810c360fd2181c", "fusion_lon": 0.0, "fusion_lat": 0.0, "lon": -76.9794725, "type": "electric_scooter"}, {"is_disabled": 0, "lat": 38.892391, "bike_id": "e3ba6ce6b8235035ef5e88b2b2bd434f", "is_reserved": 0, "rental_uris": {"ios": "https://dc.lft.to/lastmile_qr_scan", "android": "https://dc.lft.to/lastmile_qr_scan"}, "name": "e3ba6ce6b8235035ef5e88b2b2bd434f", "fusion_lon": 0.0, "fusion_lat": 0.0, "lon": -77.032102, "type": "electric_scooter"}, {"is_disabled": 0, "lat": 38.90028266666667, "bike_id": "d68ec9ae3955e6084f510a8ca9efc950", "is_reserved": 0, "rental_uris": {"ios": "https://dc.lft.to/lastmile_qr_scan", "android": "https://dc.lft.to/lastmile_qr_scan"}, "name": "d68ec9ae3955e6084f510a8ca9efc950", "fusion_lon": 0.0, "fusion_lat": 0.0, "lon": -76.97224683333333, "type": "electric_bike"}, {"is_disabled": 0, "lat": 38.930651, "bike_id": "b57a26c752ed08e9991dffd887422945", "is_reserved": 0, "rental_uris": {"ios": "https://dc.lft.to/lastmile_qr_scan", "android": "https://dc.lft.to/lastmile_qr_scan"}, "name": "b57a26c752ed08e9991dffd887422945", "fusion_lon": 0.0, "fusion_lat": 0.0, "lon": -77.0217065, "type": "electric_scooter"}, {"is_disabled": 0, "lat": 38.926018166666665, "bike_id": "219efacaa1164c5b4802a534a549249b", "is_reserved": 0, "rental_uris": {"ios": "https://dc.lft.to/lastmile_qr_scan", "android": "https://dc.lft.to/lastmile_qr_scan"}, "name": "219efacaa1164c5b4802a534a549249b", "fusion_lon": 0.0, "fusion_lat": 0.0, "lon": -77.02161516666666, "type": "electric_scooter"}, {"is_disabled": 0, "lat": 38.895321833333334, "bike_id": "a3c09fac8663245977bda1d9d67a7d24", "is_reserved": 0, "rental_uris": {"ios": "https://dc.lft.to/lastmile_qr_scan", "android": "https://dc.lft.to/lastmile_qr_scan"}, "name": "a3c09fac8663245977bda1d9d67a7d24", "fusion_lon": 0.0, "fusion_lat": 0.0, "lon": -76.983791, "type": "electric_scooter"}, {"is_disabled": 0, "lat": 38.89172283333333, "bike_id": "6a8cd043a49856b0c980c6bf5d269195", "is_reserved": 0, "rental_uris": {"ios": "https://dc.lft.to/lastmile_qr_scan", "android": "https://dc.lft.to/lastmile_qr_scan"}, "name": "6a8cd043a49856b0c980c6bf5d269195", "fusion_lon": 0.0, "fusion_lat": 0.0, "lon": -77.01555883333333, "type": "electric_scooter"}, {"is_disabled": 0, "lat": 38.813289166666664, "bike_id": "dcb114b88c13f80620f4d4faec211acc", "is_reserved": 0, "rental_uris": {"ios": "https://dc.lft.to/lastmile_qr_scan", "android": "https://dc.lft.to/lastmile_qr_scan"}, "name": "dcb114b88c13f80620f4d4faec211acc", "fusion_lon": 0.0, "fusion_lat": 0.0, "lon": -77.0509665, "type": "electric_bike"}, {"is_disabled": 0, "lat": 38.99405333333333, "bike_id": "f082c0ad78a001c8a1b5bf396bda322c", "is_reserved": 0, "rental_uris": {"ios": "https://dc.lft.to/lastmile_qr_scan", "android": "https://dc.lft.to/lastmile_qr_scan"}, "name": "f082c0ad78a001c8a1b5bf396bda322c", "fusion_lon": 0.0, "fusion_lat": 0.0, "lon": -77.02322816666667, "type": "electric_bike"}, {"is_disabled": 0, "lat": 38.88703266666667, "bike_id": "3027d1d7f07681d39c70deb3e759a668", "is_reserved": 0, "rental_uris": {"ios": "https://dc.lft.to/lastmile_qr_scan", "android": "https://dc.lft.to/lastmile_qr_scan"}, "name": "3027d1d7f07681d39c70deb3e759a668", "fusion_lon": 0.0, "fusion_lat": 0.0, "lon": -77.01368, "type": "electric_scooter"}, {"is_disabled": 0, "lat": 38.914161, "bike_id": "f23dcc7d89816bd0a2895ef8ee1658c6", "is_reserved": 0, "rental_uris": {"ios": "https://dc.lft.to/lastmile_qr_scan", "android": "https://dc.lft.to/lastmile_qr_scan"}, "name": "f23dcc7d89816bd0a2895ef8ee1658c6", "fusion_lon": 0.0, "fusion_lat": 0.0, "lon": -77.0317365, "type": "electric_scooter"}, {"is_disabled": 0, "lat": 38.903430666666665, "bike_id": "aa72a7c4a6d770deccd68e0c1fecfffd", "is_reserved": 0, "rental_uris": {"ios": "https://dc.lft.to/lastmile_qr_scan", "android": "https://dc.lft.to/lastmile_qr_scan"}, "name": "aa72a7c4a6d770deccd68e0c1fecfffd", "fusion_lon": 0.0, "fusion_lat": 0.0, "lon": -76.98278233333333, "type": "electric_scooter"}, {"is_disabled": 0, "lat": 38.842861166666665, "bike_id": "2edbd7a0522d4f8a65141aff7ee74cae", "is_reserved": 0, "rental_uris": {"ios": "https://dc.lft.to/lastmile_qr_scan", "android": "https://dc.lft.to/lastmile_qr_scan"}, "name": "2edbd7a0522d4f8a65141aff7ee74cae", "fusion_lon": 0.0, "fusion_lat": 0.0, "lon": -77.06383483333333, "type": "electric_bike"}, {"is_disabled": 0, "lat": 38.88127766666667, "bike_id": "0a3f2c2cac5c85c5067801014d01987a", "is_reserved": 0, "rental_uris": {"ios": "https://dc.lft.to/lastmile_qr_scan", "android": "https://dc.lft.to/lastmile_qr_scan"}, "name": "0a3f2c2cac5c85c5067801014d01987a", "fusion_lon": 0.0, "fusion_lat": 0.0, "lon": -77.0271505, "type": "electric_scooter"}, {"is_disabled": 0, "lat": 38.976047333333334, "bike_id": "8cf73544965524d334179b1b31827b44", "is_reserved": 0, "rental_uris": {"ios": "https://dc.lft.to/lastmile_qr_scan", "android": "https://dc.lft.to/lastmile_qr_scan"}, "name": "8cf73544965524d334179b1b31827b44", "fusion_lon": 0.0, "fusion_lat": 0.0, "lon": -77.01872116666667, "type": "electric_scooter"}, {"is_disabled": 0, "lat": 38.91572033333333, "bike_id": "c7e76ade3f79a91075698bf1b4d76e37", "is_reserved": 0, "rental_uris": {"ios": "https://dc.lft.to/lastmile_qr_scan", "android": "https://dc.lft.to/lastmile_qr_scan"}, "name": "c7e76ade3f79a91075698bf1b4d76e37", "fusion_lon": 0.0, "fusion_lat": 0.0, "lon": -77.05035766666667, "type": "electric_scooter"}, {"is_disabled": 0, "lat": 38.89543316666666, "bike_id": "156108395abdaf82bae29a453dbaff2f", "is_reserved": 0, "rental_uris": {"ios": "https://dc.lft.to/lastmile_qr_scan", "android": "https://dc.lft.to/lastmile_qr_scan"}, "name": "156108395abdaf82bae29a453dbaff2f", "fusion_lon": 0.0, "fusion_lat": 0.0, "lon": -77.0091695, "type": "electric_scooter"}, {"is_disabled": 0, "lat": 38.868865, "bike_id": "8c795adae4f78a191e8738ffe60ecae5", "is_reserved": 0, "rental_uris": {"ios": "https://dc.lft.to/lastmile_qr_scan", "android": "https://dc.lft.to/lastmile_qr_scan"}, "name": "8c795adae4f78a191e8738ffe60ecae5", "fusion_lon": 0.0, "fusion_lat": 0.0, "lon": -76.99005233333334, "type": "electric_scooter"}, {"is_disabled": 0, "lat": 38.88654183333333, "bike_id": "c41fdb95f2923bdcb27e78abf12165d2", "is_reserved": 0, "rental_uris": {"ios": "https://dc.lft.to/lastmile_qr_scan", "android": "https://dc.lft.to/lastmile_qr_scan"}, "name": "c41fdb95f2923bdcb27e78abf12165d2", "fusion_lon": 0.0, "fusion_lat": 0.0, "lon": -77.02830416666667, "type": "electric_scooter"}, {"is_disabled": 0, "lat": 38.874647333333336, "bike_id": "fe861f9b581f87626ec28287ed22769b", "is_reserved": 0, "rental_uris": {"ios": "https://dc.lft.to/lastmile_qr_scan", "android": "https://dc.lft.to/lastmile_qr_scan"}, "name": "fe861f9b581f87626ec28287ed22769b", "fusion_lon": 0.0, "fusion_lat": 0.0, "lon": -77.005678, "type": "electric_scooter"}, {"is_disabled": 0, "lat": 38.89592783333333, "bike_id": "dfefeb52d98c7a0fc2d487085b910e47", "is_reserved": 0, "rental_uris": {"ios": "https://dc.lft.to/lastmile_qr_scan", "android": "https://dc.lft.to/lastmile_qr_scan"}, "name": "dfefeb52d98c7a0fc2d487085b910e47", "fusion_lon": 0.0, "fusion_lat": 0.0, "lon": -76.98324383333333, "type": "electric_scooter"}, {"is_disabled": 0, "lat": 38.91626266666667, "bike_id": "aa7e77d63e735c6365adbf5cf702e41a", "is_reserved": 0, "rental_uris": {"ios": "https://dc.lft.to/lastmile_qr_scan", "android": "https://dc.lft.to/lastmile_qr_scan"}, "name": "aa7e77d63e735c6365adbf5cf702e41a", "fusion_lon": 0.0, "fusion_lat": 0.0, "lon": -77.0314655, "type": "electric_scooter"}, {"is_disabled": 0, "lat": 38.91841383333333, "bike_id": "e83930e5546c08d21cad6118120bd3cc", "is_reserved": 0, "rental_uris": {"ios": "https://dc.lft.to/lastmile_qr_scan", "android": "https://dc.lft.to/lastmile_qr_scan"}, "name": "e83930e5546c08d21cad6118120bd3cc", "fusion_lon": 0.0, "fusion_lat": 0.0, "lon": -77.0391445, "type": "electric_scooter"}, {"is_disabled": 0, "lat": 38.904372, "bike_id": "f32ff4872cc39cb90e63ff4a2779c280", "is_reserved": 0, "rental_uris": {"ios": "https://dc.lft.to/lastmile_qr_scan", "android": "https://dc.lft.to/lastmile_qr_scan"}, "name": "f32ff4872cc39cb90e63ff4a2779c280", "fusion_lon": 0.0, "fusion_lat": 0.0, "lon": -76.972328, "type": "electric_bike"}, {"is_disabled": 0, "lat": 38.88687683333333, "bike_id": "2aef270acbcd95b3372051ad877a954e", "is_reserved": 0, "rental_uris": {"ios": "https://dc.lft.to/lastmile_qr_scan", "android": "https://dc.lft.to/lastmile_qr_scan"}, "name": "2aef270acbcd95b3372051ad877a954e", "fusion_lon": 0.0, "fusion_lat": 0.0, "lon": -76.9764555, "type": "electric_scooter"}, {"is_disabled": 0, "lat": 39.010762666666665, "bike_id": "2bb73489137c475b2c7dc5f182041bd8", "is_reserved": 0, "rental_uris": {"ios": "https://dc.lft.to/lastmile_qr_scan", "android": "https://dc.lft.to/lastmile_qr_scan"}, "name": "2bb73489137c475b2c7dc5f182041bd8", "fusion_lon": 0.0, "fusion_lat": 0.0, "lon": -76.910647, "type": "electric_bike"}, {"is_disabled": 0, "lat": 38.9221595, "bike_id": "dd6ae0e158328fe45ca891095fa970a8", "is_reserved": 0, "rental_uris": {"ios": "https://dc.lft.to/lastmile_qr_scan", "android": "https://dc.lft.to/lastmile_qr_scan"}, "name": "dd6ae0e158328fe45ca891095fa970a8", "fusion_lon": 0.0, "fusion_lat": 0.0, "lon": -77.042492, "type": "electric_scooter"}, {"is_disabled": 0, "lat": 38.942801, "bike_id": "3cff3b6d51905a4110f3538fcc916f26", "is_reserved": 0, "rental_uris": {"ios": "https://dc.lft.to/lastmile_qr_scan", "android": "https://dc.lft.to/lastmile_qr_scan"}, "name": "3cff3b6d51905a4110f3538fcc916f26", "fusion_lon": 0.0, "fusion_lat": 0.0, "lon": -77.0673015, "type": "electric_scooter"}, {"is_disabled": 0, "lat": 38.91892766666667, "bike_id": "0ce5a34e5dfa144d8f312936294a3957", "is_reserved": 0, "rental_uris": {"ios": "https://dc.lft.to/lastmile_qr_scan", "android": "https://dc.lft.to/lastmile_qr_scan"}, "name": "0ce5a34e5dfa144d8f312936294a3957", "fusion_lon": 0.0, "fusion_lat": 0.0, "lon": -77.04612783333333, "type": "electric_scooter"}, {"is_disabled": 0, "lat": 38.9320325, "bike_id": "14744cf130f231858a18ccee2c6b3920", "is_reserved": 0, "rental_uris": {"ios": "https://dc.lft.to/lastmile_qr_scan", "android": "https://dc.lft.to/lastmile_qr_scan"}, "name": "14744cf130f231858a18ccee2c6b3920", "fusion_lon": 0.0, "fusion_lat": 0.0, "lon": -77.03859066666666, "type": "electric_scooter"}, {"is_disabled": 0, "lat": 38.89834333333334, "bike_id": "e7558853121c8724cf801781dd3db202", "is_reserved": 0, "rental_uris": {"ios": "https://dc.lft.to/lastmile_qr_scan", "android": "https://dc.lft.to/lastmile_qr_scan"}, "name": "e7558853121c8724cf801781dd3db202", "fusion_lon": 0.0, "fusion_lat": 0.0, "lon": -77.0431355, "type": "electric_scooter"}, {"is_disabled": 0, "lat": 38.9181875, "bike_id": "ad7efcdf081aaae54e236c6acf407fad", "is_reserved": 0, "rental_uris": {"ios": "https://dc.lft.to/lastmile_qr_scan", "android": "https://dc.lft.to/lastmile_qr_scan"}, "name": "ad7efcdf081aaae54e236c6acf407fad", "fusion_lon": 0.0, "fusion_lat": 0.0, "lon": -77.037912, "type": "electric_scooter"}, {"is_disabled": 0, "lat": 38.900089666666666, "bike_id": "d631837026e647e08df31afbe2089980", "is_reserved": 0, "rental_uris": {"ios": "https://dc.lft.to/lastmile_qr_scan", "android": "https://dc.lft.to/lastmile_qr_scan"}, "name": "d631837026e647e08df31afbe2089980", "fusion_lon": 0.0, "fusion_lat": 0.0, "lon": -77.0399435, "type": "electric_scooter"}, {"is_disabled": 0, "lat": 38.926479, "bike_id": "fb31c08c1a77cb80c05eba1093927e08", "is_reserved": 0, "rental_uris": {"ios": "https://dc.lft.to/lastmile_qr_scan", "android": "https://dc.lft.to/lastmile_qr_scan"}, "name": "fb31c08c1a77cb80c05eba1093927e08", "fusion_lon": 0.0, "fusion_lat": 0.0, "lon": -77.0372725, "type": "electric_scooter"}, {"is_disabled": 0, "lat": 38.91125916666667, "bike_id": "b80f94b5fc590dc25c373cb7fad79c0f", "is_reserved": 0, "rental_uris": {"ios": "https://dc.lft.to/lastmile_qr_scan", "android": "https://dc.lft.to/lastmile_qr_scan"}, "name": "b80f94b5fc590dc25c373cb7fad79c0f", "fusion_lon": 0.0, "fusion_lat": 0.0, "lon": -77.02100633333333, "type": "electric_scooter"}, {"is_disabled": 0, "lat": 38.909040833333336, "bike_id": "9b8bfac089ef1b64aa0c5f25c3977f75", "is_reserved": 0, "rental_uris": {"ios": "https://dc.lft.to/lastmile_qr_scan", "android": "https://dc.lft.to/lastmile_qr_scan"}, "name": "9b8bfac089ef1b64aa0c5f25c3977f75", "fusion_lon": 0.0, "fusion_lat": 0.0, "lon": -77.0442455, "type": "electric_scooter"}, {"is_disabled": 0, "lat": 38.90472466666667, "bike_id": "0e364869425fa397fe104347fd4f5589", "is_reserved": 0, "rental_uris": {"ios": "https://dc.lft.to/lastmile_qr_scan", "android": "https://dc.lft.to/lastmile_qr_scan"}, "name": "0e364869425fa397fe104347fd4f5589", "fusion_lon": 0.0, "fusion_lat": 0.0, "lon": -77.00719866666667, "type": "electric_scooter"}, {"is_disabled": 0, "lat": 38.90475, "bike_id": "66f6c20d741117b8083add7b29654b08", "is_reserved": 0, "rental_uris": {"ios": "https://dc.lft.to/lastmile_qr_scan", "android": "https://dc.lft.to/lastmile_qr_scan"}, "name": "66f6c20d741117b8083add7b29654b08", "fusion_lon": 0.0, "fusion_lat": 0.0, "lon": -76.95059216666667, "type": "electric_scooter"}, {"is_disabled": 0, "lat": 38.8922745, "bike_id": "39ef32ac33adb2edb3d4185bd285d604", "is_reserved": 0, "rental_uris": {"ios": "https://dc.lft.to/lastmile_qr_scan", "android": "https://dc.lft.to/lastmile_qr_scan"}, "name": "39ef32ac33adb2edb3d4185bd285d604", "fusion_lon": 0.0, "fusion_lat": 0.0, "lon": -77.02789633333333, "type": "electric_scooter"}, {"is_disabled": 0, "lat": 38.91994533333333, "bike_id": "985ad550067e3b9812c66d9ccdad3169", "is_reserved": 0, "rental_uris": {"ios": "https://dc.lft.to/lastmile_qr_scan", "android": "https://dc.lft.to/lastmile_qr_scan"}, "name": "985ad550067e3b9812c66d9ccdad3169", "fusion_lon": 0.0, "fusion_lat": 0.0, "lon": -77.04178816666666, "type": "electric_scooter"}, {"is_disabled": 0, "lat": 38.85530466666667, "bike_id": "7e8b4cfaa447346bfbf0c5701f88bfba", "is_reserved": 0, "rental_uris": {"ios": "https://dc.lft.to/lastmile_qr_scan", "android": "https://dc.lft.to/lastmile_qr_scan"}, "name": "7e8b4cfaa447346bfbf0c5701f88bfba", "fusion_lon": 0.0, "fusion_lat": 0.0, "lon": -76.99178766666667, "type": "electric_scooter"}, {"is_disabled": 0, "lat": 38.923416333333336, "bike_id": "059492e678c9df10090baf49142e9fba", "is_reserved": 0, "rental_uris": {"ios": "https://dc.lft.to/lastmile_qr_scan", "android": "https://dc.lft.to/lastmile_qr_scan"}, "name": "059492e678c9df10090baf49142e9fba", "fusion_lon": 0.0, "fusion_lat": 0.0, "lon": -77.03480533333334, "type": "electric_scooter"}, {"is_disabled": 0, "lat": 38.930999166666666, "bike_id": "92a8c1553e5edad5adc05bf3f163e55a", "is_reserved": 0, "rental_uris": {"ios": "https://dc.lft.to/lastmile_qr_scan", "android": "https://dc.lft.to/lastmile_qr_scan"}, "name": "92a8c1553e5edad5adc05bf3f163e55a", "fusion_lon": 0.0, "fusion_lat": 0.0, "lon": -77.02478716666667, "type": "electric_scooter"}, {"is_disabled": 0, "lat": 38.901505666666665, "bike_id": "27722c3331ee0d513019987a1b1267e8", "is_reserved": 0, "rental_uris": {"ios": "https://dc.lft.to/lastmile_qr_scan", "android": "https://dc.lft.to/lastmile_qr_scan"}, "name": "27722c3331ee0d513019987a1b1267e8", "fusion_lon": 0.0, "fusion_lat": 0.0, "lon": -77.050074, "type": "electric_scooter"}, {"is_disabled": 0, "lat": 38.88486133333333, "bike_id": "d7a6506d8e750923f5db1c1ef5308ad0", "is_reserved": 0, "rental_uris": {"ios": "https://dc.lft.to/lastmile_qr_scan", "android": "https://dc.lft.to/lastmile_qr_scan"}, "name": "d7a6506d8e750923f5db1c1ef5308ad0", "fusion_lon": 0.0, "fusion_lat": 0.0, "lon": -77.03478966666667, "type": "electric_scooter"}, {"is_disabled": 0, "lat": 38.87513, "bike_id": "a2353553f4712305d5b56950d80c40fc", "is_reserved": 0, "rental_uris": {"ios": "https://dc.lft.to/lastmile_qr_scan", "android": "https://dc.lft.to/lastmile_qr_scan"}, "name": "a2353553f4712305d5b56950d80c40fc", "fusion_lon": 0.0, "fusion_lat": 0.0, "lon": -77.117601, "type": "electric_bike"}, {"is_disabled": 0, "lat": 38.92505516666667, "bike_id": "0f372728369a8c0d93335ed7936be78d", "is_reserved": 0, "rental_uris": {"ios": "https://dc.lft.to/lastmile_qr_scan", "android": "https://dc.lft.to/lastmile_qr_scan"}, "name": "0f372728369a8c0d93335ed7936be78d", "fusion_lon": 0.0, "fusion_lat": 0.0, "lon": -77.02128183333333, "type": "electric_scooter"}, {"is_disabled": 0, "lat": 38.92656683333333, "bike_id": "a42830b8a0800fcdb73f9ecc8a58f82b", "is_reserved": 0, "rental_uris": {"ios": "https://dc.lft.to/lastmile_qr_scan", "android": "https://dc.lft.to/lastmile_qr_scan"}, "name": "a42830b8a0800fcdb73f9ecc8a58f82b", "fusion_lon": 0.0, "fusion_lat": 0.0, "lon": -77.02715583333334, "type": "electric_scooter"}, {"is_disabled": 0, "lat": 38.936842666666664, "bike_id": "2647b87c862b14f8c035a0d14332dea0", "is_reserved": 0, "rental_uris": {"ios": "https://dc.lft.to/lastmile_qr_scan", "android": "https://dc.lft.to/lastmile_qr_scan"}, "name": "2647b87c862b14f8c035a0d14332dea0", "fusion_lon": 0.0, "fusion_lat": 0.0, "lon": -77.032876, "type": "electric_scooter"}, {"is_disabled": 0, "lat": 38.91619766666667, "bike_id": "77221b0dade32704ea1ec074542f6a23", "is_reserved": 0, "rental_uris": {"ios": "https://dc.lft.to/lastmile_qr_scan", "android": "https://dc.lft.to/lastmile_qr_scan"}, "name": "77221b0dade32704ea1ec074542f6a23", "fusion_lon": 0.0, "fusion_lat": 0.0, "lon": -77.05059583333333, "type": "electric_scooter"}, {"is_disabled": 0, "lat": 38.942906, "bike_id": "5fc945e6c842a1f7826d659ec3178472", "is_reserved": 0, "rental_uris": {"ios": "https://dc.lft.to/lastmile_qr_scan", "android": "https://dc.lft.to/lastmile_qr_scan"}, "name": "5fc945e6c842a1f7826d659ec3178472", "fusion_lon": 0.0, "fusion_lat": 0.0, "lon": -77.07703383333333, "type": "electric_scooter"}, {"is_disabled": 0, "lat": 38.906809333333335, "bike_id": "85852e62acb91084f0e39feda8a8ad07", "is_reserved": 0, "rental_uris": {"ios": "https://dc.lft.to/lastmile_qr_scan", "android": "https://dc.lft.to/lastmile_qr_scan"}, "name": "85852e62acb91084f0e39feda8a8ad07", "fusion_lon": 0.0, "fusion_lat": 0.0, "lon": -77.02709866666666, "type": "electric_scooter"}, {"is_disabled": 0, "lat": 38.9677175, "bike_id": "3906398724e3a713e60bc286f7c2c6f7", "is_reserved": 0, "rental_uris": {"ios": "https://dc.lft.to/lastmile_qr_scan", "android": "https://dc.lft.to/lastmile_qr_scan"}, "name": "3906398724e3a713e60bc286f7c2c6f7", "fusion_lon": 0.0, "fusion_lat": 0.0, "lon": -77.03337383333333, "type": "electric_scooter"}, {"is_disabled": 0, "lat": 38.89201466666667, "bike_id": "dd22753a14e72bc2d32fbc2d5232fde3", "is_reserved": 0, "rental_uris": {"ios": "https://dc.lft.to/lastmile_qr_scan", "android": "https://dc.lft.to/lastmile_qr_scan"}, "name": "dd22753a14e72bc2d32fbc2d5232fde3", "fusion_lon": 0.0, "fusion_lat": 0.0, "lon": -77.04389983333333, "type": "electric_scooter"}, {"is_disabled": 0, "lat": 38.90779833333333, "bike_id": "1b82ac2536bbea7f090e2275a28685b3", "is_reserved": 0, "rental_uris": {"ios": "https://dc.lft.to/lastmile_qr_scan", "android": "https://dc.lft.to/lastmile_qr_scan"}, "name": "1b82ac2536bbea7f090e2275a28685b3", "fusion_lon": 0.0, "fusion_lat": 0.0, "lon": -77.04510266666666, "type": "electric_scooter"}, {"is_disabled": 0, "lat": 38.9024025, "bike_id": "50ef4fe31ad217dd7e3a3ca5b54a504e", "is_reserved": 0, "rental_uris": {"ios": "https://dc.lft.to/lastmile_qr_scan", "android": "https://dc.lft.to/lastmile_qr_scan"}, "name": "50ef4fe31ad217dd7e3a3ca5b54a504e", "fusion_lon": 0.0, "fusion_lat": 0.0, "lon": -77.03771233333333, "type": "electric_scooter"}, {"is_disabled": 0, "lat": 38.900805166666665, "bike_id": "bcabe0e0dafcbc166b4165099ebb2f85", "is_reserved": 0, "rental_uris": {"ios": "https://dc.lft.to/lastmile_qr_scan", "android": "https://dc.lft.to/lastmile_qr_scan"}, "name": "bcabe0e0dafcbc166b4165099ebb2f85", "fusion_lon": 0.0, "fusion_lat": 0.0, "lon": -77.04744833333334, "type": "electric_scooter"}, {"is_disabled": 0, "lat": 38.92153366666667, "bike_id": "802100c3c5cb90b507f8e498d5cfc895", "is_reserved": 0, "rental_uris": {"ios": "https://dc.lft.to/lastmile_qr_scan", "android": "https://dc.lft.to/lastmile_qr_scan"}, "name": "802100c3c5cb90b507f8e498d5cfc895", "fusion_lon": 0.0, "fusion_lat": 0.0, "lon": -77.03388883333334, "type": "electric_scooter"}, {"is_disabled": 0, "lat": 38.927763166666665, "bike_id": "1740fd71ed533d18f05330c3f756c864", "is_reserved": 0, "rental_uris": {"ios": "https://dc.lft.to/lastmile_qr_scan", "android": "https://dc.lft.to/lastmile_qr_scan"}, "name": "1740fd71ed533d18f05330c3f756c864", "fusion_lon": 0.0, "fusion_lat": 0.0, "lon": -77.05257983333334, "type": "electric_scooter"}, {"is_disabled": 0, "lat": 38.8922255, "bike_id": "d9478639e9027bc1ba2f472f9232ba4c", "is_reserved": 0, "rental_uris": {"ios": "https://dc.lft.to/lastmile_qr_scan", "android": "https://dc.lft.to/lastmile_qr_scan"}, "name": "d9478639e9027bc1ba2f472f9232ba4c", "fusion_lon": 0.0, "fusion_lat": 0.0, "lon": -77.04641516666666, "type": "electric_scooter"}, {"is_disabled": 0, "lat": 38.94917816666667, "bike_id": "dc7342411d01706de1460527d932a507", "is_reserved": 0, "rental_uris": {"ios": "https://dc.lft.to/lastmile_qr_scan", "android": "https://dc.lft.to/lastmile_qr_scan"}, "name": "dc7342411d01706de1460527d932a507", "fusion_lon": 0.0, "fusion_lat": 0.0, "lon": -77.01850683333333, "type": "electric_scooter"}, {"is_disabled": 0, "lat": 38.892309, "bike_id": "ef0e52e1f36bdc6aefa0a3839607be3c", "is_reserved": 0, "rental_uris": {"ios": "https://dc.lft.to/lastmile_qr_scan", "android": "https://dc.lft.to/lastmile_qr_scan"}, "name": "ef0e52e1f36bdc6aefa0a3839607be3c", "fusion_lon": 0.0, "fusion_lat": 0.0, "lon": -77.04362733333333, "type": "electric_scooter"}, {"is_disabled": 0, "lat": 38.88652583333333, "bike_id": "c588c0a0009707473f958b9393730bce", "is_reserved": 0, "rental_uris": {"ios": "https://dc.lft.to/lastmile_qr_scan", "android": "https://dc.lft.to/lastmile_qr_scan"}, "name": "c588c0a0009707473f958b9393730bce", "fusion_lon": 0.0, "fusion_lat": 0.0, "lon": -77.03396316666667, "type": "electric_scooter"}, {"is_disabled": 0, "lat": 38.90154183333333, "bike_id": "e11d0aa9c8d0146210003f92433b9a84", "is_reserved": 0, "rental_uris": {"ios": "https://dc.lft.to/lastmile_qr_scan", "android": "https://dc.lft.to/lastmile_qr_scan"}, "name": "e11d0aa9c8d0146210003f92433b9a84", "fusion_lon": 0.0, "fusion_lat": 0.0, "lon": -77.024896, "type": "electric_scooter"}, {"is_disabled": 0, "lat": 38.899842666666665, "bike_id": "0b873b0dc219543d24d86bd34df19d55", "is_reserved": 0, "rental_uris": {"ios": "https://dc.lft.to/lastmile_qr_scan", "android": "https://dc.lft.to/lastmile_qr_scan"}, "name": "0b873b0dc219543d24d86bd34df19d55", "fusion_lon": 0.0, "fusion_lat": 0.0, "lon": -77.00930483333333, "type": "electric_scooter"}, {"is_disabled": 0, "lat": 38.9126725, "bike_id": "3e26082862d59ab32da498b07c6a2ff6", "is_reserved": 0, "rental_uris": {"ios": "https://dc.lft.to/lastmile_qr_scan", "android": "https://dc.lft.to/lastmile_qr_scan"}, "name": "3e26082862d59ab32da498b07c6a2ff6", "fusion_lon": 0.0, "fusion_lat": 0.0, "lon": -77.04869566666666, "type": "electric_scooter"}, {"is_disabled": 0, "lat": 38.905485666666664, "bike_id": "a80f078cb4f4d1f7f606adc7b3cc9ce0", "is_reserved": 0, "rental_uris": {"ios": "https://dc.lft.to/lastmile_qr_scan", "android": "https://dc.lft.to/lastmile_qr_scan"}, "name": "a80f078cb4f4d1f7f606adc7b3cc9ce0", "fusion_lon": 0.0, "fusion_lat": 0.0, "lon": -77.00679416666667, "type": "electric_scooter"}, {"is_disabled": 0, "lat": 38.90257883333334, "bike_id": "887ad3770d8f70309c47ef2192bbc76e", "is_reserved": 0, "rental_uris": {"ios": "https://dc.lft.to/lastmile_qr_scan", "android": "https://dc.lft.to/lastmile_qr_scan"}, "name": "887ad3770d8f70309c47ef2192bbc76e", "fusion_lon": 0.0, "fusion_lat": 0.0, "lon": -77.01738133333333, "type": "electric_scooter"}, {"is_disabled": 0, "lat": 38.920315, "bike_id": "dea4ef05802c96528fefdc31383594ea", "is_reserved": 0, "rental_uris": {"ios": "https://dc.lft.to/lastmile_qr_scan", "android": "https://dc.lft.to/lastmile_qr_scan"}, "name": "dea4ef05802c96528fefdc31383594ea", "fusion_lon": 0.0, "fusion_lat": 0.0, "lon": -77.025899, "type": "electric_scooter"}, {"is_disabled": 0, "lat": 38.90236183333333, "bike_id": "f34562ba78245a280873f87e1f7959fe", "is_reserved": 0, "rental_uris": {"ios": "https://dc.lft.to/lastmile_qr_scan", "android": "https://dc.lft.to/lastmile_qr_scan"}, "name": "f34562ba78245a280873f87e1f7959fe", "fusion_lon": 0.0, "fusion_lat": 0.0, "lon": -77.0520215, "type": "electric_scooter"}, {"is_disabled": 0, "lat": 38.892253, "bike_id": "e174e4bbcdd0ce5de8e067b7dc43720e", "is_reserved": 0, "rental_uris": {"ios": "https://dc.lft.to/lastmile_qr_scan", "android": "https://dc.lft.to/lastmile_qr_scan"}, "name": "e174e4bbcdd0ce5de8e067b7dc43720e", "fusion_lon": 0.0, "fusion_lat": 0.0, "lon": -77.04501966666666, "type": "electric_scooter"}, {"is_disabled": 0, "lat": 38.89843116666667, "bike_id": "dcffd9162757dbd40d51feae62fd2ca1", "is_reserved": 0, "rental_uris": {"ios": "https://dc.lft.to/lastmile_qr_scan", "android": "https://dc.lft.to/lastmile_qr_scan"},