{"data": {"bikes": [{"rental_uris": {"android": "https://dc.lft.to/lastmile_qr_scan", "ios": "https://dc.lft.to/lastmile_qr_scan"}, "fusion_lat": 0.0, "is_reserved": 0, "lat": 38.9273175, "name": "d76a94c042d08560d6391a38a9b4e88d", "bike_id": "d76a94c042d08560d6391a38a9b4e88d", "is_disabled": 0, "fusion_lon": 0.0, "type": "electric_scooter", "lon": -77.02242816666667}, {"rental_uris": {"android": "https://dc.lft.to/lastmile_qr_scan", "ios": "https://dc.lft.to/lastmile_qr_scan"}, "fusion_lat": 0.0, "is_reserved": 0, "lat": 38.91257016666667, "name": "948ccc0c6f61d9413340b947667ac5ea", "bike_id": "948ccc0c6f61d9413340b947667ac5ea", "is_disabled": 0, "fusion_lon": 0.0, "type": "electric_scooter", "lon": -77.03857433333333}, {"rental_uris": {"android": "https://dc.lft.to/lastmile_qr_scan", "ios": "https://dc.lft.to/lastmile_qr_scan"}, "fusion_lat": 0.0, "is_reserved": 0, "lat": 38.915448, "name": "d9c0db304542d5f8a69e102b3fad2b4b", "bike_id": "d9c0db304542d5f8a69e102b3fad2b4b", "is_disabled": 0, "fusion_lon": 0.0, "type": "electric_scooter", "lon": -77.03659133333333}, {"rental_uris": {"android": "https://dc.lft.to/lastmile_qr_scan", "ios": "https://dc.lft.to/lastmile_qr_scan"}, "fusion_lat": 0.0, "is_reserved": 0, "lat": 38.9206885, "name": "d5e27a79486bdfc4ce2212b0089ed98f", "bike_id": "d5e27a79486bdfc4ce2212b0089ed98f", "is_disabled": 0, "fusion_lon": 0.0, "type": "electric_scooter", "lon": -77.0256555}, {"rental_uris": {"android": "https://dc.lft.to/lastmile_qr_scan", "ios": "https://dc.lft.to/lastmile_qr_scan"}, "fusion_lat": 0.0, "is_reserved": 0, "lat": 38.88721816666666, "name": "c6e83ae56fa342712c65b2f413d6ff6b", "bike_id": "c6e83ae56fa342712c65b2f413d6ff6b", "is_disabled": 0, "fusion_lon": 0.0, "type": "electric_scooter", "lon": -76.99682383333334}, {"rental_uris": {"android": "https://dc.lft.to/lastmile_qr_scan", "ios": "https://dc.lft.to/lastmile_qr_scan"}, "fusion_lat": 0.0, "is_reserved": 0, "lat": 38.91536683333333, "name": "161cb1bb82406bafd907bab8410406c4", "bike_id": "161cb1bb82406bafd907bab8410406c4", "is_disabled": 0, "fusion_lon": 0.0, "type": "electric_scooter", "lon": -77.01225933333333}, {"rental_uris": {"android": "https://dc.lft.to/lastmile_qr_scan", "ios": "https://dc.lft.to/lastmile_qr_scan"}, "fusion_lat": 0.0, "is_reserved": 0, "lat": 38.8791945, "name": "0d2c2aa8f839572d0d1500ba7a0f8ae7", "bike_id": "0d2c2aa8f839572d0d1500ba7a0f8ae7", "is_disabled": 0, "fusion_lon": 0.0, "type": "electric_scooter", "lon": -77.007286}, {"rental_uris": {"android": "https://dc.lft.to/lastmile_qr_scan", "ios": "https://dc.lft.to/lastmile_qr_scan"}, "fusion_lat": 0.0, "is_reserved": 0, "lat": 38.90177083333333, "name": "26c790b3e975ba9d826d4cd0ed0aa069", "bike_id": "26c790b3e975ba9d826d4cd0ed0aa069", "is_disabled": 0, "fusion_lon": 0.0, "type": "electric_scooter", "lon": -77.0338005}, {"rental_uris": {"android": "https://dc.lft.to/lastmile_qr_scan", "ios": "https://dc.lft.to/lastmile_qr_scan"}, "fusion_lat": 0.0, "is_reserved": 0, "lat": 38.896168333333335, "name": "775e577e92ac6099831dc9c83f856d16", "bike_id": "775e577e92ac6099831dc9c83f856d16", "is_disabled": 0, "fusion_lon": 0.0, "type": "electric_scooter", "lon": -77.030357}, {"rental_uris": {"android": "https://dc.lft.to/lastmile_qr_scan", "ios": "https://dc.lft.to/lastmile_qr_scan"}, "fusion_lat": 0.0, "is_reserved": 0, "lat": 38.910463666666665, "name": "ba366255022fe7a6c9f4cc9646f2eb84", "bike_id": "ba366255022fe7a6c9f4cc9646f2eb84", "is_disabled": 0, "fusion_lon": 0.0, "type": "electric_scooter", "lon": -77.0384345}, {"rental_uris": {"android": "https://dc.lft.to/lastmile_qr_scan", "ios": "https://dc.lft.to/lastmile_qr_scan"}, "fusion_lat": 0.0, "is_reserved": 0, "lat": 38.94408983333334, "name": "fde5b10f9eaf3540d0fe50bad54e5f36", "bike_id": "fde5b10f9eaf3540d0fe50bad54e5f36", "is_disabled": 0, "fusion_lon": 0.0, "type": "electric_scooter", "lon": -77.06323666666667}, {"rental_uris": {"android": "https://dc.lft.to/lastmile_qr_scan", "ios": "https://dc.lft.to/lastmile_qr_scan"}, "fusion_lat": 0.0, "is_reserved": 0, "lat": 38.902891833333335, "name": "21e391d8f4e6cbe0b44507ce83f9f4bd", "bike_id": "21e391d8f4e6cbe0b44507ce83f9f4bd", "is_disabled": 0, "fusion_lon": 0.0, "type": "electric_scooter", "lon": -77.032275}, {"rental_uris": {"android": "https://dc.lft.to/lastmile_qr_scan", "ios": "https://dc.lft.to/lastmile_qr_scan"}, "fusion_lat": 0.0, "is_reserved": 0, "lat": 38.932451666666665, "name": "575de979a2ba796ba6b1d65a4c26ba5a", "bike_id": "575de979a2ba796ba6b1d65a4c26ba5a", "is_disabled": 0, "fusion_lon": 0.0, "type": "electric_scooter", "lon": -77.031989}, {"rental_uris": {"android": "https://dc.lft.to/lastmile_qr_scan", "ios": "https://dc.lft.to/lastmile_qr_scan"}, "fusion_lat": 0.0, "is_reserved": 0, "lat": 38.888763833333336, "name": "598bf4ae0e9723f270f17ac13aaedc37", "bike_id": "598bf4ae0e9723f270f17ac13aaedc37", "is_disabled": 0, "fusion_lon": 0.0, "type": "electric_scooter", "lon": -76.99034716666667}, {"rental_uris": {"android": "https://dc.lft.to/lastmile_qr_scan", "ios": "https://dc.lft.to/lastmile_qr_scan"}, "fusion_lat": 0.0, "is_reserved": 0, "lat": 38.899807, "name": "e8f0288f6e51b17e4d9a3e8d393bfb03", "bike_id": "e8f0288f6e51b17e4d9a3e8d393bfb03", "is_disabled": 0, "fusion_lon": 0.0, "type": "electric_scooter", "lon": -77.02238533333333}, {"rental_uris": {"android": "https://dc.lft.to/lastmile_qr_scan", "ios": "https://dc.lft.to/lastmile_qr_scan"}, "fusion_lat": 0.0, "is_reserved": 0, "lat": 38.905437666666664, "name": "881f8e5bfe29c4e764aae98311be11d3", "bike_id": "881f8e5bfe29c4e764aae98311be11d3", "is_disabled": 0, "fusion_lon": 0.0, "type": "electric_scooter", "lon": -77.0408885}, {"rental_uris": {"android": "https://dc.lft.to/lastmile_qr_scan", "ios": "https://dc.lft.to/lastmile_qr_scan"}, "fusion_lat": 0.0, "is_reserved": 0, "lat": 38.88773316666666, "name": "79d4aa4a7ad5ca757f86626a18492d3b", "bike_id": "79d4aa4a7ad5ca757f86626a18492d3b", "is_disabled": 0, "fusion_lon": 0.0, "type": "electric_scooter", "lon": -76.93261283333334}, {"rental_uris": {"android": "https://dc.lft.to/lastmile_qr_scan", "ios": "https://dc.lft.to/lastmile_qr_scan"}, "fusion_lat": 0.0, "is_reserved": 0, "lat": 38.911784, "name": "aa6f25a8f88863e4d8b6c8930cad007d", "bike_id": "aa6f25a8f88863e4d8b6c8930cad007d", "is_disabled": 0, "fusion_lon": 0.0, "type": "electric_scooter", "lon": -77.0045215}, {"rental_uris": {"android": "https://dc.lft.to/lastmile_qr_scan", "ios": "https://dc.lft.to/lastmile_qr_scan"}, "fusion_lat": 0.0, "is_reserved": 0, "lat": 38.89282766666667, "name": "175d3d9940c1a9d3479f9c515613756c", "bike_id": "175d3d9940c1a9d3479f9c515613756c", "is_disabled": 0, "fusion_lon": 0.0, "type": "electric_scooter", "lon": -76.92135016666667}, {"rental_uris": {"android": "https://dc.lft.to/lastmile_qr_scan", "ios": "https://dc.lft.to/lastmile_qr_scan"}, "fusion_lat": 0.0, "is_reserved": 0, "lat": 38.918632833333334, "name": "09319bea47e8f25ba63339a570d1409c", "bike_id": "09319bea47e8f25ba63339a570d1409c", "is_disabled": 0, "fusion_lon": 0.0, "type": "electric_scooter", "lon": -77.04835166666666}, {"rental_uris": {"android": "https://dc.lft.to/lastmile_qr_scan", "ios": "https://dc.lft.to/lastmile_qr_scan"}, "fusion_lat": 0.0, "is_reserved": 0, "lat": 38.915534, "name": "c1cb1366fd7cccd63ce6af3915beda60", "bike_id": "c1cb1366fd7cccd63ce6af3915beda60", "is_disabled": 0, "fusion_lon": 0.0, "type": "electric_scooter", "lon": -77.01411516666667}, {"rental_uris": {"android": "https://dc.lft.to/lastmile_qr_scan", "ios": "https://dc.lft.to/lastmile_qr_scan"}, "fusion_lat": 0.0, "is_reserved": 0, "lat": 38.9033125, "name": "af2e868e8450496d42f5fc7a237a2354", "bike_id": "af2e868e8450496d42f5fc7a237a2354", "is_disabled": 0, "fusion_lon": 0.0, "type": "electric_bike", "lon": -76.933661}, {"rental_uris": {"android": "https://dc.lft.to/lastmile_qr_scan", "ios": "https://dc.lft.to/lastmile_qr_scan"}, "fusion_lat": 0.0, "is_reserved": 0, "lat": 38.906425666666664, "name": "33b7d772c2250647acea9b36785362de", "bike_id": "33b7d772c2250647acea9b36785362de", "is_disabled": 0, "fusion_lon": 0.0, "type": "electric_scooter", "lon": -77.01140233333334}, {"rental_uris": {"android": "https://dc.lft.to/lastmile_qr_scan", "ios": "https://dc.lft.to/lastmile_qr_scan"}, "fusion_lat": 0.0, "is_reserved": 0, "lat": 38.9368345, "name": "85403037091d6d499cf620c67e86ae51", "bike_id": "85403037091d6d499cf620c67e86ae51", "is_disabled": 0, "fusion_lon": 0.0, "type": "electric_scooter", "lon": -77.03630316666667}, {"rental_uris": {"android": "https://dc.lft.to/lastmile_qr_scan", "ios": "https://dc.lft.to/lastmile_qr_scan"}, "fusion_lat": 0.0, "is_reserved": 0, "lat": 38.90220516666667, "name": "a1558f5557b77aad3a34f6cece4d9073", "bike_id": "a1558f5557b77aad3a34f6cece4d9073", "is_disabled": 0, "fusion_lon": 0.0, "type": "electric_scooter", "lon": -77.02439716666666}, {"rental_uris": {"android": "https://dc.lft.to/lastmile_qr_scan", "ios": "https://dc.lft.to/lastmile_qr_scan"}, "fusion_lat": 0.0, "is_reserved": 0, "lat": 38.918736333333335, "name": "f7792d86ff04ff0b1361ac653983b0dc", "bike_id": "f7792d86ff04ff0b1361ac653983b0dc", "is_disabled": 0, "fusion_lon": 0.0, "type": "electric_scooter", "lon": -77.04724533333334}, {"rental_uris": {"android": "https://dc.lft.to/lastmile_qr_scan", "ios": "https://dc.lft.to/lastmile_qr_scan"}, "fusion_lat": 0.0, "is_reserved": 0, "lat": 38.793360666666665, "name": "0e59d50dff11de510214c00e525f17e8", "bike_id": "0e59d50dff11de510214c00e525f17e8", "is_disabled": 0, "fusion_lon": 0.0, "type": "electric_bike", "lon": -77.00050816666666}, {"rental_uris": {"android": "https://dc.lft.to/lastmile_qr_scan", "ios": "https://dc.lft.to/lastmile_qr_scan"}, "fusion_lat": 0.0, "is_reserved": 0, "lat": 38.883623666666665, "name": "1c3304caa1c9adcd87ef3a13278cb669", "bike_id": "1c3304caa1c9adcd87ef3a13278cb669", "is_disabled": 0, "fusion_lon": 0.0, "type": "electric_scooter", "lon": -76.98828683333333}, {"rental_uris": {"android": "https://dc.lft.to/lastmile_qr_scan", "ios": "https://dc.lft.to/lastmile_qr_scan"}, "fusion_lat": 0.0, "is_reserved": 0, "lat": 38.950926833333334, "name": "bc4d19828fa3253a7ca0860fcbb0e888", "bike_id": "bc4d19828fa3253a7ca0860fcbb0e888", "is_disabled": 0, "fusion_lon": 0.0, "type": "electric_scooter", "lon": -77.029626}, {"rental_uris": {"android": "https://dc.lft.to/lastmile_qr_scan", "ios": "https://dc.lft.to/lastmile_qr_scan"}, "fusion_lat": 0.0, "is_reserved": 0, "lat": 38.937675666666664, "name": "c45a3656caba673b2bf4c4c94cee4f14", "bike_id": "c45a3656caba673b2bf4c4c94cee4f14", "is_disabled": 0, "fusion_lon": 0.0, "type": "electric_scooter", "lon": -77.02461183333334}, {"rental_uris": {"android": "https://dc.lft.to/lastmile_qr_scan", "ios": "https://dc.lft.to/lastmile_qr_scan"}, "fusion_lat": 0.0, "is_reserved": 0, "lat": 38.928658666666664, "name": "78d7ce621b8b2737d47855ce0dcb27b0", "bike_id": "78d7ce621b8b2737d47855ce0dcb27b0", "is_disabled": 0, "fusion_lon": 0.0, "type": "electric_scooter", "lon": -77.021821}, {"rental_uris": {"android": "https://dc.lft.to/lastmile_qr_scan", "ios": "https://dc.lft.to/lastmile_qr_scan"}, "fusion_lat": 0.0, "is_reserved": 0, "lat": 38.90136316666667, "name": "fd9c4b66ac2264a87b027825c949fc53", "bike_id": "fd9c4b66ac2264a87b027825c949fc53", "is_disabled": 0, "fusion_lon": 0.0, "type": "electric_scooter", "lon": -76.98963766666667}, {"rental_uris": {"android": "https://dc.lft.to/lastmile_qr_scan", "ios": "https://dc.lft.to/lastmile_qr_scan"}, "fusion_lat": 0.0, "is_reserved": 0, "lat": 38.905775166666665, "name": "93955ab6c6d3736dd7867f6db2f51b43", "bike_id": "93955ab6c6d3736dd7867f6db2f51b43", "is_disabled": 0, "fusion_lon": 0.0, "type": "electric_scooter", "lon": -77.00784283333333}, {"rental_uris": {"android": "https://dc.lft.to/lastmile_qr_scan", "ios": "https://dc.lft.to/lastmile_qr_scan"}, "fusion_lat": 0.0, "is_reserved": 0, "lat": 38.91307483333333, "name": "ba76bea0b94175e2128711369ac6bc8f", "bike_id": "ba76bea0b94175e2128711369ac6bc8f", "is_disabled": 0, "fusion_lon": 0.0, "type": "electric_scooter", "lon": -77.0433935}, {"rental_uris": {"android": "https://dc.lft.to/lastmile_qr_scan", "ios": "https://dc.lft.to/lastmile_qr_scan"}, "fusion_lat": 0.0, "is_reserved": 0, "lat": 38.9121725, "name": "ecca027ce670db88ca176986a79d3caa", "bike_id": "ecca027ce670db88ca176986a79d3caa", "is_disabled": 0, "fusion_lon": 0.0, "type": "electric_scooter", "lon": -77.06408016666667}, {"rental_uris": {"android": "https://dc.lft.to/lastmile_qr_scan", "ios": "https://dc.lft.to/lastmile_qr_scan"}, "fusion_lat": 0.0, "is_reserved": 0, "lat": 38.933769833333336, "name": "54095a991b8d58481cb4da067818a948", "bike_id": "54095a991b8d58481cb4da067818a948", "is_disabled": 0, "fusion_lon": 0.0, "type": "electric_scooter", "lon": -77.02380733333334}, {"rental_uris": {"android": "https://dc.lft.to/lastmile_qr_scan", "ios": "https://dc.lft.to/lastmile_qr_scan"}, "fusion_lat": 0.0, "is_reserved": 0, "lat": 38.926765833333334, "name": "274f0430aef114a56ec3c1ad8ea3480c", "bike_id": "274f0430aef114a56ec3c1ad8ea3480c", "is_disabled": 0, "fusion_lon": 0.0, "type": "electric_scooter", "lon": -77.03803216666667}, {"rental_uris": {"android": "https://dc.lft.to/lastmile_qr_scan", "ios": "https://dc.lft.to/lastmile_qr_scan"}, "fusion_lat": 0.0, "is_reserved": 0, "lat": 38.90370033333333, "name": "c56be6c18309dc603bc637a990e3df1a", "bike_id": "c56be6c18309dc603bc637a990e3df1a", "is_disabled": 0, "fusion_lon": 0.0, "type": "electric_scooter", "lon": -76.98488233333333}, {"rental_uris": {"android": "https://dc.lft.to/lastmile_qr_scan", "ios": "https://dc.lft.to/lastmile_qr_scan"}, "fusion_lat": 0.0, "is_reserved": 0, "lat": 38.8811815, "name": "63f3883cdd31fe8f3111f6e733b98652", "bike_id": "63f3883cdd31fe8f3111f6e733b98652", "is_disabled": 0, "fusion_lon": 0.0, "type": "electric_bike", "lon": -77.01676516666667}, {"rental_uris": {"android": "https://dc.lft.to/lastmile_qr_scan", "ios": "https://dc.lft.to/lastmile_qr_scan"}, "fusion_lat": 0.0, "is_reserved": 0, "lat": 38.889898333333335, "name": "4d5556e00cec0cb80fea55619b79db05", "bike_id": "4d5556e00cec0cb80fea55619b79db05", "is_disabled": 0, "fusion_lon": 0.0, "type": "electric_scooter", "lon": -76.99246133333334}, {"rental_uris": {"android": "https://dc.lft.to/lastmile_qr_scan", "ios": "https://dc.lft.to/lastmile_qr_scan"}, "fusion_lat": 0.0, "is_reserved": 0, "lat": 38.959136, "name": "0a9e91036262f78b9ef65be66ee43e0c", "bike_id": "0a9e91036262f78b9ef65be66ee43e0c", "is_disabled": 0, "fusion_lon": 0.0, "type": "electric_scooter", "lon": -77.000198}, {"rental_uris": {"android": "https://dc.lft.to/lastmile_qr_scan", "ios": "https://dc.lft.to/lastmile_qr_scan"}, "fusion_lat": 0.0, "is_reserved": 0, "lat": 38.942602666666666, "name": "3ee5990dbc65bf826c159ebc594dfb07", "bike_id": "3ee5990dbc65bf826c159ebc594dfb07", "is_disabled": 0, "fusion_lon": 0.0, "type": "electric_bike", "lon": -76.990718}, {"rental_uris": {"android": "https://dc.lft.to/lastmile_qr_scan", "ios": "https://dc.lft.to/lastmile_qr_scan"}, "fusion_lat": 0.0, "is_reserved": 0, "lat": 38.904909333333336, "name": "e3f0f018ad8cb2657e29af2fec30b5d3", "bike_id": "e3f0f018ad8cb2657e29af2fec30b5d3", "is_disabled": 0, "fusion_lon": 0.0, "type": "electric_scooter", "lon": -76.9773655}, {"rental_uris": {"android": "https://dc.lft.to/lastmile_qr_scan", "ios": "https://dc.lft.to/lastmile_qr_scan"}, "fusion_lat": 0.0, "is_reserved": 0, "lat": 38.87996666666667, "name": "cfe3333d4f521d969bb9910ffddb1d34", "bike_id": "cfe3333d4f521d969bb9910ffddb1d34", "is_disabled": 0, "fusion_lon": 0.0, "type": "electric_scooter", "lon": -76.9840565}, {"rental_uris": {"android": "https://dc.lft.to/lastmile_qr_scan", "ios": "https://dc.lft.to/lastmile_qr_scan"}, "fusion_lat": 0.0, "is_reserved": 0, "lat": 38.903343166666666, "name": "3585ef437c92eb2afaed1cf44fcbd5d9", "bike_id": "3585ef437c92eb2afaed1cf44fcbd5d9", "is_disabled": 0, "fusion_lon": 0.0, "type": "electric_scooter", "lon": -76.98229633333334}, {"rental_uris": {"android": "https://dc.lft.to/lastmile_qr_scan", "ios": "https://dc.lft.to/lastmile_qr_scan"}, "fusion_lat": 0.0, "is_reserved": 0, "lat": 38.86618516666667, "name": "b431b1084011ec7acf8e71de86063598", "bike_id": "b431b1084011ec7acf8e71de86063598", "is_disabled": 0, "fusion_lon": 0.0, "type": "electric_bike", "lon": -76.945672}, {"rental_uris": {"android": "https://dc.lft.to/lastmile_qr_scan", "ios": "https://dc.lft.to/lastmile_qr_scan"}, "fusion_lat": 0.0, "is_reserved": 0, "lat": 38.94082733333333, "name": "ad9ff9e5a36ecca1a1e93a0c445d1829", "bike_id": "ad9ff9e5a36ecca1a1e93a0c445d1829", "is_disabled": 0, "fusion_lon": 0.0, "type": "electric_scooter", "lon": -77.06167333333333}, {"rental_uris": {"android": "https://dc.lft.to/lastmile_qr_scan", "ios": "https://dc.lft.to/lastmile_qr_scan"}, "fusion_lat": 0.0, "is_reserved": 0, "lat": 38.894709666666664, "name": "41d6e4444379956dd5b23db8d94b6865", "bike_id": "41d6e4444379956dd5b23db8d94b6865", "is_disabled": 0, "fusion_lon": 0.0, "type": "electric_scooter", "lon": -76.99712866666667}, {"rental_uris": {"android": "https://dc.lft.to/lastmile_qr_scan", "ios": "https://dc.lft.to/lastmile_qr_scan"}, "fusion_lat": 0.0, "is_reserved": 0, "lat": 38.90255766666667, "name": "1e0bf4b4e17048d40895cf3cfc521416", "bike_id": "1e0bf4b4e17048d40895cf3cfc521416", "is_disabled": 0, "fusion_lon": 0.0, "type": "electric_scooter", "lon": -77.01533816666667}, {"rental_uris": {"android": "https://dc.lft.to/lastmile_qr_scan", "ios": "https://dc.lft.to/lastmile_qr_scan"}, "fusion_lat": 0.0, "is_reserved": 0, "lat": 38.93073783333333, "name": "aef27c718f64d3b1e3d6f6ce60c393d4", "bike_id": "aef27c718f64d3b1e3d6f6ce60c393d4", "is_disabled": 0, "fusion_lon": 0.0, "type": "electric_scooter", "lon": -77.03725916666667}, {"rental_uris": {"android": "https://dc.lft.to/lastmile_qr_scan", "ios": "https://dc.lft.to/lastmile_qr_scan"}, "fusion_lat": 0.0, "is_reserved": 0, "lat": 38.91698183333333, "name": "ad93bd4c1b83517e5653d60a5fc8821f", "bike_id": "ad93bd4c1b83517e5653d60a5fc8821f", "is_disabled": 0, "fusion_lon": 0.0, "type": "electric_scooter", "lon": -77.02304916666667}, {"rental_uris": {"android": "https://dc.lft.to/lastmile_qr_scan", "ios": "https://dc.lft.to/lastmile_qr_scan"}, "fusion_lat": 0.0, "is_reserved": 0, "lat": 38.923284, "name": "30a8bbb5021bb4a84d1d060a8cdc82f3", "bike_id": "30a8bbb5021bb4a84d1d060a8cdc82f3", "is_disabled": 0, "fusion_lon": 0.0, "type": "electric_scooter", "lon": -77.04622333333333}, {"rental_uris": {"android": "https://dc.lft.to/lastmile_qr_scan", "ios": "https://dc.lft.to/lastmile_qr_scan"}, "fusion_lat": 0.0, "is_reserved": 0, "lat": 38.922892166666664, "name": "5de5583e6f6f4a29e02c6bddaa39f48e", "bike_id": "5de5583e6f6f4a29e02c6bddaa39f48e", "is_disabled": 0, "fusion_lon": 0.0, "type": "electric_scooter", "lon": -77.03661266666667}, {"rental_uris": {"android": "https://dc.lft.to/lastmile_qr_scan", "ios": "https://dc.lft.to/lastmile_qr_scan"}, "fusion_lat": 0.0, "is_reserved": 0, "lat": 38.84900733333333, "name": "90b3d35debf55f68471d6b4996676e00", "bike_id": "90b3d35debf55f68471d6b4996676e00", "is_disabled": 0, "fusion_lon": 0.0, "type": "electric_bike", "lon": -77.07802716666667}, {"rental_uris": {"android": "https://dc.lft.to/lastmile_qr_scan", "ios": "https://dc.lft.to/lastmile_qr_scan"}, "fusion_lat": 0.0, "is_reserved": 0, "lat": 38.919293833333334, "name": "73760a5d0a9f5156d4cd87f68d0519f6", "bike_id": "73760a5d0a9f5156d4cd87f68d0519f6", "is_disabled": 0, "fusion_lon": 0.0, "type": "electric_scooter", "lon": -77.046278}, {"rental_uris": {"android": "https://dc.lft.to/lastmile_qr_scan", "ios": "https://dc.lft.to/lastmile_qr_scan"}, "fusion_lat": 0.0, "is_reserved": 0, "lat": 38.90787183333333, "name": "a2509134891ca4234552d79d5a89b78b", "bike_id": "a2509134891ca4234552d79d5a89b78b", "is_disabled": 0, "fusion_lon": 0.0, "type": "electric_scooter", "lon": -76.994204}, {"rental_uris": {"android": "https://dc.lft.to/lastmile_qr_scan", "ios": "https://dc.lft.to/lastmile_qr_scan"}, "fusion_lat": 0.0, "is_reserved": 0, "lat": 38.943033, "name": "0c54a83e5ab99105dbd3b18b1a7faed2", "bike_id": "0c54a83e5ab99105dbd3b18b1a7faed2", "is_disabled": 0, "fusion_lon": 0.0, "type": "electric_scooter", "lon": -77.05927616666666}, {"rental_uris": {"android": "https://dc.lft.to/lastmile_qr_scan", "ios": "https://dc.lft.to/lastmile_qr_scan"}, "fusion_lat": 0.0, "is_reserved": 0, "lat": 38.8960775, "name": "92b751aee0a038693df610be5d729800", "bike_id": "92b751aee0a038693df610be5d729800", "is_disabled": 0, "fusion_lon": 0.0, "type": "electric_scooter", "lon": -77.03350666666667}, {"rental_uris": {"android": "https://dc.lft.to/lastmile_qr_scan", "ios": "https://dc.lft.to/lastmile_qr_scan"}, "fusion_lat": 0.0, "is_reserved": 0, "lat": 38.959309, "name": "8494cdb4dfd60f663dfee8e545e48c4c", "bike_id": "8494cdb4dfd60f663dfee8e545e48c4c", "is_disabled": 0, "fusion_lon": 0.0, "type": "electric_scooter", "lon": -77.03121216666666}, {"rental_uris": {"android": "https://dc.lft.to/lastmile_qr_scan", "ios": "https://dc.lft.to/lastmile_qr_scan"}, "fusion_lat": 0.0, "is_reserved": 0, "lat": 38.90033916666667, "name": "041a06c9e6b59ee6a8f90e2e807075ef", "bike_id": "041a06c9e6b59ee6a8f90e2e807075ef", "is_disabled": 0, "fusion_lon": 0.0, "type": "electric_scooter", "lon": -77.04827283333333}, {"rental_uris": {"android": "https://dc.lft.to/lastmile_qr_scan", "ios": "https://dc.lft.to/lastmile_qr_scan"}, "fusion_lat": 0.0, "is_reserved": 0, "lat": 38.86521883333333, "name": "2c75ee20e20e91e74148c6e41381e668", "bike_id": "2c75ee20e20e91e74148c6e41381e668", "is_disabled": 0, "fusion_lon": 0.0, "type": "electric_scooter", "lon": -76.969019}, {"rental_uris": {"android": "https://dc.lft.to/lastmile_qr_scan", "ios": "https://dc.lft.to/lastmile_qr_scan"}, "fusion_lat": 0.0, "is_reserved": 0, "lat": 38.90728816666667, "name": "737b92b14964dee2f73a83d0503b06f7", "bike_id": "737b92b14964dee2f73a83d0503b06f7", "is_disabled": 0, "fusion_lon": 0.0, "type": "electric_scooter", "lon": -77.03890083333333}, {"rental_uris": {"android": "https://dc.lft.to/lastmile_qr_scan", "ios": "https://dc.lft.to/lastmile_qr_scan"}, "fusion_lat": 0.0, "is_reserved": 0, "lat": 38.924617, "name": "87f36ce7a05b788801e10a901e67b49a", "bike_id": "87f36ce7a05b788801e10a901e67b49a", "is_disabled": 0, "fusion_lon": 0.0, "type": "electric_scooter", "lon": -77.02697483333333}, {"rental_uris": {"android": "https://dc.lft.to/lastmile_qr_scan", "ios": "https://dc.lft.to/lastmile_qr_scan"}, "fusion_lat": 0.0, "is_reserved": 0, "lat": 38.9073085, "name": "1fef6c17466d152311c5696c8195bf2b", "bike_id": "1fef6c17466d152311c5696c8195bf2b", "is_disabled": 0, "fusion_lon": 0.0, "type": "electric_scooter", "lon": -77.05023166666666}, {"rental_uris": {"android": "https://dc.lft.to/lastmile_qr_scan", "ios": "https://dc.lft.to/lastmile_qr_scan"}, "fusion_lat": 0.0, "is_reserved": 0, "lat": 38.907779, "name": "3e118a797aa953fbe0f0de8761cc12b4", "bike_id": "3e118a797aa953fbe0f0de8761cc12b4", "is_disabled": 0, "fusion_lon": 0.0, "type": "electric_scooter", "lon": -77.04513716666666}, {"rental_uris": {"android": "https://dc.lft.to/lastmile_qr_scan", "ios": "https://dc.lft.to/lastmile_qr_scan"}, "fusion_lat": 0.0, "is_reserved": 0, "lat": 38.93355183333333, "name": "e6904c0d248e2b90bcd550c27987e750", "bike_id": "e6904c0d248e2b90bcd550c27987e750", "is_disabled": 0, "fusion_lon": 0.0, "type": "electric_scooter", "lon": -77.02373933333334}, {"rental_uris": {"android": "https://dc.lft.to/lastmile_qr_scan", "ios": "https://dc.lft.to/lastmile_qr_scan"}, "fusion_lat": 0.0, "is_reserved": 0, "lat": 38.898960333333335, "name": "ef180123e336bca3469246d3a93d6468", "bike_id": "ef180123e336bca3469246d3a93d6468", "is_disabled": 0, "fusion_lon": 0.0, "type": "electric_scooter", "lon": -76.9760785}, {"rental_uris": {"android": "https://dc.lft.to/lastmile_qr_scan", "ios": "https://dc.lft.to/lastmile_qr_scan"}, "fusion_lat": 0.0, "is_reserved": 0, "lat": 38.919149166666664, "name": "eddf99255514ad7805bb68cdf3a6cd7e", "bike_id": "eddf99255514ad7805bb68cdf3a6cd7e", "is_disabled": 0, "fusion_lon": 0.0, "type": "electric_scooter", "lon": -77.029498}, {"rental_uris": {"android": "https://dc.lft.to/lastmile_qr_scan", "ios": "https://dc.lft.to/lastmile_qr_scan"}, "fusion_lat": 0.0, "is_reserved": 0, "lat": 38.892239000000004, "name": "190a17c326f9159ce46d6676848824aa", "bike_id": "190a17c326f9159ce46d6676848824aa", "is_disabled": 0, "fusion_lon": 0.0, "type": "electric_scooter", "lon": -77.03337933333333}, {"rental_uris": {"android": "https://dc.lft.to/lastmile_qr_scan", "ios": "https://dc.lft.to/lastmile_qr_scan"}, "fusion_lat": 0.0, "is_reserved": 0, "lat": 38.91415333333333, "name": "abeee5d9ec5dee7801109861d6e24336", "bike_id": "abeee5d9ec5dee7801109861d6e24336", "is_disabled": 0, "fusion_lon": 0.0, "type": "electric_scooter", "lon": -77.00184133333333}, {"rental_uris": {"android": "https://dc.lft.to/lastmile_qr_scan", "ios": "https://dc.lft.to/lastmile_qr_scan"}, "fusion_lat": 0.0, "is_reserved": 0, "lat": 38.90526083333334, "name": "394613351c9173ae5a9b1a637cd07e88", "bike_id": "394613351c9173ae5a9b1a637cd07e88", "is_disabled": 0, "fusion_lon": 0.0, "type": "electric_scooter", "lon": -76.984031}, {"rental_uris": {"android": "https://dc.lft.to/lastmile_qr_scan", "ios": "https://dc.lft.to/lastmile_qr_scan"}, "fusion_lat": 0.0, "is_reserved": 0, "lat": 38.93177216666667, "name": "5492a24d4f0f31e684b056e0aab8aa3e", "bike_id": "5492a24d4f0f31e684b056e0aab8aa3e", "is_disabled": 0, "fusion_lon": 0.0, "type": "electric_bike", "lon": -77.02024316666666}, {"rental_uris": {"android": "https://dc.lft.to/lastmile_qr_scan", "ios": "https://dc.lft.to/lastmile_qr_scan"}, "fusion_lat": 0.0, "is_reserved": 0, "lat": 38.921156833333335, "name": "12f906a06c13133136acd8f5811cd3a4", "bike_id": "12f906a06c13133136acd8f5811cd3a4", "is_disabled": 0, "fusion_lon": 0.0, "type": "electric_scooter", "lon": -77.03662866666667}, {"rental_uris": {"android": "https://dc.lft.to/lastmile_qr_scan", "ios": "https://dc.lft.to/lastmile_qr_scan"}, "fusion_lat": 0.0, "is_reserved": 0, "lat": 38.903405, "name": "5628201a486d826e609d417a77880ab8", "bike_id": "5628201a486d826e609d417a77880ab8", "is_disabled": 0, "fusion_lon": 0.0, "type": "electric_scooter", "lon": -77.02614683333333}, {"rental_uris": {"android": "https://dc.lft.to/lastmile_qr_scan", "ios": "https://dc.lft.to/lastmile_qr_scan"}, "fusion_lat": 0.0, "is_reserved": 0, "lat": 38.9156125, "name": "7395a22dd04c15ffec27ae538669f2fa", "bike_id": "7395a22dd04c15ffec27ae538669f2fa", "is_disabled": 0, "fusion_lon": 0.0, "type": "electric_scooter", "lon": -77.031371}, {"rental_uris": {"android": "https://dc.lft.to/lastmile_qr_scan", "ios": "https://dc.lft.to/lastmile_qr_scan"}, "fusion_lat": 0.0, "is_reserved": 0, "lat": 38.89962333333333, "name": "5ad827c57d8f89fc9116cf5dd4028be6", "bike_id": "5ad827c57d8f89fc9116cf5dd4028be6", "is_disabled": 0, "fusion_lon": 0.0, "type": "electric_scooter", "lon": -77.016113}, {"rental_uris": {"android": "https://dc.lft.to/lastmile_qr_scan", "ios": "https://dc.lft.to/lastmile_qr_scan"}, "fusion_lat": 0.0, "is_reserved": 0, "lat": 38.9336045, "name": "c5c0f1578a2efcca1b7460d6c467289b", "bike_id": "c5c0f1578a2efcca1b7460d6c467289b", "is_disabled": 0, "fusion_lon": 0.0, "type": "electric_scooter", "lon": -77.04119416666667}, {"rental_uris": {"android": "https://dc.lft.to/lastmile_qr_scan", "ios": "https://dc.lft.to/lastmile_qr_scan"}, "fusion_lat": 0.0, "is_reserved": 0, "lat": 38.92366616666666, "name": "63991c8574c8ae2690911861b875f334", "bike_id": "63991c8574c8ae2690911861b875f334", "is_disabled": 0, "fusion_lon": 0.0, "type": "electric_scooter", "lon": -77.01905383333333}, {"rental_uris": {"android": "https://dc.lft.to/lastmile_qr_scan", "ios": "https://dc.lft.to/lastmile_qr_scan"}, "fusion_lat": 0.0, "is_reserved": 0, "lat": 39.084325, "name": "60c21365b27d3d838898dc58041af603", "bike_id": "60c21365b27d3d838898dc58041af603", "is_disabled": 0, "fusion_lon": 0.0, "type": "electric_bike", "lon": -76.951481}, {"rental_uris": {"android": "https://dc.lft.to/lastmile_qr_scan", "ios": "https://dc.lft.to/lastmile_qr_scan"}, "fusion_lat": 0.0, "is_reserved": 0, "lat": 38.86497333333333, "name": "5446fba485f1f5632a92212ac223dbd4", "bike_id": "5446fba485f1f5632a92212ac223dbd4", "is_disabled": 0, "fusion_lon": 0.0, "type": "electric_scooter", "lon": -76.98057433333334}, {"rental_uris": {"android": "https://dc.lft.to/lastmile_qr_scan", "ios": "https://dc.lft.to/lastmile_qr_scan"}, "fusion_lat": 0.0, "is_reserved": 0, "lat": 38.90420983333333, "name": "7e3ea6360d4f65ee82c1f30c7bc98d4e", "bike_id": "7e3ea6360d4f65ee82c1f30c7bc98d4e", "is_disabled": 0, "fusion_lon": 0.0, "type": "electric_scooter", "lon": -77.00596166666666}, {"rental_uris": {"android": "https://dc.lft.to/lastmile_qr_scan", "ios": "https://dc.lft.to/lastmile_qr_scan"}, "fusion_lat": 0.0, "is_reserved": 0, "lat": 38.90531033333333, "name": "f3b1a5ae2eed6a5b58abb655ca21d52b", "bike_id": "f3b1a5ae2eed6a5b58abb655ca21d52b", "is_disabled": 0, "fusion_lon": 0.0, "type": "electric_scooter", "lon": -77.04028566666666}, {"rental_uris": {"android": "https://dc.lft.to/lastmile_qr_scan", "ios": "https://dc.lft.to/lastmile_qr_scan"}, "fusion_lat": 0.0, "is_reserved": 0, "lat": 38.88658983333333, "name": "6d4427d2bb7a4ebbbaf06f19a19b21f5", "bike_id": "6d4427d2bb7a4ebbbaf06f19a19b21f5", "is_disabled": 0, "fusion_lon": 0.0, "type": "electric_scooter", "lon": -76.93675783333333}, {"rental_uris": {"android": "https://dc.lft.to/lastmile_qr_scan", "ios": "https://dc.lft.to/lastmile_qr_scan"}, "fusion_lat": 0.0, "is_reserved": 0, "lat": 38.908402, "name": "5ada88500cead6da34a79cd70662348c", "bike_id": "5ada88500cead6da34a79cd70662348c", "is_disabled": 0, "fusion_lon": 0.0, "type": "electric_scooter", "lon": -77.04456083333334}, {"rental_uris": {"android": "https://dc.lft.to/lastmile_qr_scan", "ios": "https://dc.lft.to/lastmile_qr_scan"}, "fusion_lat": 0.0, "is_reserved": 0, "lat": 38.9098325, "name": "6f7da0860b8d472734b2ded66ab1f0f1", "bike_id": "6f7da0860b8d472734b2ded66ab1f0f1", "is_disabled": 0, "fusion_lon": 0.0, "type": "electric_scooter", "lon": -77.02391266666666}, {"rental_uris": {"android": "https://dc.lft.to/lastmile_qr_scan", "ios": "https://dc.lft.to/lastmile_qr_scan"}, "fusion_lat": 0.0, "is_reserved": 0, "lat": 38.919248, "name": "51c5dafb47008fa2030cfcf963c73ee3", "bike_id": "51c5dafb47008fa2030cfcf963c73ee3", "is_disabled": 0, "fusion_lon": 0.0, "type": "electric_scooter", "lon": -77.0099365}, {"rental_uris": {"android": "https://dc.lft.to/lastmile_qr_scan", "ios": "https://dc.lft.to/lastmile_qr_scan"}, "fusion_lat": 0.0, "is_reserved": 0, "lat": 38.924565333333334, "name": "941f7afc6abd9772ab7aa540b733f57a", "bike_id": "941f7afc6abd9772ab7aa540b733f57a", "is_disabled": 0, "fusion_lon": 0.0, "type": "electric_scooter", "lon": -77.0216175}, {"rental_uris": {"android": "https://dc.lft.to/lastmile_qr_scan", "ios": "https://dc.lft.to/lastmile_qr_scan"}, "fusion_lat": 0.0, "is_reserved": 0, "lat": 38.92137016666667, "name": "d4078bdf7dcb2aec67979ae55a717434", "bike_id": "d4078bdf7dcb2aec67979ae55a717434", "is_disabled": 0, "fusion_lon": 0.0, "type": "electric_scooter", "lon": -77.01809766666666}, {"rental_uris": {"android": "https://dc.lft.to/lastmile_qr_scan", "ios": "https://dc.lft.to/lastmile_qr_scan"}, "fusion_lat": 0.0, "is_reserved": 0, "lat": 38.929742, "name": "799a3a206e65f3aba88bbbddb2a3cc92", "bike_id": "799a3a206e65f3aba88bbbddb2a3cc92", "is_disabled": 0, "fusion_lon": 0.0, "type": "electric_scooter", "lon": -77.02794316666666}, {"rental_uris": {"android": "https://dc.lft.to/lastmile_qr_scan", "ios": "https://dc.lft.to/lastmile_qr_scan"}, "fusion_lat": 0.0, "is_reserved": 0, "lat": 38.93753316666667, "name": "65f0f3d994529461a4ec0f144081b092", "bike_id": "65f0f3d994529461a4ec0f144081b092", "is_disabled": 0, "fusion_lon": 0.0, "type": "electric_bike", "lon": -77.02933433333334}, {"rental_uris": {"android": "https://dc.lft.to/lastmile_qr_scan", "ios": "https://dc.lft.to/lastmile_qr_scan"}, "fusion_lat": 0.0, "is_reserved": 0, "lat": 38.892670333333335, "name": "199c5670471b1a6399f517dab89be416", "bike_id": "199c5670471b1a6399f517dab89be416", "is_disabled": 0, "fusion_lon": 0.0, "type": "electric_scooter", "lon": -77.04208283333334}, {"rental_uris": {"android": "https://dc.lft.to/lastmile_qr_scan", "ios": "https://dc.lft.to/lastmile_qr_scan"}, "fusion_lat": 0.0, "is_reserved": 0, "lat": 38.94537416666667, "name": "ed57a06f6a5aea4262c528ac2b75fd4c", "bike_id": "ed57a06f6a5aea4262c528ac2b75fd4c", "is_disabled": 0, "fusion_lon": 0.0, "type": "electric_bike", "lon": -77.3444535}, {"rental_uris": {"android": "https://dc.lft.to/lastmile_qr_scan", "ios": "https://dc.lft.to/lastmile_qr_scan"}, "fusion_lat": 0.0, "is_reserved": 0, "lat": 38.9055575, "name": "9427e990183a44185da9115e388903ac", "bike_id": "9427e990183a44185da9115e388903ac", "is_disabled": 0, "fusion_lon": 0.0, "type": "electric_scooter", "lon": -77.027084}, {"rental_uris": {"android": "https://dc.lft.to/lastmile_qr_scan", "ios": "https://dc.lft.to/lastmile_qr_scan"}, "fusion_lat": 0.0, "is_reserved": 0, "lat": 38.887320833333334, "name": "33d05a9f4ecba51dc03648bac49e65ad", "bike_id": "33d05a9f4ecba51dc03648bac49e65ad", "is_disabled": 0, "fusion_lon": 0.0, "type": "electric_scooter", "lon": -77.03195783333334}, {"rental_uris": {"android": "https://dc.lft.to/lastmile_qr_scan", "ios": "https://dc.lft.to/lastmile_qr_scan"}, "fusion_lat": 0.0, "is_reserved": 0, "lat": 38.94975016666667, "name": "7c40f0435d298be44423ea81b41a37b9", "bike_id": "7c40f0435d298be44423ea81b41a37b9", "is_disabled": 0, "fusion_lon": 0.0, "type": "electric_scooter", "lon": -77.02453666666666}, {"rental_uris": {"android": "https://dc.lft.to/lastmile_qr_scan", "ios": "https://dc.lft.to/lastmile_qr_scan"}, "fusion_lat": 0.0, "is_reserved": 0, "lat": 38.92340016666667, "name": "e257fc862d985c3c63c424c4c712e2a1", "bike_id": "e257fc862d985c3c63c424c4c712e2a1", "is_disabled": 0, "fusion_lon": 0.0, "type": "electric_scooter", "lon": -77.0509055}, {"rental_uris": {"android": "https://dc.lft.to/lastmile_qr_scan", "ios": "https://dc.lft.to/lastmile_qr_scan"}, "fusion_lat": 0.0, "is_reserved": 0, "lat": 38.90560516666667, "name": "b4beadbd7583cd78e32ddfaa06f5a565", "bike_id": "b4beadbd7583cd78e32ddfaa06f5a565", "is_disabled": 0, "fusion_lon": 0.0, "type": "electric_scooter", "lon": -77.0220985}, {"rental_uris": {"android": "https://dc.lft.to/lastmile_qr_scan", "ios": "https://dc.lft.to/lastmile_qr_scan"}, "fusion_lat": 0.0, "is_reserved": 0, "lat": 38.898525666666664, "name": "a626f59c9ff399561ae0e0273b48cc0e", "bike_id": "a626f59c9ff399561ae0e0273b48cc0e", "is_disabled": 0, "fusion_lon": 0.0, "type": "electric_scooter", "lon": -77.02695516666667}, {"rental_uris": {"android": "https://dc.lft.to/lastmile_qr_scan", "ios": "https://dc.lft.to/lastmile_qr_scan"}, "fusion_lat": 0.0, "is_reserved": 0, "lat": 38.924209833333336, "name": "5acede4fcba0a64688b32f770f840f01", "bike_id": "5acede4fcba0a64688b32f770f840f01", "is_disabled": 0, "fusion_lon": 0.0, "type": "electric_scooter", "lon": -77.03616166666667}, {"rental_uris": {"android": "https://dc.lft.to/lastmile_qr_scan", "ios": "https://dc.lft.to/lastmile_qr_scan"}, "fusion_lat": 0.0, "is_reserved": 0, "lat": 38.95540116666667, "name": "4d6935d272067766c3f8aec37a8a7a0c", "bike_id": "4d6935d272067766c3f8aec37a8a7a0c", "is_disabled": 0, "fusion_lon": 0.0, "type": "electric_scooter", "lon": -76.99571166666666}, {"rental_uris": {"android": "https://dc.lft.to/lastmile_qr_scan", "ios": "https://dc.lft.to/lastmile_qr_scan"}, "fusion_lat": 0.0, "is_reserved": 0, "lat": 38.900374, "name": "bfcb612052fad52aa196034ebf0aa856", "bike_id": "bfcb612052fad52aa196034ebf0aa856", "is_disabled": 0, "fusion_lon": 0.0, "type": "electric_scooter", "lon": -77.00209216666667}, {"rental_uris": {"android": "https://dc.lft.to/lastmile_qr_scan", "ios": "https://dc.lft.to/lastmile_qr_scan"}, "fusion_lat": 0.0, "is_reserved": 0, "lat": 38.91268183333333, "name": "44d7d21f2d56a9e9be408f0d742925dd", "bike_id": "44d7d21f2d56a9e9be408f0d742925dd", "is_disabled": 0, "fusion_lon": 0.0, "type": "electric_scooter", "lon": -77.02211366666667}, {"rental_uris": {"android": "https://dc.lft.to/lastmile_qr_scan", "ios": "https://dc.lft.to/lastmile_qr_scan"}, "fusion_lat": 0.0, "is_reserved": 0, "lat": 38.90238866666667, "name": "2f062770efccbb2367a3856150f7a58d", "bike_id": "2f062770efccbb2367a3856150f7a58d", "is_disabled": 0, "fusion_lon": 0.0, "type": "electric_scooter", "lon": -77.03573116666666}, {"rental_uris": {"android": "https://dc.lft.to/lastmile_qr_scan", "ios": "https://dc.lft.to/lastmile_qr_scan"}, "fusion_lat": 0.0, "is_reserved": 0, "lat": 38.8953655, "name": "9c59a8ab6f466e6c44f9aca2205d860b", "bike_id": "9c59a8ab6f466e6c44f9aca2205d860b", "is_disabled": 0, "fusion_lon": 0.0, "type": "electric_scooter", "lon": -77.03357083333333}, {"rental_uris": {"android": "https://dc.lft.to/lastmile_qr_scan", "ios": "https://dc.lft.to/lastmile_qr_scan"}, "fusion_lat": 0.0, "is_reserved": 0, "lat": 38.85715583333333, "name": "a8e3c4c3645c782ea2e3d2ecb7f2679b", "bike_id": "a8e3c4c3645c782ea2e3d2ecb7f2679b", "is_disabled": 0, "fusion_lon": 0.0, "type": "electric_scooter", "lon": -76.97182333333333}, {"rental_uris": {"android": "https://dc.lft.to/lastmile_qr_scan", "ios": "https://dc.lft.to/lastmile_qr_scan"}, "fusion_lat": 0.0, "is_reserved": 0, "lat": 38.891017, "name": "678854f62d53a8d1fdc0f4b8bf984585", "bike_id": "678854f62d53a8d1fdc0f4b8bf984585", "is_disabled": 0, "fusion_lon": 0.0, "type": "electric_scooter", "lon": -77.00211566666667}, {"rental_uris": {"android": "https://dc.lft.to/lastmile_qr_scan", "ios": "https://dc.lft.to/lastmile_qr_scan"}, "fusion_lat": 0.0, "is_reserved": 0, "lat": 38.91248783333333, "name": "44e62773adb04ee5f0b7a9a4600dcc8d", "bike_id": "44e62773adb04ee5f0b7a9a4600dcc8d", "is_disabled": 0, "fusion_lon": 0.0, "type": "electric_scooter", "lon": -77.02810066666666}, {"rental_uris": {"android": "https://dc.lft.to/lastmile_qr_scan", "ios": "https://dc.lft.to/lastmile_qr_scan"}, "fusion_lat": 0.0, "is_reserved": 0, "lat": 38.99523966666667, "name": "94400b144102dd76f96fe0206fe3d45c", "bike_id": "94400b144102dd76f96fe0206fe3d45c", "is_disabled": 0, "fusion_lon": 0.0, "type": "electric_bike", "lon": -77.03782116666666}, {"rental_uris": {"android": "https://dc.lft.to/lastmile_qr_scan", "ios": "https://dc.lft.to/lastmile_qr_scan"}, "fusion_lat": 0.0, "is_reserved": 0, "lat": 38.900342333333334, "name": "e33f97ca99b0c31c0693a65b006bbf8d", "bike_id": "e33f97ca99b0c31c0693a65b006bbf8d", "is_disabled": 0, "fusion_lon": 0.0, "type": "electric_scooter", "lon": -76.99849333333333}, {"rental_uris": {"android": "https://dc.lft.to/lastmile_qr_scan", "ios": "https://dc.lft.to/lastmile_qr_scan"}, "fusion_lat": 0.0, "is_reserved": 0, "lat": 38.9233635, "name": "c881c95b3f094e211c89115f535138e0", "bike_id": "c881c95b3f094e211c89115f535138e0", "is_disabled": 0, "fusion_lon": 0.0, "type": "electric_scooter", "lon": -77.01899583333334}, {"rental_uris": {"android": "https://dc.lft.to/lastmile_qr_scan", "ios": "https://dc.lft.to/lastmile_qr_scan"}, "fusion_lat": 0.0, "is_reserved": 0, "lat": 38.918653666666664, "name": "92a6c4bcf9ee7e46408fc489a9d54459", "bike_id": "92a6c4bcf9ee7e46408fc489a9d54459", "is_disabled": 0, "fusion_lon": 0.0, "type": "electric_scooter", "lon": -77.03512}, {"rental_uris": {"android": "https://dc.lft.to/lastmile_qr_scan", "ios": "https://dc.lft.to/lastmile_qr_scan"}, "fusion_lat": 0.0, "is_reserved": 0, "lat": 38.909438333333334, "name": "e7518362b4ad25e7251ade8942339bec", "bike_id": "e7518362b4ad25e7251ade8942339bec", "is_disabled": 0, "fusion_lon": 0.0, "type": "electric_scooter", "lon": -77.04116683333334}, {"rental_uris": {"android": "https://dc.lft.to/lastmile_qr_scan", "ios": "https://dc.lft.to/lastmile_qr_scan"}, "fusion_lat": 0.0, "is_reserved": 0, "lat": 38.889901333333334, "name": "253043fa113cfff47ee38609247cf8af", "bike_id": "253043fa113cfff47ee38609247cf8af", "is_disabled": 0, "fusion_lon": 0.0, "type": "electric_scooter", "lon": -76.98384883333334}, {"rental_uris": {"android": "https://dc.lft.to/lastmile_qr_scan", "ios": "https://dc.lft.to/lastmile_qr_scan"}, "fusion_lat": 0.0, "is_reserved": 0, "lat": 38.905849333333336, "name": "7964573e650e2238ff0583cc334562ac", "bike_id": "7964573e650e2238ff0583cc334562ac", "is_disabled": 0, "fusion_lon": 0.0, "type": "electric_scooter", "lon": -77.00639666666666}, {"rental_uris": {"android": "https://dc.lft.to/lastmile_qr_scan", "ios": "https://dc.lft.to/lastmile_qr_scan"}, "fusion_lat": 0.0, "is_reserved": 0, "lat": 38.906387333333335, "name": "a7a7d0e7552e92edcd020daae4a8c49f", "bike_id": "a7a7d0e7552e92edcd020daae4a8c49f", "is_disabled": 0, "fusion_lon": 0.0, "type": "electric_scooter", "lon": -77.03901433333333}, {"rental_uris": {"android": "https://dc.lft.to/lastmile_qr_scan", "ios": "https://dc.lft.to/lastmile_qr_scan"}, "fusion_lat": 0.0, "is_reserved": 0, "lat": 38.9125615, "name": "7a8d59c4086c2d9a4693fffe2b1aecc6", "bike_id": "7a8d59c4086c2d9a4693fffe2b1aecc6", "is_disabled": 0, "fusion_lon": 0.0, "type": "electric_scooter", "lon": -77.03864133333333}, {"rental_uris": {"android": "https://dc.lft.to/lastmile_qr_scan", "ios": "https://dc.lft.to/lastmile_qr_scan"}, "fusion_lat": 0.0, "is_reserved": 0, "lat": 38.897371666666665, "name": "2b5eea3f1deb674c800eda959128b15f", "bike_id": "2b5eea3f1deb674c800eda959128b15f", "is_disabled": 0, "fusion_lon": 0.0, "type": "electric_scooter", "lon": -77.02488866666667}, {"rental_uris": {"android": "https://dc.lft.to/lastmile_qr_scan", "ios": "https://dc.lft.to/lastmile_qr_scan"}, "fusion_lat": 0.0, "is_reserved": 0, "lat": 38.944065, "name": "be00215180ee2ea73452e6fcede742b8", "bike_id": "be00215180ee2ea73452e6fcede742b8", "is_disabled": 0, "fusion_lon": 0.0, "type": "electric_scooter", "lon": -77.0632045}, {"rental_uris": {"android": "https://dc.lft.to/lastmile_qr_scan", "ios": "https://dc.lft.to/lastmile_qr_scan"}, "fusion_lat": 0.0, "is_reserved": 0, "lat": 38.883489833333336, "name": "69a26545c0d487727007c4ce9d708a76", "bike_id": "69a26545c0d487727007c4ce9d708a76", "is_disabled": 0, "fusion_lon": 0.0, "type": "electric_scooter", "lon": -76.99266366666667}, {"rental_uris": {"android": "https://dc.lft.to/lastmile_qr_scan", "ios": "https://dc.lft.to/lastmile_qr_scan"}, "fusion_lat": 0.0, "is_reserved": 0, "lat": 38.902912, "name": "0426818a9737a42d3593b60c0953862c", "bike_id": "0426818a9737a42d3593b60c0953862c", "is_disabled": 0, "fusion_lon": 0.0, "type": "electric_scooter", "lon": -77.05811816666667}, {"rental_uris": {"android": "https://dc.lft.to/lastmile_qr_scan", "ios": "https://dc.lft.to/lastmile_qr_scan"}, "fusion_lat": 0.0, "is_reserved": 0, "lat": 38.91124716666667, "name": "7f2b4c50223e1c0241c1f738fea2c1d9", "bike_id": "7f2b4c50223e1c0241c1f738fea2c1d9", "is_disabled": 0, "fusion_lon": 0.0, "type": "electric_scooter", "lon": -77.02202266666667}, {"rental_uris": {"android": "https://dc.lft.to/lastmile_qr_scan", "ios": "https://dc.lft.to/lastmile_qr_scan"}, "fusion_lat": 0.0, "is_reserved": 0, "lat": 38.922225833333336, "name": "081dd6d9620390ef7a00f546fc8094d9", "bike_id": "081dd6d9620390ef7a00f546fc8094d9", "is_disabled": 0, "fusion_lon": 0.0, "type": "electric_scooter", "lon": -77.04352133333333}, {"rental_uris": {"android": "https://dc.lft.to/lastmile_qr_scan", "ios": "https://dc.lft.to/lastmile_qr_scan"}, "fusion_lat": 0.0, "is_reserved": 0, "lat": 38.92144066666667, "name": "5bfae1b7fc07295f9d1bc15d64f19071", "bike_id": "5bfae1b7fc07295f9d1bc15d64f19071", "is_disabled": 0, "fusion_lon": 0.0, "type": "electric_scooter", "lon": -77.01806933333333}, {"rental_uris": {"android": "https://dc.lft.to/lastmile_qr_scan", "ios": "https://dc.lft.to/lastmile_qr_scan"}, "fusion_lat": 0.0, "is_reserved": 0, "lat": 38.85707416666666, "name": "f07059e2ddea056e0935e7fb1153421b", "bike_id": "f07059e2ddea056e0935e7fb1153421b", "is_disabled": 0, "fusion_lon": 0.0, "type": "electric_scooter", "lon": -76.98213366666667}, {"rental_uris": {"android": "https://dc.lft.to/lastmile_qr_scan", "ios": "https://dc.lft.to/lastmile_qr_scan"}, "fusion_lat": 0.0, "is_reserved": 0, "lat": 38.923335333333334, "name": "0e16b43e507a363d40dcf810b2794e00", "bike_id": "0e16b43e507a363d40dcf810b2794e00", "is_disabled": 0, "fusion_lon": 0.0, "type": "electric_scooter", "lon": -77.03545583333333}, {"rental_uris": {"android": "https://dc.lft.to/lastmile_qr_scan", "ios": "https://dc.lft.to/lastmile_qr_scan"}, "fusion_lat": 0.0, "is_reserved": 0, "lat": 38.8986585, "name": "5918c1546cbd9d41b456ec6ce50dd811", "bike_id": "5918c1546cbd9d41b456ec6ce50dd811", "is_disabled": 0, "fusion_lon": 0.0, "type": "electric_scooter", "lon": -76.946799}, {"rental_uris": {"android": "https://dc.lft.to/lastmile_qr_scan", "ios": "https://dc.lft.to/lastmile_qr_scan"}, "fusion_lat": 0.0, "is_reserved": 0, "lat": 38.87075466666667, "name": "50ae184d0da377092b21b9d31be5b722", "bike_id": "50ae184d0da377092b21b9d31be5b722", "is_disabled": 0, "fusion_lon": 0.0, "type": "electric_scooter", "lon": -76.9791005}, {"rental_uris": {"android": "https://dc.lft.to/lastmile_qr_scan", "ios": "https://dc.lft.to/lastmile_qr_scan"}, "fusion_lat": 0.0, "is_reserved": 0, "lat": 38.920372666666665, "name": "a55a25f5a9c4c0f583239390fb40a3af", "bike_id": "a55a25f5a9c4c0f583239390fb40a3af", "is_disabled": 0, "fusion_lon": 0.0, "type": "electric_scooter", "lon": -77.04822616666667}, {"rental_uris": {"android": "https://dc.lft.to/lastmile_qr_scan", "ios": "https://dc.lft.to/lastmile_qr_scan"}, "fusion_lat": 0.0, "is_reserved": 0, "lat": 38.9168195, "name": "d9fcb7c4754af3acb73c1b7ee9e45976", "bike_id": "d9fcb7c4754af3acb73c1b7ee9e45976", "is_disabled": 0, "fusion_lon": 0.0, "type": "electric_scooter", "lon": -77.041412}, {"rental_uris": {"android": "https://dc.lft.to/lastmile_qr_scan", "ios": "https://dc.lft.to/lastmile_qr_scan"}, "fusion_lat": 0.0, "is_reserved": 0, "lat": 38.917627, "name": "a12d6d42efc4b4013a7f4a5be330818e", "bike_id": "a12d6d42efc4b4013a7f4a5be330818e", "is_disabled": 0, "fusion_lon": 0.0, "type": "electric_scooter", "lon": -77.019023}, {"rental_uris": {"android": "https://dc.lft.to/lastmile_qr_scan", "ios": "https://dc.lft.to/lastmile_qr_scan"}, "fusion_lat": 0.0, "is_reserved": 0, "lat": 38.910676, "name": "4fa0577a47905cb037bcb847fbcdd24a", "bike_id": "4fa0577a47905cb037bcb847fbcdd24a", "is_disabled": 0, "fusion_lon": 0.0, "type": "electric_scooter", "lon": -77.04606816666667}, {"rental_uris": {"android": "https://dc.lft.to/lastmile_qr_scan", "ios": "https://dc.lft.to/lastmile_qr_scan"}, "fusion_lat": 0.0, "is_reserved": 0, "lat": 38.919997, "name": "bb1b8036bf582d4d9d0cab38f9bc80ef", "bike_id": "bb1b8036bf582d4d9d0cab38f9bc80ef", "is_disabled": 0, "fusion_lon": 0.0, "type": "electric_scooter", "lon": -77.03220833333333}, {"rental_uris": {"android": "https://dc.lft.to/lastmile_qr_scan", "ios": "https://dc.lft.to/lastmile_qr_scan"}, "fusion_lat": 0.0, "is_reserved": 0, "lat": 38.90554866666667, "name": "b5d4ada8f39c1253f4e67704b230451c", "bike_id": "b5d4ada8f39c1253f4e67704b230451c", "is_disabled": 0, "fusion_lon": 0.0, "type": "electric_scooter", "lon": -77.03454783333333}, {"rental_uris": {"android": "https://dc.lft.to/lastmile_qr_scan", "ios": "https://dc.lft.to/lastmile_qr_scan"}, "fusion_lat": 0.0, "is_reserved": 0, "lat": 38.969351333333336, "name": "0e7f770b9a5c7f4c9dad019c3a1de848", "bike_id": "0e7f770b9a5c7f4c9dad019c3a1de848", "is_disabled": 0, "fusion_lon": 0.0, "type": "electric_scooter", "lon": -77.02710233333333}, {"rental_uris": {"android": "https://dc.lft.to/lastmile_qr_scan", "ios": "https://dc.lft.to/lastmile_qr_scan"}, "fusion_lat": 0.0, "is_reserved": 0, "lat": 38.9071895, "name": "92f401c4ba504f6f715b811d87bce2f0", "bike_id": "92f401c4ba504f6f715b811d87bce2f0", "is_disabled": 0, "fusion_lon": 0.0, "type": "electric_scooter", "lon": -77.02677566666667}, {"rental_uris": {"android": "https://dc.lft.to/lastmile_qr_scan", "ios": "https://dc.lft.to/lastmile_qr_scan"}, "fusion_lat": 0.0, "is_reserved": 0, "lat": 38.926921166666666, "name": "6250eceb83798b93374521fa6149b882", "bike_id": "6250eceb83798b93374521fa6149b882", "is_disabled": 0, "fusion_lon": 0.0, "type": "electric_scooter", "lon": -77.01485116666667}, {"rental_uris": {"android": "https://dc.lft.to/lastmile_qr_scan", "ios": "https://dc.lft.to/lastmile_qr_scan"}, "fusion_lat": 0.0, "is_reserved": 0, "lat": 38.935748, "name": "e674e36290209f921c96892f11c094a3", "bike_id": "e674e36290209f921c96892f11c094a3", "is_disabled": 0, "fusion_lon": 0.0, "type": "electric_scooter", "lon": -77.0585995}, {"rental_uris": {"android": "https://dc.lft.to/lastmile_qr_scan", "ios": "https://dc.lft.to/lastmile_qr_scan"}, "fusion_lat": 0.0, "is_reserved": 0, "lat": 38.9154575, "name": "afdb9d2c81c8611cd1c49f5db8804995", "bike_id": "afdb9d2c81c8611cd1c49f5db8804995", "is_disabled": 0, "fusion_lon": 0.0, "type": "electric_scooter", "lon": -77.0296815}, {"rental_uris": {"android": "https://dc.lft.to/lastmile_qr_scan", "ios": "https://dc.lft.to/lastmile_qr_scan"}, "fusion_lat": 0.0, "is_reserved": 0, "lat": 38.94912516666667, "name": "7fb4261fb1bd1e0541e4a1afb030c4cf", "bike_id": "7fb4261fb1bd1e0541e4a1afb030c4cf", "is_disabled": 0, "fusion_lon": 0.0, "type": "electric_scooter", "lon": -77.02069816666666}, {"rental_uris": {"android": "https://dc.lft.to/lastmile_qr_scan", "ios": "https://dc.lft.to/lastmile_qr_scan"}, "fusion_lat": 0.0, "is_reserved": 0, "lat": 38.90117766666667, "name": "27b6f114bb1708187dba0262f965c81c", "bike_id": "27b6f114bb1708187dba0262f965c81c", "is_disabled": 0, "fusion_lon": 0.0, "type": "electric_scooter", "lon": -77.03046266666666}, {"rental_uris": {"android": "https://dc.lft.to/lastmile_qr_scan", "ios": "https://dc.lft.to/lastmile_qr_scan"}, "fusion_lat": 0.0, "is_reserved": 0, "lat": 38.880811333333334, "name": "ac78af17a69afb9cfbd9611ae2dcd07d", "bike_id": "ac78af17a69afb9cfbd9611ae2dcd07d", "is_disabled": 0, "fusion_lon": 0.0, "type": "electric_scooter", "lon": -76.98532216666666}, {"rental_uris": {"android": "https://dc.lft.to/lastmile_qr_scan", "ios": "https://dc.lft.to/lastmile_qr_scan"}, "fusion_lat": 0.0, "is_reserved": 0, "lat": 38.901818666666664, "name": "85a78a948704f41761258465ccea9e26", "bike_id": "85a78a948704f41761258465ccea9e26", "is_disabled": 0, "fusion_lon": 0.0, "type": "electric_scooter", "lon": -77.02099783333334}, {"rental_uris": {"android": "https://dc.lft.to/lastmile_qr_scan", "ios": "https://dc.lft.to/lastmile_qr_scan"}, "fusion_lat": 0.0, "is_reserved": 0, "lat": 38.910224666666664, "name": "c384f470fbbbe0cfbfe8940b9e5e9545", "bike_id": "c384f470fbbbe0cfbfe8940b9e5e9545", "is_disabled": 0, "fusion_lon": 0.0, "type": "electric_scooter", "lon": -77.041577}, {"rental_uris": {"android": "https://dc.lft.to/lastmile_qr_scan", "ios": "https://dc.lft.to/lastmile_qr_scan"}, "fusion_lat": 0.0, "is_reserved": 0, "lat": 38.908261, "name": "24070f74a46624868457a6d46fcfb88e", "bike_id": "24070f74a46624868457a6d46fcfb88e", "is_disabled": 0, "fusion_lon": 0.0, "type": "electric_scooter", "lon": -77.00343483333333}, {"rental_uris": {"android": "https://dc.lft.to/lastmile_qr_scan", "ios": "https://dc.lft.to/lastmile_qr_scan"}, "fusion_lat": 0.0, "is_reserved": 0, "lat": 38.9069005, "name": "d75b9d96b43fa8b5f3e3133d16fd7361", "bike_id": "d75b9d96b43fa8b5f3e3133d16fd7361", "is_disabled": 0, "fusion_lon": 0.0, "type": "electric_scooter", "lon": -77.03594833333334}, {"rental_uris": {"android": "https://dc.lft.to/lastmile_qr_scan", "ios": "https://dc.lft.to/lastmile_qr_scan"}, "fusion_lat": 0.0, "is_reserved": 0, "lat": 38.906774166666665, "name": "a3eef50abced5c1a9e6383b1a9c31610", "bike_id": "a3eef50abced5c1a9e6383b1a9c31610", "is_disabled": 0, "fusion_lon": 0.0, "type": "electric_scooter", "lon": -77.02693916666666}, {"rental_uris": {"android": "https://dc.lft.to/lastmile_qr_scan", "ios": "https://dc.lft.to/lastmile_qr_scan"}, "fusion_lat": 0.0, "is_reserved": 0, "lat": 38.90144866666667, "name": "e978439c3e6fe60d71f48c625e1ff2a7", "bike_id": "e978439c3e6fe60d71f48c625e1ff2a7", "is_disabled": 0, "fusion_lon": 0.0, "type": "electric_scooter", "lon": -77.02461633333333}, {"rental_uris": {"android": "https://dc.lft.to/lastmile_qr_scan", "ios": "https://dc.lft.to/lastmile_qr_scan"}, "fusion_lat": 0.0, "is_reserved": 0, "lat": 38.88268766666667, "name": "a13bcfb5120d89b1cc881eca900285f0", "bike_id": "a13bcfb5120d89b1cc881eca900285f0", "is_disabled": 0, "fusion_lon": 0.0, "type": "electric_scooter", "lon": -76.994709}, {"rental_uris": {"android": "https://dc.lft.to/lastmile_qr_scan", "ios": "https://dc.lft.to/lastmile_qr_scan"}, "fusion_lat": 0.0, "is_reserved": 0, "lat": 38.9126095, "name": "70173a75df7a8f9a2c706e59c21cf5f4", "bike_id": "70173a75df7a8f9a2c706e59c21cf5f4", "is_disabled": 0, "fusion_lon": 0.0, "type": "electric_scooter", "lon": -77.03934716666667}, {"rental_uris": {"android": "https://dc.lft.to/lastmile_qr_scan", "ios": "https://dc.lft.to/lastmile_qr_scan"}, "fusion_lat": 0.0, "is_reserved": 0, "lat": 38.90008733333333, "name": "ff33b7200ea196bd8d17534a6894dd41", "bike_id": "ff33b7200ea196bd8d17534a6894dd41", "is_disabled": 0, "fusion_lon": 0.0, "type": "electric_scooter", "lon": -77.01217966666667}, {"rental_uris": {"android": "https://dc.lft.to/lastmile_qr_scan", "ios": "https://dc.lft.to/lastmile_qr_scan"}, "fusion_lat": 0.0, "is_reserved": 0, "lat": 38.923158, "name": "243b39d8eaafaaec4a86f282fe3c084f", "bike_id": "243b39d8eaafaaec4a86f282fe3c084f", "is_disabled": 0, "fusion_lon": 0.0, "type": "electric_scooter", "lon": -77.02802533333333}, {"rental_uris": {"android": "https://dc.lft.to/lastmile_qr_scan", "ios": "https://dc.lft.to/lastmile_qr_scan"}, "fusion_lat": 0.0, "is_reserved": 0, "lat": 38.914439333333334, "name": "0c0c5ab5cd5d59f09ce3f64661ace274", "bike_id": "0c0c5ab5cd5d59f09ce3f64661ace274", "is_disabled": 0, "fusion_lon": 0.0, "type": "electric_scooter", "lon": -77.02183883333333}, {"rental_uris": {"android": "https://dc.lft.to/lastmile_qr_scan", "ios": "https://dc.lft.to/lastmile_qr_scan"}, "fusion_lat": 0.0, "is_reserved": 0, "lat": 38.92350616666667, "name": "896f6ba7cdbbad94a542cb779ad4cfa1", "bike_id": "896f6ba7cdbbad94a542cb779ad4cfa1", "is_disabled": 0, "fusion_lon": 0.0, "type": "electric_scooter", "lon": -77.03646633333334}, {"rental_uris": {"android": "https://dc.lft.to/lastmile_qr_scan", "ios": "https://dc.lft.to/lastmile_qr_scan"}, "fusion_lat": 0.0, "is_reserved": 0, "lat": 38.84920833333334, "name": "bbfc4777ab10df88f3fb546d886a7bfa", "bike_id": "bbfc4777ab10df88f3fb546d886a7bfa", "is_disabled": 0, "fusion_lon": 0.0, "type": "electric_bike", "lon": -77.08373833333333}, {"rental_uris": {"android": "https://dc.lft.to/lastmile_qr_scan", "ios": "https://dc.lft.to/lastmile_qr_scan"}, "fusion_lat": 0.0, "is_reserved": 0, "lat": 38.894549166666664, "name": "37ad865eed050205cd7ece83c4bbe232", "bike_id": "37ad865eed050205cd7ece83c4bbe232", "is_disabled": 0, "fusion_lon": 0.0, "type": "electric_scooter", "lon": -77.04546616666667}, {"rental_uris": {"android": "https://dc.lft.to/lastmile_qr_scan", "ios": "https://dc.lft.to/lastmile_qr_scan"}, "fusion_lat": 0.0, "is_reserved": 0, "lat": 38.89629016666667, "name": "88ee8f0893e9a079a24ebc679b59efa1", "bike_id": "88ee8f0893e9a079a24ebc679b59efa1", "is_disabled": 0, "fusion_lon": 0.0, "type": "electric_scooter", "lon": -77.03104483333334}, {"rental_uris": {"android": "https://dc.lft.to/lastmile_qr_scan", "ios": "https://dc.lft.to/lastmile_qr_scan"}, "fusion_lat": 0.0, "is_reserved": 0, "lat": 38.90183666666667, "name": "e1f3ea44514d05006adfd382c63f6843", "bike_id": "e1f3ea44514d05006adfd382c63f6843", "is_disabled": 0, "fusion_lon": 0.0, "type": "electric_scooter", "lon": -77.02099583333333}, {"rental_uris": {"android": "https://dc.lft.to/lastmile_qr_scan", "ios": "https://dc.lft.to/lastmile_qr_scan"}, "fusion_lat": 0.0, "is_reserved": 0, "lat": 38.907, "name": "5a7a9bace8f198f5031d9e45daf1b56a", "bike_id": "5a7a9bace8f198f5031d9e45daf1b56a", "is_disabled": 0, "fusion_lon": 0.0, "type": "electric_scooter", "lon": -76.9976825}, {"rental_uris": {"android": "https://dc.lft.to/lastmile_qr_scan", "ios": "https://dc.lft.to/lastmile_qr_scan"}, "fusion_lat": 0.0, "is_reserved": 0, "lat": 38.90558583333333, "name": "60ba7cdbaf34bce67cbf454671cb8a79", "bike_id": "60ba7cdbaf34bce67cbf454671cb8a79", "is_disabled": 0, "fusion_lon": 0.0, "type": "electric_scooter", "lon": -77.0239525}, {"rental_uris": {"android": "https://dc.lft.to/lastmile_qr_scan", "ios": "https://dc.lft.to/lastmile_qr_scan"}, "fusion_lat": 0.0, "is_reserved": 0, "lat": 38.899764, "name": "cbc94ac5b0af1765e7b1fc7e1c3ed4a2", "bike_id": "cbc94ac5b0af1765e7b1fc7e1c3ed4a2", "is_disabled": 0, "fusion_lon": 0.0, "type": "electric_scooter", "lon": -76.98366216666666}, {"rental_uris": {"android": "https://dc.lft.to/lastmile_qr_scan", "ios": "https://dc.lft.to/lastmile_qr_scan"}, "fusion_lat": 0.0, "is_reserved": 0, "lat": 38.902690666666665, "name": "8b97ef404d4097f046534194a3b5558f", "bike_id": "8b97ef404d4097f046534194a3b5558f", "is_disabled": 0, "fusion_lon": 0.0, "type": "electric_scooter", "lon": -76.98999466666666}, {"rental_uris": {"android": "https://dc.lft.to/lastmile_qr_scan", "ios": "https://dc.lft.to/lastmile_qr_scan"}, "fusion_lat": 0.0, "is_reserved": 0, "lat": 38.902638, "name": "618bd88ff56a68109d249a532dd5cfd9", "bike_id": "618bd88ff56a68109d249a532dd5cfd9", "is_disabled": 0, "fusion_lon": 0.0, "type": "electric_scooter", "lon": -77.05788766666667}, {"rental_uris": {"android": "https://dc.lft.to/lastmile_qr_scan", "ios": "https://dc.lft.to/lastmile_qr_scan"}, "fusion_lat": 0.0, "is_reserved": 0, "lat": 38.907226333333334, "name": "05a9451140fd516552342bc41586d9e6", "bike_id": "05a9451140fd516552342bc41586d9e6", "is_disabled": 0, "fusion_lon": 0.0, "type": "electric_scooter", "lon": -77.02532933333333}, {"rental_uris": {"android": "https://dc.lft.to/lastmile_qr_scan", "ios": "https://dc.lft.to/lastmile_qr_scan"}, "fusion_lat": 0.0, "is_reserved": 0, "lat": 38.910709, "name": "58769b3383628e0b85568e18f4d2e921", "bike_id": "58769b3383628e0b85568e18f4d2e921", "is_disabled": 0, "fusion_lon": 0.0, "type": "electric_scooter", "lon": -76.99138366666666}, {"rental_uris": {"android": "https://dc.lft.to/lastmile_qr_scan", "ios": "https://dc.lft.to/lastmile_qr_scan"}, "fusion_lat": 0.0, "is_reserved": 0, "lat": 38.897234833333336, "name": "319e4169bb60a6fbb8846fa496331f2e", "bike_id": "319e4169bb60a6fbb8846fa496331f2e", "is_disabled": 0, "fusion_lon": 0.0, "type": "electric_scooter", "lon": -77.055218}, {"rental_uris": {"android": "https://dc.lft.to/lastmile_qr_scan", "ios": "https://dc.lft.to/lastmile_qr_scan"}, "fusion_lat": 0.0, "is_reserved": 0, "lat": 38.920608333333334, "name": "7b884d9e8621f91a542e5b7f4d3aa059", "bike_id": "7b884d9e8621f91a542e5b7f4d3aa059", "is_disabled": 0, "fusion_lon": 0.0, "type": "electric_scooter", "lon": -77.03468583333333}, {"rental_uris": {"android": "https://dc.lft.to/lastmile_qr_scan", "ios": "https://dc.lft.to/lastmile_qr_scan"}, "fusion_lat": 0.0, "is_reserved": 0, "lat": 38.90469133333333, "name": "8785dc9bc72aa9aa68bdecfd212726aa", "bike_id": "8785dc9bc72aa9aa68bdecfd212726aa", "is_disabled": 0, "fusion_lon": 0.0, "type": "electric_scooter", "lon": -77.04162516666666}, {"rental_uris": {"android": "https://dc.lft.to/lastmile_qr_scan", "ios": "https://dc.lft.to/lastmile_qr_scan"}, "fusion_lat": 0.0, "is_reserved": 0, "lat": 38.88795733333333, "name": "e6c3d04d9a362c85dacc1223672e90a5", "bike_id": "e6c3d04d9a362c85dacc1223672e90a5", "is_disabled": 0, "fusion_lon": 0.0, "type": "electric_scooter", "lon": -76.97711366666667}, {"rental_uris": {"android": "https://dc.lft.to/lastmile_qr_scan", "ios": "https://dc.lft.to/lastmile_qr_scan"}, "fusion_lat": 0.0, "is_reserved": 0, "lat": 38.923867666666666, "name": "07cd9071e45e96e74fa37dbc19ac535b", "bike_id": "07cd9071e45e96e74fa37dbc19ac535b", "is_disabled": 0, "fusion_lon": 0.0, "type": "electric_scooter", "lon": -77.03407833333333}, {"rental_uris": {"android": "https://dc.lft.to/lastmile_qr_scan", "ios": "https://dc.lft.to/lastmile_qr_scan"}, "fusion_lat": 0.0, "is_reserved": 0, "lat": 38.872975833333335, "name": "48013e592b806d324b012676a85d4d48", "bike_id": "48013e592b806d324b012676a85d4d48", "is_disabled": 0, "fusion_lon": 0.0, "type": "electric_scooter", "lon": -77.0155875}, {"rental_uris": {"android": "https://dc.lft.to/lastmile_qr_scan", "ios": "https://dc.lft.to/lastmile_qr_scan"}, "fusion_lat": 0.0, "is_reserved": 0, "lat": 38.882888, "name": "7b8ba9503a61bf2c4ae032ca054d842b", "bike_id": "7b8ba9503a61bf2c4ae032ca054d842b", "is_disabled": 0, "fusion_lon": 0.0, "type": "electric_bike", "lon": -77.11157833333333}, {"rental_uris": {"android": "https://dc.lft.to/lastmile_qr_scan", "ios": "https://dc.lft.to/lastmile_qr_scan"}, "fusion_lat": 0.0, "is_reserved": 0, "lat": 38.934576, "name": "2941b3f7b55e01fc16e98285ee876a24", "bike_id": "2941b3f7b55e01fc16e98285ee876a24", "is_disabled": 0, "fusion_lon": 0.0, "type": "electric_scooter", "lon": -77.07238383333333}, {"rental_uris": {"android": "https://dc.lft.to/lastmile_qr_scan", "ios": "https://dc.lft.to/lastmile_qr_scan"}, "fusion_lat": 0.0, "is_reserved": 0, "lat": 38.924221833333334, "name": "01ba48a2ea15cd536da234ca95cebafd", "bike_id": "01ba48a2ea15cd536da234ca95cebafd", "is_disabled": 0, "fusion_lon": 0.0, "type": "electric_scooter", "lon": -77.01950216666667}, {"rental_uris": {"android": "https://dc.lft.to/lastmile_qr_scan", "ios": "https://dc.lft.to/lastmile_qr_scan"}, "fusion_lat": 0.0, "is_reserved": 0, "lat": 38.899658, "name": "ac0ead37f67b951b816632c4c9dd45a9", "bike_id": "ac0ead37f67b951b816632c4c9dd45a9", "is_disabled": 0, "fusion_lon": 0.0, "type": "electric_scooter", "lon": -77.01611033333333}, {"rental_uris": {"android": "https://dc.lft.to/lastmile_qr_scan", "ios": "https://dc.lft.to/lastmile_qr_scan"}, "fusion_lat": 0.0, "is_reserved": 0, "lat": 38.905917, "name": "ac169655b02d98b158fd19bccdf91bcb", "bike_id": "ac169655b02d98b158fd19bccdf91bcb", "is_disabled": 0, "fusion_lon": 0.0, "type": "electric_scooter", "lon": -77.016147}, {"rental_uris": {"android": "https://dc.lft.to/lastmile_qr_scan", "ios": "https://dc.lft.to/lastmile_qr_scan"}, "fusion_lat": 0.0, "is_reserved": 0, "lat": 38.9268255, "name": "7421c5bdf62869bd72c8a07734672369", "bike_id": "7421c5bdf62869bd72c8a07734672369", "is_disabled": 0, "fusion_lon": 0.0, "type": "electric_scooter", "lon": -77.029604}, {"rental_uris": {"android": "https://dc.lft.to/lastmile_qr_scan", "ios": "https://dc.lft.to/lastmile_qr_scan"}, "fusion_lat": 0.0, "is_reserved": 0, "lat": 38.90697383333333, "name": "eeb1a737ee0bc21c89d1994079a00b6f", "bike_id": "eeb1a737ee0bc21c89d1994079a00b6f", "is_disabled": 0, "fusion_lon": 0.0, "type": "electric_scooter", "lon": -77.02971416666666}, {"rental_uris": {"android": "https://dc.lft.to/lastmile_qr_scan", "ios": "https://dc.lft.to/lastmile_qr_scan"}, "fusion_lat": 0.0, "is_reserved": 0, "lat": 38.91790266666667, "name": "4976d7726afa0ad5bc39f964b918fb5a", "bike_id": "4976d7726afa0ad5bc39f964b918fb5a", "is_disabled": 0, "fusion_lon": 0.0, "type": "electric_scooter", "lon": -77.02314183333333}, {"rental_uris": {"android": "https://dc.lft.to/lastmile_qr_scan", "ios": "https://dc.lft.to/lastmile_qr_scan"}, "fusion_lat": 0.0, "is_reserved": 0, "lat": 38.910422833333335, "name": "8a8f5ee8dbc4840d306af02e84ddc582", "bike_id": "8a8f5ee8dbc4840d306af02e84ddc582", "is_disabled": 0, "fusion_lon": 0.0, "type": "electric_scooter", "lon": -77.0146145}, {"rental_uris": {"android": "https://dc.lft.to/lastmile_qr_scan", "ios": "https://dc.lft.to/lastmile_qr_scan"}, "fusion_lat": 0.0, "is_reserved": 0, "lat": 38.935934, "name": "0c2d87ce7a3ebe3c6d0703c706517c7a", "bike_id": "0c2d87ce7a3ebe3c6d0703c706517c7a", "is_disabled": 0, "fusion_lon": 0.0, "type": "electric_scooter", "lon": -77.02135016666666}, {"rental_uris": {"android": "https://dc.lft.to/lastmile_qr_scan", "ios": "https://dc.lft.to/lastmile_qr_scan"}, "fusion_lat": 0.0, "is_reserved": 0, "lat": 38.923762333333336, "name": "d5656f433d62e60d6b8c51f6be32dc92", "bike_id": "d5656f433d62e60d6b8c51f6be32dc92", "is_disabled": 0, "fusion_lon": 0.0, "type": "electric_scooter", "lon": -77.031293}, {"rental_uris": {"android": "https://dc.lft.to/lastmile_qr_scan", "ios": "https://dc.lft.to/lastmile_qr_scan"}, "fusion_lat": 0.0, "is_reserved": 0, "lat": 38.904221, "name": "0cf3cd3c7a757fe3b0bd15c6a286feb4", "bike_id": "0cf3cd3c7a757fe3b0bd15c6a286feb4", "is_disabled": 0, "fusion_lon": 0.0, "type": "electric_scooter", "lon": -77.01914433333333}, {"rental_uris": {"android": "https://dc.lft.to/lastmile_qr_scan", "ios": "https://dc.lft.to/lastmile_qr_scan"}, "fusion_lat": 0.0, "is_reserved": 0, "lat": 38.863732166666665, "name": "e5cb18a7ad2ef38e3329c5cf0c384a4f", "bike_id": "e5cb18a7ad2ef38e3329c5cf0c384a4f", "is_disabled": 0, "fusion_lon": 0.0, "type": "electric_scooter", "lon": -76.98675683333333}, {"rental_uris": {"android": "https://dc.lft.to/lastmile_qr_scan", "ios": "https://dc.lft.to/lastmile_qr_scan"}, "fusion_lat": 0.0, "is_reserved": 0, "lat": 38.8878115, "name": "e6c4afaa4d36e5ed206bb0632beb3fa8", "bike_id": "e6c4afaa4d36e5ed206bb0632beb3fa8", "is_disabled": 0, "fusion_lon": 0.0, "type": "electric_bike", "lon": -77.03253866666667}, {"rental_uris": {"android": "https://dc.lft.to/lastmile_qr_scan", "ios": "https://dc.lft.to/lastmile_qr_scan"}, "fusion_lat": 0.0, "is_reserved": 0, "lat": 38.927770833333334, "name": "fdebd596f59b7963a0e2c3556a3cc7d5", "bike_id": "fdebd596f59b7963a0e2c3556a3cc7d5", "is_disabled": 0, "fusion_lon": 0.0, "type": "electric_scooter", "lon": -77.01418916666667}, {"rental_uris": {"android": "https://dc.lft.to/lastmile_qr_scan", "ios": "https://dc.lft.to/lastmile_qr_scan"}, "fusion_lat": 0.0, "is_reserved": 0, "lat": 38.899866, "name": "a43387297188684c748198e42cc20500", "bike_id": "a43387297188684c748198e42cc20500", "is_disabled": 0, "fusion_lon": 0.0, "type": "electric_scooter", "lon": -77.02201483333333}, {"rental_uris": {"android": "https://dc.lft.to/lastmile_qr_scan", "ios": "https://dc.lft.to/lastmile_qr_scan"}, "fusion_lat": 0.0, "is_reserved": 0, "lat": 38.9341255, "name": "5e0274caa5cd6b3a42c1f2dd2e64609f", "bike_id": "5e0274caa5cd6b3a42c1f2dd2e64609f", "is_disabled": 0, "fusion_lon": 0.0, "type": "electric_scooter", "lon": -77.020357}, {"rental_uris": {"android": "https://dc.lft.to/lastmile_qr_scan", "ios": "https://dc.lft.to/lastmile_qr_scan"}, "fusion_lat": 0.0, "is_reserved": 0, "lat": 38.898658166666664, "name": "30066f1b0bc3384b869e5c9acead8f97", "bike_id": "30066f1b0bc3384b869e5c9acead8f97", "is_disabled": 0, "fusion_lon": 0.0, "type": "electric_scooter", "lon": -77.05005033333333}, {"rental_uris": {"android": "https://dc.lft.to/lastmile_qr_scan", "ios": "https://dc.lft.to/lastmile_qr_scan"}, "fusion_lat": 0.0, "is_reserved": 0, "lat": 38.836086333333334, "name": "4d1e17b4a5860c25f556fb6011f91b56", "bike_id": "4d1e17b4a5860c25f556fb6011f91b56", "is_disabled": 0, "fusion_lon": 0.0, "type": "electric_bike", "lon": -77.003826}, {"rental_uris": {"android": "https://dc.lft.to/lastmile_qr_scan", "ios": "https://dc.lft.to/lastmile_qr_scan"}, "fusion_lat": 0.0, "is_reserved": 0, "lat": 38.923274166666666, "name": "3b5b05c6f0b3c8206d7f5bf5bdf4d1d4", "bike_id": "3b5b05c6f0b3c8206d7f5bf5bdf4d1d4", "is_disabled": 0, "fusion_lon": 0.0, "type": "electric_scooter", "lon": -77.0005155}, {"rental_uris": {"android": "https://dc.lft.to/lastmile_qr_scan", "ios": "https://dc.lft.to/lastmile_qr_scan"}, "fusion_lat": 0.0, "is_reserved": 0, "lat": 38.91812766666666, "name": "85f13301a3bc62a8399d93f98601168d", "bike_id": "85f13301a3bc62a8399d93f98601168d", "is_disabled": 0, "fusion_lon": 0.0, "type": "electric_scooter", "lon": -77.0319195}, {"rental_uris": {"android": "https://dc.lft.to/lastmile_qr_scan", "ios": "https://dc.lft.to/lastmile_qr_scan"}, "fusion_lat": 0.0, "is_reserved": 0, "lat": 38.908321, "name": "eedd30e5f9ec7989cdb5a42c9ab00d88", "bike_id": "eedd30e5f9ec7989cdb5a42c9ab00d88", "is_disabled": 0, "fusion_lon": 0.0, "type": "electric_scooter", "lon": -76.996998}, {"rental_uris": {"android": "https://dc.lft.to/lastmile_qr_scan", "ios": "https://dc.lft.to/lastmile_qr_scan"}, "fusion_lat": 0.0, "is_reserved": 0, "lat": 38.933104166666666, "name": "034082de4fb5bf6814f76af2f5bbea5f", "bike_id": "034082de4fb5bf6814f76af2f5bbea5f", "is_disabled": 0, "fusion_lon": 0.0, "type": "electric_scooter", "lon": -77.0290785}, {"rental_uris": {"android": "https://dc.lft.to/lastmile_qr_scan", "ios": "https://dc.lft.to/lastmile_qr_scan"}, "fusion_lat": 0.0, "is_reserved": 0, "lat": 38.84626866666667, "name": "eba915b087e3c88054b69ca7697a41b2", "bike_id": "eba915b087e3c88054b69ca7697a41b2", "is_disabled": 0, "fusion_lon": 0.0, "type": "electric_scooter", "lon": -76.98121166666667}, {"rental_uris": {"android": "https://dc.lft.to/lastmile_qr_scan", "ios": "https://dc.lft.to/lastmile_qr_scan"}, "fusion_lat": 0.0, "is_reserved": 0, "lat": 38.99518033333333, "name": "b5ab3f46559210d03ddd491faa352b15", "bike_id": "b5ab3f46559210d03ddd491faa352b15", "is_disabled": 0, "fusion_lon": 0.0, "type": "electric_bike", "lon": -76.9995415}, {"rental_uris": {"android": "https://dc.lft.to/lastmile_qr_scan", "ios": "https://dc.lft.to/lastmile_qr_scan"}, "fusion_lat": 0.0, "is_reserved": 0, "lat": 38.9037025, "name": "e87dcfc1a665c856a3c4402cb875f6bc", "bike_id": "e87dcfc1a665c856a3c4402cb875f6bc", "is_disabled": 0, "fusion_lon": 0.0, "type": "electric_scooter", "lon": -77.0319635}, {"rental_uris": {"android": "https://dc.lft.to/lastmile_qr_scan", "ios": "https://dc.lft.to/lastmile_qr_scan"}, "fusion_lat": 0.0, "is_reserved": 0, "lat": 38.93456883333333, "name": "344c7de7f7ca75c7e379548e9de96a99", "bike_id": "344c7de7f7ca75c7e379548e9de96a99", "is_disabled": 0, "fusion_lon": 0.0, "type": "electric_scooter", "lon": -77.027328}, {"rental_uris": {"android": "https://dc.lft.to/lastmile_qr_scan", "ios": "https://dc.lft.to/lastmile_qr_scan"}, "fusion_lat": 0.0, "is_reserved": 0, "lat": 38.94165383333333, "name": "635e27f079104f0f54b319583accae81", "bike_id": "635e27f079104f0f54b319583accae81", "is_disabled": 0, "fusion_lon": 0.0, "type": "electric_scooter", "lon": -77.02557233333333}, {"rental_uris": {"android": "https://dc.lft.to/lastmile_qr_scan", "ios": "https://dc.lft.to/lastmile_qr_scan"}, "fusion_lat": 0.0, "is_reserved": 0, "lat": 38.913263, "name": "b09c89096ea38bfccfe13dc9992189d5", "bike_id": "b09c89096ea38bfccfe13dc9992189d5", "is_disabled": 0, "fusion_lon": 0.0, "type": "electric_scooter", "lon": -77.04720216666666}, {"rental_uris": {"android": "https://dc.lft.to/lastmile_qr_scan", "ios": "https://dc.lft.to/lastmile_qr_scan"}, "fusion_lat": 0.0, "is_reserved": 0, "lat": 38.91910983333333, "name": "8271b052bab1fc6070c950b34b805059", "bike_id": "8271b052bab1fc6070c950b34b805059", "is_disabled": 0, "fusion_lon": 0.0, "type": "electric_scooter", "lon": -77.0416705}, {"rental_uris": {"android": "https://dc.lft.to/lastmile_qr_scan", "ios": "https://dc.lft.to/lastmile_qr_scan"}, "fusion_lat": 0.0, "is_reserved": 0, "lat": 38.90332016666667, "name": "261eb54da4e68769da196cab34e5d042", "bike_id": "261eb54da4e68769da196cab34e5d042", "is_disabled": 0, "fusion_lon": 0.0, "type": "electric_bike", "lon": -76.97526833333333}, {"rental_uris": {"android": "https://dc.lft.to/lastmile_qr_scan", "ios": "https://dc.lft.to/lastmile_qr_scan"}, "fusion_lat": 0.0, "is_reserved": 0, "lat": 38.899181166666665, "name": "f5ce14e96e350d0daf8e5476ea11cbf2", "bike_id": "f5ce14e96e350d0daf8e5476ea11cbf2", "is_disabled": 0, "fusion_lon": 0.0, "type": "electric_scooter", "lon": -76.933634}, {"rental_uris": {"android": "https://dc.lft.to/lastmile_qr_scan", "ios": "https://dc.lft.to/lastmile_qr_scan"}, "fusion_lat": 0.0, "is_reserved": 0, "lat": 38.885202, "name": "48c29c197c0e5ae7e0fb6597413a5142", "bike_id": "48c29c197c0e5ae7e0fb6597413a5142", "is_disabled": 0, "fusion_lon": 0.0, "type": "electric_scooter", "lon": -77.0217755}, {"rental_uris": {"android": "https://dc.lft.to/lastmile_qr_scan", "ios": "https://dc.lft.to/lastmile_qr_scan"}, "fusion_lat": 0.0, "is_reserved": 0, "lat": 38.929345833333336, "name": "d0ae8448f2570faee629d2d701551085", "bike_id": "d0ae8448f2570faee629d2d701551085", "is_disabled": 0, "fusion_lon": 0.0, "type": "electric_scooter", "lon": -77.02962866666667}, {"rental_uris": {"android": "https://dc.lft.to/lastmile_qr_scan", "ios": "https://dc.lft.to/lastmile_qr_scan"}, "fusion_lat": 0.0, "is_reserved": 0, "lat": 38.920707166666666, "name": "b14e3500bf56bc6f3f3d0f6a8a69bd9f", "bike_id": "b14e3500bf56bc6f3f3d0f6a8a69bd9f", "is_disabled": 0, "fusion_lon": 0.0, "type": "electric_scooter", "lon": -77.034599}, {"rental_uris": {"android": "https://dc.lft.to/lastmile_qr_scan", "ios": "https://dc.lft.to/lastmile_qr_scan"}, "fusion_lat": 0.0, "is_reserved": 0, "lat": 38.9058305, "name": "92b06c13b3f3acc40dce9cc4af2eab0d", "bike_id": "92b06c13b3f3acc40dce9cc4af2eab0d", "is_disabled": 0, "fusion_lon": 0.0, "type": "electric_scooter", "lon": -77.04232183333333}, {"rental_uris": {"android": "https://dc.lft.to/lastmile_qr_scan", "ios": "https://dc.lft.to/lastmile_qr_scan"}, "fusion_lat": 0.0, "is_reserved": 0, "lat": 38.9042625, "name": "6eb8c405f6d372a571e1de96cbdc6f00", "bike_id": "6eb8c405f6d372a571e1de96cbdc6f00", "is_disabled": 0, "fusion_lon": 0.0, "type": "electric_scooter", "lon": -77.02600566666666}, {"rental_uris": {"android": "https://dc.lft.to/lastmile_qr_scan", "ios": "https://dc.lft.to/lastmile_qr_scan"}, "fusion_lat": 0.0, "is_reserved": 0, "lat": 38.909108833333335, "name": "3111bea2996373104c98848d1ee2b07e", "bike_id": "3111bea2996373104c98848d1ee2b07e", "is_disabled": 0, "fusion_lon": 0.0, "type": "electric_scooter", "lon": -77.03098483333333}, {"rental_uris": {"android": "https://dc.lft.to/lastmile_qr_scan", "ios": "https://dc.lft.to/lastmile_qr_scan"}, "fusion_lat": 0.0, "is_reserved": 0, "lat": 38.95466283333333, "name": "2177feec2211987bda57b3edc8aa1a55", "bike_id": "2177feec2211987bda57b3edc8aa1a55", "is_disabled": 0, "fusion_lon": 0.0, "type": "electric_scooter", "lon": -77.0776595}, {"rental_uris": {"android": "https://dc.lft.to/lastmile_qr_scan", "ios": "https://dc.lft.to/lastmile_qr_scan"}, "fusion_lat": 0.0, "is_reserved": 0, "lat": 38.878798, "name": "9e93536e85d2738babf5d25cb0cdf04b", "bike_id": "9e93536e85d2738babf5d25cb0cdf04b", "is_disabled": 0, "fusion_lon": 0.0, "type": "electric_scooter", "lon": -77.00580533333333}, {"rental_uris": {"android": "https://dc.lft.to/lastmile_qr_scan", "ios": "https://dc.lft.to/lastmile_qr_scan"}, "fusion_lat": 0.0, "is_reserved": 0, "lat": 38.912548666666666, "name": "15d1c021442fdf25033d6d1c3e0c2979", "bike_id": "15d1c021442fdf25033d6d1c3e0c2979", "is_disabled": 0, "fusion_lon": 0.0, "type": "electric_scooter", "lon": -77.03495116666667}, {"rental_uris": {"android": "https://dc.lft.to/lastmile_qr_scan", "ios": "https://dc.lft.to/lastmile_qr_scan"}, "fusion_lat": 0.0, "is_reserved": 0, "lat": 38.913391833333336, "name": "9ffec76580420e712164aca396a73a1c", "bike_id": "9ffec76580420e712164aca396a73a1c", "is_disabled": 0, "fusion_lon": 0.0, "type": "electric_scooter", "lon": -77.031963}, {"rental_uris": {"android": "https://dc.lft.to/lastmile_qr_scan", "ios": "https://dc.lft.to/lastmile_qr_scan"}, "fusion_lat": 0.0, "is_reserved": 0, "lat": 38.917787833333335, "name": "d94ef4ab0b986858697f9c4dbf457968", "bike_id": "d94ef4ab0b986858697f9c4dbf457968", "is_disabled": 0, "fusion_lon": 0.0, "type": "electric_scooter", "lon": -77.0345265}, {"rental_uris": {"android": "https://dc.lft.to/lastmile_qr_scan", "ios": "https://dc.lft.to/lastmile_qr_scan"}, "fusion_lat": 0.0, "is_reserved": 0, "lat": 38.8941205, "name": "e1f10a2c526d31eec8e472307809b149", "bike_id": "e1f10a2c526d31eec8e472307809b149", "is_disabled": 0, "fusion_lon": 0.0, "type": "electric_scooter", "lon": -77.0232905}, {"rental_uris": {"android": "https://dc.lft.to/lastmile_qr_scan", "ios": "https://dc.lft.to/lastmile_qr_scan"}, "fusion_lat": 0.0, "is_reserved": 0, "lat": 38.901602833333335, "name": "4d17eb4d4ebf3e90ee4434350de1c95c", "bike_id": "4d17eb4d4ebf3e90ee4434350de1c95c", "is_disabled": 0, "fusion_lon": 0.0, "type": "electric_scooter", "lon": -77.02586}, {"rental_uris": {"android": "https://dc.lft.to/lastmile_qr_scan", "ios": "https://dc.lft.to/lastmile_qr_scan"}, "fusion_lat": 0.0, "is_reserved": 0, "lat": 38.8860185, "name": "f44bef988b95ae7509cf33a42087082d", "bike_id": "f44bef988b95ae7509cf33a42087082d", "is_disabled": 0, "fusion_lon": 0.0, "type": "electric_scooter", "lon": -77.004037}, {"rental_uris": {"android": "https://dc.lft.to/lastmile_qr_scan", "ios": "https://dc.lft.to/lastmile_qr_scan"}, "fusion_lat": 0.0, "is_reserved": 0, "lat": 38.91619883333333, "name": "b73bae699fc897b4395bd936dbf995af", "bike_id": "b73bae699fc897b4395bd936dbf995af", "is_disabled": 0, "fusion_lon": 0.0, "type": "electric_scooter", "lon": -77.0020875}, {"rental_uris": {"android": "https://dc.lft.to/lastmile_qr_scan", "ios": "https://dc.lft.to/lastmile_qr_scan"}, "fusion_lat": 0.0, "is_reserved": 0, "lat": 38.898755, "name": "0362260dba81366328440e95d0aecf5b", "bike_id": "0362260dba81366328440e95d0aecf5b", "is_disabled": 0, "fusion_lon": 0.0, "type": "electric_scooter", "lon": -77.0466695}, {"rental_uris": {"android": "https://dc.lft.to/lastmile_qr_scan", "ios": "https://dc.lft.to/lastmile_qr_scan"}, "fusion_lat": 0.0, "is_reserved": 0, "lat": 38.93117083333333, "name": "6145b3ee973e13e634d1d83bbfd72cd7", "bike_id": "6145b3ee973e13e634d1d83bbfd72cd7", "is_disabled": 0, "fusion_lon": 0.0, "type": "electric_bike", "lon": -77.0271255}, {"rental_uris": {"android": "https://dc.lft.to/lastmile_qr_scan", "ios": "https://dc.lft.to/lastmile_qr_scan"}, "fusion_lat": 0.0, "is_reserved": 0, "lat": 38.90717733333334, "name": "5c6b27b7f7cd3a890ee8057adf1df06a", "bike_id": "5c6b27b7f7cd3a890ee8057adf1df06a", "is_disabled": 0, "fusion_lon": 0.0, "type": "electric_scooter", "lon": -77.02794633333333}, {"rental_uris": {"android": "https://dc.lft.to/lastmile_qr_scan", "ios": "https://dc.lft.to/lastmile_qr_scan"}, "fusion_lat": 0.0, "is_reserved": 0, "lat": 38.878473666666665, "name": "786ef1190cf554583e834c8d0f09195c", "bike_id": "786ef1190cf554583e834c8d0f09195c", "is_disabled": 0, "fusion_lon": 0.0, "type": "electric_scooter", "lon": -76.9829135}, {"rental_uris": {"android": "https://dc.lft.to/lastmile_qr_scan", "ios": "https://dc.lft.to/lastmile_qr_scan"}, "fusion_lat": 0.0, "is_reserved": 0, "lat": 38.902597166666666, "name": "ce13cb09b398b379aad684717572e64a", "bike_id": "ce13cb09b398b379aad684717572e64a", "is_disabled": 0, "fusion_lon": 0.0, "type": "electric_scooter", "lon": -77.01743966666666}, {"rental_uris": {"android": "https://dc.lft.to/lastmile_qr_scan", "ios": "https://dc.lft.to/lastmile_qr_scan"}, "fusion_lat": 0.0, "is_reserved": 0, "lat": 38.90699633333333, "name": "f188a8cfbe6ccaa6bab1c97a6065b989", "bike_id": "f188a8cfbe6ccaa6bab1c97a6065b989", "is_disabled": 0, "fusion_lon": 0.0, "type": "electric_scooter", "lon": -77.011127}, {"rental_uris": {"android": "https://dc.lft.to/lastmile_qr_scan", "ios": "https://dc.lft.to/lastmile_qr_scan"}, "fusion_lat": 0.0, "is_reserved": 0, "lat": 38.893618833333335, "name": "ab830131d956735b284a4929130c7e2b", "bike_id": "ab830131d956735b284a4929130c7e2b", "is_disabled": 0, "fusion_lon": 0.0, "type": "electric_scooter", "lon": -76.9864185}, {"rental_uris": {"android": "https://dc.lft.to/lastmile_qr_scan", "ios": "https://dc.lft.to/lastmile_qr_scan"}, "fusion_lat": 0.0, "is_reserved": 0, "lat": 38.92028666666667, "name": "c897390fd2544d94bec3f3390770d689", "bike_id": "c897390fd2544d94bec3f3390770d689", "is_disabled": 0, "fusion_lon": 0.0, "type": "electric_scooter", "lon": -77.01030616666667}, {"rental_uris": {"android": "https://dc.lft.to/lastmile_qr_scan", "ios": "https://dc.lft.to/lastmile_qr_scan"}, "fusion_lat": 0.0, "is_reserved": 0, "lat": 38.899298, "name": "559d3a75019489411f22ac258058984e", "bike_id": "559d3a75019489411f22ac258058984e", "is_disabled": 0, "fusion_lon": 0.0, "type": "electric_scooter", "lon": -77.0267375}, {"rental_uris": {"android": "https://dc.lft.to/lastmile_qr_scan", "ios": "https://dc.lft.to/lastmile_qr_scan"}, "fusion_lat": 0.0, "is_reserved": 0, "lat": 38.99680566666667, "name": "bf6a0dc910ece93b23df250699f47c80", "bike_id": "bf6a0dc910ece93b23df250699f47c80", "is_disabled": 0, "fusion_lon": 0.0, "type": "electric_bike", "lon": -77.0379125}, {"rental_uris": {"android": "https://dc.lft.to/lastmile_qr_scan", "ios": "https://dc.lft.to/lastmile_qr_scan"}, "fusion_lat": 0.0, "is_reserved": 0, "lat": 38.92611466666666, "name": "34e121559d6f25b8ea76832cea650bf2", "bike_id": "34e121559d6f25b8ea76832cea650bf2", "is_disabled": 0, "fusion_lon": 0.0, "type": "electric_scooter", "lon": -77.02229366666667}, {"rental_uris": {"android": "https://dc.lft.to/lastmile_qr_scan", "ios": "https://dc.lft.to/lastmile_qr_scan"}, "fusion_lat": 0.0, "is_reserved": 0, "lat": 38.921685, "name": "be6cd2dd972029953effc4d817e3e2cb", "bike_id": "be6cd2dd972029953effc4d817e3e2cb", "is_disabled": 0, "fusion_lon": 0.0, "type": "electric_scooter", "lon": -77.01864083333334}, {"rental_uris": {"android": "https://dc.lft.to/lastmile_qr_scan", "ios": "https://dc.lft.to/lastmile_qr_scan"}, "fusion_lat": 0.0, "is_reserved": 0, "lat": 38.887135666666666, "name": "5688aaea23cc4d8d33b3691e83fdd2c1", "bike_id": "5688aaea23cc4d8d33b3691e83fdd2c1", "is_disabled": 0, "fusion_lon": 0.0, "type": "electric_scooter", "lon": -77.02185566666667}, {"rental_uris": {"android": "https://dc.lft.to/lastmile_qr_scan", "ios": "https://dc.lft.to/lastmile_qr_scan"}, "fusion_lat": 0.0, "is_reserved": 0, "lat": 38.897460833333334, "name": "d672db557afb6df3484d200024b2de05", "bike_id": "d672db557afb6df3484d200024b2de05", "is_disabled": 0, "fusion_lon": 0.0, "type": "electric_scooter", "lon": -77.00780466666667}, {"rental_uris": {"android": "https://dc.lft.to/lastmile_qr_scan", "ios": "https://dc.lft.to/lastmile_qr_scan"}, "fusion_lat": 0.0, "is_reserved": 0, "lat": 38.93382316666667, "name": "5290181c0ea2d5086de6df0caa6a53c9", "bike_id": "5290181c0ea2d5086de6df0caa6a53c9", "is_disabled": 0, "fusion_lon": 0.0, "type": "electric_scooter", "lon": -77.03254183333334}, {"rental_uris": {"android": "https://dc.lft.to/lastmile_qr_scan", "ios": "https://dc.lft.to/lastmile_qr_scan"}, "fusion_lat": 0.0, "is_reserved": 0, "lat": 38.918064333333334, "name": "ef1cd6331ec401b7b5d0698fb8145a6d", "bike_id": "ef1cd6331ec401b7b5d0698fb8145a6d", "is_disabled": 0, "fusion_lon": 0.0, "type": "electric_scooter", "lon": -77.03155616666666}, {"rental_uris": {"android": "https://dc.lft.to/lastmile_qr_scan", "ios": "https://dc.lft.to/lastmile_qr_scan"}, "fusion_lat": 0.0, "is_reserved": 0, "lat": 38.92337083333334, "name": "1d44dc7a1adca59a6001b0157be34e19", "bike_id": "1d44dc7a1adca59a6001b0157be34e19", "is_disabled": 0, "fusion_lon": 0.0, "type": "electric_scooter", "lon": -77.036149}, {"rental_uris": {"android": "https://dc.lft.to/lastmile_qr_scan", "ios": "https://dc.lft.to/lastmile_qr_scan"}, "fusion_lat": 0.0, "is_reserved": 0, "lat": 38.901023, "name": "8a2eac664c609d5dc4a0e3c56d415b70", "bike_id": "8a2eac664c609d5dc4a0e3c56d415b70", "is_disabled": 0, "fusion_lon": 0.0, "type": "electric_scooter", "lon": -77.0197605}, {"rental_uris": {"android": "https://dc.lft.to/lastmile_qr_scan", "ios": "https://dc.lft.to/lastmile_qr_scan"}, "fusion_lat": 0.0, "is_reserved": 0, "lat": 38.90449616666667, "name": "445366c8b39a8ec06d3fdd8a78178b52", "bike_id": "445366c8b39a8ec06d3fdd8a78178b52", "is_disabled": 0, "fusion_lon": 0.0, "type": "electric_scooter", "lon": -77.06008083333333}, {"rental_uris": {"android": "https://dc.lft.to/lastmile_qr_scan", "ios": "https://dc.lft.to/lastmile_qr_scan"}, "fusion_lat": 0.0, "is_reserved": 0, "lat": 38.94310383333333, "name": "6a997f9f6fae106522d4985eb60eb573", "bike_id": "6a997f9f6fae106522d4985eb60eb573", "is_disabled": 0, "fusion_lon": 0.0, "type": "electric_scooter", "lon": -77.0217945}, {"rental_uris": {"android": "https://dc.lft.to/lastmile_qr_scan", "ios": "https://dc.lft.to/lastmile_qr_scan"}, "fusion_lat": 0.0, "is_reserved": 0, "lat": 38.90127533333333, "name": "85ff9b18abf780495ab7638b3de0fd7d", "bike_id": "85ff9b18abf780495ab7638b3de0fd7d", "is_disabled": 0, "fusion_lon": 0.0, "type": "electric_scooter", "lon": -77.00314916666666}, {"rental_uris": {"android": "https://dc.lft.to/lastmile_qr_scan", "ios": "https://dc.lft.to/lastmile_qr_scan"}, "fusion_lat": 0.0, "is_reserved": 0, "lat": 38.925444166666665, "name": "3e43953c3d9c4e31391354dc622e16c0", "bike_id": "3e43953c3d9c4e31391354dc622e16c0", "is_disabled": 0, "fusion_lon": 0.0, "type": "electric_scooter", "lon": -77.040566}, {"rental_uris": {"android": "https://dc.lft.to/lastmile_qr_scan", "ios": "https://dc.lft.to/lastmile_qr_scan"}, "fusion_lat": 0.0, "is_reserved": 0, "lat": 38.97502933333333, "name": "3659ed98547256a8f7a5cdfd5b03f3ae", "bike_id": "3659ed98547256a8f7a5cdfd5b03f3ae", "is_disabled": 0, "fusion_lon": 0.0, "type": "electric_scooter", "lon": -77.01693733333333}, {"rental_uris": {"android": "https://dc.lft.to/lastmile_qr_scan", "ios": "https://dc.lft.to/lastmile_qr_scan"}, "fusion_lat": 0.0, "is_reserved": 0, "lat": 38.87916033333333, "name": "2078590541c21e72372f2a9bbd920bb8", "bike_id": "2078590541c21e72372f2a9bbd920bb8", "is_disabled": 0, "fusion_lon": 0.0, "type": "electric_scooter", "lon": -77.02153516666667}, {"rental_uris": {"android": "https://dc.lft.to/lastmile_qr_scan", "ios": "https://dc.lft.to/lastmile_qr_scan"}, "fusion_lat": 0.0, "is_reserved": 0, "lat": 38.89223616666666, "name": "c2ab1a552dd8e05c90c7d082b259aa03", "bike_id": "c2ab1a552dd8e05c90c7d082b259aa03", "is_disabled": 0, "fusion_lon": 0.0, "type": "electric_scooter", "lon": -77.045072}, {"rental_uris": {"android": "https://dc.lft.to/lastmile_qr_scan", "ios": "https://dc.lft.to/lastmile_qr_scan"}, "fusion_lat": 0.0, "is_reserved": 0, "lat": 38.913265333333335, "name": "6e1de0f62a96cd3a4f31593356b14dc3", "bike_id": "6e1de0f62a96cd3a4f31593356b14dc3", "is_disabled": 0, "fusion_lon": 0.0, "type": "electric_scooter", "lon": -77.0150195}, {"rental_uris": {"android": "https://dc.lft.to/lastmile_qr_scan", "ios": "https://dc.lft.to/lastmile_qr_scan"}, "fusion_lat": 0.0, "is_reserved": 0, "lat": 38.91415633333333, "name": "9c2014faad8adcf69d6754069dd9362c", "bike_id": "9c2014faad8adcf69d6754069dd9362c", "is_disabled": 0, "fusion_lon": 0.0, "type": "electric_scooter", "lon": -77.03175233333333}, {"rental_uris": {"android": "https://dc.lft.to/lastmile_qr_scan", "ios": "https://dc.lft.to/lastmile_qr_scan"}, "fusion_lat": 0.0, "is_reserved": 0, "lat": 38.9019885, "name": "e6216074e4fdc4ffc155bd0fffc595f5", "bike_id": "e6216074e4fdc4ffc155bd0fffc595f5", "is_disabled": 0, "fusion_lon": 0.0, "type": "electric_scooter", "lon": -77.02155816666667}, {"rental_uris": {"android": "https://dc.lft.to/lastmile_qr_scan", "ios": "https://dc.lft.to/lastmile_qr_scan"}, "fusion_lat": 0.0, "is_reserved": 0, "lat": 38.898999, "name": "3a1e4fc442a4311da37f681ab93fdd08", "bike_id": "3a1e4fc442a4311da37f681ab93fdd08", "is_disabled": 0, "fusion_lon": 0.0, "type": "electric_scooter", "lon": -76.98003583333333}, {"rental_uris": {"android": "https://dc.lft.to/lastmile_qr_scan", "ios": "https://dc.lft.to/lastmile_qr_scan"}, "fusion_lat": 0.0, "is_reserved": 0, "lat": 38.9437955, "name": "d91237def9f2df82317253aecdfa2b47", "bike_id": "d91237def9f2df82317253aecdfa2b47", "is_disabled": 0, "fusion_lon": 0.0, "type": "electric_bike", "lon": -77.02349283333334}, {"rental_uris": {"android": "https://dc.lft.to/lastmile_qr_scan", "ios": "https://dc.lft.to/lastmile_qr_scan"}, "fusion_lat": 0.0, "is_reserved": 0, "lat": 38.919186, "name": "54f9864faadf3dc37494782840d93d17", "bike_id": "54f9864faadf3dc37494782840d93d17", "is_disabled": 0, "fusion_lon": 0.0, "type": "electric_scooter", "lon": -77.072798}, {"rental_uris": {"android": "https://dc.lft.to/lastmile_qr_scan", "ios": "https://dc.lft.to/lastmile_qr_scan"}, "fusion_lat": 0.0, "is_reserved": 0, "lat": 38.91103733333333, "name": "00c9dc0b1db70d3074ca1ac3ca8a1289", "bike_id": "00c9dc0b1db70d3074ca1ac3ca8a1289", "is_disabled": 0, "fusion_lon": 0.0, "type": "electric_scooter", "lon": -77.021847}, {"rental_uris": {"android": "https://dc.lft.to/lastmile_qr_scan", "ios": "https://dc.lft.to/lastmile_qr_scan"}, "fusion_lat": 0.0, "is_reserved": 0, "lat": 38.92149933333334, "name": "4fd8903def4220c2b10b7918cfc203fa", "bike_id": "4fd8903def4220c2b10b7918cfc203fa", "is_disabled": 0, "fusion_lon": 0.0, "type": "electric_scooter", "lon": -77.020931}, {"rental_uris": {"android": "https://dc.lft.to/lastmile_qr_scan", "ios": "https://dc.lft.to/lastmile_qr_scan"}, "fusion_lat": 0.0, "is_reserved": 0, "lat": 38.90721583333333, "name": "b411c5fd0d97fd8008ffa846b9a50ecf", "bike_id": "b411c5fd0d97fd8008ffa846b9a50ecf", "is_disabled": 0, "fusion_lon": 0.0, "type": "electric_scooter", "lon": -77.02535766666666}, {"rental_uris": {"android": "https://dc.lft.to/lastmile_qr_scan", "ios": "https://dc.lft.to/lastmile_qr_scan"}, "fusion_lat": 0.0, "is_reserved": 0, "lat": 38.91447733333333, "name": "26608164d1703197a69ee359a7e68e0c", "bike_id": "26608164d1703197a69ee359a7e68e0c", "is_disabled": 0, "fusion_lon": 0.0, "type": "electric_bike", "lon": -76.97275833333333}, {"rental_uris": {"android": "https://dc.lft.to/lastmile_qr_scan", "ios": "https://dc.lft.to/lastmile_qr_scan"}, "fusion_lat": 0.0, "is_reserved": 0, "lat": 38.922689, "name": "2a0ae668cde86a97bb2c38d74abfa3e6", "bike_id": "2a0ae668cde86a97bb2c38d74abfa3e6", "is_disabled": 0, "fusion_lon": 0.0, "type": "electric_scooter", "lon": -76.99759133333333}, {"rental_uris": {"android": "https://dc.lft.to/lastmile_qr_scan", "ios": "https://dc.lft.to/lastmile_qr_scan"}, "fusion_lat": 0.0, "is_reserved": 0, "lat": 38.915464166666666, "name": "59b33bddc2c3908ee6d7b69eb1719c89", "bike_id": "59b33bddc2c3908ee6d7b69eb1719c89", "is_disabled": 0, "fusion_lon": 0.0, "type": "electric_scooter", "lon": -77.0220285}, {"rental_uris": {"android": "https://dc.lft.to/lastmile_qr_scan", "ios": "https://dc.lft.to/lastmile_qr_scan"}, "fusion_lat": 0.0, "is_reserved": 0, "lat": 38.91651316666667, "name": "2fd699431f782bba402268fc3c55d8af", "bike_id": "2fd699431f782bba402268fc3c55d8af", "is_disabled": 0, "fusion_lon": 0.0, "type": "electric_scooter", "lon": -77.0103095}, {"rental_uris": {"android": "https://dc.lft.to/lastmile_qr_scan", "ios": "https://dc.lft.to/lastmile_qr_scan"}, "fusion_lat": 0.0, "is_reserved": 0, "lat": 38.90570783333333, "name": "dcb4aed975d648bc6427f84b08212ce3", "bike_id": "dcb4aed975d648bc6427f84b08212ce3", "is_disabled": 0, "fusion_lon": 0.0, "type": "electric_scooter", "lon": -77.0059335}, {"rental_uris": {"android": "https://dc.lft.to/lastmile_qr_scan", "ios": "https://dc.lft.to/lastmile_qr_scan"}, "fusion_lat": 0.0, "is_reserved": 0, "lat": 38.9006515, "name": "8f97d6e2af999c710a9f2cc9cbde075b", "bike_id": "8f97d6e2af999c710a9f2cc9cbde075b", "is_disabled": 0, "fusion_lon": 0.0, "type": "electric_scooter", "lon": -77.0216895}, {"rental_uris": {"android": "https://dc.lft.to/lastmile_qr_scan", "ios": "https://dc.lft.to/lastmile_qr_scan"}, "fusion_lat": 0.0, "is_reserved": 0, "lat": 38.89298483333334, "name": "45ff3534c598471e280ff092f550ff1b", "bike_id": "45ff3534c598471e280ff092f550ff1b", "is_disabled": 0, "fusion_lon": 0.0, "type": "electric_scooter", "lon": -76.9299705}, {"rental_uris": {"android": "https://dc.lft.to/lastmile_qr_scan", "ios": "https://dc.lft.to/lastmile_qr_scan"}, "fusion_lat": 0.0, "is_reserved": 0, "lat": 38.90781616666666, "name": "f0fabb634a16a617c676deaf310a484d", "bike_id": "f0fabb634a16a617c676deaf310a484d", "is_disabled": 0, "fusion_lon": 0.0, "type": "electric_scooter", "lon": -77.030592}, {"rental_uris": {"android": "https://dc.lft.to/lastmile_qr_scan", "ios": "https://dc.lft.to/lastmile_qr_scan"}, "fusion_lat": 0.0, "is_reserved": 0, "lat": 38.915843, "name": "481ed1ddb5dc19331d5c169487360433", "bike_id": "481ed1ddb5dc19331d5c169487360433", "is_disabled": 0, "fusion_lon": 0.0, "type": "electric_scooter", "lon": -77.01232716666667}, {"rental_uris": {"android": "https://dc.lft.to/lastmile_qr_scan", "ios": "https://dc.lft.to/lastmile_qr_scan"}, "fusion_lat": 0.0, "is_reserved": 0, "lat": 38.89992633333333, "name": "42d50a25a2d6fc6864b21d2adc4fc92c", "bike_id": "42d50a25a2d6fc6864b21d2adc4fc92c", "is_disabled": 0, "fusion_lon": 0.0, "type": "electric_scooter", "lon": -77.00061583333333}, {"rental_uris": {"android": "https://dc.lft.to/lastmile_qr_scan", "ios": "https://dc.lft.to/lastmile_qr_scan"}, "fusion_lat": 0.0, "is_reserved": 0, "lat": 38.9083415, "name": "8c5b9714c647c3d914ed9d5b170a3c1e", "bike_id": "8c5b9714c647c3d914ed9d5b170a3c1e", "is_disabled": 0, "fusion_lon": 0.0, "type": "electric_scooter", "lon": -76.99696516666667}, {"rental_uris": {"android": "https://dc.lft.to/lastmile_qr_scan", "ios": "https://dc.lft.to/lastmile_qr_scan"}, "fusion_lat": 0.0, "is_reserved": 0, "lat": 38.91171116666666, "name": "d4a39c5519cc8e89f93f4a5159ef28ed", "bike_id": "d4a39c5519cc8e89f93f4a5159ef28ed", "is_disabled": 0, "fusion_lon": 0.0, "type": "electric_scooter", "lon": -77.004467}, {"rental_uris": {"android": "https://dc.lft.to/lastmile_qr_scan", "ios": "https://dc.lft.to/lastmile_qr_scan"}, "fusion_lat": 0.0, "is_reserved": 0, "lat": 38.909053166666666, "name": "66cf7471b09795918d287f6441c3ab01", "bike_id": "66cf7471b09795918d287f6441c3ab01", "is_disabled": 0, "fusion_lon": 0.0, "type": "electric_scooter", "lon": -76.99119516666667}, {"rental_uris": {"android": "https://dc.lft.to/lastmile_qr_scan", "ios": "https://dc.lft.to/lastmile_qr_scan"}, "fusion_lat": 0.0, "is_reserved": 0, "lat": 38.90246166666667, "name": "c447f83666f65ffbd6d6f068570cde41", "bike_id": "c447f83666f65ffbd6d6f068570cde41", "is_disabled": 0, "fusion_lon": 0.0, "type": "electric_scooter", "lon": -77.001865}, {"rental_uris": {"android": "https://dc.lft.to/lastmile_qr_scan", "ios": "https://dc.lft.to/lastmile_qr_scan"}, "fusion_lat": 0.0, "is_reserved": 0, "lat": 38.896194666666666, "name": "b3fadf14ec2d3c62cfcd1c1a180766db", "bike_id": "b3fadf14ec2d3c62cfcd1c1a180766db", "is_disabled": 0, "fusion_lon": 0.0, "type": "electric_scooter", "lon": -76.9768445}, {"rental_uris": {"android": "https://dc.lft.to/lastmile_qr_scan", "ios": "https://dc.lft.to/lastmile_qr_scan"}, "fusion_lat": 0.0, "is_reserved": 0, "lat": 38.91701366666667, "name": "333ccb2cdb01baf4255b4b5ea6a5be0a", "bike_id": "333ccb2cdb01baf4255b4b5ea6a5be0a", "is_disabled": 0, "fusion_lon": 0.0, "type": "electric_scooter", "lon": -77.0231295}, {"rental_uris": {"android": "https://dc.lft.to/lastmile_qr_scan", "ios": "https://dc.lft.to/lastmile_qr_scan"}, "fusion_lat": 0.0, "is_reserved": 0, "lat": 38.926119166666666, "name": "30b2342440f28afc85c3c41f95d0b55d", "bike_id": "30b2342440f28afc85c3c41f95d0b55d", "is_disabled": 0, "fusion_lon": 0.0, "type": "electric_scooter", "lon": -77.02162333333334}, {"rental_uris": {"android": "https://dc.lft.to/lastmile_qr_scan", "ios": "https://dc.lft.to/lastmile_qr_scan"}, "fusion_lat": 0.0, "is_reserved": 0, "lat": 38.8838945, "name": "1ef3878bd99a0a54f54f57f83e5fc8c7", "bike_id": "1ef3878bd99a0a54f54f57f83e5fc8c7", "is_disabled": 0, "fusion_lon": 0.0, "type": "electric_scooter", "lon": -76.930472}, {"rental_uris": {"android": "https://dc.lft.to/lastmile_qr_scan", "ios": "https://dc.lft.to/lastmile_qr_scan"}, "fusion_lat": 0.0, "is_reserved": 0, "lat": 38.900116833333335, "name": "64a172b40d59054d94abea05d333b157", "bike_id": "64a172b40d59054d94abea05d333b157", "is_disabled": 0, "fusion_lon": 0.0, "type": "electric_scooter", "lon": -76.93026483333334}, {"rental_uris": {"android": "https://dc.lft.to/lastmile_qr_scan", "ios": "https://dc.lft.to/lastmile_qr_scan"}, "fusion_lat": 0.0, "is_reserved": 0, "lat": 38.87922316666667, "name": "7fef85bd0aa31661a1bba777a65c0f90", "bike_id": "7fef85bd0aa31661a1bba777a65c0f90", "is_disabled": 0, "fusion_lon": 0.0, "type": "electric_scooter", "lon": -77.02152666666667}, {"rental_uris": {"android": "https://dc.lft.to/lastmile_qr_scan", "ios": "https://dc.lft.to/lastmile_qr_scan"}, "fusion_lat": 0.0, "is_reserved": 0, "lat": 38.878404, "name": "a1cbae600d602d4a2b5c0870c2e60702", "bike_id": "a1cbae600d602d4a2b5c0870c2e60702", "is_disabled": 0, "fusion_lon": 0.0, "type": "electric_scooter", "lon": -77.0225515}, {"rental_uris": {"android": "https://dc.lft.to/lastmile_qr_scan", "ios": "https://dc.lft.to/lastmile_qr_scan"}, "fusion_lat": 0.0, "is_reserved": 0, "lat": 38.89364116666667, "name": "a22fa1ca7fd16fc635c32d1ab9f96729", "bike_id": "a22fa1ca7fd16fc635c32d1ab9f96729", "is_disabled": 0, "fusion_lon": 0.0, "type": "electric_scooter", "lon": -77.00332}, {"rental_uris": {"android": "https://dc.lft.to/lastmile_qr_scan", "ios": "https://dc.lft.to/lastmile_qr_scan"}, "fusion_lat": 0.0, "is_reserved": 0, "lat": 38.919948166666664, "name": "fde99a4c4f577a5ef73b7dc6d2f3f06e", "bike_id": "fde99a4c4f577a5ef73b7dc6d2f3f06e", "is_disabled": 0, "fusion_lon": 0.0, "type": "electric_scooter", "lon": -77.03218833333334}, {"rental_uris": {"android": "https://dc.lft.to/lastmile_qr_scan", "ios": "https://dc.lft.to/lastmile_qr_scan"}, "fusion_lat": 0.0, "is_reserved": 0, "lat": 38.90772483333333, "name": "f3459bae423d10b55e90fb0f05f28ef3", "bike_id": "f3459bae423d10b55e90fb0f05f28ef3", "is_disabled": 0, "fusion_lon": 0.0, "type": "electric_scooter", "lon": -77.03764116666666}, {"rental_uris": {"android": "https://dc.lft.to/lastmile_qr_scan", "ios": "https://dc.lft.to/lastmile_qr_scan"}, "fusion_lat": 0.0, "is_reserved": 0, "lat": 38.924788166666666, "name": "9f2a56eaf53fd32140cf76f68be85485", "bike_id": "9f2a56eaf53fd32140cf76f68be85485", "is_disabled": 0, "fusion_lon": 0.0, "type": "electric_scooter", "lon": -77.02219516666666}, {"rental_uris": {"android": "https://dc.lft.to/lastmile_qr_scan", "ios": "https://dc.lft.to/lastmile_qr_scan"}, "fusion_lat": 0.0, "is_reserved": 0, "lat": 38.91292816666667, "name": "21e50b7bc134674e1b185db237608a5b", "bike_id": "21e50b7bc134674e1b185db237608a5b", "is_disabled": 0, "fusion_lon": 0.0, "type": "electric_scooter", "lon": -76.985434}, {"rental_uris": {"android": "https://dc.lft.to/lastmile_qr_scan", "ios": "https://dc.lft.to/lastmile_qr_scan"}, "fusion_lat": 0.0, "is_reserved": 0, "lat": 38.952118666666664, "name": "2fc7d967cc8641b44d78ec74aad6bc70", "bike_id": "2fc7d967cc8641b44d78ec74aad6bc70", "is_disabled": 0, "fusion_lon": 0.0, "type": "electric_scooter", "lon": -77.06964383333333}, {"rental_uris": {"android": "https://dc.lft.to/lastmile_qr_scan", "ios": "https://dc.lft.to/lastmile_qr_scan"}, "fusion_lat": 0.0, "is_reserved": 0, "lat": 38.896027833333335, "name": "602311fe8d64892f35e8978a44614d33", "bike_id": "602311fe8d64892f35e8978a44614d33", "is_disabled": 0, "fusion_lon": 0.0, "type": "electric_scooter", "lon": -77.0220135}, {"rental_uris": {"android": "https://dc.lft.to/lastmile_qr_scan", "ios": "https://dc.lft.to/lastmile_qr_scan"}, "fusion_lat": 0.0, "is_reserved": 0, "lat": 38.881972, "name": "5660bc190f82713b086d6f9e0565fd37", "bike_id": "5660bc190f82713b086d6f9e0565fd37", "is_disabled": 0, "fusion_lon": 0.0, "type": "electric_scooter", "lon": -76.98921383333334}, {"rental_uris": {"android": "https://dc.lft.to/lastmile_qr_scan", "ios": "https://dc.lft.to/lastmile_qr_scan"}, "fusion_lat": 0.0, "is_reserved": 0, "lat": 38.923653333333334, "name": "5cbbec132c5401984f684119278191e8", "bike_id": "5cbbec132c5401984f684119278191e8", "is_disabled": 0, "fusion_lon": 0.0, "type": "electric_scooter", "lon": -77.05030116666667}, {"rental_uris": {"android": "https://dc.lft.to/lastmile_qr_scan", "ios": "https://dc.lft.to/lastmile_qr_scan"}, "fusion_lat": 0.0, "is_reserved": 0, "lat": 38.899563, "name": "8699b2950eb5fe51514ca713111084dc", "bike_id": "8699b2950eb5fe51514ca713111084dc", "is_disabled": 0, "fusion_lon": 0.0, "type": "electric_scooter", "lon": -77.02595833333334}, {"rental_uris": {"android": "https://dc.lft.to/lastmile_qr_scan", "ios": "https://dc.lft.to/lastmile_qr_scan"},