{"data": {"bikes": [{"rental_uris": {"ios": "https://dc.lft.to/lastmile_qr_scan", "android": "https://dc.lft.to/lastmile_qr_scan"}, "lon": -77.030333, "type": "electric_scooter", "fusion_lat": 0.0, "lat": 38.89720066666667, "name": "293b4aef312ce8259c95c0b93f11009c", "fusion_lon": 0.0, "bike_id": "293b4aef312ce8259c95c0b93f11009c", "is_disabled": 0, "is_reserved": 0}, {"rental_uris": {"ios": "https://dc.lft.to/lastmile_qr_scan", "android": "https://dc.lft.to/lastmile_qr_scan"}, "lon": -77.00716066666666, "type": "electric_scooter", "fusion_lat": 0.0, "lat": 38.88489366666667, "name": "4c3d086f356062b81e9e76ce0d935d95", "fusion_lon": 0.0, "bike_id": "4c3d086f356062b81e9e76ce0d935d95", "is_disabled": 0, "is_reserved": 0}, {"rental_uris": {"ios": "https://dc.lft.to/lastmile_qr_scan", "android": "https://dc.lft.to/lastmile_qr_scan"}, "lon": -77.01272866666666, "type": "electric_bike", "fusion_lat": 0.0, "lat": 38.88123316666667, "name": "698a4290cb914824474901f1b69bd1e9", "fusion_lon": 0.0, "bike_id": "698a4290cb914824474901f1b69bd1e9", "is_disabled": 0, "is_reserved": 0}, {"rental_uris": {"ios": "https://dc.lft.to/lastmile_qr_scan", "android": "https://dc.lft.to/lastmile_qr_scan"}, "lon": -77.02726783333334, "type": "electric_scooter", "fusion_lat": 0.0, "lat": 38.934021, "name": "d3f3f286d26e246bce15fd72f4647736", "fusion_lon": 0.0, "bike_id": "d3f3f286d26e246bce15fd72f4647736", "is_disabled": 0, "is_reserved": 0}, {"rental_uris": {"ios": "https://dc.lft.to/lastmile_qr_scan", "android": "https://dc.lft.to/lastmile_qr_scan"}, "lon": -77.00131283333333, "type": "electric_scooter", "fusion_lat": 0.0, "lat": 38.904122, "name": "3f1b441af8073b3977744af74640d5f6", "fusion_lon": 0.0, "bike_id": "3f1b441af8073b3977744af74640d5f6", "is_disabled": 0, "is_reserved": 0}, {"rental_uris": {"ios": "https://dc.lft.to/lastmile_qr_scan", "android": "https://dc.lft.to/lastmile_qr_scan"}, "lon": -77.02214366666666, "type": "electric_scooter", "fusion_lat": 0.0, "lat": 38.90577666666667, "name": "18f48815933d2f25fcb266f6a2cbf5de", "fusion_lon": 0.0, "bike_id": "18f48815933d2f25fcb266f6a2cbf5de", "is_disabled": 0, "is_reserved": 0}, {"rental_uris": {"ios": "https://dc.lft.to/lastmile_qr_scan", "android": "https://dc.lft.to/lastmile_qr_scan"}, "lon": -76.92722, "type": "electric_scooter", "fusion_lat": 0.0, "lat": 38.880399833333335, "name": "acd0a4f6ba3da80d4d6c5097920ac312", "fusion_lon": 0.0, "bike_id": "acd0a4f6ba3da80d4d6c5097920ac312", "is_disabled": 0, "is_reserved": 0}, {"rental_uris": {"ios": "https://dc.lft.to/lastmile_qr_scan", "android": "https://dc.lft.to/lastmile_qr_scan"}, "lon": -77.02973366666667, "type": "electric_scooter", "fusion_lat": 0.0, "lat": 38.96226266666667, "name": "91a0b13120a002267dcfac1e35a57219", "fusion_lon": 0.0, "bike_id": "91a0b13120a002267dcfac1e35a57219", "is_disabled": 0, "is_reserved": 0}, {"rental_uris": {"ios": "https://dc.lft.to/lastmile_qr_scan", "android": "https://dc.lft.to/lastmile_qr_scan"}, "lon": -76.94663633333333, "type": "electric_scooter", "fusion_lat": 0.0, "lat": 38.897993166666666, "name": "ce1ca08f2f017096b66787655053f26b", "fusion_lon": 0.0, "bike_id": "ce1ca08f2f017096b66787655053f26b", "is_disabled": 0, "is_reserved": 0}, {"rental_uris": {"ios": "https://dc.lft.to/lastmile_qr_scan", "android": "https://dc.lft.to/lastmile_qr_scan"}, "lon": -77.026382, "type": "electric_scooter", "fusion_lat": 0.0, "lat": 38.8814765, "name": "25da098717a21edb271173931c0233be", "fusion_lon": 0.0, "bike_id": "25da098717a21edb271173931c0233be", "is_disabled": 0, "is_reserved": 0}, {"rental_uris": {"ios": "https://dc.lft.to/lastmile_qr_scan", "android": "https://dc.lft.to/lastmile_qr_scan"}, "lon": -77.10334933333333, "type": "electric_bike", "fusion_lat": 0.0, "lat": 38.85230033333333, "name": "8d63112059d8ea8b844b8a44d2c28f08", "fusion_lon": 0.0, "bike_id": "8d63112059d8ea8b844b8a44d2c28f08", "is_disabled": 0, "is_reserved": 0}, {"rental_uris": {"ios": "https://dc.lft.to/lastmile_qr_scan", "android": "https://dc.lft.to/lastmile_qr_scan"}, "lon": -77.19906516666667, "type": "electric_bike", "fusion_lat": 0.0, "lat": 38.875278, "name": "f8a0130920a0884c7d68599abc4cfe91", "fusion_lon": 0.0, "bike_id": "f8a0130920a0884c7d68599abc4cfe91", "is_disabled": 0, "is_reserved": 0}, {"rental_uris": {"ios": "https://dc.lft.to/lastmile_qr_scan", "android": "https://dc.lft.to/lastmile_qr_scan"}, "lon": -77.02161233333334, "type": "electric_scooter", "fusion_lat": 0.0, "lat": 38.88743633333333, "name": "70693a0458e72b1d8bc7adbf5bebe743", "fusion_lon": 0.0, "bike_id": "70693a0458e72b1d8bc7adbf5bebe743", "is_disabled": 0, "is_reserved": 0}, {"rental_uris": {"ios": "https://dc.lft.to/lastmile_qr_scan", "android": "https://dc.lft.to/lastmile_qr_scan"}, "lon": -77.0574345, "type": "electric_scooter", "fusion_lat": 0.0, "lat": 38.9339965, "name": "092324add5c8c5b5c6720b60e0651de7", "fusion_lon": 0.0, "bike_id": "092324add5c8c5b5c6720b60e0651de7", "is_disabled": 0, "is_reserved": 0}, {"rental_uris": {"ios": "https://dc.lft.to/lastmile_qr_scan", "android": "https://dc.lft.to/lastmile_qr_scan"}, "lon": -77.048025, "type": "electric_scooter", "fusion_lat": 0.0, "lat": 38.916376666666665, "name": "931cc9b1521990155cf6c9f13e56cf54", "fusion_lon": 0.0, "bike_id": "931cc9b1521990155cf6c9f13e56cf54", "is_disabled": 0, "is_reserved": 0}, {"rental_uris": {"ios": "https://dc.lft.to/lastmile_qr_scan", "android": "https://dc.lft.to/lastmile_qr_scan"}, "lon": -77.0472855, "type": "electric_scooter", "fusion_lat": 0.0, "lat": 38.884364166666664, "name": "0477fd818adcf28fd2cb1275255464ca", "fusion_lon": 0.0, "bike_id": "0477fd818adcf28fd2cb1275255464ca", "is_disabled": 0, "is_reserved": 0}, {"rental_uris": {"ios": "https://dc.lft.to/lastmile_qr_scan", "android": "https://dc.lft.to/lastmile_qr_scan"}, "lon": -76.93365583333333, "type": "electric_scooter", "fusion_lat": 0.0, "lat": 38.89916483333333, "name": "f904c842a7631c8069b9d6fe57f33a60", "fusion_lon": 0.0, "bike_id": "f904c842a7631c8069b9d6fe57f33a60", "is_disabled": 0, "is_reserved": 0}, {"rental_uris": {"ios": "https://dc.lft.to/lastmile_qr_scan", "android": "https://dc.lft.to/lastmile_qr_scan"}, "lon": -77.02092233333333, "type": "electric_scooter", "fusion_lat": 0.0, "lat": 38.879173, "name": "02865af072cd9befc46757bd58e8cde8", "fusion_lon": 0.0, "bike_id": "02865af072cd9befc46757bd58e8cde8", "is_disabled": 0, "is_reserved": 0}, {"rental_uris": {"ios": "https://dc.lft.to/lastmile_qr_scan", "android": "https://dc.lft.to/lastmile_qr_scan"}, "lon": -77.04704366666667, "type": "electric_scooter", "fusion_lat": 0.0, "lat": 38.92240183333333, "name": "61efc2105f27b5708e31b25ee52a0f1c", "fusion_lon": 0.0, "bike_id": "61efc2105f27b5708e31b25ee52a0f1c", "is_disabled": 0, "is_reserved": 0}, {"rental_uris": {"ios": "https://dc.lft.to/lastmile_qr_scan", "android": "https://dc.lft.to/lastmile_qr_scan"}, "lon": -77.00857716666667, "type": "electric_bike", "fusion_lat": 0.0, "lat": 38.82732016666667, "name": "166a3904a45323d3122b59d51c355f99", "fusion_lon": 0.0, "bike_id": "166a3904a45323d3122b59d51c355f99", "is_disabled": 0, "is_reserved": 0}, {"rental_uris": {"ios": "https://dc.lft.to/lastmile_qr_scan", "android": "https://dc.lft.to/lastmile_qr_scan"}, "lon": -77.02819416666667, "type": "electric_scooter", "fusion_lat": 0.0, "lat": 38.886581, "name": "4c97864dd9aa0611b84b35833542b57f", "fusion_lon": 0.0, "bike_id": "4c97864dd9aa0611b84b35833542b57f", "is_disabled": 0, "is_reserved": 0}, {"rental_uris": {"ios": "https://dc.lft.to/lastmile_qr_scan", "android": "https://dc.lft.to/lastmile_qr_scan"}, "lon": -76.9900165, "type": "electric_scooter", "fusion_lat": 0.0, "lat": 38.86504566666667, "name": "9f02e0948172023ee083b3a7b0f33c61", "fusion_lon": 0.0, "bike_id": "9f02e0948172023ee083b3a7b0f33c61", "is_disabled": 0, "is_reserved": 0}, {"rental_uris": {"ios": "https://dc.lft.to/lastmile_qr_scan", "android": "https://dc.lft.to/lastmile_qr_scan"}, "lon": -77.02402633333334, "type": "electric_scooter", "fusion_lat": 0.0, "lat": 38.8950925, "name": "26ddd568c1bcb05223e7bf6bcee910b5", "fusion_lon": 0.0, "bike_id": "26ddd568c1bcb05223e7bf6bcee910b5", "is_disabled": 0, "is_reserved": 0}, {"rental_uris": {"ios": "https://dc.lft.to/lastmile_qr_scan", "android": "https://dc.lft.to/lastmile_qr_scan"}, "lon": -76.948882, "type": "electric_scooter", "fusion_lat": 0.0, "lat": 38.89527566666667, "name": "98d87eaf123f96536f1afd09be22c5f1", "fusion_lon": 0.0, "bike_id": "98d87eaf123f96536f1afd09be22c5f1", "is_disabled": 0, "is_reserved": 0}, {"rental_uris": {"ios": "https://dc.lft.to/lastmile_qr_scan", "android": "https://dc.lft.to/lastmile_qr_scan"}, "lon": -77.021479, "type": "electric_scooter", "fusion_lat": 0.0, "lat": 38.926019, "name": "708c3dae866a71c0b9afd3cbe8ead10b", "fusion_lon": 0.0, "bike_id": "708c3dae866a71c0b9afd3cbe8ead10b", "is_disabled": 0, "is_reserved": 0}, {"rental_uris": {"ios": "https://dc.lft.to/lastmile_qr_scan", "android": "https://dc.lft.to/lastmile_qr_scan"}, "lon": -77.0706355, "type": "electric_scooter", "fusion_lat": 0.0, "lat": 38.952186833333336, "name": "0a5d712a1cb878662473e3f69ea05b9b", "fusion_lon": 0.0, "bike_id": "0a5d712a1cb878662473e3f69ea05b9b", "is_disabled": 0, "is_reserved": 0}, {"rental_uris": {"ios": "https://dc.lft.to/lastmile_qr_scan", "android": "https://dc.lft.to/lastmile_qr_scan"}, "lon": -77.05287783333333, "type": "electric_scooter", "fusion_lat": 0.0, "lat": 38.918989, "name": "c2cc51aed3b22a684dd1b956cae0b211", "fusion_lon": 0.0, "bike_id": "c2cc51aed3b22a684dd1b956cae0b211", "is_disabled": 0, "is_reserved": 0}, {"rental_uris": {"ios": "https://dc.lft.to/lastmile_qr_scan", "android": "https://dc.lft.to/lastmile_qr_scan"}, "lon": -77.0543675, "type": "electric_scooter", "fusion_lat": 0.0, "lat": 38.92323616666667, "name": "44ae1d1c1cc4fc0acab731c8ece6cad4", "fusion_lon": 0.0, "bike_id": "44ae1d1c1cc4fc0acab731c8ece6cad4", "is_disabled": 0, "is_reserved": 0}, {"rental_uris": {"ios": "https://dc.lft.to/lastmile_qr_scan", "android": "https://dc.lft.to/lastmile_qr_scan"}, "lon": -77.04192633333334, "type": "electric_scooter", "fusion_lat": 0.0, "lat": 38.903433166666666, "name": "be6759565390a04d16928e1de6c736d3", "fusion_lon": 0.0, "bike_id": "be6759565390a04d16928e1de6c736d3", "is_disabled": 0, "is_reserved": 0}, {"rental_uris": {"ios": "https://dc.lft.to/lastmile_qr_scan", "android": "https://dc.lft.to/lastmile_qr_scan"}, "lon": -77.033977, "type": "electric_scooter", "fusion_lat": 0.0, "lat": 38.922676, "name": "b30fcad0ca7aa2353b973f9e7a16d034", "fusion_lon": 0.0, "bike_id": "b30fcad0ca7aa2353b973f9e7a16d034", "is_disabled": 0, "is_reserved": 0}, {"rental_uris": {"ios": "https://dc.lft.to/lastmile_qr_scan", "android": "https://dc.lft.to/lastmile_qr_scan"}, "lon": -77.02432916666666, "type": "electric_scooter", "fusion_lat": 0.0, "lat": 38.92654016666667, "name": "31356a8773a39c87f0c5dc3f142b3dcb", "fusion_lon": 0.0, "bike_id": "31356a8773a39c87f0c5dc3f142b3dcb", "is_disabled": 0, "is_reserved": 0}, {"rental_uris": {"ios": "https://dc.lft.to/lastmile_qr_scan", "android": "https://dc.lft.to/lastmile_qr_scan"}, "lon": -76.98703716666667, "type": "electric_scooter", "fusion_lat": 0.0, "lat": 38.867026833333334, "name": "e594b0a7c7315ea06907d36e8b91cd35", "fusion_lon": 0.0, "bike_id": "e594b0a7c7315ea06907d36e8b91cd35", "is_disabled": 0, "is_reserved": 0}, {"rental_uris": {"ios": "https://dc.lft.to/lastmile_qr_scan", "android": "https://dc.lft.to/lastmile_qr_scan"}, "lon": -76.93170133333334, "type": "electric_scooter", "fusion_lat": 0.0, "lat": 38.89886083333333, "name": "09e631b99589bf9499658c1c9f4752b0", "fusion_lon": 0.0, "bike_id": "09e631b99589bf9499658c1c9f4752b0", "is_disabled": 0, "is_reserved": 0}, {"rental_uris": {"ios": "https://dc.lft.to/lastmile_qr_scan", "android": "https://dc.lft.to/lastmile_qr_scan"}, "lon": -77.01509916666667, "type": "electric_scooter", "fusion_lat": 0.0, "lat": 38.917703833333334, "name": "e27d72b1e223b4b9872cc9b5c6f894fe", "fusion_lon": 0.0, "bike_id": "e27d72b1e223b4b9872cc9b5c6f894fe", "is_disabled": 0, "is_reserved": 0}, {"rental_uris": {"ios": "https://dc.lft.to/lastmile_qr_scan", "android": "https://dc.lft.to/lastmile_qr_scan"}, "lon": -77.02351333333333, "type": "electric_scooter", "fusion_lat": 0.0, "lat": 38.94521183333333, "name": "d59e2fd165b6d29f61977f25a48ad3d9", "fusion_lon": 0.0, "bike_id": "d59e2fd165b6d29f61977f25a48ad3d9", "is_disabled": 0, "is_reserved": 0}, {"rental_uris": {"ios": "https://dc.lft.to/lastmile_qr_scan", "android": "https://dc.lft.to/lastmile_qr_scan"}, "lon": -77.02390233333334, "type": "electric_scooter", "fusion_lat": 0.0, "lat": 38.89914383333333, "name": "4540de01c3aa0df42c7efe6b33c6db38", "fusion_lon": 0.0, "bike_id": "4540de01c3aa0df42c7efe6b33c6db38", "is_disabled": 0, "is_reserved": 0}, {"rental_uris": {"ios": "https://dc.lft.to/lastmile_qr_scan", "android": "https://dc.lft.to/lastmile_qr_scan"}, "lon": -77.02969833333333, "type": "electric_scooter", "fusion_lat": 0.0, "lat": 38.93610183333333, "name": "283966390ebab3342125416294002f33", "fusion_lon": 0.0, "bike_id": "283966390ebab3342125416294002f33", "is_disabled": 0, "is_reserved": 0}, {"rental_uris": {"ios": "https://dc.lft.to/lastmile_qr_scan", "android": "https://dc.lft.to/lastmile_qr_scan"}, "lon": -77.0321205, "type": "electric_scooter", "fusion_lat": 0.0, "lat": 38.918179333333335, "name": "bf8b2e582dd5b26064b49ad451ea4864", "fusion_lon": 0.0, "bike_id": "bf8b2e582dd5b26064b49ad451ea4864", "is_disabled": 0, "is_reserved": 0}, {"rental_uris": {"ios": "https://dc.lft.to/lastmile_qr_scan", "android": "https://dc.lft.to/lastmile_qr_scan"}, "lon": -77.05601316666667, "type": "electric_scooter", "fusion_lat": 0.0, "lat": 38.93696116666667, "name": "3626b4ac248550c453575e4bb082687c", "fusion_lon": 0.0, "bike_id": "3626b4ac248550c453575e4bb082687c", "is_disabled": 0, "is_reserved": 0}, {"rental_uris": {"ios": "https://dc.lft.to/lastmile_qr_scan", "android": "https://dc.lft.to/lastmile_qr_scan"}, "lon": -77.036578, "type": "electric_scooter", "fusion_lat": 0.0, "lat": 38.9212195, "name": "a0fc60257a9c4ac863777ce832b48a92", "fusion_lon": 0.0, "bike_id": "a0fc60257a9c4ac863777ce832b48a92", "is_disabled": 0, "is_reserved": 0}, {"rental_uris": {"ios": "https://dc.lft.to/lastmile_qr_scan", "android": "https://dc.lft.to/lastmile_qr_scan"}, "lon": -77.03176233333333, "type": "electric_scooter", "fusion_lat": 0.0, "lat": 38.921127, "name": "17ebd36ef0a985f9a1ae1a3cc67de238", "fusion_lon": 0.0, "bike_id": "17ebd36ef0a985f9a1ae1a3cc67de238", "is_disabled": 0, "is_reserved": 0}, {"rental_uris": {"ios": "https://dc.lft.to/lastmile_qr_scan", "android": "https://dc.lft.to/lastmile_qr_scan"}, "lon": -77.00312183333334, "type": "electric_scooter", "fusion_lat": 0.0, "lat": 38.9089385, "name": "01bcf36a25d62a4a17d74afcd82a7a23", "fusion_lon": 0.0, "bike_id": "01bcf36a25d62a4a17d74afcd82a7a23", "is_disabled": 0, "is_reserved": 0}, {"rental_uris": {"ios": "https://dc.lft.to/lastmile_qr_scan", "android": "https://dc.lft.to/lastmile_qr_scan"}, "lon": -77.04998766666667, "type": "electric_scooter", "fusion_lat": 0.0, "lat": 38.892308166666666, "name": "4048c15b92efa4041aed74d176bae535", "fusion_lon": 0.0, "bike_id": "4048c15b92efa4041aed74d176bae535", "is_disabled": 0, "is_reserved": 0}, {"rental_uris": {"ios": "https://dc.lft.to/lastmile_qr_scan", "android": "https://dc.lft.to/lastmile_qr_scan"}, "lon": -76.99517033333333, "type": "electric_scooter", "fusion_lat": 0.0, "lat": 38.8626, "name": "a010f07701d733ce1910c6fef239a3fd", "fusion_lon": 0.0, "bike_id": "a010f07701d733ce1910c6fef239a3fd", "is_disabled": 0, "is_reserved": 0}, {"rental_uris": {"ios": "https://dc.lft.to/lastmile_qr_scan", "android": "https://dc.lft.to/lastmile_qr_scan"}, "lon": -77.03317333333334, "type": "electric_scooter", "fusion_lat": 0.0, "lat": 38.90005416666666, "name": "44f92fbf0bb5fd5f848ec88894027585", "fusion_lon": 0.0, "bike_id": "44f92fbf0bb5fd5f848ec88894027585", "is_disabled": 0, "is_reserved": 0}, {"rental_uris": {"ios": "https://dc.lft.to/lastmile_qr_scan", "android": "https://dc.lft.to/lastmile_qr_scan"}, "lon": -76.9766395, "type": "electric_scooter", "fusion_lat": 0.0, "lat": 38.89859366666666, "name": "d3c89e702b8554f21f15f23957254555", "fusion_lon": 0.0, "bike_id": "d3c89e702b8554f21f15f23957254555", "is_disabled": 0, "is_reserved": 0}, {"rental_uris": {"ios": "https://dc.lft.to/lastmile_qr_scan", "android": "https://dc.lft.to/lastmile_qr_scan"}, "lon": -77.033265, "type": "electric_scooter", "fusion_lat": 0.0, "lat": 38.908424833333335, "name": "7e6ef7e5ebafed803d94e7707a15914a", "fusion_lon": 0.0, "bike_id": "7e6ef7e5ebafed803d94e7707a15914a", "is_disabled": 0, "is_reserved": 0}, {"rental_uris": {"ios": "https://dc.lft.to/lastmile_qr_scan", "android": "https://dc.lft.to/lastmile_qr_scan"}, "lon": -77.017605, "type": "electric_scooter", "fusion_lat": 0.0, "lat": 38.88314, "name": "343f7e9aea6411eaadee2a1cf8f951f0", "fusion_lon": 0.0, "bike_id": "343f7e9aea6411eaadee2a1cf8f951f0", "is_disabled": 0, "is_reserved": 0}, {"rental_uris": {"ios": "https://dc.lft.to/lastmile_qr_scan", "android": "https://dc.lft.to/lastmile_qr_scan"}, "lon": -77.016547, "type": "electric_scooter", "fusion_lat": 0.0, "lat": 38.883125166666666, "name": "efc723dca68d37ea6f2776b5a456003f", "fusion_lon": 0.0, "bike_id": "efc723dca68d37ea6f2776b5a456003f", "is_disabled": 0, "is_reserved": 0}, {"rental_uris": {"ios": "https://dc.lft.to/lastmile_qr_scan", "android": "https://dc.lft.to/lastmile_qr_scan"}, "lon": -77.00349283333334, "type": "electric_scooter", "fusion_lat": 0.0, "lat": 38.897601333333334, "name": "d9af05759530f22eac62d2238ee0f604", "fusion_lon": 0.0, "bike_id": "d9af05759530f22eac62d2238ee0f604", "is_disabled": 0, "is_reserved": 0}, {"rental_uris": {"ios": "https://dc.lft.to/lastmile_qr_scan", "android": "https://dc.lft.to/lastmile_qr_scan"}, "lon": -76.99200433333333, "type": "electric_scooter", "fusion_lat": 0.0, "lat": 38.846792, "name": "0e7c35de8913f3a3f2c87b4b7a6bdf33", "fusion_lon": 0.0, "bike_id": "0e7c35de8913f3a3f2c87b4b7a6bdf33", "is_disabled": 0, "is_reserved": 0}, {"rental_uris": {"ios": "https://dc.lft.to/lastmile_qr_scan", "android": "https://dc.lft.to/lastmile_qr_scan"}, "lon": -76.98651433333333, "type": "electric_scooter", "fusion_lat": 0.0, "lat": 38.858079333333336, "name": "4bcc010d9c9d0d92de10267b1a130d99", "fusion_lon": 0.0, "bike_id": "4bcc010d9c9d0d92de10267b1a130d99", "is_disabled": 0, "is_reserved": 0}, {"rental_uris": {"ios": "https://dc.lft.to/lastmile_qr_scan", "android": "https://dc.lft.to/lastmile_qr_scan"}, "lon": -77.031987, "type": "electric_scooter", "fusion_lat": 0.0, "lat": 38.91605783333333, "name": "dc7d14b205946e21b1f09478af994f26", "fusion_lon": 0.0, "bike_id": "dc7d14b205946e21b1f09478af994f26", "is_disabled": 0, "is_reserved": 0}, {"rental_uris": {"ios": "https://dc.lft.to/lastmile_qr_scan", "android": "https://dc.lft.to/lastmile_qr_scan"}, "lon": -77.02478716666667, "type": "electric_scooter", "fusion_lat": 0.0, "lat": 38.938184666666665, "name": "328071187a2281e7ed2e868fd568b7c4", "fusion_lon": 0.0, "bike_id": "328071187a2281e7ed2e868fd568b7c4", "is_disabled": 0, "is_reserved": 0}, {"rental_uris": {"ios": "https://dc.lft.to/lastmile_qr_scan", "android": "https://dc.lft.to/lastmile_qr_scan"}, "lon": -77.10022916666667, "type": "electric_bike", "fusion_lat": 0.0, "lat": 38.990632166666664, "name": "02b1edcfda41a962ddb81b5b739fae13", "fusion_lon": 0.0, "bike_id": "02b1edcfda41a962ddb81b5b739fae13", "is_disabled": 0, "is_reserved": 0}, {"rental_uris": {"ios": "https://dc.lft.to/lastmile_qr_scan", "android": "https://dc.lft.to/lastmile_qr_scan"}, "lon": -76.98088266666667, "type": "electric_scooter", "fusion_lat": 0.0, "lat": 38.8572335, "name": "4c9e73458f97033e9a68e023f71d1edd", "fusion_lon": 0.0, "bike_id": "4c9e73458f97033e9a68e023f71d1edd", "is_disabled": 0, "is_reserved": 0}, {"rental_uris": {"ios": "https://dc.lft.to/lastmile_qr_scan", "android": "https://dc.lft.to/lastmile_qr_scan"}, "lon": -76.98754866666667, "type": "electric_scooter", "fusion_lat": 0.0, "lat": 38.845005, "name": "b9344bcb43723c9c524004acffa39464", "fusion_lon": 0.0, "bike_id": "b9344bcb43723c9c524004acffa39464", "is_disabled": 0, "is_reserved": 0}, {"rental_uris": {"ios": "https://dc.lft.to/lastmile_qr_scan", "android": "https://dc.lft.to/lastmile_qr_scan"}, "lon": -77.022347, "type": "electric_scooter", "fusion_lat": 0.0, "lat": 38.96214116666667, "name": "29c9a05a5d88d6d590aabbbcfc31dd3b", "fusion_lon": 0.0, "bike_id": "29c9a05a5d88d6d590aabbbcfc31dd3b", "is_disabled": 0, "is_reserved": 0}, {"rental_uris": {"ios": "https://dc.lft.to/lastmile_qr_scan", "android": "https://dc.lft.to/lastmile_qr_scan"}, "lon": -77.0238955, "type": "electric_scooter", "fusion_lat": 0.0, "lat": 38.90712716666667, "name": "d735a324637583fbe5878870a67770ce", "fusion_lon": 0.0, "bike_id": "d735a324637583fbe5878870a67770ce", "is_disabled": 0, "is_reserved": 0}, {"rental_uris": {"ios": "https://dc.lft.to/lastmile_qr_scan", "android": "https://dc.lft.to/lastmile_qr_scan"}, "lon": -77.02359016666666, "type": "electric_scooter", "fusion_lat": 0.0, "lat": 38.925014166666664, "name": "60284377b736f0d8eec819b5af421fb6", "fusion_lon": 0.0, "bike_id": "60284377b736f0d8eec819b5af421fb6", "is_disabled": 0, "is_reserved": 0}, {"rental_uris": {"ios": "https://dc.lft.to/lastmile_qr_scan", "android": "https://dc.lft.to/lastmile_qr_scan"}, "lon": -76.94887233333333, "type": "electric_scooter", "fusion_lat": 0.0, "lat": 38.89528966666666, "name": "cb1ad525aebfec32bc252897ae8fce1d", "fusion_lon": 0.0, "bike_id": "cb1ad525aebfec32bc252897ae8fce1d", "is_disabled": 0, "is_reserved": 0}, {"rental_uris": {"ios": "https://dc.lft.to/lastmile_qr_scan", "android": "https://dc.lft.to/lastmile_qr_scan"}, "lon": -77.005396, "type": "electric_bike", "fusion_lat": 0.0, "lat": 38.88017516666667, "name": "2f5b44bd2f160930a837a41ea20e242e", "fusion_lon": 0.0, "bike_id": "2f5b44bd2f160930a837a41ea20e242e", "is_disabled": 0, "is_reserved": 0}, {"rental_uris": {"ios": "https://dc.lft.to/lastmile_qr_scan", "android": "https://dc.lft.to/lastmile_qr_scan"}, "lon": -77.036789, "type": "electric_scooter", "fusion_lat": 0.0, "lat": 38.939243833333336, "name": "825cade90c2396768318fa93a1637c42", "fusion_lon": 0.0, "bike_id": "825cade90c2396768318fa93a1637c42", "is_disabled": 0, "is_reserved": 0}, {"rental_uris": {"ios": "https://dc.lft.to/lastmile_qr_scan", "android": "https://dc.lft.to/lastmile_qr_scan"}, "lon": -77.01297333333333, "type": "electric_scooter", "fusion_lat": 0.0, "lat": 38.92123183333333, "name": "66a024e0bbb32afd5874ad986f984e2b", "fusion_lon": 0.0, "bike_id": "66a024e0bbb32afd5874ad986f984e2b", "is_disabled": 0, "is_reserved": 0}, {"rental_uris": {"ios": "https://dc.lft.to/lastmile_qr_scan", "android": "https://dc.lft.to/lastmile_qr_scan"}, "lon": -76.90955983333333, "type": "electric_bike", "fusion_lat": 0.0, "lat": 38.85424316666667, "name": "016769d809c82bf9a0b475f9cd41e173", "fusion_lon": 0.0, "bike_id": "016769d809c82bf9a0b475f9cd41e173", "is_disabled": 0, "is_reserved": 0}, {"rental_uris": {"ios": "https://dc.lft.to/lastmile_qr_scan", "android": "https://dc.lft.to/lastmile_qr_scan"}, "lon": -77.031994, "type": "electric_scooter", "fusion_lat": 0.0, "lat": 38.9070255, "name": "00c3cd09a2b18e285777d43558e96ef6", "fusion_lon": 0.0, "bike_id": "00c3cd09a2b18e285777d43558e96ef6", "is_disabled": 0, "is_reserved": 0}, {"rental_uris": {"ios": "https://dc.lft.to/lastmile_qr_scan", "android": "https://dc.lft.to/lastmile_qr_scan"}, "lon": -77.00100766666667, "type": "electric_scooter", "fusion_lat": 0.0, "lat": 38.894295166666666, "name": "54107cffabb1bd7346d4f0565548270f", "fusion_lon": 0.0, "bike_id": "54107cffabb1bd7346d4f0565548270f", "is_disabled": 0, "is_reserved": 0}, {"rental_uris": {"ios": "https://dc.lft.to/lastmile_qr_scan", "android": "https://dc.lft.to/lastmile_qr_scan"}, "lon": -77.02440533333333, "type": "electric_scooter", "fusion_lat": 0.0, "lat": 38.93744816666667, "name": "9b60c3d8d30e56edaf44aff5afc4d423", "fusion_lon": 0.0, "bike_id": "9b60c3d8d30e56edaf44aff5afc4d423", "is_disabled": 0, "is_reserved": 0}, {"rental_uris": {"ios": "https://dc.lft.to/lastmile_qr_scan", "android": "https://dc.lft.to/lastmile_qr_scan"}, "lon": -76.98179133333333, "type": "electric_scooter", "fusion_lat": 0.0, "lat": 38.895773166666665, "name": "6d75b4933bb4dc9a0d3075858a9f4199", "fusion_lon": 0.0, "bike_id": "6d75b4933bb4dc9a0d3075858a9f4199", "is_disabled": 0, "is_reserved": 0}, {"rental_uris": {"ios": "https://dc.lft.to/lastmile_qr_scan", "android": "https://dc.lft.to/lastmile_qr_scan"}, "lon": -77.02408433333333, "type": "electric_scooter", "fusion_lat": 0.0, "lat": 38.93499333333333, "name": "632b5bf977477c7fcaacfd07f2c15e61", "fusion_lon": 0.0, "bike_id": "632b5bf977477c7fcaacfd07f2c15e61", "is_disabled": 0, "is_reserved": 0}, {"rental_uris": {"ios": "https://dc.lft.to/lastmile_qr_scan", "android": "https://dc.lft.to/lastmile_qr_scan"}, "lon": -77.03849983333333, "type": "electric_scooter", "fusion_lat": 0.0, "lat": 38.91662183333333, "name": "827eab786c8e06bb16c6a9bc0cc4227b", "fusion_lon": 0.0, "bike_id": "827eab786c8e06bb16c6a9bc0cc4227b", "is_disabled": 0, "is_reserved": 0}, {"rental_uris": {"ios": "https://dc.lft.to/lastmile_qr_scan", "android": "https://dc.lft.to/lastmile_qr_scan"}, "lon": -77.0143495, "type": "electric_scooter", "fusion_lat": 0.0, "lat": 38.929904666666665, "name": "5be4bbecbb2f9273f5728e0e905eb66a", "fusion_lon": 0.0, "bike_id": "5be4bbecbb2f9273f5728e0e905eb66a", "is_disabled": 0, "is_reserved": 0}, {"rental_uris": {"ios": "https://dc.lft.to/lastmile_qr_scan", "android": "https://dc.lft.to/lastmile_qr_scan"}, "lon": -77.04634933333334, "type": "electric_scooter", "fusion_lat": 0.0, "lat": 38.90115316666667, "name": "eedc4f4a3fa9d76de9b62b4c8937120c", "fusion_lon": 0.0, "bike_id": "eedc4f4a3fa9d76de9b62b4c8937120c", "is_disabled": 0, "is_reserved": 0}, {"rental_uris": {"ios": "https://dc.lft.to/lastmile_qr_scan", "android": "https://dc.lft.to/lastmile_qr_scan"}, "lon": -77.05338666666667, "type": "electric_scooter", "fusion_lat": 0.0, "lat": 38.9035505, "name": "785359fb57b93aba2e3535b1275d9f69", "fusion_lon": 0.0, "bike_id": "785359fb57b93aba2e3535b1275d9f69", "is_disabled": 0, "is_reserved": 0}, {"rental_uris": {"ios": "https://dc.lft.to/lastmile_qr_scan", "android": "https://dc.lft.to/lastmile_qr_scan"}, "lon": -77.02888916666667, "type": "electric_scooter", "fusion_lat": 0.0, "lat": 38.90307516666667, "name": "21b7d4456a17315bc093be00b9ff265f", "fusion_lon": 0.0, "bike_id": "21b7d4456a17315bc093be00b9ff265f", "is_disabled": 0, "is_reserved": 0}, {"rental_uris": {"ios": "https://dc.lft.to/lastmile_qr_scan", "android": "https://dc.lft.to/lastmile_qr_scan"}, "lon": -76.92981716666667, "type": "electric_bike", "fusion_lat": 0.0, "lat": 38.887973833333334, "name": "fb4b09a8d8386871e5bfe45ab279aeed", "fusion_lon": 0.0, "bike_id": "fb4b09a8d8386871e5bfe45ab279aeed", "is_disabled": 0, "is_reserved": 0}, {"rental_uris": {"ios": "https://dc.lft.to/lastmile_qr_scan", "android": "https://dc.lft.to/lastmile_qr_scan"}, "lon": -76.93956583333333, "type": "electric_scooter", "fusion_lat": 0.0, "lat": 38.894112, "name": "5a35ae4d5f5c7797e8bc3372448dbce6", "fusion_lon": 0.0, "bike_id": "5a35ae4d5f5c7797e8bc3372448dbce6", "is_disabled": 0, "is_reserved": 0}, {"rental_uris": {"ios": "https://dc.lft.to/lastmile_qr_scan", "android": "https://dc.lft.to/lastmile_qr_scan"}, "lon": -77.00611933333333, "type": "electric_scooter", "fusion_lat": 0.0, "lat": 38.874645, "name": "741db1ae8438db5994ba40ea4c82dc09", "fusion_lon": 0.0, "bike_id": "741db1ae8438db5994ba40ea4c82dc09", "is_disabled": 0, "is_reserved": 0}, {"rental_uris": {"ios": "https://dc.lft.to/lastmile_qr_scan", "android": "https://dc.lft.to/lastmile_qr_scan"}, "lon": -77.01825483333333, "type": "electric_scooter", "fusion_lat": 0.0, "lat": 38.9007105, "name": "977310f58f3f9e2864c55a1e09bd1751", "fusion_lon": 0.0, "bike_id": "977310f58f3f9e2864c55a1e09bd1751", "is_disabled": 0, "is_reserved": 0}, {"rental_uris": {"ios": "https://dc.lft.to/lastmile_qr_scan", "android": "https://dc.lft.to/lastmile_qr_scan"}, "lon": -77.0071835, "type": "electric_scooter", "fusion_lat": 0.0, "lat": 38.91339266666667, "name": "1bceb8f0740374a05ab3fc989025d47c", "fusion_lon": 0.0, "bike_id": "1bceb8f0740374a05ab3fc989025d47c", "is_disabled": 0, "is_reserved": 0}, {"rental_uris": {"ios": "https://dc.lft.to/lastmile_qr_scan", "android": "https://dc.lft.to/lastmile_qr_scan"}, "lon": -77.02658733333334, "type": "electric_scooter", "fusion_lat": 0.0, "lat": 38.89604283333333, "name": "4ddce28b80c2e91cc8868c1cd85512df", "fusion_lon": 0.0, "bike_id": "4ddce28b80c2e91cc8868c1cd85512df", "is_disabled": 0, "is_reserved": 0}, {"rental_uris": {"ios": "https://dc.lft.to/lastmile_qr_scan", "android": "https://dc.lft.to/lastmile_qr_scan"}, "lon": -77.10587266666667, "type": "electric_bike", "fusion_lat": 0.0, "lat": 38.88534716666667, "name": "5395f0f4839bdeb4e432d1a0847cf74a", "fusion_lon": 0.0, "bike_id": "5395f0f4839bdeb4e432d1a0847cf74a", "is_disabled": 0, "is_reserved": 0}, {"rental_uris": {"ios": "https://dc.lft.to/lastmile_qr_scan", "android": "https://dc.lft.to/lastmile_qr_scan"}, "lon": -77.11311083333334, "type": "electric_bike", "fusion_lat": 0.0, "lat": 38.85562616666667, "name": "28cdd961ca80785dcc97bb8c261cd283", "fusion_lon": 0.0, "bike_id": "28cdd961ca80785dcc97bb8c261cd283", "is_disabled": 0, "is_reserved": 0}, {"rental_uris": {"ios": "https://dc.lft.to/lastmile_qr_scan", "android": "https://dc.lft.to/lastmile_qr_scan"}, "lon": -76.99043133333333, "type": "electric_bike", "fusion_lat": 0.0, "lat": 38.92450483333333, "name": "1528e8b96fa30618d4f489ee75c6c96e", "fusion_lon": 0.0, "bike_id": "1528e8b96fa30618d4f489ee75c6c96e", "is_disabled": 0, "is_reserved": 0}, {"rental_uris": {"ios": "https://dc.lft.to/lastmile_qr_scan", "android": "https://dc.lft.to/lastmile_qr_scan"}, "lon": -77.03001216666667, "type": "electric_scooter", "fusion_lat": 0.0, "lat": 38.912571, "name": "d76b58554e484925fccbc07833c28d4f", "fusion_lon": 0.0, "bike_id": "d76b58554e484925fccbc07833c28d4f", "is_disabled": 0, "is_reserved": 0}, {"rental_uris": {"ios": "https://dc.lft.to/lastmile_qr_scan", "android": "https://dc.lft.to/lastmile_qr_scan"}, "lon": -76.98891383333333, "type": "electric_scooter", "fusion_lat": 0.0, "lat": 38.866557, "name": "d111e33e0514dee1c8428f1954407d8e", "fusion_lon": 0.0, "bike_id": "d111e33e0514dee1c8428f1954407d8e", "is_disabled": 0, "is_reserved": 0}, {"rental_uris": {"ios": "https://dc.lft.to/lastmile_qr_scan", "android": "https://dc.lft.to/lastmile_qr_scan"}, "lon": -77.0335085, "type": "electric_scooter", "fusion_lat": 0.0, "lat": 38.892511999999996, "name": "3ea1ef97740151043db26a9375bf4389", "fusion_lon": 0.0, "bike_id": "3ea1ef97740151043db26a9375bf4389", "is_disabled": 0, "is_reserved": 0}, {"rental_uris": {"ios": "https://dc.lft.to/lastmile_qr_scan", "android": "https://dc.lft.to/lastmile_qr_scan"}, "lon": -77.07071983333333, "type": "electric_bike", "fusion_lat": 0.0, "lat": 38.955558, "name": "42bbda3522c86cf9274e2bb0a7a9376e", "fusion_lon": 0.0, "bike_id": "42bbda3522c86cf9274e2bb0a7a9376e", "is_disabled": 0, "is_reserved": 0}, {"rental_uris": {"ios": "https://dc.lft.to/lastmile_qr_scan", "android": "https://dc.lft.to/lastmile_qr_scan"}, "lon": -77.01598683333333, "type": "electric_scooter", "fusion_lat": 0.0, "lat": 38.90046516666666, "name": "e049a83ed994f58457d7ddb5321d5ed2", "fusion_lon": 0.0, "bike_id": "e049a83ed994f58457d7ddb5321d5ed2", "is_disabled": 0, "is_reserved": 0}, {"rental_uris": {"ios": "https://dc.lft.to/lastmile_qr_scan", "android": "https://dc.lft.to/lastmile_qr_scan"}, "lon": -77.03825683333334, "type": "electric_scooter", "fusion_lat": 0.0, "lat": 38.93120666666667, "name": "2c2f1758114262ad9d749d6019d08e69", "fusion_lon": 0.0, "bike_id": "2c2f1758114262ad9d749d6019d08e69", "is_disabled": 0, "is_reserved": 0}, {"rental_uris": {"ios": "https://dc.lft.to/lastmile_qr_scan", "android": "https://dc.lft.to/lastmile_qr_scan"}, "lon": -76.9983195, "type": "electric_scooter", "fusion_lat": 0.0, "lat": 38.90001683333333, "name": "260266a38cce14eb4a0286ee95a361d2", "fusion_lon": 0.0, "bike_id": "260266a38cce14eb4a0286ee95a361d2", "is_disabled": 0, "is_reserved": 0}, {"rental_uris": {"ios": "https://dc.lft.to/lastmile_qr_scan", "android": "https://dc.lft.to/lastmile_qr_scan"}, "lon": -77.01181033333333, "type": "electric_scooter", "fusion_lat": 0.0, "lat": 38.911088666666664, "name": "086bca9742b95fec827117b0af5d167d", "fusion_lon": 0.0, "bike_id": "086bca9742b95fec827117b0af5d167d", "is_disabled": 0, "is_reserved": 0}, {"rental_uris": {"ios": "https://dc.lft.to/lastmile_qr_scan", "android": "https://dc.lft.to/lastmile_qr_scan"}, "lon": -77.02305483333333, "type": "electric_scooter", "fusion_lat": 0.0, "lat": 38.916187666666666, "name": "2257f30ea8a51f11399d239a7a0bc85f", "fusion_lon": 0.0, "bike_id": "2257f30ea8a51f11399d239a7a0bc85f", "is_disabled": 0, "is_reserved": 0}, {"rental_uris": {"ios": "https://dc.lft.to/lastmile_qr_scan", "android": "https://dc.lft.to/lastmile_qr_scan"}, "lon": -76.93173783333333, "type": "electric_scooter", "fusion_lat": 0.0, "lat": 38.898852833333336, "name": "addca58ae5fc670bd7e5a701ad8535e1", "fusion_lon": 0.0, "bike_id": "addca58ae5fc670bd7e5a701ad8535e1", "is_disabled": 0, "is_reserved": 0}, {"rental_uris": {"ios": "https://dc.lft.to/lastmile_qr_scan", "android": "https://dc.lft.to/lastmile_qr_scan"}, "lon": -77.02809783333333, "type": "electric_scooter", "fusion_lat": 0.0, "lat": 38.89247483333333, "name": "7232cc6093dab10989d814e94bc69f7f", "fusion_lon": 0.0, "bike_id": "7232cc6093dab10989d814e94bc69f7f", "is_disabled": 0, "is_reserved": 0}, {"rental_uris": {"ios": "https://dc.lft.to/lastmile_qr_scan", "android": "https://dc.lft.to/lastmile_qr_scan"}, "lon": -77.01958133333333, "type": "electric_scooter", "fusion_lat": 0.0, "lat": 38.886059833333334, "name": "d1017cfa8c4e2932fc387eec5cc87f7a", "fusion_lon": 0.0, "bike_id": "d1017cfa8c4e2932fc387eec5cc87f7a", "is_disabled": 0, "is_reserved": 0}, {"rental_uris": {"ios": "https://dc.lft.to/lastmile_qr_scan", "android": "https://dc.lft.to/lastmile_qr_scan"}, "lon": -77.02654516666666, "type": "electric_scooter", "fusion_lat": 0.0, "lat": 38.910558333333334, "name": "9c6c3770e657f8ea80fa36ffc6a4b2af", "fusion_lon": 0.0, "bike_id": "9c6c3770e657f8ea80fa36ffc6a4b2af", "is_disabled": 0, "is_reserved": 0}, {"rental_uris": {"ios": "https://dc.lft.to/lastmile_qr_scan", "android": "https://dc.lft.to/lastmile_qr_scan"}, "lon": -77.02157483333333, "type": "electric_scooter", "fusion_lat": 0.0, "lat": 38.942300333333336, "name": "47cbdfa1c880b2934847230d92a0a9f6", "fusion_lon": 0.0, "bike_id": "47cbdfa1c880b2934847230d92a0a9f6", "is_disabled": 0, "is_reserved": 0}, {"rental_uris": {"ios": "https://dc.lft.to/lastmile_qr_scan", "android": "https://dc.lft.to/lastmile_qr_scan"}, "lon": -77.03314, "type": "electric_scooter", "fusion_lat": 0.0, "lat": 38.9302165, "name": "ed58628f2bf5cb012084925c801d31ff", "fusion_lon": 0.0, "bike_id": "ed58628f2bf5cb012084925c801d31ff", "is_disabled": 0, "is_reserved": 0}, {"rental_uris": {"ios": "https://dc.lft.to/lastmile_qr_scan", "android": "https://dc.lft.to/lastmile_qr_scan"}, "lon": -77.03183466666667, "type": "electric_scooter", "fusion_lat": 0.0, "lat": 38.92481733333334, "name": "f846108b145f4293004bd2278ea09b63", "fusion_lon": 0.0, "bike_id": "f846108b145f4293004bd2278ea09b63", "is_disabled": 0, "is_reserved": 0}, {"rental_uris": {"ios": "https://dc.lft.to/lastmile_qr_scan", "android": "https://dc.lft.to/lastmile_qr_scan"}, "lon": -77.010604, "type": "electric_scooter", "fusion_lat": 0.0, "lat": 38.87577683333333, "name": "560fe4c6a61cf94a94cc57795dafd76e", "fusion_lon": 0.0, "bike_id": "560fe4c6a61cf94a94cc57795dafd76e", "is_disabled": 0, "is_reserved": 0}, {"rental_uris": {"ios": "https://dc.lft.to/lastmile_qr_scan", "android": "https://dc.lft.to/lastmile_qr_scan"}, "lon": -76.96520716666667, "type": "electric_bike", "fusion_lat": 0.0, "lat": 38.874770166666664, "name": "4cf808d6a2f7537f38854e7252370a66", "fusion_lon": 0.0, "bike_id": "4cf808d6a2f7537f38854e7252370a66", "is_disabled": 0, "is_reserved": 0}, {"rental_uris": {"ios": "https://dc.lft.to/lastmile_qr_scan", "android": "https://dc.lft.to/lastmile_qr_scan"}, "lon": -77.0505075, "type": "electric_scooter", "fusion_lat": 0.0, "lat": 38.903454333333336, "name": "1f11f67bf4f0c941e980028d9f6a37a8", "fusion_lon": 0.0, "bike_id": "1f11f67bf4f0c941e980028d9f6a37a8", "is_disabled": 0, "is_reserved": 0}, {"rental_uris": {"ios": "https://dc.lft.to/lastmile_qr_scan", "android": "https://dc.lft.to/lastmile_qr_scan"}, "lon": -77.0332975, "type": "electric_scooter", "fusion_lat": 0.0, "lat": 38.898393666666664, "name": "5cb72fa0f16ddd38da78c92d9bf8f2d1", "fusion_lon": 0.0, "bike_id": "5cb72fa0f16ddd38da78c92d9bf8f2d1", "is_disabled": 0, "is_reserved": 0}, {"rental_uris": {"ios": "https://dc.lft.to/lastmile_qr_scan", "android": "https://dc.lft.to/lastmile_qr_scan"}, "lon": -77.022315, "type": "electric_scooter", "fusion_lat": 0.0, "lat": 38.89220183333333, "name": "4ea9df97766cf0c9595af62b1ae5fba6", "fusion_lon": 0.0, "bike_id": "4ea9df97766cf0c9595af62b1ae5fba6", "is_disabled": 0, "is_reserved": 0}, {"rental_uris": {"ios": "https://dc.lft.to/lastmile_qr_scan", "android": "https://dc.lft.to/lastmile_qr_scan"}, "lon": -77.03092283333334, "type": "electric_scooter", "fusion_lat": 0.0, "lat": 38.89569516666667, "name": "7948ebc25a6c1e43befaaa6c92268dd2", "fusion_lon": 0.0, "bike_id": "7948ebc25a6c1e43befaaa6c92268dd2", "is_disabled": 0, "is_reserved": 0}, {"rental_uris": {"ios": "https://dc.lft.to/lastmile_qr_scan", "android": "https://dc.lft.to/lastmile_qr_scan"}, "lon": -77.06998483333334, "type": "electric_bike", "fusion_lat": 0.0, "lat": 38.95504583333334, "name": "257ad2427a3d4dc7159c01bb858d996c", "fusion_lon": 0.0, "bike_id": "257ad2427a3d4dc7159c01bb858d996c", "is_disabled": 0, "is_reserved": 0}, {"rental_uris": {"ios": "https://dc.lft.to/lastmile_qr_scan", "android": "https://dc.lft.to/lastmile_qr_scan"}, "lon": -77.009808, "type": "electric_scooter", "fusion_lat": 0.0, "lat": 38.872892666666665, "name": "b824a1fa0286796ab85837da96ea0073", "fusion_lon": 0.0, "bike_id": "b824a1fa0286796ab85837da96ea0073", "is_disabled": 0, "is_reserved": 0}, {"rental_uris": {"ios": "https://dc.lft.to/lastmile_qr_scan", "android": "https://dc.lft.to/lastmile_qr_scan"}, "lon": -77.03448666666667, "type": "electric_scooter", "fusion_lat": 0.0, "lat": 38.90732833333333, "name": "71e312855785b8108bf2f545adf013ba", "fusion_lon": 0.0, "bike_id": "71e312855785b8108bf2f545adf013ba", "is_disabled": 0, "is_reserved": 0}, {"rental_uris": {"ios": "https://dc.lft.to/lastmile_qr_scan", "android": "https://dc.lft.to/lastmile_qr_scan"}, "lon": -77.107786, "type": "electric_bike", "fusion_lat": 0.0, "lat": 38.892185833333336, "name": "e3a31c2b9d80a69c793e1c432e37d6f5", "fusion_lon": 0.0, "bike_id": "e3a31c2b9d80a69c793e1c432e37d6f5", "is_disabled": 0, "is_reserved": 0}, {"rental_uris": {"ios": "https://dc.lft.to/lastmile_qr_scan", "android": "https://dc.lft.to/lastmile_qr_scan"}, "lon": -76.9890275, "type": "electric_scooter", "fusion_lat": 0.0, "lat": 38.86692166666667, "name": "7b754f26d34df27e209dd6f3ae229059", "fusion_lon": 0.0, "bike_id": "7b754f26d34df27e209dd6f3ae229059", "is_disabled": 0, "is_reserved": 0}, {"rental_uris": {"ios": "https://dc.lft.to/lastmile_qr_scan", "android": "https://dc.lft.to/lastmile_qr_scan"}, "lon": -77.0216585, "type": "electric_scooter", "fusion_lat": 0.0, "lat": 38.94292466666667, "name": "ce4ce317f08546dbba83975f35599bca", "fusion_lon": 0.0, "bike_id": "ce4ce317f08546dbba83975f35599bca", "is_disabled": 0, "is_reserved": 0}, {"rental_uris": {"ios": "https://dc.lft.to/lastmile_qr_scan", "android": "https://dc.lft.to/lastmile_qr_scan"}, "lon": -77.04020983333334, "type": "electric_scooter", "fusion_lat": 0.0, "lat": 38.92183883333333, "name": "ebb26af4126a6fef37729390c0c4787b", "fusion_lon": 0.0, "bike_id": "ebb26af4126a6fef37729390c0c4787b", "is_disabled": 0, "is_reserved": 0}, {"rental_uris": {"ios": "https://dc.lft.to/lastmile_qr_scan", "android": "https://dc.lft.to/lastmile_qr_scan"}, "lon": -76.98651383333333, "type": "electric_scooter", "fusion_lat": 0.0, "lat": 38.85804916666667, "name": "183dfd853019ca9e7f4b2d78ce46b5b1", "fusion_lon": 0.0, "bike_id": "183dfd853019ca9e7f4b2d78ce46b5b1", "is_disabled": 0, "is_reserved": 0}, {"rental_uris": {"ios": "https://dc.lft.to/lastmile_qr_scan", "android": "https://dc.lft.to/lastmile_qr_scan"}, "lon": -77.0272185, "type": "electric_scooter", "fusion_lat": 0.0, "lat": 38.93432983333334, "name": "c60e8e8c53178985b7ec86dc637607f9", "fusion_lon": 0.0, "bike_id": "c60e8e8c53178985b7ec86dc637607f9", "is_disabled": 0, "is_reserved": 0}, {"rental_uris": {"ios": "https://dc.lft.to/lastmile_qr_scan", "android": "https://dc.lft.to/lastmile_qr_scan"}, "lon": -77.04096566666666, "type": "electric_scooter", "fusion_lat": 0.0, "lat": 38.9047975, "name": "343803bfdc6439f0334073e9a09c4f99", "fusion_lon": 0.0, "bike_id": "343803bfdc6439f0334073e9a09c4f99", "is_disabled": 0, "is_reserved": 0}, {"rental_uris": {"ios": "https://dc.lft.to/lastmile_qr_scan", "android": "https://dc.lft.to/lastmile_qr_scan"}, "lon": -76.9968185, "type": "electric_scooter", "fusion_lat": 0.0, "lat": 38.91009066666667, "name": "4a1ccedee6f535b367501db096edc714", "fusion_lon": 0.0, "bike_id": "4a1ccedee6f535b367501db096edc714", "is_disabled": 0, "is_reserved": 0}, {"rental_uris": {"ios": "https://dc.lft.to/lastmile_qr_scan", "android": "https://dc.lft.to/lastmile_qr_scan"}, "lon": -77.008065, "type": "electric_bike", "fusion_lat": 0.0, "lat": 38.926702, "name": "ce6a8ccdfba77623bf3a27cd5034fbf8", "fusion_lon": 0.0, "bike_id": "ce6a8ccdfba77623bf3a27cd5034fbf8", "is_disabled": 0, "is_reserved": 0}, {"rental_uris": {"ios": "https://dc.lft.to/lastmile_qr_scan", "android": "https://dc.lft.to/lastmile_qr_scan"}, "lon": -77.06098633333333, "type": "electric_scooter", "fusion_lat": 0.0, "lat": 38.9370555, "name": "2a38d2fdf7907c82b99fdb9e2fb4722d", "fusion_lon": 0.0, "bike_id": "2a38d2fdf7907c82b99fdb9e2fb4722d", "is_disabled": 0, "is_reserved": 0}, {"rental_uris": {"ios": "https://dc.lft.to/lastmile_qr_scan", "android": "https://dc.lft.to/lastmile_qr_scan"}, "lon": -77.0483985, "type": "electric_scooter", "fusion_lat": 0.0, "lat": 38.900786, "name": "cd2e8cfb525b1e7477c563f457cfc47f", "fusion_lon": 0.0, "bike_id": "cd2e8cfb525b1e7477c563f457cfc47f", "is_disabled": 0, "is_reserved": 0}, {"rental_uris": {"ios": "https://dc.lft.to/lastmile_qr_scan", "android": "https://dc.lft.to/lastmile_qr_scan"}, "lon": -77.02470316666667, "type": "electric_scooter", "fusion_lat": 0.0, "lat": 38.93883666666667, "name": "bd06eb42edb73ac4af422ad15d17eb30", "fusion_lon": 0.0, "bike_id": "bd06eb42edb73ac4af422ad15d17eb30", "is_disabled": 0, "is_reserved": 0}, {"rental_uris": {"ios": "https://dc.lft.to/lastmile_qr_scan", "android": "https://dc.lft.to/lastmile_qr_scan"}, "lon": -76.9650195, "type": "electric_scooter", "fusion_lat": 0.0, "lat": 38.8764795, "name": "758c84249cc2c460eb3734fe669f0506", "fusion_lon": 0.0, "bike_id": "758c84249cc2c460eb3734fe669f0506", "is_disabled": 0, "is_reserved": 0}, {"rental_uris": {"ios": "https://dc.lft.to/lastmile_qr_scan", "android": "https://dc.lft.to/lastmile_qr_scan"}, "lon": -77.03631133333333, "type": "electric_scooter", "fusion_lat": 0.0, "lat": 38.926516, "name": "62f98d68a9fc9e839e400906f5f750de", "fusion_lon": 0.0, "bike_id": "62f98d68a9fc9e839e400906f5f750de", "is_disabled": 0, "is_reserved": 0}, {"rental_uris": {"ios": "https://dc.lft.to/lastmile_qr_scan", "android": "https://dc.lft.to/lastmile_qr_scan"}, "lon": -77.02438333333333, "type": "electric_scooter", "fusion_lat": 0.0, "lat": 38.90717433333333, "name": "9ed19730f35793aeddbaee38cccb6b87", "fusion_lon": 0.0, "bike_id": "9ed19730f35793aeddbaee38cccb6b87", "is_disabled": 0, "is_reserved": 0}, {"rental_uris": {"ios": "https://dc.lft.to/lastmile_qr_scan", "android": "https://dc.lft.to/lastmile_qr_scan"}, "lon": -77.00421683333333, "type": "electric_scooter", "fusion_lat": 0.0, "lat": 38.903880666666666, "name": "04a347c02b6fa6b65e2dab0af6cbd586", "fusion_lon": 0.0, "bike_id": "04a347c02b6fa6b65e2dab0af6cbd586", "is_disabled": 0, "is_reserved": 0}, {"rental_uris": {"ios": "https://dc.lft.to/lastmile_qr_scan", "android": "https://dc.lft.to/lastmile_qr_scan"}, "lon": -77.05589883333333, "type": "electric_scooter", "fusion_lat": 0.0, "lat": 38.90514116666667, "name": "e0e44b44c532abd81e6708e0b8756715", "fusion_lon": 0.0, "bike_id": "e0e44b44c532abd81e6708e0b8756715", "is_disabled": 0, "is_reserved": 0}, {"rental_uris": {"ios": "https://dc.lft.to/lastmile_qr_scan", "android": "https://dc.lft.to/lastmile_qr_scan"}, "lon": -77.02608366666666, "type": "electric_scooter", "fusion_lat": 0.0, "lat": 38.89681133333333, "name": "be53cfcdc762c1d0bc95722ea26363eb", "fusion_lon": 0.0, "bike_id": "be53cfcdc762c1d0bc95722ea26363eb", "is_disabled": 0, "is_reserved": 0}, {"rental_uris": {"ios": "https://dc.lft.to/lastmile_qr_scan", "android": "https://dc.lft.to/lastmile_qr_scan"}, "lon": -77.04193216666667, "type": "electric_scooter", "fusion_lat": 0.0, "lat": 38.9204395, "name": "49ea233f61c3d81afcd35792ba00cb83", "fusion_lon": 0.0, "bike_id": "49ea233f61c3d81afcd35792ba00cb83", "is_disabled": 0, "is_reserved": 0}, {"rental_uris": {"ios": "https://dc.lft.to/lastmile_qr_scan", "android": "https://dc.lft.to/lastmile_qr_scan"}, "lon": -77.02018016666666, "type": "electric_scooter", "fusion_lat": 0.0, "lat": 38.915495, "name": "849ff97232c49aceaa528d7b010d5d16", "fusion_lon": 0.0, "bike_id": "849ff97232c49aceaa528d7b010d5d16", "is_disabled": 0, "is_reserved": 0}, {"rental_uris": {"ios": "https://dc.lft.to/lastmile_qr_scan", "android": "https://dc.lft.to/lastmile_qr_scan"}, "lon": -77.00852533333334, "type": "electric_scooter", "fusion_lat": 0.0, "lat": 38.92593, "name": "31030e3e704b6bb7c045e57d226d4f72", "fusion_lon": 0.0, "bike_id": "31030e3e704b6bb7c045e57d226d4f72", "is_disabled": 0, "is_reserved": 0}, {"rental_uris": {"ios": "https://dc.lft.to/lastmile_qr_scan", "android": "https://dc.lft.to/lastmile_qr_scan"}, "lon": -76.99545683333334, "type": "electric_scooter", "fusion_lat": 0.0, "lat": 38.92663666666667, "name": "a70d8a7d56fc8bccc0a651fa8fb36e6d", "fusion_lon": 0.0, "bike_id": "a70d8a7d56fc8bccc0a651fa8fb36e6d", "is_disabled": 0, "is_reserved": 0}, {"rental_uris": {"ios": "https://dc.lft.to/lastmile_qr_scan", "android": "https://dc.lft.to/lastmile_qr_scan"}, "lon": -77.01754766666667, "type": "electric_scooter", "fusion_lat": 0.0, "lat": 38.93893816666667, "name": "77b8fc4d5b11f5f9e4493e3a17ff0503", "fusion_lon": 0.0, "bike_id": "77b8fc4d5b11f5f9e4493e3a17ff0503", "is_disabled": 0, "is_reserved": 0}, {"rental_uris": {"ios": "https://dc.lft.to/lastmile_qr_scan", "android": "https://dc.lft.to/lastmile_qr_scan"}, "lon": -77.0836245, "type": "electric_scooter", "fusion_lat": 0.0, "lat": 38.93036466666667, "name": "34933f39ab0e497429bc7aa6d8254b5c", "fusion_lon": 0.0, "bike_id": "34933f39ab0e497429bc7aa6d8254b5c", "is_disabled": 0, "is_reserved": 0}, {"rental_uris": {"ios": "https://dc.lft.to/lastmile_qr_scan", "android": "https://dc.lft.to/lastmile_qr_scan"}, "lon": -77.05129766666667, "type": "electric_scooter", "fusion_lat": 0.0, "lat": 38.90235083333334, "name": "5eaaadfbd5b2c1a3781031285997a171", "fusion_lon": 0.0, "bike_id": "5eaaadfbd5b2c1a3781031285997a171", "is_disabled": 0, "is_reserved": 0}, {"rental_uris": {"ios": "https://dc.lft.to/lastmile_qr_scan", "android": "https://dc.lft.to/lastmile_qr_scan"}, "lon": -77.03929716666667, "type": "electric_scooter", "fusion_lat": 0.0, "lat": 38.899764, "name": "10d5a4d15016c2df91aaf16c7be49a2b", "fusion_lon": 0.0, "bike_id": "10d5a4d15016c2df91aaf16c7be49a2b", "is_disabled": 0, "is_reserved": 0}, {"rental_uris": {"ios": "https://dc.lft.to/lastmile_qr_scan", "android": "https://dc.lft.to/lastmile_qr_scan"}, "lon": -77.12738933333333, "type": "electric_bike", "fusion_lat": 0.0, "lat": 38.888212833333334, "name": "3a76c3613047ea6810f2ad35202abddf", "fusion_lon": 0.0, "bike_id": "3a76c3613047ea6810f2ad35202abddf", "is_disabled": 0, "is_reserved": 0}, {"rental_uris": {"ios": "https://dc.lft.to/lastmile_qr_scan", "android": "https://dc.lft.to/lastmile_qr_scan"}, "lon": -77.03001666666667, "type": "electric_scooter", "fusion_lat": 0.0, "lat": 38.92482866666667, "name": "74794143a50c7167adb76f87bb24176e", "fusion_lon": 0.0, "bike_id": "74794143a50c7167adb76f87bb24176e", "is_disabled": 0, "is_reserved": 0}, {"rental_uris": {"ios": "https://dc.lft.to/lastmile_qr_scan", "android": "https://dc.lft.to/lastmile_qr_scan"}, "lon": -77.03251983333334, "type": "electric_scooter", "fusion_lat": 0.0, "lat": 38.911152333333334, "name": "a8ffb4246ee36bf1a8da7d8db11201e5", "fusion_lon": 0.0, "bike_id": "a8ffb4246ee36bf1a8da7d8db11201e5", "is_disabled": 0, "is_reserved": 0}, {"rental_uris": {"ios": "https://dc.lft.to/lastmile_qr_scan", "android": "https://dc.lft.to/lastmile_qr_scan"}, "lon": -77.026051, "type": "electric_scooter", "fusion_lat": 0.0, "lat": 38.91691733333333, "name": "abfe975499b5ee23e956f451f8d12f97", "fusion_lon": 0.0, "bike_id": "abfe975499b5ee23e956f451f8d12f97", "is_disabled": 0, "is_reserved": 0}, {"rental_uris": {"ios": "https://dc.lft.to/lastmile_qr_scan", "android": "https://dc.lft.to/lastmile_qr_scan"}, "lon": -76.93791016666667, "type": "electric_scooter", "fusion_lat": 0.0, "lat": 38.9128965, "name": "58c9c972572849172e7606f0afda7bb5", "fusion_lon": 0.0, "bike_id": "58c9c972572849172e7606f0afda7bb5", "is_disabled": 0, "is_reserved": 0}, {"rental_uris": {"ios": "https://dc.lft.to/lastmile_qr_scan", "android": "https://dc.lft.to/lastmile_qr_scan"}, "lon": -77.06107916666667, "type": "electric_scooter", "fusion_lat": 0.0, "lat": 38.905052, "name": "343904c6db376f4c0e4894795cd49e43", "fusion_lon": 0.0, "bike_id": "343904c6db376f4c0e4894795cd49e43", "is_disabled": 0, "is_reserved": 0}, {"rental_uris": {"ios": "https://dc.lft.to/lastmile_qr_scan", "android": "https://dc.lft.to/lastmile_qr_scan"}, "lon": -76.978874, "type": "electric_scooter", "fusion_lat": 0.0, "lat": 38.916709833333336, "name": "7f5cbb45fe583ced5124d8af4c331bc7", "fusion_lon": 0.0, "bike_id": "7f5cbb45fe583ced5124d8af4c331bc7", "is_disabled": 0, "is_reserved": 0}, {"rental_uris": {"ios": "https://dc.lft.to/lastmile_qr_scan", "android": "https://dc.lft.to/lastmile_qr_scan"}, "lon": -76.98769633333333, "type": "electric_scooter", "fusion_lat": 0.0, "lat": 38.911742, "name": "d82bc4738740fd8e7c8e82446466fd00", "fusion_lon": 0.0, "bike_id": "d82bc4738740fd8e7c8e82446466fd00", "is_disabled": 0, "is_reserved": 0}, {"rental_uris": {"ios": "https://dc.lft.to/lastmile_qr_scan", "android": "https://dc.lft.to/lastmile_qr_scan"}, "lon": -77.03345816666666, "type": "electric_scooter", "fusion_lat": 0.0, "lat": 38.93421133333333, "name": "6b33a4dd21bee76857fc0a35e485ee18", "fusion_lon": 0.0, "bike_id": "6b33a4dd21bee76857fc0a35e485ee18", "is_disabled": 0, "is_reserved": 0}, {"rental_uris": {"ios": "https://dc.lft.to/lastmile_qr_scan", "android": "https://dc.lft.to/lastmile_qr_scan"}, "lon": -77.04809166666666, "type": "electric_scooter", "fusion_lat": 0.0, "lat": 38.920392, "name": "e19483cbadd31210620472e367a1c333", "fusion_lon": 0.0, "bike_id": "e19483cbadd31210620472e367a1c333", "is_disabled": 0, "is_reserved": 0}, {"rental_uris": {"ios": "https://dc.lft.to/lastmile_qr_scan", "android": "https://dc.lft.to/lastmile_qr_scan"}, "lon": -77.0128855, "type": "electric_scooter", "fusion_lat": 0.0, "lat": 38.900642, "name": "3a83e96f4c82f48e01560f749f77dcca", "fusion_lon": 0.0, "bike_id": "3a83e96f4c82f48e01560f749f77dcca", "is_disabled": 0, "is_reserved": 0}, {"rental_uris": {"ios": "https://dc.lft.to/lastmile_qr_scan", "android": "https://dc.lft.to/lastmile_qr_scan"}, "lon": -77.02396716666667, "type": "electric_scooter", "fusion_lat": 0.0, "lat": 38.93703416666666, "name": "678a145c62c58c627092f0a9172bfb79", "fusion_lon": 0.0, "bike_id": "678a145c62c58c627092f0a9172bfb79", "is_disabled": 0, "is_reserved": 0}, {"rental_uris": {"ios": "https://dc.lft.to/lastmile_qr_scan", "android": "https://dc.lft.to/lastmile_qr_scan"}, "lon": -77.02853833333333, "type": "electric_scooter", "fusion_lat": 0.0, "lat": 38.928139, "name": "291954c7a39ee5cbdb9453308e61289e", "fusion_lon": 0.0, "bike_id": "291954c7a39ee5cbdb9453308e61289e", "is_disabled": 0, "is_reserved": 0}, {"rental_uris": {"ios": "https://dc.lft.to/lastmile_qr_scan", "android": "https://dc.lft.to/lastmile_qr_scan"}, "lon": -77.02354466666667, "type": "electric_scooter", "fusion_lat": 0.0, "lat": 38.925071833333334, "name": "a79a1c5eafaac438e252d5e072284f0d", "fusion_lon": 0.0, "bike_id": "a79a1c5eafaac438e252d5e072284f0d", "is_disabled": 0, "is_reserved": 0}, {"rental_uris": {"ios": "https://dc.lft.to/lastmile_qr_scan", "android": "https://dc.lft.to/lastmile_qr_scan"}, "lon": -77.04005933333333, "type": "electric_scooter", "fusion_lat": 0.0, "lat": 38.9213415, "name": "ca8e19c2342632628acfbb6c039eb398", "fusion_lon": 0.0, "bike_id": "ca8e19c2342632628acfbb6c039eb398", "is_disabled": 0, "is_reserved": 0}, {"rental_uris": {"ios": "https://dc.lft.to/lastmile_qr_scan", "android": "https://dc.lft.to/lastmile_qr_scan"}, "lon": -77.01701383333334, "type": "electric_scooter", "fusion_lat": 0.0, "lat": 38.920521, "name": "ab896e6a797c949a08485c3ea4328580", "fusion_lon": 0.0, "bike_id": "ab896e6a797c949a08485c3ea4328580", "is_disabled": 0, "is_reserved": 0}, {"rental_uris": {"ios": "https://dc.lft.to/lastmile_qr_scan", "android": "https://dc.lft.to/lastmile_qr_scan"}, "lon": -77.03420966666667, "type": "electric_scooter", "fusion_lat": 0.0, "lat": 38.9354005, "name": "6b0aa912f114df86afe2df4ba18ea9ea", "fusion_lon": 0.0, "bike_id": "6b0aa912f114df86afe2df4ba18ea9ea", "is_disabled": 0, "is_reserved": 0}, {"rental_uris": {"ios": "https://dc.lft.to/lastmile_qr_scan", "android": "https://dc.lft.to/lastmile_qr_scan"}, "lon": -77.070267, "type": "electric_bike", "fusion_lat": 0.0, "lat": 38.91870983333333, "name": "6c63a5ba4beae70bbe1c90a864b5949e", "fusion_lon": 0.0, "bike_id": "6c63a5ba4beae70bbe1c90a864b5949e", "is_disabled": 0, "is_reserved": 0}, {"rental_uris": {"ios": "https://dc.lft.to/lastmile_qr_scan", "android": "https://dc.lft.to/lastmile_qr_scan"}, "lon": -77.03541116666666, "type": "electric_scooter", "fusion_lat": 0.0, "lat": 38.9328175, "name": "81d37196a88cecb631357fa630cbf63b", "fusion_lon": 0.0, "bike_id": "81d37196a88cecb631357fa630cbf63b", "is_disabled": 0, "is_reserved": 0}, {"rental_uris": {"ios": "https://dc.lft.to/lastmile_qr_scan", "android": "https://dc.lft.to/lastmile_qr_scan"}, "lon": -77.024008, "type": "electric_scooter", "fusion_lat": 0.0, "lat": 38.9369625, "name": "8fad29b248072b09f37168cd3207f66a", "fusion_lon": 0.0, "bike_id": "8fad29b248072b09f37168cd3207f66a", "is_disabled": 0, "is_reserved": 0}, {"rental_uris": {"ios": "https://dc.lft.to/lastmile_qr_scan", "android": "https://dc.lft.to/lastmile_qr_scan"}, "lon": -77.05017033333333, "type": "electric_scooter", "fusion_lat": 0.0, "lat": 38.91795366666667, "name": "352474699f32cdb9375afa84cc33c87d", "fusion_lon": 0.0, "bike_id": "352474699f32cdb9375afa84cc33c87d", "is_disabled": 0, "is_reserved": 0}, {"rental_uris": {"ios": "https://dc.lft.to/lastmile_qr_scan", "android": "https://dc.lft.to/lastmile_qr_scan"}, "lon": -76.98352483333333, "type": "electric_scooter", "fusion_lat": 0.0, "lat": 38.915248, "name": "59e03862409da76166ff481960ce2ebe", "fusion_lon": 0.0, "bike_id": "59e03862409da76166ff481960ce2ebe", "is_disabled": 0, "is_reserved": 0}, {"rental_uris": {"ios": "https://dc.lft.to/lastmile_qr_scan", "android": "https://dc.lft.to/lastmile_qr_scan"}, "lon": -77.0322155, "type": "electric_scooter", "fusion_lat": 0.0, "lat": 38.92670366666667, "name": "da39513eef3d6a2ba8e635eeef578a90", "fusion_lon": 0.0, "bike_id": "da39513eef3d6a2ba8e635eeef578a90", "is_disabled": 0, "is_reserved": 0}, {"rental_uris": {"ios": "https://dc.lft.to/lastmile_qr_scan", "android": "https://dc.lft.to/lastmile_qr_scan"}, "lon": -77.01618966666666, "type": "electric_scooter", "fusion_lat": 0.0, "lat": 38.9060375, "name": "552e0fb172098c1d81e19eed41525c0d", "fusion_lon": 0.0, "bike_id": "552e0fb172098c1d81e19eed41525c0d", "is_disabled": 0, "is_reserved": 0}, {"rental_uris": {"ios": "https://dc.lft.to/lastmile_qr_scan", "android": "https://dc.lft.to/lastmile_qr_scan"}, "lon": -77.002827, "type": "electric_scooter", "fusion_lat": 0.0, "lat": 38.90556266666667, "name": "5f43e64fef650529afb979d177f1dba6", "fusion_lon": 0.0, "bike_id": "5f43e64fef650529afb979d177f1dba6", "is_disabled": 0, "is_reserved": 0}, {"rental_uris": {"ios": "https://dc.lft.to/lastmile_qr_scan", "android": "https://dc.lft.to/lastmile_qr_scan"}, "lon": -77.06487283333334, "type": "electric_bike", "fusion_lat": 0.0, "lat": 38.9649395, "name": "42528b684cc5e5e6eea29329ae294ea5", "fusion_lon": 0.0, "bike_id": "42528b684cc5e5e6eea29329ae294ea5", "is_disabled": 0, "is_reserved": 0}, {"rental_uris": {"ios": "https://dc.lft.to/lastmile_qr_scan", "android": "https://dc.lft.to/lastmile_qr_scan"}, "lon": -77.04110783333333, "type": "electric_scooter", "fusion_lat": 0.0, "lat": 38.92129533333333, "name": "ed0a93b6c786501516456d9223df5982", "fusion_lon": 0.0, "bike_id": "ed0a93b6c786501516456d9223df5982", "is_disabled": 0, "is_reserved": 0}, {"rental_uris": {"ios": "https://dc.lft.to/lastmile_qr_scan", "android": "https://dc.lft.to/lastmile_qr_scan"}, "lon": -76.9441605, "type": "electric_scooter", "fusion_lat": 0.0, "lat": 38.89792766666667, "name": "f6fc9bf14c7522eec7d3c8901586ae06", "fusion_lon": 0.0, "bike_id": "f6fc9bf14c7522eec7d3c8901586ae06", "is_disabled": 0, "is_reserved": 0}, {"rental_uris": {"ios": "https://dc.lft.to/lastmile_qr_scan", "android": "https://dc.lft.to/lastmile_qr_scan"}, "lon": -77.02112683333333, "type": "electric_scooter", "fusion_lat": 0.0, "lat": 38.93012316666667, "name": "aa8c92c25e11d68eeb065d06df6aacda", "fusion_lon": 0.0, "bike_id": "aa8c92c25e11d68eeb065d06df6aacda", "is_disabled": 0, "is_reserved": 0}, {"rental_uris": {"ios": "https://dc.lft.to/lastmile_qr_scan", "android": "https://dc.lft.to/lastmile_qr_scan"}, "lon": -77.1262455, "type": "electric_bike", "fusion_lat": 0.0, "lat": 39.058122166666664, "name": "b62a97b88e4a2cc45f27fb8c03fcfeac", "fusion_lon": 0.0, "bike_id": "b62a97b88e4a2cc45f27fb8c03fcfeac", "is_disabled": 0, "is_reserved": 0}, {"rental_uris": {"ios": "https://dc.lft.to/lastmile_qr_scan", "android": "https://dc.lft.to/lastmile_qr_scan"}, "lon": -77.014008, "type": "electric_scooter", "fusion_lat": 0.0, "lat": 38.92814883333333, "name": "3791800f601de19f4b17040128796dae", "fusion_lon": 0.0, "bike_id": "3791800f601de19f4b17040128796dae", "is_disabled": 0, "is_reserved": 0}, {"rental_uris": {"ios": "https://dc.lft.to/lastmile_qr_scan", "android": "https://dc.lft.to/lastmile_qr_scan"}, "lon": -77.1784635, "type": "electric_bike", "fusion_lat": 0.0, "lat": 39.08899133333333, "name": "6b5ca8844d8376ac6a03f8166cbef470", "fusion_lon": 0.0, "bike_id": "6b5ca8844d8376ac6a03f8166cbef470", "is_disabled": 0, "is_reserved": 0}, {"rental_uris": {"ios": "https://dc.lft.to/lastmile_qr_scan", "android": "https://dc.lft.to/lastmile_qr_scan"}, "lon": -76.97829116666666, "type": "electric_bike", "fusion_lat": 0.0, "lat": 38.846093833333335, "name": "b0508261142e7c528df76c0037de9e45", "fusion_lon": 0.0, "bike_id": "b0508261142e7c528df76c0037de9e45", "is_disabled": 0, "is_reserved": 0}, {"rental_uris": {"ios": "https://dc.lft.to/lastmile_qr_scan", "android": "https://dc.lft.to/lastmile_qr_scan"}, "lon": -77.04681633333334, "type": "electric_scooter", "fusion_lat": 0.0, "lat": 38.905267333333335, "name": "6a34f094bdcce8fb5f8dcfcb5bed373c", "fusion_lon": 0.0, "bike_id": "6a34f094bdcce8fb5f8dcfcb5bed373c", "is_disabled": 0, "is_reserved": 0}, {"rental_uris": {"ios": "https://dc.lft.to/lastmile_qr_scan", "android": "https://dc.lft.to/lastmile_qr_scan"}, "lon": -77.02957383333333, "type": "electric_scooter", "fusion_lat": 0.0, "lat": 38.905057, "name": "483ec7656fcca91916ce03040bae40eb", "fusion_lon": 0.0, "bike_id": "483ec7656fcca91916ce03040bae40eb", "is_disabled": 0, "is_reserved": 0}, {"rental_uris": {"ios": "https://dc.lft.to/lastmile_qr_scan", "android": "https://dc.lft.to/lastmile_qr_scan"}, "lon": -77.0324, "type": "electric_scooter", "fusion_lat": 0.0, "lat": 38.91548133333333, "name": "6f1be9a41af984b3113973ee87e2a8a9", "fusion_lon": 0.0, "bike_id": "6f1be9a41af984b3113973ee87e2a8a9", "is_disabled": 0, "is_reserved": 0}, {"rental_uris": {"ios": "https://dc.lft.to/lastmile_qr_scan", "android": "https://dc.lft.to/lastmile_qr_scan"}, "lon": -77.06123416666667, "type": "electric_bike", "fusion_lat": 0.0, "lat": 38.902017, "name": "10903b1b0e93240cc56b02bff5952342", "fusion_lon": 0.0, "bike_id": "10903b1b0e93240cc56b02bff5952342", "is_disabled": 0, "is_reserved": 0}, {"rental_uris": {"ios": "https://dc.lft.to/lastmile_qr_scan", "android": "https://dc.lft.to/lastmile_qr_scan"}, "lon": -77.0274865, "type": "electric_scooter", "fusion_lat": 0.0, "lat": 38.93962, "name": "79e27be62d8e33297f913d6bba0d22f3", "fusion_lon": 0.0, "bike_id": "79e27be62d8e33297f913d6bba0d22f3", "is_disabled": 0, "is_reserved": 0}, {"rental_uris": {"ios": "https://dc.lft.to/lastmile_qr_scan", "android": "https://dc.lft.to/lastmile_qr_scan"}, "lon": -77.055339, "type": "electric_scooter", "fusion_lat": 0.0, "lat": 38.92788566666667, "name": "0c475b9d9c8a3d7a144cd3413306ebea", "fusion_lon": 0.0, "bike_id": "0c475b9d9c8a3d7a144cd3413306ebea", "is_disabled": 0, "is_reserved": 0}, {"rental_uris": {"ios": "https://dc.lft.to/lastmile_qr_scan", "android": "https://dc.lft.to/lastmile_qr_scan"}, "lon": -77.02135433333333, "type": "electric_scooter", "fusion_lat": 0.0, "lat": 38.895034833333334, "name": "18a0d4cb65c8a18c975755055029a701", "fusion_lon": 0.0, "bike_id": "18a0d4cb65c8a18c975755055029a701", "is_disabled": 0, "is_reserved": 0}, {"rental_uris": {"ios": "https://dc.lft.to/lastmile_qr_scan", "android": "https://dc.lft.to/lastmile_qr_scan"}, "lon": -77.00085533333333, "type": "electric_scooter", "fusion_lat": 0.0, "lat": 38.907208833333335, "name": "d916227d21a0e22d80172098b22880a1", "fusion_lon": 0.0, "bike_id": "d916227d21a0e22d80172098b22880a1", "is_disabled": 0, "is_reserved": 0}, {"rental_uris": {"ios": "https://dc.lft.to/lastmile_qr_scan", "android": "https://dc.lft.to/lastmile_qr_scan"}, "lon": -77.017392, "type": "electric_bike", "fusion_lat": 0.0, "lat": 39.000155666666664, "name": "1ba9b5ac7af83f0479653fce5dc772d8", "fusion_lon": 0.0, "bike_id": "1ba9b5ac7af83f0479653fce5dc772d8", "is_disabled": 0, "is_reserved": 0}, {"rental_uris": {"ios": "https://dc.lft.to/lastmile_qr_scan", "android": "https://dc.lft.to/lastmile_qr_scan"}, "lon": -77.03465183333333, "type": "electric_scooter", "fusion_lat": 0.0, "lat": 38.921550333333336, "name": "6a20a3ec8c825ace0463e053a757b76d", "fusion_lon": 0.0, "bike_id": "6a20a3ec8c825ace0463e053a757b76d", "is_disabled": 0, "is_reserved": 0}, {"rental_uris": {"ios": "https://dc.lft.to/lastmile_qr_scan", "android": "https://dc.lft.to/lastmile_qr_scan"}, "lon": -77.05697966666666, "type": "electric_scooter", "fusion_lat": 0.0, "lat": 38.905526, "name": "5f7903276e5dd4dc2909d7c19dc6f225", "fusion_lon": 0.0, "bike_id": "5f7903276e5dd4dc2909d7c19dc6f225", "is_disabled": 0, "is_reserved": 0}, {"rental_uris": {"ios": "https://dc.lft.to/lastmile_qr_scan", "android": "https://dc.lft.to/lastmile_qr_scan"}, "lon": -77.02475016666666, "type": "electric_scooter", "fusion_lat": 0.0, "lat": 38.938200333333334, "name": "4c1d4964eea18edde7c177f8eab5f475", "fusion_lon": 0.0, "bike_id": "4c1d4964eea18edde7c177f8eab5f475", "is_disabled": 0, "is_reserved": 0}, {"rental_uris": {"ios": "https://dc.lft.to/lastmile_qr_scan", "android": "https://dc.lft.to/lastmile_qr_scan"}, "lon": -77.09869833333333, "type": "electric_bike", "fusion_lat": 0.0, "lat": 38.8537105, "name": "262c2b4bef809cbda2ecbffdfce26191", "fusion_lon": 0.0, "bike_id": "262c2b4bef809cbda2ecbffdfce26191", "is_disabled": 0, "is_reserved": 0}, {"rental_uris": {"ios": "https://dc.lft.to/lastmile_qr_scan", "android": "https://dc.lft.to/lastmile_qr_scan"}, "lon": -77.03385316666666, "type": "electric_scooter", "fusion_lat": 0.0, "lat": 38.9384735, "name": "fdada108dbed673ec1d7bb6f2eca6f2f", "fusion_lon": 0.0, "bike_id": "fdada108dbed673ec1d7bb6f2eca6f2f", "is_disabled": 0, "is_reserved": 0}, {"rental_uris": {"ios": "https://dc.lft.to/lastmile_qr_scan", "android": "https://dc.lft.to/lastmile_qr_scan"}, "lon": -77.047457, "type": "electric_scooter", "fusion_lat": 0.0, "lat": 38.91774566666667, "name": "3f1a0c74422d9e51e29ecb9661ff9298", "fusion_lon": 0.0, "bike_id": "3f1a0c74422d9e51e29ecb9661ff9298", "is_disabled": 0, "is_reserved": 0}, {"rental_uris": {"ios": "https://dc.lft.to/lastmile_qr_scan", "android": "https://dc.lft.to/lastmile_qr_scan"}, "lon": -77.01083816666667, "type": "electric_scooter", "fusion_lat": 0.0, "lat": 38.894040833333335, "name": "b758958b291b5461b4905107b512ea40", "fusion_lon": 0.0, "bike_id": "b758958b291b5461b4905107b512ea40", "is_disabled": 0, "is_reserved": 0}, {"rental_uris": {"ios": "https://dc.lft.to/lastmile_qr_scan", "android": "https://dc.lft.to/lastmile_qr_scan"}, "lon": -77.00186233333334, "type": "electric_scooter", "fusion_lat": 0.0, "lat": 38.873848333333335, "name": "6f84817183fadbed7ef850e8dba42bb3", "fusion_lon": 0.0, "bike_id": "6f84817183fadbed7ef850e8dba42bb3", "is_disabled": 0, "is_reserved": 0}, {"rental_uris": {"ios": "https://dc.lft.to/lastmile_qr_scan", "android": "https://dc.lft.to/lastmile_qr_scan"}, "lon": -77.005973, "type": "electric_scooter", "fusion_lat": 0.0, "lat": 38.9063955, "name": "7444202c058e88827b1954a35c264fae", "fusion_lon": 0.0, "bike_id": "7444202c058e88827b1954a35c264fae", "is_disabled": 0, "is_reserved": 0}, {"rental_uris": {"ios": "https://dc.lft.to/lastmile_qr_scan", "android": "https://dc.lft.to/lastmile_qr_scan"}, "lon": -77.0242225, "type": "electric_scooter", "fusion_lat": 0.0, "lat": 38.90556633333333, "name": "13ef15c1c1ddb7c754c1cdab0d462ce7", "fusion_lon": 0.0, "bike_id": "13ef15c1c1ddb7c754c1cdab0d462ce7", "is_disabled": 0, "is_reserved": 0}, {"rental_uris": {"ios": "https://dc.lft.to/lastmile_qr_scan", "android": "https://dc.lft.to/lastmile_qr_scan"}, "lon": -77.03264816666666, "type": "electric_scooter", "fusion_lat": 0.0, "lat": 38.936669, "name": "6b4e4d8a6f02f47c7f30e2f369ab11c3", "fusion_lon": 0.0, "bike_id": "6b4e4d8a6f02f47c7f30e2f369ab11c3", "is_disabled": 0, "is_reserved": 0}, {"rental_uris": {"ios": "https://dc.lft.to/lastmile_qr_scan", "android": "https://dc.lft.to/lastmile_qr_scan"}, "lon": -77.06941066666667, "type": "electric_scooter", "fusion_lat": 0.0, "lat": 38.905059666666666, "name": "b0fb5f7f63c7a86d14fdaa41ebf7ad1f", "fusion_lon": 0.0, "bike_id": "b0fb5f7f63c7a86d14fdaa41ebf7ad1f", "is_disabled": 0, "is_reserved": 0}, {"rental_uris": {"ios": "https://dc.lft.to/lastmile_qr_scan", "android": "https://dc.lft.to/lastmile_qr_scan"}, "lon": -77.1012795, "type": "electric_bike", "fusion_lat": 0.0, "lat": 38.85209066666667, "name": "c9565f5126d657baabd3ae4b60940e12", "fusion_lon": 0.0, "bike_id": "c9565f5126d657baabd3ae4b60940e12", "is_disabled": 0, "is_reserved": 0}, {"rental_uris": {"ios": "https://dc.lft.to/lastmile_qr_scan", "android": "https://dc.lft.to/lastmile_qr_scan"}, "lon": -77.00107133333333, "type": "electric_scooter", "fusion_lat": 0.0, "lat": 38.8999465, "name": "f8b52df76203265ab150e45f1bb8a1eb", "fusion_lon": 0.0, "bike_id": "f8b52df76203265ab150e45f1bb8a1eb", "is_disabled": 0, "is_reserved": 0}, {"rental_uris": {"ios": "https://dc.lft.to/lastmile_qr_scan", "android": "https://dc.lft.to/lastmile_qr_scan"}, "lon": -77.04447816666666, "type": "electric_scooter", "fusion_lat": 0.0, "lat": 38.910168666666664, "name": "ced896697e89cfef2ee50e34d637c62d", "fusion_lon": 0.0, "bike_id": "ced896697e89cfef2ee50e34d637c62d", "is_disabled": 0, "is_reserved": 0}, {"rental_uris": {"ios": "https://dc.lft.to/lastmile_qr_scan", "android": "https://dc.lft.to/lastmile_qr_scan"}, "lon": -77.03675016666666, "type": "electric_scooter", "fusion_lat": 0.0, "lat": 38.91822366666667, "name": "29c494dfc645d787dd9dedabd4b41873", "fusion_lon": 0.0, "bike_id": "29c494dfc645d787dd9dedabd4b41873", "is_disabled": 0, "is_reserved": 0}, {"rental_uris": {"ios": "https://dc.lft.to/lastmile_qr_scan", "android": "https://dc.lft.to/lastmile_qr_scan"}, "lon": -77.02128966666666, "type": "electric_scooter", "fusion_lat": 0.0, "lat": 38.916068333333335, "name": "fee745513995ecee8147a60ef5fce1f2", "fusion_lon": 0.0, "bike_id": "fee745513995ecee8147a60ef5fce1f2", "is_disabled": 0, "is_reserved": 0}, {"rental_uris": {"ios": "https://dc.lft.to/lastmile_qr_scan", "android": "https://dc.lft.to/lastmile_qr_scan"}, "lon": -77.17842833333333, "type": "electric_bike", "fusion_lat": 0.0, "lat": 39.0885565, "name": "7be6a3d94bb2db08a0d2d9114ae92f9b", "fusion_lon": 0.0, "bike_id": "7be6a3d94bb2db08a0d2d9114ae92f9b", "is_disabled": 0, "is_reserved": 0}, {"rental_uris": {"ios": "https://dc.lft.to/lastmile_qr_scan", "android": "https://dc.lft.to/lastmile_qr_scan"}, "lon": -76.98708733333333, "type": "electric_scooter", "fusion_lat": 0.0, "lat": 38.90266233333333, "name": "287544ed26b14cbbfe0a5e60792d3877", "fusion_lon": 0.0, "bike_id": "287544ed26b14cbbfe0a5e60792d3877", "is_disabled": 0, "is_reserved": 0}, {"rental_uris": {"ios": "https://dc.lft.to/lastmile_qr_scan", "android": "https://dc.lft.to/lastmile_qr_scan"}, "lon": -76.98897816666667, "type": "electric_scooter", "fusion_lat": 0.0, "lat": 38.866964833333334, "name": "3dbf5c4cc21039c9d82c0ee1923c6d1c", "fusion_lon": 0.0, "bike_id": "3dbf5c4cc21039c9d82c0ee1923c6d1c", "is_disabled": 0, "is_reserved": 0}, {"rental_uris": {"ios": "https://dc.lft.to/lastmile_qr_scan", "android": "https://dc.lft.to/lastmile_qr_scan"}, "lon": -77.05702016666666, "type": "electric_scooter", "fusion_lat": 0.0, "lat": 38.9053815, "name": "94211aeee73a5f5977562347db2e352f", "fusion_lon": 0.0, "bike_id": "94211aeee73a5f5977562347db2e352f", "is_disabled": 0, "is_reserved": 0}, {"rental_uris": {"ios": "https://dc.lft.to/lastmile_qr_scan", "android": "https://dc.lft.to/lastmile_qr_scan"}, "lon": -77.04860966666666, "type": "electric_scooter", "fusion_lat": 0.0, "lat": 38.90849566666667, "name": "2b30c43c251c0d4067d1939852818211", "fusion_lon": 0.0, "bike_id": "2b30c43c251c0d4067d1939852818211", "is_disabled": 0, "is_reserved": 0}, {"rental_uris": {"ios": "https://dc.lft.to/lastmile_qr_scan", "android": "https://dc.lft.to/lastmile_qr_scan"}, "lon": -76.95353433333334, "type": "electric_bike", "fusion_lat": 0.0, "lat": 38.9395285, "name": "562cd546173e5b07e4fba9673fd7d1a4", "fusion_lon": 0.0, "bike_id": "562cd546173e5b07e4fba9673fd7d1a4", "is_disabled": 0, "is_reserved": 0}, {"rental_uris": {"ios": "https://dc.lft.to/lastmile_qr_scan", "android": "https://dc.lft.to/lastmile_qr_scan"}, "lon": -76.98702616666667, "type": "electric_scooter", "fusion_lat": 0.0, "lat": 38.865333666666665, "name": "0d303de7250fa3480ab7c1dfd1c93aff", "fusion_lon": 0.0, "bike_id": "0d303de7250fa3480ab7c1dfd1c93aff", "is_disabled": 0, "is_reserved": 0}, {"rental_uris": {"ios": "https://dc.lft.to/lastmile_qr_scan", "android": "https://dc.lft.to/lastmile_qr_scan"}, "lon": -77.038686, "type": "electric_scooter", "fusion_lat": 0.0, "lat": 38.91563033333333, "name": "245c519fd44117d3227912b47fe040f3", "fusion_lon": 0.0, "bike_id": "245c519fd44117d3227912b47fe040f3", "is_disabled": 0, "is_reserved": 0}, {"rental_uris": {"ios": "https://dc.lft.to/lastmile_qr_scan", "android": "https://dc.lft.to/lastmile_qr_scan"}, "lon": -77.05463483333334, "type": "electric_scooter", "fusion_lat": 0.0, "lat": 38.92091666666666, "name": "0213201e76206598f4cc1c379062fb7d", "fusion_lon": 0.0, "bike_id": "0213201e76206598f4cc1c379062fb7d", "is_disabled": 0, "is_reserved": 0}, {"rental_uris": {"ios": "https://dc.lft.to/lastmile_qr_scan", "android": "https://dc.lft.to/lastmile_qr_scan"}, "lon": -77.04657983333334, "type": "electric_scooter", "fusion_lat": 0.0, "lat": 38.907055166666666, "name": "7b4c3be8bf8f70fe3f6a9780f829f3cc", "fusion_lon": 0.0, "bike_id": "7b4c3be8bf8f70fe3f6a9780f829f3cc", "is_disabled": 0, "is_reserved": 0}, {"rental_uris": {"ios": "https://dc.lft.to/lastmile_qr_scan", "android": "https://dc.lft.to/lastmile_qr_scan"}, "lon": -77.0008865, "type": "electric_scooter", "fusion_lat": 0.0, "lat": 38.873724, "name": "32b42b967d127cabbd924358a427177b", "fusion_lon": 0.0, "bike_id": "32b42b967d127cabbd924358a427177b", "is_disabled": 0, "is_reserved": 0}, {"rental_uris": {"ios": "https://dc.lft.to/lastmile_qr_scan", "android": "https://dc.lft.to/lastmile_qr_scan"}, "lon": -76.95416433333334, "type": "electric_scooter", "fusion_lat": 0.0, "lat": 38.889883166666664, "name": "62ca9f3cd71f6c551b6fc5b474cd8721", "fusion_lon": 0.0, "bike_id": "62ca9f3cd71f6c551b6fc5b474cd8721", "is_disabled": 0, "is_reserved": 0}, {"rental_uris": {"ios": "https://dc.lft.to/lastmile_qr_scan", "android": "https://dc.lft.to/lastmile_qr_scan"}, "lon": -76.98709766666667, "type": "electric_scooter", "fusion_lat": 0.0, "lat": 38.862592, "name": "0ca9916924ce18b145a8a1b6c8ffcf92", "fusion_lon": 0.0, "bike_id": "0ca9916924ce18b145a8a1b6c8ffcf92", "is_disabled": 0, "is_reserved": 0}, {"rental_uris": {"ios": "https://dc.lft.to/lastmile_qr_scan", "android": "https://dc.lft.to/lastmile_qr_scan"}, "lon": -77.03620783333334, "type": "electric_scooter", "fusion_lat": 0.0, "lat": 38.932507333333334, "name": "20d5771ec031114b61db9e1fc1fdee3c", "fusion_lon": 0.0, "bike_id": "20d5771ec031114b61db9e1fc1fdee3c", "is_disabled": 0, "is_reserved": 0}, {"rental_uris": {"ios": "https://dc.lft.to/lastmile_qr_scan", "android": "https://dc.lft.to/lastmile_qr_scan"}, "lon": -76.94174033333333, "type": "electric_scooter", "fusion_lat": 0.0, "lat": 38.8821945, "name": "d7482c1a9b73e5144b3ebe66bacec3fc", "fusion_lon": 0.0, "bike_id": "d7482c1a9b73e5144b3ebe66bacec3fc", "is_disabled": 0, "is_reserved": 0}, {"rental_uris": {"ios": "https://dc.lft.to/lastmile_qr_scan", "android": "https://dc.lft.to/lastmile_qr_scan"}, "lon": -77.04257083333333, "type": "electric_scooter", "fusion_lat": 0.0, "lat": 38.922058666666665, "name": "b250888067c84982aab607ca165fe03b", "fusion_lon": 0.0, "bike_id": "b250888067c84982aab607ca165fe03b", "is_disabled": 0, "is_reserved": 0}, {"rental_uris": {"ios": "https://dc.lft.to/lastmile_qr_scan", "android": "https://dc.lft.to/lastmile_qr_scan"}, "lon": -77.0444555, "type": "electric_scooter", "fusion_lat": 0.0, "lat": 38.9101315, "name": "860942970343b3939646640cc44dce9c", "fusion_lon": 0.0, "bike_id": "860942970343b3939646640cc44dce9c", "is_disabled": 0, "is_reserved": 0}, {"rental_uris": {"ios": "https://dc.lft.to/lastmile_qr_scan", "android": "https://dc.lft.to/lastmile_qr_scan"}, "lon": -76.99146633333334, "type": "electric_scooter", "fusion_lat": 0.0, "lat": 38.900392, "name": "d737b850c81eced3755dbb7437cec778", "fusion_lon": 0.0, "bike_id": "d737b850c81eced3755dbb7437cec778", "is_disabled": 0, "is_reserved": 0}, {"rental_uris": {"ios": "https://dc.lft.to/lastmile_qr_scan", "android": "https://dc.lft.to/lastmile_qr_scan"}, "lon": -77.0412025, "type": "electric_scooter", "fusion_lat": 0.0, "lat": 38.92150633333333, "name": "20c93783cec7fe8743d7682513165de7", "fusion_lon": 0.0, "bike_id": "20c93783cec7fe8743d7682513165de7", "is_disabled": 0, "is_reserved": 0}, {"rental_uris": {"ios": "https://dc.lft.to/lastmile_qr_scan", "android": "https://dc.lft.to/lastmile_qr_scan"}, "lon": -77.03701183333334, "type": "electric_scooter", "fusion_lat": 0.0, "lat": 38.9264365, "name": "bc85ae4dc89dfeb79e9314e7868f2548", "fusion_lon": 0.0, "bike_id": "bc85ae4dc89dfeb79e9314e7868f2548", "is_disabled": 0, "is_reserved": 0}, {"rental_uris": {"ios": "https://dc.lft.to/lastmile_qr_scan", "android": "https://dc.lft.to/lastmile_qr_scan"}, "lon": -77.05586566666666, "type": "electric_scooter", "fusion_lat": 0.0, "lat": 38.92786066666667, "name": "7555eaae4e527105e1f7d8a0dc6ed680", "fusion_lon": 0.0, "bike_id": "7555eaae4e527105e1f7d8a0dc6ed680", "is_disabled": 0, "is_reserved": 0}, {"rental_uris": {"ios": "https://dc.lft.to/lastmile_qr_scan", "android": "https://dc.lft.to/lastmile_qr_scan"}, "lon": -77.029639, "type": "electric_scooter", "fusion_lat": 0.0, "lat": 38.93029883333333, "name": "6be072e131cdb584b63c28244e9c0d2f", "fusion_lon": 0.0, "bike_id": "6be072e131cdb584b63c28244e9c0d2f", "is_disabled": 0, "is_reserved": 0}, {"rental_uris": {"ios": "https://dc.lft.to/lastmile_qr_scan", "android": "https://dc.lft.to/lastmile_qr_scan"}, "lon": -76.95737933333334, "type": "electric_scooter", "fusion_lat": 0.0, "lat": 38.891846, "name": "7ea9c5c2a43ff37f4b4ef99d602f6696", "fusion_lon": 0.0, "bike_id": "7ea9c5c2a43ff37f4b4ef99d602f6696", "is_disabled": 0, "is_reserved": 0}, {"rental_uris": {"ios": "https://dc.lft.to/lastmile_qr_scan", "android": "https://dc.lft.to/lastmile_qr_scan"}, "lon": -77.02947366666666, "type": "electric_scooter", "fusion_lat": 0.0, "lat": 38.905068166666666, "name": "f19878ed336622338847bc82debffc1f", "fusion_lon": 0.0, "bike_id": "f19878ed336622338847bc82debffc1f", "is_disabled": 0, "is_reserved": 0}, {"rental_uris": {"ios": "https://dc.lft.to/lastmile_qr_scan", "android": "https://dc.lft.to/lastmile_qr_scan"}, "lon": -77.03020433333333, "type": "electric_scooter", "fusion_lat": 0.0, "lat": 38.8972655, "name": "74ef4d67ddd724630ddd38645f031779", "fusion_lon": 0.0, "bike_id": "74ef4d67ddd724630ddd38645f031779", "is_disabled": 0, "is_reserved": 0}, {"rental_uris": {"ios": "https://dc.lft.to/lastmile_qr_scan", "android": "https://dc.lft.to/lastmile_qr_scan"}, "lon": -77.095225, "type": "electric_bike", "fusion_lat": 0.0, "lat": 38.838125, "name": "721a8bd9a0a3b9970a8e9aa421cf778e", "fusion_lon": 0.0, "bike_id": "721a8bd9a0a3b9970a8e9aa421cf778e", "is_disabled": 0, "is_reserved": 0}, {"rental_uris": {"ios": "https://dc.lft.to/lastmile_qr_scan", "android": "https://dc.lft.to/lastmile_qr_scan"}, "lon": -77.03720416666667, "type": "electric_scooter", "fusion_lat": 0.0, "lat": 38.95178, "name": "2041267f0552cef90324396b63fa2996", "fusion_lon": 0.0, "bike_id": "2041267f0552cef90324396b63fa2996", "is_disabled": 0, "is_reserved": 0}, {"rental_uris": {"ios": "https://dc.lft.to/lastmile_qr_scan", "android": "https://dc.lft.to/lastmile_qr_scan"}, "lon": -77.02543783333333, "type": "electric_scooter", "fusion_lat": 0.0, "lat": 38.918211, "name": "88d09c1edfe6dc2d20cceaf303ceacf7", "fusion_lon": 0.0, "bike_id": "88d09c1edfe6dc2d20cceaf303ceacf7", "is_disabled": 0, "is_reserved": 0}, {"rental_uris": {"ios": "https://dc.lft.to/lastmile_qr_scan", "android": "https://dc.lft.to/lastmile_qr_scan"}, "lon": -77.04497083333334, "type": "electric_scooter", "fusion_lat": 0.0, "lat": 38.912811833333336, "name": "ed1a89ff3ead46693b38c4fd18a6a436", "fusion_lon": 0.0, "bike_id": "ed1a89ff3ead46693b38c4fd18a6a436", "is_disabled": 0, "is_reserved": 0}, {"rental_uris": {"ios": "https://dc.lft.to/lastmile_qr_scan", "android": "https://dc.lft.to/lastmile_qr_scan"}, "lon": -77.0481605, "type": "electric_scooter", "fusion_lat": 0.0, "lat": 38.907979166666664, "name": "9f276d7cf175578560b1bef7fa55dbbe", "fusion_lon": 0.0, "bike_id": "9f276d7cf175578560b1bef7fa55dbbe", "is_disabled": 0, "is_reserved": 0}, {"rental_uris": {"ios": "https://dc.lft.to/lastmile_qr_scan", "android": "https://dc.lft.to/lastmile_qr_scan"}, "lon": -76.9463165, "type": "electric_scooter", "fusion_lat": 0.0, "lat": 38.8984015, "name": "9e912bed68bc4fef955b7c7cdfa81c77", "fusion_lon": 0.0, "bike_id": "9e912bed68bc4fef955b7c7cdfa81c77", "is_disabled": 0, "is_reserved": 0}, {"rental_uris": {"ios": "https://dc.lft.to/lastmile_qr_scan", "android": "https://dc.lft.to/lastmile_qr_scan"}, "lon": -77.02170316666667, "type": "electric_scooter", "fusion_lat": 0.0, "lat": 38.94292433333333, "name": "cad1209de2ab4380436c1d9efc310cab", "fusion_lon": 0.0, "bike_id": "cad1209de2ab4380436c1d9efc310cab", "is_disabled": 0, "is_reserved": 0}, {"rental_uris": {"ios": "https://dc.lft.to/lastmile_qr_scan", "android": "https://dc.lft.to/lastmile_qr_scan"}, "lon": -77.03172933333333, "type": "electric_scooter", "fusion_lat": 0.0, "lat": 38.91333616666667, "name": "325edbde4e942a60123df3a1f732bc64", "fusion_lon": 0.0, "bike_id": "325edbde4e942a60123df3a1f732bc64", "is_disabled": 0, "is_reserved": 0}, {"rental_uris": {"ios": "https://dc.lft.to/lastmile_qr_scan", "android": "https://dc.lft.to/lastmile_qr_scan"}, "lon": -77.04343333333334, "type": "electric_scooter", "fusion_lat": 0.0, "lat": 38.911757, "name": "de5e963127c0cf624b9745be8e79a42c", "fusion_lon": 0.0, "bike_id": "de5e963127c0cf624b9745be8e79a42c", "is_disabled": 0, "is_reserved": 0}, {"rental_uris": {"ios": "https://dc.lft.to/lastmile_qr_scan", "android": "https://dc.lft.to/lastmile_qr_scan"}, "lon": -77.06589533333333, "type": "electric_scooter", "fusion_lat": 0.0, "lat": 38.90358483333333, "name": "225ac62d1966229338d56fd0e0b8e150", "fusion_lon": 0.0, "bike_id": "225ac62d1966229338d56fd0e0b8e150", "is_disabled": 0, "is_reserved": 0}, {"rental_uris": {"ios": "https://dc.lft.to/lastmile_qr_scan", "android": "https://dc.lft.to/lastmile_qr_scan"}, "lon": -77.063278, "type": "electric_bike", "fusion_lat": 0.0, "lat": 38.92105883333333, "name": "4544335eb186b9547e610bb973667420", "fusion_lon": 0.0, "bike_id": "4544335eb186b9547e610bb973667420", "is_disabled": 0, "is_reserved": 0}, {"rental_uris": {"ios": "https://dc.lft.to/lastmile_qr_scan", "android": "https://dc.lft.to/lastmile_qr_scan"}, "lon": -77.03355283333333, "type": "electric_scooter", "fusion_lat": 0.0, "lat": 38.89252116666667, "name": "23ef5dbba25373281d6f5c8576f6a4b5", "fusion_lon": 0.0, "bike_id": "23ef5dbba25373281d6f5c8576f6a4b5", "is_disabled": 0, "is_reserved": 0}, {"rental_uris": {"ios": "https://dc.lft.to/lastmile_qr_scan", "android": "https://dc.lft.to/lastmile_qr_scan"}, "lon": -77.06167583333334, "type": "electric_scooter", "fusion_lat": 0.0, "lat": 38.94808616666667, "name": "31e3220719d8e1dcb9214a9b9699dc1d", "fusion_lon": 0.0, "bike_id": "31e3220719d8e1dcb9214a9b9699dc1d", "is_disabled": 0, "is_reserved": 0}, {"rental_uris": {"ios": "https://dc.lft.to/lastmile_qr_scan", "android": "https://dc.lft.to/lastmile_qr_scan"}, "lon": -77.041585, "type": "electric_scooter", "fusion_lat": 0.0, "lat": 38.914139666666664, "name": "362cfb8546e7e5e0a6cc91dcf1c44f23", "fusion_lon": 0.0, "bike_id": "362cfb8546e7e5e0a6cc91dcf1c44f23", "is_disabled": 0, "is_reserved": 0}, {"rental_uris": {"ios": "https://dc.lft.to/lastmile_qr_scan", "android": "https://dc.lft.to/lastmile_qr_scan"}, "lon": -77.0358475, "type": "electric_scooter", "fusion_lat": 0.0, "lat": 38.932371, "name": "c0e9216387e841b8864e25b401b60760", "fusion_lon": 0.0, "bike_id": "c0e9216387e841b8864e25b401b60760", "is_disabled": 0, "is_reserved": 0}, {"rental_uris": {"ios": "https://dc.lft.to/lastmile_qr_scan", "android": "https://dc.lft.to/lastmile_qr_scan"}, "lon": -77.1309045, "type": "electric_bike", "fusion_lat": 0.0, "lat": 38.86163616666666, "name": "8d295e9b498bbda07e6aaae0f58dd8ca", "fusion_lon": 0.0, "bike_id": "8d295e9b498bbda07e6aaae0f58dd8ca", "is_disabled": 0, "is_reserved": 0}, {"rental_uris": {"ios": "https://dc.lft.to/lastmile_qr_scan", "android": "https://dc.lft.to/lastmile_qr_scan"}, "lon": -76.9851115, "type": "electric_scooter", "fusion_lat": 0.0, "lat": 38.900853833333336, "name": "2fab403361539f375c6fdab4292cc823", "fusion_lon": 0.0, "bike_id": "2fab403361539f375c6fdab4292cc823", "is_disabled": 0, "is_reserved": 0}, {"rental_uris": {"ios": "https://dc.lft.to/lastmile_qr_scan", "android": "https://dc.lft.to/lastmile_qr_scan"}, "lon": -77.04758183333334, "type": "electric_scooter", "fusion_lat": 0.0, "lat": 38.8972785, "name": "be5a3782a02aa0355abd7b7ae4e7a59e", "fusion_lon": 0.0, "bike_id": "be5a3782a02aa0355abd7b7ae4e7a59e", "is_disabled": 0, "is_reserved": 0}, {"rental_uris": {"ios": "https://dc.lft.to/lastmile_qr_scan", "android": "https://dc.lft.to/lastmile_qr_scan"}, "lon": -77.029574, "type": "electric_scooter", "fusion_lat": 0.0, "lat": 38.905074166666665, "name": "cb81d26422dd9661c9e5bc65b03ac323", "fusion_lon": 0.0, "bike_id": "cb81d26422dd9661c9e5bc65b03ac323", "is_disabled": 0, "is_reserved": 0}, {"rental_uris": {"ios": "https://dc.lft.to/lastmile_qr_scan", "android": "https://dc.lft.to/lastmile_qr_scan"}, "lon": -77.03647666666667, "type": "electric_scooter", "fusion_lat": 0.0, "lat": 38.95506316666667, "name": "f97c13c57619ed8f5a499be28efdae0b", "fusion_lon": 0.0, "bike_id": "f97c13c57619ed8f5a499be28efdae0b", "is_disabled": 0, "is_reserved": 0}, {"rental_uris": {"ios": "https://dc.lft.to/lastmile_qr_scan", "android": "https://dc.lft.to/lastmile_qr_scan"}, "lon": -77.04056966666667, "type": "electric_scooter", "fusion_lat": 0.0, "lat": 38.91012466666667, "name": "c238146eb165413a32f76ab695daaccd", "fusion_lon": 0.0, "bike_id": "c238146eb165413a32f76ab695daaccd", "is_disabled": 0, "is_reserved": 0}, {"rental_uris": {"ios": "https://dc.lft.to/lastmile_qr_scan", "android": "https://dc.lft.to/lastmile_qr_scan"}, "lon": -77.02309766666667, "type": "electric_scooter", "fusion_lat": 0.0, "lat": 38.9169555, "name": "f25d02e1c9ca4338507c100228922079", "fusion_lon": 0.0, "bike_id": "f25d02e1c9ca4338507c100228922079", "is_disabled": 0, "is_reserved": 0}, {"rental_uris": {"ios": "https://dc.lft.to/lastmile_qr_scan", "android": "https://dc.lft.to/lastmile_qr_scan"}, "lon": -77.02217366666666, "type": "electric_scooter", "fusion_lat": 0.0, "lat": 38.905741166666665, "name": "f9c75ce93b7418e939db2be75352b0e3", "fusion_lon": 0.0, "bike_id": "f9c75ce93b7418e939db2be75352b0e3", "is_disabled": 0, "is_reserved": 0}, {"rental_uris": {"ios": "https://dc.lft.to/lastmile_qr_scan", "android": "https://dc.lft.to/lastmile_qr_scan"}, "lon": -77.031801, "type": "electric_scooter", "fusion_lat": 0.0, "lat": 38.8873535, "name": "e532ed9431e68575914918fadc422333", "fusion_lon": 0.0, "bike_id": "e532ed9431e68575914918fadc422333", "is_disabled": 0, "is_reserved": 0}, {"rental_uris": {"ios": "https://dc.lft.to/lastmile_qr_scan", "android": "https://dc.lft.to/lastmile_qr_scan"}, "lon": -77.03631783333333, "type": "electric_scooter", "fusion_lat": 0.0, "lat": 38.91739833333333, "name": "962e63fcd1775dc993c86a14d0878407", "fusion_lon": 0.0, "bike_id": "962e63fcd1775dc993c86a14d0878407", "is_disabled": 0, "is_reserved": 0}, {"rental_uris": {"ios": "https://dc.lft.to/lastmile_qr_scan", "android": "https://dc.lft.to/lastmile_qr_scan"}, "lon": -77.091587, "type": "electric_bike", "fusion_lat": 0.0, "lat": 38.96761566666667, "name": "357076041114050500abf185c83fbfc3", "fusion_lon": 0.0, "bike_id": "357076041114050500abf185c83fbfc3", "is_disabled": 0, "is_reserved": 0}, {"rental_uris": {"ios": "https://dc.lft.to/lastmile_qr_scan", "android": "https://dc.lft.to/lastmile_qr_scan"}, "lon": -77.024632, "type": "electric_scooter", "fusion_lat": 0.0, "lat": 38.9170655, "name": "4ef90e27d3789f94cf737315d7634ece", "fusion_lon": 0.0, "bike_id": "4ef90e27d3789f94cf737315d7634ece", "is_disabled": 0, "is_reserved": 0}, {"rental_uris": {"ios": "https://dc.lft.to/lastmile_qr_scan", "android": "https://dc.lft.to/lastmile_qr_scan"}, "lon": -77.023175, "type": "electric_scooter", "fusion_lat": 0.0, "lat": 38.8833225, "name": "56427dd8cbe57a5b402b93b64483425f", "fusion_lon": 0.0, "bike_id": "56427dd8cbe57a5b402b93b64483425f", "is_disabled": 0, "is_reserved": 0}, {"rental_uris": {"ios": "https://dc.lft.to/lastmile_qr_scan", "android": "https://dc.lft.to/lastmile_qr_scan"}, "lon": -77.008048, "type": "electric_scooter", "fusion_lat": 0.0, "lat": 38.914058833333335, "name": "b401051bd8b0135a5a8bb6e6c05371bf", "fusion_lon": 0.0, "bike_id": "b401051bd8b0135a5a8bb6e6c05371bf", "is_disabled": 0, "is_reserved": 0}, {"rental_uris": {"ios": "https://dc.lft.to/lastmile_qr_scan", "android": "https://dc.lft.to/lastmile_qr_scan"}, "lon": -76.95756816666666, "type": "electric_bike", "fusion_lat": 0.0, "lat": 38.88424033333333, "name": "d0965016f1a7fba23e58a29a332dfedb", "fusion_lon": 0.0, "bike_id": "d0965016f1a7fba23e58a29a332dfedb", "is_disabled": 0, "is_reserved": 0}, {"rental_uris": {"ios": "https://dc.lft.to/lastmile_qr_scan", "android": "https://dc.lft.to/lastmile_qr_scan"}, "lon": -77.05043016666667, "type": "electric_scooter", "fusion_lat": 0.0, "lat": 38.92362133333334, "name": "1bd4bbed0a468d87f7265c652322a30c", "fusion_lon": 0.0, "bike_id": "1bd4bbed0a468d87f7265c652322a30c", "is_disabled": 0, "is_reserved": 0}, {"rental_uris": {"ios": "https://dc.lft.to/lastmile_qr_scan", "android": "https://dc.lft.to/lastmile_qr_scan"}, "lon": -76.94669383333333, "type": "electric_scooter", "fusion_lat": 0.0, "lat": 38.903374166666666, "name": "8bfe743d092d49675d46d6c9f05d4be2", "fusion_lon": 0.0, "bike_id": "8bfe743d092d49675d46d6c9f05d4be2", "is_disabled": 0, "is_reserved": 0}, {"rental_uris": {"ios": "https://dc.lft.to/lastmile_qr_scan", "android": "https://dc.lft.to/lastmile_qr_scan"}, "lon": -76.99363433333333, "type": "electric_scooter", "fusion_lat": 0.0, "lat": 38.90031533333333, "name": "4818022288928fd6df0621fe6753acb9", "fusion_lon": 0.0, "bike_id": "4818022288928fd6df0621fe6753acb9", "is_disabled": 0, "is_reserved": 0}, {"rental_uris": {"ios": "https://dc.lft.to/lastmile_qr_scan", "android": "https://dc.lft.to/lastmile_qr_scan"}, "lon": -77.0518055, "type": "electric_scooter", "fusion_lat": 0.0, "lat": 38.92419916666667, "name": "191f84fb6979dd919461d3b3d553b2bf", "fusion_lon": 0.0, "bike_id": "191f84fb6979dd919461d3b3d553b2bf", "is_disabled": 0, "is_reserved": 0}, {"rental_uris": {"ios": "https://dc.lft.to/lastmile_qr_scan", "android": "https://dc.lft.to/lastmile_qr_scan"}, "lon": -76.9951645, "type": "electric_scooter", "fusion_lat": 0.0, "lat": 38.89484133333333, "name": "a83927a7720001f435e6d2586bd23425", "fusion_lon": 0.0, "bike_id": "a83927a7720001f435e6d2586bd23425", "is_disabled": 0, "is_reserved": 0}, {"rental_uris": {"ios": "https://dc.lft.to/lastmile_qr_scan", "android": "https://dc.lft.to/lastmile_qr_scan"}, "lon": -76.878107, "type": "electric_bike", "fusion_lat": 0.0, "lat": 38.99227333333333, "name": "8cc053c1e5ad14908860e05b928677e8", "fusion_lon": 0.0, "bike_id": "8cc053c1e5ad14908860e05b928677e8", "is_disabled": 0, "is_reserved": 0}, {"rental_uris": {"ios": "https://dc.lft.to/lastmile_qr_scan", "android": "https://dc.lft.to/lastmile_qr_scan"}, "lon": -77.00293533333334, "type": "electric_bike", "fusion_lat": 0.0, "lat": 38.916183, "name": "363843f619b7ff16e6b6db902ee7fecc", "fusion_lon": 0.0, "bike_id": "363843f619b7ff16e6b6db902ee7fecc", "is_disabled": 0, "is_reserved": 0}, {"rental_uris": {"ios": "https://dc.lft.to/lastmile_qr_scan", "android": "https://dc.lft.to/lastmile_qr_scan"}, "lon": -77.0370155, "type": "electric_scooter", "fusion_lat": 0.0, "lat": 38.92641616666667, "name": "2b9d9b1ffc8cc4f66fcbab7effb2671d", "fusion_lon": 0.0, "bike_id": "2b9d9b1ffc8cc4f66fcbab7effb2671d", "is_disabled": 0, "is_reserved": 0}, {"rental_uris": {"ios": "https://dc.lft.to/lastmile_qr_scan", "android": "https://dc.lft.to/lastmile_qr_scan"}, "lon": -77.041585, "type": "electric_scooter", "fusion_lat": 0.0, "lat": 38.91144833333333, "name": "cefd12cf57107fde76a6b33323cb6be4", "fusion_lon": 0.0, "bike_id": "cefd12cf57107fde76a6b33323cb6be4", "is_disabled": 0, "is_reserved": 0}, {"rental_uris": {"ios": "https://dc.lft.to/lastmile_qr_scan", "android": "https://dc.lft.to/lastmile_qr_scan"}, "lon": -77.0256715, "type": "electric_scooter", "fusion_lat": 0.0, "lat": 38.91481016666667, "name": "d1370dd2738828262c37123b9f95ef8d", "fusion_lon": 0.0, "bike_id": "d1370dd2738828262c37123b9f95ef8d", "is_disabled": 0, "is_reserved": 0}, {"rental_uris": {"ios": "https://dc.lft.to/lastmile_qr_scan", "android": "https://dc.lft.to/lastmile_qr_scan"}, "lon": -77.0411925, "type": "electric_scooter", "fusion_lat": 0.0, "lat": 38.917076333333334, "name": "669996e56c9995d2e0bcb3f3ba57508b", "fusion_lon": 0.0, "bike_id": "669996e56c9995d2e0bcb3f3ba57508b", "is_disabled": 0, "is_reserved": 0}, {"rental_uris": {"ios": "https://dc.lft.to/lastmile_qr_scan", "android": "https://dc.lft.to/lastmile_qr_scan"}, "lon": -76.988907, "type": "electric_scooter", "fusion_lat": 0.0, "lat": 38.866567333333336, "name": "475b2e2fd71ba848565c123997cc7a13", "fusion_lon": 0.0, "bike_id": "475b2e2fd71ba848565c123997cc7a13", "is_disabled": 0, "is_reserved": 0}, {"rental_uris": {"ios": "https://dc.lft.to/lastmile_qr_scan", "android": "https://dc.lft.to/lastmile_qr_scan"}, "lon": -77.01145983333333, "type": "electric_bike", "fusion_lat": 0.0, "lat": 38.91178083333333, "name": "9522e1de3e5e5e99e56e50de2d4aec3b", "fusion_lon": 0.0, "bike_id": "9522e1de3e5e5e99e56e50de2d4aec3b", "is_disabled": 0, "is_reserved": 0}, {"rental_uris": {"ios": "https://dc.lft.to/lastmile_qr_scan", "android": "https://dc.lft.to/lastmile_qr_scan"}, "lon": -77.032024, "type": "electric_scooter", "fusion_lat": 0.0, "lat": 38.887289, "name": "e761b7d74328d7c69eb32bfcc9e19da4", "fusion_lon": 0.0, "bike_id": "e761b7d74328d7c69eb32bfcc9e19da4", "is_disabled": 0, "is_reserved": 0}, {"rental_uris": {"ios": "https://dc.lft.to/lastmile_qr_scan", "android": "https://dc.lft.to/lastmile_qr_scan"}, "lon": -77.031611, "type": "electric_scooter", "fusion_lat": 0.0, "lat": 38.92862616666667, "name": "0719e5afd880e7d7dab7a2c6d2c073f9", "fusion_lon": 0.0, "bike_id": "0719e5afd880e7d7dab7a2c6d2c073f9", "is_disabled": 0, "is_reserved": 0}, {"rental_uris": {"ios": "https://dc.lft.to/lastmile_qr_scan", "android": "https://dc.lft.to/lastmile_qr_scan"}, "lon": -76.98838816666667, "type": "electric_scooter", "fusion_lat": 0.0, "lat": 38.906151333333334, "name": "86444a430d6eaa83599b2bec7d266c90", "fusion_lon": 0.0, "bike_id": "86444a430d6eaa83599b2bec7d266c90", "is_disabled": 0, "is_reserved": 0}, {"rental_uris": {"ios": "https://dc.lft.to/lastmile_qr_scan", "android": "https://dc.lft.to/lastmile_qr_scan"}, "lon": -77.07557866666667, "type": "electric_bike", "fusion_lat": 0.0, "lat": 38.910456833333335, "name": "0bc16a3c3b1c4bf6da7bfd2e61b1d906", "fusion_lon": 0.0, "bike_id": "0bc16a3c3b1c4bf6da7bfd2e61b1d906", "is_disabled": 0, "is_reserved": 0}, {"rental_uris": {"ios": "https://dc.lft.to/lastmile_qr_scan", "android": "https://dc.lft.to/lastmile_qr_scan"}, "lon": -76.9469295, "type": "electric_scooter", "fusion_lat": 0.0, "lat": 38.897313, "name": "398f122d7f3e53d0b87147836ddf302d", "fusion_lon": 0.0, "bike_id": "398f122d7f3e53d0b87147836ddf302d", "is_disabled": 0, "is_reserved": 0}, {"rental_uris": {"ios": "https://dc.lft.to/lastmile_qr_scan", "android": "https://dc.lft.to/lastmile_qr_scan"}, "lon": -77.00579733333333, "type": "electric_scooter", "fusion_lat": 0.0, "lat": 38.87291183333333, "name": "2f54cd63317110def47a503b39fab05d", "fusion_lon": 0.0, "bike_id": "2f54cd63317110def47a503b39fab05d", "is_disabled": 0, "is_reserved": 0}, {"rental_uris": {"ios": "https://dc.lft.to/lastmile_qr_scan", "android": "https://dc.lft.to/lastmile_qr_scan"}, "lon": -77.04550333333333, "type": "electric_scooter", "fusion_lat": 0.0, "lat": 38.934036, "name": "048254c93611f3c2366351f73c7f7f52", "fusion_lon": 0.0, "bike_id": "048254c93611f3c2366351f73c7f7f52", "is_disabled": 0, "is_reserved": 0}, {"rental_uris": {"ios": "https://dc.lft.to/lastmile_qr_scan", "android": "https://dc.lft.to/lastmile_qr_scan"}, "lon": -76.9883955, "type": "electric_bike", "fusion_lat": 0.0, "lat": 38.89607066666667, "name": "00a2f5fb931222e64a87b78d8f79b756", "fusion_lon": 0.0, "bike_id": "00a2f5fb931222e64a87b78d8f79b756", "is_disabled": 0, "is_reserved": 0}, {"rental_uris": {"ios": "https://dc.lft.to/lastmile_qr_scan", "android": "https://dc.lft.to/lastmile_qr_scan"}, "lon": -77.03392266666667, "type": "electric_scooter", "fusion_lat": 0.0, "lat": 38.923485166666666, "name": "aa55253db8147e46583ac2fae5f68e6e", "fusion_lon": 0.0, "bike_id": "aa55253db8147e46583ac2fae5f68e6e", "is_disabled": 0, "is_reserved": 0}, {"rental_uris": {"ios": "https://dc.lft.to/lastmile_qr_scan", "android": "https://dc.lft.to/lastmile_qr_scan"}, "lon": -77.0106765, "type": "electric_scooter", "fusion_lat": 0.0, "lat": 38.907278833333336, "name": "76a7cb95f8817432fdd236f91744e40f", "fusion_lon": 0.0, "bike_id": "76a7cb95f8817432fdd236f91744e40f", "is_disabled": 0, "is_reserved": 0}, {"rental_uris": {"ios": "https://dc.lft.to/lastmile_qr_scan", "android": "https://dc.lft.to/lastmile_qr_scan"}, "lon": -77.04272833333333, "type": "electric_scooter", "fusion_lat": 0.0, "lat": 38.9169855, "name": "daed462d655e243fdd0693d66226ecfb", "fusion_lon": 0.0, "bike_id": "daed462d655e243fdd0693d66226ecfb", "is_disabled": 0, "is_reserved": 0}, {"rental_uris": {"ios": "https://dc.lft.to/lastmile_qr_scan", "android": "https://dc.lft.to/lastmile_qr_scan"}, "lon": -77.03261883333333, "type": "electric_scooter", "fusion_lat": 0.0, "lat": 38.938697166666664, "name": "dd059c5200d02399274cf9cd2f2e9476", "fusion_lon": 0.0, "bike_id": "dd059c5200d02399274cf9cd2f2e9476", "is_disabled": 0, "is_reserved": 0}, {"rental_uris": {"ios": "https://dc.lft.to/lastmile_qr_scan", "android": "https://dc.lft.to/lastmile_qr_scan"}, "lon": -77.0230735, "type": "electric_scooter", "fusion_lat": 0.0, "lat": 38.92980716666667, "name": "c93f390e1fbb1007577f0621d0a04406", "fusion_lon": 0.0, "bike_id": "c93f390e1fbb1007577f0621d0a04406", "is_disabled": 0, "is_reserved": 0}, {"rental_uris": {"ios": "https://dc.lft.to/lastmile_qr_scan", "android": "https://dc.lft.to/lastmile_qr_scan"}, "lon": -77.03642466666666, "type": "electric_scooter", "fusion_lat": 0.0, "lat": 38.91731766666667, "name": "67185574d59f60d215cb7e9cf18f7f4c", "fusion_lon": 0.0, "bike_id": "67185574d59f60d215cb7e9cf18f7f4c", "is_disabled": 0, "is_reserved": 0}, {"rental_uris": {"ios": "https://dc.lft.to/lastmile_qr_scan", "android": "https://dc.lft.to/lastmile_qr_scan"}, "lon": -77.029749, "type": "electric_scooter", "fusion_lat": 0.0, "lat": 38.9623135, "name": "26c0b60e66546c39f8c05e35decad73a", "fusion_lon": 0.0, "bike_id": "26c0b60e66546c39f8c05e35decad73a", "is_disabled": 0, "is_reserved": 0}, {"rental_uris": {"ios": "https://dc.lft.to/lastmile_qr_scan", "android": "https://dc.lft.to/lastmile_qr_scan"}, "lon": -77.025796, "type": "electric_scooter", "fusion_lat": 0.0, "lat": 38.88231416666667, "name": "0df6bc1fe732e5d858d7b3e95632a888", "fusion_lon": 0.0, "bike_id": "0df6bc1fe732e5d858d7b3e95632a888", "is_disabled": 0, "is_reserved": 0}, {"rental_uris": {"ios": "https://dc.lft.to/lastmile_qr_scan", "android": "https://dc.lft.to/lastmile_qr_scan"}, "lon": -77.0218915, "type": "electric_bike", "fusion_lat": 0.0, "lat": 38.913172, "name": "6e302b17077dd50b943bc2a72f5ee270", "fusion_lon": 0.0, "bike_id": "6e302b17077dd50b943bc2a72f5ee270", "is_disabled": 0, "is_reserved": 0}, {"rental_uris": {"ios": "https://dc.lft.to/lastmile_qr_scan", "android": "https://dc.lft.to/lastmile_qr_scan"}, "lon": -76.99841533333333, "type": "electric_scooter", "fusion_lat": 0.0, "lat": 38.90002783333333, "name": "e82f353928dcf405bc0174558f1f7adf", "fusion_lon": 0.0, "bike_id": "e82f353928dcf405bc0174558f1f7adf", "is_disabled": 0, "is_reserved": 0}, {"rental_uris": {"ios": "https://dc.lft.to/lastmile_qr_scan", "android": "https://dc.lft.to/lastmile_qr_scan"}, "lon": -77.010886, "type": "electric_scooter", "fusion_lat": 0.0, "lat": 38.9163065, "name": "dee64a1d92749a96ad0a22de9e6e7157", "fusion_lon": 0.0, "bike_id": "dee64a1d92749a96ad0a22de9e6e7157", "is_disabled": 0, "is_reserved": 0}, {"rental_uris": {"ios": "https://dc.lft.to/lastmile_qr_scan", "android": "https://dc.lft.to/lastmile_qr_scan"}, "lon": -77.02923033333333, "type": "electric_scooter", "fusion_lat": 0.0, "lat": 38.895496, "name": "89b471a00964a672e690891fa9980455", "fusion_lon": 0.0, "bike_id": "89b471a00964a672e690891fa9980455", "is_disabled": 0, "is_reserved": 0}, {"rental_uris": {"ios": "https://dc.lft.to/lastmile_qr_scan", "android": "https://dc.lft.to/lastmile_qr_scan"},