{"data": {"bikes": [{"rental_uris": {"ios": "https://dc.lft.to/lastmile_qr_scan", "android": "https://dc.lft.to/lastmile_qr_scan"}, "fusion_lat": 0.0, "name": "b21847ac8a75de22ad8563abf8e93a54", "bike_id": "b21847ac8a75de22ad8563abf8e93a54", "is_disabled": 0, "type": "electric_scooter", "lat": 38.954249833333336, "lon": -77.0275785, "is_reserved": 0, "fusion_lon": 0.0}, {"rental_uris": {"ios": "https://dc.lft.to/lastmile_qr_scan", "android": "https://dc.lft.to/lastmile_qr_scan"}, "fusion_lat": 0.0, "name": "96fc150d342c4585e34a8129deaca382", "bike_id": "96fc150d342c4585e34a8129deaca382", "is_disabled": 0, "type": "electric_scooter", "lat": 38.924636666666665, "lon": -77.05237116666666, "is_reserved": 0, "fusion_lon": 0.0}, {"rental_uris": {"ios": "https://dc.lft.to/lastmile_qr_scan", "android": "https://dc.lft.to/lastmile_qr_scan"}, "fusion_lat": 0.0, "name": "24c4dac86ac06c68a31a2e6967d8d675", "bike_id": "24c4dac86ac06c68a31a2e6967d8d675", "is_disabled": 0, "type": "electric_scooter", "lat": 38.87626383333333, "lon": -76.96531183333333, "is_reserved": 0, "fusion_lon": 0.0}, {"rental_uris": {"ios": "https://dc.lft.to/lastmile_qr_scan", "android": "https://dc.lft.to/lastmile_qr_scan"}, "fusion_lat": 0.0, "name": "bbe1db4505757d782e2cfdb0d2672af5", "bike_id": "bbe1db4505757d782e2cfdb0d2672af5", "is_disabled": 0, "type": "electric_scooter", "lat": 38.89223616666666, "lon": -77.04332616666667, "is_reserved": 0, "fusion_lon": 0.0}, {"rental_uris": {"ios": "https://dc.lft.to/lastmile_qr_scan", "android": "https://dc.lft.to/lastmile_qr_scan"}, "fusion_lat": 0.0, "name": "d38052326121f5c1da357c1f3ecdc71a", "bike_id": "d38052326121f5c1da357c1f3ecdc71a", "is_disabled": 0, "type": "electric_scooter", "lat": 38.905214, "lon": -77.0661605, "is_reserved": 0, "fusion_lon": 0.0}, {"rental_uris": {"ios": "https://dc.lft.to/lastmile_qr_scan", "android": "https://dc.lft.to/lastmile_qr_scan"}, "fusion_lat": 0.0, "name": "85529286e35cdc5eabe806d5c3c9a037", "bike_id": "85529286e35cdc5eabe806d5c3c9a037", "is_disabled": 0, "type": "electric_scooter", "lat": 38.907862333333334, "lon": -77.03857383333333, "is_reserved": 0, "fusion_lon": 0.0}, {"rental_uris": {"ios": "https://dc.lft.to/lastmile_qr_scan", "android": "https://dc.lft.to/lastmile_qr_scan"}, "fusion_lat": 0.0, "name": "1f1d67f1a4063224ed7f0c3d527dad8f", "bike_id": "1f1d67f1a4063224ed7f0c3d527dad8f", "is_disabled": 0, "type": "electric_scooter", "lat": 38.9236445, "lon": -77.05129833333334, "is_reserved": 0, "fusion_lon": 0.0}, {"rental_uris": {"ios": "https://dc.lft.to/lastmile_qr_scan", "android": "https://dc.lft.to/lastmile_qr_scan"}, "fusion_lat": 0.0, "name": "240afbd2584d6245114d6adbeb42c461", "bike_id": "240afbd2584d6245114d6adbeb42c461", "is_disabled": 0, "type": "electric_scooter", "lat": 38.92053083333333, "lon": -77.04202716666667, "is_reserved": 0, "fusion_lon": 0.0}, {"rental_uris": {"ios": "https://dc.lft.to/lastmile_qr_scan", "android": "https://dc.lft.to/lastmile_qr_scan"}, "fusion_lat": 0.0, "name": "8c92ff9faa0508d5b4904340cbff0d6f", "bike_id": "8c92ff9faa0508d5b4904340cbff0d6f", "is_disabled": 0, "type": "electric_scooter", "lat": 38.916865, "lon": -77.02819016666666, "is_reserved": 0, "fusion_lon": 0.0}, {"rental_uris": {"ios": "https://dc.lft.to/lastmile_qr_scan", "android": "https://dc.lft.to/lastmile_qr_scan"}, "fusion_lat": 0.0, "name": "9442f480d938b729634186a1a5d41131", "bike_id": "9442f480d938b729634186a1a5d41131", "is_disabled": 0, "type": "electric_scooter", "lat": 38.881234666666664, "lon": -77.02682766666666, "is_reserved": 0, "fusion_lon": 0.0}, {"rental_uris": {"ios": "https://dc.lft.to/lastmile_qr_scan", "android": "https://dc.lft.to/lastmile_qr_scan"}, "fusion_lat": 0.0, "name": "1c20ba853fac51bc6c82415301687fa0", "bike_id": "1c20ba853fac51bc6c82415301687fa0", "is_disabled": 0, "type": "electric_scooter", "lat": 38.892184666666665, "lon": -77.0436335, "is_reserved": 0, "fusion_lon": 0.0}, {"rental_uris": {"ios": "https://dc.lft.to/lastmile_qr_scan", "android": "https://dc.lft.to/lastmile_qr_scan"}, "fusion_lat": 0.0, "name": "1c2cf1ba022b6055884533d5622ba13d", "bike_id": "1c2cf1ba022b6055884533d5622ba13d", "is_disabled": 0, "type": "electric_scooter", "lat": 38.917472833333335, "lon": -77.02391966666667, "is_reserved": 0, "fusion_lon": 0.0}, {"rental_uris": {"ios": "https://dc.lft.to/lastmile_qr_scan", "android": "https://dc.lft.to/lastmile_qr_scan"}, "fusion_lat": 0.0, "name": "8f77f00bbdcb4d332e9f678a555d6a5d", "bike_id": "8f77f00bbdcb4d332e9f678a555d6a5d", "is_disabled": 0, "type": "electric_scooter", "lat": 38.911804333333336, "lon": -77.04839616666666, "is_reserved": 0, "fusion_lon": 0.0}, {"rental_uris": {"ios": "https://dc.lft.to/lastmile_qr_scan", "android": "https://dc.lft.to/lastmile_qr_scan"}, "fusion_lat": 0.0, "name": "9948db767d8732c7d5d4128e06982baf", "bike_id": "9948db767d8732c7d5d4128e06982baf", "is_disabled": 0, "type": "electric_scooter", "lat": 38.915456, "lon": -77.02303166666667, "is_reserved": 0, "fusion_lon": 0.0}, {"rental_uris": {"ios": "https://dc.lft.to/lastmile_qr_scan", "android": "https://dc.lft.to/lastmile_qr_scan"}, "fusion_lat": 0.0, "name": "e4f30f22334623e3fccfe2bc0125b0c7", "bike_id": "e4f30f22334623e3fccfe2bc0125b0c7", "is_disabled": 0, "type": "electric_scooter", "lat": 38.928675166666665, "lon": -77.03238066666667, "is_reserved": 0, "fusion_lon": 0.0}, {"rental_uris": {"ios": "https://dc.lft.to/lastmile_qr_scan", "android": "https://dc.lft.to/lastmile_qr_scan"}, "fusion_lat": 0.0, "name": "7cf556af3783a7ccb700403a64f762c4", "bike_id": "7cf556af3783a7ccb700403a64f762c4", "is_disabled": 0, "type": "electric_scooter", "lat": 38.886561666666665, "lon": -77.0120565, "is_reserved": 0, "fusion_lon": 0.0}, {"rental_uris": {"ios": "https://dc.lft.to/lastmile_qr_scan", "android": "https://dc.lft.to/lastmile_qr_scan"}, "fusion_lat": 0.0, "name": "c5aecde4dcbe22379f3a0b1cb6456b92", "bike_id": "c5aecde4dcbe22379f3a0b1cb6456b92", "is_disabled": 0, "type": "electric_scooter", "lat": 38.92133616666667, "lon": -77.04136716666666, "is_reserved": 0, "fusion_lon": 0.0}, {"rental_uris": {"ios": "https://dc.lft.to/lastmile_qr_scan", "android": "https://dc.lft.to/lastmile_qr_scan"}, "fusion_lat": 0.0, "name": "73fc1bb3ddcac730921bbac9cb22ed81", "bike_id": "73fc1bb3ddcac730921bbac9cb22ed81", "is_disabled": 0, "type": "electric_scooter", "lat": 38.90740066666667, "lon": -77.00363633333333, "is_reserved": 0, "fusion_lon": 0.0}, {"rental_uris": {"ios": "https://dc.lft.to/lastmile_qr_scan", "android": "https://dc.lft.to/lastmile_qr_scan"}, "fusion_lat": 0.0, "name": "a9ce4936b211f5531cf9f7d83d95e8af", "bike_id": "a9ce4936b211f5531cf9f7d83d95e8af", "is_disabled": 0, "type": "electric_scooter", "lat": 38.90613366666667, "lon": -77.0258915, "is_reserved": 0, "fusion_lon": 0.0}, {"rental_uris": {"ios": "https://dc.lft.to/lastmile_qr_scan", "android": "https://dc.lft.to/lastmile_qr_scan"}, "fusion_lat": 0.0, "name": "2beec667abce2c2692ef135bb5ffe73a", "bike_id": "2beec667abce2c2692ef135bb5ffe73a", "is_disabled": 0, "type": "electric_scooter", "lat": 38.89499633333333, "lon": -76.948808, "is_reserved": 0, "fusion_lon": 0.0}, {"rental_uris": {"ios": "https://dc.lft.to/lastmile_qr_scan", "android": "https://dc.lft.to/lastmile_qr_scan"}, "fusion_lat": 0.0, "name": "7ee59dfee7b1aa7bb1292baa210a7860", "bike_id": "7ee59dfee7b1aa7bb1292baa210a7860", "is_disabled": 0, "type": "electric_scooter", "lat": 38.922732, "lon": -77.04011333333334, "is_reserved": 0, "fusion_lon": 0.0}, {"rental_uris": {"ios": "https://dc.lft.to/lastmile_qr_scan", "android": "https://dc.lft.to/lastmile_qr_scan"}, "fusion_lat": 0.0, "name": "fa7a7f1c02a2d25891ae0acce81e536b", "bike_id": "fa7a7f1c02a2d25891ae0acce81e536b", "is_disabled": 0, "type": "electric_scooter", "lat": 38.917560333333334, "lon": -77.032112, "is_reserved": 0, "fusion_lon": 0.0}, {"rental_uris": {"ios": "https://dc.lft.to/lastmile_qr_scan", "android": "https://dc.lft.to/lastmile_qr_scan"}, "fusion_lat": 0.0, "name": "75c044dab43ced71b8c8c60ada503b44", "bike_id": "75c044dab43ced71b8c8c60ada503b44", "is_disabled": 0, "type": "electric_bike", "lat": 38.8193615, "lon": -77.00206366666667, "is_reserved": 0, "fusion_lon": 0.0}, {"rental_uris": {"ios": "https://dc.lft.to/lastmile_qr_scan", "android": "https://dc.lft.to/lastmile_qr_scan"}, "fusion_lat": 0.0, "name": "90f33dd970df801a99482944cc124b24", "bike_id": "90f33dd970df801a99482944cc124b24", "is_disabled": 0, "type": "electric_bike", "lat": 38.804959833333335, "lon": -77.041347, "is_reserved": 0, "fusion_lon": 0.0}, {"rental_uris": {"ios": "https://dc.lft.to/lastmile_qr_scan", "android": "https://dc.lft.to/lastmile_qr_scan"}, "fusion_lat": 0.0, "name": "352b3839c28501a76d88553a9583e170", "bike_id": "352b3839c28501a76d88553a9583e170", "is_disabled": 0, "type": "electric_scooter", "lat": 38.926435, "lon": -77.0251305, "is_reserved": 0, "fusion_lon": 0.0}, {"rental_uris": {"ios": "https://dc.lft.to/lastmile_qr_scan", "android": "https://dc.lft.to/lastmile_qr_scan"}, "fusion_lat": 0.0, "name": "bb8510ac245c976bcfeee56a8421dc1d", "bike_id": "bb8510ac245c976bcfeee56a8421dc1d", "is_disabled": 0, "type": "electric_scooter", "lat": 38.900070666666664, "lon": -77.00677616666667, "is_reserved": 0, "fusion_lon": 0.0}, {"rental_uris": {"ios": "https://dc.lft.to/lastmile_qr_scan", "android": "https://dc.lft.to/lastmile_qr_scan"}, "fusion_lat": 0.0, "name": "ae3751321bc8feb548b7e6507200aca1", "bike_id": "ae3751321bc8feb548b7e6507200aca1", "is_disabled": 0, "type": "electric_scooter", "lat": 38.90366316666667, "lon": -77.04491966666667, "is_reserved": 0, "fusion_lon": 0.0}, {"rental_uris": {"ios": "https://dc.lft.to/lastmile_qr_scan", "android": "https://dc.lft.to/lastmile_qr_scan"}, "fusion_lat": 0.0, "name": "cda50bc6ca178fc65dc0fe84a28074a9", "bike_id": "cda50bc6ca178fc65dc0fe84a28074a9", "is_disabled": 0, "type": "electric_scooter", "lat": 38.89880016666667, "lon": -77.0328145, "is_reserved": 0, "fusion_lon": 0.0}, {"rental_uris": {"ios": "https://dc.lft.to/lastmile_qr_scan", "android": "https://dc.lft.to/lastmile_qr_scan"}, "fusion_lat": 0.0, "name": "802b6b1f25e6002d7904de7c41c45e9e", "bike_id": "802b6b1f25e6002d7904de7c41c45e9e", "is_disabled": 0, "type": "electric_scooter", "lat": 38.87893733333333, "lon": -76.93526416666667, "is_reserved": 0, "fusion_lon": 0.0}, {"rental_uris": {"ios": "https://dc.lft.to/lastmile_qr_scan", "android": "https://dc.lft.to/lastmile_qr_scan"}, "fusion_lat": 0.0, "name": "53b8de706af544868577becd15fd44e9", "bike_id": "53b8de706af544868577becd15fd44e9", "is_disabled": 0, "type": "electric_scooter", "lat": 38.920845666666665, "lon": -77.0365535, "is_reserved": 0, "fusion_lon": 0.0}, {"rental_uris": {"ios": "https://dc.lft.to/lastmile_qr_scan", "android": "https://dc.lft.to/lastmile_qr_scan"}, "fusion_lat": 0.0, "name": "979dfe386cc179c7f57cb94357c8af74", "bike_id": "979dfe386cc179c7f57cb94357c8af74", "is_disabled": 0, "type": "electric_scooter", "lat": 38.92334233333333, "lon": -77.053338, "is_reserved": 0, "fusion_lon": 0.0}, {"rental_uris": {"ios": "https://dc.lft.to/lastmile_qr_scan", "android": "https://dc.lft.to/lastmile_qr_scan"}, "fusion_lat": 0.0, "name": "2696c0ded8e94db01a7abd4d4a8c5820", "bike_id": "2696c0ded8e94db01a7abd4d4a8c5820", "is_disabled": 0, "type": "electric_scooter", "lat": 38.9219015, "lon": -77.03801533333333, "is_reserved": 0, "fusion_lon": 0.0}, {"rental_uris": {"ios": "https://dc.lft.to/lastmile_qr_scan", "android": "https://dc.lft.to/lastmile_qr_scan"}, "fusion_lat": 0.0, "name": "899cc1dc8164fd57dc23e827727755ff", "bike_id": "899cc1dc8164fd57dc23e827727755ff", "is_disabled": 0, "type": "electric_scooter", "lat": 38.895725166666665, "lon": -77.03207766666667, "is_reserved": 0, "fusion_lon": 0.0}, {"rental_uris": {"ios": "https://dc.lft.to/lastmile_qr_scan", "android": "https://dc.lft.to/lastmile_qr_scan"}, "fusion_lat": 0.0, "name": "0acbd6e8047006dbfa09c2dee9cb6778", "bike_id": "0acbd6e8047006dbfa09c2dee9cb6778", "is_disabled": 0, "type": "electric_scooter", "lat": 38.885838166666666, "lon": -77.01763716666666, "is_reserved": 0, "fusion_lon": 0.0}, {"rental_uris": {"ios": "https://dc.lft.to/lastmile_qr_scan", "android": "https://dc.lft.to/lastmile_qr_scan"}, "fusion_lat": 0.0, "name": "f753a96a580410ee518654c46a0e965a", "bike_id": "f753a96a580410ee518654c46a0e965a", "is_disabled": 0, "type": "electric_scooter", "lat": 38.9326985, "lon": -77.03484866666666, "is_reserved": 0, "fusion_lon": 0.0}, {"rental_uris": {"ios": "https://dc.lft.to/lastmile_qr_scan", "android": "https://dc.lft.to/lastmile_qr_scan"}, "fusion_lat": 0.0, "name": "8e9237eca839982e897557101c632df1", "bike_id": "8e9237eca839982e897557101c632df1", "is_disabled": 0, "type": "electric_scooter", "lat": 38.902885166666664, "lon": -77.03376066666667, "is_reserved": 0, "fusion_lon": 0.0}, {"rental_uris": {"ios": "https://dc.lft.to/lastmile_qr_scan", "android": "https://dc.lft.to/lastmile_qr_scan"}, "fusion_lat": 0.0, "name": "569a66166020748ee969698ee116dac5", "bike_id": "569a66166020748ee969698ee116dac5", "is_disabled": 0, "type": "electric_scooter", "lat": 38.91837833333334, "lon": -77.02301666666666, "is_reserved": 0, "fusion_lon": 0.0}, {"rental_uris": {"ios": "https://dc.lft.to/lastmile_qr_scan", "android": "https://dc.lft.to/lastmile_qr_scan"}, "fusion_lat": 0.0, "name": "3ac473921bd92acf9d8f792ee69d5e59", "bike_id": "3ac473921bd92acf9d8f792ee69d5e59", "is_disabled": 0, "type": "electric_scooter", "lat": 38.892209, "lon": -77.04197816666667, "is_reserved": 0, "fusion_lon": 0.0}, {"rental_uris": {"ios": "https://dc.lft.to/lastmile_qr_scan", "android": "https://dc.lft.to/lastmile_qr_scan"}, "fusion_lat": 0.0, "name": "2a74b23e7cef8dc7bf6c496747c25127", "bike_id": "2a74b23e7cef8dc7bf6c496747c25127", "is_disabled": 0, "type": "electric_scooter", "lat": 38.91560366666667, "lon": -77.03161216666666, "is_reserved": 0, "fusion_lon": 0.0}, {"rental_uris": {"ios": "https://dc.lft.to/lastmile_qr_scan", "android": "https://dc.lft.to/lastmile_qr_scan"}, "fusion_lat": 0.0, "name": "e534248e3f535e6d8cf56aae85d2bbbe", "bike_id": "e534248e3f535e6d8cf56aae85d2bbbe", "is_disabled": 0, "type": "electric_scooter", "lat": 38.9418015, "lon": -77.0334545, "is_reserved": 0, "fusion_lon": 0.0}, {"rental_uris": {"ios": "https://dc.lft.to/lastmile_qr_scan", "android": "https://dc.lft.to/lastmile_qr_scan"}, "fusion_lat": 0.0, "name": "9ec75cccffe8e61929a65656de34531e", "bike_id": "9ec75cccffe8e61929a65656de34531e", "is_disabled": 0, "type": "electric_scooter", "lat": 38.9080535, "lon": -77.03836316666667, "is_reserved": 0, "fusion_lon": 0.0}, {"rental_uris": {"ios": "https://dc.lft.to/lastmile_qr_scan", "android": "https://dc.lft.to/lastmile_qr_scan"}, "fusion_lat": 0.0, "name": "aa8d63e54c997d36ff40bbff7a0034d6", "bike_id": "aa8d63e54c997d36ff40bbff7a0034d6", "is_disabled": 0, "type": "electric_scooter", "lat": 38.916850333333336, "lon": -77.02981933333334, "is_reserved": 0, "fusion_lon": 0.0}, {"rental_uris": {"ios": "https://dc.lft.to/lastmile_qr_scan", "android": "https://dc.lft.to/lastmile_qr_scan"}, "fusion_lat": 0.0, "name": "d859d29e120870ec11703c4197f9c23d", "bike_id": "d859d29e120870ec11703c4197f9c23d", "is_disabled": 0, "type": "electric_bike", "lat": 38.859399333333336, "lon": -77.08610183333333, "is_reserved": 0, "fusion_lon": 0.0}, {"rental_uris": {"ios": "https://dc.lft.to/lastmile_qr_scan", "android": "https://dc.lft.to/lastmile_qr_scan"}, "fusion_lat": 0.0, "name": "dd7c501c38620ad415296197dd6cbc17", "bike_id": "dd7c501c38620ad415296197dd6cbc17", "is_disabled": 0, "type": "electric_scooter", "lat": 38.95163566666667, "lon": -77.02750566666667, "is_reserved": 0, "fusion_lon": 0.0}, {"rental_uris": {"ios": "https://dc.lft.to/lastmile_qr_scan", "android": "https://dc.lft.to/lastmile_qr_scan"}, "fusion_lat": 0.0, "name": "67f91a27bc14a60a048eb2d0d44d0dde", "bike_id": "67f91a27bc14a60a048eb2d0d44d0dde", "is_disabled": 0, "type": "electric_scooter", "lat": 38.89012816666666, "lon": -76.93732883333334, "is_reserved": 0, "fusion_lon": 0.0}, {"rental_uris": {"ios": "https://dc.lft.to/lastmile_qr_scan", "android": "https://dc.lft.to/lastmile_qr_scan"}, "fusion_lat": 0.0, "name": "8c6bbe67c8057d3e19510f262d2059a7", "bike_id": "8c6bbe67c8057d3e19510f262d2059a7", "is_disabled": 0, "type": "electric_bike", "lat": 39.03896533333333, "lon": -77.050328, "is_reserved": 0, "fusion_lon": 0.0}, {"rental_uris": {"ios": "https://dc.lft.to/lastmile_qr_scan", "android": "https://dc.lft.to/lastmile_qr_scan"}, "fusion_lat": 0.0, "name": "6480c055e2f0fd588522b74daf6b04ae", "bike_id": "6480c055e2f0fd588522b74daf6b04ae", "is_disabled": 0, "type": "electric_scooter", "lat": 38.88454016666667, "lon": -77.02155333333333, "is_reserved": 0, "fusion_lon": 0.0}, {"rental_uris": {"ios": "https://dc.lft.to/lastmile_qr_scan", "android": "https://dc.lft.to/lastmile_qr_scan"}, "fusion_lat": 0.0, "name": "890f7fb23fbacb8887bdfe9a3019c724", "bike_id": "890f7fb23fbacb8887bdfe9a3019c724", "is_disabled": 0, "type": "electric_scooter", "lat": 38.8666435, "lon": -76.98518466666667, "is_reserved": 0, "fusion_lon": 0.0}, {"rental_uris": {"ios": "https://dc.lft.to/lastmile_qr_scan", "android": "https://dc.lft.to/lastmile_qr_scan"}, "fusion_lat": 0.0, "name": "79437b26bbad6f1c93ba4ba42f6c7ecb", "bike_id": "79437b26bbad6f1c93ba4ba42f6c7ecb", "is_disabled": 0, "type": "electric_bike", "lat": 38.9220995, "lon": -76.98796933333334, "is_reserved": 0, "fusion_lon": 0.0}, {"rental_uris": {"ios": "https://dc.lft.to/lastmile_qr_scan", "android": "https://dc.lft.to/lastmile_qr_scan"}, "fusion_lat": 0.0, "name": "788070de0741038190681929dec7e503", "bike_id": "788070de0741038190681929dec7e503", "is_disabled": 0, "type": "electric_scooter", "lat": 38.876235, "lon": -77.00842833333333, "is_reserved": 0, "fusion_lon": 0.0}, {"rental_uris": {"ios": "https://dc.lft.to/lastmile_qr_scan", "android": "https://dc.lft.to/lastmile_qr_scan"}, "fusion_lat": 0.0, "name": "fc6e38abeede1c35cf8bf39930621af2", "bike_id": "fc6e38abeede1c35cf8bf39930621af2", "is_disabled": 0, "type": "electric_scooter", "lat": 38.881277833333336, "lon": -77.02678783333333, "is_reserved": 0, "fusion_lon": 0.0}, {"rental_uris": {"ios": "https://dc.lft.to/lastmile_qr_scan", "android": "https://dc.lft.to/lastmile_qr_scan"}, "fusion_lat": 0.0, "name": "2b04effed1cd2d2ffeaa801dc732e3c5", "bike_id": "2b04effed1cd2d2ffeaa801dc732e3c5", "is_disabled": 0, "type": "electric_scooter", "lat": 38.916913, "lon": -77.03599033333333, "is_reserved": 0, "fusion_lon": 0.0}, {"rental_uris": {"ios": "https://dc.lft.to/lastmile_qr_scan", "android": "https://dc.lft.to/lastmile_qr_scan"}, "fusion_lat": 0.0, "name": "a602cccb40ed6ee7c02df421d51c8cbb", "bike_id": "a602cccb40ed6ee7c02df421d51c8cbb", "is_disabled": 0, "type": "electric_scooter", "lat": 38.8922815, "lon": -77.025758, "is_reserved": 0, "fusion_lon": 0.0}, {"rental_uris": {"ios": "https://dc.lft.to/lastmile_qr_scan", "android": "https://dc.lft.to/lastmile_qr_scan"}, "fusion_lat": 0.0, "name": "1f0f6f9c4d24db67dffdebde206c48de", "bike_id": "1f0f6f9c4d24db67dffdebde206c48de", "is_disabled": 0, "type": "electric_scooter", "lat": 38.906394666666664, "lon": -77.04865566666666, "is_reserved": 0, "fusion_lon": 0.0}, {"rental_uris": {"ios": "https://dc.lft.to/lastmile_qr_scan", "android": "https://dc.lft.to/lastmile_qr_scan"}, "fusion_lat": 0.0, "name": "a846b3447bd90cc5274df2b0ba121aa5", "bike_id": "a846b3447bd90cc5274df2b0ba121aa5", "is_disabled": 0, "type": "electric_scooter", "lat": 38.9136225, "lon": -77.04485216666667, "is_reserved": 0, "fusion_lon": 0.0}, {"rental_uris": {"ios": "https://dc.lft.to/lastmile_qr_scan", "android": "https://dc.lft.to/lastmile_qr_scan"}, "fusion_lat": 0.0, "name": "fdd24dbccfa461ea1ce397b60b5c2b4e", "bike_id": "fdd24dbccfa461ea1ce397b60b5c2b4e", "is_disabled": 0, "type": "electric_scooter", "lat": 38.918158, "lon": -77.03913333333334, "is_reserved": 0, "fusion_lon": 0.0}, {"rental_uris": {"ios": "https://dc.lft.to/lastmile_qr_scan", "android": "https://dc.lft.to/lastmile_qr_scan"}, "fusion_lat": 0.0, "name": "f84dbee422fa04692c742330f6e5279f", "bike_id": "f84dbee422fa04692c742330f6e5279f", "is_disabled": 0, "type": "electric_scooter", "lat": 38.88234583333333, "lon": -76.99092183333333, "is_reserved": 0, "fusion_lon": 0.0}, {"rental_uris": {"ios": "https://dc.lft.to/lastmile_qr_scan", "android": "https://dc.lft.to/lastmile_qr_scan"}, "fusion_lat": 0.0, "name": "a00a195b6307fa23cd6c1970fd1c9460", "bike_id": "a00a195b6307fa23cd6c1970fd1c9460", "is_disabled": 0, "type": "electric_scooter", "lat": 38.9052105, "lon": -77.05931216666667, "is_reserved": 0, "fusion_lon": 0.0}, {"rental_uris": {"ios": "https://dc.lft.to/lastmile_qr_scan", "android": "https://dc.lft.to/lastmile_qr_scan"}, "fusion_lat": 0.0, "name": "ca99be68327cad2b5d34af2843ba7f45", "bike_id": "ca99be68327cad2b5d34af2843ba7f45", "is_disabled": 0, "type": "electric_scooter", "lat": 38.90983633333333, "lon": -77.03177316666667, "is_reserved": 0, "fusion_lon": 0.0}, {"rental_uris": {"ios": "https://dc.lft.to/lastmile_qr_scan", "android": "https://dc.lft.to/lastmile_qr_scan"}, "fusion_lat": 0.0, "name": "5e650959a42c6840a375a82e4a558e16", "bike_id": "5e650959a42c6840a375a82e4a558e16", "is_disabled": 0, "type": "electric_scooter", "lat": 38.89221916666666, "lon": -77.02226283333333, "is_reserved": 0, "fusion_lon": 0.0}, {"rental_uris": {"ios": "https://dc.lft.to/lastmile_qr_scan", "android": "https://dc.lft.to/lastmile_qr_scan"}, "fusion_lat": 0.0, "name": "5ffa5a569a812a5900010227788ce40f", "bike_id": "5ffa5a569a812a5900010227788ce40f", "is_disabled": 0, "type": "electric_scooter", "lat": 38.925362666666665, "lon": -77.0257755, "is_reserved": 0, "fusion_lon": 0.0}, {"rental_uris": {"ios": "https://dc.lft.to/lastmile_qr_scan", "android": "https://dc.lft.to/lastmile_qr_scan"}, "fusion_lat": 0.0, "name": "051adf9137da274c35d7554a497c3936", "bike_id": "051adf9137da274c35d7554a497c3936", "is_disabled": 0, "type": "electric_scooter", "lat": 38.89225916666667, "lon": -77.0317745, "is_reserved": 0, "fusion_lon": 0.0}, {"rental_uris": {"ios": "https://dc.lft.to/lastmile_qr_scan", "android": "https://dc.lft.to/lastmile_qr_scan"}, "fusion_lat": 0.0, "name": "05fb18a548e6710b9dc98b6830a3b5e9", "bike_id": "05fb18a548e6710b9dc98b6830a3b5e9", "is_disabled": 0, "type": "electric_bike", "lat": 38.961318166666665, "lon": -77.00976166666666, "is_reserved": 0, "fusion_lon": 0.0}, {"rental_uris": {"ios": "https://dc.lft.to/lastmile_qr_scan", "android": "https://dc.lft.to/lastmile_qr_scan"}, "fusion_lat": 0.0, "name": "7834c3269e6187001c5e2641e23109cd", "bike_id": "7834c3269e6187001c5e2641e23109cd", "is_disabled": 0, "type": "electric_scooter", "lat": 38.899700833333334, "lon": -77.033809, "is_reserved": 0, "fusion_lon": 0.0}, {"rental_uris": {"ios": "https://dc.lft.to/lastmile_qr_scan", "android": "https://dc.lft.to/lastmile_qr_scan"}, "fusion_lat": 0.0, "name": "a2c00cf08f01bcf30c787bd6981c0db2", "bike_id": "a2c00cf08f01bcf30c787bd6981c0db2", "is_disabled": 0, "type": "electric_scooter", "lat": 38.90645083333333, "lon": -77.04871516666667, "is_reserved": 0, "fusion_lon": 0.0}, {"rental_uris": {"ios": "https://dc.lft.to/lastmile_qr_scan", "android": "https://dc.lft.to/lastmile_qr_scan"}, "fusion_lat": 0.0, "name": "d810c9f1d563111600c2515ce22cd3c2", "bike_id": "d810c9f1d563111600c2515ce22cd3c2", "is_disabled": 0, "type": "electric_bike", "lat": 38.84026166666666, "lon": -76.97586316666667, "is_reserved": 0, "fusion_lon": 0.0}, {"rental_uris": {"ios": "https://dc.lft.to/lastmile_qr_scan", "android": "https://dc.lft.to/lastmile_qr_scan"}, "fusion_lat": 0.0, "name": "83b5e41d7dc0fcdc568ff87c8b8fd768", "bike_id": "83b5e41d7dc0fcdc568ff87c8b8fd768", "is_disabled": 0, "type": "electric_scooter", "lat": 38.891981666666666, "lon": -77.00310783333333, "is_reserved": 0, "fusion_lon": 0.0}, {"rental_uris": {"ios": "https://dc.lft.to/lastmile_qr_scan", "android": "https://dc.lft.to/lastmile_qr_scan"}, "fusion_lat": 0.0, "name": "aaa625cc8aa0b5e2c1c640fc8834bb54", "bike_id": "aaa625cc8aa0b5e2c1c640fc8834bb54", "is_disabled": 0, "type": "electric_scooter", "lat": 38.90353433333333, "lon": -77.011031, "is_reserved": 0, "fusion_lon": 0.0}, {"rental_uris": {"ios": "https://dc.lft.to/lastmile_qr_scan", "android": "https://dc.lft.to/lastmile_qr_scan"}, "fusion_lat": 0.0, "name": "c72df0ef8fedb7889626e109e84d8502", "bike_id": "c72df0ef8fedb7889626e109e84d8502", "is_disabled": 0, "type": "electric_scooter", "lat": 38.9168775, "lon": -77.03768916666667, "is_reserved": 0, "fusion_lon": 0.0}, {"rental_uris": {"ios": "https://dc.lft.to/lastmile_qr_scan", "android": "https://dc.lft.to/lastmile_qr_scan"}, "fusion_lat": 0.0, "name": "10ef078d76823c0fe3ba7d5c2223630b", "bike_id": "10ef078d76823c0fe3ba7d5c2223630b", "is_disabled": 0, "type": "electric_scooter", "lat": 38.895109833333336, "lon": -76.93046016666666, "is_reserved": 0, "fusion_lon": 0.0}, {"rental_uris": {"ios": "https://dc.lft.to/lastmile_qr_scan", "android": "https://dc.lft.to/lastmile_qr_scan"}, "fusion_lat": 0.0, "name": "70b5fe3ec625d494f0cab9821011d46f", "bike_id": "70b5fe3ec625d494f0cab9821011d46f", "is_disabled": 0, "type": "electric_scooter", "lat": 38.902827, "lon": -77.0580885, "is_reserved": 0, "fusion_lon": 0.0}, {"rental_uris": {"ios": "https://dc.lft.to/lastmile_qr_scan", "android": "https://dc.lft.to/lastmile_qr_scan"}, "fusion_lat": 0.0, "name": "7f858899cb78450f7b98407b2760fef6", "bike_id": "7f858899cb78450f7b98407b2760fef6", "is_disabled": 0, "type": "electric_scooter", "lat": 38.9352215, "lon": -77.07274533333333, "is_reserved": 0, "fusion_lon": 0.0}, {"rental_uris": {"ios": "https://dc.lft.to/lastmile_qr_scan", "android": "https://dc.lft.to/lastmile_qr_scan"}, "fusion_lat": 0.0, "name": "50c538430b83614467371e2d069533df", "bike_id": "50c538430b83614467371e2d069533df", "is_disabled": 0, "type": "electric_scooter", "lat": 38.92397666666667, "lon": -77.025505, "is_reserved": 0, "fusion_lon": 0.0}, {"rental_uris": {"ios": "https://dc.lft.to/lastmile_qr_scan", "android": "https://dc.lft.to/lastmile_qr_scan"}, "fusion_lat": 0.0, "name": "b15eb62903b8a7f98d291a56aab86c7a", "bike_id": "b15eb62903b8a7f98d291a56aab86c7a", "is_disabled": 0, "type": "electric_scooter", "lat": 38.904474666666665, "lon": -77.03255616666667, "is_reserved": 0, "fusion_lon": 0.0}, {"rental_uris": {"ios": "https://dc.lft.to/lastmile_qr_scan", "android": "https://dc.lft.to/lastmile_qr_scan"}, "fusion_lat": 0.0, "name": "361d5fd021033c26ca5bad4ed626e9ef", "bike_id": "361d5fd021033c26ca5bad4ed626e9ef", "is_disabled": 0, "type": "electric_bike", "lat": 38.893532, "lon": -77.18742433333334, "is_reserved": 0, "fusion_lon": 0.0}, {"rental_uris": {"ios": "https://dc.lft.to/lastmile_qr_scan", "android": "https://dc.lft.to/lastmile_qr_scan"}, "fusion_lat": 0.0, "name": "21516db36114ca9c0d11d7428a274748", "bike_id": "21516db36114ca9c0d11d7428a274748", "is_disabled": 0, "type": "electric_scooter", "lat": 38.93604366666667, "lon": -77.05858616666667, "is_reserved": 0, "fusion_lon": 0.0}, {"rental_uris": {"ios": "https://dc.lft.to/lastmile_qr_scan", "android": "https://dc.lft.to/lastmile_qr_scan"}, "fusion_lat": 0.0, "name": "59fd0688a137a40ab30fc54be9694ecc", "bike_id": "59fd0688a137a40ab30fc54be9694ecc", "is_disabled": 0, "type": "electric_scooter", "lat": 38.91808283333334, "lon": -77.02711233333333, "is_reserved": 0, "fusion_lon": 0.0}, {"rental_uris": {"ios": "https://dc.lft.to/lastmile_qr_scan", "android": "https://dc.lft.to/lastmile_qr_scan"}, "fusion_lat": 0.0, "name": "93ec919f73751d16b0cfc80927fca76d", "bike_id": "93ec919f73751d16b0cfc80927fca76d", "is_disabled": 0, "type": "electric_scooter", "lat": 38.899142833333336, "lon": -77.0328855, "is_reserved": 0, "fusion_lon": 0.0}, {"rental_uris": {"ios": "https://dc.lft.to/lastmile_qr_scan", "android": "https://dc.lft.to/lastmile_qr_scan"}, "fusion_lat": 0.0, "name": "77e88d42815d28770f7d3e7aa9f571e8", "bike_id": "77e88d42815d28770f7d3e7aa9f571e8", "is_disabled": 0, "type": "electric_scooter", "lat": 38.881579, "lon": -77.012821, "is_reserved": 0, "fusion_lon": 0.0}, {"rental_uris": {"ios": "https://dc.lft.to/lastmile_qr_scan", "android": "https://dc.lft.to/lastmile_qr_scan"}, "fusion_lat": 0.0, "name": "b38f2588b2fc20a47ffda5bbab002b61", "bike_id": "b38f2588b2fc20a47ffda5bbab002b61", "is_disabled": 0, "type": "electric_scooter", "lat": 38.909541, "lon": -77.04490316666667, "is_reserved": 0, "fusion_lon": 0.0}, {"rental_uris": {"ios": "https://dc.lft.to/lastmile_qr_scan", "android": "https://dc.lft.to/lastmile_qr_scan"}, "fusion_lat": 0.0, "name": "667f733fc3c72184b4489635e035ab71", "bike_id": "667f733fc3c72184b4489635e035ab71", "is_disabled": 0, "type": "electric_scooter", "lat": 38.932471666666665, "lon": -77.03852533333334, "is_reserved": 0, "fusion_lon": 0.0}, {"rental_uris": {"ios": "https://dc.lft.to/lastmile_qr_scan", "android": "https://dc.lft.to/lastmile_qr_scan"}, "fusion_lat": 0.0, "name": "5df741dcdea05196d1972f66dea87ff9", "bike_id": "5df741dcdea05196d1972f66dea87ff9", "is_disabled": 0, "type": "electric_scooter", "lat": 38.91722766666667, "lon": -77.03648533333333, "is_reserved": 0, "fusion_lon": 0.0}, {"rental_uris": {"ios": "https://dc.lft.to/lastmile_qr_scan", "android": "https://dc.lft.to/lastmile_qr_scan"}, "fusion_lat": 0.0, "name": "c6d66887825ff201d88dabe6277dd889", "bike_id": "c6d66887825ff201d88dabe6277dd889", "is_disabled": 0, "type": "electric_scooter", "lat": 38.92367483333334, "lon": -77.0296395, "is_reserved": 0, "fusion_lon": 0.0}, {"rental_uris": {"ios": "https://dc.lft.to/lastmile_qr_scan", "android": "https://dc.lft.to/lastmile_qr_scan"}, "fusion_lat": 0.0, "name": "4fa0ca473c3bd1cca66f99e153ab87a9", "bike_id": "4fa0ca473c3bd1cca66f99e153ab87a9", "is_disabled": 0, "type": "electric_scooter", "lat": 38.91559616666667, "lon": -77.03865483333334, "is_reserved": 0, "fusion_lon": 0.0}, {"rental_uris": {"ios": "https://dc.lft.to/lastmile_qr_scan", "android": "https://dc.lft.to/lastmile_qr_scan"}, "fusion_lat": 0.0, "name": "d28a25acf2c5b0b5ab267cf8adb966e9", "bike_id": "d28a25acf2c5b0b5ab267cf8adb966e9", "is_disabled": 0, "type": "electric_scooter", "lat": 38.892210666666664, "lon": -77.043698, "is_reserved": 0, "fusion_lon": 0.0}, {"rental_uris": {"ios": "https://dc.lft.to/lastmile_qr_scan", "android": "https://dc.lft.to/lastmile_qr_scan"}, "fusion_lat": 0.0, "name": "9fe0c5fb333b64181c3506a8c8bba8ea", "bike_id": "9fe0c5fb333b64181c3506a8c8bba8ea", "is_disabled": 0, "type": "electric_scooter", "lat": 38.917771, "lon": -77.02340033333333, "is_reserved": 0, "fusion_lon": 0.0}, {"rental_uris": {"ios": "https://dc.lft.to/lastmile_qr_scan", "android": "https://dc.lft.to/lastmile_qr_scan"}, "fusion_lat": 0.0, "name": "5ec7a9f20b947f38eb18ccd4ce8c12a7", "bike_id": "5ec7a9f20b947f38eb18ccd4ce8c12a7", "is_disabled": 0, "type": "electric_bike", "lat": 39.01568566666667, "lon": -77.04414416666667, "is_reserved": 0, "fusion_lon": 0.0}, {"rental_uris": {"ios": "https://dc.lft.to/lastmile_qr_scan", "android": "https://dc.lft.to/lastmile_qr_scan"}, "fusion_lat": 0.0, "name": "ec3535509c3fd49a4049a140c9af7187", "bike_id": "ec3535509c3fd49a4049a140c9af7187", "is_disabled": 0, "type": "electric_scooter", "lat": 38.907295500000004, "lon": -77.01209233333333, "is_reserved": 0, "fusion_lon": 0.0}, {"rental_uris": {"ios": "https://dc.lft.to/lastmile_qr_scan", "android": "https://dc.lft.to/lastmile_qr_scan"}, "fusion_lat": 0.0, "name": "1b7900ccb90f18acc2e2426263330ed9", "bike_id": "1b7900ccb90f18acc2e2426263330ed9", "is_disabled": 0, "type": "electric_scooter", "lat": 38.91928383333333, "lon": -77.03174566666667, "is_reserved": 0, "fusion_lon": 0.0}, {"rental_uris": {"ios": "https://dc.lft.to/lastmile_qr_scan", "android": "https://dc.lft.to/lastmile_qr_scan"}, "fusion_lat": 0.0, "name": "d909a9bc162fb9ac1a9db2282a5279f9", "bike_id": "d909a9bc162fb9ac1a9db2282a5279f9", "is_disabled": 0, "type": "electric_scooter", "lat": 38.9076925, "lon": -77.0426345, "is_reserved": 0, "fusion_lon": 0.0}, {"rental_uris": {"ios": "https://dc.lft.to/lastmile_qr_scan", "android": "https://dc.lft.to/lastmile_qr_scan"}, "fusion_lat": 0.0, "name": "de7d2cd954ce12711c06062c72be532e", "bike_id": "de7d2cd954ce12711c06062c72be532e", "is_disabled": 0, "type": "electric_bike", "lat": 38.9526915, "lon": -77.06987916666667, "is_reserved": 0, "fusion_lon": 0.0}, {"rental_uris": {"ios": "https://dc.lft.to/lastmile_qr_scan", "android": "https://dc.lft.to/lastmile_qr_scan"}, "fusion_lat": 0.0, "name": "a53d883adf7c53c2ea970ae67db8b148", "bike_id": "a53d883adf7c53c2ea970ae67db8b148", "is_disabled": 0, "type": "electric_scooter", "lat": 38.89841783333333, "lon": -76.94632433333334, "is_reserved": 0, "fusion_lon": 0.0}, {"rental_uris": {"ios": "https://dc.lft.to/lastmile_qr_scan", "android": "https://dc.lft.to/lastmile_qr_scan"}, "fusion_lat": 0.0, "name": "e594196f369aa556415d4902e7fd4ac2", "bike_id": "e594196f369aa556415d4902e7fd4ac2", "is_disabled": 0, "type": "electric_scooter", "lat": 38.9403725, "lon": -76.99634533333334, "is_reserved": 0, "fusion_lon": 0.0}, {"rental_uris": {"ios": "https://dc.lft.to/lastmile_qr_scan", "android": "https://dc.lft.to/lastmile_qr_scan"}, "fusion_lat": 0.0, "name": "5f8223862dde741d9b98d3f332ac016a", "bike_id": "5f8223862dde741d9b98d3f332ac016a", "is_disabled": 0, "type": "electric_scooter", "lat": 38.919925166666665, "lon": -77.03287266666666, "is_reserved": 0, "fusion_lon": 0.0}, {"rental_uris": {"ios": "https://dc.lft.to/lastmile_qr_scan", "android": "https://dc.lft.to/lastmile_qr_scan"}, "fusion_lat": 0.0, "name": "ec1555507c76c45ab63f04cabba3195f", "bike_id": "ec1555507c76c45ab63f04cabba3195f", "is_disabled": 0, "type": "electric_scooter", "lat": 38.89624383333334, "lon": -77.05023133333333, "is_reserved": 0, "fusion_lon": 0.0}, {"rental_uris": {"ios": "https://dc.lft.to/lastmile_qr_scan", "android": "https://dc.lft.to/lastmile_qr_scan"}, "fusion_lat": 0.0, "name": "5ced5ca51bde954aee5c3d29c7e1388a", "bike_id": "5ced5ca51bde954aee5c3d29c7e1388a", "is_disabled": 0, "type": "electric_scooter", "lat": 38.89242566666667, "lon": -77.039541, "is_reserved": 0, "fusion_lon": 0.0}, {"rental_uris": {"ios": "https://dc.lft.to/lastmile_qr_scan", "android": "https://dc.lft.to/lastmile_qr_scan"}, "fusion_lat": 0.0, "name": "e02f039631359ebd44dc3df1e8ff1278", "bike_id": "e02f039631359ebd44dc3df1e8ff1278", "is_disabled": 0, "type": "electric_scooter", "lat": 38.93466883333333, "lon": -77.07283033333333, "is_reserved": 0, "fusion_lon": 0.0}, {"rental_uris": {"ios": "https://dc.lft.to/lastmile_qr_scan", "android": "https://dc.lft.to/lastmile_qr_scan"}, "fusion_lat": 0.0, "name": "5d615e9e2dba0220efcbd30e47e1b736", "bike_id": "5d615e9e2dba0220efcbd30e47e1b736", "is_disabled": 0, "type": "electric_scooter", "lat": 38.894998, "lon": -76.948747, "is_reserved": 0, "fusion_lon": 0.0}, {"rental_uris": {"ios": "https://dc.lft.to/lastmile_qr_scan", "android": "https://dc.lft.to/lastmile_qr_scan"}, "fusion_lat": 0.0, "name": "17883d2db37f6c56ab2c83b1cfed66bd", "bike_id": "17883d2db37f6c56ab2c83b1cfed66bd", "is_disabled": 0, "type": "electric_scooter", "lat": 38.9220295, "lon": -77.038979, "is_reserved": 0, "fusion_lon": 0.0}, {"rental_uris": {"ios": "https://dc.lft.to/lastmile_qr_scan", "android": "https://dc.lft.to/lastmile_qr_scan"}, "fusion_lat": 0.0, "name": "390555bfa9d80dee1425654694520cf1", "bike_id": "390555bfa9d80dee1425654694520cf1", "is_disabled": 0, "type": "electric_scooter", "lat": 38.92924466666667, "lon": -77.03768716666667, "is_reserved": 0, "fusion_lon": 0.0}, {"rental_uris": {"ios": "https://dc.lft.to/lastmile_qr_scan", "android": "https://dc.lft.to/lastmile_qr_scan"}, "fusion_lat": 0.0, "name": "c36b3df13cd1897d5ed263af0ce33e81", "bike_id": "c36b3df13cd1897d5ed263af0ce33e81", "is_disabled": 0, "type": "electric_scooter", "lat": 38.85676266666667, "lon": -76.9817375, "is_reserved": 0, "fusion_lon": 0.0}, {"rental_uris": {"ios": "https://dc.lft.to/lastmile_qr_scan", "android": "https://dc.lft.to/lastmile_qr_scan"}, "fusion_lat": 0.0, "name": "c659a1a430d639cae6335cecf5b95034", "bike_id": "c659a1a430d639cae6335cecf5b95034", "is_disabled": 0, "type": "electric_scooter", "lat": 38.920367, "lon": -77.041899, "is_reserved": 0, "fusion_lon": 0.0}, {"rental_uris": {"ios": "https://dc.lft.to/lastmile_qr_scan", "android": "https://dc.lft.to/lastmile_qr_scan"}, "fusion_lat": 0.0, "name": "1f67ce902518949b3270c0d459df68c7", "bike_id": "1f67ce902518949b3270c0d459df68c7", "is_disabled": 0, "type": "electric_scooter", "lat": 38.906847666666664, "lon": -77.02720416666666, "is_reserved": 0, "fusion_lon": 0.0}, {"rental_uris": {"ios": "https://dc.lft.to/lastmile_qr_scan", "android": "https://dc.lft.to/lastmile_qr_scan"}, "fusion_lat": 0.0, "name": "4c51cbdcfb50c4278ee4665ebc6bf960", "bike_id": "4c51cbdcfb50c4278ee4665ebc6bf960", "is_disabled": 0, "type": "electric_scooter", "lat": 38.917427833333335, "lon": -77.023891, "is_reserved": 0, "fusion_lon": 0.0}, {"rental_uris": {"ios": "https://dc.lft.to/lastmile_qr_scan", "android": "https://dc.lft.to/lastmile_qr_scan"}, "fusion_lat": 0.0, "name": "c6a1d3d220076db9169dd2b9a78a5a40", "bike_id": "c6a1d3d220076db9169dd2b9a78a5a40", "is_disabled": 0, "type": "electric_scooter", "lat": 38.915640333333336, "lon": -77.01205966666667, "is_reserved": 0, "fusion_lon": 0.0}, {"rental_uris": {"ios": "https://dc.lft.to/lastmile_qr_scan", "android": "https://dc.lft.to/lastmile_qr_scan"}, "fusion_lat": 0.0, "name": "6082027f96b2776939530d0a62797e3a", "bike_id": "6082027f96b2776939530d0a62797e3a", "is_disabled": 0, "type": "electric_scooter", "lat": 38.93426383333333, "lon": -77.04001083333333, "is_reserved": 0, "fusion_lon": 0.0}, {"rental_uris": {"ios": "https://dc.lft.to/lastmile_qr_scan", "android": "https://dc.lft.to/lastmile_qr_scan"}, "fusion_lat": 0.0, "name": "bc9f6d4b52a6f65f6b653ac6b1f45e82", "bike_id": "bc9f6d4b52a6f65f6b653ac6b1f45e82", "is_disabled": 0, "type": "electric_scooter", "lat": 38.921354666666666, "lon": -77.01912183333333, "is_reserved": 0, "fusion_lon": 0.0}, {"rental_uris": {"ios": "https://dc.lft.to/lastmile_qr_scan", "android": "https://dc.lft.to/lastmile_qr_scan"}, "fusion_lat": 0.0, "name": "dad23d52bacc0cfed843b61c1e401470", "bike_id": "dad23d52bacc0cfed843b61c1e401470", "is_disabled": 0, "type": "electric_scooter", "lat": 38.93171233333333, "lon": -77.036334, "is_reserved": 0, "fusion_lon": 0.0}, {"rental_uris": {"ios": "https://dc.lft.to/lastmile_qr_scan", "android": "https://dc.lft.to/lastmile_qr_scan"}, "fusion_lat": 0.0, "name": "dc38a4cefdbee1fd4805735099483f6b", "bike_id": "dc38a4cefdbee1fd4805735099483f6b", "is_disabled": 0, "type": "electric_scooter", "lat": 38.9141695, "lon": -77.03211966666667, "is_reserved": 0, "fusion_lon": 0.0}, {"rental_uris": {"ios": "https://dc.lft.to/lastmile_qr_scan", "android": "https://dc.lft.to/lastmile_qr_scan"}, "fusion_lat": 0.0, "name": "1f1261fec3b8494bfd25f8beac05c472", "bike_id": "1f1261fec3b8494bfd25f8beac05c472", "is_disabled": 0, "type": "electric_scooter", "lat": 38.893456666666665, "lon": -77.01169216666666, "is_reserved": 0, "fusion_lon": 0.0}, {"rental_uris": {"ios": "https://dc.lft.to/lastmile_qr_scan", "android": "https://dc.lft.to/lastmile_qr_scan"}, "fusion_lat": 0.0, "name": "6537a78d292c3a3d89a4d1db15dc0a71", "bike_id": "6537a78d292c3a3d89a4d1db15dc0a71", "is_disabled": 0, "type": "electric_scooter", "lat": 38.954073666666666, "lon": -77.027998, "is_reserved": 0, "fusion_lon": 0.0}, {"rental_uris": {"ios": "https://dc.lft.to/lastmile_qr_scan", "android": "https://dc.lft.to/lastmile_qr_scan"}, "fusion_lat": 0.0, "name": "67701b50da8980d7acee4de21716ebef", "bike_id": "67701b50da8980d7acee4de21716ebef", "is_disabled": 0, "type": "electric_scooter", "lat": 38.95779, "lon": -77.02743116666667, "is_reserved": 0, "fusion_lon": 0.0}, {"rental_uris": {"ios": "https://dc.lft.to/lastmile_qr_scan", "android": "https://dc.lft.to/lastmile_qr_scan"}, "fusion_lat": 0.0, "name": "4076533e7b3c8536537e23d5921b477b", "bike_id": "4076533e7b3c8536537e23d5921b477b", "is_disabled": 0, "type": "electric_scooter", "lat": 38.92346, "lon": -77.05126483333333, "is_reserved": 0, "fusion_lon": 0.0}, {"rental_uris": {"ios": "https://dc.lft.to/lastmile_qr_scan", "android": "https://dc.lft.to/lastmile_qr_scan"}, "fusion_lat": 0.0, "name": "7ec2b407a6f182686056b8573b236c3a", "bike_id": "7ec2b407a6f182686056b8573b236c3a", "is_disabled": 0, "type": "electric_scooter", "lat": 38.932938666666665, "lon": -77.04532233333333, "is_reserved": 0, "fusion_lon": 0.0}, {"rental_uris": {"ios": "https://dc.lft.to/lastmile_qr_scan", "android": "https://dc.lft.to/lastmile_qr_scan"}, "fusion_lat": 0.0, "name": "b7ad820020f5568989c4e68cc5a21787", "bike_id": "b7ad820020f5568989c4e68cc5a21787", "is_disabled": 0, "type": "electric_scooter", "lat": 38.915514333333334, "lon": -77.02218366666666, "is_reserved": 0, "fusion_lon": 0.0}, {"rental_uris": {"ios": "https://dc.lft.to/lastmile_qr_scan", "android": "https://dc.lft.to/lastmile_qr_scan"}, "fusion_lat": 0.0, "name": "e56db2b562a8e5e44fe14fe034e7d593", "bike_id": "e56db2b562a8e5e44fe14fe034e7d593", "is_disabled": 0, "type": "electric_scooter", "lat": 38.91132316666667, "lon": -77.02695033333333, "is_reserved": 0, "fusion_lon": 0.0}, {"rental_uris": {"ios": "https://dc.lft.to/lastmile_qr_scan", "android": "https://dc.lft.to/lastmile_qr_scan"}, "fusion_lat": 0.0, "name": "fa6dca40a4d3e8771cec4163e3acbb59", "bike_id": "fa6dca40a4d3e8771cec4163e3acbb59", "is_disabled": 0, "type": "electric_scooter", "lat": 38.8971515, "lon": -77.02666116666667, "is_reserved": 0, "fusion_lon": 0.0}, {"rental_uris": {"ios": "https://dc.lft.to/lastmile_qr_scan", "android": "https://dc.lft.to/lastmile_qr_scan"}, "fusion_lat": 0.0, "name": "dcf9d05643c5d0daab7787d93a830bec", "bike_id": "dcf9d05643c5d0daab7787d93a830bec", "is_disabled": 0, "type": "electric_scooter", "lat": 38.90074166666667, "lon": -77.05050183333333, "is_reserved": 0, "fusion_lon": 0.0}, {"rental_uris": {"ios": "https://dc.lft.to/lastmile_qr_scan", "android": "https://dc.lft.to/lastmile_qr_scan"}, "fusion_lat": 0.0, "name": "c6a564f9ea71375bec025ef41be37909", "bike_id": "c6a564f9ea71375bec025ef41be37909", "is_disabled": 0, "type": "electric_scooter", "lat": 38.867162, "lon": -76.98702466666667, "is_reserved": 0, "fusion_lon": 0.0}, {"rental_uris": {"ios": "https://dc.lft.to/lastmile_qr_scan", "android": "https://dc.lft.to/lastmile_qr_scan"}, "fusion_lat": 0.0, "name": "5bda33aaab7b8d8a67c55a134af2d670", "bike_id": "5bda33aaab7b8d8a67c55a134af2d670", "is_disabled": 0, "type": "electric_bike", "lat": 38.93287633333333, "lon": -77.028522, "is_reserved": 0, "fusion_lon": 0.0}, {"rental_uris": {"ios": "https://dc.lft.to/lastmile_qr_scan", "android": "https://dc.lft.to/lastmile_qr_scan"}, "fusion_lat": 0.0, "name": "4f3f9bc67e0893b6a1868f8e625427b2", "bike_id": "4f3f9bc67e0893b6a1868f8e625427b2", "is_disabled": 0, "type": "electric_scooter", "lat": 38.896468, "lon": -77.0465865, "is_reserved": 0, "fusion_lon": 0.0}, {"rental_uris": {"ios": "https://dc.lft.to/lastmile_qr_scan", "android": "https://dc.lft.to/lastmile_qr_scan"}, "fusion_lat": 0.0, "name": "6a9616dfb4c892f688dc0ca4cbdb0632", "bike_id": "6a9616dfb4c892f688dc0ca4cbdb0632", "is_disabled": 0, "type": "electric_scooter", "lat": 38.892386, "lon": -77.046608, "is_reserved": 0, "fusion_lon": 0.0}, {"rental_uris": {"ios": "https://dc.lft.to/lastmile_qr_scan", "android": "https://dc.lft.to/lastmile_qr_scan"}, "fusion_lat": 0.0, "name": "d78d9cfc053bcb22eb1d5e75068db114", "bike_id": "d78d9cfc053bcb22eb1d5e75068db114", "is_disabled": 0, "type": "electric_scooter", "lat": 38.89542816666667, "lon": -77.02196566666667, "is_reserved": 0, "fusion_lon": 0.0}, {"rental_uris": {"ios": "https://dc.lft.to/lastmile_qr_scan", "android": "https://dc.lft.to/lastmile_qr_scan"}, "fusion_lat": 0.0, "name": "f77020013a427d23bf9a9770ec310eeb", "bike_id": "f77020013a427d23bf9a9770ec310eeb", "is_disabled": 0, "type": "electric_scooter", "lat": 38.91410716666667, "lon": -77.03999433333334, "is_reserved": 0, "fusion_lon": 0.0}, {"rental_uris": {"ios": "https://dc.lft.to/lastmile_qr_scan", "android": "https://dc.lft.to/lastmile_qr_scan"}, "fusion_lat": 0.0, "name": "0f2adcb593487c6923c5a4bf0e0b60af", "bike_id": "0f2adcb593487c6923c5a4bf0e0b60af", "is_disabled": 0, "type": "electric_scooter", "lat": 38.92338066666667, "lon": -77.05051716666667, "is_reserved": 0, "fusion_lon": 0.0}, {"rental_uris": {"ios": "https://dc.lft.to/lastmile_qr_scan", "android": "https://dc.lft.to/lastmile_qr_scan"}, "fusion_lat": 0.0, "name": "5bece8b8242b06ffcfffca144af53520", "bike_id": "5bece8b8242b06ffcfffca144af53520", "is_disabled": 0, "type": "electric_scooter", "lat": 38.884945, "lon": -77.01586483333334, "is_reserved": 0, "fusion_lon": 0.0}, {"rental_uris": {"ios": "https://dc.lft.to/lastmile_qr_scan", "android": "https://dc.lft.to/lastmile_qr_scan"}, "fusion_lat": 0.0, "name": "f2364f5037d69d54102f82384a7b5796", "bike_id": "f2364f5037d69d54102f82384a7b5796", "is_disabled": 0, "type": "electric_scooter", "lat": 38.892218, "lon": -77.02350566666667, "is_reserved": 0, "fusion_lon": 0.0}, {"rental_uris": {"ios": "https://dc.lft.to/lastmile_qr_scan", "android": "https://dc.lft.to/lastmile_qr_scan"}, "fusion_lat": 0.0, "name": "8c832ee65fed9017d79236a9a61e0883", "bike_id": "8c832ee65fed9017d79236a9a61e0883", "is_disabled": 0, "type": "electric_bike", "lat": 38.87373516666667, "lon": -76.97171866666666, "is_reserved": 0, "fusion_lon": 0.0}, {"rental_uris": {"ios": "https://dc.lft.to/lastmile_qr_scan", "android": "https://dc.lft.to/lastmile_qr_scan"}, "fusion_lat": 0.0, "name": "186302602dcc490447b466a1eb38742e", "bike_id": "186302602dcc490447b466a1eb38742e", "is_disabled": 0, "type": "electric_scooter", "lat": 38.89891633333333, "lon": -77.04346866666667, "is_reserved": 0, "fusion_lon": 0.0}, {"rental_uris": {"ios": "https://dc.lft.to/lastmile_qr_scan", "android": "https://dc.lft.to/lastmile_qr_scan"}, "fusion_lat": 0.0, "name": "e838f5326f24b71e6537ef440ce25884", "bike_id": "e838f5326f24b71e6537ef440ce25884", "is_disabled": 0, "type": "electric_scooter", "lat": 38.9036035, "lon": -77.03866683333334, "is_reserved": 0, "fusion_lon": 0.0}, {"rental_uris": {"ios": "https://dc.lft.to/lastmile_qr_scan", "android": "https://dc.lft.to/lastmile_qr_scan"}, "fusion_lat": 0.0, "name": "4e3a88198bfe7114d6de14d7bd652b58", "bike_id": "4e3a88198bfe7114d6de14d7bd652b58", "is_disabled": 0, "type": "electric_scooter", "lat": 38.868299666666665, "lon": -76.97741083333334, "is_reserved": 0, "fusion_lon": 0.0}, {"rental_uris": {"ios": "https://dc.lft.to/lastmile_qr_scan", "android": "https://dc.lft.to/lastmile_qr_scan"}, "fusion_lat": 0.0, "name": "5b71dfb3560179889f7c4eb27572b8d8", "bike_id": "5b71dfb3560179889f7c4eb27572b8d8", "is_disabled": 0, "type": "electric_scooter", "lat": 38.924579666666666, "lon": -77.05234083333333, "is_reserved": 0, "fusion_lon": 0.0}, {"rental_uris": {"ios": "https://dc.lft.to/lastmile_qr_scan", "android": "https://dc.lft.to/lastmile_qr_scan"}, "fusion_lat": 0.0, "name": "7fe94cb70b4d28157a9e1eb1ca0cf215", "bike_id": "7fe94cb70b4d28157a9e1eb1ca0cf215", "is_disabled": 0, "type": "electric_scooter", "lat": 38.91491966666667, "lon": -77.03126183333333, "is_reserved": 0, "fusion_lon": 0.0}, {"rental_uris": {"ios": "https://dc.lft.to/lastmile_qr_scan", "android": "https://dc.lft.to/lastmile_qr_scan"}, "fusion_lat": 0.0, "name": "5add241d7aa50855e806cae899ee8f3f", "bike_id": "5add241d7aa50855e806cae899ee8f3f", "is_disabled": 0, "type": "electric_scooter", "lat": 38.903114333333335, "lon": -77.03466166666666, "is_reserved": 0, "fusion_lon": 0.0}, {"rental_uris": {"ios": "https://dc.lft.to/lastmile_qr_scan", "android": "https://dc.lft.to/lastmile_qr_scan"}, "fusion_lat": 0.0, "name": "006582e5023b518a05247adb4bf91138", "bike_id": "006582e5023b518a05247adb4bf91138", "is_disabled": 0, "type": "electric_scooter", "lat": 38.884262, "lon": -76.95752883333333, "is_reserved": 0, "fusion_lon": 0.0}, {"rental_uris": {"ios": "https://dc.lft.to/lastmile_qr_scan", "android": "https://dc.lft.to/lastmile_qr_scan"}, "fusion_lat": 0.0, "name": "047d7ce6126788dfc7e8f485ec3be367", "bike_id": "047d7ce6126788dfc7e8f485ec3be367", "is_disabled": 0, "type": "electric_scooter", "lat": 38.90095066666667, "lon": -77.049255, "is_reserved": 0, "fusion_lon": 0.0}, {"rental_uris": {"ios": "https://dc.lft.to/lastmile_qr_scan", "android": "https://dc.lft.to/lastmile_qr_scan"}, "fusion_lat": 0.0, "name": "7d8c1b591021d2dc2e2fd6a7fbcac848", "bike_id": "7d8c1b591021d2dc2e2fd6a7fbcac848", "is_disabled": 0, "type": "electric_scooter", "lat": 38.90528966666667, "lon": -77.05933516666667, "is_reserved": 0, "fusion_lon": 0.0}, {"rental_uris": {"ios": "https://dc.lft.to/lastmile_qr_scan", "android": "https://dc.lft.to/lastmile_qr_scan"}, "fusion_lat": 0.0, "name": "370d14b1af5f6ef5780a09f0276ac0bf", "bike_id": "370d14b1af5f6ef5780a09f0276ac0bf", "is_disabled": 0, "type": "electric_scooter", "lat": 38.919872, "lon": -77.03265016666667, "is_reserved": 0, "fusion_lon": 0.0}, {"rental_uris": {"ios": "https://dc.lft.to/lastmile_qr_scan", "android": "https://dc.lft.to/lastmile_qr_scan"}, "fusion_lat": 0.0, "name": "614885227654ebb75fb55b7d666d5dc8", "bike_id": "614885227654ebb75fb55b7d666d5dc8", "is_disabled": 0, "type": "electric_scooter", "lat": 38.90450466666667, "lon": -77.04491, "is_reserved": 0, "fusion_lon": 0.0}, {"rental_uris": {"ios": "https://dc.lft.to/lastmile_qr_scan", "android": "https://dc.lft.to/lastmile_qr_scan"}, "fusion_lat": 0.0, "name": "5d1000b87b13ec1044b862a519c9477a", "bike_id": "5d1000b87b13ec1044b862a519c9477a", "is_disabled": 0, "type": "electric_scooter", "lat": 38.88546083333333, "lon": -76.93585083333333, "is_reserved": 0, "fusion_lon": 0.0}, {"rental_uris": {"ios": "https://dc.lft.to/lastmile_qr_scan", "android": "https://dc.lft.to/lastmile_qr_scan"}, "fusion_lat": 0.0, "name": "92f866f36e49e2a310154ada351bbd54", "bike_id": "92f866f36e49e2a310154ada351bbd54", "is_disabled": 0, "type": "electric_scooter", "lat": 38.9238915, "lon": -77.04079366666667, "is_reserved": 0, "fusion_lon": 0.0}, {"rental_uris": {"ios": "https://dc.lft.to/lastmile_qr_scan", "android": "https://dc.lft.to/lastmile_qr_scan"}, "fusion_lat": 0.0, "name": "46b140682a846dc43630166cca03e44c", "bike_id": "46b140682a846dc43630166cca03e44c", "is_disabled": 0, "type": "electric_scooter", "lat": 38.883997, "lon": -77.02972533333333, "is_reserved": 0, "fusion_lon": 0.0}, {"rental_uris": {"ios": "https://dc.lft.to/lastmile_qr_scan", "android": "https://dc.lft.to/lastmile_qr_scan"}, "fusion_lat": 0.0, "name": "b5913ebe2ce29b3d49f9dc1b367d80c8", "bike_id": "b5913ebe2ce29b3d49f9dc1b367d80c8", "is_disabled": 0, "type": "electric_scooter", "lat": 38.8810795, "lon": -77.01650866666667, "is_reserved": 0, "fusion_lon": 0.0}, {"rental_uris": {"ios": "https://dc.lft.to/lastmile_qr_scan", "android": "https://dc.lft.to/lastmile_qr_scan"}, "fusion_lat": 0.0, "name": "5eee417f72f207d8748f8986eaf36db0", "bike_id": "5eee417f72f207d8748f8986eaf36db0", "is_disabled": 0, "type": "electric_scooter", "lat": 38.917083166666664, "lon": -77.03883816666666, "is_reserved": 0, "fusion_lon": 0.0}, {"rental_uris": {"ios": "https://dc.lft.to/lastmile_qr_scan", "android": "https://dc.lft.to/lastmile_qr_scan"}, "fusion_lat": 0.0, "name": "5ebbe084f3da2d5e5e6a2788bb1b85c0", "bike_id": "5ebbe084f3da2d5e5e6a2788bb1b85c0", "is_disabled": 0, "type": "electric_scooter", "lat": 38.90764016666667, "lon": -77.0012505, "is_reserved": 0, "fusion_lon": 0.0}, {"rental_uris": {"ios": "https://dc.lft.to/lastmile_qr_scan", "android": "https://dc.lft.to/lastmile_qr_scan"}, "fusion_lat": 0.0, "name": "d2761824c5661de2392855b324726993", "bike_id": "d2761824c5661de2392855b324726993", "is_disabled": 0, "type": "electric_scooter", "lat": 38.892172, "lon": -77.026535, "is_reserved": 0, "fusion_lon": 0.0}, {"rental_uris": {"ios": "https://dc.lft.to/lastmile_qr_scan", "android": "https://dc.lft.to/lastmile_qr_scan"}, "fusion_lat": 0.0, "name": "9db9083ab8ee684f283d4281a0a91cb6", "bike_id": "9db9083ab8ee684f283d4281a0a91cb6", "is_disabled": 0, "type": "electric_scooter", "lat": 38.949563, "lon": -77.02723166666667, "is_reserved": 0, "fusion_lon": 0.0}, {"rental_uris": {"ios": "https://dc.lft.to/lastmile_qr_scan", "android": "https://dc.lft.to/lastmile_qr_scan"}, "fusion_lat": 0.0, "name": "4e44a4b7f4c6f97ada0cdc2fc88821f7", "bike_id": "4e44a4b7f4c6f97ada0cdc2fc88821f7", "is_disabled": 0, "type": "electric_scooter", "lat": 38.9187415, "lon": -77.02481433333334, "is_reserved": 0, "fusion_lon": 0.0}, {"rental_uris": {"ios": "https://dc.lft.to/lastmile_qr_scan", "android": "https://dc.lft.to/lastmile_qr_scan"}, "fusion_lat": 0.0, "name": "08821177935edad02d69eaa6010f1f5f", "bike_id": "08821177935edad02d69eaa6010f1f5f", "is_disabled": 0, "type": "electric_scooter", "lat": 38.917456, "lon": -77.02402066666667, "is_reserved": 0, "fusion_lon": 0.0}, {"rental_uris": {"ios": "https://dc.lft.to/lastmile_qr_scan", "android": "https://dc.lft.to/lastmile_qr_scan"}, "fusion_lat": 0.0, "name": "e64e13ca3e175cbdc06969e27912a7dd", "bike_id": "e64e13ca3e175cbdc06969e27912a7dd", "is_disabled": 0, "type": "electric_scooter", "lat": 38.90845183333333, "lon": -77.01258516666667, "is_reserved": 0, "fusion_lon": 0.0}, {"rental_uris": {"ios": "https://dc.lft.to/lastmile_qr_scan", "android": "https://dc.lft.to/lastmile_qr_scan"}, "fusion_lat": 0.0, "name": "58552693ab0de4330a25584dd9610369", "bike_id": "58552693ab0de4330a25584dd9610369", "is_disabled": 0, "type": "electric_scooter", "lat": 38.90641516666667, "lon": -77.00631883333334, "is_reserved": 0, "fusion_lon": 0.0}, {"rental_uris": {"ios": "https://dc.lft.to/lastmile_qr_scan", "android": "https://dc.lft.to/lastmile_qr_scan"}, "fusion_lat": 0.0, "name": "e6699a64204c2f9d87dd13c59d3645b0", "bike_id": "e6699a64204c2f9d87dd13c59d3645b0", "is_disabled": 0, "type": "electric_scooter", "lat": 38.917095833333335, "lon": -77.033251, "is_reserved": 0, "fusion_lon": 0.0}, {"rental_uris": {"ios": "https://dc.lft.to/lastmile_qr_scan", "android": "https://dc.lft.to/lastmile_qr_scan"}, "fusion_lat": 0.0, "name": "34df7fab66fe1ab90575d9f8fe05a313", "bike_id": "34df7fab66fe1ab90575d9f8fe05a313", "is_disabled": 0, "type": "electric_scooter", "lat": 38.9408505, "lon": -77.02726416666667, "is_reserved": 0, "fusion_lon": 0.0}, {"rental_uris": {"ios": "https://dc.lft.to/lastmile_qr_scan", "android": "https://dc.lft.to/lastmile_qr_scan"}, "fusion_lat": 0.0, "name": "9ab9ecc0aefbeab3f7dcf8652c3cc2ef", "bike_id": "9ab9ecc0aefbeab3f7dcf8652c3cc2ef", "is_disabled": 0, "type": "electric_scooter", "lat": 38.91612883333333, "lon": -77.03300033333333, "is_reserved": 0, "fusion_lon": 0.0}, {"rental_uris": {"ios": "https://dc.lft.to/lastmile_qr_scan", "android": "https://dc.lft.to/lastmile_qr_scan"}, "fusion_lat": 0.0, "name": "1a687b136964a9b8b5bbb90340888d8d", "bike_id": "1a687b136964a9b8b5bbb90340888d8d", "is_disabled": 0, "type": "electric_scooter", "lat": 38.900347333333336, "lon": -76.9883485, "is_reserved": 0, "fusion_lon": 0.0}, {"rental_uris": {"ios": "https://dc.lft.to/lastmile_qr_scan", "android": "https://dc.lft.to/lastmile_qr_scan"}, "fusion_lat": 0.0, "name": "87bec3ee8eff144787dec9f4e8802eb2", "bike_id": "87bec3ee8eff144787dec9f4e8802eb2", "is_disabled": 0, "type": "electric_scooter", "lat": 38.918038333333335, "lon": -77.02430933333333, "is_reserved": 0, "fusion_lon": 0.0}, {"rental_uris": {"ios": "https://dc.lft.to/lastmile_qr_scan", "android": "https://dc.lft.to/lastmile_qr_scan"}, "fusion_lat": 0.0, "name": "fdc05e21eddd60e539edb161ed218df9", "bike_id": "fdc05e21eddd60e539edb161ed218df9", "is_disabled": 0, "type": "electric_scooter", "lat": 38.917133, "lon": -77.03196316666667, "is_reserved": 0, "fusion_lon": 0.0}, {"rental_uris": {"ios": "https://dc.lft.to/lastmile_qr_scan", "android": "https://dc.lft.to/lastmile_qr_scan"}, "fusion_lat": 0.0, "name": "8bcf431a0096217a66f178b3d2267b76", "bike_id": "8bcf431a0096217a66f178b3d2267b76", "is_disabled": 0, "type": "electric_scooter", "lat": 38.89220366666667, "lon": -77.0468755, "is_reserved": 0, "fusion_lon": 0.0}, {"rental_uris": {"ios": "https://dc.lft.to/lastmile_qr_scan", "android": "https://dc.lft.to/lastmile_qr_scan"}, "fusion_lat": 0.0, "name": "2e904ba5611c616b0cd7914885a5f240", "bike_id": "2e904ba5611c616b0cd7914885a5f240", "is_disabled": 0, "type": "electric_scooter", "lat": 38.89842866666667, "lon": -76.94637966666667, "is_reserved": 0, "fusion_lon": 0.0}, {"rental_uris": {"ios": "https://dc.lft.to/lastmile_qr_scan", "android": "https://dc.lft.to/lastmile_qr_scan"}, "fusion_lat": 0.0, "name": "f1f485c0f3731f29bbb84cde0a10cb33", "bike_id": "f1f485c0f3731f29bbb84cde0a10cb33", "is_disabled": 0, "type": "electric_scooter", "lat": 38.902701666666665, "lon": -77.0438855, "is_reserved": 0, "fusion_lon": 0.0}, {"rental_uris": {"ios": "https://dc.lft.to/lastmile_qr_scan", "android": "https://dc.lft.to/lastmile_qr_scan"}, "fusion_lat": 0.0, "name": "fbe550e3bd9b0884058056c96a0aebad", "bike_id": "fbe550e3bd9b0884058056c96a0aebad", "is_disabled": 0, "type": "electric_scooter", "lat": 38.8990735, "lon": -76.99509, "is_reserved": 0, "fusion_lon": 0.0}, {"rental_uris": {"ios": "https://dc.lft.to/lastmile_qr_scan", "android": "https://dc.lft.to/lastmile_qr_scan"}, "fusion_lat": 0.0, "name": "fc6d31f798a544aba21f739b9e44d90a", "bike_id": "fc6d31f798a544aba21f739b9e44d90a", "is_disabled": 0, "type": "electric_scooter", "lat": 38.90792, "lon": -76.997267, "is_reserved": 0, "fusion_lon": 0.0}, {"rental_uris": {"ios": "https://dc.lft.to/lastmile_qr_scan", "android": "https://dc.lft.to/lastmile_qr_scan"}, "fusion_lat": 0.0, "name": "5cf2caf0d52da1618cea242c9683c908", "bike_id": "5cf2caf0d52da1618cea242c9683c908", "is_disabled": 0, "type": "electric_scooter", "lat": 38.919320166666665, "lon": -77.045638, "is_reserved": 0, "fusion_lon": 0.0}, {"rental_uris": {"ios": "https://dc.lft.to/lastmile_qr_scan", "android": "https://dc.lft.to/lastmile_qr_scan"}, "fusion_lat": 0.0, "name": "4f6ece6bcf2d5dbf0c6bf2d57062d061", "bike_id": "4f6ece6bcf2d5dbf0c6bf2d57062d061", "is_disabled": 0, "type": "electric_scooter", "lat": 38.938652166666664, "lon": -77.02996416666667, "is_reserved": 0, "fusion_lon": 0.0}, {"rental_uris": {"ios": "https://dc.lft.to/lastmile_qr_scan", "android": "https://dc.lft.to/lastmile_qr_scan"}, "fusion_lat": 0.0, "name": "002ef6feb4d59673ef139ed9f37460f4", "bike_id": "002ef6feb4d59673ef139ed9f37460f4", "is_disabled": 0, "type": "electric_scooter", "lat": 38.895993833333335, "lon": -77.02324683333333, "is_reserved": 0, "fusion_lon": 0.0}, {"rental_uris": {"ios": "https://dc.lft.to/lastmile_qr_scan", "android": "https://dc.lft.to/lastmile_qr_scan"}, "fusion_lat": 0.0, "name": "41c9b78861a1c9db0e32f1327a643397", "bike_id": "41c9b78861a1c9db0e32f1327a643397", "is_disabled": 0, "type": "electric_scooter", "lat": 38.927116, "lon": -77.02098633333334, "is_reserved": 0, "fusion_lon": 0.0}, {"rental_uris": {"ios": "https://dc.lft.to/lastmile_qr_scan", "android": "https://dc.lft.to/lastmile_qr_scan"}, "fusion_lat": 0.0, "name": "ed8200addd9b0b30b0838b67247b8787", "bike_id": "ed8200addd9b0b30b0838b67247b8787", "is_disabled": 0, "type": "electric_scooter", "lat": 38.96340216666667, "lon": -77.02795316666666, "is_reserved": 0, "fusion_lon": 0.0}, {"rental_uris": {"ios": "https://dc.lft.to/lastmile_qr_scan", "android": "https://dc.lft.to/lastmile_qr_scan"}, "fusion_lat": 0.0, "name": "d5b97bebfefe98982bb7206673c17ad6", "bike_id": "d5b97bebfefe98982bb7206673c17ad6", "is_disabled": 0, "type": "electric_scooter", "lat": 38.898233166666664, "lon": -76.9465395, "is_reserved": 0, "fusion_lon": 0.0}, {"rental_uris": {"ios": "https://dc.lft.to/lastmile_qr_scan", "android": "https://dc.lft.to/lastmile_qr_scan"}, "fusion_lat": 0.0, "name": "4548bd0bce6fe97ae389c32aff4c7d53", "bike_id": "4548bd0bce6fe97ae389c32aff4c7d53", "is_disabled": 0, "type": "electric_scooter", "lat": 38.887358166666665, "lon": -77.0153425, "is_reserved": 0, "fusion_lon": 0.0}, {"rental_uris": {"ios": "https://dc.lft.to/lastmile_qr_scan", "android": "https://dc.lft.to/lastmile_qr_scan"}, "fusion_lat": 0.0, "name": "e5591eb578eec008acd3dcec31898612", "bike_id": "e5591eb578eec008acd3dcec31898612", "is_disabled": 0, "type": "electric_scooter", "lat": 38.90175716666667, "lon": -77.02603, "is_reserved": 0, "fusion_lon": 0.0}, {"rental_uris": {"ios": "https://dc.lft.to/lastmile_qr_scan", "android": "https://dc.lft.to/lastmile_qr_scan"}, "fusion_lat": 0.0, "name": "20c945e0628dc28ad57c9695ab464e79", "bike_id": "20c945e0628dc28ad57c9695ab464e79", "is_disabled": 0, "type": "electric_scooter", "lat": 38.8668075, "lon": -76.984916, "is_reserved": 0, "fusion_lon": 0.0}, {"rental_uris": {"ios": "https://dc.lft.to/lastmile_qr_scan", "android": "https://dc.lft.to/lastmile_qr_scan"}, "fusion_lat": 0.0, "name": "4dd4d9c3b66564010e824f9abee293ad", "bike_id": "4dd4d9c3b66564010e824f9abee293ad", "is_disabled": 0, "type": "electric_scooter", "lat": 38.921626, "lon": -77.0384585, "is_reserved": 0, "fusion_lon": 0.0}, {"rental_uris": {"ios": "https://dc.lft.to/lastmile_qr_scan", "android": "https://dc.lft.to/lastmile_qr_scan"}, "fusion_lat": 0.0, "name": "e084ef72b6b9af9a3d17ce6a14dce010", "bike_id": "e084ef72b6b9af9a3d17ce6a14dce010", "is_disabled": 0, "type": "electric_scooter", "lat": 38.9336205, "lon": -77.05712966666667, "is_reserved": 0, "fusion_lon": 0.0}, {"rental_uris": {"ios": "https://dc.lft.to/lastmile_qr_scan", "android": "https://dc.lft.to/lastmile_qr_scan"}, "fusion_lat": 0.0, "name": "f84f8313c45a99429ed64c9de654be51", "bike_id": "f84f8313c45a99429ed64c9de654be51", "is_disabled": 0, "type": "electric_bike", "lat": 38.949128333333334, "lon": -76.97702833333334, "is_reserved": 0, "fusion_lon": 0.0}, {"rental_uris": {"ios": "https://dc.lft.to/lastmile_qr_scan", "android": "https://dc.lft.to/lastmile_qr_scan"}, "fusion_lat": 0.0, "name": "455035b8a23e3abc2a536eec9d040577", "bike_id": "455035b8a23e3abc2a536eec9d040577", "is_disabled": 0, "type": "electric_scooter", "lat": 38.92972183333333, "lon": -77.037779, "is_reserved": 0, "fusion_lon": 0.0}, {"rental_uris": {"ios": "https://dc.lft.to/lastmile_qr_scan", "android": "https://dc.lft.to/lastmile_qr_scan"}, "fusion_lat": 0.0, "name": "cc827fd7bb0536698161fbe3b5475e71", "bike_id": "cc827fd7bb0536698161fbe3b5475e71", "is_disabled": 0, "type": "electric_scooter", "lat": 38.92743566666667, "lon": -77.0328365, "is_reserved": 0, "fusion_lon": 0.0}, {"rental_uris": {"ios": "https://dc.lft.to/lastmile_qr_scan", "android": "https://dc.lft.to/lastmile_qr_scan"}, "fusion_lat": 0.0, "name": "093304c34cfdd67264118817c26a5cfc", "bike_id": "093304c34cfdd67264118817c26a5cfc", "is_disabled": 0, "type": "electric_scooter", "lat": 38.9192185, "lon": -77.02510833333334, "is_reserved": 0, "fusion_lon": 0.0}, {"rental_uris": {"ios": "https://dc.lft.to/lastmile_qr_scan", "android": "https://dc.lft.to/lastmile_qr_scan"}, "fusion_lat": 0.0, "name": "c9b3ed24b6c661ac7b0fa232e4a61703", "bike_id": "c9b3ed24b6c661ac7b0fa232e4a61703", "is_disabled": 0, "type": "electric_scooter", "lat": 38.91991083333333, "lon": -77.03286816666666, "is_reserved": 0, "fusion_lon": 0.0}, {"rental_uris": {"ios": "https://dc.lft.to/lastmile_qr_scan", "android": "https://dc.lft.to/lastmile_qr_scan"}, "fusion_lat": 0.0, "name": "ee7b5f2abed29bed8cc57e2312713152", "bike_id": "ee7b5f2abed29bed8cc57e2312713152", "is_disabled": 0, "type": "electric_scooter", "lat": 38.898145166666666, "lon": -77.033267, "is_reserved": 0, "fusion_lon": 0.0}, {"rental_uris": {"ios": "https://dc.lft.to/lastmile_qr_scan", "android": "https://dc.lft.to/lastmile_qr_scan"}, "fusion_lat": 0.0, "name": "891affb6ced10a83de4b7792648bb449", "bike_id": "891affb6ced10a83de4b7792648bb449", "is_disabled": 0, "type": "electric_scooter", "lat": 38.890345833333335, "lon": -76.95139683333333, "is_reserved": 0, "fusion_lon": 0.0}, {"rental_uris": {"ios": "https://dc.lft.to/lastmile_qr_scan", "android": "https://dc.lft.to/lastmile_qr_scan"}, "fusion_lat": 0.0, "name": "0100dfca7dcfd998b4e5783f81d5de6b", "bike_id": "0100dfca7dcfd998b4e5783f81d5de6b", "is_disabled": 0, "type": "electric_scooter", "lat": 38.89563066666667, "lon": -77.02980316666667, "is_reserved": 0, "fusion_lon": 0.0}, {"rental_uris": {"ios": "https://dc.lft.to/lastmile_qr_scan", "android": "https://dc.lft.to/lastmile_qr_scan"}, "fusion_lat": 0.0, "name": "4f03ee6bf24393fe410955bf6e38c549", "bike_id": "4f03ee6bf24393fe410955bf6e38c549", "is_disabled": 0, "type": "electric_bike", "lat": 38.99816466666667, "lon": -76.88376433333333, "is_reserved": 0, "fusion_lon": 0.0}, {"rental_uris": {"ios": "https://dc.lft.to/lastmile_qr_scan", "android": "https://dc.lft.to/lastmile_qr_scan"}, "fusion_lat": 0.0, "name": "58a761bec21066044321bbc0291bec3c", "bike_id": "58a761bec21066044321bbc0291bec3c", "is_disabled": 0, "type": "electric_scooter", "lat": 38.9023775, "lon": -77.00198983333334, "is_reserved": 0, "fusion_lon": 0.0}, {"rental_uris": {"ios": "https://dc.lft.to/lastmile_qr_scan", "android": "https://dc.lft.to/lastmile_qr_scan"}, "fusion_lat": 0.0, "name": "bab8cca85face2e467d6d554598712d6", "bike_id": "bab8cca85face2e467d6d554598712d6", "is_disabled": 0, "type": "electric_scooter", "lat": 38.929135333333335, "lon": -77.03748616666667, "is_reserved": 0, "fusion_lon": 0.0}, {"rental_uris": {"ios": "https://dc.lft.to/lastmile_qr_scan", "android": "https://dc.lft.to/lastmile_qr_scan"}, "fusion_lat": 0.0, "name": "d831813306b69d6e72218b2733c45369", "bike_id": "d831813306b69d6e72218b2733c45369", "is_disabled": 0, "type": "electric_scooter", "lat": 38.9389015, "lon": -77.02486933333333, "is_reserved": 0, "fusion_lon": 0.0}, {"rental_uris": {"ios": "https://dc.lft.to/lastmile_qr_scan", "android": "https://dc.lft.to/lastmile_qr_scan"}, "fusion_lat": 0.0, "name": "4bbc3efe88d0c48bc91b7b8e9f761c07", "bike_id": "4bbc3efe88d0c48bc91b7b8e9f761c07", "is_disabled": 0, "type": "electric_scooter", "lat": 38.901047, "lon": -77.03373766666667, "is_reserved": 0, "fusion_lon": 0.0}, {"rental_uris": {"ios": "https://dc.lft.to/lastmile_qr_scan", "android": "https://dc.lft.to/lastmile_qr_scan"}, "fusion_lat": 0.0, "name": "8075fc5b601adc826f3832b6264c036f", "bike_id": "8075fc5b601adc826f3832b6264c036f", "is_disabled": 0, "type": "electric_bike", "lat": 38.910633, "lon": -77.009097, "is_reserved": 0, "fusion_lon": 0.0}, {"rental_uris": {"ios": "https://dc.lft.to/lastmile_qr_scan", "android": "https://dc.lft.to/lastmile_qr_scan"}, "fusion_lat": 0.0, "name": "ff01cc39443288f2262bdf7c57811526", "bike_id": "ff01cc39443288f2262bdf7c57811526", "is_disabled": 0, "type": "electric_bike", "lat": 38.962168, "lon": -77.02628283333334, "is_reserved": 0, "fusion_lon": 0.0}, {"rental_uris": {"ios": "https://dc.lft.to/lastmile_qr_scan", "android": "https://dc.lft.to/lastmile_qr_scan"}, "fusion_lat": 0.0, "name": "1b3bf3ab07a0485fb9f1ecf1269a2955", "bike_id": "1b3bf3ab07a0485fb9f1ecf1269a2955", "is_disabled": 0, "type": "electric_scooter", "lat": 38.91960383333333, "lon": -77.0321935, "is_reserved": 0, "fusion_lon": 0.0}, {"rental_uris": {"ios": "https://dc.lft.to/lastmile_qr_scan", "android": "https://dc.lft.to/lastmile_qr_scan"}, "fusion_lat": 0.0, "name": "036d3973daee45819caafce66a8ce955", "bike_id": "036d3973daee45819caafce66a8ce955", "is_disabled": 0, "type": "electric_scooter", "lat": 38.93069283333333, "lon": -77.0318805, "is_reserved": 0, "fusion_lon": 0.0}, {"rental_uris": {"ios": "https://dc.lft.to/lastmile_qr_scan", "android": "https://dc.lft.to/lastmile_qr_scan"}, "fusion_lat": 0.0, "name": "eddd941a3f65469635497ce52f091f0e", "bike_id": "eddd941a3f65469635497ce52f091f0e", "is_disabled": 0, "type": "electric_scooter", "lat": 38.91924083333333, "lon": -77.02534016666667, "is_reserved": 0, "fusion_lon": 0.0}, {"rental_uris": {"ios": "https://dc.lft.to/lastmile_qr_scan", "android": "https://dc.lft.to/lastmile_qr_scan"}, "fusion_lat": 0.0, "name": "f494fb013d068d0015c469846031e917", "bike_id": "f494fb013d068d0015c469846031e917", "is_disabled": 0, "type": "electric_scooter", "lat": 38.90883983333333, "lon": -76.99632466666667, "is_reserved": 0, "fusion_lon": 0.0}, {"rental_uris": {"ios": "https://dc.lft.to/lastmile_qr_scan", "android": "https://dc.lft.to/lastmile_qr_scan"}, "fusion_lat": 0.0, "name": "8b4a1476f33ebbd0407b3642e3d0b9bb", "bike_id": "8b4a1476f33ebbd0407b3642e3d0b9bb", "is_disabled": 0, "type": "electric_scooter", "lat": 38.918738833333336, "lon": -77.02456183333334, "is_reserved": 0, "fusion_lon": 0.0}, {"rental_uris": {"ios": "https://dc.lft.to/lastmile_qr_scan", "android": "https://dc.lft.to/lastmile_qr_scan"}, "fusion_lat": 0.0, "name": "bcbcd1182877e80429a308b534513c01", "bike_id": "bcbcd1182877e80429a308b534513c01", "is_disabled": 0, "type": "electric_scooter", "lat": 38.916052, "lon": -77.04477533333333, "is_reserved": 0, "fusion_lon": 0.0}, {"rental_uris": {"ios": "https://dc.lft.to/lastmile_qr_scan", "android": "https://dc.lft.to/lastmile_qr_scan"}, "fusion_lat": 0.0, "name": "0c4ee3be261e10ee3dc81565742cb4a9", "bike_id": "0c4ee3be261e10ee3dc81565742cb4a9", "is_disabled": 0, "type": "electric_scooter", "lat": 38.90954333333333, "lon": -77.0461945, "is_reserved": 0, "fusion_lon": 0.0}, {"rental_uris": {"ios": "https://dc.lft.to/lastmile_qr_scan", "android": "https://dc.lft.to/lastmile_qr_scan"}, "fusion_lat": 0.0, "name": "8da6a79f4dbddf1a7df610652a62a2d0", "bike_id": "8da6a79f4dbddf1a7df610652a62a2d0", "is_disabled": 0, "type": "electric_scooter", "lat": 38.89325633333333, "lon": -77.05582716666666, "is_reserved": 0, "fusion_lon": 0.0}, {"rental_uris": {"ios": "https://dc.lft.to/lastmile_qr_scan", "android": "https://dc.lft.to/lastmile_qr_scan"}, "fusion_lat": 0.0, "name": "65ef59943410faa72e1102ebfba1eb32", "bike_id": "65ef59943410faa72e1102ebfba1eb32", "is_disabled": 0, "type": "electric_scooter", "lat": 38.88229783333333, "lon": -76.99095833333334, "is_reserved": 0, "fusion_lon": 0.0}, {"rental_uris": {"ios": "https://dc.lft.to/lastmile_qr_scan", "android": "https://dc.lft.to/lastmile_qr_scan"}, "fusion_lat": 0.0, "name": "edcfe4513f64905db4f2e8beba4af008", "bike_id": "edcfe4513f64905db4f2e8beba4af008", "is_disabled": 0, "type": "electric_scooter", "lat": 38.90520766666667, "lon": -77.0418825, "is_reserved": 0, "fusion_lon": 0.0}, {"rental_uris": {"ios": "https://dc.lft.to/lastmile_qr_scan", "android": "https://dc.lft.to/lastmile_qr_scan"}, "fusion_lat": 0.0, "name": "84f3ecf18ba33664777edddeb04486c4", "bike_id": "84f3ecf18ba33664777edddeb04486c4", "is_disabled": 0, "type": "electric_scooter", "lat": 38.90379766666667, "lon": -76.9802735, "is_reserved": 0, "fusion_lon": 0.0}, {"rental_uris": {"ios": "https://dc.lft.to/lastmile_qr_scan", "android": "https://dc.lft.to/lastmile_qr_scan"}, "fusion_lat": 0.0, "name": "0e82172ff88bd2a9f100f18395f523ff", "bike_id": "0e82172ff88bd2a9f100f18395f523ff", "is_disabled": 0, "type": "electric_scooter", "lat": 38.89037416666667, "lon": -76.93759266666666, "is_reserved": 0, "fusion_lon": 0.0}, {"rental_uris": {"ios": "https://dc.lft.to/lastmile_qr_scan", "android": "https://dc.lft.to/lastmile_qr_scan"}, "fusion_lat": 0.0, "name": "fd3b2311388ead4363e2689c5165f990", "bike_id": "fd3b2311388ead4363e2689c5165f990", "is_disabled": 0, "type": "electric_scooter", "lat": 38.91691, "lon": -77.03630066666666, "is_reserved": 0, "fusion_lon": 0.0}, {"rental_uris": {"ios": "https://dc.lft.to/lastmile_qr_scan", "android": "https://dc.lft.to/lastmile_qr_scan"}, "fusion_lat": 0.0, "name": "68a97e1d7dfa57b0f773599a47821e01", "bike_id": "68a97e1d7dfa57b0f773599a47821e01", "is_disabled": 0, "type": "electric_scooter", "lat": 38.91553866666667, "lon": -77.03868333333334, "is_reserved": 0, "fusion_lon": 0.0}, {"rental_uris": {"ios": "https://dc.lft.to/lastmile_qr_scan", "android": "https://dc.lft.to/lastmile_qr_scan"}, "fusion_lat": 0.0, "name": "1974561f1b2aa87e4675f97a61710287", "bike_id": "1974561f1b2aa87e4675f97a61710287", "is_disabled": 0, "type": "electric_bike", "lat": 38.838111, "lon": -77.09525166666667, "is_reserved": 0, "fusion_lon": 0.0}, {"rental_uris": {"ios": "https://dc.lft.to/lastmile_qr_scan", "android": "https://dc.lft.to/lastmile_qr_scan"}, "fusion_lat": 0.0, "name": "172383defc0ad77be182fdf0a40446f7", "bike_id": "172383defc0ad77be182fdf0a40446f7", "is_disabled": 0, "type": "electric_scooter", "lat": 38.87959, "lon": -76.98742, "is_reserved": 0, "fusion_lon": 0.0}, {"rental_uris": {"ios": "https://dc.lft.to/lastmile_qr_scan", "android": "https://dc.lft.to/lastmile_qr_scan"}, "fusion_lat": 0.0, "name": "61a213349b16d63037e721a5b37e73e4", "bike_id": "61a213349b16d63037e721a5b37e73e4", "is_disabled": 0, "type": "electric_scooter", "lat": 38.909407, "lon": -77.04482266666666, "is_reserved": 0, "fusion_lon": 0.0}, {"rental_uris": {"ios": "https://dc.lft.to/lastmile_qr_scan", "android": "https://dc.lft.to/lastmile_qr_scan"}, "fusion_lat": 0.0, "name": "db506551e8bbc4d4ac5095c5469dbaf0", "bike_id": "db506551e8bbc4d4ac5095c5469dbaf0", "is_disabled": 0, "type": "electric_scooter", "lat": 38.90542383333333, "lon": -77.04897716666666, "is_reserved": 0, "fusion_lon": 0.0}, {"rental_uris": {"ios": "https://dc.lft.to/lastmile_qr_scan", "android": "https://dc.lft.to/lastmile_qr_scan"}, "fusion_lat": 0.0, "name": "a47724691c4df983d0450555b3de4344", "bike_id": "a47724691c4df983d0450555b3de4344", "is_disabled": 0, "type": "electric_bike", "lat": 38.91801533333334, "lon": -77.22351433333333, "is_reserved": 0, "fusion_lon": 0.0}, {"rental_uris": {"ios": "https://dc.lft.to/lastmile_qr_scan", "android": "https://dc.lft.to/lastmile_qr_scan"}, "fusion_lat": 0.0, "name": "58849ae0ffa99ee0663d99569f3b8730", "bike_id": "58849ae0ffa99ee0663d99569f3b8730", "is_disabled": 0, "type": "electric_scooter", "lat": 38.921362333333335, "lon": -77.01809416666667, "is_reserved": 0, "fusion_lon": 0.0}, {"rental_uris": {"ios": "https://dc.lft.to/lastmile_qr_scan", "android": "https://dc.lft.to/lastmile_qr_scan"}, "fusion_lat": 0.0, "name": "d458f9e9b1bd0f555b78184600d2287b", "bike_id": "d458f9e9b1bd0f555b78184600d2287b", "is_disabled": 0, "type": "electric_scooter", "lat": 38.917933833333336, "lon": -77.03665583333333, "is_reserved": 0, "fusion_lon": 0.0}, {"rental_uris": {"ios": "https://dc.lft.to/lastmile_qr_scan", "android": "https://dc.lft.to/lastmile_qr_scan"}, "fusion_lat": 0.0, "name": "386b277b6fc295f31389ee0809ced850", "bike_id": "386b277b6fc295f31389ee0809ced850", "is_disabled": 0, "type": "electric_scooter", "lat": 38.911850666666666, "lon": -77.044453, "is_reserved": 0, "fusion_lon": 0.0}, {"rental_uris": {"ios": "https://dc.lft.to/lastmile_qr_scan", "android": "https://dc.lft.to/lastmile_qr_scan"}, "fusion_lat": 0.0, "name": "03f1d1198a5c2678a7e9a32bcd12a717", "bike_id": "03f1d1198a5c2678a7e9a32bcd12a717", "is_disabled": 0, "type": "electric_scooter", "lat": 38.916849666666664, "lon": -77.02465383333333, "is_reserved": 0, "fusion_lon": 0.0}, {"rental_uris": {"ios": "https://dc.lft.to/lastmile_qr_scan", "android": "https://dc.lft.to/lastmile_qr_scan"}, "fusion_lat": 0.0, "name": "ab5fbf7adfb1b12ce74f31ff3ce25638", "bike_id": "ab5fbf7adfb1b12ce74f31ff3ce25638", "is_disabled": 0, "type": "electric_scooter", "lat": 38.94536166666666, "lon": -77.01791583333333, "is_reserved": 0, "fusion_lon": 0.0}, {"rental_uris": {"ios": "https://dc.lft.to/lastmile_qr_scan", "android": "https://dc.lft.to/lastmile_qr_scan"}, "fusion_lat": 0.0, "name": "e85e6a6f2ec66d0957a702affb8d03b8", "bike_id": "e85e6a6f2ec66d0957a702affb8d03b8", "is_disabled": 0, "type": "electric_scooter", "lat": 38.904722, "lon": -77.04867366666667, "is_reserved": 0, "fusion_lon": 0.0}, {"rental_uris": {"ios": "https://dc.lft.to/lastmile_qr_scan", "android": "https://dc.lft.to/lastmile_qr_scan"}, "fusion_lat": 0.0, "name": "8d418d8abba112a7ca2e12357828669c", "bike_id": "8d418d8abba112a7ca2e12357828669c", "is_disabled": 0, "type": "electric_scooter", "lat": 38.9005575, "lon": -77.05141633333334, "is_reserved": 0, "fusion_lon": 0.0}, {"rental_uris": {"ios": "https://dc.lft.to/lastmile_qr_scan", "android": "https://dc.lft.to/lastmile_qr_scan"}, "fusion_lat": 0.0, "name": "4da0624391b904e01ca65eeb525ee269", "bike_id": "4da0624391b904e01ca65eeb525ee269", "is_disabled": 0, "type": "electric_scooter", "lat": 38.90253, "lon": -77.0460065, "is_reserved": 0, "fusion_lon": 0.0}, {"rental_uris": {"ios": "https://dc.lft.to/lastmile_qr_scan", "android": "https://dc.lft.to/lastmile_qr_scan"}, "fusion_lat": 0.0, "name": "85441402b61a32efae2967dbcaefc95e", "bike_id": "85441402b61a32efae2967dbcaefc95e", "is_disabled": 0, "type": "electric_scooter", "lat": 38.89739383333333, "lon": -77.0238825, "is_reserved": 0, "fusion_lon": 0.0}, {"rental_uris": {"ios": "https://dc.lft.to/lastmile_qr_scan", "android": "https://dc.lft.to/lastmile_qr_scan"}, "fusion_lat": 0.0, "name": "98f730ae147e4b47678631621f056a2e", "bike_id": "98f730ae147e4b47678631621f056a2e", "is_disabled": 0, "type": "electric_scooter", "lat": 38.9128115, "lon": -77.0449585, "is_reserved": 0, "fusion_lon": 0.0}, {"rental_uris": {"ios": "https://dc.lft.to/lastmile_qr_scan", "android": "https://dc.lft.to/lastmile_qr_scan"}, "fusion_lat": 0.0, "name": "2fea37217ca60adacf2ae936d2ee2e6d", "bike_id": "2fea37217ca60adacf2ae936d2ee2e6d", "is_disabled": 0, "type": "electric_scooter", "lat": 38.9202325, "lon": -77.0103505, "is_reserved": 0, "fusion_lon": 0.0}, {"rental_uris": {"ios": "https://dc.lft.to/lastmile_qr_scan", "android": "https://dc.lft.to/lastmile_qr_scan"}, "fusion_lat": 0.0, "name": "65c4709c899fc1399e422bc25e12e326", "bike_id": "65c4709c899fc1399e422bc25e12e326", "is_disabled": 0, "type": "electric_scooter", "lat": 38.9197115, "lon": -76.97344383333333, "is_reserved": 0, "fusion_lon": 0.0}, {"rental_uris": {"ios": "https://dc.lft.to/lastmile_qr_scan", "android": "https://dc.lft.to/lastmile_qr_scan"}, "fusion_lat": 0.0, "name": "67442b7ad0aef1cd6e63733889e61dbf", "bike_id": "67442b7ad0aef1cd6e63733889e61dbf", "is_disabled": 0, "type": "electric_scooter", "lat": 38.90120833333334, "lon": -77.03097866666667, "is_reserved": 0, "fusion_lon": 0.0}, {"rental_uris": {"ios": "https://dc.lft.to/lastmile_qr_scan", "android": "https://dc.lft.to/lastmile_qr_scan"}, "fusion_lat": 0.0, "name": "5f18dfb4b1e16a097b0b86b356fbf84c", "bike_id": "5f18dfb4b1e16a097b0b86b356fbf84c", "is_disabled": 0, "type": "electric_scooter", "lat": 38.916579, "lon": -77.04381, "is_reserved": 0, "fusion_lon": 0.0}, {"rental_uris": {"ios": "https://dc.lft.to/lastmile_qr_scan", "android": "https://dc.lft.to/lastmile_qr_scan"}, "fusion_lat": 0.0, "name": "ec55d504f9be88ff4f33963436f6f9fa", "bike_id": "ec55d504f9be88ff4f33963436f6f9fa", "is_disabled": 0, "type": "electric_scooter", "lat": 38.94958783333333, "lon": -77.0272235, "is_reserved": 0, "fusion_lon": 0.0}, {"rental_uris": {"ios": "https://dc.lft.to/lastmile_qr_scan", "android": "https://dc.lft.to/lastmile_qr_scan"}, "fusion_lat": 0.0, "name": "172251ad20738a7f13b480f4b9a21466", "bike_id": "172251ad20738a7f13b480f4b9a21466", "is_disabled": 0, "type": "electric_scooter", "lat": 38.9056625, "lon": -77.03448316666666, "is_reserved": 0, "fusion_lon": 0.0}, {"rental_uris": {"ios": "https://dc.lft.to/lastmile_qr_scan", "android": "https://dc.lft.to/lastmile_qr_scan"}, "fusion_lat": 0.0, "name": "ed849cb3c1d39389c58cf6fb2e627211", "bike_id": "ed849cb3c1d39389c58cf6fb2e627211", "is_disabled": 0, "type": "electric_scooter", "lat": 38.920833333333334, "lon": -77.02411716666667, "is_reserved": 0, "fusion_lon": 0.0}, {"rental_uris": {"ios": "https://dc.lft.to/lastmile_qr_scan", "android": "https://dc.lft.to/lastmile_qr_scan"}, "fusion_lat": 0.0, "name": "d127feacc507c8b93bfea8b59832de5d", "bike_id": "d127feacc507c8b93bfea8b59832de5d", "is_disabled": 0, "type": "electric_scooter", "lat": 38.89505616666667, "lon": -77.01623866666667, "is_reserved": 0, "fusion_lon": 0.0}, {"rental_uris": {"ios": "https://dc.lft.to/lastmile_qr_scan", "android": "https://dc.lft.to/lastmile_qr_scan"}, "fusion_lat": 0.0, "name": "179786d462e70c65bb7f91680e232ee1", "bike_id": "179786d462e70c65bb7f91680e232ee1", "is_disabled": 0, "type": "electric_scooter", "lat": 38.91755216666667, "lon": -77.03074116666667, "is_reserved": 0, "fusion_lon": 0.0}, {"rental_uris": {"ios": "https://dc.lft.to/lastmile_qr_scan", "android": "https://dc.lft.to/lastmile_qr_scan"}, "fusion_lat": 0.0, "name": "93cdabc0c221eae9fb17f4cef8897303", "bike_id": "93cdabc0c221eae9fb17f4cef8897303", "is_disabled": 0, "type": "electric_scooter", "lat": 38.91364866666667, "lon": -77.06411866666667, "is_reserved": 0, "fusion_lon": 0.0}, {"rental_uris": {"ios": "https://dc.lft.to/lastmile_qr_scan", "android": "https://dc.lft.to/lastmile_qr_scan"}, "fusion_lat": 0.0, "name": "b1507a4975f420e0669547d983462a1d", "bike_id": "b1507a4975f420e0669547d983462a1d", "is_disabled": 0, "type": "electric_scooter", "lat": 38.84294083333333, "lon": -76.999513, "is_reserved": 0, "fusion_lon": 0.0}, {"rental_uris": {"ios": "https://dc.lft.to/lastmile_qr_scan", "android": "https://dc.lft.to/lastmile_qr_scan"}, "fusion_lat": 0.0, "name": "fa929f1b80b994d47992f27e55ab454a", "bike_id": "fa929f1b80b994d47992f27e55ab454a", "is_disabled": 0, "type": "electric_scooter", "lat": 38.92432316666667, "lon": -77.0522005, "is_reserved": 0, "fusion_lon": 0.0}, {"rental_uris": {"ios": "https://dc.lft.to/lastmile_qr_scan", "android": "https://dc.lft.to/lastmile_qr_scan"}, "fusion_lat": 0.0, "name": "45142a34a56c534171eb3cbffcaddaed", "bike_id": "45142a34a56c534171eb3cbffcaddaed", "is_disabled": 0, "type": "electric_scooter", "lat": 38.924195166666664, "lon": -77.01965933333334, "is_reserved": 0, "fusion_lon": 0.0}, {"rental_uris": {"ios": "https://dc.lft.to/lastmile_qr_scan", "android": "https://dc.lft.to/lastmile_qr_scan"}, "fusion_lat": 0.0, "name": "dcddff177cb3b065725e54e6ee55de46", "bike_id": "dcddff177cb3b065725e54e6ee55de46", "is_disabled": 0, "type": "electric_scooter", "lat": 38.86699566666667, "lon": -76.9870575, "is_reserved": 0, "fusion_lon": 0.0}, {"rental_uris": {"ios": "https://dc.lft.to/lastmile_qr_scan", "android": "https://dc.lft.to/lastmile_qr_scan"}, "fusion_lat": 0.0, "name": "36a958b5c1c51987c81aa6d8ad078800", "bike_id": "36a958b5c1c51987c81aa6d8ad078800", "is_disabled": 0, "type": "electric_scooter", "lat": 38.93883966666667, "lon": -77.024842, "is_reserved": 0, "fusion_lon": 0.0}, {"rental_uris": {"ios": "https://dc.lft.to/lastmile_qr_scan", "android": "https://dc.lft.to/lastmile_qr_scan"}, "fusion_lat": 0.0, "name": "1b32011cf2502eefb9490cd593ae2364", "bike_id": "1b32011cf2502eefb9490cd593ae2364", "is_disabled": 0, "type": "electric_scooter", "lat": 38.94620066666667, "lon": -77.02515716666667, "is_reserved": 0, "fusion_lon": 0.0}, {"rental_uris": {"ios": "https://dc.lft.to/lastmile_qr_scan", "android": "https://dc.lft.to/lastmile_qr_scan"}, "fusion_lat": 0.0, "name": "a42bb9b81b9f29cfe231838e74252d9c", "bike_id": "a42bb9b81b9f29cfe231838e74252d9c", "is_disabled": 0, "type": "electric_scooter", "lat": 38.90535216666667, "lon": -77.03484883333333, "is_reserved": 0, "fusion_lon": 0.0}, {"rental_uris": {"ios": "https://dc.lft.to/lastmile_qr_scan", "android": "https://dc.lft.to/lastmile_qr_scan"}, "fusion_lat": 0.0, "name": "0537014944d730fcd57c7209e8b86992", "bike_id": "0537014944d730fcd57c7209e8b86992", "is_disabled": 0, "type": "electric_scooter", "lat": 38.92810216666667, "lon": -77.0539365, "is_reserved": 0, "fusion_lon": 0.0}, {"rental_uris": {"ios": "https://dc.lft.to/lastmile_qr_scan", "android": "https://dc.lft.to/lastmile_qr_scan"}, "fusion_lat": 0.0, "name": "e49f468ca546546b8c34a9a25c8aa229", "bike_id": "e49f468ca546546b8c34a9a25c8aa229", "is_disabled": 0, "type": "electric_scooter", "lat": 38.9097045, "lon": -77.0462125, "is_reserved": 0, "fusion_lon": 0.0}, {"rental_uris": {"ios": "https://dc.lft.to/lastmile_qr_scan", "android": "https://dc.lft.to/lastmile_qr_scan"}, "fusion_lat": 0.0, "name": "57adb1568832ec5b8f66e64259f2620d", "bike_id": "57adb1568832ec5b8f66e64259f2620d", "is_disabled": 0, "type": "electric_scooter", "lat": 38.92314183333333, "lon": -77.03518783333334, "is_reserved": 0, "fusion_lon": 0.0}, {"rental_uris": {"ios": "https://dc.lft.to/lastmile_qr_scan", "android": "https://dc.lft.to/lastmile_qr_scan"}, "fusion_lat": 0.0, "name": "900b5b2421f16e59737831979e848f5b", "bike_id": "900b5b2421f16e59737831979e848f5b", "is_disabled": 0, "type": "electric_scooter", "lat": 38.87628733333333, "lon": -77.01476066666666, "is_reserved": 0, "fusion_lon": 0.0}, {"rental_uris": {"ios": "https://dc.lft.to/lastmile_qr_scan", "android": "https://dc.lft.to/lastmile_qr_scan"}, "fusion_lat": 0.0, "name": "38474e96f5e307410968f81c3c27861e", "bike_id": "38474e96f5e307410968f81c3c27861e", "is_disabled": 0, "type": "electric_scooter", "lat": 38.865236333333335, "lon": -76.99032116666666, "is_reserved": 0, "fusion_lon": 0.0}, {"rental_uris": {"ios": "https://dc.lft.to/lastmile_qr_scan", "android": "https://dc.lft.to/lastmile_qr_scan"}, "fusion_lat": 0.0, "name": "3f6535bfd414ec9e13a8d3741ac3721f", "bike_id": "3f6535bfd414ec9e13a8d3741ac3721f", "is_disabled": 0, "type": "electric_scooter", "lat": 38.9170855, "lon": -77.0387565, "is_reserved": 0, "fusion_lon": 0.0}, {"rental_uris": {"ios": "https://dc.lft.to/lastmile_qr_scan", "android": "https://dc.lft.to/lastmile_qr_scan"}, "fusion_lat": 0.0, "name": "c8caee9135b7af9a91e10a8fd9a799ef", "bike_id": "c8caee9135b7af9a91e10a8fd9a799ef", "is_disabled": 0, "type": "electric_scooter", "lat": 38.908701666666666, "lon": -77.00383016666666, "is_reserved": 0, "fusion_lon": 0.0}, {"rental_uris": {"ios": "https://dc.lft.to/lastmile_qr_scan", "android": "https://dc.lft.to/lastmile_qr_scan"}, "fusion_lat": 0.0, "name": "d280efc8104cfbddc75d3384edb296be", "bike_id": "d280efc8104cfbddc75d3384edb296be", "is_disabled": 0, "type": "electric_bike", "lat": 38.80757766666667, "lon": -77.09463566666666, "is_reserved": 0, "fusion_lon": 0.0}, {"rental_uris": {"ios": "https://dc.lft.to/lastmile_qr_scan", "android": "https://dc.lft.to/lastmile_qr_scan"}, "fusion_lat": 0.0, "name": "479f751cc6df80a04a81cbaa57240ba6", "bike_id": "479f751cc6df80a04a81cbaa57240ba6", "is_disabled": 0, "type": "electric_bike", "lat": 38.85217883333333, "lon": -77.1296175, "is_reserved": 0, "fusion_lon": 0.0}, {"rental_uris": {"ios": "https://dc.lft.to/lastmile_qr_scan", "android": "https://dc.lft.to/lastmile_qr_scan"}, "fusion_lat": 0.0, "name": "d6bd8eece8374c821895e68e97a9b4d0", "bike_id": "d6bd8eece8374c821895e68e97a9b4d0", "is_disabled": 0, "type": "electric_scooter", "lat": 38.892236833333335, "lon": -77.02625383333333, "is_reserved": 0, "fusion_lon": 0.0}, {"rental_uris": {"ios": "https://dc.lft.to/lastmile_qr_scan", "android": "https://dc.lft.to/lastmile_qr_scan"}, "fusion_lat": 0.0, "name": "000d7b23c8638c5dc7ee7df882bc52fc", "bike_id": "000d7b23c8638c5dc7ee7df882bc52fc", "is_disabled": 0, "type": "electric_scooter", "lat": 38.924481166666666, "lon": -77.04022533333334, "is_reserved": 0, "fusion_lon": 0.0}, {"rental_uris": {"ios": "https://dc.lft.to/lastmile_qr_scan", "android": "https://dc.lft.to/lastmile_qr_scan"}, "fusion_lat": 0.0, "name": "57073e44037c0b658167d5c3c8b8cdec", "bike_id": "57073e44037c0b658167d5c3c8b8cdec", "is_disabled": 0, "type": "electric_scooter", "lat": 38.902502166666665, "lon": -77.0273655, "is_reserved": 0, "fusion_lon": 0.0}, {"rental_uris": {"ios": "https://dc.lft.to/lastmile_qr_scan", "android": "https://dc.lft.to/lastmile_qr_scan"}, "fusion_lat": 0.0, "name": "7506d905b76b2f28993965494ee1385d", "bike_id": "7506d905b76b2f28993965494ee1385d", "is_disabled": 0, "type": "electric_bike", "lat": 38.865974333333334, "lon": -76.93228783333333, "is_reserved": 0, "fusion_lon": 0.0}, {"rental_uris": {"ios": "https://dc.lft.to/lastmile_qr_scan", "android": "https://dc.lft.to/lastmile_qr_scan"}, "fusion_lat": 0.0, "name": "a93a07e234980aad442923f6b700e5fc", "bike_id": "a93a07e234980aad442923f6b700e5fc", "is_disabled": 0, "type": "electric_scooter", "lat": 38.90729966666667, "lon": -77.02342633333333, "is_reserved": 0, "fusion_lon": 0.0}, {"rental_uris": {"ios": "https://dc.lft.to/lastmile_qr_scan", "android": "https://dc.lft.to/lastmile_qr_scan"}, "fusion_lat": 0.0, "name": "4de45a35a10e4ca13c4ec06905682e9f", "bike_id": "4de45a35a10e4ca13c4ec06905682e9f", "is_disabled": 0, "type": "electric_scooter", "lat": 38.91708083333333, "lon": -77.03673883333333, "is_reserved": 0, "fusion_lon": 0.0}, {"rental_uris": {"ios": "https://dc.lft.to/lastmile_qr_scan", "android": "https://dc.lft.to/lastmile_qr_scan"}, "fusion_lat": 0.0, "name": "d8f2fcd3bfe174092278df832f92727f", "bike_id": "d8f2fcd3bfe174092278df832f92727f", "is_disabled": 0, "type": "electric_scooter", "lat": 38.910044, "lon": -77.04007583333333, "is_reserved": 0, "fusion_lon": 0.0}, {"rental_uris": {"ios": "https://dc.lft.to/lastmile_qr_scan", "android": "https://dc.lft.to/lastmile_qr_scan"}, "fusion_lat": 0.0, "name": "e10b7785e4019eab32443663a56bf65c", "bike_id": "e10b7785e4019eab32443663a56bf65c", "is_disabled": 0, "type": "electric_scooter", "lat": 38.8924495, "lon": -77.03956866666667, "is_reserved": 0, "fusion_lon": 0.0}, {"rental_uris": {"ios": "https://dc.lft.to/lastmile_qr_scan", "android": "https://dc.lft.to/lastmile_qr_scan"}, "fusion_lat": 0.0, "name": "825a5fd379004aff97d30d09053249ac", "bike_id": "825a5fd379004aff97d30d09053249ac", "is_disabled": 0, "type": "electric_scooter", "lat": 38.9228475, "lon": -77.03531866666667, "is_reserved": 0, "fusion_lon": 0.0}, {"rental_uris": {"ios": "https://dc.lft.to/lastmile_qr_scan", "android": "https://dc.lft.to/lastmile_qr_scan"}, "fusion_lat": 0.0, "name": "822c54bb7f55c00b5a946a449b09f9f4", "bike_id": "822c54bb7f55c00b5a946a449b09f9f4", "is_disabled": 0, "type": "electric_scooter", "lat": 38.9097155, "lon": -77.02480166666666, "is_reserved": 0, "fusion_lon": 0.0}, {"rental_uris": {"ios": "https://dc.lft.to/lastmile_qr_scan", "android": "https://dc.lft.to/lastmile_qr_scan"}, "fusion_lat": 0.0, "name": "53df0be2f8a87c34ab0a13142a8c5be4", "bike_id": "53df0be2f8a87c34ab0a13142a8c5be4", "is_disabled": 0, "type": "electric_scooter", "lat": 38.90153766666667, "lon": -77.04186166666666, "is_reserved": 0, "fusion_lon": 0.0}, {"rental_uris": {"ios": "https://dc.lft.to/lastmile_qr_scan", "android": "https://dc.lft.to/lastmile_qr_scan"}, "fusion_lat": 0.0, "name": "ebe37aae0a028aa059a2b1c018db0058", "bike_id": "ebe37aae0a028aa059a2b1c018db0058", "is_disabled": 0, "type": "electric_scooter", "lat": 38.880213, "lon": -77.002467, "is_reserved": 0, "fusion_lon": 0.0}, {"rental_uris": {"ios": "https://dc.lft.to/lastmile_qr_scan", "android": "https://dc.lft.to/lastmile_qr_scan"}, "fusion_lat": 0.0, "name": "70fac5f265ea86dd06e23647728d80bf", "bike_id": "70fac5f265ea86dd06e23647728d80bf", "is_disabled": 0, "type": "electric_scooter", "lat": 38.92170433333333, "lon": -76.99384583333334, "is_reserved": 0, "fusion_lon": 0.0}, {"rental_uris": {"ios": "https://dc.lft.to/lastmile_qr_scan", "android": "https://dc.lft.to/lastmile_qr_scan"}, "fusion_lat": 0.0, "name": "f9cf58ec4470954457971e31d2b9d6d8", "bike_id": "f9cf58ec4470954457971e31d2b9d6d8", "is_disabled": 0, "type": "electric_scooter", "lat": 38.916790166666665, "lon": -77.02976116666666, "is_reserved": 0, "fusion_lon": 0.0}, {"rental_uris": {"ios": "https://dc.lft.to/lastmile_qr_scan", "android": "https://dc.lft.to/lastmile_qr_scan"}, "fusion_lat": 0.0, "name": "b63ab7bc517f70782880b46280ff0403", "bike_id": "b63ab7bc517f70782880b46280ff0403", "is_disabled": 0, "type": "electric_scooter", "lat": 38.91565966666667, "lon": -77.02218266666667, "is_reserved": 0, "fusion_lon": 0.0}, {"rental_uris": {"ios": "https://dc.lft.to/lastmile_qr_scan", "android": "https://dc.lft.to/lastmile_qr_scan"}, "fusion_lat": 0.0, "name": "d6b008cc28c35148b7cb332524536b04", "bike_id": "d6b008cc28c35148b7cb332524536b04", "is_disabled": 0, "type": "electric_scooter", "lat": 38.9304755, "lon": -77.01993866666666, "is_reserved": 0, "fusion_lon": 0.0}, {"rental_uris": {"ios": "https://dc.lft.to/lastmile_qr_scan", "android": "https://dc.lft.to/lastmile_qr_scan"}, "fusion_lat": 0.0, "name": "d421d592ca59d38362f17f8de32fbc35", "bike_id": "d421d592ca59d38362f17f8de32fbc35", "is_disabled": 0, "type": "electric_scooter", "lat": 38.88522183333333, "lon": -76.928895, "is_reserved": 0, "fusion_lon": 0.0}, {"rental_uris": {"ios": "https://dc.lft.to/lastmile_qr_scan", "android": "https://dc.lft.to/lastmile_qr_scan"}, "fusion_lat": 0.0, "name": "08cfb231b04505e797aaaa6ece30062e", "bike_id": "08cfb231b04505e797aaaa6ece30062e", "is_disabled": 0, "type": "electric_bike", "lat": 38.85029, "lon": -77.09800016666667, "is_reserved": 0, "fusion_lon": 0.0}, {"rental_uris": {"ios": "https://dc.lft.to/lastmile_qr_scan", "android": "https://dc.lft.to/lastmile_qr_scan"}, "fusion_lat": 0.0, "name": "07d430931cb1317ac1e61c6e03e51169", "bike_id": "07d430931cb1317ac1e61c6e03e51169", "is_disabled": 0, "type": "electric_scooter", "lat": 38.94518866666667, "lon": -76.97948883333333, "is_reserved": 0, "fusion_lon": 0.0}, {"rental_uris": {"ios": "https://dc.lft.to/lastmile_qr_scan", "android": "https://dc.lft.to/lastmile_qr_scan"}, "fusion_lat": 0.0, "name": "3ed11c88dd5f165f2499d668b6dd919a", "bike_id": "3ed11c88dd5f165f2499d668b6dd919a", "is_disabled": 0, "type": "electric_bike", "lat": 38.857929666666664, "lon": -77.0996245, "is_reserved": 0, "fusion_lon": 0.0}, {"rental_uris": {"ios": "https://dc.lft.to/lastmile_qr_scan", "android": "https://dc.lft.to/lastmile_qr_scan"}, "fusion_lat": 0.0, "name": "8e108dbd804196b938d3273ae5534fd4", "bike_id": "8e108dbd804196b938d3273ae5534fd4", "is_disabled": 0, "type": "electric_bike", "lat": 38.9644105, "lon": -77.02068983333334, "is_reserved": 0, "fusion_lon": 0.0}, {"rental_uris": {"ios": "https://dc.lft.to/lastmile_qr_scan", "android": "https://dc.lft.to/lastmile_qr_scan"}, "fusion_lat": 0.0, "name": "785554a13af1d0f751efc7a875b66dc1", "bike_id": "785554a13af1d0f751efc7a875b66dc1", "is_disabled": 0, "type": "electric_scooter", "lat": 38.91861516666667, "lon": -77.04039816666666, "is_reserved": 0, "fusion_lon": 0.0}, {"rental_uris": {"ios": "https://dc.lft.to/lastmile_qr_scan", "android": "https://dc.lft.to/lastmile_qr_scan"}, "fusion_lat": 0.0, "name": "b98fca5885b8b9487e6a08fb61aa256f", "bike_id": "b98fca5885b8b9487e6a08fb61aa256f", "is_disabled": 0, "type": "electric_scooter", "lat": 38.91684933333333, "lon": -77.02291133333334, "is_reserved": 0, "fusion_lon": 0.0}, {"rental_uris": {"ios": "https://dc.lft.to/lastmile_qr_scan", "android": "https://dc.lft.to/lastmile_qr_scan"}, "fusion_lat": 0.0, "name": "ab26ab0bf99d2c325ec89100d482b5d0", "bike_id": "ab26ab0bf99d2c325ec89100d482b5d0", "is_disabled": 0, "type": "electric_scooter", "lat": 38.9360745, "lon": -77.05861, "is_reserved": 0, "fusion_lon": 0.0}, {"rental_uris": {"ios": "https://dc.lft.to/lastmile_qr_scan", "android": "https://dc.lft.to/lastmile_qr_scan"}, "fusion_lat": 0.0, "name": "e4c6e3dac433a11aa6303f5e63e654e7", "bike_id": "e4c6e3dac433a11aa6303f5e63e654e7", "is_disabled": 0, "type": "electric_scooter", "lat": 38.913472, "lon": -77.03169666666666, "is_reserved": 0, "fusion_lon": 0.0}, {"rental_uris": {"ios": "https://dc.lft.to/lastmile_qr_scan", "android": "https://dc.lft.to/lastmile_qr_scan"}, "fusion_lat": 0.0, "name": "6971ddc83f5eeb750b70a4ec5d93f2a9", "bike_id": "6971ddc83f5eeb750b70a4ec5d93f2a9", "is_disabled": 0, "type": "electric_scooter", "lat": 38.892145166666666, "lon": -77.03170333333334, "is_reserved": 0, "fusion_lon": 0.0}, {"rental_uris": {"ios": "https://dc.lft.to/lastmile_qr_scan", "android": "https://dc.lft.to/lastmile_qr_scan"}, "fusion_lat": 0.0, "name": "75241b8363df54127ada70ef7f4eea3d", "bike_id": "75241b8363df54127ada70ef7f4eea3d", "is_disabled": 0, "type": "electric_scooter", "lat": 38.949546833333336, "lon": -77.02722783333333, "is_reserved": 0, "fusion_lon": 0.0}, {"rental_uris": {"ios": "https://dc.lft.to/lastmile_qr_scan", "android": "https://dc.lft.to/lastmile_qr_scan"}, "fusion_lat": 0.0, "name": "bf49660a281ab400b163a3de6c685a6c", "bike_id": "bf49660a281ab400b163a3de6c685a6c", "is_disabled": 0, "type": "electric_scooter", "lat": 38.9236665, "lon": -77.0296655, "is_reserved": 0, "fusion_lon": 0.0}, {"rental_uris": {"ios": "https://dc.lft.to/lastmile_qr_scan", "android": "https://dc.lft.to/lastmile_qr_scan"}, "fusion_lat": 0.0, "name": "b237efd002b154f8ad7f91af6bc95e47", "bike_id": "b237efd002b154f8ad7f91af6bc95e47", "is_disabled": 0, "type": "electric_scooter", "lat": 38.93710433333333, "lon": -77.02419483333334, "is_reserved": 0, "fusion_lon": 0.0}, {"rental_uris": {"ios": "https://dc.lft.to/lastmile_qr_scan", "android": "https://dc.lft.to/lastmile_qr_scan"}, "fusion_lat": 0.0, "name": "64674a1a2bc20ffcc1a7644e10527ad7", "bike_id": "64674a1a2bc20ffcc1a7644e10527ad7", "is_disabled": 0, "type": "electric_scooter", "lat": 38.94954933333333, "lon": -77.02723966666667, "is_reserved": 0, "fusion_lon": 0.0}, {"rental_uris": {"ios": "https://dc.lft.to/lastmile_qr_scan", "android": "https://dc.lft.to/lastmile_qr_scan"}, "fusion_lat": 0.0, "name": "389ad8c2e1c00b5d273aa97c3c7ab50a", "bike_id": "389ad8c2e1c00b5d273aa97c3c7ab50a", "is_disabled": 0, "type": "electric_bike", "lat": 38.8773, "lon": -76.98109783333334, "is_reserved": 0, "fusion_lon": 0.0}, {"rental_uris": {"ios": "https://dc.lft.to/lastmile_qr_scan", "android": "https://dc.lft.to/lastmile_qr_scan"}, "fusion_lat": 0.0, "name": "ff5858e38ce41c1d1a710c88c5821027", "bike_id": "ff5858e38ce41c1d1a710c88c5821027", "is_disabled": 0, "type": "electric_scooter", "lat": 38.930222, "lon": -77.055279, "is_reserved": 0, "fusion_lon": 0.0}, {"rental_uris": {"ios": "https://dc.lft.to/lastmile_qr_scan", "android": "https://dc.lft.to/lastmile_qr_scan"}, "fusion_lat": 0.0, "name": "ab99e412086fe5a148bc0aca8cc7cb0e", "bike_id": "ab99e412086fe5a148bc0aca8cc7cb0e", "is_disabled": 0, "type": "electric_scooter", "lat": 38.91464533333333, "lon": -77.017969, "is_reserved": 0, "fusion_lon": 0.0}, {"rental_uris": {"ios": "https://dc.lft.to/lastmile_qr_scan", "android": "https://dc.lft.to/lastmile_qr_scan"}, "fusion_lat": 0.0, "name": "29e599488ff043a600b7193e62eda207", "bike_id": "29e599488ff043a600b7193e62eda207", "is_disabled": 0, "type": "electric_scooter", "lat": 38.909726, "lon": -77.0347505, "is_reserved": 0, "fusion_lon": 0.0}, {"rental_uris": {"ios": "https://dc.lft.to/lastmile_qr_scan", "android": "https://dc.lft.to/lastmile_qr_scan"}, "fusion_lat": 0.0, "name": "bcc27473c5e21282f98dd8608ce72b4b", "bike_id": "bcc27473c5e21282f98dd8608ce72b4b", "is_disabled": 0, "type": "electric_scooter", "lat": 38.933570833333334, "lon": -77.02750166666667, "is_reserved": 0, "fusion_lon": 0.0}, {"rental_uris": {"ios": "https://dc.lft.to/lastmile_qr_scan", "android": "https://dc.lft.to/lastmile_qr_scan"}, "fusion_lat": 0.0, "name": "2dad9f4bc60b9ccf352b8918735de452", "bike_id": "2dad9f4bc60b9ccf352b8918735de452", "is_disabled": 0, "type": "electric_scooter", "lat": 38.90578216666667, "lon": -77.00606583333334, "is_reserved": 0, "fusion_lon": 0.0}, {"rental_uris": {"ios": "https://dc.lft.to/lastmile_qr_scan", "android": "https://dc.lft.to/lastmile_qr_scan"}, "fusion_lat": 0.0, "name": "2bc253306e5f2ae747a67fa636f972c8", "bike_id": "2bc253306e5f2ae747a67fa636f972c8", "is_disabled": 0, "type": "electric_scooter", "lat": 38.92368316666666, "lon": -77.0515055, "is_reserved": 0, "fusion_lon": 0.0}, {"rental_uris": {"ios": "https://dc.lft.to/lastmile_qr_scan", "android": "https://dc.lft.to/lastmile_qr_scan"}, "fusion_lat": 0.0, "name": "7fc53e4fd79ecbee796795c93cc8477f", "bike_id": "7fc53e4fd79ecbee796795c93cc8477f", "is_disabled": 0, "type": "electric_scooter", "lat": 38.926277166666665, "lon": -77.0354505, "is_reserved": 0, "fusion_lon": 0.0}, {"rental_uris": {"ios": "https://dc.lft.to/lastmile_qr_scan", "android": "https://dc.lft.to/lastmile_qr_scan"}, "fusion_lat": 0.0, "name": "925b329ce17bfe337c5458af3c520dce", "bike_id": "925b329ce17bfe337c5458af3c520dce", "is_disabled": 0, "type": "electric_scooter", "lat": 38.8924255, "lon": -77.04658916666666, "is_reserved": 0, "fusion_lon": 0.0}, {"rental_uris": {"ios": "https://dc.lft.to/lastmile_qr_scan", "android": "https://dc.lft.to/lastmile_qr_scan"},