{"data": {"bikes": [{"rental_uris": {"ios": "https://dc.lft.to/lastmile_qr_scan", "android": "https://dc.lft.to/lastmile_qr_scan"}, "type": "electric_bike", "name": "7bf19bb3e18279df44f04553205773a6", "is_reserved": 0, "lon": -76.90739816666667, "is_disabled": 0, "fusion_lat": 0.0, "lat": 38.89617166666667, "bike_id": "7bf19bb3e18279df44f04553205773a6", "fusion_lon": 0.0}, {"rental_uris": {"ios": "https://dc.lft.to/lastmile_qr_scan", "android": "https://dc.lft.to/lastmile_qr_scan"}, "type": "electric_scooter", "name": "0f35fca7a3f66dda01392cc1991fd2e8", "is_reserved": 0, "lon": -77.03021416666667, "is_disabled": 0, "fusion_lat": 0.0, "lat": 38.878451, "bike_id": "0f35fca7a3f66dda01392cc1991fd2e8", "fusion_lon": 0.0}, {"rental_uris": {"ios": "https://dc.lft.to/lastmile_qr_scan", "android": "https://dc.lft.to/lastmile_qr_scan"}, "type": "electric_scooter", "name": "2bbcd382182826b9a830a35ce63230d9", "is_reserved": 0, "lon": -77.00740033333334, "is_disabled": 0, "fusion_lat": 0.0, "lat": 38.899113666666665, "bike_id": "2bbcd382182826b9a830a35ce63230d9", "fusion_lon": 0.0}, {"rental_uris": {"ios": "https://dc.lft.to/lastmile_qr_scan", "android": "https://dc.lft.to/lastmile_qr_scan"}, "type": "electric_scooter", "name": "1e04f37f57754e3fd936712937e26ccb", "is_reserved": 0, "lon": -77.05754133333333, "is_disabled": 0, "fusion_lat": 0.0, "lat": 38.92502533333333, "bike_id": "1e04f37f57754e3fd936712937e26ccb", "fusion_lon": 0.0}, {"rental_uris": {"ios": "https://dc.lft.to/lastmile_qr_scan", "android": "https://dc.lft.to/lastmile_qr_scan"}, "type": "electric_bike", "name": "78427d5199a0c5e30b9e1e5d1c124d12", "is_reserved": 0, "lon": -76.99802816666667, "is_disabled": 0, "fusion_lat": 0.0, "lat": 38.908510666666665, "bike_id": "78427d5199a0c5e30b9e1e5d1c124d12", "fusion_lon": 0.0}, {"rental_uris": {"ios": "https://dc.lft.to/lastmile_qr_scan", "android": "https://dc.lft.to/lastmile_qr_scan"}, "type": "electric_scooter", "name": "1917cdb865bf188a9517951ab6087095", "is_reserved": 0, "lon": -77.04598666666666, "is_disabled": 0, "fusion_lat": 0.0, "lat": 38.90569266666667, "bike_id": "1917cdb865bf188a9517951ab6087095", "fusion_lon": 0.0}, {"rental_uris": {"ios": "https://dc.lft.to/lastmile_qr_scan", "android": "https://dc.lft.to/lastmile_qr_scan"}, "type": "electric_scooter", "name": "91fd13540635d6b84b16303fe37c7a98", "is_reserved": 0, "lon": -77.031601, "is_disabled": 0, "fusion_lat": 0.0, "lat": 38.916263, "bike_id": "91fd13540635d6b84b16303fe37c7a98", "fusion_lon": 0.0}, {"rental_uris": {"ios": "https://dc.lft.to/lastmile_qr_scan", "android": "https://dc.lft.to/lastmile_qr_scan"}, "type": "electric_scooter", "name": "c079e7bdb00e34a3d7848fac3196a360", "is_reserved": 0, "lon": -77.007404, "is_disabled": 0, "fusion_lat": 0.0, "lat": 38.8785015, "bike_id": "c079e7bdb00e34a3d7848fac3196a360", "fusion_lon": 0.0}, {"rental_uris": {"ios": "https://dc.lft.to/lastmile_qr_scan", "android": "https://dc.lft.to/lastmile_qr_scan"}, "type": "electric_scooter", "name": "6571343b905683c63bbf6d12f0d6e375", "is_reserved": 0, "lon": -77.05023, "is_disabled": 0, "fusion_lat": 0.0, "lat": 38.8965325, "bike_id": "6571343b905683c63bbf6d12f0d6e375", "fusion_lon": 0.0}, {"rental_uris": {"ios": "https://dc.lft.to/lastmile_qr_scan", "android": "https://dc.lft.to/lastmile_qr_scan"}, "type": "electric_scooter", "name": "6ee4d54168ba30d2022970a0755e2525", "is_reserved": 0, "lon": -77.02580283333333, "is_disabled": 0, "fusion_lat": 0.0, "lat": 38.88718333333333, "bike_id": "6ee4d54168ba30d2022970a0755e2525", "fusion_lon": 0.0}, {"rental_uris": {"ios": "https://dc.lft.to/lastmile_qr_scan", "android": "https://dc.lft.to/lastmile_qr_scan"}, "type": "electric_bike", "name": "c7eaa6e85269e22f652da0e08d8ba390", "is_reserved": 0, "lon": -76.99544466666667, "is_disabled": 0, "fusion_lat": 0.0, "lat": 38.862151, "bike_id": "c7eaa6e85269e22f652da0e08d8ba390", "fusion_lon": 0.0}, {"rental_uris": {"ios": "https://dc.lft.to/lastmile_qr_scan", "android": "https://dc.lft.to/lastmile_qr_scan"}, "type": "electric_scooter", "name": "d8b3e4d0f642326aee37accd106e80bf", "is_reserved": 0, "lon": -77.02012716666667, "is_disabled": 0, "fusion_lat": 0.0, "lat": 38.911133166666666, "bike_id": "d8b3e4d0f642326aee37accd106e80bf", "fusion_lon": 0.0}, {"rental_uris": {"ios": "https://dc.lft.to/lastmile_qr_scan", "android": "https://dc.lft.to/lastmile_qr_scan"}, "type": "electric_scooter", "name": "fb28e29134272434c21440f3ab553744", "is_reserved": 0, "lon": -77.03658833333333, "is_disabled": 0, "fusion_lat": 0.0, "lat": 38.921193, "bike_id": "fb28e29134272434c21440f3ab553744", "fusion_lon": 0.0}, {"rental_uris": {"ios": "https://dc.lft.to/lastmile_qr_scan", "android": "https://dc.lft.to/lastmile_qr_scan"}, "type": "electric_scooter", "name": "c156a50c7f041d007b9338bd524d0507", "is_reserved": 0, "lon": -77.04854866666666, "is_disabled": 0, "fusion_lat": 0.0, "lat": 38.91266916666667, "bike_id": "c156a50c7f041d007b9338bd524d0507", "fusion_lon": 0.0}, {"rental_uris": {"ios": "https://dc.lft.to/lastmile_qr_scan", "android": "https://dc.lft.to/lastmile_qr_scan"}, "type": "electric_scooter", "name": "f00b41ccfcc6d591c269bc3fc7f243f4", "is_reserved": 0, "lon": -77.03846866666666, "is_disabled": 0, "fusion_lat": 0.0, "lat": 38.916531, "bike_id": "f00b41ccfcc6d591c269bc3fc7f243f4", "fusion_lon": 0.0}, {"rental_uris": {"ios": "https://dc.lft.to/lastmile_qr_scan", "android": "https://dc.lft.to/lastmile_qr_scan"}, "type": "electric_scooter", "name": "586d70ba0fe2ca920004e54d86a2a662", "is_reserved": 0, "lon": -77.03175433333334, "is_disabled": 0, "fusion_lat": 0.0, "lat": 38.91831583333333, "bike_id": "586d70ba0fe2ca920004e54d86a2a662", "fusion_lon": 0.0}, {"rental_uris": {"ios": "https://dc.lft.to/lastmile_qr_scan", "android": "https://dc.lft.to/lastmile_qr_scan"}, "type": "electric_scooter", "name": "03fb9a8fc729311b0b46998b066e3457", "is_reserved": 0, "lon": -77.03215366666667, "is_disabled": 0, "fusion_lat": 0.0, "lat": 38.916933, "bike_id": "03fb9a8fc729311b0b46998b066e3457", "fusion_lon": 0.0}, {"rental_uris": {"ios": "https://dc.lft.to/lastmile_qr_scan", "android": "https://dc.lft.to/lastmile_qr_scan"}, "type": "electric_scooter", "name": "f32f0859b362f63fd28a6170b724bd03", "is_reserved": 0, "lon": -77.02535566666667, "is_disabled": 0, "fusion_lat": 0.0, "lat": 38.9453065, "bike_id": "f32f0859b362f63fd28a6170b724bd03", "fusion_lon": 0.0}, {"rental_uris": {"ios": "https://dc.lft.to/lastmile_qr_scan", "android": "https://dc.lft.to/lastmile_qr_scan"}, "type": "electric_scooter", "name": "ce3aa2ce65df0fad9cf9ef56dd559c9b", "is_reserved": 0, "lon": -77.03674, "is_disabled": 0, "fusion_lat": 0.0, "lat": 38.93210216666667, "bike_id": "ce3aa2ce65df0fad9cf9ef56dd559c9b", "fusion_lon": 0.0}, {"rental_uris": {"ios": "https://dc.lft.to/lastmile_qr_scan", "android": "https://dc.lft.to/lastmile_qr_scan"}, "type": "electric_scooter", "name": "f674c28dd028477d12ec0ef15f4fee3e", "is_reserved": 0, "lon": -77.0494225, "is_disabled": 0, "fusion_lat": 0.0, "lat": 38.90979, "bike_id": "f674c28dd028477d12ec0ef15f4fee3e", "fusion_lon": 0.0}, {"rental_uris": {"ios": "https://dc.lft.to/lastmile_qr_scan", "android": "https://dc.lft.to/lastmile_qr_scan"}, "type": "electric_scooter", "name": "7a4eb6b00529288c8b055b23a08f269b", "is_reserved": 0, "lon": -76.9336825, "is_disabled": 0, "fusion_lat": 0.0, "lat": 38.8986695, "bike_id": "7a4eb6b00529288c8b055b23a08f269b", "fusion_lon": 0.0}, {"rental_uris": {"ios": "https://dc.lft.to/lastmile_qr_scan", "android": "https://dc.lft.to/lastmile_qr_scan"}, "type": "electric_scooter", "name": "8b162ce29797eb50fc254b634c0dd68e", "is_reserved": 0, "lon": -77.002491, "is_disabled": 0, "fusion_lat": 0.0, "lat": 38.9004655, "bike_id": "8b162ce29797eb50fc254b634c0dd68e", "fusion_lon": 0.0}, {"rental_uris": {"ios": "https://dc.lft.to/lastmile_qr_scan", "android": "https://dc.lft.to/lastmile_qr_scan"}, "type": "electric_scooter", "name": "94717b67dc83a9453a0bfd2ade34f1ff", "is_reserved": 0, "lon": -77.03177783333334, "is_disabled": 0, "fusion_lat": 0.0, "lat": 38.918199, "bike_id": "94717b67dc83a9453a0bfd2ade34f1ff", "fusion_lon": 0.0}, {"rental_uris": {"ios": "https://dc.lft.to/lastmile_qr_scan", "android": "https://dc.lft.to/lastmile_qr_scan"}, "type": "electric_scooter", "name": "7294d2f3f36f0cc0eaf1aac77245e7d1", "is_reserved": 0, "lon": -76.98891283333333, "is_disabled": 0, "fusion_lat": 0.0, "lat": 38.906502833333334, "bike_id": "7294d2f3f36f0cc0eaf1aac77245e7d1", "fusion_lon": 0.0}, {"rental_uris": {"ios": "https://dc.lft.to/lastmile_qr_scan", "android": "https://dc.lft.to/lastmile_qr_scan"}, "type": "electric_bike", "name": "409af9fdd305b426c03d7b79005df06f", "is_reserved": 0, "lon": -76.99440116666666, "is_disabled": 0, "fusion_lat": 0.0, "lat": 38.831038, "bike_id": "409af9fdd305b426c03d7b79005df06f", "fusion_lon": 0.0}, {"rental_uris": {"ios": "https://dc.lft.to/lastmile_qr_scan", "android": "https://dc.lft.to/lastmile_qr_scan"}, "type": "electric_scooter", "name": "48a92a920178b0fc4dbd1ab0c83f96d9", "is_reserved": 0, "lon": -77.02050016666666, "is_disabled": 0, "fusion_lat": 0.0, "lat": 38.92929783333334, "bike_id": "48a92a920178b0fc4dbd1ab0c83f96d9", "fusion_lon": 0.0}, {"rental_uris": {"ios": "https://dc.lft.to/lastmile_qr_scan", "android": "https://dc.lft.to/lastmile_qr_scan"}, "type": "electric_scooter", "name": "ade18b0974d75b2d44018c711eeb5958", "is_reserved": 0, "lon": -77.02152666666667, "is_disabled": 0, "fusion_lat": 0.0, "lat": 38.88745016666667, "bike_id": "ade18b0974d75b2d44018c711eeb5958", "fusion_lon": 0.0}, {"rental_uris": {"ios": "https://dc.lft.to/lastmile_qr_scan", "android": "https://dc.lft.to/lastmile_qr_scan"}, "type": "electric_scooter", "name": "3f6a5ab34334f59af824940bffbfc9ca", "is_reserved": 0, "lon": -77.0390895, "is_disabled": 0, "fusion_lat": 0.0, "lat": 38.92244683333333, "bike_id": "3f6a5ab34334f59af824940bffbfc9ca", "fusion_lon": 0.0}, {"rental_uris": {"ios": "https://dc.lft.to/lastmile_qr_scan", "android": "https://dc.lft.to/lastmile_qr_scan"}, "type": "electric_scooter", "name": "d0879379351a4168a6603487c40dbb98", "is_reserved": 0, "lon": -77.0027955, "is_disabled": 0, "fusion_lat": 0.0, "lat": 38.877329, "bike_id": "d0879379351a4168a6603487c40dbb98", "fusion_lon": 0.0}, {"rental_uris": {"ios": "https://dc.lft.to/lastmile_qr_scan", "android": "https://dc.lft.to/lastmile_qr_scan"}, "type": "electric_bike", "name": "8f23724129562f35ccb918d19d594499", "is_reserved": 0, "lon": -77.00762883333333, "is_disabled": 0, "fusion_lat": 0.0, "lat": 38.99786116666667, "bike_id": "8f23724129562f35ccb918d19d594499", "fusion_lon": 0.0}, {"rental_uris": {"ios": "https://dc.lft.to/lastmile_qr_scan", "android": "https://dc.lft.to/lastmile_qr_scan"}, "type": "electric_scooter", "name": "783cb33ed35a4c8c8d93fc61ca7607a1", "is_reserved": 0, "lon": -77.03950866666666, "is_disabled": 0, "fusion_lat": 0.0, "lat": 38.89824183333333, "bike_id": "783cb33ed35a4c8c8d93fc61ca7607a1", "fusion_lon": 0.0}, {"rental_uris": {"ios": "https://dc.lft.to/lastmile_qr_scan", "android": "https://dc.lft.to/lastmile_qr_scan"}, "type": "electric_bike", "name": "a476905c5b127bb1320bee1bc1540d11", "is_reserved": 0, "lon": -76.9524025, "is_disabled": 0, "fusion_lat": 0.0, "lat": 38.88465733333334, "bike_id": "a476905c5b127bb1320bee1bc1540d11", "fusion_lon": 0.0}, {"rental_uris": {"ios": "https://dc.lft.to/lastmile_qr_scan", "android": "https://dc.lft.to/lastmile_qr_scan"}, "type": "electric_scooter", "name": "8e4313efa8a833c0346b6e0fb7fd7075", "is_reserved": 0, "lon": -77.000539, "is_disabled": 0, "fusion_lat": 0.0, "lat": 38.87685966666667, "bike_id": "8e4313efa8a833c0346b6e0fb7fd7075", "fusion_lon": 0.0}, {"rental_uris": {"ios": "https://dc.lft.to/lastmile_qr_scan", "android": "https://dc.lft.to/lastmile_qr_scan"}, "type": "electric_scooter", "name": "32fab781ba12a8510c55db18157a6b06", "is_reserved": 0, "lon": -77.01762983333333, "is_disabled": 0, "fusion_lat": 0.0, "lat": 38.87685466666667, "bike_id": "32fab781ba12a8510c55db18157a6b06", "fusion_lon": 0.0}, {"rental_uris": {"ios": "https://dc.lft.to/lastmile_qr_scan", "android": "https://dc.lft.to/lastmile_qr_scan"}, "type": "electric_scooter", "name": "4835ad2811f673b8282becf0fb4a67ad", "is_reserved": 0, "lon": -77.02615, "is_disabled": 0, "fusion_lat": 0.0, "lat": 38.916921, "bike_id": "4835ad2811f673b8282becf0fb4a67ad", "fusion_lon": 0.0}, {"rental_uris": {"ios": "https://dc.lft.to/lastmile_qr_scan", "android": "https://dc.lft.to/lastmile_qr_scan"}, "type": "electric_scooter", "name": "c3db1acee0112f3f5bde158286231dd2", "is_reserved": 0, "lon": -77.04005183333334, "is_disabled": 0, "fusion_lat": 0.0, "lat": 38.9182115, "bike_id": "c3db1acee0112f3f5bde158286231dd2", "fusion_lon": 0.0}, {"rental_uris": {"ios": "https://dc.lft.to/lastmile_qr_scan", "android": "https://dc.lft.to/lastmile_qr_scan"}, "type": "electric_scooter", "name": "6ee35c68fb2eb9062d45bca71b9ce1e5", "is_reserved": 0, "lon": -77.08398066666666, "is_disabled": 0, "fusion_lat": 0.0, "lat": 38.90801416666667, "bike_id": "6ee35c68fb2eb9062d45bca71b9ce1e5", "fusion_lon": 0.0}, {"rental_uris": {"ios": "https://dc.lft.to/lastmile_qr_scan", "android": "https://dc.lft.to/lastmile_qr_scan"}, "type": "electric_bike", "name": "52af9cd97b5b05445e5b2ae74177a88f", "is_reserved": 0, "lon": -76.94547816666666, "is_disabled": 0, "fusion_lat": 0.0, "lat": 38.9830345, "bike_id": "52af9cd97b5b05445e5b2ae74177a88f", "fusion_lon": 0.0}, {"rental_uris": {"ios": "https://dc.lft.to/lastmile_qr_scan", "android": "https://dc.lft.to/lastmile_qr_scan"}, "type": "electric_scooter", "name": "2ba5adca589d68eaf2c45e12f8d246c1", "is_reserved": 0, "lon": -77.0334085, "is_disabled": 0, "fusion_lat": 0.0, "lat": 38.89970683333333, "bike_id": "2ba5adca589d68eaf2c45e12f8d246c1", "fusion_lon": 0.0}, {"rental_uris": {"ios": "https://dc.lft.to/lastmile_qr_scan", "android": "https://dc.lft.to/lastmile_qr_scan"}, "type": "electric_bike", "name": "0c7283542c2943c48b7608aa52229ad2", "is_reserved": 0, "lon": -77.07898633333333, "is_disabled": 0, "fusion_lat": 0.0, "lat": 38.83928183333333, "bike_id": "0c7283542c2943c48b7608aa52229ad2", "fusion_lon": 0.0}, {"rental_uris": {"ios": "https://dc.lft.to/lastmile_qr_scan", "android": "https://dc.lft.to/lastmile_qr_scan"}, "type": "electric_bike", "name": "a940a5f7d46fcc245b38757921503ee4", "is_reserved": 0, "lon": -76.95249383333334, "is_disabled": 0, "fusion_lat": 0.0, "lat": 38.9069245, "bike_id": "a940a5f7d46fcc245b38757921503ee4", "fusion_lon": 0.0}, {"rental_uris": {"ios": "https://dc.lft.to/lastmile_qr_scan", "android": "https://dc.lft.to/lastmile_qr_scan"}, "type": "electric_bike", "name": "77e6ccc97f695bbb2bb1b29b153e2a79", "is_reserved": 0, "lon": -77.02448033333333, "is_disabled": 0, "fusion_lat": 0.0, "lat": 38.95740216666667, "bike_id": "77e6ccc97f695bbb2bb1b29b153e2a79", "fusion_lon": 0.0}, {"rental_uris": {"ios": "https://dc.lft.to/lastmile_qr_scan", "android": "https://dc.lft.to/lastmile_qr_scan"}, "type": "electric_scooter", "name": "8b47c86a92ba2644aa660b216420628c", "is_reserved": 0, "lon": -77.01284233333334, "is_disabled": 0, "fusion_lat": 0.0, "lat": 38.910355833333334, "bike_id": "8b47c86a92ba2644aa660b216420628c", "fusion_lon": 0.0}, {"rental_uris": {"ios": "https://dc.lft.to/lastmile_qr_scan", "android": "https://dc.lft.to/lastmile_qr_scan"}, "type": "electric_scooter", "name": "7ff1fdc22fae47159dbb73e4d83f66f7", "is_reserved": 0, "lon": -77.03292316666666, "is_disabled": 0, "fusion_lat": 0.0, "lat": 38.89995833333333, "bike_id": "7ff1fdc22fae47159dbb73e4d83f66f7", "fusion_lon": 0.0}, {"rental_uris": {"ios": "https://dc.lft.to/lastmile_qr_scan", "android": "https://dc.lft.to/lastmile_qr_scan"}, "type": "electric_scooter", "name": "a498ff5a03338ed893d94a0f1e715b81", "is_reserved": 0, "lon": -76.93185966666667, "is_disabled": 0, "fusion_lat": 0.0, "lat": 38.898745166666664, "bike_id": "a498ff5a03338ed893d94a0f1e715b81", "fusion_lon": 0.0}, {"rental_uris": {"ios": "https://dc.lft.to/lastmile_qr_scan", "android": "https://dc.lft.to/lastmile_qr_scan"}, "type": "electric_scooter", "name": "bd1fc6c90515edb5706780a9a5d9180d", "is_reserved": 0, "lon": -77.03480266666666, "is_disabled": 0, "fusion_lat": 0.0, "lat": 38.9067985, "bike_id": "bd1fc6c90515edb5706780a9a5d9180d", "fusion_lon": 0.0}, {"rental_uris": {"ios": "https://dc.lft.to/lastmile_qr_scan", "android": "https://dc.lft.to/lastmile_qr_scan"}, "type": "electric_scooter", "name": "75268ee4c5322934d8b87b5d64a26cd1", "is_reserved": 0, "lon": -77.0359045, "is_disabled": 0, "fusion_lat": 0.0, "lat": 38.92780783333333, "bike_id": "75268ee4c5322934d8b87b5d64a26cd1", "fusion_lon": 0.0}, {"rental_uris": {"ios": "https://dc.lft.to/lastmile_qr_scan", "android": "https://dc.lft.to/lastmile_qr_scan"}, "type": "electric_scooter", "name": "84cdc6d8f90d1543cd5448eabd92ce45", "is_reserved": 0, "lon": -77.072196, "is_disabled": 0, "fusion_lat": 0.0, "lat": 38.919718333333336, "bike_id": "84cdc6d8f90d1543cd5448eabd92ce45", "fusion_lon": 0.0}, {"rental_uris": {"ios": "https://dc.lft.to/lastmile_qr_scan", "android": "https://dc.lft.to/lastmile_qr_scan"}, "type": "electric_scooter", "name": "784a80d27fab0222f833064de27179f6", "is_reserved": 0, "lon": -77.00627916666667, "is_disabled": 0, "fusion_lat": 0.0, "lat": 38.871721666666666, "bike_id": "784a80d27fab0222f833064de27179f6", "fusion_lon": 0.0}, {"rental_uris": {"ios": "https://dc.lft.to/lastmile_qr_scan", "android": "https://dc.lft.to/lastmile_qr_scan"}, "type": "electric_scooter", "name": "694381b4df3a6068251fde27d95842f0", "is_reserved": 0, "lon": -77.063727, "is_disabled": 0, "fusion_lat": 0.0, "lat": 38.935619, "bike_id": "694381b4df3a6068251fde27d95842f0", "fusion_lon": 0.0}, {"rental_uris": {"ios": "https://dc.lft.to/lastmile_qr_scan", "android": "https://dc.lft.to/lastmile_qr_scan"}, "type": "electric_scooter", "name": "439a06fe4d558bf90a0b8d77f50b66c2", "is_reserved": 0, "lon": -77.03813233333334, "is_disabled": 0, "fusion_lat": 0.0, "lat": 38.93111733333333, "bike_id": "439a06fe4d558bf90a0b8d77f50b66c2", "fusion_lon": 0.0}, {"rental_uris": {"ios": "https://dc.lft.to/lastmile_qr_scan", "android": "https://dc.lft.to/lastmile_qr_scan"}, "type": "electric_scooter", "name": "7067d0a1d6720841841b6eafba998e74", "is_reserved": 0, "lon": -77.0347255, "is_disabled": 0, "fusion_lat": 0.0, "lat": 38.90568016666667, "bike_id": "7067d0a1d6720841841b6eafba998e74", "fusion_lon": 0.0}, {"rental_uris": {"ios": "https://dc.lft.to/lastmile_qr_scan", "android": "https://dc.lft.to/lastmile_qr_scan"}, "type": "electric_scooter", "name": "5d0a05b640101b1ed3bf42d771527fb6", "is_reserved": 0, "lon": -76.97719416666666, "is_disabled": 0, "fusion_lat": 0.0, "lat": 38.8882095, "bike_id": "5d0a05b640101b1ed3bf42d771527fb6", "fusion_lon": 0.0}, {"rental_uris": {"ios": "https://dc.lft.to/lastmile_qr_scan", "android": "https://dc.lft.to/lastmile_qr_scan"}, "type": "electric_scooter", "name": "1f92c810adf99b3d0f35069badfa92d9", "is_reserved": 0, "lon": -77.0336, "is_disabled": 0, "fusion_lat": 0.0, "lat": 38.90107233333333, "bike_id": "1f92c810adf99b3d0f35069badfa92d9", "fusion_lon": 0.0}, {"rental_uris": {"ios": "https://dc.lft.to/lastmile_qr_scan", "android": "https://dc.lft.to/lastmile_qr_scan"}, "type": "electric_bike", "name": "535079d3bb15227706502d2d3f200ff0", "is_reserved": 0, "lon": -77.12648666666666, "is_disabled": 0, "fusion_lat": 0.0, "lat": 38.81903, "bike_id": "535079d3bb15227706502d2d3f200ff0", "fusion_lon": 0.0}, {"rental_uris": {"ios": "https://dc.lft.to/lastmile_qr_scan", "android": "https://dc.lft.to/lastmile_qr_scan"}, "type": "electric_scooter", "name": "5d09943d4fa6d21bbc05877bb673be35", "is_reserved": 0, "lon": -77.02384016666667, "is_disabled": 0, "fusion_lat": 0.0, "lat": 38.90421333333333, "bike_id": "5d09943d4fa6d21bbc05877bb673be35", "fusion_lon": 0.0}, {"rental_uris": {"ios": "https://dc.lft.to/lastmile_qr_scan", "android": "https://dc.lft.to/lastmile_qr_scan"}, "type": "electric_scooter", "name": "f71094bd801e7a56bfc2cc839e12e576", "is_reserved": 0, "lon": -77.02279266666666, "is_disabled": 0, "fusion_lat": 0.0, "lat": 38.916759666666664, "bike_id": "f71094bd801e7a56bfc2cc839e12e576", "fusion_lon": 0.0}, {"rental_uris": {"ios": "https://dc.lft.to/lastmile_qr_scan", "android": "https://dc.lft.to/lastmile_qr_scan"}, "type": "electric_scooter", "name": "e2dd5af9a734bab88128b7e25f379cd9", "is_reserved": 0, "lon": -77.02889716666667, "is_disabled": 0, "fusion_lat": 0.0, "lat": 38.907136333333334, "bike_id": "e2dd5af9a734bab88128b7e25f379cd9", "fusion_lon": 0.0}, {"rental_uris": {"ios": "https://dc.lft.to/lastmile_qr_scan", "android": "https://dc.lft.to/lastmile_qr_scan"}, "type": "electric_scooter", "name": "684e5243d6d74610a27c1d40b38e7d0e", "is_reserved": 0, "lon": -77.01888066666666, "is_disabled": 0, "fusion_lat": 0.0, "lat": 38.897514, "bike_id": "684e5243d6d74610a27c1d40b38e7d0e", "fusion_lon": 0.0}, {"rental_uris": {"ios": "https://dc.lft.to/lastmile_qr_scan", "android": "https://dc.lft.to/lastmile_qr_scan"}, "type": "electric_scooter", "name": "a24ab4826f8888ff2274296be7aedfc3", "is_reserved": 0, "lon": -77.02196783333333, "is_disabled": 0, "fusion_lat": 0.0, "lat": 38.911255, "bike_id": "a24ab4826f8888ff2274296be7aedfc3", "fusion_lon": 0.0}, {"rental_uris": {"ios": "https://dc.lft.to/lastmile_qr_scan", "android": "https://dc.lft.to/lastmile_qr_scan"}, "type": "electric_scooter", "name": "b97e1028edbde5a6945dc0220ed96554", "is_reserved": 0, "lon": -77.03457466666667, "is_disabled": 0, "fusion_lat": 0.0, "lat": 38.9080375, "bike_id": "b97e1028edbde5a6945dc0220ed96554", "fusion_lon": 0.0}, {"rental_uris": {"ios": "https://dc.lft.to/lastmile_qr_scan", "android": "https://dc.lft.to/lastmile_qr_scan"}, "type": "electric_bike", "name": "2b4ecbbc17f47d8c910f2be8435e9092", "is_reserved": 0, "lon": -76.949746, "is_disabled": 0, "fusion_lat": 0.0, "lat": 38.88298433333333, "bike_id": "2b4ecbbc17f47d8c910f2be8435e9092", "fusion_lon": 0.0}, {"rental_uris": {"ios": "https://dc.lft.to/lastmile_qr_scan", "android": "https://dc.lft.to/lastmile_qr_scan"}, "type": "electric_scooter", "name": "35ff6ba6bc8208f0213f6ebef2aa3c8e", "is_reserved": 0, "lon": -77.0290185, "is_disabled": 0, "fusion_lat": 0.0, "lat": 38.94043333333333, "bike_id": "35ff6ba6bc8208f0213f6ebef2aa3c8e", "fusion_lon": 0.0}, {"rental_uris": {"ios": "https://dc.lft.to/lastmile_qr_scan", "android": "https://dc.lft.to/lastmile_qr_scan"}, "type": "electric_scooter", "name": "fe5d6b39994652c126208f66fed759cc", "is_reserved": 0, "lon": -77.043746, "is_disabled": 0, "fusion_lat": 0.0, "lat": 38.9165415, "bike_id": "fe5d6b39994652c126208f66fed759cc", "fusion_lon": 0.0}, {"rental_uris": {"ios": "https://dc.lft.to/lastmile_qr_scan", "android": "https://dc.lft.to/lastmile_qr_scan"}, "type": "electric_scooter", "name": "d2cc48388f39b04de6de02ef5364e067", "is_reserved": 0, "lon": -77.09351433333333, "is_disabled": 0, "fusion_lat": 0.0, "lat": 38.88398133333333, "bike_id": "d2cc48388f39b04de6de02ef5364e067", "fusion_lon": 0.0}, {"rental_uris": {"ios": "https://dc.lft.to/lastmile_qr_scan", "android": "https://dc.lft.to/lastmile_qr_scan"}, "type": "electric_scooter", "name": "ea2341c936b668594b63feb16e959a32", "is_reserved": 0, "lon": -77.02837933333333, "is_disabled": 0, "fusion_lat": 0.0, "lat": 38.88728016666666, "bike_id": "ea2341c936b668594b63feb16e959a32", "fusion_lon": 0.0}, {"rental_uris": {"ios": "https://dc.lft.to/lastmile_qr_scan", "android": "https://dc.lft.to/lastmile_qr_scan"}, "type": "electric_bike", "name": "3af112012adf3ae434c91fb6d7d914ed", "is_reserved": 0, "lon": -77.01690966666666, "is_disabled": 0, "fusion_lat": 0.0, "lat": 38.975165833333335, "bike_id": "3af112012adf3ae434c91fb6d7d914ed", "fusion_lon": 0.0}, {"rental_uris": {"ios": "https://dc.lft.to/lastmile_qr_scan", "android": "https://dc.lft.to/lastmile_qr_scan"}, "type": "electric_scooter", "name": "a1e36a38cf0654cd731f1e92b8ac3554", "is_reserved": 0, "lon": -77.01464966666667, "is_disabled": 0, "fusion_lat": 0.0, "lat": 38.87937066666667, "bike_id": "a1e36a38cf0654cd731f1e92b8ac3554", "fusion_lon": 0.0}, {"rental_uris": {"ios": "https://dc.lft.to/lastmile_qr_scan", "android": "https://dc.lft.to/lastmile_qr_scan"}, "type": "electric_scooter", "name": "0270d4ddcaf8685d60cc86b4b22dcca3", "is_reserved": 0, "lon": -77.04345866666667, "is_disabled": 0, "fusion_lat": 0.0, "lat": 38.907394, "bike_id": "0270d4ddcaf8685d60cc86b4b22dcca3", "fusion_lon": 0.0}, {"rental_uris": {"ios": "https://dc.lft.to/lastmile_qr_scan", "android": "https://dc.lft.to/lastmile_qr_scan"}, "type": "electric_scooter", "name": "34c5b2b52598e22db90100a1ca3ec2a0", "is_reserved": 0, "lon": -77.03909766666666, "is_disabled": 0, "fusion_lat": 0.0, "lat": 38.9246875, "bike_id": "34c5b2b52598e22db90100a1ca3ec2a0", "fusion_lon": 0.0}, {"rental_uris": {"ios": "https://dc.lft.to/lastmile_qr_scan", "android": "https://dc.lft.to/lastmile_qr_scan"}, "type": "electric_scooter", "name": "9ffbd833d8fc8e99ffeeb2235f84b854", "is_reserved": 0, "lon": -77.0448815, "is_disabled": 0, "fusion_lat": 0.0, "lat": 38.914469833333335, "bike_id": "9ffbd833d8fc8e99ffeeb2235f84b854", "fusion_lon": 0.0}, {"rental_uris": {"ios": "https://dc.lft.to/lastmile_qr_scan", "android": "https://dc.lft.to/lastmile_qr_scan"}, "type": "electric_scooter", "name": "61bfbe97ad37babcae789c92771a610b", "is_reserved": 0, "lon": -77.0344, "is_disabled": 0, "fusion_lat": 0.0, "lat": 38.91807266666667, "bike_id": "61bfbe97ad37babcae789c92771a610b", "fusion_lon": 0.0}, {"rental_uris": {"ios": "https://dc.lft.to/lastmile_qr_scan", "android": "https://dc.lft.to/lastmile_qr_scan"}, "type": "electric_scooter", "name": "854813a808d7c2c1b983a98273245324", "is_reserved": 0, "lon": -77.046754, "is_disabled": 0, "fusion_lat": 0.0, "lat": 38.9002685, "bike_id": "854813a808d7c2c1b983a98273245324", "fusion_lon": 0.0}, {"rental_uris": {"ios": "https://dc.lft.to/lastmile_qr_scan", "android": "https://dc.lft.to/lastmile_qr_scan"}, "type": "electric_scooter", "name": "72da0d00e3f88d600b8153e55a3b8f1b", "is_reserved": 0, "lon": -77.03133466666667, "is_disabled": 0, "fusion_lat": 0.0, "lat": 38.923802, "bike_id": "72da0d00e3f88d600b8153e55a3b8f1b", "fusion_lon": 0.0}, {"rental_uris": {"ios": "https://dc.lft.to/lastmile_qr_scan", "android": "https://dc.lft.to/lastmile_qr_scan"}, "type": "electric_scooter", "name": "8232dc0d2cc1d997b3b6f16be7df3a30", "is_reserved": 0, "lon": -77.032735, "is_disabled": 0, "fusion_lat": 0.0, "lat": 38.93252483333333, "bike_id": "8232dc0d2cc1d997b3b6f16be7df3a30", "fusion_lon": 0.0}, {"rental_uris": {"ios": "https://dc.lft.to/lastmile_qr_scan", "android": "https://dc.lft.to/lastmile_qr_scan"}, "type": "electric_bike", "name": "698219885fb80c3523a52104e09358d6", "is_reserved": 0, "lon": -77.05271616666667, "is_disabled": 0, "fusion_lat": 0.0, "lat": 38.94090633333333, "bike_id": "698219885fb80c3523a52104e09358d6", "fusion_lon": 0.0}, {"rental_uris": {"ios": "https://dc.lft.to/lastmile_qr_scan", "android": "https://dc.lft.to/lastmile_qr_scan"}, "type": "electric_scooter", "name": "4f73d2329551dc1a91334065fc3831cc", "is_reserved": 0, "lon": -76.99478533333334, "is_disabled": 0, "fusion_lat": 0.0, "lat": 38.8621365, "bike_id": "4f73d2329551dc1a91334065fc3831cc", "fusion_lon": 0.0}, {"rental_uris": {"ios": "https://dc.lft.to/lastmile_qr_scan", "android": "https://dc.lft.to/lastmile_qr_scan"}, "type": "electric_scooter", "name": "994a5d6a4dbd0d8c035618f79264de96", "is_reserved": 0, "lon": -77.07115916666666, "is_disabled": 0, "fusion_lat": 0.0, "lat": 38.90592066666667, "bike_id": "994a5d6a4dbd0d8c035618f79264de96", "fusion_lon": 0.0}, {"rental_uris": {"ios": "https://dc.lft.to/lastmile_qr_scan", "android": "https://dc.lft.to/lastmile_qr_scan"}, "type": "electric_scooter", "name": "8639ddf16dab1dec1e83d1525420521f", "is_reserved": 0, "lon": -77.0450335, "is_disabled": 0, "fusion_lat": 0.0, "lat": 38.892244, "bike_id": "8639ddf16dab1dec1e83d1525420521f", "fusion_lon": 0.0}, {"rental_uris": {"ios": "https://dc.lft.to/lastmile_qr_scan", "android": "https://dc.lft.to/lastmile_qr_scan"}, "type": "electric_scooter", "name": "e7731067483e4e345783700e44b958cb", "is_reserved": 0, "lon": -76.99101133333333, "is_disabled": 0, "fusion_lat": 0.0, "lat": 38.857236, "bike_id": "e7731067483e4e345783700e44b958cb", "fusion_lon": 0.0}, {"rental_uris": {"ios": "https://dc.lft.to/lastmile_qr_scan", "android": "https://dc.lft.to/lastmile_qr_scan"}, "type": "electric_scooter", "name": "808d73387e8aba0ff6dbf044e7304191", "is_reserved": 0, "lon": -77.02193566666666, "is_disabled": 0, "fusion_lat": 0.0, "lat": 38.91125433333333, "bike_id": "808d73387e8aba0ff6dbf044e7304191", "fusion_lon": 0.0}, {"rental_uris": {"ios": "https://dc.lft.to/lastmile_qr_scan", "android": "https://dc.lft.to/lastmile_qr_scan"}, "type": "electric_scooter", "name": "c6b1312b9b57bada7f024884eb4083e0", "is_reserved": 0, "lon": -77.04350666666667, "is_disabled": 0, "fusion_lat": 0.0, "lat": 38.92167933333333, "bike_id": "c6b1312b9b57bada7f024884eb4083e0", "fusion_lon": 0.0}, {"rental_uris": {"ios": "https://dc.lft.to/lastmile_qr_scan", "android": "https://dc.lft.to/lastmile_qr_scan"}, "type": "electric_scooter", "name": "76930ed3824d8ae597f2b4e899f6150b", "is_reserved": 0, "lon": -77.04954883333333, "is_disabled": 0, "fusion_lat": 0.0, "lat": 38.900769333333336, "bike_id": "76930ed3824d8ae597f2b4e899f6150b", "fusion_lon": 0.0}, {"rental_uris": {"ios": "https://dc.lft.to/lastmile_qr_scan", "android": "https://dc.lft.to/lastmile_qr_scan"}, "type": "electric_scooter", "name": "e26d196c024f83ae821968c4456df615", "is_reserved": 0, "lon": -77.04332333333333, "is_disabled": 0, "fusion_lat": 0.0, "lat": 38.90876433333333, "bike_id": "e26d196c024f83ae821968c4456df615", "fusion_lon": 0.0}, {"rental_uris": {"ios": "https://dc.lft.to/lastmile_qr_scan", "android": "https://dc.lft.to/lastmile_qr_scan"}, "type": "electric_scooter", "name": "1bc1feb576cffbd84e5b50ac2f362a36", "is_reserved": 0, "lon": -77.03334616666666, "is_disabled": 0, "fusion_lat": 0.0, "lat": 38.914149, "bike_id": "1bc1feb576cffbd84e5b50ac2f362a36", "fusion_lon": 0.0}, {"rental_uris": {"ios": "https://dc.lft.to/lastmile_qr_scan", "android": "https://dc.lft.to/lastmile_qr_scan"}, "type": "electric_scooter", "name": "6dc4c1acb680dfeb4d031bf47cbdd8c4", "is_reserved": 0, "lon": -77.013271, "is_disabled": 0, "fusion_lat": 0.0, "lat": 38.920291666666664, "bike_id": "6dc4c1acb680dfeb4d031bf47cbdd8c4", "fusion_lon": 0.0}, {"rental_uris": {"ios": "https://dc.lft.to/lastmile_qr_scan", "android": "https://dc.lft.to/lastmile_qr_scan"}, "type": "electric_scooter", "name": "ec8f847f15737b148ea835aafb360506", "is_reserved": 0, "lon": -77.044803, "is_disabled": 0, "fusion_lat": 0.0, "lat": 38.892158333333334, "bike_id": "ec8f847f15737b148ea835aafb360506", "fusion_lon": 0.0}, {"rental_uris": {"ios": "https://dc.lft.to/lastmile_qr_scan", "android": "https://dc.lft.to/lastmile_qr_scan"}, "type": "electric_scooter", "name": "b7414f87568e1506c5efc70596eff689", "is_reserved": 0, "lon": -77.03145083333334, "is_disabled": 0, "fusion_lat": 0.0, "lat": 38.91270466666667, "bike_id": "b7414f87568e1506c5efc70596eff689", "fusion_lon": 0.0}, {"rental_uris": {"ios": "https://dc.lft.to/lastmile_qr_scan", "android": "https://dc.lft.to/lastmile_qr_scan"}, "type": "electric_scooter", "name": "3acf9488d833c0400c69b663ddcd7b0e", "is_reserved": 0, "lon": -77.05956833333333, "is_disabled": 0, "fusion_lat": 0.0, "lat": 38.902451166666665, "bike_id": "3acf9488d833c0400c69b663ddcd7b0e", "fusion_lon": 0.0}, {"rental_uris": {"ios": "https://dc.lft.to/lastmile_qr_scan", "android": "https://dc.lft.to/lastmile_qr_scan"}, "type": "electric_scooter", "name": "e8fa0f4df15eb27669e6630080143600", "is_reserved": 0, "lon": -77.04461666666667, "is_disabled": 0, "fusion_lat": 0.0, "lat": 38.915283333333335, "bike_id": "e8fa0f4df15eb27669e6630080143600", "fusion_lon": 0.0}, {"rental_uris": {"ios": "https://dc.lft.to/lastmile_qr_scan", "android": "https://dc.lft.to/lastmile_qr_scan"}, "type": "electric_scooter", "name": "69c2c0e3fae35ebb07ed8ca3fcb18efa", "is_reserved": 0, "lon": -77.017058, "is_disabled": 0, "fusion_lat": 0.0, "lat": 38.904711166666665, "bike_id": "69c2c0e3fae35ebb07ed8ca3fcb18efa", "fusion_lon": 0.0}, {"rental_uris": {"ios": "https://dc.lft.to/lastmile_qr_scan", "android": "https://dc.lft.to/lastmile_qr_scan"}, "type": "electric_scooter", "name": "495680959529530b86244d380bf7dfeb", "is_reserved": 0, "lon": -77.0244525, "is_disabled": 0, "fusion_lat": 0.0, "lat": 38.920525833333336, "bike_id": "495680959529530b86244d380bf7dfeb", "fusion_lon": 0.0}, {"rental_uris": {"ios": "https://dc.lft.to/lastmile_qr_scan", "android": "https://dc.lft.to/lastmile_qr_scan"}, "type": "electric_scooter", "name": "68f0589dafd052ebedd554bbbcd54c3c", "is_reserved": 0, "lon": -77.05317883333333, "is_disabled": 0, "fusion_lat": 0.0, "lat": 38.923517833333335, "bike_id": "68f0589dafd052ebedd554bbbcd54c3c", "fusion_lon": 0.0}, {"rental_uris": {"ios": "https://dc.lft.to/lastmile_qr_scan", "android": "https://dc.lft.to/lastmile_qr_scan"}, "type": "electric_scooter", "name": "70fdf02b78c80ca192e599e73e9b3fa7", "is_reserved": 0, "lon": -77.01096583333333, "is_disabled": 0, "fusion_lat": 0.0, "lat": 38.90679983333333, "bike_id": "70fdf02b78c80ca192e599e73e9b3fa7", "fusion_lon": 0.0}, {"rental_uris": {"ios": "https://dc.lft.to/lastmile_qr_scan", "android": "https://dc.lft.to/lastmile_qr_scan"}, "type": "electric_scooter", "name": "66e31334f3f4dc68d1f57025015f3d4a", "is_reserved": 0, "lon": -77.02541683333334, "is_disabled": 0, "fusion_lat": 0.0, "lat": 38.907268333333334, "bike_id": "66e31334f3f4dc68d1f57025015f3d4a", "fusion_lon": 0.0}, {"rental_uris": {"ios": "https://dc.lft.to/lastmile_qr_scan", "android": "https://dc.lft.to/lastmile_qr_scan"}, "type": "electric_bike", "name": "1e89562d430589ca3ee873ce376b8e89", "is_reserved": 0, "lon": -76.97309583333333, "is_disabled": 0, "fusion_lat": 0.0, "lat": 38.85779333333333, "bike_id": "1e89562d430589ca3ee873ce376b8e89", "fusion_lon": 0.0}, {"rental_uris": {"ios": "https://dc.lft.to/lastmile_qr_scan", "android": "https://dc.lft.to/lastmile_qr_scan"}, "type": "electric_scooter", "name": "3adc92878edbcef8652c17ce212c6f7e", "is_reserved": 0, "lon": -77.02592866666667, "is_disabled": 0, "fusion_lat": 0.0, "lat": 38.95819566666667, "bike_id": "3adc92878edbcef8652c17ce212c6f7e", "fusion_lon": 0.0}, {"rental_uris": {"ios": "https://dc.lft.to/lastmile_qr_scan", "android": "https://dc.lft.to/lastmile_qr_scan"}, "type": "electric_bike", "name": "0ec23c61bf49932a5f5f88c0ea3edc4f", "is_reserved": 0, "lon": -77.10209983333333, "is_disabled": 0, "fusion_lat": 0.0, "lat": 38.9199855, "bike_id": "0ec23c61bf49932a5f5f88c0ea3edc4f", "fusion_lon": 0.0}, {"rental_uris": {"ios": "https://dc.lft.to/lastmile_qr_scan", "android": "https://dc.lft.to/lastmile_qr_scan"}, "type": "electric_bike", "name": "b87bf564abe065aca7ecdad1497237ba", "is_reserved": 0, "lon": -77.036251, "is_disabled": 0, "fusion_lat": 0.0, "lat": 38.97296866666667, "bike_id": "b87bf564abe065aca7ecdad1497237ba", "fusion_lon": 0.0}, {"rental_uris": {"ios": "https://dc.lft.to/lastmile_qr_scan", "android": "https://dc.lft.to/lastmile_qr_scan"}, "type": "electric_bike", "name": "356c6439b5e1f00f33a7609d39a45edf", "is_reserved": 0, "lon": -77.03740683333334, "is_disabled": 0, "fusion_lat": 0.0, "lat": 38.920276333333334, "bike_id": "356c6439b5e1f00f33a7609d39a45edf", "fusion_lon": 0.0}, {"rental_uris": {"ios": "https://dc.lft.to/lastmile_qr_scan", "android": "https://dc.lft.to/lastmile_qr_scan"}, "type": "electric_bike", "name": "456f858d365357f3e607a79831bd6970", "is_reserved": 0, "lon": -76.98685516666667, "is_disabled": 0, "fusion_lat": 0.0, "lat": 38.94469866666667, "bike_id": "456f858d365357f3e607a79831bd6970", "fusion_lon": 0.0}, {"rental_uris": {"ios": "https://dc.lft.to/lastmile_qr_scan", "android": "https://dc.lft.to/lastmile_qr_scan"}, "type": "electric_scooter", "name": "ada40786ad8f3f316393d62580bce983", "is_reserved": 0, "lon": -77.03169416666667, "is_disabled": 0, "fusion_lat": 0.0, "lat": 38.913323, "bike_id": "ada40786ad8f3f316393d62580bce983", "fusion_lon": 0.0}, {"rental_uris": {"ios": "https://dc.lft.to/lastmile_qr_scan", "android": "https://dc.lft.to/lastmile_qr_scan"}, "type": "electric_scooter", "name": "54fbec844496c0083785910dcee0d27f", "is_reserved": 0, "lon": -77.04317033333334, "is_disabled": 0, "fusion_lat": 0.0, "lat": 38.90740616666667, "bike_id": "54fbec844496c0083785910dcee0d27f", "fusion_lon": 0.0}, {"rental_uris": {"ios": "https://dc.lft.to/lastmile_qr_scan", "android": "https://dc.lft.to/lastmile_qr_scan"}, "type": "electric_scooter", "name": "51088311077914448febb42914dbf007", "is_reserved": 0, "lon": -77.0175835, "is_disabled": 0, "fusion_lat": 0.0, "lat": 38.876864, "bike_id": "51088311077914448febb42914dbf007", "fusion_lon": 0.0}, {"rental_uris": {"ios": "https://dc.lft.to/lastmile_qr_scan", "android": "https://dc.lft.to/lastmile_qr_scan"}, "type": "electric_scooter", "name": "7dbe1206fb29074d682ce396e9f4fec6", "is_reserved": 0, "lon": -77.022293, "is_disabled": 0, "fusion_lat": 0.0, "lat": 38.892194, "bike_id": "7dbe1206fb29074d682ce396e9f4fec6", "fusion_lon": 0.0}, {"rental_uris": {"ios": "https://dc.lft.to/lastmile_qr_scan", "android": "https://dc.lft.to/lastmile_qr_scan"}, "type": "electric_scooter", "name": "92313a11e0b04510aa10e4d4ad09b1fb", "is_reserved": 0, "lon": -77.0448725, "is_disabled": 0, "fusion_lat": 0.0, "lat": 38.90364816666667, "bike_id": "92313a11e0b04510aa10e4d4ad09b1fb", "fusion_lon": 0.0}, {"rental_uris": {"ios": "https://dc.lft.to/lastmile_qr_scan", "android": "https://dc.lft.to/lastmile_qr_scan"}, "type": "electric_bike", "name": "571b50b221e650f29ec7a55747288880", "is_reserved": 0, "lon": -76.96263166666667, "is_disabled": 0, "fusion_lat": 0.0, "lat": 38.967875666666664, "bike_id": "571b50b221e650f29ec7a55747288880", "fusion_lon": 0.0}, {"rental_uris": {"ios": "https://dc.lft.to/lastmile_qr_scan", "android": "https://dc.lft.to/lastmile_qr_scan"}, "type": "electric_scooter", "name": "67c46ccf9343004ee31a5423cde1381a", "is_reserved": 0, "lon": -76.988416, "is_disabled": 0, "fusion_lat": 0.0, "lat": 38.842954166666665, "bike_id": "67c46ccf9343004ee31a5423cde1381a", "fusion_lon": 0.0}, {"rental_uris": {"ios": "https://dc.lft.to/lastmile_qr_scan", "android": "https://dc.lft.to/lastmile_qr_scan"}, "type": "electric_scooter", "name": "89e1e18e0d6cbb763f157a4564ed68db", "is_reserved": 0, "lon": -76.99622116666667, "is_disabled": 0, "fusion_lat": 0.0, "lat": 38.8896735, "bike_id": "89e1e18e0d6cbb763f157a4564ed68db", "fusion_lon": 0.0}, {"rental_uris": {"ios": "https://dc.lft.to/lastmile_qr_scan", "android": "https://dc.lft.to/lastmile_qr_scan"}, "type": "electric_scooter", "name": "43603879fb134c7db76ae8cc224d37d3", "is_reserved": 0, "lon": -77.032028, "is_disabled": 0, "fusion_lat": 0.0, "lat": 38.9072505, "bike_id": "43603879fb134c7db76ae8cc224d37d3", "fusion_lon": 0.0}, {"rental_uris": {"ios": "https://dc.lft.to/lastmile_qr_scan", "android": "https://dc.lft.to/lastmile_qr_scan"}, "type": "electric_scooter", "name": "661427540e9c56e11191503bbf92fc37", "is_reserved": 0, "lon": -77.04509816666666, "is_disabled": 0, "fusion_lat": 0.0, "lat": 38.90795466666667, "bike_id": "661427540e9c56e11191503bbf92fc37", "fusion_lon": 0.0}, {"rental_uris": {"ios": "https://dc.lft.to/lastmile_qr_scan", "android": "https://dc.lft.to/lastmile_qr_scan"}, "type": "electric_scooter", "name": "2d2ffdfb6b113bd0f30b00089682a130", "is_reserved": 0, "lon": -77.01750566666666, "is_disabled": 0, "fusion_lat": 0.0, "lat": 38.87688133333333, "bike_id": "2d2ffdfb6b113bd0f30b00089682a130", "fusion_lon": 0.0}, {"rental_uris": {"ios": "https://dc.lft.to/lastmile_qr_scan", "android": "https://dc.lft.to/lastmile_qr_scan"}, "type": "electric_scooter", "name": "a47aa0093d1415bebfff023c7508bff0", "is_reserved": 0, "lon": -77.00103683333333, "is_disabled": 0, "fusion_lat": 0.0, "lat": 38.908517, "bike_id": "a47aa0093d1415bebfff023c7508bff0", "fusion_lon": 0.0}, {"rental_uris": {"ios": "https://dc.lft.to/lastmile_qr_scan", "android": "https://dc.lft.to/lastmile_qr_scan"}, "type": "electric_scooter", "name": "98f7b7f7b0fc2e84adf8ca937d65f1b8", "is_reserved": 0, "lon": -76.9737845, "is_disabled": 0, "fusion_lat": 0.0, "lat": 38.8499675, "bike_id": "98f7b7f7b0fc2e84adf8ca937d65f1b8", "fusion_lon": 0.0}, {"rental_uris": {"ios": "https://dc.lft.to/lastmile_qr_scan", "android": "https://dc.lft.to/lastmile_qr_scan"}, "type": "electric_bike", "name": "a8b2284d63a77f60d7057f6f4ce5fac6", "is_reserved": 0, "lon": -77.11357066666666, "is_disabled": 0, "fusion_lat": 0.0, "lat": 38.8420355, "bike_id": "a8b2284d63a77f60d7057f6f4ce5fac6", "fusion_lon": 0.0}, {"rental_uris": {"ios": "https://dc.lft.to/lastmile_qr_scan", "android": "https://dc.lft.to/lastmile_qr_scan"}, "type": "electric_scooter", "name": "d495805ec263f351b118d5635fd153b0", "is_reserved": 0, "lon": -77.00517516666666, "is_disabled": 0, "fusion_lat": 0.0, "lat": 38.87923116666666, "bike_id": "d495805ec263f351b118d5635fd153b0", "fusion_lon": 0.0}, {"rental_uris": {"ios": "https://dc.lft.to/lastmile_qr_scan", "android": "https://dc.lft.to/lastmile_qr_scan"}, "type": "electric_scooter", "name": "aaa5c0408adbf1d942f2c38ccbb42b9c", "is_reserved": 0, "lon": -77.01015133333334, "is_disabled": 0, "fusion_lat": 0.0, "lat": 38.906412833333334, "bike_id": "aaa5c0408adbf1d942f2c38ccbb42b9c", "fusion_lon": 0.0}, {"rental_uris": {"ios": "https://dc.lft.to/lastmile_qr_scan", "android": "https://dc.lft.to/lastmile_qr_scan"}, "type": "electric_scooter", "name": "13c2ea55c9e99f0ef3c83ef47158ffd9", "is_reserved": 0, "lon": -77.03280166666667, "is_disabled": 0, "fusion_lat": 0.0, "lat": 38.93257783333333, "bike_id": "13c2ea55c9e99f0ef3c83ef47158ffd9", "fusion_lon": 0.0}, {"rental_uris": {"ios": "https://dc.lft.to/lastmile_qr_scan", "android": "https://dc.lft.to/lastmile_qr_scan"}, "type": "electric_scooter", "name": "cb7c8b1fc949f458f572db11b1a02827", "is_reserved": 0, "lon": -77.07454833333334, "is_disabled": 0, "fusion_lat": 0.0, "lat": 38.937793, "bike_id": "cb7c8b1fc949f458f572db11b1a02827", "fusion_lon": 0.0}, {"rental_uris": {"ios": "https://dc.lft.to/lastmile_qr_scan", "android": "https://dc.lft.to/lastmile_qr_scan"}, "type": "electric_scooter", "name": "95fea1d492c5fbcd495e1147427487cd", "is_reserved": 0, "lon": -77.0177865, "is_disabled": 0, "fusion_lat": 0.0, "lat": 38.900383833333336, "bike_id": "95fea1d492c5fbcd495e1147427487cd", "fusion_lon": 0.0}, {"rental_uris": {"ios": "https://dc.lft.to/lastmile_qr_scan", "android": "https://dc.lft.to/lastmile_qr_scan"}, "type": "electric_scooter", "name": "981db0ee96b82f21195f6b24223ac1cf", "is_reserved": 0, "lon": -76.9967585, "is_disabled": 0, "fusion_lat": 0.0, "lat": 38.884647333333334, "bike_id": "981db0ee96b82f21195f6b24223ac1cf", "fusion_lon": 0.0}, {"rental_uris": {"ios": "https://dc.lft.to/lastmile_qr_scan", "android": "https://dc.lft.to/lastmile_qr_scan"}, "type": "electric_scooter", "name": "52ca9c423d936d5fce589b7f82878495", "is_reserved": 0, "lon": -76.9811345, "is_disabled": 0, "fusion_lat": 0.0, "lat": 38.902479666666665, "bike_id": "52ca9c423d936d5fce589b7f82878495", "fusion_lon": 0.0}, {"rental_uris": {"ios": "https://dc.lft.to/lastmile_qr_scan", "android": "https://dc.lft.to/lastmile_qr_scan"}, "type": "electric_scooter", "name": "662427ecc848a7c3433e0d8e267a76c0", "is_reserved": 0, "lon": -76.993473, "is_disabled": 0, "fusion_lat": 0.0, "lat": 38.8769035, "bike_id": "662427ecc848a7c3433e0d8e267a76c0", "fusion_lon": 0.0}, {"rental_uris": {"ios": "https://dc.lft.to/lastmile_qr_scan", "android": "https://dc.lft.to/lastmile_qr_scan"}, "type": "electric_scooter", "name": "11accae3bce1a27ca863f4b3ba1eec97", "is_reserved": 0, "lon": -77.03658283333333, "is_disabled": 0, "fusion_lat": 0.0, "lat": 38.922889166666664, "bike_id": "11accae3bce1a27ca863f4b3ba1eec97", "fusion_lon": 0.0}, {"rental_uris": {"ios": "https://dc.lft.to/lastmile_qr_scan", "android": "https://dc.lft.to/lastmile_qr_scan"}, "type": "electric_scooter", "name": "3ef9d31fee1b10a4f76e3c63df4f2926", "is_reserved": 0, "lon": -77.002113, "is_disabled": 0, "fusion_lat": 0.0, "lat": 38.9145735, "bike_id": "3ef9d31fee1b10a4f76e3c63df4f2926", "fusion_lon": 0.0}, {"rental_uris": {"ios": "https://dc.lft.to/lastmile_qr_scan", "android": "https://dc.lft.to/lastmile_qr_scan"}, "type": "electric_bike", "name": "b4b0b6ac5c56dbc9549935791248eafb", "is_reserved": 0, "lon": -77.043179, "is_disabled": 0, "fusion_lat": 0.0, "lat": 39.034216, "bike_id": "b4b0b6ac5c56dbc9549935791248eafb", "fusion_lon": 0.0}, {"rental_uris": {"ios": "https://dc.lft.to/lastmile_qr_scan", "android": "https://dc.lft.to/lastmile_qr_scan"}, "type": "electric_scooter", "name": "eb21be59ad4a80bf95025cb826df56f5", "is_reserved": 0, "lon": -77.01146483333333, "is_disabled": 0, "fusion_lat": 0.0, "lat": 38.9095815, "bike_id": "eb21be59ad4a80bf95025cb826df56f5", "fusion_lon": 0.0}, {"rental_uris": {"ios": "https://dc.lft.to/lastmile_qr_scan", "android": "https://dc.lft.to/lastmile_qr_scan"}, "type": "electric_scooter", "name": "42dca9babc50a4361c3ecd88d444e16e", "is_reserved": 0, "lon": -77.039737, "is_disabled": 0, "fusion_lat": 0.0, "lat": 38.93148766666667, "bike_id": "42dca9babc50a4361c3ecd88d444e16e", "fusion_lon": 0.0}, {"rental_uris": {"ios": "https://dc.lft.to/lastmile_qr_scan", "android": "https://dc.lft.to/lastmile_qr_scan"}, "type": "electric_scooter", "name": "5a2b9035a3ef0a7fbf051a4dbb8d208f", "is_reserved": 0, "lon": -76.99589183333333, "is_disabled": 0, "fusion_lat": 0.0, "lat": 38.909444, "bike_id": "5a2b9035a3ef0a7fbf051a4dbb8d208f", "fusion_lon": 0.0}, {"rental_uris": {"ios": "https://dc.lft.to/lastmile_qr_scan", "android": "https://dc.lft.to/lastmile_qr_scan"}, "type": "electric_scooter", "name": "758990a4532b789b729fcbf8630ff0c1", "is_reserved": 0, "lon": -77.023818, "is_disabled": 0, "fusion_lat": 0.0, "lat": 38.90847566666667, "bike_id": "758990a4532b789b729fcbf8630ff0c1", "fusion_lon": 0.0}, {"rental_uris": {"ios": "https://dc.lft.to/lastmile_qr_scan", "android": "https://dc.lft.to/lastmile_qr_scan"}, "type": "electric_scooter", "name": "1e8613abd8bd638ceacd6c2868953bc7", "is_reserved": 0, "lon": -77.04902483333333, "is_disabled": 0, "fusion_lat": 0.0, "lat": 38.900879833333335, "bike_id": "1e8613abd8bd638ceacd6c2868953bc7", "fusion_lon": 0.0}, {"rental_uris": {"ios": "https://dc.lft.to/lastmile_qr_scan", "android": "https://dc.lft.to/lastmile_qr_scan"}, "type": "electric_bike", "name": "3755d37f66ed129f622b4254954e2fe4", "is_reserved": 0, "lon": -77.06952133333333, "is_disabled": 0, "fusion_lat": 0.0, "lat": 38.83626733333333, "bike_id": "3755d37f66ed129f622b4254954e2fe4", "fusion_lon": 0.0}, {"rental_uris": {"ios": "https://dc.lft.to/lastmile_qr_scan", "android": "https://dc.lft.to/lastmile_qr_scan"}, "type": "electric_bike", "name": "ed2b1f4ddcb0edc1f7d30292dbc33695", "is_reserved": 0, "lon": -76.993522, "is_disabled": 0, "fusion_lat": 0.0, "lat": 38.845062, "bike_id": "ed2b1f4ddcb0edc1f7d30292dbc33695", "fusion_lon": 0.0}, {"rental_uris": {"ios": "https://dc.lft.to/lastmile_qr_scan", "android": "https://dc.lft.to/lastmile_qr_scan"}, "type": "electric_scooter", "name": "7b4334b1364c2af3ac6c6ff201fa17a3", "is_reserved": 0, "lon": -77.06854583333333, "is_disabled": 0, "fusion_lat": 0.0, "lat": 38.904103666666664, "bike_id": "7b4334b1364c2af3ac6c6ff201fa17a3", "fusion_lon": 0.0}, {"rental_uris": {"ios": "https://dc.lft.to/lastmile_qr_scan", "android": "https://dc.lft.to/lastmile_qr_scan"}, "type": "electric_scooter", "name": "12b01e7fc120b487a192c529f32954d9", "is_reserved": 0, "lon": -77.06090066666667, "is_disabled": 0, "fusion_lat": 0.0, "lat": 38.9399235, "bike_id": "12b01e7fc120b487a192c529f32954d9", "fusion_lon": 0.0}, {"rental_uris": {"ios": "https://dc.lft.to/lastmile_qr_scan", "android": "https://dc.lft.to/lastmile_qr_scan"}, "type": "electric_scooter", "name": "ed937faec72f0d9ab7d87ac212336ec7", "is_reserved": 0, "lon": -76.97328416666667, "is_disabled": 0, "fusion_lat": 0.0, "lat": 38.9041165, "bike_id": "ed937faec72f0d9ab7d87ac212336ec7", "fusion_lon": 0.0}, {"rental_uris": {"ios": "https://dc.lft.to/lastmile_qr_scan", "android": "https://dc.lft.to/lastmile_qr_scan"}, "type": "electric_scooter", "name": "9b08d487a7017f1b0f8c4748aabb4b21", "is_reserved": 0, "lon": -77.015239, "is_disabled": 0, "fusion_lat": 0.0, "lat": 38.884913, "bike_id": "9b08d487a7017f1b0f8c4748aabb4b21", "fusion_lon": 0.0}, {"rental_uris": {"ios": "https://dc.lft.to/lastmile_qr_scan", "android": "https://dc.lft.to/lastmile_qr_scan"}, "type": "electric_scooter", "name": "43269929824769217209fa9e80c1df53", "is_reserved": 0, "lon": -77.04821916666667, "is_disabled": 0, "fusion_lat": 0.0, "lat": 38.914897, "bike_id": "43269929824769217209fa9e80c1df53", "fusion_lon": 0.0}, {"rental_uris": {"ios": "https://dc.lft.to/lastmile_qr_scan", "android": "https://dc.lft.to/lastmile_qr_scan"}, "type": "electric_scooter", "name": "d04431062110671be5671460d5ec18b9", "is_reserved": 0, "lon": -77.00305216666666, "is_disabled": 0, "fusion_lat": 0.0, "lat": 38.87698616666667, "bike_id": "d04431062110671be5671460d5ec18b9", "fusion_lon": 0.0}, {"rental_uris": {"ios": "https://dc.lft.to/lastmile_qr_scan", "android": "https://dc.lft.to/lastmile_qr_scan"}, "type": "electric_scooter", "name": "2b7c55b5e4d37fe4121948ea99e6ad40", "is_reserved": 0, "lon": -77.0612865, "is_disabled": 0, "fusion_lat": 0.0, "lat": 38.903746166666664, "bike_id": "2b7c55b5e4d37fe4121948ea99e6ad40", "fusion_lon": 0.0}, {"rental_uris": {"ios": "https://dc.lft.to/lastmile_qr_scan", "android": "https://dc.lft.to/lastmile_qr_scan"}, "type": "electric_scooter", "name": "af2e2cd580744b199faa57282586dd93", "is_reserved": 0, "lon": -77.01235216666667, "is_disabled": 0, "fusion_lat": 0.0, "lat": 38.881017166666666, "bike_id": "af2e2cd580744b199faa57282586dd93", "fusion_lon": 0.0}, {"rental_uris": {"ios": "https://dc.lft.to/lastmile_qr_scan", "android": "https://dc.lft.to/lastmile_qr_scan"}, "type": "electric_scooter", "name": "ab75ae75f137a33e5f513412499abc9d", "is_reserved": 0, "lon": -76.93727683333333, "is_disabled": 0, "fusion_lat": 0.0, "lat": 38.890265166666666, "bike_id": "ab75ae75f137a33e5f513412499abc9d", "fusion_lon": 0.0}, {"rental_uris": {"ios": "https://dc.lft.to/lastmile_qr_scan", "android": "https://dc.lft.to/lastmile_qr_scan"}, "type": "electric_scooter", "name": "c024634ca7d6623157d88b1d19fba2eb", "is_reserved": 0, "lon": -77.0025125, "is_disabled": 0, "fusion_lat": 0.0, "lat": 38.90257366666667, "bike_id": "c024634ca7d6623157d88b1d19fba2eb", "fusion_lon": 0.0}, {"rental_uris": {"ios": "https://dc.lft.to/lastmile_qr_scan", "android": "https://dc.lft.to/lastmile_qr_scan"}, "type": "electric_scooter", "name": "21b0debcc87faa8c10cad5bbd609d9f4", "is_reserved": 0, "lon": -77.02090166666666, "is_disabled": 0, "fusion_lat": 0.0, "lat": 38.929151166666664, "bike_id": "21b0debcc87faa8c10cad5bbd609d9f4", "fusion_lon": 0.0}, {"rental_uris": {"ios": "https://dc.lft.to/lastmile_qr_scan", "android": "https://dc.lft.to/lastmile_qr_scan"}, "type": "electric_scooter", "name": "c82b1a9807a0e54fd94f60ad7a8e689a", "is_reserved": 0, "lon": -77.04046616666666, "is_disabled": 0, "fusion_lat": 0.0, "lat": 38.91786916666667, "bike_id": "c82b1a9807a0e54fd94f60ad7a8e689a", "fusion_lon": 0.0}, {"rental_uris": {"ios": "https://dc.lft.to/lastmile_qr_scan", "android": "https://dc.lft.to/lastmile_qr_scan"}, "type": "electric_scooter", "name": "c11e8adafeb6d8b26bd0c23ce2840614", "is_reserved": 0, "lon": -77.02725033333333, "is_disabled": 0, "fusion_lat": 0.0, "lat": 38.91062483333333, "bike_id": "c11e8adafeb6d8b26bd0c23ce2840614", "fusion_lon": 0.0}, {"rental_uris": {"ios": "https://dc.lft.to/lastmile_qr_scan", "android": "https://dc.lft.to/lastmile_qr_scan"}, "type": "electric_scooter", "name": "ffcc57e19e5359b279a209abb3e2dd3e", "is_reserved": 0, "lon": -77.002934, "is_disabled": 0, "fusion_lat": 0.0, "lat": 38.876738, "bike_id": "ffcc57e19e5359b279a209abb3e2dd3e", "fusion_lon": 0.0}, {"rental_uris": {"ios": "https://dc.lft.to/lastmile_qr_scan", "android": "https://dc.lft.to/lastmile_qr_scan"}, "type": "electric_scooter", "name": "03dcb7593dd411c2882b6f48ae7505f2", "is_reserved": 0, "lon": -77.01571083333333, "is_disabled": 0, "fusion_lat": 0.0, "lat": 38.87663, "bike_id": "03dcb7593dd411c2882b6f48ae7505f2", "fusion_lon": 0.0}, {"rental_uris": {"ios": "https://dc.lft.to/lastmile_qr_scan", "android": "https://dc.lft.to/lastmile_qr_scan"}, "type": "electric_scooter", "name": "feb4d7f3ceec58ceb22c36bb91f6e5b7", "is_reserved": 0, "lon": -77.02603266666667, "is_disabled": 0, "fusion_lat": 0.0, "lat": 38.9461065, "bike_id": "feb4d7f3ceec58ceb22c36bb91f6e5b7", "fusion_lon": 0.0}, {"rental_uris": {"ios": "https://dc.lft.to/lastmile_qr_scan", "android": "https://dc.lft.to/lastmile_qr_scan"}, "type": "electric_bike", "name": "7c011b1102105b7fcf49a25d86d0f5d3", "is_reserved": 0, "lon": -77.21661416666667, "is_disabled": 0, "fusion_lat": 0.0, "lat": 38.895051333333335, "bike_id": "7c011b1102105b7fcf49a25d86d0f5d3", "fusion_lon": 0.0}, {"rental_uris": {"ios": "https://dc.lft.to/lastmile_qr_scan", "android": "https://dc.lft.to/lastmile_qr_scan"}, "type": "electric_scooter", "name": "7ed7fd92eb6ad69e683e0fa1ea45968a", "is_reserved": 0, "lon": -77.01509316666667, "is_disabled": 0, "fusion_lat": 0.0, "lat": 38.909728666666666, "bike_id": "7ed7fd92eb6ad69e683e0fa1ea45968a", "fusion_lon": 0.0}, {"rental_uris": {"ios": "https://dc.lft.to/lastmile_qr_scan", "android": "https://dc.lft.to/lastmile_qr_scan"}, "type": "electric_bike", "name": "6a05b48aeff6ab2141fde4f9a3dd4952", "is_reserved": 0, "lon": -77.0972515, "is_disabled": 0, "fusion_lat": 0.0, "lat": 38.80738483333333, "bike_id": "6a05b48aeff6ab2141fde4f9a3dd4952", "fusion_lon": 0.0}, {"rental_uris": {"ios": "https://dc.lft.to/lastmile_qr_scan", "android": "https://dc.lft.to/lastmile_qr_scan"}, "type": "electric_scooter", "name": "4f92aba50afe9e6ac3c9832784af337f", "is_reserved": 0, "lon": -77.04121283333333, "is_disabled": 0, "fusion_lat": 0.0, "lat": 38.93387633333333, "bike_id": "4f92aba50afe9e6ac3c9832784af337f", "fusion_lon": 0.0}, {"rental_uris": {"ios": "https://dc.lft.to/lastmile_qr_scan", "android": "https://dc.lft.to/lastmile_qr_scan"}, "type": "electric_scooter", "name": "4e2c2459169db483eea1d95bd4c467e6", "is_reserved": 0, "lon": -77.01522033333333, "is_disabled": 0, "fusion_lat": 0.0, "lat": 38.90255166666667, "bike_id": "4e2c2459169db483eea1d95bd4c467e6", "fusion_lon": 0.0}, {"rental_uris": {"ios": "https://dc.lft.to/lastmile_qr_scan", "android": "https://dc.lft.to/lastmile_qr_scan"}, "type": "electric_bike", "name": "c4a034fd5307199a5da43f502327a599", "is_reserved": 0, "lon": -77.0652895, "is_disabled": 0, "fusion_lat": 0.0, "lat": 38.99240266666666, "bike_id": "c4a034fd5307199a5da43f502327a599", "fusion_lon": 0.0}, {"rental_uris": {"ios": "https://dc.lft.to/lastmile_qr_scan", "android": "https://dc.lft.to/lastmile_qr_scan"}, "type": "electric_scooter", "name": "e699dab9fd1ea9ebf147331b56096746", "is_reserved": 0, "lon": -77.05514566666666, "is_disabled": 0, "fusion_lat": 0.0, "lat": 38.928399166666665, "bike_id": "e699dab9fd1ea9ebf147331b56096746", "fusion_lon": 0.0}, {"rental_uris": {"ios": "https://dc.lft.to/lastmile_qr_scan", "android": "https://dc.lft.to/lastmile_qr_scan"}, "type": "electric_bike", "name": "8dab7b4ad4f93c769ad5c5c8c51ab6fd", "is_reserved": 0, "lon": -77.06935283333334, "is_disabled": 0, "fusion_lat": 0.0, "lat": 38.95563466666667, "bike_id": "8dab7b4ad4f93c769ad5c5c8c51ab6fd", "fusion_lon": 0.0}, {"rental_uris": {"ios": "https://dc.lft.to/lastmile_qr_scan", "android": "https://dc.lft.to/lastmile_qr_scan"}, "type": "electric_scooter", "name": "a667e324c81f5f4bb10514064c71e284", "is_reserved": 0, "lon": -77.00194416666666, "is_disabled": 0, "fusion_lat": 0.0, "lat": 38.91189966666666, "bike_id": "a667e324c81f5f4bb10514064c71e284", "fusion_lon": 0.0}, {"rental_uris": {"ios": "https://dc.lft.to/lastmile_qr_scan", "android": "https://dc.lft.to/lastmile_qr_scan"}, "type": "electric_scooter", "name": "dc176572f6ea09e8fa4a3394328ebe48", "is_reserved": 0, "lon": -77.04565883333333, "is_disabled": 0, "fusion_lat": 0.0, "lat": 38.909463833333334, "bike_id": "dc176572f6ea09e8fa4a3394328ebe48", "fusion_lon": 0.0}, {"rental_uris": {"ios": "https://dc.lft.to/lastmile_qr_scan", "android": "https://dc.lft.to/lastmile_qr_scan"}, "type": "electric_scooter", "name": "4392c789b7a7901b9b35b967219361b6", "is_reserved": 0, "lon": -77.024741, "is_disabled": 0, "fusion_lat": 0.0, "lat": 38.91815, "bike_id": "4392c789b7a7901b9b35b967219361b6", "fusion_lon": 0.0}, {"rental_uris": {"ios": "https://dc.lft.to/lastmile_qr_scan", "android": "https://dc.lft.to/lastmile_qr_scan"}, "type": "electric_bike", "name": "f2c0f16ec3f40779957cf1d44a085520", "is_reserved": 0, "lon": -77.129348, "is_disabled": 0, "fusion_lat": 0.0, "lat": 38.86587633333333, "bike_id": "f2c0f16ec3f40779957cf1d44a085520", "fusion_lon": 0.0}, {"rental_uris": {"ios": "https://dc.lft.to/lastmile_qr_scan", "android": "https://dc.lft.to/lastmile_qr_scan"}, "type": "electric_scooter", "name": "3cbe0624247f7a7262ca674d78c50441", "is_reserved": 0, "lon": -76.93182666666667, "is_disabled": 0, "fusion_lat": 0.0, "lat": 38.8987205, "bike_id": "3cbe0624247f7a7262ca674d78c50441", "fusion_lon": 0.0}, {"rental_uris": {"ios": "https://dc.lft.to/lastmile_qr_scan", "android": "https://dc.lft.to/lastmile_qr_scan"}, "type": "electric_scooter", "name": "11fa9259302676ae1225bfc76ed8ee28", "is_reserved": 0, "lon": -77.05527083333334, "is_disabled": 0, "fusion_lat": 0.0, "lat": 38.91000016666667, "bike_id": "11fa9259302676ae1225bfc76ed8ee28", "fusion_lon": 0.0}, {"rental_uris": {"ios": "https://dc.lft.to/lastmile_qr_scan", "android": "https://dc.lft.to/lastmile_qr_scan"}, "type": "electric_scooter", "name": "f73a429708f47536456eaad617bd8815", "is_reserved": 0, "lon": -77.03829883333333, "is_disabled": 0, "fusion_lat": 0.0, "lat": 38.96263483333333, "bike_id": "f73a429708f47536456eaad617bd8815", "fusion_lon": 0.0}, {"rental_uris": {"ios": "https://dc.lft.to/lastmile_qr_scan", "android": "https://dc.lft.to/lastmile_qr_scan"}, "type": "electric_scooter", "name": "7b92b4a5f0f099eaf83a2ad52278b0a9", "is_reserved": 0, "lon": -77.014974, "is_disabled": 0, "fusion_lat": 0.0, "lat": 38.92667383333333, "bike_id": "7b92b4a5f0f099eaf83a2ad52278b0a9", "fusion_lon": 0.0}, {"rental_uris": {"ios": "https://dc.lft.to/lastmile_qr_scan", "android": "https://dc.lft.to/lastmile_qr_scan"}, "type": "electric_scooter", "name": "bc25d927b11ad2fae117a7c77bb1c741", "is_reserved": 0, "lon": -77.0459055, "is_disabled": 0, "fusion_lat": 0.0, "lat": 38.9185395, "bike_id": "bc25d927b11ad2fae117a7c77bb1c741", "fusion_lon": 0.0}, {"rental_uris": {"ios": "https://dc.lft.to/lastmile_qr_scan", "android": "https://dc.lft.to/lastmile_qr_scan"}, "type": "electric_scooter", "name": "b7425e1b8f6ca1d247fc3daab2beb70b", "is_reserved": 0, "lon": -76.9991615, "is_disabled": 0, "fusion_lat": 0.0, "lat": 38.90057783333334, "bike_id": "b7425e1b8f6ca1d247fc3daab2beb70b", "fusion_lon": 0.0}, {"rental_uris": {"ios": "https://dc.lft.to/lastmile_qr_scan", "android": "https://dc.lft.to/lastmile_qr_scan"}, "type": "electric_scooter", "name": "7267408ff2f2a96f9121d8b61f0f6f89", "is_reserved": 0, "lon": -77.021632, "is_disabled": 0, "fusion_lat": 0.0, "lat": 38.924960166666665, "bike_id": "7267408ff2f2a96f9121d8b61f0f6f89", "fusion_lon": 0.0}, {"rental_uris": {"ios": "https://dc.lft.to/lastmile_qr_scan", "android": "https://dc.lft.to/lastmile_qr_scan"}, "type": "electric_bike", "name": "a3e94c8e8ace0f34057b3fe331c1ad81", "is_reserved": 0, "lon": -76.94147183333334, "is_disabled": 0, "fusion_lat": 0.0, "lat": 38.890223, "bike_id": "a3e94c8e8ace0f34057b3fe331c1ad81", "fusion_lon": 0.0}, {"rental_uris": {"ios": "https://dc.lft.to/lastmile_qr_scan", "android": "https://dc.lft.to/lastmile_qr_scan"}, "type": "electric_scooter", "name": "cb860d879aa16f7b0bd5980b125684a7", "is_reserved": 0, "lon": -77.04367133333334, "is_disabled": 0, "fusion_lat": 0.0, "lat": 38.89221466666667, "bike_id": "cb860d879aa16f7b0bd5980b125684a7", "fusion_lon": 0.0}, {"rental_uris": {"ios": "https://dc.lft.to/lastmile_qr_scan", "android": "https://dc.lft.to/lastmile_qr_scan"}, "type": "electric_scooter", "name": "6361ccaea51c25ffbf9f4ad92693011c", "is_reserved": 0, "lon": -77.0341555, "is_disabled": 0, "fusion_lat": 0.0, "lat": 38.909659, "bike_id": "6361ccaea51c25ffbf9f4ad92693011c", "fusion_lon": 0.0}, {"rental_uris": {"ios": "https://dc.lft.to/lastmile_qr_scan", "android": "https://dc.lft.to/lastmile_qr_scan"}, "type": "electric_scooter", "name": "967daf02672f10fc07e5970dba3025c3", "is_reserved": 0, "lon": -77.05814616666666, "is_disabled": 0, "fusion_lat": 0.0, "lat": 38.93516283333334, "bike_id": "967daf02672f10fc07e5970dba3025c3", "fusion_lon": 0.0}, {"rental_uris": {"ios": "https://dc.lft.to/lastmile_qr_scan", "android": "https://dc.lft.to/lastmile_qr_scan"}, "type": "electric_scooter", "name": "26c4f0cf9e5e55773d9d6f6959c8fb72", "is_reserved": 0, "lon": -77.07022233333333, "is_disabled": 0, "fusion_lat": 0.0, "lat": 38.89301283333333, "bike_id": "26c4f0cf9e5e55773d9d6f6959c8fb72", "fusion_lon": 0.0}, {"rental_uris": {"ios": "https://dc.lft.to/lastmile_qr_scan", "android": "https://dc.lft.to/lastmile_qr_scan"}, "type": "electric_scooter", "name": "60fab9db0ffee27fcf7dc3affa5c968d", "is_reserved": 0, "lon": -76.99003616666667, "is_disabled": 0, "fusion_lat": 0.0, "lat": 38.864211, "bike_id": "60fab9db0ffee27fcf7dc3affa5c968d", "fusion_lon": 0.0}, {"rental_uris": {"ios": "https://dc.lft.to/lastmile_qr_scan", "android": "https://dc.lft.to/lastmile_qr_scan"}, "type": "electric_scooter", "name": "e55b1f933be715d09bb56751e6949c58", "is_reserved": 0, "lon": -77.00031916666667, "is_disabled": 0, "fusion_lat": 0.0, "lat": 38.87443416666667, "bike_id": "e55b1f933be715d09bb56751e6949c58", "fusion_lon": 0.0}, {"rental_uris": {"ios": "https://dc.lft.to/lastmile_qr_scan", "android": "https://dc.lft.to/lastmile_qr_scan"}, "type": "electric_scooter", "name": "bde1c11938cf5bf4260d24b815553cfb", "is_reserved": 0, "lon": -77.01957483333334, "is_disabled": 0, "fusion_lat": 0.0, "lat": 38.931316, "bike_id": "bde1c11938cf5bf4260d24b815553cfb", "fusion_lon": 0.0}, {"rental_uris": {"ios": "https://dc.lft.to/lastmile_qr_scan", "android": "https://dc.lft.to/lastmile_qr_scan"}, "type": "electric_scooter", "name": "8e21cec7d57ea43a0bc616c708535817", "is_reserved": 0, "lon": -77.01711933333333, "is_disabled": 0, "fusion_lat": 0.0, "lat": 38.914135333333334, "bike_id": "8e21cec7d57ea43a0bc616c708535817", "fusion_lon": 0.0}, {"rental_uris": {"ios": "https://dc.lft.to/lastmile_qr_scan", "android": "https://dc.lft.to/lastmile_qr_scan"}, "type": "electric_scooter", "name": "653a62e08e389dcbb3d34d6fb5c83e89", "is_reserved": 0, "lon": -77.02946683333333, "is_disabled": 0, "fusion_lat": 0.0, "lat": 38.920597, "bike_id": "653a62e08e389dcbb3d34d6fb5c83e89", "fusion_lon": 0.0}, {"rental_uris": {"ios": "https://dc.lft.to/lastmile_qr_scan", "android": "https://dc.lft.to/lastmile_qr_scan"}, "type": "electric_scooter", "name": "5e44a93620427b4a487111e612fbce9e", "is_reserved": 0, "lon": -76.99364383333334, "is_disabled": 0, "fusion_lat": 0.0, "lat": 38.9004075, "bike_id": "5e44a93620427b4a487111e612fbce9e", "fusion_lon": 0.0}, {"rental_uris": {"ios": "https://dc.lft.to/lastmile_qr_scan", "android": "https://dc.lft.to/lastmile_qr_scan"}, "type": "electric_scooter", "name": "e5b31d327e52497109e1ecae4468d326", "is_reserved": 0, "lon": -77.03017033333333, "is_disabled": 0, "fusion_lat": 0.0, "lat": 38.931194, "bike_id": "e5b31d327e52497109e1ecae4468d326", "fusion_lon": 0.0}, {"rental_uris": {"ios": "https://dc.lft.to/lastmile_qr_scan", "android": "https://dc.lft.to/lastmile_qr_scan"}, "type": "electric_scooter", "name": "f1c73572ac75b9453e81e6a390af3b50", "is_reserved": 0, "lon": -77.0238865, "is_disabled": 0, "fusion_lat": 0.0, "lat": 38.920762, "bike_id": "f1c73572ac75b9453e81e6a390af3b50", "fusion_lon": 0.0}, {"rental_uris": {"ios": "https://dc.lft.to/lastmile_qr_scan", "android": "https://dc.lft.to/lastmile_qr_scan"}, "type": "electric_scooter", "name": "2da7b7804e11c1d317c51156be7cfb7f", "is_reserved": 0, "lon": -77.0569105, "is_disabled": 0, "fusion_lat": 0.0, "lat": 38.93717316666667, "bike_id": "2da7b7804e11c1d317c51156be7cfb7f", "fusion_lon": 0.0}, {"rental_uris": {"ios": "https://dc.lft.to/lastmile_qr_scan", "android": "https://dc.lft.to/lastmile_qr_scan"}, "type": "electric_scooter", "name": "820666a5c0c4a4a7e3bd00ee84e8d380", "is_reserved": 0, "lon": -77.03046366666666, "is_disabled": 0, "fusion_lat": 0.0, "lat": 38.99033633333333, "bike_id": "820666a5c0c4a4a7e3bd00ee84e8d380", "fusion_lon": 0.0}, {"rental_uris": {"ios": "https://dc.lft.to/lastmile_qr_scan", "android": "https://dc.lft.to/lastmile_qr_scan"}, "type": "electric_scooter", "name": "859470121374c4a168d2c0661d8168aa", "is_reserved": 0, "lon": -77.02137666666667, "is_disabled": 0, "fusion_lat": 0.0, "lat": 38.916295, "bike_id": "859470121374c4a168d2c0661d8168aa", "fusion_lon": 0.0}, {"rental_uris": {"ios": "https://dc.lft.to/lastmile_qr_scan", "android": "https://dc.lft.to/lastmile_qr_scan"}, "type": "electric_scooter", "name": "48c9d6bff7538d16e1a638e9b40dd669", "is_reserved": 0, "lon": -77.07241916666666, "is_disabled": 0, "fusion_lat": 0.0, "lat": 38.934456833333336, "bike_id": "48c9d6bff7538d16e1a638e9b40dd669", "fusion_lon": 0.0}, {"rental_uris": {"ios": "https://dc.lft.to/lastmile_qr_scan", "android": "https://dc.lft.to/lastmile_qr_scan"}, "type": "electric_scooter", "name": "e70f4ee78151c50b4953f7ed5be504f6", "is_reserved": 0, "lon": -77.0231815, "is_disabled": 0, "fusion_lat": 0.0, "lat": 38.9380325, "bike_id": "e70f4ee78151c50b4953f7ed5be504f6", "fusion_lon": 0.0}, {"rental_uris": {"ios": "https://dc.lft.to/lastmile_qr_scan", "android": "https://dc.lft.to/lastmile_qr_scan"}, "type": "electric_scooter", "name": "ef91e4eab8159968b148f1b163ab219c", "is_reserved": 0, "lon": -77.02200966666666, "is_disabled": 0, "fusion_lat": 0.0, "lat": 38.89872233333333, "bike_id": "ef91e4eab8159968b148f1b163ab219c", "fusion_lon": 0.0}, {"rental_uris": {"ios": "https://dc.lft.to/lastmile_qr_scan", "android": "https://dc.lft.to/lastmile_qr_scan"}, "type": "electric_scooter", "name": "1800c6818029f3346a301796431a2e6d", "is_reserved": 0, "lon": -77.02385633333333, "is_disabled": 0, "fusion_lat": 0.0, "lat": 38.908439666666666, "bike_id": "1800c6818029f3346a301796431a2e6d", "fusion_lon": 0.0}, {"rental_uris": {"ios": "https://dc.lft.to/lastmile_qr_scan", "android": "https://dc.lft.to/lastmile_qr_scan"}, "type": "electric_scooter", "name": "46f77ac619b32349e84bb7ed1e56d7bd", "is_reserved": 0, "lon": -77.004652, "is_disabled": 0, "fusion_lat": 0.0, "lat": 38.88516466666667, "bike_id": "46f77ac619b32349e84bb7ed1e56d7bd", "fusion_lon": 0.0}, {"rental_uris": {"ios": "https://dc.lft.to/lastmile_qr_scan", "android": "https://dc.lft.to/lastmile_qr_scan"}, "type": "electric_scooter", "name": "321bd16353238c9671e4205fbbd5530d", "is_reserved": 0, "lon": -77.03857333333333, "is_disabled": 0, "fusion_lat": 0.0, "lat": 38.912791166666665, "bike_id": "321bd16353238c9671e4205fbbd5530d", "fusion_lon": 0.0}, {"rental_uris": {"ios": "https://dc.lft.to/lastmile_qr_scan", "android": "https://dc.lft.to/lastmile_qr_scan"}, "type": "electric_scooter", "name": "202c6d2ba624f729d2445c55820e2af2", "is_reserved": 0, "lon": -77.03295633333333, "is_disabled": 0, "fusion_lat": 0.0, "lat": 38.904369833333334, "bike_id": "202c6d2ba624f729d2445c55820e2af2", "fusion_lon": 0.0}, {"rental_uris": {"ios": "https://dc.lft.to/lastmile_qr_scan", "android": "https://dc.lft.to/lastmile_qr_scan"}, "type": "electric_scooter", "name": "a6636bfeca894cc27d608aa00a438b61", "is_reserved": 0, "lon": -76.99506233333334, "is_disabled": 0, "fusion_lat": 0.0, "lat": 38.909780166666664, "bike_id": "a6636bfeca894cc27d608aa00a438b61", "fusion_lon": 0.0}, {"rental_uris": {"ios": "https://dc.lft.to/lastmile_qr_scan", "android": "https://dc.lft.to/lastmile_qr_scan"}, "type": "electric_scooter", "name": "b77b2b9e82a26ae2c04fa21c40162a80", "is_reserved": 0, "lon": -76.93390516666666, "is_disabled": 0, "fusion_lat": 0.0, "lat": 38.899064, "bike_id": "b77b2b9e82a26ae2c04fa21c40162a80", "fusion_lon": 0.0}, {"rental_uris": {"ios": "https://dc.lft.to/lastmile_qr_scan", "android": "https://dc.lft.to/lastmile_qr_scan"}, "type": "electric_scooter", "name": "52704986b55808284847a8ba8fc87f9a", "is_reserved": 0, "lon": -77.03171816666666, "is_disabled": 0, "fusion_lat": 0.0, "lat": 38.913415, "bike_id": "52704986b55808284847a8ba8fc87f9a", "fusion_lon": 0.0}, {"rental_uris": {"ios": "https://dc.lft.to/lastmile_qr_scan", "android": "https://dc.lft.to/lastmile_qr_scan"}, "type": "electric_scooter", "name": "7e74db662525c1f28069477ee05962a4", "is_reserved": 0, "lon": -77.0392655, "is_disabled": 0, "fusion_lat": 0.0, "lat": 38.898605833333335, "bike_id": "7e74db662525c1f28069477ee05962a4", "fusion_lon": 0.0}, {"rental_uris": {"ios": "https://dc.lft.to/lastmile_qr_scan", "android": "https://dc.lft.to/lastmile_qr_scan"}, "type": "electric_scooter", "name": "061baab0f6e84d800242bfdb614f81d1", "is_reserved": 0, "lon": -77.02300166666667, "is_disabled": 0, "fusion_lat": 0.0, "lat": 38.949292, "bike_id": "061baab0f6e84d800242bfdb614f81d1", "fusion_lon": 0.0}, {"rental_uris": {"ios": "https://dc.lft.to/lastmile_qr_scan", "android": "https://dc.lft.to/lastmile_qr_scan"}, "type": "electric_scooter", "name": "b02e259a28b47b07d2a4ec1502647e2c", "is_reserved": 0, "lon": -76.94064783333333, "is_disabled": 0, "fusion_lat": 0.0, "lat": 38.8858355, "bike_id": "b02e259a28b47b07d2a4ec1502647e2c", "fusion_lon": 0.0}, {"rental_uris": {"ios": "https://dc.lft.to/lastmile_qr_scan", "android": "https://dc.lft.to/lastmile_qr_scan"}, "type": "electric_scooter", "name": "c86d41ba9237ef5fd5006a59d32dbf3e", "is_reserved": 0, "lon": -77.03247483333334, "is_disabled": 0, "fusion_lat": 0.0, "lat": 38.911225333333334, "bike_id": "c86d41ba9237ef5fd5006a59d32dbf3e", "fusion_lon": 0.0}, {"rental_uris": {"ios": "https://dc.lft.to/lastmile_qr_scan", "android": "https://dc.lft.to/lastmile_qr_scan"}, "type": "electric_scooter", "name": "838e8a1d6754eb75f8bec14c76ed9d72", "is_reserved": 0, "lon": -77.04877583333334, "is_disabled": 0, "fusion_lat": 0.0, "lat": 38.900711, "bike_id": "838e8a1d6754eb75f8bec14c76ed9d72", "fusion_lon": 0.0}, {"rental_uris": {"ios": "https://dc.lft.to/lastmile_qr_scan", "android": "https://dc.lft.to/lastmile_qr_scan"}, "type": "electric_scooter", "name": "a73c3a4f3e0a47b4ae5ea4f4e0ffa66f", "is_reserved": 0, "lon": -76.94651666666667, "is_disabled": 0, "fusion_lat": 0.0, "lat": 38.898284833333335, "bike_id": "a73c3a4f3e0a47b4ae5ea4f4e0ffa66f", "fusion_lon": 0.0}, {"rental_uris": {"ios": "https://dc.lft.to/lastmile_qr_scan", "android": "https://dc.lft.to/lastmile_qr_scan"}, "type": "electric_scooter", "name": "1f857a0a001a7cb70b1a5ba29786d433", "is_reserved": 0, "lon": -77.041674, "is_disabled": 0, "fusion_lat": 0.0, "lat": 38.9183155, "bike_id": "1f857a0a001a7cb70b1a5ba29786d433", "fusion_lon": 0.0}, {"rental_uris": {"ios": "https://dc.lft.to/lastmile_qr_scan", "android": "https://dc.lft.to/lastmile_qr_scan"}, "type": "electric_scooter", "name": "b3239e6d377b8cd757843b2f74b5520c", "is_reserved": 0, "lon": -77.046982, "is_disabled": 0, "fusion_lat": 0.0, "lat": 38.902931, "bike_id": "b3239e6d377b8cd757843b2f74b5520c", "fusion_lon": 0.0}, {"rental_uris": {"ios": "https://dc.lft.to/lastmile_qr_scan", "android": "https://dc.lft.to/lastmile_qr_scan"}, "type": "electric_scooter", "name": "5586fd3c12c6c86dc46b2144b79f975a", "is_reserved": 0, "lon": -77.0668755, "is_disabled": 0, "fusion_lat": 0.0, "lat": 38.95018316666667, "bike_id": "5586fd3c12c6c86dc46b2144b79f975a", "fusion_lon": 0.0}, {"rental_uris": {"ios": "https://dc.lft.to/lastmile_qr_scan", "android": "https://dc.lft.to/lastmile_qr_scan"}, "type": "electric_scooter", "name": "3382784d4444cb8efb07e1f8926ebaf6", "is_reserved": 0, "lon": -77.03806866666666, "is_disabled": 0, "fusion_lat": 0.0, "lat": 38.91038833333333, "bike_id": "3382784d4444cb8efb07e1f8926ebaf6", "fusion_lon": 0.0}, {"rental_uris": {"ios": "https://dc.lft.to/lastmile_qr_scan", "android": "https://dc.lft.to/lastmile_qr_scan"}, "type": "electric_bike", "name": "e3743c6d9e414f1e288a776b04e08bbd", "is_reserved": 0, "lon": -77.12732183333334, "is_disabled": 0, "fusion_lat": 0.0, "lat": 38.895634, "bike_id": "e3743c6d9e414f1e288a776b04e08bbd", "fusion_lon": 0.0}, {"rental_uris": {"ios": "https://dc.lft.to/lastmile_qr_scan", "android": "https://dc.lft.to/lastmile_qr_scan"}, "type": "electric_scooter", "name": "d4226e082334041c1b4de1cfc66c4874", "is_reserved": 0, "lon": -76.94899333333333, "is_disabled": 0, "fusion_lat": 0.0, "lat": 38.8952245, "bike_id": "d4226e082334041c1b4de1cfc66c4874", "fusion_lon": 0.0}, {"rental_uris": {"ios": "https://dc.lft.to/lastmile_qr_scan", "android": "https://dc.lft.to/lastmile_qr_scan"}, "type": "electric_scooter", "name": "63357d4645304e3686adba1edc1f4cb1", "is_reserved": 0, "lon": -77.03443216666666, "is_disabled": 0, "fusion_lat": 0.0, "lat": 38.907366333333336, "bike_id": "63357d4645304e3686adba1edc1f4cb1", "fusion_lon": 0.0}, {"rental_uris": {"ios": "https://dc.lft.to/lastmile_qr_scan", "android": "https://dc.lft.to/lastmile_qr_scan"}, "type": "electric_scooter", "name": "0f7370f4eafb590995a036a30388d22c", "is_reserved": 0, "lon": -77.057227, "is_disabled": 0, "fusion_lat": 0.0, "lat": 38.933586166666664, "bike_id": "0f7370f4eafb590995a036a30388d22c", "fusion_lon": 0.0}, {"rental_uris": {"ios": "https://dc.lft.to/lastmile_qr_scan", "android": "https://dc.lft.to/lastmile_qr_scan"}, "type": "electric_scooter", "name": "a33fc6ee527cbec74795bdb48d1d198a", "is_reserved": 0, "lon": -77.02858333333333, "is_disabled": 0, "fusion_lat": 0.0, "lat": 38.91252766666667, "bike_id": "a33fc6ee527cbec74795bdb48d1d198a", "fusion_lon": 0.0}, {"rental_uris": {"ios": "https://dc.lft.to/lastmile_qr_scan", "android": "https://dc.lft.to/lastmile_qr_scan"}, "type": "electric_scooter", "name": "3f9c702e7d1760e55351790a9588db8c", "is_reserved": 0, "lon": -77.03807333333333, "is_disabled": 0, "fusion_lat": 0.0, "lat": 38.93608666666667, "bike_id": "3f9c702e7d1760e55351790a9588db8c", "fusion_lon": 0.0}, {"rental_uris": {"ios": "https://dc.lft.to/lastmile_qr_scan", "android": "https://dc.lft.to/lastmile_qr_scan"}, "type": "electric_scooter", "name": "4d219fcf99beda662ca8470096ad6ab2", "is_reserved": 0, "lon": -77.01785866666667, "is_disabled": 0, "fusion_lat": 0.0, "lat": 38.9037965, "bike_id": "4d219fcf99beda662ca8470096ad6ab2", "fusion_lon": 0.0}, {"rental_uris": {"ios": "https://dc.lft.to/lastmile_qr_scan", "android": "https://dc.lft.to/lastmile_qr_scan"}, "type": "electric_scooter", "name": "0ba02644ac6b3cdc1369fadfa9005080", "is_reserved": 0, "lon": -77.00048683333333, "is_disabled": 0, "fusion_lat": 0.0, "lat": 38.87684516666667, "bike_id": "0ba02644ac6b3cdc1369fadfa9005080", "fusion_lon": 0.0}, {"rental_uris": {"ios": "https://dc.lft.to/lastmile_qr_scan", "android": "https://dc.lft.to/lastmile_qr_scan"}, "type": "electric_scooter", "name": "186c6fcdfc4620f5e34a1987b410c9e2", "is_reserved": 0, "lon": -77.0394, "is_disabled": 0, "fusion_lat": 0.0, "lat": 38.89857583333333, "bike_id": "186c6fcdfc4620f5e34a1987b410c9e2", "fusion_lon": 0.0}, {"rental_uris": {"ios": "https://dc.lft.to/lastmile_qr_scan", "android": "https://dc.lft.to/lastmile_qr_scan"}, "type": "electric_scooter", "name": "80110bd53c23bca1dfed8f5fd537b3b6", "is_reserved": 0, "lon": -77.0363145, "is_disabled": 0, "fusion_lat": 0.0, "lat": 38.9037395, "bike_id": "80110bd53c23bca1dfed8f5fd537b3b6", "fusion_lon": 0.0}, {"rental_uris": {"ios": "https://dc.lft.to/lastmile_qr_scan", "android": "https://dc.lft.to/lastmile_qr_scan"}, "type": "electric_scooter", "name": "fa3148daa5f49300f4c608cf92b73cfb", "is_reserved": 0, "lon": -77.0058925, "is_disabled": 0, "fusion_lat": 0.0, "lat": 38.87573016666666, "bike_id": "fa3148daa5f49300f4c608cf92b73cfb", "fusion_lon": 0.0}, {"rental_uris": {"ios": "https://dc.lft.to/lastmile_qr_scan", "android": "https://dc.lft.to/lastmile_qr_scan"}, "type": "electric_scooter", "name": "5e5cbf5c8e796cfbe6340a38bb5ef8f9", "is_reserved": 0, "lon": -77.04548816666667, "is_disabled": 0, "fusion_lat": 0.0, "lat": 38.9132555, "bike_id": "5e5cbf5c8e796cfbe6340a38bb5ef8f9", "fusion_lon": 0.0}, {"rental_uris": {"ios": "https://dc.lft.to/lastmile_qr_scan", "android": "https://dc.lft.to/lastmile_qr_scan"}, "type": "electric_scooter", "name": "94f7c5326840f5730ac6211d5faa9e90", "is_reserved": 0, "lon": -77.0406005, "is_disabled": 0, "fusion_lat": 0.0, "lat": 38.91768183333333, "bike_id": "94f7c5326840f5730ac6211d5faa9e90", "fusion_lon": 0.0}, {"rental_uris": {"ios": "https://dc.lft.to/lastmile_qr_scan", "android": "https://dc.lft.to/lastmile_qr_scan"}, "type": "electric_scooter", "name": "615a89621464db51172fc3342db5777c", "is_reserved": 0, "lon": -77.05030733333334, "is_disabled": 0, "fusion_lat": 0.0, "lat": 38.896758, "bike_id": "615a89621464db51172fc3342db5777c", "fusion_lon": 0.0}, {"rental_uris": {"ios": "https://dc.lft.to/lastmile_qr_scan", "android": "https://dc.lft.to/lastmile_qr_scan"}, "type": "electric_scooter", "name": "aa24f7552c60bdf1b24ef284465b7efa", "is_reserved": 0, "lon": -77.02754416666667, "is_disabled": 0, "fusion_lat": 0.0, "lat": 38.95778833333333, "bike_id": "aa24f7552c60bdf1b24ef284465b7efa", "fusion_lon": 0.0}, {"rental_uris": {"ios": "https://dc.lft.to/lastmile_qr_scan", "android": "https://dc.lft.to/lastmile_qr_scan"}, "type": "electric_scooter", "name": "c8642fb2c73898ba80900fc70ed68fe2", "is_reserved": 0, "lon": -76.98535016666666, "is_disabled": 0, "fusion_lat": 0.0, "lat": 38.91289366666667, "bike_id": "c8642fb2c73898ba80900fc70ed68fe2", "fusion_lon": 0.0}, {"rental_uris": {"ios": "https://dc.lft.to/lastmile_qr_scan", "android": "https://dc.lft.to/lastmile_qr_scan"}, "type": "electric_scooter", "name": "97eec46e80f8d7a155d6403df5fcc56e", "is_reserved": 0, "lon": -77.017611, "is_disabled": 0, "fusion_lat": 0.0, "lat": 38.876843, "bike_id": "97eec46e80f8d7a155d6403df5fcc56e", "fusion_lon": 0.0}, {"rental_uris": {"ios": "https://dc.lft.to/lastmile_qr_scan", "android": "https://dc.lft.to/lastmile_qr_scan"}, "type": "electric_scooter", "name": "0fc1e0ebfef4069ffaa9ae59dba8d211", "is_reserved": 0, "lon": -76.948678, "is_disabled": 0, "fusion_lat": 0.0, "lat": 38.894876333333336, "bike_id": "0fc1e0ebfef4069ffaa9ae59dba8d211", "fusion_lon": 0.0}, {"rental_uris": {"ios": "https://dc.lft.to/lastmile_qr_scan", "android": "https://dc.lft.to/lastmile_qr_scan"}, "type": "electric_scooter", "name": "663f82ed84fa4666cf5b8de27a749723", "is_reserved": 0, "lon": -76.9263715, "is_disabled": 0, "fusion_lat": 0.0, "lat": 38.88366933333333, "bike_id": "663f82ed84fa4666cf5b8de27a749723", "fusion_lon": 0.0}, {"rental_uris": {"ios": "https://dc.lft.to/lastmile_qr_scan", "android": "https://dc.lft.to/lastmile_qr_scan"}, "type": "electric_scooter", "name": "364e22c46b54fe3d00d11dc64c380fde", "is_reserved": 0, "lon": -77.04781133333333, "is_disabled": 0, "fusion_lat": 0.0, "lat": 38.9086195, "bike_id": "364e22c46b54fe3d00d11dc64c380fde", "fusion_lon": 0.0}, {"rental_uris": {"ios": "https://dc.lft.to/lastmile_qr_scan", "android": "https://dc.lft.to/lastmile_qr_scan"}, "type": "electric_scooter", "name": "ee4f260651410ac7d399b65fc21c091c", "is_reserved": 0, "lon": -76.9849255, "is_disabled": 0, "fusion_lat": 0.0, "lat": 38.90361383333333, "bike_id": "ee4f260651410ac7d399b65fc21c091c", "fusion_lon": 0.0}, {"rental_uris": {"ios": "https://dc.lft.to/lastmile_qr_scan", "android": "https://dc.lft.to/lastmile_qr_scan"}, "type": "electric_scooter", "name": "1126a7e1e8786fad76c5c274905faaf6", "is_reserved": 0, "lon": -77.01145116666666, "is_disabled": 0, "fusion_lat": 0.0, "lat": 38.90648683333333, "bike_id": "1126a7e1e8786fad76c5c274905faaf6", "fusion_lon": 0.0}, {"rental_uris": {"ios": "https://dc.lft.to/lastmile_qr_scan", "android": "https://dc.lft.to/lastmile_qr_scan"}, "type": "electric_scooter", "name": "c9de1251d03b180840813255168fef94", "is_reserved": 0, "lon": -77.03661533333333, "is_disabled": 0, "fusion_lat": 0.0, "lat": 38.923565833333335, "bike_id": "c9de1251d03b180840813255168fef94", "fusion_lon": 0.0}, {"rental_uris": {"ios": "https://dc.lft.to/lastmile_qr_scan", "android": "https://dc.lft.to/lastmile_qr_scan"}, "type": "electric_scooter", "name": "ce5947728346a7a10171b5ed520c6efa", "is_reserved": 0, "lon": -77.03299933333334, "is_disabled": 0, "fusion_lat": 0.0, "lat": 38.90469783333333, "bike_id": "ce5947728346a7a10171b5ed520c6efa", "fusion_lon": 0.0}, {"rental_uris": {"ios": "https://dc.lft.to/lastmile_qr_scan", "android": "https://dc.lft.to/lastmile_qr_scan"}, "type": "electric_scooter", "name": "5d0c5ec48dd08fdf27ce9e13e4c8d371", "is_reserved": 0, "lon": -77.000706, "is_disabled": 0, "fusion_lat": 0.0, "lat": 38.873804666666665, "bike_id": "5d0c5ec48dd08fdf27ce9e13e4c8d371", "fusion_lon": 0.0}, {"rental_uris": {"ios": "https://dc.lft.to/lastmile_qr_scan", "android": "https://dc.lft.to/lastmile_qr_scan"}, "type": "electric_scooter", "name": "d26a4579bd9748115f7d3ef5f2203262", "is_reserved": 0, "lon": -77.023512, "is_disabled": 0, "fusion_lat": 0.0, "lat": 38.9420055, "bike_id": "d26a4579bd9748115f7d3ef5f2203262", "fusion_lon": 0.0}, {"rental_uris": {"ios": "https://dc.lft.to/lastmile_qr_scan", "android": "https://dc.lft.to/lastmile_qr_scan"}, "type": "electric_scooter", "name": "c262802d93eb76821dea7a6a8287c8fc", "is_reserved": 0, "lon": -77.00045833333333, "is_disabled": 0, "fusion_lat": 0.0, "lat": 38.90020066666666, "bike_id": "c262802d93eb76821dea7a6a8287c8fc", "fusion_lon": 0.0}, {"rental_uris": {"ios": "https://dc.lft.to/lastmile_qr_scan", "android": "https://dc.lft.to/lastmile_qr_scan"}, "type": "electric_scooter", "name": "9a502a5100134b7bde87f08466e52b29", "is_reserved": 0, "lon": -77.014421, "is_disabled": 0, "fusion_lat": 0.0, "lat": 38.917773833333335, "bike_id": "9a502a5100134b7bde87f08466e52b29", "fusion_lon": 0.0}, {"rental_uris": {"ios": "https://dc.lft.to/lastmile_qr_scan", "android": "https://dc.lft.to/lastmile_qr_scan"}, "type": "electric_scooter", "name": "557362f114480a52a97a4159d2c56e30", "is_reserved": 0, "lon": -77.0059115, "is_disabled": 0, "fusion_lat": 0.0, "lat": 38.90669666666667, "bike_id": "557362f114480a52a97a4159d2c56e30", "fusion_lon": 0.0}, {"rental_uris": {"ios": "https://dc.lft.to/lastmile_qr_scan", "android": "https://dc.lft.to/lastmile_qr_scan"}, "type": "electric_scooter", "name": "df382c5f69e5e211df141e16e9f28fcb", "is_reserved": 0, "lon": -76.92891733333333, "is_disabled": 0, "fusion_lat": 0.0, "lat": 38.8794405, "bike_id": "df382c5f69e5e211df141e16e9f28fcb", "fusion_lon": 0.0}, {"rental_uris": {"ios": "https://dc.lft.to/lastmile_qr_scan", "android": "https://dc.lft.to/lastmile_qr_scan"}, "type": "electric_bike", "name": "cd7e25dd276aedd3a1b51a77ed99c488", "is_reserved": 0, "lon": -76.98245216666666, "is_disabled": 0, "fusion_lat": 0.0, "lat": 38.952408, "bike_id": "cd7e25dd276aedd3a1b51a77ed99c488", "fusion_lon": 0.0}, {"rental_uris": {"ios": "https://dc.lft.to/lastmile_qr_scan", "android": "https://dc.lft.to/lastmile_qr_scan"}, "type": "electric_scooter", "name": "56e115646b52d324b96ddeae55a340ad", "is_reserved": 0, "lon": -77.03636416666667, "is_disabled": 0, "fusion_lat": 0.0, "lat": 38.934836833333335, "bike_id": "56e115646b52d324b96ddeae55a340ad", "fusion_lon": 0.0}, {"rental_uris": {"ios": "https://dc.lft.to/lastmile_qr_scan", "android": "https://dc.lft.to/lastmile_qr_scan"}, "type": "electric_bike", "name": "d8307277ec2c022534479a7c075cf44a", "is_reserved": 0, "lon": -76.980135, "is_disabled": 0, "fusion_lat": 0.0, "lat": 38.85312783333333, "bike_id": "d8307277ec2c022534479a7c075cf44a", "fusion_lon": 0.0}, {"rental_uris": {"ios": "https://dc.lft.to/lastmile_qr_scan", "android": "https://dc.lft.to/lastmile_qr_scan"}, "type": "electric_scooter", "name": "282d7f0fb4c4ad365bfead58397f977a", "is_reserved": 0, "lon": -77.01955566666666, "is_disabled": 0, "fusion_lat": 0.0, "lat": 38.923281, "bike_id": "282d7f0fb4c4ad365bfead58397f977a", "fusion_lon": 0.0}, {"rental_uris": {"ios": "https://dc.lft.to/lastmile_qr_scan", "android": "https://dc.lft.to/lastmile_qr_scan"}, "type": "electric_scooter", "name": "2b8bc496d67accbf374cbbe86a21af7c", "is_reserved": 0, "lon": -77.0318, "is_disabled": 0, "fusion_lat": 0.0, "lat": 38.915599, "bike_id": "2b8bc496d67accbf374cbbe86a21af7c", "fusion_lon": 0.0}, {"rental_uris": {"ios": "https://dc.lft.to/lastmile_qr_scan", "android": "https://dc.lft.to/lastmile_qr_scan"}, "type": "electric_scooter", "name": "fb6bc9d0a049e990ba5a20fd34de99b9", "is_reserved": 0, "lon": -76.981505, "is_disabled": 0, "fusion_lat": 0.0, "lat": 38.8993535, "bike_id": "fb6bc9d0a049e990ba5a20fd34de99b9", "fusion_lon": 0.0}, {"rental_uris": {"ios": "https://dc.lft.to/lastmile_qr_scan", "android": "https://dc.lft.to/lastmile_qr_scan"}, "type": "electric_scooter", "name": "9a575fa7be68712e24807f4cb6ad7a15", "is_reserved": 0, "lon": -77.00626316666667, "is_disabled": 0, "fusion_lat": 0.0, "lat": 38.871720333333336, "bike_id": "9a575fa7be68712e24807f4cb6ad7a15", "fusion_lon": 0.0}, {"rental_uris": {"ios": "https://dc.lft.to/lastmile_qr_scan", "android": "https://dc.lft.to/lastmile_qr_scan"}, "type": "electric_scooter", "name": "a1a7d06da80644c00ba20feec1e8dddd", "is_reserved": 0, "lon": -77.03199866666667, "is_disabled": 0, "fusion_lat": 0.0, "lat": 38.921933, "bike_id": "a1a7d06da80644c00ba20feec1e8dddd", "fusion_lon": 0.0}, {"rental_uris": {"ios": "https://dc.lft.to/lastmile_qr_scan", "android": "https://dc.lft.to/lastmile_qr_scan"}, "type": "electric_scooter", "name": "085e982fafe0d6542a5f642a01e0aeae", "is_reserved": 0, "lon": -77.040836, "is_disabled": 0, "fusion_lat": 0.0, "lat": 38.94786766666667, "bike_id": "085e982fafe0d6542a5f642a01e0aeae", "fusion_lon": 0.0}, {"rental_uris": {"ios": "https://dc.lft.to/lastmile_qr_scan", "android": "https://dc.lft.to/lastmile_qr_scan"}, "type": "electric_scooter", "name": "2dbd3093e3a8fd12ae55b211cc85695f", "is_reserved": 0, "lon": -77.03670166666667, "is_disabled": 0, "fusion_lat": 0.0, "lat": 38.921266333333335, "bike_id": "2dbd3093e3a8fd12ae55b211cc85695f", "fusion_lon": 0.0}, {"rental_uris": {"ios": "https://dc.lft.to/lastmile_qr_scan", "android": "https://dc.lft.to/lastmile_qr_scan"}, "type": "electric_scooter", "name": "c4904ac4a07a09c09331ae57f52bdc50", "is_reserved": 0, "lon": -77.04209616666667, "is_disabled": 0, "fusion_lat": 0.0, "lat": 38.92125266666667, "bike_id": "c4904ac4a07a09c09331ae57f52bdc50", "fusion_lon": 0.0}, {"rental_uris": {"ios": "https://dc.lft.to/lastmile_qr_scan", "android": "https://dc.lft.to/lastmile_qr_scan"}, "type": "electric_scooter", "name": "eaf7fc959a1328bab6ac6de9f7791a2e", "is_reserved": 0, "lon": -77.04170766666667, "is_disabled": 0, "fusion_lat": 0.0, "lat": 38.916041, "bike_id": "eaf7fc959a1328bab6ac6de9f7791a2e", "fusion_lon": 0.0}, {"rental_uris": {"ios": "https://dc.lft.to/lastmile_qr_scan", "android": "https://dc.lft.to/lastmile_qr_scan"}, "type": "electric_scooter", "name": "2fdf7ccb21216c89c4c022ab04e7fedd", "is_reserved": 0, "lon": -77.04569883333333, "is_disabled": 0, "fusion_lat": 0.0, "lat": 38.9206535, "bike_id": "2fdf7ccb21216c89c4c022ab04e7fedd", "fusion_lon": 0.0}, {"rental_uris": {"ios": "https://dc.lft.to/lastmile_qr_scan", "android": "https://dc.lft.to/lastmile_qr_scan"}, "type": "electric_scooter", "name": "e75e76d4c672b969832605e9b0c31f7f", "is_reserved": 0, "lon": -77.00568016666666, "is_disabled": 0, "fusion_lat": 0.0, "lat": 38.87866733333333, "bike_id": "e75e76d4c672b969832605e9b0c31f7f", "fusion_lon": 0.0}, {"rental_uris": {"ios": "https://dc.lft.to/lastmile_qr_scan", "android": "https://dc.lft.to/lastmile_qr_scan"}, "type": "electric_scooter", "name": "61a75b6a40782a10f7b0fff26d05df99", "is_reserved": 0, "lon": -77.038068, "is_disabled": 0, "fusion_lat": 0.0, "lat": 38.91421183333333, "bike_id": "61a75b6a40782a10f7b0fff26d05df99", "fusion_lon": 0.0}, {"rental_uris": {"ios": "https://dc.lft.to/lastmile_qr_scan", "android": "https://dc.lft.to/lastmile_qr_scan"}, "type": "electric_scooter", "name": "f97432bed984f41be05ddc05a695b52c", "is_reserved": 0, "lon": -77.0295095, "is_disabled": 0, "fusion_lat": 0.0, "lat": 38.90504083333333, "bike_id": "f97432bed984f41be05ddc05a695b52c", "fusion_lon": 0.0}, {"rental_uris": {"ios": "https://dc.lft.to/lastmile_qr_scan", "android": "https://dc.lft.to/lastmile_qr_scan"}, "type": "electric_scooter", "name": "7a921354841fd71b497c6b4f1388026b", "is_reserved": 0, "lon": -77.05795766666667, "is_disabled": 0, "fusion_lat": 0.0, "lat": 38.9051275, "bike_id": "7a921354841fd71b497c6b4f1388026b", "fusion_lon": 0.0}, {"rental_uris": {"ios": "https://dc.lft.to/lastmile_qr_scan", "android": "https://dc.lft.to/lastmile_qr_scan"}, "type": "electric_scooter", "name": "8553a4390c023518adc685f80059c103", "is_reserved": 0, "lon": -77.04872616666667, "is_disabled": 0, "fusion_lat": 0.0, "lat": 38.9007525, "bike_id": "8553a4390c023518adc685f80059c103", "fusion_lon": 0.0}, {"rental_uris": {"ios": "https://dc.lft.to/lastmile_qr_scan", "android": "https://dc.lft.to/lastmile_qr_scan"}, "type": "electric_scooter", "name": "c31df39cea17cb42c4ef35b64a19212a", "is_reserved": 0, "lon": -77.021469, "is_disabled": 0, "fusion_lat": 0.0, "lat": 38.88747866666667, "bike_id": "c31df39cea17cb42c4ef35b64a19212a", "fusion_lon": 0.0}, {"rental_uris": {"ios": "https://dc.lft.to/lastmile_qr_scan", "android": "https://dc.lft.to/lastmile_qr_scan"}, "type": "electric_scooter", "name": "8ea3c249fd494d59542a65910e53939d", "is_reserved": 0, "lon": -77.0469095, "is_disabled": 0, "fusion_lat": 0.0, "lat": 38.897456166666665, "bike_id": "8ea3c249fd494d59542a65910e53939d", "fusion_lon": 0.0}, {"rental_uris": {"ios": "https://dc.lft.to/lastmile_qr_scan", "android": "https://dc.lft.to/lastmile_qr_scan"}, "type": "electric_scooter", "name": "81a6ac698c14affea823ececc565c7bd", "is_reserved": 0, "lon": -76.99636616666666, "is_disabled": 0, "fusion_lat": 0.0, "lat": 38.887650666666666, "bike_id": "81a6ac698c14affea823ececc565c7bd", "fusion_lon": 0.0}, {"rental_uris": {"ios": "https://dc.lft.to/lastmile_qr_scan", "android": "https://dc.lft.to/lastmile_qr_scan"}, "type": "electric_scooter", "name": "75c699c50fd5a35f62a9b0935c08eb84", "is_reserved": 0, "lon": -77.02638216666666, "is_disabled": 0, "fusion_lat": 0.0, "lat": 38.926763, "bike_id": "75c699c50fd5a35f62a9b0935c08eb84", "fusion_lon": 0.0}, {"rental_uris": {"ios": "https://dc.lft.to/lastmile_qr_scan", "android": "https://dc.lft.to/lastmile_qr_scan"}, "type": "electric_scooter", "name": "97bf40c0f6d36ecc3b3ef53e4d85cd02", "is_reserved": 0, "lon": -77.00922833333334, "is_disabled": 0, "fusion_lat": 0.0, "lat": 38.896064833333334, "bike_id": "97bf40c0f6d36ecc3b3ef53e4d85cd02", "fusion_lon": 0.0}, {"rental_uris": {"ios": "https://dc.lft.to/lastmile_qr_scan", "android": "https://dc.lft.to/lastmile_qr_scan"}, "type": "electric_scooter", "name": "f2b3351e7202ecb450c947243afc3573", "is_reserved": 0, "lon": -76.95287366666666, "is_disabled": 0, "fusion_lat": 0.0, "lat": 38.8902845, "bike_id": "f2b3351e7202ecb450c947243afc3573", "fusion_lon": 0.0}, {"rental_uris": {"ios": "https://dc.lft.to/lastmile_qr_scan", "android": "https://dc.lft.to/lastmile_qr_scan"}, "type": "electric_scooter", "name": "bc8ec747ac4b215e22cc4ef6971f0eca", "is_reserved": 0, "lon": -76.97938, "is_disabled": 0, "fusion_lat": 0.0, "lat": 38.906606, "bike_id": "bc8ec747ac4b215e22cc4ef6971f0eca", "fusion_lon": 0.0}, {"rental_uris": {"ios": "https://dc.lft.to/lastmile_qr_scan", "android": "https://dc.lft.to/lastmile_qr_scan"}, "type": "electric_bike", "name": "965ad9cc4751ca5bce44fe52fa2ba2a9", "is_reserved": 0, "lon": -76.98092466666667, "is_disabled": 0, "fusion_lat": 0.0, "lat": 38.953581666666665, "bike_id": "965ad9cc4751ca5bce44fe52fa2ba2a9", "fusion_lon": 0.0}, {"rental_uris": {"ios": "https://dc.lft.to/lastmile_qr_scan", "android": "https://dc.lft.to/lastmile_qr_scan"}, "type": "electric_scooter", "name": "9b8e96fff61e7b9154b616f89980abb2", "is_reserved": 0, "lon": -77.009112, "is_disabled": 0, "fusion_lat": 0.0, "lat": 38.89882083333333, "bike_id": "9b8e96fff61e7b9154b616f89980abb2", "fusion_lon": 0.0}, {"rental_uris": {"ios": "https://dc.lft.to/lastmile_qr_scan", "android": "https://dc.lft.to/lastmile_qr_scan"}, "type": "electric_scooter", "name": "c719e85d00c640d214479410c5b0ac23", "is_reserved": 0, "lon": -77.033271, "is_disabled": 0, "fusion_lat": 0.0, "lat": 38.919205, "bike_id": "c719e85d00c640d214479410c5b0ac23", "fusion_lon": 0.0}, {"rental_uris": {"ios": "https://dc.lft.to/lastmile_qr_scan", "android": "https://dc.lft.to/lastmile_qr_scan"}, "type": "electric_bike", "name": "6d8d11c9ceab4aea38d1a5949958ca0a", "is_reserved": 0, "lon": -76.9954385, "is_disabled": 0, "fusion_lat": 0.0, "lat": 38.83158916666667, "bike_id": "6d8d11c9ceab4aea38d1a5949958ca0a", "fusion_lon": 0.0}, {"rental_uris": {"ios": "https://dc.lft.to/lastmile_qr_scan", "android": "https://dc.lft.to/lastmile_qr_scan"}, "type": "electric_scooter", "name": "5013d6d703bd0376d5e7bdbceeb9e2d2", "is_reserved": 0, "lon": -77.03503833333333, "is_disabled": 0, "fusion_lat": 0.0, "lat": 38.921548333333334, "bike_id": "5013d6d703bd0376d5e7bdbceeb9e2d2", "fusion_lon": 0.0}, {"rental_uris": {"ios": "https://dc.lft.to/lastmile_qr_scan", "android": "https://dc.lft.to/lastmile_qr_scan"}, "type": "electric_scooter", "name": "3de3966101af00b1cf318f392f1607bb", "is_reserved": 0, "lon": -77.07404283333334, "is_disabled": 0, "fusion_lat": 0.0, "lat": 38.937461666666664, "bike_id": "3de3966101af00b1cf318f392f1607bb", "fusion_lon": 0.0}, {"rental_uris": {"ios": "https://dc.lft.to/lastmile_qr_scan", "android": "https://dc.lft.to/lastmile_qr_scan"}, "type": "electric_bike", "name": "94ec12321e1ff4a47e509874fad66b29", "is_reserved": 0, "lon": -76.95063216666667, "is_disabled": 0, "fusion_lat": 0.0, "lat": 39.085098, "bike_id": "94ec12321e1ff4a47e509874fad66b29", "fusion_lon": 0.0}, {"rental_uris": {"ios": "https://dc.lft.to/lastmile_qr_scan", "android": "https://dc.lft.to/lastmile_qr_scan"}, "type": "electric_scooter", "name": "7225b4da6313f4664cead9f248d51314", "is_reserved": 0, "lon": -77.023574, "is_disabled": 0, "fusion_lat": 0.0, "lat": 38.945209166666665, "bike_id": "7225b4da6313f4664cead9f248d51314", "fusion_lon": 0.0}, {"rental_uris": {"ios": "https://dc.lft.to/lastmile_qr_scan", "android": "https://dc.lft.to/lastmile_qr_scan"}, "type": "electric_scooter", "name": "8036b0256a63d8efa88b1bb035aacee0", "is_reserved": 0, "lon": -77.0313695, "is_disabled": 0, "fusion_lat": 0.0, "lat": 38.92378566666667, "bike_id": "8036b0256a63d8efa88b1bb035aacee0", "fusion_lon": 0.0}, {"rental_uris": {"ios": "https://dc.lft.to/lastmile_qr_scan", "android": "https://dc.lft.to/lastmile_qr_scan"}, "type": "electric_scooter", "name": "50eaefecd46d0e2907181d4679f41d0c", "is_reserved": 0, "lon": -76.9939155, "is_disabled": 0, "fusion_lat": 0.0, "lat": 38.91011666666667, "bike_id": "50eaefecd46d0e2907181d4679f41d0c", "fusion_lon": 0.0}, {"rental_uris": {"ios": "https://dc.lft.to/lastmile_qr_scan", "android": "https://dc.lft.to/lastmile_qr_scan"}, "type": "electric_scooter", "name": "a71cc3a4c466214b1514150f569d8c54", "is_reserved": 0, "lon": -77.05020766666667, "is_disabled": 0, "fusion_lat": 0.0, "lat": 38.897797, "bike_id": "a71cc3a4c466214b1514150f569d8c54", "fusion_lon": 0.0}, {"rental_uris": {"ios": "https://dc.lft.to/lastmile_qr_scan", "android": "https://dc.lft.to/lastmile_qr_scan"}, "type": "electric_scooter", "name": "06782021d833f33f8505de1b6d056d9b", "is_reserved": 0, "lon": -77.03261183333333, "is_disabled": 0, "fusion_lat": 0.0, "lat": 38.938771833333334, "bike_id": "06782021d833f33f8505de1b6d056d9b", "fusion_lon": 0.0}, {"rental_uris": {"ios": "https://dc.lft.to/lastmile_qr_scan", "android": "https://dc.lft.to/lastmile_qr_scan"}, "type": "electric_scooter", "name": "6b870d38c2312806f0437c2c8c72e21d", "is_reserved": 0, "lon": -76.98186366666667, "is_disabled": 0, "fusion_lat": 0.0, "lat": 38.905797166666666, "bike_id": "6b870d38c2312806f0437c2c8c72e21d", "fusion_lon": 0.0}, {"rental_uris": {"ios": "https://dc.lft.to/lastmile_qr_scan", "android": "https://dc.lft.to/lastmile_qr_scan"}, "type": "electric_scooter", "name": "5e91ba7b9d8d4e351b1ea079e0b8eac2", "is_reserved": 0, "lon": -77.02404116666666, "is_disabled": 0, "fusion_lat": 0.0, "lat": 38.9275835, "bike_id": "5e91ba7b9d8d4e351b1ea079e0b8eac2", "fusion_lon": 0.0}, {"rental_uris": {"ios": "https://dc.lft.to/lastmile_qr_scan", "android": "https://dc.lft.to/lastmile_qr_scan"}, "type": "electric_scooter", "name": "ac64043379dd7238c84efe1d675977b1", "is_reserved": 0, "lon": -77.02944416666666, "is_disabled": 0, "fusion_lat": 0.0, "lat": 38.90502166666667, "bike_id": "ac64043379dd7238c84efe1d675977b1", "fusion_lon": 0.0}, {"rental_uris": {"ios": "https://dc.lft.to/lastmile_qr_scan", "android": "https://dc.lft.to/lastmile_qr_scan"}, "type": "electric_scooter", "name": "c5f1b5b3bf9c6e82d856f7eb86a8bd29", "is_reserved": 0, "lon": -77.019923, "is_disabled": 0, "fusion_lat": 0.0, "lat": 38.930527833333336, "bike_id": "c5f1b5b3bf9c6e82d856f7eb86a8bd29", "fusion_lon": 0.0}, {"rental_uris": {"ios": "https://dc.lft.to/lastmile_qr_scan", "android": "https://dc.lft.to/lastmile_qr_scan"}, "type": "electric_scooter", "name": "c7e0980593a9173d0e880501d80a0ff4", "is_reserved": 0, "lon": -77.03990866666666, "is_disabled": 0, "fusion_lat": 0.0, "lat": 38.91414733333333, "bike_id": "c7e0980593a9173d0e880501d80a0ff4", "fusion_lon": 0.0}, {"rental_uris": {"ios": "https://dc.lft.to/lastmile_qr_scan", "android": "https://dc.lft.to/lastmile_qr_scan"}, "type": "electric_scooter", "name": "2eb918428c51a57b739e8f1ee3914f94", "is_reserved": 0, "lon": -77.02401083333334, "is_disabled": 0, "fusion_lat": 0.0, "lat": 38.917134833333336, "bike_id": "2eb918428c51a57b739e8f1ee3914f94", "fusion_lon": 0.0}, {"rental_uris": {"ios": "https://dc.lft.to/lastmile_qr_scan", "android": "https://dc.lft.to/lastmile_qr_scan"}, "type": "electric_scooter", "name": "d00d326c5e7345894253a3fa7cf4eee7", "is_reserved": 0, "lon": -77.03452066666667, "is_disabled": 0, "fusion_lat": 0.0, "lat": 38.9009875, "bike_id": "d00d326c5e7345894253a3fa7cf4eee7", "fusion_lon": 0.0}, {"rental_uris": {"ios": "https://dc.lft.to/lastmile_qr_scan", "android": "https://dc.lft.to/lastmile_qr_scan"}, "type": "electric_scooter", "name": "84eaf9a7d9b84caf918169f40cdf034b", "is_reserved": 0, "lon": -77.03827166666666, "is_disabled": 0, "fusion_lat": 0.0, "lat": 38.93143283333333, "bike_id": "84eaf9a7d9b84caf918169f40cdf034b", "fusion_lon": 0.0}, {"rental_uris": {"ios": "https://dc.lft.to/lastmile_qr_scan", "android": "https://dc.lft.to/lastmile_qr_scan"}, "type": "electric_scooter", "name": "350055a1a6c5fd136f7a28fe14f7214b", "is_reserved": 0, "lon": -77.0122315, "is_disabled": 0, "fusion_lat": 0.0, "lat": 38.867166833333336, "bike_id": "350055a1a6c5fd136f7a28fe14f7214b", "fusion_lon": 0.0}, {"rental_uris": {"ios": "https://dc.lft.to/lastmile_qr_scan", "android": "https://dc.lft.to/lastmile_qr_scan"}, "type": "electric_scooter", "name": "dd950a57019185f3c6febd1d223ee944", "is_reserved": 0, "lon": -77.048818, "is_disabled": 0, "fusion_lat": 0.0, "lat": 38.9007365, "bike_id": "dd950a57019185f3c6febd1d223ee944", "fusion_lon": 0.0}, {"rental_uris": {"ios": "https://dc.lft.to/lastmile_qr_scan", "android": "https://dc.lft.to/lastmile_qr_scan"}, "type": "electric_scooter", "name": "0ec77926ee510c7254248e09cd8e34a3", "is_reserved": 0, "lon": -76.99220566666666, "is_disabled": 0, "fusion_lat": 0.0, "lat": 38.887429166666664, "bike_id": "0ec77926ee510c7254248e09cd8e34a3", "fusion_lon": 0.0}, {"rental_uris": {"ios": "https://dc.lft.to/lastmile_qr_scan", "android": "https://dc.lft.to/lastmile_qr_scan"},