{"data": {"bikes": [{"bike_id": "a9ce6dfae3fecb4d3b393f997cf65e2a", "type": "electric_scooter", "is_disabled": 0, "lat": 38.923999, "rental_uris": {"ios": "https://dc.lft.to/lastmile_qr_scan", "android": "https://dc.lft.to/lastmile_qr_scan"}, "is_reserved": 0, "fusion_lon": 0.0, "fusion_lat": 0.0, "lon": -77.03138283333334, "name": "a9ce6dfae3fecb4d3b393f997cf65e2a"}, {"bike_id": "d7c0ecb2495b6f0cbc50ced67ed145bc", "type": "electric_scooter", "is_disabled": 0, "lat": 38.929202333333336, "rental_uris": {"ios": "https://dc.lft.to/lastmile_qr_scan", "android": "https://dc.lft.to/lastmile_qr_scan"}, "is_reserved": 0, "fusion_lon": 0.0, "fusion_lat": 0.0, "lon": -77.03253683333334, "name": "d7c0ecb2495b6f0cbc50ced67ed145bc"}, {"bike_id": "0dfefc6e44a017f15100ebe593c1b3bf", "type": "electric_scooter", "is_disabled": 0, "lat": 38.91353183333333, "rental_uris": {"ios": "https://dc.lft.to/lastmile_qr_scan", "android": "https://dc.lft.to/lastmile_qr_scan"}, "is_reserved": 0, "fusion_lon": 0.0, "fusion_lat": 0.0, "lon": -77.03182633333333, "name": "0dfefc6e44a017f15100ebe593c1b3bf"}, {"bike_id": "fb0055c60805b226628ebdcffc50b0ff", "type": "electric_scooter", "is_disabled": 0, "lat": 38.89671933333333, "rental_uris": {"ios": "https://dc.lft.to/lastmile_qr_scan", "android": "https://dc.lft.to/lastmile_qr_scan"}, "is_reserved": 0, "fusion_lon": 0.0, "fusion_lat": 0.0, "lon": -76.93207466666667, "name": "fb0055c60805b226628ebdcffc50b0ff"}, {"bike_id": "db30f5c3b546233e5cdb70c77e1a8b42", "type": "electric_scooter", "is_disabled": 0, "lat": 38.916025833333336, "rental_uris": {"ios": "https://dc.lft.to/lastmile_qr_scan", "android": "https://dc.lft.to/lastmile_qr_scan"}, "is_reserved": 0, "fusion_lon": 0.0, "fusion_lat": 0.0, "lon": -77.00199016666667, "name": "db30f5c3b546233e5cdb70c77e1a8b42"}, {"bike_id": "efee726ebdc4d4668e9708fee6486c69", "type": "electric_scooter", "is_disabled": 0, "lat": 38.9185085, "rental_uris": {"ios": "https://dc.lft.to/lastmile_qr_scan", "android": "https://dc.lft.to/lastmile_qr_scan"}, "is_reserved": 0, "fusion_lon": 0.0, "fusion_lat": 0.0, "lon": -76.96555583333334, "name": "efee726ebdc4d4668e9708fee6486c69"}, {"bike_id": "5aa846171211f126a371b88598db14c8", "type": "electric_scooter", "is_disabled": 0, "lat": 38.918439666666664, "rental_uris": {"ios": "https://dc.lft.to/lastmile_qr_scan", "android": "https://dc.lft.to/lastmile_qr_scan"}, "is_reserved": 0, "fusion_lon": 0.0, "fusion_lat": 0.0, "lon": -76.96554333333333, "name": "5aa846171211f126a371b88598db14c8"}, {"bike_id": "a4a4deba0b4fd47e1506289c9bf7c0f5", "type": "electric_scooter", "is_disabled": 0, "lat": 38.92682333333333, "rental_uris": {"ios": "https://dc.lft.to/lastmile_qr_scan", "android": "https://dc.lft.to/lastmile_qr_scan"}, "is_reserved": 0, "fusion_lon": 0.0, "fusion_lat": 0.0, "lon": -76.99533033333333, "name": "a4a4deba0b4fd47e1506289c9bf7c0f5"}, {"bike_id": "0e915503208c347c1fc36b7c856f05b3", "type": "electric_scooter", "is_disabled": 0, "lat": 38.92386033333333, "rental_uris": {"ios": "https://dc.lft.to/lastmile_qr_scan", "android": "https://dc.lft.to/lastmile_qr_scan"}, "is_reserved": 0, "fusion_lon": 0.0, "fusion_lat": 0.0, "lon": -77.03139766666666, "name": "0e915503208c347c1fc36b7c856f05b3"}, {"bike_id": "e1e614897c2a6dff12f851a4eece3fee", "type": "electric_scooter", "is_disabled": 0, "lat": 38.89221966666667, "rental_uris": {"ios": "https://dc.lft.to/lastmile_qr_scan", "android": "https://dc.lft.to/lastmile_qr_scan"}, "is_reserved": 0, "fusion_lon": 0.0, "fusion_lat": 0.0, "lon": -77.03977083333334, "name": "e1e614897c2a6dff12f851a4eece3fee"}, {"bike_id": "ae5573da4cbd7126cfd789991c133b80", "type": "electric_scooter", "is_disabled": 0, "lat": 38.917079, "rental_uris": {"ios": "https://dc.lft.to/lastmile_qr_scan", "android": "https://dc.lft.to/lastmile_qr_scan"}, "is_reserved": 0, "fusion_lon": 0.0, "fusion_lat": 0.0, "lon": -77.03743233333333, "name": "ae5573da4cbd7126cfd789991c133b80"}, {"bike_id": "3258847755c310c1265e3b11df0e7259", "type": "electric_scooter", "is_disabled": 0, "lat": 38.90395783333334, "rental_uris": {"ios": "https://dc.lft.to/lastmile_qr_scan", "android": "https://dc.lft.to/lastmile_qr_scan"}, "is_reserved": 0, "fusion_lon": 0.0, "fusion_lat": 0.0, "lon": -77.0628515, "name": "3258847755c310c1265e3b11df0e7259"}, {"bike_id": "c610837606469f13535b2b48b398f44f", "type": "electric_scooter", "is_disabled": 0, "lat": 38.938243166666666, "rental_uris": {"ios": "https://dc.lft.to/lastmile_qr_scan", "android": "https://dc.lft.to/lastmile_qr_scan"}, "is_reserved": 0, "fusion_lon": 0.0, "fusion_lat": 0.0, "lon": -77.0716565, "name": "c610837606469f13535b2b48b398f44f"}, {"bike_id": "d50870246b16fdadda484d07fb46b5f1", "type": "electric_scooter", "is_disabled": 0, "lat": 38.942159333333336, "rental_uris": {"ios": "https://dc.lft.to/lastmile_qr_scan", "android": "https://dc.lft.to/lastmile_qr_scan"}, "is_reserved": 0, "fusion_lon": 0.0, "fusion_lat": 0.0, "lon": -77.02584716666667, "name": "d50870246b16fdadda484d07fb46b5f1"}, {"bike_id": "7fbd900ee3427e45bb5942dd0caf9fc6", "type": "electric_scooter", "is_disabled": 0, "lat": 38.923449833333336, "rental_uris": {"ios": "https://dc.lft.to/lastmile_qr_scan", "android": "https://dc.lft.to/lastmile_qr_scan"}, "is_reserved": 0, "fusion_lon": 0.0, "fusion_lat": 0.0, "lon": -77.0511435, "name": "7fbd900ee3427e45bb5942dd0caf9fc6"}, {"bike_id": "505ada0f2dd7ef42dc4a585f1b2cc08e", "type": "electric_scooter", "is_disabled": 0, "lat": 38.947866166666664, "rental_uris": {"ios": "https://dc.lft.to/lastmile_qr_scan", "android": "https://dc.lft.to/lastmile_qr_scan"}, "is_reserved": 0, "fusion_lon": 0.0, "fusion_lat": 0.0, "lon": -77.07933383333334, "name": "505ada0f2dd7ef42dc4a585f1b2cc08e"}, {"bike_id": "0d220aab0ab4e8885f05ab73b32ef4b6", "type": "electric_scooter", "is_disabled": 0, "lat": 38.911204166666664, "rental_uris": {"ios": "https://dc.lft.to/lastmile_qr_scan", "android": "https://dc.lft.to/lastmile_qr_scan"}, "is_reserved": 0, "fusion_lon": 0.0, "fusion_lat": 0.0, "lon": -77.0325345, "name": "0d220aab0ab4e8885f05ab73b32ef4b6"}, {"bike_id": "be317e5edb25c4c3d89c95e739e291ef", "type": "electric_scooter", "is_disabled": 0, "lat": 38.91695933333333, "rental_uris": {"ios": "https://dc.lft.to/lastmile_qr_scan", "android": "https://dc.lft.to/lastmile_qr_scan"}, "is_reserved": 0, "fusion_lon": 0.0, "fusion_lat": 0.0, "lon": -77.037711, "name": "be317e5edb25c4c3d89c95e739e291ef"}, {"bike_id": "24b62113e927515c97e717bcaafc0443", "type": "electric_bike", "is_disabled": 0, "lat": 39.056362, "rental_uris": {"ios": "https://dc.lft.to/lastmile_qr_scan", "android": "https://dc.lft.to/lastmile_qr_scan"}, "is_reserved": 0, "fusion_lon": 0.0, "fusion_lat": 0.0, "lon": -77.12523716666666, "name": "24b62113e927515c97e717bcaafc0443"}, {"bike_id": "3db926e767e6f68d04f524676f06929e", "type": "electric_scooter", "is_disabled": 0, "lat": 38.896049166666664, "rental_uris": {"ios": "https://dc.lft.to/lastmile_qr_scan", "android": "https://dc.lft.to/lastmile_qr_scan"}, "is_reserved": 0, "fusion_lon": 0.0, "fusion_lat": 0.0, "lon": -77.00926633333333, "name": "3db926e767e6f68d04f524676f06929e"}, {"bike_id": "29cc80a1e8f9a5289572be4cbc73b532", "type": "electric_scooter", "is_disabled": 0, "lat": 38.91119366666667, "rental_uris": {"ios": "https://dc.lft.to/lastmile_qr_scan", "android": "https://dc.lft.to/lastmile_qr_scan"}, "is_reserved": 0, "fusion_lon": 0.0, "fusion_lat": 0.0, "lon": -77.03864333333334, "name": "29cc80a1e8f9a5289572be4cbc73b532"}, {"bike_id": "50d9081e8228ca5a7d4f4fe7eef13212", "type": "electric_scooter", "is_disabled": 0, "lat": 38.92341116666667, "rental_uris": {"ios": "https://dc.lft.to/lastmile_qr_scan", "android": "https://dc.lft.to/lastmile_qr_scan"}, "is_reserved": 0, "fusion_lon": 0.0, "fusion_lat": 0.0, "lon": -77.052991, "name": "50d9081e8228ca5a7d4f4fe7eef13212"}, {"bike_id": "6106c5dd904b7900a8f4be8b592f23dc", "type": "electric_scooter", "is_disabled": 0, "lat": 38.909834000000004, "rental_uris": {"ios": "https://dc.lft.to/lastmile_qr_scan", "android": "https://dc.lft.to/lastmile_qr_scan"}, "is_reserved": 0, "fusion_lon": 0.0, "fusion_lat": 0.0, "lon": -77.0321265, "name": "6106c5dd904b7900a8f4be8b592f23dc"}, {"bike_id": "d059ded44db7cec29492cef99dbab088", "type": "electric_scooter", "is_disabled": 0, "lat": 38.918196333333334, "rental_uris": {"ios": "https://dc.lft.to/lastmile_qr_scan", "android": "https://dc.lft.to/lastmile_qr_scan"}, "is_reserved": 0, "fusion_lon": 0.0, "fusion_lat": 0.0, "lon": -77.02707383333333, "name": "d059ded44db7cec29492cef99dbab088"}, {"bike_id": "c6d4043de2387a45c09fd804bd60bb9a", "type": "electric_scooter", "is_disabled": 0, "lat": 38.916589333333334, "rental_uris": {"ios": "https://dc.lft.to/lastmile_qr_scan", "android": "https://dc.lft.to/lastmile_qr_scan"}, "is_reserved": 0, "fusion_lon": 0.0, "fusion_lat": 0.0, "lon": -76.979115, "name": "c6d4043de2387a45c09fd804bd60bb9a"}, {"bike_id": "3748998304504f3e639fe2e690dc4505", "type": "electric_scooter", "is_disabled": 0, "lat": 38.9232845, "rental_uris": {"ios": "https://dc.lft.to/lastmile_qr_scan", "android": "https://dc.lft.to/lastmile_qr_scan"}, "is_reserved": 0, "fusion_lon": 0.0, "fusion_lat": 0.0, "lon": -77.0088695, "name": "3748998304504f3e639fe2e690dc4505"}, {"bike_id": "f5c13f8d55c54970b11d8a7ecc4504dd", "type": "electric_scooter", "is_disabled": 0, "lat": 38.93360283333333, "rental_uris": {"ios": "https://dc.lft.to/lastmile_qr_scan", "android": "https://dc.lft.to/lastmile_qr_scan"}, "is_reserved": 0, "fusion_lon": 0.0, "fusion_lat": 0.0, "lon": -77.02644716666667, "name": "f5c13f8d55c54970b11d8a7ecc4504dd"}, {"bike_id": "1ae344ffb57e644b062658c1f75d47b9", "type": "electric_scooter", "is_disabled": 0, "lat": 38.892224166666665, "rental_uris": {"ios": "https://dc.lft.to/lastmile_qr_scan", "android": "https://dc.lft.to/lastmile_qr_scan"}, "is_reserved": 0, "fusion_lon": 0.0, "fusion_lat": 0.0, "lon": -77.0323085, "name": "1ae344ffb57e644b062658c1f75d47b9"}, {"bike_id": "7a712f9e83479acabc62a743bc3fd6c7", "type": "electric_scooter", "is_disabled": 0, "lat": 38.93581016666667, "rental_uris": {"ios": "https://dc.lft.to/lastmile_qr_scan", "android": "https://dc.lft.to/lastmile_qr_scan"}, "is_reserved": 0, "fusion_lon": 0.0, "fusion_lat": 0.0, "lon": -77.03822166666667, "name": "7a712f9e83479acabc62a743bc3fd6c7"}, {"bike_id": "15308c0d3203cada3fbe7bc795d41f5a", "type": "electric_bike", "is_disabled": 0, "lat": 38.98769333333333, "rental_uris": {"ios": "https://dc.lft.to/lastmile_qr_scan", "android": "https://dc.lft.to/lastmile_qr_scan"}, "is_reserved": 0, "fusion_lon": 0.0, "fusion_lat": 0.0, "lon": -77.14060416666666, "name": "15308c0d3203cada3fbe7bc795d41f5a"}, {"bike_id": "d24969a347513d24be57c15de533179e", "type": "electric_bike", "is_disabled": 0, "lat": 38.95177666666667, "rental_uris": {"ios": "https://dc.lft.to/lastmile_qr_scan", "android": "https://dc.lft.to/lastmile_qr_scan"}, "is_reserved": 0, "fusion_lon": 0.0, "fusion_lat": 0.0, "lon": -76.9772975, "name": "d24969a347513d24be57c15de533179e"}, {"bike_id": "595a98d74991235f7eb89c631ae13abc", "type": "electric_scooter", "is_disabled": 0, "lat": 38.92486483333333, "rental_uris": {"ios": "https://dc.lft.to/lastmile_qr_scan", "android": "https://dc.lft.to/lastmile_qr_scan"}, "is_reserved": 0, "fusion_lon": 0.0, "fusion_lat": 0.0, "lon": -77.03176916666666, "name": "595a98d74991235f7eb89c631ae13abc"}, {"bike_id": "4a8ffd65599f0fb344a25b568d1b2a08", "type": "electric_scooter", "is_disabled": 0, "lat": 38.900773666666666, "rental_uris": {"ios": "https://dc.lft.to/lastmile_qr_scan", "android": "https://dc.lft.to/lastmile_qr_scan"}, "is_reserved": 0, "fusion_lon": 0.0, "fusion_lat": 0.0, "lon": -77.0173255, "name": "4a8ffd65599f0fb344a25b568d1b2a08"}, {"bike_id": "24bc05f42a8ebaec3614299ccf44c1c9", "type": "electric_scooter", "is_disabled": 0, "lat": 38.911525166666664, "rental_uris": {"ios": "https://dc.lft.to/lastmile_qr_scan", "android": "https://dc.lft.to/lastmile_qr_scan"}, "is_reserved": 0, "fusion_lon": 0.0, "fusion_lat": 0.0, "lon": -77.02952516666667, "name": "24bc05f42a8ebaec3614299ccf44c1c9"}, {"bike_id": "040ec6f04aa246264c8d92c1b3af0ae2", "type": "electric_bike", "is_disabled": 0, "lat": 38.8315935, "rental_uris": {"ios": "https://dc.lft.to/lastmile_qr_scan", "android": "https://dc.lft.to/lastmile_qr_scan"}, "is_reserved": 0, "fusion_lon": 0.0, "fusion_lat": 0.0, "lon": -76.99547833333334, "name": "040ec6f04aa246264c8d92c1b3af0ae2"}, {"bike_id": "2ab76e59343be8914d92d9041e7c19b6", "type": "electric_scooter", "is_disabled": 0, "lat": 38.900843333333334, "rental_uris": {"ios": "https://dc.lft.to/lastmile_qr_scan", "android": "https://dc.lft.to/lastmile_qr_scan"}, "is_reserved": 0, "fusion_lon": 0.0, "fusion_lat": 0.0, "lon": -77.031065, "name": "2ab76e59343be8914d92d9041e7c19b6"}, {"bike_id": "e78bfd97ee7e22e6d18b35e5ad0ab1e2", "type": "electric_scooter", "is_disabled": 0, "lat": 38.920419333333335, "rental_uris": {"ios": "https://dc.lft.to/lastmile_qr_scan", "android": "https://dc.lft.to/lastmile_qr_scan"}, "is_reserved": 0, "fusion_lon": 0.0, "fusion_lat": 0.0, "lon": -77.034105, "name": "e78bfd97ee7e22e6d18b35e5ad0ab1e2"}, {"bike_id": "3ae3d35226b7cf40b78f698d297e0058", "type": "electric_scooter", "is_disabled": 0, "lat": 38.909682833333335, "rental_uris": {"ios": "https://dc.lft.to/lastmile_qr_scan", "android": "https://dc.lft.to/lastmile_qr_scan"}, "is_reserved": 0, "fusion_lon": 0.0, "fusion_lat": 0.0, "lon": -77.04544016666667, "name": "3ae3d35226b7cf40b78f698d297e0058"}, {"bike_id": "85ca9628d2a4105e53628c618372a8df", "type": "electric_scooter", "is_disabled": 0, "lat": 38.9156465, "rental_uris": {"ios": "https://dc.lft.to/lastmile_qr_scan", "android": "https://dc.lft.to/lastmile_qr_scan"}, "is_reserved": 0, "fusion_lon": 0.0, "fusion_lat": 0.0, "lon": -77.03127, "name": "85ca9628d2a4105e53628c618372a8df"}, {"bike_id": "29be524d664db8ea0584a7252d2ee308", "type": "electric_scooter", "is_disabled": 0, "lat": 38.9050175, "rental_uris": {"ios": "https://dc.lft.to/lastmile_qr_scan", "android": "https://dc.lft.to/lastmile_qr_scan"}, "is_reserved": 0, "fusion_lon": 0.0, "fusion_lat": 0.0, "lon": -77.06883733333333, "name": "29be524d664db8ea0584a7252d2ee308"}, {"bike_id": "de749076718d8a733c1505f3f2f2bea1", "type": "electric_scooter", "is_disabled": 0, "lat": 38.905253333333334, "rental_uris": {"ios": "https://dc.lft.to/lastmile_qr_scan", "android": "https://dc.lft.to/lastmile_qr_scan"}, "is_reserved": 0, "fusion_lon": 0.0, "fusion_lat": 0.0, "lon": -77.06522966666667, "name": "de749076718d8a733c1505f3f2f2bea1"}, {"bike_id": "6ea5caf0b6e2fd47e63c1b5c9a12b66b", "type": "electric_scooter", "is_disabled": 0, "lat": 38.91332, "rental_uris": {"ios": "https://dc.lft.to/lastmile_qr_scan", "android": "https://dc.lft.to/lastmile_qr_scan"}, "is_reserved": 0, "fusion_lon": 0.0, "fusion_lat": 0.0, "lon": -77.045267, "name": "6ea5caf0b6e2fd47e63c1b5c9a12b66b"}, {"bike_id": "771a131aeb582fb6aec83891ef2a1145", "type": "electric_scooter", "is_disabled": 0, "lat": 38.89732566666667, "rental_uris": {"ios": "https://dc.lft.to/lastmile_qr_scan", "android": "https://dc.lft.to/lastmile_qr_scan"}, "is_reserved": 0, "fusion_lon": 0.0, "fusion_lat": 0.0, "lon": -77.02455633333334, "name": "771a131aeb582fb6aec83891ef2a1145"}, {"bike_id": "1db6c187f76955cb9cdd06ffad7f6964", "type": "electric_bike", "is_disabled": 0, "lat": 38.823706333333334, "rental_uris": {"ios": "https://dc.lft.to/lastmile_qr_scan", "android": "https://dc.lft.to/lastmile_qr_scan"}, "is_reserved": 0, "fusion_lon": 0.0, "fusion_lat": 0.0, "lon": -77.00217383333333, "name": "1db6c187f76955cb9cdd06ffad7f6964"}, {"bike_id": "03b9e4222a0884b9cd1cfadc72ba6fae", "type": "electric_bike", "is_disabled": 0, "lat": 38.8594085, "rental_uris": {"ios": "https://dc.lft.to/lastmile_qr_scan", "android": "https://dc.lft.to/lastmile_qr_scan"}, "is_reserved": 0, "fusion_lon": 0.0, "fusion_lat": 0.0, "lon": -77.1182965, "name": "03b9e4222a0884b9cd1cfadc72ba6fae"}, {"bike_id": "331b9c748854b6e0bd7d2fcca6f1ec94", "type": "electric_scooter", "is_disabled": 0, "lat": 38.957097, "rental_uris": {"ios": "https://dc.lft.to/lastmile_qr_scan", "android": "https://dc.lft.to/lastmile_qr_scan"}, "is_reserved": 0, "fusion_lon": 0.0, "fusion_lat": 0.0, "lon": -77.077413, "name": "331b9c748854b6e0bd7d2fcca6f1ec94"}, {"bike_id": "d075a8c4d6fb87c75825b3f0de679251", "type": "electric_bike", "is_disabled": 0, "lat": 38.9082785, "rental_uris": {"ios": "https://dc.lft.to/lastmile_qr_scan", "android": "https://dc.lft.to/lastmile_qr_scan"}, "is_reserved": 0, "fusion_lon": 0.0, "fusion_lat": 0.0, "lon": -76.94158783333333, "name": "d075a8c4d6fb87c75825b3f0de679251"}, {"bike_id": "65a5d3124c35e2125880cae5f5ea69db", "type": "electric_scooter", "is_disabled": 0, "lat": 38.908380666666666, "rental_uris": {"ios": "https://dc.lft.to/lastmile_qr_scan", "android": "https://dc.lft.to/lastmile_qr_scan"}, "is_reserved": 0, "fusion_lon": 0.0, "fusion_lat": 0.0, "lon": -77.02189666666666, "name": "65a5d3124c35e2125880cae5f5ea69db"}, {"bike_id": "97d3a5f327465399ca7a059d7d698b54", "type": "electric_scooter", "is_disabled": 0, "lat": 38.893466, "rental_uris": {"ios": "https://dc.lft.to/lastmile_qr_scan", "android": "https://dc.lft.to/lastmile_qr_scan"}, "is_reserved": 0, "fusion_lon": 0.0, "fusion_lat": 0.0, "lon": -76.9926645, "name": "97d3a5f327465399ca7a059d7d698b54"}, {"bike_id": "77a968c31674aec9e673c5a87604fb0d", "type": "electric_scooter", "is_disabled": 0, "lat": 38.92264866666667, "rental_uris": {"ios": "https://dc.lft.to/lastmile_qr_scan", "android": "https://dc.lft.to/lastmile_qr_scan"}, "is_reserved": 0, "fusion_lon": 0.0, "fusion_lat": 0.0, "lon": -77.03666283333334, "name": "77a968c31674aec9e673c5a87604fb0d"}, {"bike_id": "ad07207244419dc187b7cf2ddaa1e386", "type": "electric_bike", "is_disabled": 0, "lat": 38.8813235, "rental_uris": {"ios": "https://dc.lft.to/lastmile_qr_scan", "android": "https://dc.lft.to/lastmile_qr_scan"}, "is_reserved": 0, "fusion_lon": 0.0, "fusion_lat": 0.0, "lon": -77.09350133333334, "name": "ad07207244419dc187b7cf2ddaa1e386"}, {"bike_id": "5e9f7c23e81c62dec26ccb01efe7d54c", "type": "electric_bike", "is_disabled": 0, "lat": 39.0549585, "rental_uris": {"ios": "https://dc.lft.to/lastmile_qr_scan", "android": "https://dc.lft.to/lastmile_qr_scan"}, "is_reserved": 0, "fusion_lon": 0.0, "fusion_lat": 0.0, "lon": -77.11788, "name": "5e9f7c23e81c62dec26ccb01efe7d54c"}, {"bike_id": "5d6bfd73655b26c33dbffbd8250ec1fd", "type": "electric_bike", "is_disabled": 0, "lat": 39.03738583333333, "rental_uris": {"ios": "https://dc.lft.to/lastmile_qr_scan", "android": "https://dc.lft.to/lastmile_qr_scan"}, "is_reserved": 0, "fusion_lon": 0.0, "fusion_lat": 0.0, "lon": -77.05489766666666, "name": "5d6bfd73655b26c33dbffbd8250ec1fd"}, {"bike_id": "e212a1791dc83eee2eec33a5c79a5fef", "type": "electric_scooter", "is_disabled": 0, "lat": 38.877547666666665, "rental_uris": {"ios": "https://dc.lft.to/lastmile_qr_scan", "android": "https://dc.lft.to/lastmile_qr_scan"}, "is_reserved": 0, "fusion_lon": 0.0, "fusion_lat": 0.0, "lon": -76.99724766666667, "name": "e212a1791dc83eee2eec33a5c79a5fef"}, {"bike_id": "65d6c03b7d6aaee8f7324e4245fdf665", "type": "electric_scooter", "is_disabled": 0, "lat": 38.86832616666667, "rental_uris": {"ios": "https://dc.lft.to/lastmile_qr_scan", "android": "https://dc.lft.to/lastmile_qr_scan"}, "is_reserved": 0, "fusion_lon": 0.0, "fusion_lat": 0.0, "lon": -77.01148433333333, "name": "65d6c03b7d6aaee8f7324e4245fdf665"}, {"bike_id": "34223d7b939c317b7bdd00521c8ac12a", "type": "electric_scooter", "is_disabled": 0, "lat": 38.91694733333333, "rental_uris": {"ios": "https://dc.lft.to/lastmile_qr_scan", "android": "https://dc.lft.to/lastmile_qr_scan"}, "is_reserved": 0, "fusion_lon": 0.0, "fusion_lat": 0.0, "lon": -77.02349333333333, "name": "34223d7b939c317b7bdd00521c8ac12a"}, {"bike_id": "779e73d4493305a14e0cba703fa7c6f0", "type": "electric_scooter", "is_disabled": 0, "lat": 38.909745, "rental_uris": {"ios": "https://dc.lft.to/lastmile_qr_scan", "android": "https://dc.lft.to/lastmile_qr_scan"}, "is_reserved": 0, "fusion_lon": 0.0, "fusion_lat": 0.0, "lon": -77.03233483333334, "name": "779e73d4493305a14e0cba703fa7c6f0"}, {"bike_id": "c0154d5a588197144c79009e24ab2716", "type": "electric_scooter", "is_disabled": 0, "lat": 38.907203333333335, "rental_uris": {"ios": "https://dc.lft.to/lastmile_qr_scan", "android": "https://dc.lft.to/lastmile_qr_scan"}, "is_reserved": 0, "fusion_lon": 0.0, "fusion_lat": 0.0, "lon": -77.0434635, "name": "c0154d5a588197144c79009e24ab2716"}, {"bike_id": "e8202d94438adfcbb46f4323327d63ed", "type": "electric_scooter", "is_disabled": 0, "lat": 38.88428366666667, "rental_uris": {"ios": "https://dc.lft.to/lastmile_qr_scan", "android": "https://dc.lft.to/lastmile_qr_scan"}, "is_reserved": 0, "fusion_lon": 0.0, "fusion_lat": 0.0, "lon": -76.95758383333333, "name": "e8202d94438adfcbb46f4323327d63ed"}, {"bike_id": "0c21327326d6d5cd920b1ecb2370596f", "type": "electric_scooter", "is_disabled": 0, "lat": 38.887355, "rental_uris": {"ios": "https://dc.lft.to/lastmile_qr_scan", "android": "https://dc.lft.to/lastmile_qr_scan"}, "is_reserved": 0, "fusion_lon": 0.0, "fusion_lat": 0.0, "lon": -77.03173716666667, "name": "0c21327326d6d5cd920b1ecb2370596f"}, {"bike_id": "fb670ea5a3209476318f51992d47ab5e", "type": "electric_scooter", "is_disabled": 0, "lat": 38.92275733333334, "rental_uris": {"ios": "https://dc.lft.to/lastmile_qr_scan", "android": "https://dc.lft.to/lastmile_qr_scan"}, "is_reserved": 0, "fusion_lon": 0.0, "fusion_lat": 0.0, "lon": -76.99460266666667, "name": "fb670ea5a3209476318f51992d47ab5e"}, {"bike_id": "ba647168bb5dd2601464397151f0a7c6", "type": "electric_bike", "is_disabled": 0, "lat": 38.9000655, "rental_uris": {"ios": "https://dc.lft.to/lastmile_qr_scan", "android": "https://dc.lft.to/lastmile_qr_scan"}, "is_reserved": 0, "fusion_lon": 0.0, "fusion_lat": 0.0, "lon": -77.075425, "name": "ba647168bb5dd2601464397151f0a7c6"}, {"bike_id": "78a48fbde30bad97c0608fc7043fb717", "type": "electric_scooter", "is_disabled": 0, "lat": 38.89467766666667, "rental_uris": {"ios": "https://dc.lft.to/lastmile_qr_scan", "android": "https://dc.lft.to/lastmile_qr_scan"}, "is_reserved": 0, "fusion_lon": 0.0, "fusion_lat": 0.0, "lon": -77.02798866666667, "name": "78a48fbde30bad97c0608fc7043fb717"}, {"bike_id": "39a4908f537ad8dbcd9f24ac5803103e", "type": "electric_scooter", "is_disabled": 0, "lat": 38.90567466666667, "rental_uris": {"ios": "https://dc.lft.to/lastmile_qr_scan", "android": "https://dc.lft.to/lastmile_qr_scan"}, "is_reserved": 0, "fusion_lon": 0.0, "fusion_lat": 0.0, "lon": -77.00571983333333, "name": "39a4908f537ad8dbcd9f24ac5803103e"}, {"bike_id": "798e70675148eb8fa7ef1e18aadc4de2", "type": "electric_bike", "is_disabled": 0, "lat": 38.80416016666667, "rental_uris": {"ios": "https://dc.lft.to/lastmile_qr_scan", "android": "https://dc.lft.to/lastmile_qr_scan"}, "is_reserved": 0, "fusion_lon": 0.0, "fusion_lat": 0.0, "lon": -77.055519, "name": "798e70675148eb8fa7ef1e18aadc4de2"}, {"bike_id": "7078f329a3efd6e2f7c8407d77f57e18", "type": "electric_scooter", "is_disabled": 0, "lat": 38.917145833333336, "rental_uris": {"ios": "https://dc.lft.to/lastmile_qr_scan", "android": "https://dc.lft.to/lastmile_qr_scan"}, "is_reserved": 0, "fusion_lon": 0.0, "fusion_lat": 0.0, "lon": -77.0348925, "name": "7078f329a3efd6e2f7c8407d77f57e18"}, {"bike_id": "27c60a5d372670d6a42868cea02589e8", "type": "electric_scooter", "is_disabled": 0, "lat": 38.93402783333333, "rental_uris": {"ios": "https://dc.lft.to/lastmile_qr_scan", "android": "https://dc.lft.to/lastmile_qr_scan"}, "is_reserved": 0, "fusion_lon": 0.0, "fusion_lat": 0.0, "lon": -77.032301, "name": "27c60a5d372670d6a42868cea02589e8"}, {"bike_id": "a1ddff5a7be4cdf685c343d11427aef8", "type": "electric_scooter", "is_disabled": 0, "lat": 38.91984166666667, "rental_uris": {"ios": "https://dc.lft.to/lastmile_qr_scan", "android": "https://dc.lft.to/lastmile_qr_scan"}, "is_reserved": 0, "fusion_lon": 0.0, "fusion_lat": 0.0, "lon": -77.01208133333333, "name": "a1ddff5a7be4cdf685c343d11427aef8"}, {"bike_id": "2b389f8041e2724d1f4e68e25daa55b5", "type": "electric_scooter", "is_disabled": 0, "lat": 38.919766, "rental_uris": {"ios": "https://dc.lft.to/lastmile_qr_scan", "android": "https://dc.lft.to/lastmile_qr_scan"}, "is_reserved": 0, "fusion_lon": 0.0, "fusion_lat": 0.0, "lon": -77.04213016666667, "name": "2b389f8041e2724d1f4e68e25daa55b5"}, {"bike_id": "b41bfbe3dafd56e66dae9d6b4a8c53a9", "type": "electric_bike", "is_disabled": 0, "lat": 38.95531533333333, "rental_uris": {"ios": "https://dc.lft.to/lastmile_qr_scan", "android": "https://dc.lft.to/lastmile_qr_scan"}, "is_reserved": 0, "fusion_lon": 0.0, "fusion_lat": 0.0, "lon": -76.968242, "name": "b41bfbe3dafd56e66dae9d6b4a8c53a9"}, {"bike_id": "8ce81ca551ff2cc397cf969a32b68f90", "type": "electric_bike", "is_disabled": 0, "lat": 38.93703216666667, "rental_uris": {"ios": "https://dc.lft.to/lastmile_qr_scan", "android": "https://dc.lft.to/lastmile_qr_scan"}, "is_reserved": 0, "fusion_lon": 0.0, "fusion_lat": 0.0, "lon": -77.02117533333333, "name": "8ce81ca551ff2cc397cf969a32b68f90"}, {"bike_id": "f397500a2c213e2f4bd04d6148be25e9", "type": "electric_bike", "is_disabled": 0, "lat": 38.81170066666667, "rental_uris": {"ios": "https://dc.lft.to/lastmile_qr_scan", "android": "https://dc.lft.to/lastmile_qr_scan"}, "is_reserved": 0, "fusion_lon": 0.0, "fusion_lat": 0.0, "lon": -77.06963816666666, "name": "f397500a2c213e2f4bd04d6148be25e9"}, {"bike_id": "afcccf87642034768afe62b7f5017ead", "type": "electric_scooter", "is_disabled": 0, "lat": 38.90534366666667, "rental_uris": {"ios": "https://dc.lft.to/lastmile_qr_scan", "android": "https://dc.lft.to/lastmile_qr_scan"}, "is_reserved": 0, "fusion_lon": 0.0, "fusion_lat": 0.0, "lon": -77.05016333333333, "name": "afcccf87642034768afe62b7f5017ead"}, {"bike_id": "9f90af2d520a96a201fa7d8a4bdac8f8", "type": "electric_scooter", "is_disabled": 0, "lat": 38.9055415, "rental_uris": {"ios": "https://dc.lft.to/lastmile_qr_scan", "android": "https://dc.lft.to/lastmile_qr_scan"}, "is_reserved": 0, "fusion_lon": 0.0, "fusion_lat": 0.0, "lon": -76.99620666666667, "name": "9f90af2d520a96a201fa7d8a4bdac8f8"}, {"bike_id": "44d829aa6f713e29914e06d7b8d43bec", "type": "electric_scooter", "is_disabled": 0, "lat": 38.90480266666667, "rental_uris": {"ios": "https://dc.lft.to/lastmile_qr_scan", "android": "https://dc.lft.to/lastmile_qr_scan"}, "is_reserved": 0, "fusion_lon": 0.0, "fusion_lat": 0.0, "lon": -77.029607, "name": "44d829aa6f713e29914e06d7b8d43bec"}, {"bike_id": "73af422597e731a2872bca59e5304439", "type": "electric_scooter", "is_disabled": 0, "lat": 38.92004266666667, "rental_uris": {"ios": "https://dc.lft.to/lastmile_qr_scan", "android": "https://dc.lft.to/lastmile_qr_scan"}, "is_reserved": 0, "fusion_lon": 0.0, "fusion_lat": 0.0, "lon": -77.04168183333333, "name": "73af422597e731a2872bca59e5304439"}, {"bike_id": "6b55a5eda6fd5764e97c68fc850adc51", "type": "electric_scooter", "is_disabled": 0, "lat": 38.914091, "rental_uris": {"ios": "https://dc.lft.to/lastmile_qr_scan", "android": "https://dc.lft.to/lastmile_qr_scan"}, "is_reserved": 0, "fusion_lon": 0.0, "fusion_lat": 0.0, "lon": -77.0318625, "name": "6b55a5eda6fd5764e97c68fc850adc51"}, {"bike_id": "b161332d5210e4937335e8b62429b26b", "type": "electric_scooter", "is_disabled": 0, "lat": 38.892209666666666, "rental_uris": {"ios": "https://dc.lft.to/lastmile_qr_scan", "android": "https://dc.lft.to/lastmile_qr_scan"}, "is_reserved": 0, "fusion_lon": 0.0, "fusion_lat": 0.0, "lon": -77.04367716666667, "name": "b161332d5210e4937335e8b62429b26b"}, {"bike_id": "806b6b15af19d05c39ff3017d760723b", "type": "electric_scooter", "is_disabled": 0, "lat": 38.89291933333333, "rental_uris": {"ios": "https://dc.lft.to/lastmile_qr_scan", "android": "https://dc.lft.to/lastmile_qr_scan"}, "is_reserved": 0, "fusion_lon": 0.0, "fusion_lat": 0.0, "lon": -77.04870366666667, "name": "806b6b15af19d05c39ff3017d760723b"}, {"bike_id": "1c340a3d5dce727cbcad32ddf1ec9439", "type": "electric_scooter", "is_disabled": 0, "lat": 38.90647216666667, "rental_uris": {"ios": "https://dc.lft.to/lastmile_qr_scan", "android": "https://dc.lft.to/lastmile_qr_scan"}, "is_reserved": 0, "fusion_lon": 0.0, "fusion_lat": 0.0, "lon": -77.018276, "name": "1c340a3d5dce727cbcad32ddf1ec9439"}, {"bike_id": "abab5e59ed0788232b121c47949b92d4", "type": "electric_scooter", "is_disabled": 0, "lat": 38.89260633333333, "rental_uris": {"ios": "https://dc.lft.to/lastmile_qr_scan", "android": "https://dc.lft.to/lastmile_qr_scan"}, "is_reserved": 0, "fusion_lon": 0.0, "fusion_lat": 0.0, "lon": -76.92566383333333, "name": "abab5e59ed0788232b121c47949b92d4"}, {"bike_id": "b843aca7028585a068c0f344c7ebe379", "type": "electric_scooter", "is_disabled": 0, "lat": 38.908572666666664, "rental_uris": {"ios": "https://dc.lft.to/lastmile_qr_scan", "android": "https://dc.lft.to/lastmile_qr_scan"}, "is_reserved": 0, "fusion_lon": 0.0, "fusion_lat": 0.0, "lon": -77.03014583333334, "name": "b843aca7028585a068c0f344c7ebe379"}, {"bike_id": "07925273a47b6eef932121a759b88345", "type": "electric_scooter", "is_disabled": 0, "lat": 38.86439333333333, "rental_uris": {"ios": "https://dc.lft.to/lastmile_qr_scan", "android": "https://dc.lft.to/lastmile_qr_scan"}, "is_reserved": 0, "fusion_lon": 0.0, "fusion_lat": 0.0, "lon": -76.97991583333334, "name": "07925273a47b6eef932121a759b88345"}, {"bike_id": "1d9466005e23cf4de4b5180748fbb085", "type": "electric_scooter", "is_disabled": 0, "lat": 38.8742905, "rental_uris": {"ios": "https://dc.lft.to/lastmile_qr_scan", "android": "https://dc.lft.to/lastmile_qr_scan"}, "is_reserved": 0, "fusion_lon": 0.0, "fusion_lat": 0.0, "lon": -77.000389, "name": "1d9466005e23cf4de4b5180748fbb085"}, {"bike_id": "f099e544a1fa9c2521e507acdbb1dc11", "type": "electric_scooter", "is_disabled": 0, "lat": 38.95662683333333, "rental_uris": {"ios": "https://dc.lft.to/lastmile_qr_scan", "android": "https://dc.lft.to/lastmile_qr_scan"}, "is_reserved": 0, "fusion_lon": 0.0, "fusion_lat": 0.0, "lon": -77.02402833333333, "name": "f099e544a1fa9c2521e507acdbb1dc11"}, {"bike_id": "a2dcedaa53ab857c1928e4581403d3b5", "type": "electric_scooter", "is_disabled": 0, "lat": 38.90233383333333, "rental_uris": {"ios": "https://dc.lft.to/lastmile_qr_scan", "android": "https://dc.lft.to/lastmile_qr_scan"}, "is_reserved": 0, "fusion_lon": 0.0, "fusion_lat": 0.0, "lon": -77.04159366666667, "name": "a2dcedaa53ab857c1928e4581403d3b5"}, {"bike_id": "a76f147d244fa821f62ef8973585bbd7", "type": "electric_scooter", "is_disabled": 0, "lat": 38.90410933333333, "rental_uris": {"ios": "https://dc.lft.to/lastmile_qr_scan", "android": "https://dc.lft.to/lastmile_qr_scan"}, "is_reserved": 0, "fusion_lon": 0.0, "fusion_lat": 0.0, "lon": -76.97329433333333, "name": "a76f147d244fa821f62ef8973585bbd7"}, {"bike_id": "e1ee46b2de807f0330345e37d4ec2140", "type": "electric_bike", "is_disabled": 0, "lat": 38.917109833333335, "rental_uris": {"ios": "https://dc.lft.to/lastmile_qr_scan", "android": "https://dc.lft.to/lastmile_qr_scan"}, "is_reserved": 0, "fusion_lon": 0.0, "fusion_lat": 0.0, "lon": -77.0350105, "name": "e1ee46b2de807f0330345e37d4ec2140"}, {"bike_id": "e29d7b6c6feed4694adf464f5215347b", "type": "electric_scooter", "is_disabled": 0, "lat": 38.91590016666667, "rental_uris": {"ios": "https://dc.lft.to/lastmile_qr_scan", "android": "https://dc.lft.to/lastmile_qr_scan"}, "is_reserved": 0, "fusion_lon": 0.0, "fusion_lat": 0.0, "lon": -77.00195833333333, "name": "e29d7b6c6feed4694adf464f5215347b"}, {"bike_id": "f06bb10e09364d8e27dd766ec3191b28", "type": "electric_scooter", "is_disabled": 0, "lat": 38.88072866666667, "rental_uris": {"ios": "https://dc.lft.to/lastmile_qr_scan", "android": "https://dc.lft.to/lastmile_qr_scan"}, "is_reserved": 0, "fusion_lon": 0.0, "fusion_lat": 0.0, "lon": -77.02553266666666, "name": "f06bb10e09364d8e27dd766ec3191b28"}, {"bike_id": "e95368d6f385374b76c4c895ab06745a", "type": "electric_scooter", "is_disabled": 0, "lat": 38.8997395, "rental_uris": {"ios": "https://dc.lft.to/lastmile_qr_scan", "android": "https://dc.lft.to/lastmile_qr_scan"}, "is_reserved": 0, "fusion_lon": 0.0, "fusion_lat": 0.0, "lon": -76.983045, "name": "e95368d6f385374b76c4c895ab06745a"}, {"bike_id": "87000e9b5ebb6ee6510ab74c072d8f7b", "type": "electric_scooter", "is_disabled": 0, "lat": 38.89739266666667, "rental_uris": {"ios": "https://dc.lft.to/lastmile_qr_scan", "android": "https://dc.lft.to/lastmile_qr_scan"}, "is_reserved": 0, "fusion_lon": 0.0, "fusion_lat": 0.0, "lon": -76.94730083333333, "name": "87000e9b5ebb6ee6510ab74c072d8f7b"}, {"bike_id": "405c706011dedcbb77c9aa0941558870", "type": "electric_bike", "is_disabled": 0, "lat": 38.858943333333336, "rental_uris": {"ios": "https://dc.lft.to/lastmile_qr_scan", "android": "https://dc.lft.to/lastmile_qr_scan"}, "is_reserved": 0, "fusion_lon": 0.0, "fusion_lat": 0.0, "lon": -77.1186225, "name": "405c706011dedcbb77c9aa0941558870"}, {"bike_id": "d3904f926f18821eedfa32e883c368b8", "type": "electric_scooter", "is_disabled": 0, "lat": 38.904706166666664, "rental_uris": {"ios": "https://dc.lft.to/lastmile_qr_scan", "android": "https://dc.lft.to/lastmile_qr_scan"}, "is_reserved": 0, "fusion_lon": 0.0, "fusion_lat": 0.0, "lon": -77.00891583333333, "name": "d3904f926f18821eedfa32e883c368b8"}, {"bike_id": "2968a1f4e5978d2755d66d9758390318", "type": "electric_scooter", "is_disabled": 0, "lat": 38.94561566666667, "rental_uris": {"ios": "https://dc.lft.to/lastmile_qr_scan", "android": "https://dc.lft.to/lastmile_qr_scan"}, "is_reserved": 0, "fusion_lon": 0.0, "fusion_lat": 0.0, "lon": -77.07121766666667, "name": "2968a1f4e5978d2755d66d9758390318"}, {"bike_id": "eed2606b8eb47be81e03686918936f62", "type": "electric_scooter", "is_disabled": 0, "lat": 38.90844933333333, "rental_uris": {"ios": "https://dc.lft.to/lastmile_qr_scan", "android": "https://dc.lft.to/lastmile_qr_scan"}, "is_reserved": 0, "fusion_lon": 0.0, "fusion_lat": 0.0, "lon": -77.023505, "name": "eed2606b8eb47be81e03686918936f62"}, {"bike_id": "df38895435728597ff2de202402dacaa", "type": "electric_scooter", "is_disabled": 0, "lat": 38.89756416666667, "rental_uris": {"ios": "https://dc.lft.to/lastmile_qr_scan", "android": "https://dc.lft.to/lastmile_qr_scan"}, "is_reserved": 0, "fusion_lon": 0.0, "fusion_lat": 0.0, "lon": -77.04562016666667, "name": "df38895435728597ff2de202402dacaa"}, {"bike_id": "5e8fd194a7c8ba840eb05e85cfc690ae", "type": "electric_scooter", "is_disabled": 0, "lat": 38.8972345, "rental_uris": {"ios": "https://dc.lft.to/lastmile_qr_scan", "android": "https://dc.lft.to/lastmile_qr_scan"}, "is_reserved": 0, "fusion_lon": 0.0, "fusion_lat": 0.0, "lon": -77.0271665, "name": "5e8fd194a7c8ba840eb05e85cfc690ae"}, {"bike_id": "f9f2a4ce9704bc0afde73a981d752fdb", "type": "electric_scooter", "is_disabled": 0, "lat": 38.91983483333333, "rental_uris": {"ios": "https://dc.lft.to/lastmile_qr_scan", "android": "https://dc.lft.to/lastmile_qr_scan"}, "is_reserved": 0, "fusion_lon": 0.0, "fusion_lat": 0.0, "lon": -77.0415785, "name": "f9f2a4ce9704bc0afde73a981d752fdb"}, {"bike_id": "c13200c1e7c99e582f121303af52135a", "type": "electric_scooter", "is_disabled": 0, "lat": 38.918547833333335, "rental_uris": {"ios": "https://dc.lft.to/lastmile_qr_scan", "android": "https://dc.lft.to/lastmile_qr_scan"}, "is_reserved": 0, "fusion_lon": 0.0, "fusion_lat": 0.0, "lon": -76.96545583333334, "name": "c13200c1e7c99e582f121303af52135a"}, {"bike_id": "dc4af8bac3dd5f75419fe27401e9e4f0", "type": "electric_scooter", "is_disabled": 0, "lat": 38.928949, "rental_uris": {"ios": "https://dc.lft.to/lastmile_qr_scan", "android": "https://dc.lft.to/lastmile_qr_scan"}, "is_reserved": 0, "fusion_lon": 0.0, "fusion_lat": 0.0, "lon": -77.03273, "name": "dc4af8bac3dd5f75419fe27401e9e4f0"}, {"bike_id": "626ddf809a78ba1bb3a342afec4bcf81", "type": "electric_scooter", "is_disabled": 0, "lat": 38.9118565, "rental_uris": {"ios": "https://dc.lft.to/lastmile_qr_scan", "android": "https://dc.lft.to/lastmile_qr_scan"}, "is_reserved": 0, "fusion_lon": 0.0, "fusion_lat": 0.0, "lon": -77.0320025, "name": "626ddf809a78ba1bb3a342afec4bcf81"}, {"bike_id": "f2194a7a33eeb54d292125e9ca3d7a5b", "type": "electric_scooter", "is_disabled": 0, "lat": 38.92236883333333, "rental_uris": {"ios": "https://dc.lft.to/lastmile_qr_scan", "android": "https://dc.lft.to/lastmile_qr_scan"}, "is_reserved": 0, "fusion_lon": 0.0, "fusion_lat": 0.0, "lon": -77.04267633333333, "name": "f2194a7a33eeb54d292125e9ca3d7a5b"}, {"bike_id": "50404cb83e4d02325d97c5ecd59a5cb9", "type": "electric_scooter", "is_disabled": 0, "lat": 38.89289683333333, "rental_uris": {"ios": "https://dc.lft.to/lastmile_qr_scan", "android": "https://dc.lft.to/lastmile_qr_scan"}, "is_reserved": 0, "fusion_lon": 0.0, "fusion_lat": 0.0, "lon": -77.04483783333333, "name": "50404cb83e4d02325d97c5ecd59a5cb9"}, {"bike_id": "ef24e9412d00d3b758b068d712a90de8", "type": "electric_scooter", "is_disabled": 0, "lat": 38.933437833333336, "rental_uris": {"ios": "https://dc.lft.to/lastmile_qr_scan", "android": "https://dc.lft.to/lastmile_qr_scan"}, "is_reserved": 0, "fusion_lon": 0.0, "fusion_lat": 0.0, "lon": -77.03989333333334, "name": "ef24e9412d00d3b758b068d712a90de8"}, {"bike_id": "42dad1a25bba54f2d0cffab22a46c3d7", "type": "electric_scooter", "is_disabled": 0, "lat": 38.9429335, "rental_uris": {"ios": "https://dc.lft.to/lastmile_qr_scan", "android": "https://dc.lft.to/lastmile_qr_scan"}, "is_reserved": 0, "fusion_lon": 0.0, "fusion_lat": 0.0, "lon": -77.021738, "name": "42dad1a25bba54f2d0cffab22a46c3d7"}, {"bike_id": "5136b3ec41153a0fe07dbb74e328911f", "type": "electric_scooter", "is_disabled": 0, "lat": 38.900250166666666, "rental_uris": {"ios": "https://dc.lft.to/lastmile_qr_scan", "android": "https://dc.lft.to/lastmile_qr_scan"}, "is_reserved": 0, "fusion_lon": 0.0, "fusion_lat": 0.0, "lon": -77.0018335, "name": "5136b3ec41153a0fe07dbb74e328911f"}, {"bike_id": "3317b1ea9d016cb1db18896e940c9e9a", "type": "electric_scooter", "is_disabled": 0, "lat": 38.89725033333333, "rental_uris": {"ios": "https://dc.lft.to/lastmile_qr_scan", "android": "https://dc.lft.to/lastmile_qr_scan"}, "is_reserved": 0, "fusion_lon": 0.0, "fusion_lat": 0.0, "lon": -77.0246095, "name": "3317b1ea9d016cb1db18896e940c9e9a"}, {"bike_id": "e05d7bc726c8f2946a044f5186a22d05", "type": "electric_scooter", "is_disabled": 0, "lat": 38.90386433333333, "rental_uris": {"ios": "https://dc.lft.to/lastmile_qr_scan", "android": "https://dc.lft.to/lastmile_qr_scan"}, "is_reserved": 0, "fusion_lon": 0.0, "fusion_lat": 0.0, "lon": -77.02478233333333, "name": "e05d7bc726c8f2946a044f5186a22d05"}, {"bike_id": "6e8c6b747e03359562bef3906685e734", "type": "electric_bike", "is_disabled": 0, "lat": 38.796049833333335, "rental_uris": {"ios": "https://dc.lft.to/lastmile_qr_scan", "android": "https://dc.lft.to/lastmile_qr_scan"}, "is_reserved": 0, "fusion_lon": 0.0, "fusion_lat": 0.0, "lon": -76.997444, "name": "6e8c6b747e03359562bef3906685e734"}, {"bike_id": "afafd8cdc6c61d00cb17d28451fc99d1", "type": "electric_scooter", "is_disabled": 0, "lat": 38.90686383333333, "rental_uris": {"ios": "https://dc.lft.to/lastmile_qr_scan", "android": "https://dc.lft.to/lastmile_qr_scan"}, "is_reserved": 0, "fusion_lon": 0.0, "fusion_lat": 0.0, "lon": -77.02698883333333, "name": "afafd8cdc6c61d00cb17d28451fc99d1"}, {"bike_id": "fd2069d88287cc4a688aaf3aef2d5798", "type": "electric_scooter", "is_disabled": 0, "lat": 38.9176945, "rental_uris": {"ios": "https://dc.lft.to/lastmile_qr_scan", "android": "https://dc.lft.to/lastmile_qr_scan"}, "is_reserved": 0, "fusion_lon": 0.0, "fusion_lat": 0.0, "lon": -77.04053633333334, "name": "fd2069d88287cc4a688aaf3aef2d5798"}, {"bike_id": "4df266617465b033b505c059b1f294ee", "type": "electric_scooter", "is_disabled": 0, "lat": 38.90484133333333, "rental_uris": {"ios": "https://dc.lft.to/lastmile_qr_scan", "android": "https://dc.lft.to/lastmile_qr_scan"}, "is_reserved": 0, "fusion_lon": 0.0, "fusion_lat": 0.0, "lon": -77.061074, "name": "4df266617465b033b505c059b1f294ee"}, {"bike_id": "e3e828fed81e195b112df9d27350d314", "type": "electric_scooter", "is_disabled": 0, "lat": 38.923297, "rental_uris": {"ios": "https://dc.lft.to/lastmile_qr_scan", "android": "https://dc.lft.to/lastmile_qr_scan"}, "is_reserved": 0, "fusion_lon": 0.0, "fusion_lat": 0.0, "lon": -77.054206, "name": "e3e828fed81e195b112df9d27350d314"}, {"bike_id": "f4110e6bb1e5d6d75e12f91df1993f72", "type": "electric_scooter", "is_disabled": 0, "lat": 38.887322166666664, "rental_uris": {"ios": "https://dc.lft.to/lastmile_qr_scan", "android": "https://dc.lft.to/lastmile_qr_scan"}, "is_reserved": 0, "fusion_lon": 0.0, "fusion_lat": 0.0, "lon": -77.03176983333333, "name": "f4110e6bb1e5d6d75e12f91df1993f72"}, {"bike_id": "762f2186a4fad5b3c434d1ab7775b2d7", "type": "electric_scooter", "is_disabled": 0, "lat": 38.898422333333336, "rental_uris": {"ios": "https://dc.lft.to/lastmile_qr_scan", "android": "https://dc.lft.to/lastmile_qr_scan"}, "is_reserved": 0, "fusion_lon": 0.0, "fusion_lat": 0.0, "lon": -76.94633816666666, "name": "762f2186a4fad5b3c434d1ab7775b2d7"}, {"bike_id": "764e45f39b8ce3d678846f1c59b48ac4", "type": "electric_scooter", "is_disabled": 0, "lat": 38.976799166666666, "rental_uris": {"ios": "https://dc.lft.to/lastmile_qr_scan", "android": "https://dc.lft.to/lastmile_qr_scan"}, "is_reserved": 0, "fusion_lon": 0.0, "fusion_lat": 0.0, "lon": -77.01661116666666, "name": "764e45f39b8ce3d678846f1c59b48ac4"}, {"bike_id": "6f3e6e25eb779eb4f2aa7d5874c776db", "type": "electric_scooter", "is_disabled": 0, "lat": 38.924560166666666, "rental_uris": {"ios": "https://dc.lft.to/lastmile_qr_scan", "android": "https://dc.lft.to/lastmile_qr_scan"}, "is_reserved": 0, "fusion_lon": 0.0, "fusion_lat": 0.0, "lon": -77.03336883333333, "name": "6f3e6e25eb779eb4f2aa7d5874c776db"}, {"bike_id": "50b89af842f6d370ce18463808932c3d", "type": "electric_scooter", "is_disabled": 0, "lat": 38.88131, "rental_uris": {"ios": "https://dc.lft.to/lastmile_qr_scan", "android": "https://dc.lft.to/lastmile_qr_scan"}, "is_reserved": 0, "fusion_lon": 0.0, "fusion_lat": 0.0, "lon": -77.00070916666667, "name": "50b89af842f6d370ce18463808932c3d"}, {"bike_id": "4e6171c82a8e64b6c737e79666c41c13", "type": "electric_bike", "is_disabled": 0, "lat": 38.81507916666666, "rental_uris": {"ios": "https://dc.lft.to/lastmile_qr_scan", "android": "https://dc.lft.to/lastmile_qr_scan"}, "is_reserved": 0, "fusion_lon": 0.0, "fusion_lat": 0.0, "lon": -77.1266205, "name": "4e6171c82a8e64b6c737e79666c41c13"}, {"bike_id": "9cc0845107100f63edbd2e45b3baa5f3", "type": "electric_scooter", "is_disabled": 0, "lat": 38.9094775, "rental_uris": {"ios": "https://dc.lft.to/lastmile_qr_scan", "android": "https://dc.lft.to/lastmile_qr_scan"}, "is_reserved": 0, "fusion_lon": 0.0, "fusion_lat": 0.0, "lon": -77.055616, "name": "9cc0845107100f63edbd2e45b3baa5f3"}, {"bike_id": "8472f4e89d1e2889cc5c2ba28e02b3fc", "type": "electric_scooter", "is_disabled": 0, "lat": 38.866286333333335, "rental_uris": {"ios": "https://dc.lft.to/lastmile_qr_scan", "android": "https://dc.lft.to/lastmile_qr_scan"}, "is_reserved": 0, "fusion_lon": 0.0, "fusion_lat": 0.0, "lon": -76.98715333333334, "name": "8472f4e89d1e2889cc5c2ba28e02b3fc"}, {"bike_id": "d3e8c95f1f3bc28a12082bd6a6d0afa4", "type": "electric_scooter", "is_disabled": 0, "lat": 38.922920833333336, "rental_uris": {"ios": "https://dc.lft.to/lastmile_qr_scan", "android": "https://dc.lft.to/lastmile_qr_scan"}, "is_reserved": 0, "fusion_lon": 0.0, "fusion_lat": 0.0, "lon": -77.04475766666667, "name": "d3e8c95f1f3bc28a12082bd6a6d0afa4"}, {"bike_id": "acd4d333edd441b5ff75b100eb161ea2", "type": "electric_scooter", "is_disabled": 0, "lat": 38.896472833333334, "rental_uris": {"ios": "https://dc.lft.to/lastmile_qr_scan", "android": "https://dc.lft.to/lastmile_qr_scan"}, "is_reserved": 0, "fusion_lon": 0.0, "fusion_lat": 0.0, "lon": -77.070616, "name": "acd4d333edd441b5ff75b100eb161ea2"}, {"bike_id": "17f8214bf9aac086a58a20d447a24bd2", "type": "electric_scooter", "is_disabled": 0, "lat": 38.9103545, "rental_uris": {"ios": "https://dc.lft.to/lastmile_qr_scan", "android": "https://dc.lft.to/lastmile_qr_scan"}, "is_reserved": 0, "fusion_lon": 0.0, "fusion_lat": 0.0, "lon": -77.03191683333333, "name": "17f8214bf9aac086a58a20d447a24bd2"}, {"bike_id": "7c683ab2fbfddfb0f36502339a67b660", "type": "electric_scooter", "is_disabled": 0, "lat": 38.90686316666667, "rental_uris": {"ios": "https://dc.lft.to/lastmile_qr_scan", "android": "https://dc.lft.to/lastmile_qr_scan"}, "is_reserved": 0, "fusion_lon": 0.0, "fusion_lat": 0.0, "lon": -77.02692566666667, "name": "7c683ab2fbfddfb0f36502339a67b660"}, {"bike_id": "be2050bb142fa69d9644fad9f270a310", "type": "electric_scooter", "is_disabled": 0, "lat": 38.90238183333334, "rental_uris": {"ios": "https://dc.lft.to/lastmile_qr_scan", "android": "https://dc.lft.to/lastmile_qr_scan"}, "is_reserved": 0, "fusion_lon": 0.0, "fusion_lat": 0.0, "lon": -77.03355816666667, "name": "be2050bb142fa69d9644fad9f270a310"}, {"bike_id": "191779b7d806b5ac0a15fb9f18260666", "type": "electric_scooter", "is_disabled": 0, "lat": 38.918538, "rental_uris": {"ios": "https://dc.lft.to/lastmile_qr_scan", "android": "https://dc.lft.to/lastmile_qr_scan"}, "is_reserved": 0, "fusion_lon": 0.0, "fusion_lat": 0.0, "lon": -77.02324266666666, "name": "191779b7d806b5ac0a15fb9f18260666"}, {"bike_id": "2df97844ae7dd76804f1b3361eb58f8e", "type": "electric_scooter", "is_disabled": 0, "lat": 38.91965283333333, "rental_uris": {"ios": "https://dc.lft.to/lastmile_qr_scan", "android": "https://dc.lft.to/lastmile_qr_scan"}, "is_reserved": 0, "fusion_lon": 0.0, "fusion_lat": 0.0, "lon": -77.03960966666666, "name": "2df97844ae7dd76804f1b3361eb58f8e"}, {"bike_id": "00b1c80f30c3b830807d235b134881a1", "type": "electric_bike", "is_disabled": 0, "lat": 38.93129016666666, "rental_uris": {"ios": "https://dc.lft.to/lastmile_qr_scan", "android": "https://dc.lft.to/lastmile_qr_scan"}, "is_reserved": 0, "fusion_lon": 0.0, "fusion_lat": 0.0, "lon": -77.07852983333333, "name": "00b1c80f30c3b830807d235b134881a1"}, {"bike_id": "9ab2764ff22c6f9e94cfc40523edc8d8", "type": "electric_scooter", "is_disabled": 0, "lat": 38.88779666666667, "rental_uris": {"ios": "https://dc.lft.to/lastmile_qr_scan", "android": "https://dc.lft.to/lastmile_qr_scan"}, "is_reserved": 0, "fusion_lon": 0.0, "fusion_lat": 0.0, "lon": -76.95526666666666, "name": "9ab2764ff22c6f9e94cfc40523edc8d8"}, {"bike_id": "2366fe7e399888912b86f31db64d024e", "type": "electric_scooter", "is_disabled": 0, "lat": 38.90799483333333, "rental_uris": {"ios": "https://dc.lft.to/lastmile_qr_scan", "android": "https://dc.lft.to/lastmile_qr_scan"}, "is_reserved": 0, "fusion_lon": 0.0, "fusion_lat": 0.0, "lon": -77.04825816666667, "name": "2366fe7e399888912b86f31db64d024e"}, {"bike_id": "077cdb079a3299540ed30106d1760966", "type": "electric_scooter", "is_disabled": 0, "lat": 38.91561083333333, "rental_uris": {"ios": "https://dc.lft.to/lastmile_qr_scan", "android": "https://dc.lft.to/lastmile_qr_scan"}, "is_reserved": 0, "fusion_lon": 0.0, "fusion_lat": 0.0, "lon": -77.03250283333334, "name": "077cdb079a3299540ed30106d1760966"}, {"bike_id": "eeb5c787b5c2f5a9d91702bbbbf6c110", "type": "electric_scooter", "is_disabled": 0, "lat": 38.90054033333333, "rental_uris": {"ios": "https://dc.lft.to/lastmile_qr_scan", "android": "https://dc.lft.to/lastmile_qr_scan"}, "is_reserved": 0, "fusion_lon": 0.0, "fusion_lat": 0.0, "lon": -77.00070216666667, "name": "eeb5c787b5c2f5a9d91702bbbbf6c110"}, {"bike_id": "90ce3fa739e928af9cf0311dcd113a60", "type": "electric_scooter", "is_disabled": 0, "lat": 38.915333833333335, "rental_uris": {"ios": "https://dc.lft.to/lastmile_qr_scan", "android": "https://dc.lft.to/lastmile_qr_scan"}, "is_reserved": 0, "fusion_lon": 0.0, "fusion_lat": 0.0, "lon": -77.0217665, "name": "90ce3fa739e928af9cf0311dcd113a60"}, {"bike_id": "1bade73bd6615f87d63dff8eac74e127", "type": "electric_scooter", "is_disabled": 0, "lat": 38.94142016666667, "rental_uris": {"ios": "https://dc.lft.to/lastmile_qr_scan", "android": "https://dc.lft.to/lastmile_qr_scan"}, "is_reserved": 0, "fusion_lon": 0.0, "fusion_lat": 0.0, "lon": -77.02325833333333, "name": "1bade73bd6615f87d63dff8eac74e127"}, {"bike_id": "d7a38a57d08dbcd29a218ebcb8beab13", "type": "electric_scooter", "is_disabled": 0, "lat": 38.914364, "rental_uris": {"ios": "https://dc.lft.to/lastmile_qr_scan", "android": "https://dc.lft.to/lastmile_qr_scan"}, "is_reserved": 0, "fusion_lon": 0.0, "fusion_lat": 0.0, "lon": -77.03184216666666, "name": "d7a38a57d08dbcd29a218ebcb8beab13"}, {"bike_id": "0cb074be2f32718d432289a9283977db", "type": "electric_scooter", "is_disabled": 0, "lat": 38.92981416666667, "rental_uris": {"ios": "https://dc.lft.to/lastmile_qr_scan", "android": "https://dc.lft.to/lastmile_qr_scan"}, "is_reserved": 0, "fusion_lon": 0.0, "fusion_lat": 0.0, "lon": -77.01303216666666, "name": "0cb074be2f32718d432289a9283977db"}, {"bike_id": "9225d256975738aacf3018521b263a15", "type": "electric_scooter", "is_disabled": 0, "lat": 38.895341333333334, "rental_uris": {"ios": "https://dc.lft.to/lastmile_qr_scan", "android": "https://dc.lft.to/lastmile_qr_scan"}, "is_reserved": 0, "fusion_lon": 0.0, "fusion_lat": 0.0, "lon": -76.94893966666666, "name": "9225d256975738aacf3018521b263a15"}, {"bike_id": "d60ee768b0e13ebe188daa52a226c247", "type": "electric_scooter", "is_disabled": 0, "lat": 38.904895, "rental_uris": {"ios": "https://dc.lft.to/lastmile_qr_scan", "android": "https://dc.lft.to/lastmile_qr_scan"}, "is_reserved": 0, "fusion_lon": 0.0, "fusion_lat": 0.0, "lon": -77.0294185, "name": "d60ee768b0e13ebe188daa52a226c247"}, {"bike_id": "137ade9422fd6200cb3ce90aad0ca370", "type": "electric_scooter", "is_disabled": 0, "lat": 38.92887416666667, "rental_uris": {"ios": "https://dc.lft.to/lastmile_qr_scan", "android": "https://dc.lft.to/lastmile_qr_scan"}, "is_reserved": 0, "fusion_lon": 0.0, "fusion_lat": 0.0, "lon": -77.02710833333333, "name": "137ade9422fd6200cb3ce90aad0ca370"}, {"bike_id": "7248a5d4fa165da02b4c8f897352b51a", "type": "electric_scooter", "is_disabled": 0, "lat": 38.8973765, "rental_uris": {"ios": "https://dc.lft.to/lastmile_qr_scan", "android": "https://dc.lft.to/lastmile_qr_scan"}, "is_reserved": 0, "fusion_lon": 0.0, "fusion_lat": 0.0, "lon": -76.94726366666667, "name": "7248a5d4fa165da02b4c8f897352b51a"}, {"bike_id": "948f6ef3c50870f15931e56b0aa9b6ad", "type": "electric_scooter", "is_disabled": 0, "lat": 38.90736783333333, "rental_uris": {"ios": "https://dc.lft.to/lastmile_qr_scan", "android": "https://dc.lft.to/lastmile_qr_scan"}, "is_reserved": 0, "fusion_lon": 0.0, "fusion_lat": 0.0, "lon": -77.0297985, "name": "948f6ef3c50870f15931e56b0aa9b6ad"}, {"bike_id": "02483c09b02603f9cd60ec4cec52528f", "type": "electric_scooter", "is_disabled": 0, "lat": 38.9242725, "rental_uris": {"ios": "https://dc.lft.to/lastmile_qr_scan", "android": "https://dc.lft.to/lastmile_qr_scan"}, "is_reserved": 0, "fusion_lon": 0.0, "fusion_lat": 0.0, "lon": -77.01940816666666, "name": "02483c09b02603f9cd60ec4cec52528f"}, {"bike_id": "143d06cc54abba287c62ebf8ee787c7c", "type": "electric_scooter", "is_disabled": 0, "lat": 38.919441666666664, "rental_uris": {"ios": "https://dc.lft.to/lastmile_qr_scan", "android": "https://dc.lft.to/lastmile_qr_scan"}, "is_reserved": 0, "fusion_lon": 0.0, "fusion_lat": 0.0, "lon": -77.02522916666666, "name": "143d06cc54abba287c62ebf8ee787c7c"}, {"bike_id": "375df884ff2e5804212da8af2a83ce72", "type": "electric_scooter", "is_disabled": 0, "lat": 38.91059116666667, "rental_uris": {"ios": "https://dc.lft.to/lastmile_qr_scan", "android": "https://dc.lft.to/lastmile_qr_scan"}, "is_reserved": 0, "fusion_lon": 0.0, "fusion_lat": 0.0, "lon": -77.04109566666666, "name": "375df884ff2e5804212da8af2a83ce72"}, {"bike_id": "1645a95c0991b2a67bf3a9a670cb585d", "type": "electric_scooter", "is_disabled": 0, "lat": 38.91109266666667, "rental_uris": {"ios": "https://dc.lft.to/lastmile_qr_scan", "android": "https://dc.lft.to/lastmile_qr_scan"}, "is_reserved": 0, "fusion_lon": 0.0, "fusion_lat": 0.0, "lon": -77.04215383333333, "name": "1645a95c0991b2a67bf3a9a670cb585d"}, {"bike_id": "5d2fd24c86897042022b9a2cd499356a", "type": "electric_bike", "is_disabled": 0, "lat": 38.800429333333334, "rental_uris": {"ios": "https://dc.lft.to/lastmile_qr_scan", "android": "https://dc.lft.to/lastmile_qr_scan"}, "is_reserved": 0, "fusion_lon": 0.0, "fusion_lat": 0.0, "lon": -77.06325733333334, "name": "5d2fd24c86897042022b9a2cd499356a"}, {"bike_id": "bf9703a2f28720b6ea9600bcab4dd9f9", "type": "electric_scooter", "is_disabled": 0, "lat": 38.915747333333336, "rental_uris": {"ios": "https://dc.lft.to/lastmile_qr_scan", "android": "https://dc.lft.to/lastmile_qr_scan"}, "is_reserved": 0, "fusion_lon": 0.0, "fusion_lat": 0.0, "lon": -77.06746116666666, "name": "bf9703a2f28720b6ea9600bcab4dd9f9"}, {"bike_id": "c3fc46e4f55280b0fc140076aaa15c84", "type": "electric_scooter", "is_disabled": 0, "lat": 38.916401, "rental_uris": {"ios": "https://dc.lft.to/lastmile_qr_scan", "android": "https://dc.lft.to/lastmile_qr_scan"}, "is_reserved": 0, "fusion_lon": 0.0, "fusion_lat": 0.0, "lon": -77.033825, "name": "c3fc46e4f55280b0fc140076aaa15c84"}, {"bike_id": "c205643b8779d815cd2fa07f57a37c89", "type": "electric_scooter", "is_disabled": 0, "lat": 38.865037666666666, "rental_uris": {"ios": "https://dc.lft.to/lastmile_qr_scan", "android": "https://dc.lft.to/lastmile_qr_scan"}, "is_reserved": 0, "fusion_lon": 0.0, "fusion_lat": 0.0, "lon": -76.99002116666666, "name": "c205643b8779d815cd2fa07f57a37c89"}, {"bike_id": "8163ff9cf6535d99e395b9be287035ec", "type": "electric_scooter", "is_disabled": 0, "lat": 38.922616, "rental_uris": {"ios": "https://dc.lft.to/lastmile_qr_scan", "android": "https://dc.lft.to/lastmile_qr_scan"}, "is_reserved": 0, "fusion_lon": 0.0, "fusion_lat": 0.0, "lon": -77.03517916666667, "name": "8163ff9cf6535d99e395b9be287035ec"}, {"bike_id": "30b28f4ce88241302323c572bcb1dc25", "type": "electric_scooter", "is_disabled": 0, "lat": 38.923968333333335, "rental_uris": {"ios": "https://dc.lft.to/lastmile_qr_scan", "android": "https://dc.lft.to/lastmile_qr_scan"}, "is_reserved": 0, "fusion_lon": 0.0, "fusion_lat": 0.0, "lon": -77.0447205, "name": "30b28f4ce88241302323c572bcb1dc25"}, {"bike_id": "e05ed5aa455437e4fdefaea1b42f7752", "type": "electric_scooter", "is_disabled": 0, "lat": 38.92883466666667, "rental_uris": {"ios": "https://dc.lft.to/lastmile_qr_scan", "android": "https://dc.lft.to/lastmile_qr_scan"}, "is_reserved": 0, "fusion_lon": 0.0, "fusion_lat": 0.0, "lon": -77.03359533333334, "name": "e05ed5aa455437e4fdefaea1b42f7752"}, {"bike_id": "3c2a7e608aedc00c508d5b8e2238a371", "type": "electric_scooter", "is_disabled": 0, "lat": 38.90566833333333, "rental_uris": {"ios": "https://dc.lft.to/lastmile_qr_scan", "android": "https://dc.lft.to/lastmile_qr_scan"}, "is_reserved": 0, "fusion_lon": 0.0, "fusion_lat": 0.0, "lon": -77.02187216666667, "name": "3c2a7e608aedc00c508d5b8e2238a371"}, {"bike_id": "bd33033f8c3c2c0abdc32e29fd0211ce", "type": "electric_scooter", "is_disabled": 0, "lat": 38.88858316666666, "rental_uris": {"ios": "https://dc.lft.to/lastmile_qr_scan", "android": "https://dc.lft.to/lastmile_qr_scan"}, "is_reserved": 0, "fusion_lon": 0.0, "fusion_lat": 0.0, "lon": -77.00051016666667, "name": "bd33033f8c3c2c0abdc32e29fd0211ce"}, {"bike_id": "2c5696f06c49e64e9b3e5c76e6ed69bc", "type": "electric_scooter", "is_disabled": 0, "lat": 38.892168, "rental_uris": {"ios": "https://dc.lft.to/lastmile_qr_scan", "android": "https://dc.lft.to/lastmile_qr_scan"}, "is_reserved": 0, "fusion_lon": 0.0, "fusion_lat": 0.0, "lon": -76.99933783333333, "name": "2c5696f06c49e64e9b3e5c76e6ed69bc"}, {"bike_id": "5526d75d42f2f65f618baef2621ecadd", "type": "electric_scooter", "is_disabled": 0, "lat": 38.88061, "rental_uris": {"ios": "https://dc.lft.to/lastmile_qr_scan", "android": "https://dc.lft.to/lastmile_qr_scan"}, "is_reserved": 0, "fusion_lon": 0.0, "fusion_lat": 0.0, "lon": -76.93209716666667, "name": "5526d75d42f2f65f618baef2621ecadd"}, {"bike_id": "79120cb6bf786785c4052f619687cf12", "type": "electric_scooter", "is_disabled": 0, "lat": 38.89223666666667, "rental_uris": {"ios": "https://dc.lft.to/lastmile_qr_scan", "android": "https://dc.lft.to/lastmile_qr_scan"}, "is_reserved": 0, "fusion_lon": 0.0, "fusion_lat": 0.0, "lon": -77.03979466666667, "name": "79120cb6bf786785c4052f619687cf12"}, {"bike_id": "a7a39cd24d4682293656c2c13ffb6387", "type": "electric_scooter", "is_disabled": 0, "lat": 38.860299166666664, "rental_uris": {"ios": "https://dc.lft.to/lastmile_qr_scan", "android": "https://dc.lft.to/lastmile_qr_scan"}, "is_reserved": 0, "fusion_lon": 0.0, "fusion_lat": 0.0, "lon": -76.99684633333334, "name": "a7a39cd24d4682293656c2c13ffb6387"}, {"bike_id": "4cef9fea79f144457e4caf6367ec45fa", "type": "electric_scooter", "is_disabled": 0, "lat": 38.920669833333335, "rental_uris": {"ios": "https://dc.lft.to/lastmile_qr_scan", "android": "https://dc.lft.to/lastmile_qr_scan"}, "is_reserved": 0, "fusion_lon": 0.0, "fusion_lat": 0.0, "lon": -77.03459766666667, "name": "4cef9fea79f144457e4caf6367ec45fa"}, {"bike_id": "c770af70810a541e5dc9f0836e7d3ff7", "type": "electric_scooter", "is_disabled": 0, "lat": 38.918693833333336, "rental_uris": {"ios": "https://dc.lft.to/lastmile_qr_scan", "android": "https://dc.lft.to/lastmile_qr_scan"}, "is_reserved": 0, "fusion_lon": 0.0, "fusion_lat": 0.0, "lon": -77.04756016666667, "name": "c770af70810a541e5dc9f0836e7d3ff7"}, {"bike_id": "d9841ee90a6f5eaaba314e25c1a44e61", "type": "electric_bike", "is_disabled": 0, "lat": 38.879873833333335, "rental_uris": {"ios": "https://dc.lft.to/lastmile_qr_scan", "android": "https://dc.lft.to/lastmile_qr_scan"}, "is_reserved": 0, "fusion_lon": 0.0, "fusion_lat": 0.0, "lon": -76.91597883333333, "name": "d9841ee90a6f5eaaba314e25c1a44e61"}, {"bike_id": "a4b6756efe4729bf10361cddbe4544be", "type": "electric_scooter", "is_disabled": 0, "lat": 38.892217333333335, "rental_uris": {"ios": "https://dc.lft.to/lastmile_qr_scan", "android": "https://dc.lft.to/lastmile_qr_scan"}, "is_reserved": 0, "fusion_lon": 0.0, "fusion_lat": 0.0, "lon": -77.04311233333334, "name": "a4b6756efe4729bf10361cddbe4544be"}, {"bike_id": "c0febec110c960a6f1c3568d7d43e98c", "type": "electric_scooter", "is_disabled": 0, "lat": 38.9206755, "rental_uris": {"ios": "https://dc.lft.to/lastmile_qr_scan", "android": "https://dc.lft.to/lastmile_qr_scan"}, "is_reserved": 0, "fusion_lon": 0.0, "fusion_lat": 0.0, "lon": -77.03147233333334, "name": "c0febec110c960a6f1c3568d7d43e98c"}, {"bike_id": "bb3b3b709764ecf8b9c8c04fd3c70ff8", "type": "electric_scooter", "is_disabled": 0, "lat": 38.92152316666667, "rental_uris": {"ios": "https://dc.lft.to/lastmile_qr_scan", "android": "https://dc.lft.to/lastmile_qr_scan"}, "is_reserved": 0, "fusion_lon": 0.0, "fusion_lat": 0.0, "lon": -77.03864183333333, "name": "bb3b3b709764ecf8b9c8c04fd3c70ff8"}, {"bike_id": "b17f46b4e5d3243540a1b5ae84bae846", "type": "electric_scooter", "is_disabled": 0, "lat": 38.902409, "rental_uris": {"ios": "https://dc.lft.to/lastmile_qr_scan", "android": "https://dc.lft.to/lastmile_qr_scan"}, "is_reserved": 0, "fusion_lon": 0.0, "fusion_lat": 0.0, "lon": -77.00191883333333, "name": "b17f46b4e5d3243540a1b5ae84bae846"}, {"bike_id": "a2f1ce270fa6fd370375bbb6a01ffbd8", "type": "electric_scooter", "is_disabled": 0, "lat": 38.93149983333333, "rental_uris": {"ios": "https://dc.lft.to/lastmile_qr_scan", "android": "https://dc.lft.to/lastmile_qr_scan"}, "is_reserved": 0, "fusion_lon": 0.0, "fusion_lat": 0.0, "lon": -77.03355233333333, "name": "a2f1ce270fa6fd370375bbb6a01ffbd8"}, {"bike_id": "bc3f29e754431e817856431cdd1da341", "type": "electric_bike", "is_disabled": 0, "lat": 38.88248683333333, "rental_uris": {"ios": "https://dc.lft.to/lastmile_qr_scan", "android": "https://dc.lft.to/lastmile_qr_scan"}, "is_reserved": 0, "fusion_lon": 0.0, "fusion_lat": 0.0, "lon": -76.9625825, "name": "bc3f29e754431e817856431cdd1da341"}, {"bike_id": "38ddc5ea02af8d81d041343f15246a2e", "type": "electric_bike", "is_disabled": 0, "lat": 38.932304, "rental_uris": {"ios": "https://dc.lft.to/lastmile_qr_scan", "android": "https://dc.lft.to/lastmile_qr_scan"}, "is_reserved": 0, "fusion_lon": 0.0, "fusion_lat": 0.0, "lon": -77.1812315, "name": "38ddc5ea02af8d81d041343f15246a2e"}, {"bike_id": "b6675776d4c0eb301e1c54a69effcfa2", "type": "electric_scooter", "is_disabled": 0, "lat": 38.92977883333333, "rental_uris": {"ios": "https://dc.lft.to/lastmile_qr_scan", "android": "https://dc.lft.to/lastmile_qr_scan"}, "is_reserved": 0, "fusion_lon": 0.0, "fusion_lat": 0.0, "lon": -77.043753, "name": "b6675776d4c0eb301e1c54a69effcfa2"}, {"bike_id": "8cfd07fe0ca655fd579a89c285744f7e", "type": "electric_scooter", "is_disabled": 0, "lat": 38.916296833333334, "rental_uris": {"ios": "https://dc.lft.to/lastmile_qr_scan", "android": "https://dc.lft.to/lastmile_qr_scan"}, "is_reserved": 0, "fusion_lon": 0.0, "fusion_lat": 0.0, "lon": -77.04880666666666, "name": "8cfd07fe0ca655fd579a89c285744f7e"}, {"bike_id": "a03c2432305d6f2fff1f136821e62cfd", "type": "electric_scooter", "is_disabled": 0, "lat": 38.91079783333333, "rental_uris": {"ios": "https://dc.lft.to/lastmile_qr_scan", "android": "https://dc.lft.to/lastmile_qr_scan"}, "is_reserved": 0, "fusion_lon": 0.0, "fusion_lat": 0.0, "lon": -77.037256, "name": "a03c2432305d6f2fff1f136821e62cfd"}, {"bike_id": "8b83e5d96dc24f1effa5e78fc44756c0", "type": "electric_scooter", "is_disabled": 0, "lat": 38.9169745, "rental_uris": {"ios": "https://dc.lft.to/lastmile_qr_scan", "android": "https://dc.lft.to/lastmile_qr_scan"}, "is_reserved": 0, "fusion_lon": 0.0, "fusion_lat": 0.0, "lon": -77.03744, "name": "8b83e5d96dc24f1effa5e78fc44756c0"}, {"bike_id": "a412ce64bef18280353eef12e3f17200", "type": "electric_scooter", "is_disabled": 0, "lat": 38.934651, "rental_uris": {"ios": "https://dc.lft.to/lastmile_qr_scan", "android": "https://dc.lft.to/lastmile_qr_scan"}, "is_reserved": 0, "fusion_lon": 0.0, "fusion_lat": 0.0, "lon": -77.0279265, "name": "a412ce64bef18280353eef12e3f17200"}, {"bike_id": "b90b0c65458ededf2d0cffa7d344e007", "type": "electric_scooter", "is_disabled": 0, "lat": 38.91273316666667, "rental_uris": {"ios": "https://dc.lft.to/lastmile_qr_scan", "android": "https://dc.lft.to/lastmile_qr_scan"}, "is_reserved": 0, "fusion_lon": 0.0, "fusion_lat": 0.0, "lon": -76.97605766666666, "name": "b90b0c65458ededf2d0cffa7d344e007"}, {"bike_id": "86c340acc04c227eb4ff4515e86190f6", "type": "electric_scooter", "is_disabled": 0, "lat": 38.908525833333336, "rental_uris": {"ios": "https://dc.lft.to/lastmile_qr_scan", "android": "https://dc.lft.to/lastmile_qr_scan"}, "is_reserved": 0, "fusion_lon": 0.0, "fusion_lat": 0.0, "lon": -77.05490166666667, "name": "86c340acc04c227eb4ff4515e86190f6"}, {"bike_id": "c6a2d1ca4f8c499d7dbf4c87f88f4f96", "type": "electric_scooter", "is_disabled": 0, "lat": 38.90467, "rental_uris": {"ios": "https://dc.lft.to/lastmile_qr_scan", "android": "https://dc.lft.to/lastmile_qr_scan"}, "is_reserved": 0, "fusion_lon": 0.0, "fusion_lat": 0.0, "lon": -76.97606866666666, "name": "c6a2d1ca4f8c499d7dbf4c87f88f4f96"}, {"bike_id": "b6bfa151f1bf94da154bfe3d35509ce5", "type": "electric_scooter", "is_disabled": 0, "lat": 38.906847666666664, "rental_uris": {"ios": "https://dc.lft.to/lastmile_qr_scan", "android": "https://dc.lft.to/lastmile_qr_scan"}, "is_reserved": 0, "fusion_lon": 0.0, "fusion_lat": 0.0, "lon": -76.9800215, "name": "b6bfa151f1bf94da154bfe3d35509ce5"}, {"bike_id": "e1675559339b7edb5cec9eb66c4392d3", "type": "electric_scooter", "is_disabled": 0, "lat": 38.921579666666666, "rental_uris": {"ios": "https://dc.lft.to/lastmile_qr_scan", "android": "https://dc.lft.to/lastmile_qr_scan"}, "is_reserved": 0, "fusion_lon": 0.0, "fusion_lat": 0.0, "lon": -77.03510016666667, "name": "e1675559339b7edb5cec9eb66c4392d3"}, {"bike_id": "673f21ab1e4f8f21a82bd97bad8ce4d7", "type": "electric_scooter", "is_disabled": 0, "lat": 38.91666716666667, "rental_uris": {"ios": "https://dc.lft.to/lastmile_qr_scan", "android": "https://dc.lft.to/lastmile_qr_scan"}, "is_reserved": 0, "fusion_lon": 0.0, "fusion_lat": 0.0, "lon": -77.04370133333333, "name": "673f21ab1e4f8f21a82bd97bad8ce4d7"}, {"bike_id": "c88c8e88967c1579d6c002518318c3b7", "type": "electric_scooter", "is_disabled": 0, "lat": 38.94856683333333, "rental_uris": {"ios": "https://dc.lft.to/lastmile_qr_scan", "android": "https://dc.lft.to/lastmile_qr_scan"}, "is_reserved": 0, "fusion_lon": 0.0, "fusion_lat": 0.0, "lon": -77.08016066666667, "name": "c88c8e88967c1579d6c002518318c3b7"}, {"bike_id": "7b86fabcfc41dbac8bfaa08cc7507e8c", "type": "electric_scooter", "is_disabled": 0, "lat": 38.92858366666667, "rental_uris": {"ios": "https://dc.lft.to/lastmile_qr_scan", "android": "https://dc.lft.to/lastmile_qr_scan"}, "is_reserved": 0, "fusion_lon": 0.0, "fusion_lat": 0.0, "lon": -77.032911, "name": "7b86fabcfc41dbac8bfaa08cc7507e8c"}, {"bike_id": "f8937f1b9d15d73c7b60c27dc2328f9d", "type": "electric_scooter", "is_disabled": 0, "lat": 38.90691966666667, "rental_uris": {"ios": "https://dc.lft.to/lastmile_qr_scan", "android": "https://dc.lft.to/lastmile_qr_scan"}, "is_reserved": 0, "fusion_lon": 0.0, "fusion_lat": 0.0, "lon": -77.05319016666667, "name": "f8937f1b9d15d73c7b60c27dc2328f9d"}, {"bike_id": "d67307dfe362739dd153c8ee1eec829d", "type": "electric_scooter", "is_disabled": 0, "lat": 38.928385166666665, "rental_uris": {"ios": "https://dc.lft.to/lastmile_qr_scan", "android": "https://dc.lft.to/lastmile_qr_scan"}, "is_reserved": 0, "fusion_lon": 0.0, "fusion_lat": 0.0, "lon": -77.0329385, "name": "d67307dfe362739dd153c8ee1eec829d"}, {"bike_id": "24db8321e3cbfd7a4127cd66299d4418", "type": "electric_scooter", "is_disabled": 0, "lat": 38.9091095, "rental_uris": {"ios": "https://dc.lft.to/lastmile_qr_scan", "android": "https://dc.lft.to/lastmile_qr_scan"}, "is_reserved": 0, "fusion_lon": 0.0, "fusion_lat": 0.0, "lon": -77.0421065, "name": "24db8321e3cbfd7a4127cd66299d4418"}, {"bike_id": "5734e8efc87f9a06e89724210551b1a0", "type": "electric_scooter", "is_disabled": 0, "lat": 38.910193166666666, "rental_uris": {"ios": "https://dc.lft.to/lastmile_qr_scan", "android": "https://dc.lft.to/lastmile_qr_scan"}, "is_reserved": 0, "fusion_lon": 0.0, "fusion_lat": 0.0, "lon": -77.02817683333333, "name": "5734e8efc87f9a06e89724210551b1a0"}, {"bike_id": "a70765df2bd69316f80792ab0820e6d6", "type": "electric_scooter", "is_disabled": 0, "lat": 38.91715583333333, "rental_uris": {"ios": "https://dc.lft.to/lastmile_qr_scan", "android": "https://dc.lft.to/lastmile_qr_scan"}, "is_reserved": 0, "fusion_lon": 0.0, "fusion_lat": 0.0, "lon": -77.03167883333333, "name": "a70765df2bd69316f80792ab0820e6d6"}, {"bike_id": "07f8b4902f024966e240b9a9f07681c7", "type": "electric_scooter", "is_disabled": 0, "lat": 38.90554616666667, "rental_uris": {"ios": "https://dc.lft.to/lastmile_qr_scan", "android": "https://dc.lft.to/lastmile_qr_scan"}, "is_reserved": 0, "fusion_lon": 0.0, "fusion_lat": 0.0, "lon": -77.04334033333333, "name": "07f8b4902f024966e240b9a9f07681c7"}, {"bike_id": "72ef6d15b3bca8eee8afdc533e7c097f", "type": "electric_scooter", "is_disabled": 0, "lat": 38.886562166666664, "rental_uris": {"ios": "https://dc.lft.to/lastmile_qr_scan", "android": "https://dc.lft.to/lastmile_qr_scan"}, "is_reserved": 0, "fusion_lon": 0.0, "fusion_lat": 0.0, "lon": -77.028306, "name": "72ef6d15b3bca8eee8afdc533e7c097f"}, {"bike_id": "cdee561a9ddd5d397b70dde1178d7b20", "type": "electric_scooter", "is_disabled": 0, "lat": 38.89225166666667, "rental_uris": {"ios": "https://dc.lft.to/lastmile_qr_scan", "android": "https://dc.lft.to/lastmile_qr_scan"}, "is_reserved": 0, "fusion_lon": 0.0, "fusion_lat": 0.0, "lon": -77.0397745, "name": "cdee561a9ddd5d397b70dde1178d7b20"}, {"bike_id": "f6e1cd9406d959201fc9a0a9bf2a0e46", "type": "electric_scooter", "is_disabled": 0, "lat": 38.90261666666667, "rental_uris": {"ios": "https://dc.lft.to/lastmile_qr_scan", "android": "https://dc.lft.to/lastmile_qr_scan"}, "is_reserved": 0, "fusion_lon": 0.0, "fusion_lat": 0.0, "lon": -77.003474, "name": "f6e1cd9406d959201fc9a0a9bf2a0e46"}, {"bike_id": "0c0d43dd0ea80c735e1366e6eb53432e", "type": "electric_scooter", "is_disabled": 0, "lat": 38.98694883333334, "rental_uris": {"ios": "https://dc.lft.to/lastmile_qr_scan", "android": "https://dc.lft.to/lastmile_qr_scan"}, "is_reserved": 0, "fusion_lon": 0.0, "fusion_lat": 0.0, "lon": -77.02978083333333, "name": "0c0d43dd0ea80c735e1366e6eb53432e"}, {"bike_id": "0ba242e27b7207a5005da92c4f945b91", "type": "electric_scooter", "is_disabled": 0, "lat": 38.91842716666667, "rental_uris": {"ios": "https://dc.lft.to/lastmile_qr_scan", "android": "https://dc.lft.to/lastmile_qr_scan"}, "is_reserved": 0, "fusion_lon": 0.0, "fusion_lat": 0.0, "lon": -76.96551083333334, "name": "0ba242e27b7207a5005da92c4f945b91"}, {"bike_id": "700fe87564c7ba5f3d0d5599264846f6", "type": "electric_scooter", "is_disabled": 0, "lat": 38.917742833333335, "rental_uris": {"ios": "https://dc.lft.to/lastmile_qr_scan", "android": "https://dc.lft.to/lastmile_qr_scan"}, "is_reserved": 0, "fusion_lon": 0.0, "fusion_lat": 0.0, "lon": -77.02391883333334, "name": "700fe87564c7ba5f3d0d5599264846f6"}, {"bike_id": "cead9fb6c26c90ab25945805995a211c", "type": "electric_scooter", "is_disabled": 0, "lat": 38.887266333333336, "rental_uris": {"ios": "https://dc.lft.to/lastmile_qr_scan", "android": "https://dc.lft.to/lastmile_qr_scan"}, "is_reserved": 0, "fusion_lon": 0.0, "fusion_lat": 0.0, "lon": -77.02207133333333, "name": "cead9fb6c26c90ab25945805995a211c"}, {"bike_id": "58f653c8f95ddf76f27d39d0918134d9", "type": "electric_scooter", "is_disabled": 0, "lat": 38.901577, "rental_uris": {"ios": "https://dc.lft.to/lastmile_qr_scan", "android": "https://dc.lft.to/lastmile_qr_scan"}, "is_reserved": 0, "fusion_lon": 0.0, "fusion_lat": 0.0, "lon": -77.01628216666667, "name": "58f653c8f95ddf76f27d39d0918134d9"}, {"bike_id": "d0c37d85c36bd0e342b91e3943fdfd57", "type": "electric_scooter", "is_disabled": 0, "lat": 38.92876716666667, "rental_uris": {"ios": "https://dc.lft.to/lastmile_qr_scan", "android": "https://dc.lft.to/lastmile_qr_scan"}, "is_reserved": 0, "fusion_lon": 0.0, "fusion_lat": 0.0, "lon": -77.03443483333334, "name": "d0c37d85c36bd0e342b91e3943fdfd57"}, {"bike_id": "dcc867776cbbcf9938c3fb50c08f057b", "type": "electric_scooter", "is_disabled": 0, "lat": 38.931945666666664, "rental_uris": {"ios": "https://dc.lft.to/lastmile_qr_scan", "android": "https://dc.lft.to/lastmile_qr_scan"}, "is_reserved": 0, "fusion_lon": 0.0, "fusion_lat": 0.0, "lon": -77.02019383333334, "name": "dcc867776cbbcf9938c3fb50c08f057b"}, {"bike_id": "62fb784e94b49e8fab7285268984b21e", "type": "electric_scooter", "is_disabled": 0, "lat": 38.86716033333333, "rental_uris": {"ios": "https://dc.lft.to/lastmile_qr_scan", "android": "https://dc.lft.to/lastmile_qr_scan"}, "is_reserved": 0, "fusion_lon": 0.0, "fusion_lat": 0.0, "lon": -77.01012366666667, "name": "62fb784e94b49e8fab7285268984b21e"}, {"bike_id": "2b067eb499f7a20c61bac0e3442b0a06", "type": "electric_scooter", "is_disabled": 0, "lat": 38.92441683333333, "rental_uris": {"ios": "https://dc.lft.to/lastmile_qr_scan", "android": "https://dc.lft.to/lastmile_qr_scan"}, "is_reserved": 0, "fusion_lon": 0.0, "fusion_lat": 0.0, "lon": -77.04027766666667, "name": "2b067eb499f7a20c61bac0e3442b0a06"}, {"bike_id": "0ee0ec4c82cc03932d97b70295c193fb", "type": "electric_scooter", "is_disabled": 0, "lat": 38.91636233333333, "rental_uris": {"ios": "https://dc.lft.to/lastmile_qr_scan", "android": "https://dc.lft.to/lastmile_qr_scan"}, "is_reserved": 0, "fusion_lon": 0.0, "fusion_lat": 0.0, "lon": -77.03960816666667, "name": "0ee0ec4c82cc03932d97b70295c193fb"}, {"bike_id": "6d7e519f088768c807530e583c454d3e", "type": "electric_scooter", "is_disabled": 0, "lat": 38.90999016666667, "rental_uris": {"ios": "https://dc.lft.to/lastmile_qr_scan", "android": "https://dc.lft.to/lastmile_qr_scan"}, "is_reserved": 0, "fusion_lon": 0.0, "fusion_lat": 0.0, "lon": -77.04008383333333, "name": "6d7e519f088768c807530e583c454d3e"}, {"bike_id": "f8872d15843e36a2106dd6982b3b5f19", "type": "electric_scooter", "is_disabled": 0, "lat": 38.923441333333336, "rental_uris": {"ios": "https://dc.lft.to/lastmile_qr_scan", "android": "https://dc.lft.to/lastmile_qr_scan"}, "is_reserved": 0, "fusion_lon": 0.0, "fusion_lat": 0.0, "lon": -77.05243266666666, "name": "f8872d15843e36a2106dd6982b3b5f19"}, {"bike_id": "c7bf5d05b6796786a3505ce168f716f0", "type": "electric_scooter", "is_disabled": 0, "lat": 38.92121133333333, "rental_uris": {"ios": "https://dc.lft.to/lastmile_qr_scan", "android": "https://dc.lft.to/lastmile_qr_scan"}, "is_reserved": 0, "fusion_lon": 0.0, "fusion_lat": 0.0, "lon": -77.0121065, "name": "c7bf5d05b6796786a3505ce168f716f0"}, {"bike_id": "ee9ed8e4634e492d5f46360b662237f6", "type": "electric_scooter", "is_disabled": 0, "lat": 38.875076, "rental_uris": {"ios": "https://dc.lft.to/lastmile_qr_scan", "android": "https://dc.lft.to/lastmile_qr_scan"}, "is_reserved": 0, "fusion_lon": 0.0, "fusion_lat": 0.0, "lon": -77.00097416666667, "name": "ee9ed8e4634e492d5f46360b662237f6"}, {"bike_id": "b28909413ff885f75b399094e65e2b78", "type": "electric_scooter", "is_disabled": 0, "lat": 38.9155815, "rental_uris": {"ios": "https://dc.lft.to/lastmile_qr_scan", "android": "https://dc.lft.to/lastmile_qr_scan"}, "is_reserved": 0, "fusion_lon": 0.0, "fusion_lat": 0.0, "lon": -77.02567783333333, "name": "b28909413ff885f75b399094e65e2b78"}, {"bike_id": "9eae9e3f28975932cf8a2b16f3ffb165", "type": "electric_bike", "is_disabled": 0, "lat": 38.85359566666666, "rental_uris": {"ios": "https://dc.lft.to/lastmile_qr_scan", "android": "https://dc.lft.to/lastmile_qr_scan"}, "is_reserved": 0, "fusion_lon": 0.0, "fusion_lat": 0.0, "lon": -77.08687833333333, "name": "9eae9e3f28975932cf8a2b16f3ffb165"}, {"bike_id": "28d3c7a600c29f70ac578ce8547de30b", "type": "electric_scooter", "is_disabled": 0, "lat": 38.92159083333333, "rental_uris": {"ios": "https://dc.lft.to/lastmile_qr_scan", "android": "https://dc.lft.to/lastmile_qr_scan"}, "is_reserved": 0, "fusion_lon": 0.0, "fusion_lat": 0.0, "lon": -77.03516533333334, "name": "28d3c7a600c29f70ac578ce8547de30b"}, {"bike_id": "abdcdbc7ba326b978fc89202ddab5870", "type": "electric_scooter", "is_disabled": 0, "lat": 38.95733333333333, "rental_uris": {"ios": "https://dc.lft.to/lastmile_qr_scan", "android": "https://dc.lft.to/lastmile_qr_scan"}, "is_reserved": 0, "fusion_lon": 0.0, "fusion_lat": 0.0, "lon": -77.02799266666666, "name": "abdcdbc7ba326b978fc89202ddab5870"}, {"bike_id": "62641aa761f639d023bc080761473357", "type": "electric_scooter", "is_disabled": 0, "lat": 38.914983166666666, "rental_uris": {"ios": "https://dc.lft.to/lastmile_qr_scan", "android": "https://dc.lft.to/lastmile_qr_scan"}, "is_reserved": 0, "fusion_lon": 0.0, "fusion_lat": 0.0, "lon": -77.00286166666666, "name": "62641aa761f639d023bc080761473357"}, {"bike_id": "1251bbbe00282e7e60443025d4c9bb8f", "type": "electric_scooter", "is_disabled": 0, "lat": 38.86506333333333, "rental_uris": {"ios": "https://dc.lft.to/lastmile_qr_scan", "android": "https://dc.lft.to/lastmile_qr_scan"}, "is_reserved": 0, "fusion_lon": 0.0, "fusion_lat": 0.0, "lon": -76.99001666666666, "name": "1251bbbe00282e7e60443025d4c9bb8f"}, {"bike_id": "e81095e8851b4b7cf7ac1816470217a4", "type": "electric_scooter", "is_disabled": 0, "lat": 38.90412216666667, "rental_uris": {"ios": "https://dc.lft.to/lastmile_qr_scan", "android": "https://dc.lft.to/lastmile_qr_scan"}, "is_reserved": 0, "fusion_lon": 0.0, "fusion_lat": 0.0, "lon": -77.0240745, "name": "e81095e8851b4b7cf7ac1816470217a4"}, {"bike_id": "8d9a52b4cf4147efe291f265b42e29f6", "type": "electric_scooter", "is_disabled": 0, "lat": 38.8961495, "rental_uris": {"ios": "https://dc.lft.to/lastmile_qr_scan", "android": "https://dc.lft.to/lastmile_qr_scan"}, "is_reserved": 0, "fusion_lon": 0.0, "fusion_lat": 0.0, "lon": -77.02212616666667, "name": "8d9a52b4cf4147efe291f265b42e29f6"}, {"bike_id": "103a2b2d6787c93f2c494fd1116ce5ba", "type": "electric_scooter", "is_disabled": 0, "lat": 38.92413716666667, "rental_uris": {"ios": "https://dc.lft.to/lastmile_qr_scan", "android": "https://dc.lft.to/lastmile_qr_scan"}, "is_reserved": 0, "fusion_lon": 0.0, "fusion_lat": 0.0, "lon": -77.02008766666667, "name": "103a2b2d6787c93f2c494fd1116ce5ba"}, {"bike_id": "3953179a497c6b0ccc09b58216d0c584", "type": "electric_scooter", "is_disabled": 0, "lat": 38.918448, "rental_uris": {"ios": "https://dc.lft.to/lastmile_qr_scan", "android": "https://dc.lft.to/lastmile_qr_scan"}, "is_reserved": 0, "fusion_lon": 0.0, "fusion_lat": 0.0, "lon": -76.965486, "name": "3953179a497c6b0ccc09b58216d0c584"}, {"bike_id": "d328ed1d82cb5d88b3882cbbbb0d491b", "type": "electric_scooter", "is_disabled": 0, "lat": 38.94739716666667, "rental_uris": {"ios": "https://dc.lft.to/lastmile_qr_scan", "android": "https://dc.lft.to/lastmile_qr_scan"}, "is_reserved": 0, "fusion_lon": 0.0, "fusion_lat": 0.0, "lon": -77.07862083333333, "name": "d328ed1d82cb5d88b3882cbbbb0d491b"}, {"bike_id": "4f2edd898e96c3b23c82775a851e5d75", "type": "electric_scooter", "is_disabled": 0, "lat": 38.904187, "rental_uris": {"ios": "https://dc.lft.to/lastmile_qr_scan", "android": "https://dc.lft.to/lastmile_qr_scan"}, "is_reserved": 0, "fusion_lon": 0.0, "fusion_lat": 0.0, "lon": -76.9733195, "name": "4f2edd898e96c3b23c82775a851e5d75"}, {"bike_id": "7dcef5074cd0dae2d4735d1f34aa071f", "type": "electric_scooter", "is_disabled": 0, "lat": 38.915663, "rental_uris": {"ios": "https://dc.lft.to/lastmile_qr_scan", "android": "https://dc.lft.to/lastmile_qr_scan"}, "is_reserved": 0, "fusion_lon": 0.0, "fusion_lat": 0.0, "lon": -77.03122016666667, "name": "7dcef5074cd0dae2d4735d1f34aa071f"}, {"bike_id": "4c171141afa70453ac554d029d81f706", "type": "electric_bike", "is_disabled": 0, "lat": 38.996813333333336, "rental_uris": {"ios": "https://dc.lft.to/lastmile_qr_scan", "android": "https://dc.lft.to/lastmile_qr_scan"}, "is_reserved": 0, "fusion_lon": 0.0, "fusion_lat": 0.0, "lon": -77.03748083333333, "name": "4c171141afa70453ac554d029d81f706"}, {"bike_id": "c88f72a708640904cab7cd9659d78bd0", "type": "electric_bike", "is_disabled": 0, "lat": 38.896137, "rental_uris": {"ios": "https://dc.lft.to/lastmile_qr_scan", "android": "https://dc.lft.to/lastmile_qr_scan"}, "is_reserved": 0, "fusion_lon": 0.0, "fusion_lat": 0.0, "lon": -76.90736633333333, "name": "c88f72a708640904cab7cd9659d78bd0"}, {"bike_id": "ac3cfb0a32129c438bc332817ed82bc7", "type": "electric_scooter", "is_disabled": 0, "lat": 38.9097415, "rental_uris": {"ios": "https://dc.lft.to/lastmile_qr_scan", "android": "https://dc.lft.to/lastmile_qr_scan"}, "is_reserved": 0, "fusion_lon": 0.0, "fusion_lat": 0.0, "lon": -77.021886, "name": "ac3cfb0a32129c438bc332817ed82bc7"}, {"bike_id": "db3a31ddc79f8912cbf9c31b7547e29d", "type": "electric_scooter", "is_disabled": 0, "lat": 38.9176905, "rental_uris": {"ios": "https://dc.lft.to/lastmile_qr_scan", "android": "https://dc.lft.to/lastmile_qr_scan"}, "is_reserved": 0, "fusion_lon": 0.0, "fusion_lat": 0.0, "lon": -77.03177933333333, "name": "db3a31ddc79f8912cbf9c31b7547e29d"}, {"bike_id": "fe25e9869fa5b5ceb20f0f43a32ffc8a", "type": "electric_scooter", "is_disabled": 0, "lat": 38.905435833333335, "rental_uris": {"ios": "https://dc.lft.to/lastmile_qr_scan", "android": "https://dc.lft.to/lastmile_qr_scan"}, "is_reserved": 0, "fusion_lon": 0.0, "fusion_lat": 0.0, "lon": -77.0475945, "name": "fe25e9869fa5b5ceb20f0f43a32ffc8a"}, {"bike_id": "62d05fcdb2f31788f00dd82bd4d00bc0", "type": "electric_scooter", "is_disabled": 0, "lat": 38.8443505, "rental_uris": {"ios": "https://dc.lft.to/lastmile_qr_scan", "android": "https://dc.lft.to/lastmile_qr_scan"}, "is_reserved": 0, "fusion_lon": 0.0, "fusion_lat": 0.0, "lon": -76.9987215, "name": "62d05fcdb2f31788f00dd82bd4d00bc0"}, {"bike_id": "911e9b87184d7b659e24c73752cac040", "type": "electric_scooter", "is_disabled": 0, "lat": 38.918073, "rental_uris": {"ios": "https://dc.lft.to/lastmile_qr_scan", "android": "https://dc.lft.to/lastmile_qr_scan"}, "is_reserved": 0, "fusion_lon": 0.0, "fusion_lat": 0.0, "lon": -77.032125, "name": "911e9b87184d7b659e24c73752cac040"}, {"bike_id": "eee8df9e3c07f3c23636775547aa5aa8", "type": "electric_scooter", "is_disabled": 0, "lat": 38.90972766666667, "rental_uris": {"ios": "https://dc.lft.to/lastmile_qr_scan", "android": "https://dc.lft.to/lastmile_qr_scan"}, "is_reserved": 0, "fusion_lon": 0.0, "fusion_lat": 0.0, "lon": -77.03367083333333, "name": "eee8df9e3c07f3c23636775547aa5aa8"}, {"bike_id": "5908a59bb8362ae28f3537dabdadc0f7", "type": "electric_scooter", "is_disabled": 0, "lat": 38.91559816666667, "rental_uris": {"ios": "https://dc.lft.to/lastmile_qr_scan", "android": "https://dc.lft.to/lastmile_qr_scan"}, "is_reserved": 0, "fusion_lon": 0.0, "fusion_lat": 0.0, "lon": -77.0264225, "name": "5908a59bb8362ae28f3537dabdadc0f7"}, {"bike_id": "4b4fc1cb1e8bc4974c4e2aee464df1fa", "type": "electric_scooter", "is_disabled": 0, "lat": 38.9490255, "rental_uris": {"ios": "https://dc.lft.to/lastmile_qr_scan", "android": "https://dc.lft.to/lastmile_qr_scan"}, "is_reserved": 0, "fusion_lon": 0.0, "fusion_lat": 0.0, "lon": -77.0207385, "name": "4b4fc1cb1e8bc4974c4e2aee464df1fa"}, {"bike_id": "316b712e6e010a74401d9bfe52b2ad4d", "type": "electric_bike", "is_disabled": 0, "lat": 39.04322033333333, "rental_uris": {"ios": "https://dc.lft.to/lastmile_qr_scan", "android": "https://dc.lft.to/lastmile_qr_scan"}, "is_reserved": 0, "fusion_lon": 0.0, "fusion_lat": 0.0, "lon": -77.05162133333333, "name": "316b712e6e010a74401d9bfe52b2ad4d"}, {"bike_id": "784de30cf3677b187acd0431d681ef31", "type": "electric_scooter", "is_disabled": 0, "lat": 38.897600833333335, "rental_uris": {"ios": "https://dc.lft.to/lastmile_qr_scan", "android": "https://dc.lft.to/lastmile_qr_scan"}, "is_reserved": 0, "fusion_lon": 0.0, "fusion_lat": 0.0, "lon": -77.02643616666667, "name": "784de30cf3677b187acd0431d681ef31"}, {"bike_id": "038d6dbf3e6c6863298402dd1904d281", "type": "electric_scooter", "is_disabled": 0, "lat": 38.88934183333333, "rental_uris": {"ios": "https://dc.lft.to/lastmile_qr_scan", "android": "https://dc.lft.to/lastmile_qr_scan"}, "is_reserved": 0, "fusion_lon": 0.0, "fusion_lat": 0.0, "lon": -76.93579633333333, "name": "038d6dbf3e6c6863298402dd1904d281"}, {"bike_id": "51ca6b77f58b7891954fb4d91d00656d", "type": "electric_scooter", "is_disabled": 0, "lat": 38.9037155, "rental_uris": {"ios": "https://dc.lft.to/lastmile_qr_scan", "android": "https://dc.lft.to/lastmile_qr_scan"}, "is_reserved": 0, "fusion_lon": 0.0, "fusion_lat": 0.0, "lon": -77.03202583333334, "name": "51ca6b77f58b7891954fb4d91d00656d"}, {"bike_id": "1343ade259b143cff4a9bf63f34f188c", "type": "electric_scooter", "is_disabled": 0, "lat": 38.905606666666664, "rental_uris": {"ios": "https://dc.lft.to/lastmile_qr_scan", "android": "https://dc.lft.to/lastmile_qr_scan"}, "is_reserved": 0, "fusion_lon": 0.0, "fusion_lat": 0.0, "lon": -77.06517766666667, "name": "1343ade259b143cff4a9bf63f34f188c"}, {"bike_id": "8ccb49885cabda79786d358cc513e912", "type": "electric_scooter", "is_disabled": 0, "lat": 38.888653833333336, "rental_uris": {"ios": "https://dc.lft.to/lastmile_qr_scan", "android": "https://dc.lft.to/lastmile_qr_scan"}, "is_reserved": 0, "fusion_lon": 0.0, "fusion_lat": 0.0, "lon": -76.99143433333333, "name": "8ccb49885cabda79786d358cc513e912"}, {"bike_id": "d9553815de4190edfe74930dfbba9aff", "type": "electric_scooter", "is_disabled": 0, "lat": 38.919688, "rental_uris": {"ios": "https://dc.lft.to/lastmile_qr_scan", "android": "https://dc.lft.to/lastmile_qr_scan"}, "is_reserved": 0, "fusion_lon": 0.0, "fusion_lat": 0.0, "lon": -77.0427555, "name": "d9553815de4190edfe74930dfbba9aff"}, {"bike_id": "a1006e5b78307f92491c2e4270b1e9c8", "type": "electric_scooter", "is_disabled": 0, "lat": 38.84643466666667, "rental_uris": {"ios": "https://dc.lft.to/lastmile_qr_scan", "android": "https://dc.lft.to/lastmile_qr_scan"}, "is_reserved": 0, "fusion_lon": 0.0, "fusion_lat": 0.0, "lon": -76.991284, "name": "a1006e5b78307f92491c2e4270b1e9c8"}, {"bike_id": "78089746d4e5978201b65114ab1800fa", "type": "electric_scooter", "is_disabled": 0, "lat": 38.8935835, "rental_uris": {"ios": "https://dc.lft.to/lastmile_qr_scan", "android": "https://dc.lft.to/lastmile_qr_scan"}, "is_reserved": 0, "fusion_lon": 0.0, "fusion_lat": 0.0, "lon": -76.94934316666667, "name": "78089746d4e5978201b65114ab1800fa"}, {"bike_id": "264bad5455e902b274f7cc124ce974ec", "type": "electric_scooter", "is_disabled": 0, "lat": 38.89223366666667, "rental_uris": {"ios": "https://dc.lft.to/lastmile_qr_scan", "android": "https://dc.lft.to/lastmile_qr_scan"}, "is_reserved": 0, "fusion_lon": 0.0, "fusion_lat": 0.0, "lon": -77.03232533333333, "name": "264bad5455e902b274f7cc124ce974ec"}, {"bike_id": "75df2df493ecbff5c298057c7ed247d7", "type": "electric_scooter", "is_disabled": 0, "lat": 38.920722166666664, "rental_uris": {"ios": "https://dc.lft.to/lastmile_qr_scan", "android": "https://dc.lft.to/lastmile_qr_scan"}, "is_reserved": 0, "fusion_lon": 0.0, "fusion_lat": 0.0, "lon": -77.02207816666666, "name": "75df2df493ecbff5c298057c7ed247d7"}, {"bike_id": "f4bd406ea8c9bf128dd17df6a1fd2e25", "type": "electric_scooter", "is_disabled": 0, "lat": 38.88356666666667, "rental_uris": {"ios": "https://dc.lft.to/lastmile_qr_scan", "android": "https://dc.lft.to/lastmile_qr_scan"}, "is_reserved": 0, "fusion_lon": 0.0, "fusion_lat": 0.0, "lon": -76.9948465, "name": "f4bd406ea8c9bf128dd17df6a1fd2e25"}, {"bike_id": "048275b5d2273faa744685008f936bcb", "type": "electric_bike", "is_disabled": 0, "lat": 38.896141166666666, "rental_uris": {"ios": "https://dc.lft.to/lastmile_qr_scan", "android": "https://dc.lft.to/lastmile_qr_scan"}, "is_reserved": 0, "fusion_lon": 0.0, "fusion_lat": 0.0, "lon": -77.03001933333333, "name": "048275b5d2273faa744685008f936bcb"}, {"bike_id": "e8708fa05cc3c20cb55dfc680990835e", "type": "electric_scooter", "is_disabled": 0, "lat": 38.90567183333334, "rental_uris": {"ios": "https://dc.lft.to/lastmile_qr_scan", "android": "https://dc.lft.to/lastmile_qr_scan"}, "is_reserved": 0, "fusion_lon": 0.0, "fusion_lat": 0.0, "lon": -77.00486583333333, "name": "e8708fa05cc3c20cb55dfc680990835e"}, {"bike_id": "0e88a0e8c23687ede415930eb001c150", "type": "electric_scooter", "is_disabled": 0, "lat": 38.87164633333333, "rental_uris": {"ios": "https://dc.lft.to/lastmile_qr_scan", "android": "https://dc.lft.to/lastmile_qr_scan"}, "is_reserved": 0, "fusion_lon": 0.0, "fusion_lat": 0.0, "lon": -77.01353083333333, "name": "0e88a0e8c23687ede415930eb001c150"}, {"bike_id": "9b3f284f956eda54b61e7b0aeae22815", "type": "electric_bike", "is_disabled": 0, "lat": 38.821795, "rental_uris": {"ios": "https://dc.lft.to/lastmile_qr_scan", "android": "https://dc.lft.to/lastmile_qr_scan"}, "is_reserved": 0, "fusion_lon": 0.0, "fusion_lat": 0.0, "lon": -76.99509733333333, "name": "9b3f284f956eda54b61e7b0aeae22815"}, {"bike_id": "e9db22952f02c793a6f82fd41b59f93e", "type": "electric_scooter", "is_disabled": 0, "lat": 38.918388666666665, "rental_uris": {"ios": "https://dc.lft.to/lastmile_qr_scan", "android": "https://dc.lft.to/lastmile_qr_scan"}, "is_reserved": 0, "fusion_lon": 0.0, "fusion_lat": 0.0, "lon": -77.03948016666666, "name": "e9db22952f02c793a6f82fd41b59f93e"}, {"bike_id": "50f0a38d8a75983864286f28e7dcefd7", "type": "electric_scooter", "is_disabled": 0, "lat": 38.911821, "rental_uris": {"ios": "https://dc.lft.to/lastmile_qr_scan", "android": "https://dc.lft.to/lastmile_qr_scan"}, "is_reserved": 0, "fusion_lon": 0.0, "fusion_lat": 0.0, "lon": -77.03185666666667, "name": "50f0a38d8a75983864286f28e7dcefd7"}, {"bike_id": "92c50a0bcb049c0010b7d252ee730a49", "type": "electric_scooter", "is_disabled": 0, "lat": 38.92461316666667, "rental_uris": {"ios": "https://dc.lft.to/lastmile_qr_scan", "android": "https://dc.lft.to/lastmile_qr_scan"}, "is_reserved": 0, "fusion_lon": 0.0, "fusion_lat": 0.0, "lon": -77.02255383333333, "name": "92c50a0bcb049c0010b7d252ee730a49"}, {"bike_id": "1bf97c4317dc7fbead080db3807eda90", "type": "electric_scooter", "is_disabled": 0, "lat": 38.93044533333333, "rental_uris": {"ios": "https://dc.lft.to/lastmile_qr_scan", "android": "https://dc.lft.to/lastmile_qr_scan"}, "is_reserved": 0, "fusion_lon": 0.0, "fusion_lat": 0.0, "lon": -77.0325995, "name": "1bf97c4317dc7fbead080db3807eda90"}, {"bike_id": "1d87a4d6dda49c713899a5c77c79bee6", "type": "electric_scooter", "is_disabled": 0, "lat": 38.8763115, "rental_uris": {"ios": "https://dc.lft.to/lastmile_qr_scan", "android": "https://dc.lft.to/lastmile_qr_scan"}, "is_reserved": 0, "fusion_lon": 0.0, "fusion_lat": 0.0, "lon": -76.96526016666667, "name": "1d87a4d6dda49c713899a5c77c79bee6"}, {"bike_id": "119073a139a05ece0d9c3138b8df0a1a", "type": "electric_scooter", "is_disabled": 0, "lat": 38.90064316666667, "rental_uris": {"ios": "https://dc.lft.to/lastmile_qr_scan", "android": "https://dc.lft.to/lastmile_qr_scan"}, "is_reserved": 0, "fusion_lon": 0.0, "fusion_lat": 0.0, "lon": -76.92736866666667, "name": "119073a139a05ece0d9c3138b8df0a1a"}, {"bike_id": "a03498f5a3086f0209a788fba6eccbaa", "type": "electric_scooter", "is_disabled": 0, "lat": 38.9499615, "rental_uris": {"ios": "https://dc.lft.to/lastmile_qr_scan", "android": "https://dc.lft.to/lastmile_qr_scan"}, "is_reserved": 0, "fusion_lon": 0.0, "fusion_lat": 0.0, "lon": -77.01830366666667, "name": "a03498f5a3086f0209a788fba6eccbaa"}, {"bike_id": "f180ebff32a85805ca292ef22c7b1243", "type": "electric_scooter", "is_disabled": 0, "lat": 38.90593583333333, "rental_uris": {"ios": "https://dc.lft.to/lastmile_qr_scan", "android": "https://dc.lft.to/lastmile_qr_scan"}, "is_reserved": 0, "fusion_lon": 0.0, "fusion_lat": 0.0, "lon": -77.0513985, "name": "f180ebff32a85805ca292ef22c7b1243"}, {"bike_id": "ef291fd21e99e837424def6f11572503", "type": "electric_scooter", "is_disabled": 0, "lat": 38.9171215, "rental_uris": {"ios": "https://dc.lft.to/lastmile_qr_scan", "android": "https://dc.lft.to/lastmile_qr_scan"}, "is_reserved": 0, "fusion_lon": 0.0, "fusion_lat": 0.0, "lon": -77.03486233333334, "name": "ef291fd21e99e837424def6f11572503"}, {"bike_id": "1afaf31546544244be46c4d0c86b927e", "type": "electric_scooter", "is_disabled": 0, "lat": 38.9050435, "rental_uris": {"ios": "https://dc.lft.to/lastmile_qr_scan", "android": "https://dc.lft.to/lastmile_qr_scan"}, "is_reserved": 0, "fusion_lon": 0.0, "fusion_lat": 0.0, "lon": -77.0688535, "name": "1afaf31546544244be46c4d0c86b927e"}, {"bike_id": "6dd0f0073c3854a8bbe143c10eec031d", "type": "electric_scooter", "is_disabled": 0, "lat": 38.8944, "rental_uris": {"ios": "https://dc.lft.to/lastmile_qr_scan", "android": "https://dc.lft.to/lastmile_qr_scan"}, "is_reserved": 0, "fusion_lon": 0.0, "fusion_lat": 0.0, "lon": -77.039659, "name": "6dd0f0073c3854a8bbe143c10eec031d"}, {"bike_id": "8708f2a1e2e62bf1cd7f414071312503", "type": "electric_scooter", "is_disabled": 0, "lat": 38.939282666666664, "rental_uris": {"ios": "https://dc.lft.to/lastmile_qr_scan", "android": "https://dc.lft.to/lastmile_qr_scan"}, "is_reserved": 0, "fusion_lon": 0.0, "fusion_lat": 0.0, "lon": -77.03681983333334, "name": "8708f2a1e2e62bf1cd7f414071312503"}, {"bike_id": "5ab028b91701c63a5cc44d67b6930abe", "type": "electric_scooter", "is_disabled": 0, "lat": 38.906149666666664, "rental_uris": {"ios": "https://dc.lft.to/lastmile_qr_scan", "android": "https://dc.lft.to/lastmile_qr_scan"}, "is_reserved": 0, "fusion_lon": 0.0, "fusion_lat": 0.0, "lon": -77.00714716666667, "name": "5ab028b91701c63a5cc44d67b6930abe"}, {"bike_id": "e4492c69d3ec82726d962fb995429bf1", "type": "electric_scooter", "is_disabled": 0, "lat": 38.900425166666665, "rental_uris": {"ios": "https://dc.lft.to/lastmile_qr_scan", "android": "https://dc.lft.to/lastmile_qr_scan"}, "is_reserved": 0, "fusion_lon": 0.0, "fusion_lat": 0.0, "lon": -77.01311266666667, "name": "e4492c69d3ec82726d962fb995429bf1"}, {"bike_id": "7d27b59cfb7d153b5d118ae61699d359", "type": "electric_bike", "is_disabled": 0, "lat": 38.886423, "rental_uris": {"ios": "https://dc.lft.to/lastmile_qr_scan", "android": "https://dc.lft.to/lastmile_qr_scan"}, "is_reserved": 0, "fusion_lon": 0.0, "fusion_lat": 0.0, "lon": -77.12983116666666, "name": "7d27b59cfb7d153b5d118ae61699d359"}, {"bike_id": "945d2a81c1b8e90d09a68091e8883806", "type": "electric_scooter", "is_disabled": 0, "lat": 38.874260666666665, "rental_uris": {"ios": "https://dc.lft.to/lastmile_qr_scan", "android": "https://dc.lft.to/lastmile_qr_scan"}, "is_reserved": 0, "fusion_lon": 0.0, "fusion_lat": 0.0, "lon": -76.96910766666667, "name": "945d2a81c1b8e90d09a68091e8883806"}, {"bike_id": "7748371d07027bf988341a00f1154404", "type": "electric_scooter", "is_disabled": 0, "lat": 38.901531166666665, "rental_uris": {"ios": "https://dc.lft.to/lastmile_qr_scan", "android": "https://dc.lft.to/lastmile_qr_scan"}, "is_reserved": 0, "fusion_lon": 0.0, "fusion_lat": 0.0, "lon": -77.02291566666666, "name": "7748371d07027bf988341a00f1154404"}, {"bike_id": "670238d3cc9ff4a849f7ec122d9d50bd", "type": "electric_scooter", "is_disabled": 0, "lat": 38.8920185, "rental_uris": {"ios": "https://dc.lft.to/lastmile_qr_scan", "android": "https://dc.lft.to/lastmile_qr_scan"}, "is_reserved": 0, "fusion_lon": 0.0, "fusion_lat": 0.0, "lon": -77.01554033333333, "name": "670238d3cc9ff4a849f7ec122d9d50bd"}, {"bike_id": "c0e21f5d31e398a4e9a45f57ee37d2cc", "type": "electric_scooter", "is_disabled": 0, "lat": 38.892238, "rental_uris": {"ios": "https://dc.lft.to/lastmile_qr_scan", "android": "https://dc.lft.to/lastmile_qr_scan"}, "is_reserved": 0, "fusion_lon": 0.0, "fusion_lat": 0.0, "lon": -77.026467, "name": "c0e21f5d31e398a4e9a45f57ee37d2cc"}, {"bike_id": "e2d93d671c3fda518c301830fc3a4a00", "type": "electric_scooter", "is_disabled": 0, "lat": 38.923934333333335, "rental_uris": {"ios": "https://dc.lft.to/lastmile_qr_scan", "android": "https://dc.lft.to/lastmile_qr_scan"}, "is_reserved": 0, "fusion_lon": 0.0, "fusion_lat": 0.0, "lon": -77.0506435, "name": "e2d93d671c3fda518c301830fc3a4a00"}, {"bike_id": "30edb35a784ac6bee8808a8ad8df6291", "type": "electric_scooter", "is_disabled": 0, "lat": 38.87118183333333, "rental_uris": {"ios": "https://dc.lft.to/lastmile_qr_scan", "android": "https://dc.lft.to/lastmile_qr_scan"}, "is_reserved": 0, "fusion_lon": 0.0, "fusion_lat": 0.0, "lon": -77.0076405, "name": "30edb35a784ac6bee8808a8ad8df6291"}, {"bike_id": "c44d3e629e2a7b691863b2d705bd9c63", "type": "electric_bike", "is_disabled": 0, "lat": 38.96287483333333, "rental_uris": {"ios": "https://dc.lft.to/lastmile_qr_scan", "android": "https://dc.lft.to/lastmile_qr_scan"}, "is_reserved": 0, "fusion_lon": 0.0, "fusion_lat": 0.0, "lon": -77.01122766666667, "name": "c44d3e629e2a7b691863b2d705bd9c63"}, {"bike_id": "bb68b77ac05401880904b87f29ad8d01", "type": "electric_bike", "is_disabled": 0, "lat": 38.963195166666665, "rental_uris": {"ios": "https://dc.lft.to/lastmile_qr_scan", "android": "https://dc.lft.to/lastmile_qr_scan"}, "is_reserved": 0, "fusion_lon": 0.0, "fusion_lat": 0.0, "lon": -76.97357983333333, "name": "bb68b77ac05401880904b87f29ad8d01"}, {"bike_id": "6feabe30917946f3f7c8888656f77329", "type": "electric_scooter", "is_disabled": 0, "lat": 38.908091, "rental_uris": {"ios": "https://dc.lft.to/lastmile_qr_scan", "android": "https://dc.lft.to/lastmile_qr_scan"}, "is_reserved": 0, "fusion_lon": 0.0, "fusion_lat": 0.0, "lon": -77.08410533333333, "name": "6feabe30917946f3f7c8888656f77329"}, {"bike_id": "aeebc74580e86a02aa660274faf1fd0d", "type": "electric_bike", "is_disabled": 0, "lat": 38.952502833333334, "rental_uris": {"ios": "https://dc.lft.to/lastmile_qr_scan", "android": "https://dc.lft.to/lastmile_qr_scan"}, "is_reserved": 0, "fusion_lon": 0.0, "fusion_lat": 0.0, "lon": -76.97677133333333, "name": "aeebc74580e86a02aa660274faf1fd0d"}, {"bike_id": "757621d54607890ccb0898823b8df552", "type": "electric_scooter", "is_disabled": 0, "lat": 38.90226116666667, "rental_uris": {"ios": "https://dc.lft.to/lastmile_qr_scan", "android": "https://dc.lft.to/lastmile_qr_scan"}, "is_reserved": 0, "fusion_lon": 0.0, "fusion_lat": 0.0, "lon": -77.02173033333334, "name": "757621d54607890ccb0898823b8df552"}, {"bike_id": "390141972c047c987d3763d031f6e704", "type": "electric_scooter", "is_disabled": 0, "lat": 38.92511733333333, "rental_uris": {"ios": "https://dc.lft.to/lastmile_qr_scan", "android": "https://dc.lft.to/lastmile_qr_scan"}, "is_reserved": 0, "fusion_lon": 0.0, "fusion_lat": 0.0, "lon": -77.0512035, "name": "390141972c047c987d3763d031f6e704"}, {"bike_id": "f1a44e6efd98ae6421f398933241bb6d", "type": "electric_scooter", "is_disabled": 0, "lat": 38.897521833333336, "rental_uris": {"ios": "https://dc.lft.to/lastmile_qr_scan", "android": "https://dc.lft.to/lastmile_qr_scan"}, "is_reserved": 0, "fusion_lon": 0.0, "fusion_lat": 0.0, "lon": -76.97974433333333, "name": "f1a44e6efd98ae6421f398933241bb6d"}, {"bike_id": "8a84271f11648b633ac40a9b4aa4b68f", "type": "electric_scooter", "is_disabled": 0, "lat": 38.91187566666667, "rental_uris": {"ios": "https://dc.lft.to/lastmile_qr_scan", "android": "https://dc.lft.to/lastmile_qr_scan"}, "is_reserved": 0, "fusion_lon": 0.0, "fusion_lat": 0.0, "lon": -77.01119833333334, "name": "8a84271f11648b633ac40a9b4aa4b68f"}, {"bike_id": "46d0c3eacfe35122ef908bb58ee76d4e", "type": "electric_scooter", "is_disabled": 0, "lat": 38.90065933333333, "rental_uris": {"ios": "https://dc.lft.to/lastmile_qr_scan", "android": "https://dc.lft.to/lastmile_qr_scan"}, "is_reserved": 0, "fusion_lon": 0.0, "fusion_lat": 0.0, "lon": -77.01704166666667, "name": "46d0c3eacfe35122ef908bb58ee76d4e"}, {"bike_id": "724e75744e4b0c864428240db0ddcea5", "type": "electric_scooter", "is_disabled": 0, "lat": 38.92712266666667, "rental_uris": {"ios": "https://dc.lft.to/lastmile_qr_scan", "android": "https://dc.lft.to/lastmile_qr_scan"}, "is_reserved": 0, "fusion_lon": 0.0, "fusion_lat": 0.0, "lon": -77.0239125, "name": "724e75744e4b0c864428240db0ddcea5"}, {"bike_id": "89f556e8bb80afa2b2ba37eae203d147", "type": "electric_scooter", "is_disabled": 0, "lat": 38.899780666666665, "rental_uris": {"ios": "https://dc.lft.to/lastmile_qr_scan", "android": "https://dc.lft.to/lastmile_qr_scan"}, "is_reserved": 0, "fusion_lon": 0.0, "fusion_lat": 0.0, "lon": -77.02391266666666, "name": "89f556e8bb80afa2b2ba37eae203d147"}, {"bike_id": "8b7352fcda4a93c6b380ff84aaf499fa", "type": "electric_scooter", "is_disabled": 0, "lat": 38.927543166666666, "rental_uris": {"ios": "https://dc.lft.to/lastmile_qr_scan", "android": "https://dc.lft.to/lastmile_qr_scan"}, "is_reserved": 0, "fusion_lon": 0.0, "fusion_lat": 0.0, "lon": -77.0253365, "name": "8b7352fcda4a93c6b380ff84aaf499fa"}, {"bike_id": "51033b4274483d02e26385df3ef21667", "type": "electric_scooter", "is_disabled": 0, "lat": 38.9169625, "rental_uris": {"ios": "https://dc.lft.to/lastmile_qr_scan", "android": "https://dc.lft.to/lastmile_qr_scan"}, "is_reserved": 0, "fusion_lon": 0.0, "fusion_lat": 0.0, "lon": -77.03771983333333, "name": "51033b4274483d02e26385df3ef21667"}, {"bike_id": "75ec3567e97fca0330226e39c4f8cd59", "type": "electric_scooter", "is_disabled": 0, "lat": 38.911223666666665, "rental_uris": {"ios": "https://dc.lft.to/lastmile_qr_scan", "android": "https://dc.lft.to/lastmile_qr_scan"}, "is_reserved": 0, "fusion_lon": 0.0, "fusion_lat": 0.0, "lon": -77.04722816666667, "name": "75ec3567e97fca0330226e39c4f8cd59"}, {"bike_id": "f11087accfa191b9aee0a10c7d683203", "type": "electric_bike", "is_disabled": 0, "lat": 38.853560333333334, "rental_uris": {"ios": "https://dc.lft.to/lastmile_qr_scan", "android": "https://dc.lft.to/lastmile_qr_scan"}, "is_reserved": 0, "fusion_lon": 0.0, "fusion_lat": 0.0, "lon": -77.13472016666667, "name": "f11087accfa191b9aee0a10c7d683203"}, {"bike_id": "479d854e8a35aae58be36e8c4be76645", "type": "electric_scooter", "is_disabled": 0, "lat": 38.897495166666666, "rental_uris": {"ios": "https://dc.lft.to/lastmile_qr_scan", "android": "https://dc.lft.to/lastmile_qr_scan"}, "is_reserved": 0, "fusion_lon": 0.0, "fusion_lat": 0.0, "lon": -77.0034485, "name": "479d854e8a35aae58be36e8c4be76645"},