{"data": {"bikes": [{"is_reserved": 0, "fusion_lon": 0.0, "fusion_lat": 0.0, "name": "4bbfa7414d5d4c600f0a0fa2e0a66bb0", "type": "electric_scooter", "is_disabled": 0, "lat": 38.9353435, "rental_uris": {"android": "https://dc.lft.to/lastmile_qr_scan", "ios": "https://dc.lft.to/lastmile_qr_scan"}, "bike_id": "4bbfa7414d5d4c600f0a0fa2e0a66bb0", "lon": -77.02346783333333}, {"is_reserved": 0, "fusion_lon": 0.0, "fusion_lat": 0.0, "name": "0a4fa314e9512d6a5ac410cb1bc85571", "type": "electric_scooter", "is_disabled": 0, "lat": 38.90170033333333, "rental_uris": {"android": "https://dc.lft.to/lastmile_qr_scan", "ios": "https://dc.lft.to/lastmile_qr_scan"}, "bike_id": "0a4fa314e9512d6a5ac410cb1bc85571", "lon": -76.98009433333333}, {"is_reserved": 0, "fusion_lon": 0.0, "fusion_lat": 0.0, "name": "e3f37a47c0fc914cde58151860983207", "type": "electric_scooter", "is_disabled": 0, "lat": 38.915522, "rental_uris": {"android": "https://dc.lft.to/lastmile_qr_scan", "ios": "https://dc.lft.to/lastmile_qr_scan"}, "bike_id": "e3f37a47c0fc914cde58151860983207", "lon": -77.00363016666667}, {"is_reserved": 0, "fusion_lon": 0.0, "fusion_lat": 0.0, "name": "236c4059f26c7caac51614fca59db053", "type": "electric_scooter", "is_disabled": 0, "lat": 38.90803716666667, "rental_uris": {"android": "https://dc.lft.to/lastmile_qr_scan", "ios": "https://dc.lft.to/lastmile_qr_scan"}, "bike_id": "236c4059f26c7caac51614fca59db053", "lon": -77.0320775}, {"is_reserved": 0, "fusion_lon": 0.0, "fusion_lat": 0.0, "name": "894bcad7956e6ac564c67881df16de2b", "type": "electric_scooter", "is_disabled": 0, "lat": 38.897442166666664, "rental_uris": {"android": "https://dc.lft.to/lastmile_qr_scan", "ios": "https://dc.lft.to/lastmile_qr_scan"}, "bike_id": "894bcad7956e6ac564c67881df16de2b", "lon": -77.03352733333334}, {"is_reserved": 0, "fusion_lon": 0.0, "fusion_lat": 0.0, "name": "0e70ce58eee3643d1ba668e20e7c7ffc", "type": "electric_scooter", "is_disabled": 0, "lat": 38.905428, "rental_uris": {"android": "https://dc.lft.to/lastmile_qr_scan", "ios": "https://dc.lft.to/lastmile_qr_scan"}, "bike_id": "0e70ce58eee3643d1ba668e20e7c7ffc", "lon": -77.0221205}, {"is_reserved": 0, "fusion_lon": 0.0, "fusion_lat": 0.0, "name": "2ade887300be0d5115679622c0ade610", "type": "electric_scooter", "is_disabled": 0, "lat": 38.923316, "rental_uris": {"android": "https://dc.lft.to/lastmile_qr_scan", "ios": "https://dc.lft.to/lastmile_qr_scan"}, "bike_id": "2ade887300be0d5115679622c0ade610", "lon": -77.03616666666667}, {"is_reserved": 0, "fusion_lon": 0.0, "fusion_lat": 0.0, "name": "eb546a6cd5fb7727d1efa4e23a4a9ee7", "type": "electric_bike", "is_disabled": 0, "lat": 38.9680085, "rental_uris": {"android": "https://dc.lft.to/lastmile_qr_scan", "ios": "https://dc.lft.to/lastmile_qr_scan"}, "bike_id": "eb546a6cd5fb7727d1efa4e23a4a9ee7", "lon": -77.00031083333333}, {"is_reserved": 0, "fusion_lon": 0.0, "fusion_lat": 0.0, "name": "570fec45d8899a6b769d5249f05e06b4", "type": "electric_scooter", "is_disabled": 0, "lat": 38.96113716666667, "rental_uris": {"android": "https://dc.lft.to/lastmile_qr_scan", "ios": "https://dc.lft.to/lastmile_qr_scan"}, "bike_id": "570fec45d8899a6b769d5249f05e06b4", "lon": -77.02791233333333}, {"is_reserved": 0, "fusion_lon": 0.0, "fusion_lat": 0.0, "name": "dc25cd6e44226a458c0ffaacb57284bf", "type": "electric_scooter", "is_disabled": 0, "lat": 38.89236183333333, "rental_uris": {"android": "https://dc.lft.to/lastmile_qr_scan", "ios": "https://dc.lft.to/lastmile_qr_scan"}, "bike_id": "dc25cd6e44226a458c0ffaacb57284bf", "lon": -77.032126}, {"is_reserved": 0, "fusion_lon": 0.0, "fusion_lat": 0.0, "name": "bac8610ec15250db0f7f6df8270016e5", "type": "electric_scooter", "is_disabled": 0, "lat": 38.915727333333336, "rental_uris": {"android": "https://dc.lft.to/lastmile_qr_scan", "ios": "https://dc.lft.to/lastmile_qr_scan"}, "bike_id": "bac8610ec15250db0f7f6df8270016e5", "lon": -77.0198885}, {"is_reserved": 0, "fusion_lon": 0.0, "fusion_lat": 0.0, "name": "c6b259bfd30d2cdbd73c16a552f48c78", "type": "electric_scooter", "is_disabled": 0, "lat": 38.905459666666665, "rental_uris": {"android": "https://dc.lft.to/lastmile_qr_scan", "ios": "https://dc.lft.to/lastmile_qr_scan"}, "bike_id": "c6b259bfd30d2cdbd73c16a552f48c78", "lon": -77.03453433333334}, {"is_reserved": 0, "fusion_lon": 0.0, "fusion_lat": 0.0, "name": "e1f012b8d6f3ffb6909efccdd72d697a", "type": "electric_bike", "is_disabled": 0, "lat": 39.062927333333334, "rental_uris": {"android": "https://dc.lft.to/lastmile_qr_scan", "ios": "https://dc.lft.to/lastmile_qr_scan"}, "bike_id": "e1f012b8d6f3ffb6909efccdd72d697a", "lon": -77.04977683333334}, {"is_reserved": 0, "fusion_lon": 0.0, "fusion_lat": 0.0, "name": "7aa793f2a87ac8d2408456d3020f924c", "type": "electric_scooter", "is_disabled": 0, "lat": 38.89218983333333, "rental_uris": {"android": "https://dc.lft.to/lastmile_qr_scan", "ios": "https://dc.lft.to/lastmile_qr_scan"}, "bike_id": "7aa793f2a87ac8d2408456d3020f924c", "lon": -77.02347233333333}, {"is_reserved": 0, "fusion_lon": 0.0, "fusion_lat": 0.0, "name": "a60c51fe30e548d9ed9a0ef89cd567f5", "type": "electric_scooter", "is_disabled": 0, "lat": 38.90644733333333, "rental_uris": {"android": "https://dc.lft.to/lastmile_qr_scan", "ios": "https://dc.lft.to/lastmile_qr_scan"}, "bike_id": "a60c51fe30e548d9ed9a0ef89cd567f5", "lon": -77.04816433333333}, {"is_reserved": 0, "fusion_lon": 0.0, "fusion_lat": 0.0, "name": "676c61342d4dc629ebc8baeb067bda3d", "type": "electric_scooter", "is_disabled": 0, "lat": 38.883034, "rental_uris": {"android": "https://dc.lft.to/lastmile_qr_scan", "ios": "https://dc.lft.to/lastmile_qr_scan"}, "bike_id": "676c61342d4dc629ebc8baeb067bda3d", "lon": -76.97865816666666}, {"is_reserved": 0, "fusion_lon": 0.0, "fusion_lat": 0.0, "name": "f2f66f2618b9e7373f6b57388cabbd58", "type": "electric_scooter", "is_disabled": 0, "lat": 38.899128, "rental_uris": {"android": "https://dc.lft.to/lastmile_qr_scan", "ios": "https://dc.lft.to/lastmile_qr_scan"}, "bike_id": "f2f66f2618b9e7373f6b57388cabbd58", "lon": -76.93382466666667}, {"is_reserved": 0, "fusion_lon": 0.0, "fusion_lat": 0.0, "name": "e2faeec9e9d0da1ed15d19f735a40e0e", "type": "electric_scooter", "is_disabled": 0, "lat": 38.92681233333333, "rental_uris": {"android": "https://dc.lft.to/lastmile_qr_scan", "ios": "https://dc.lft.to/lastmile_qr_scan"}, "bike_id": "e2faeec9e9d0da1ed15d19f735a40e0e", "lon": -77.02991166666666}, {"is_reserved": 0, "fusion_lon": 0.0, "fusion_lat": 0.0, "name": "54a163e9d10cbf60081d27b2da591271", "type": "electric_scooter", "is_disabled": 0, "lat": 38.893198166666664, "rental_uris": {"android": "https://dc.lft.to/lastmile_qr_scan", "ios": "https://dc.lft.to/lastmile_qr_scan"}, "bike_id": "54a163e9d10cbf60081d27b2da591271", "lon": -76.9431505}, {"is_reserved": 0, "fusion_lon": 0.0, "fusion_lat": 0.0, "name": "ee155cef671d724fad252a4c691e2a97", "type": "electric_scooter", "is_disabled": 0, "lat": 38.907392, "rental_uris": {"android": "https://dc.lft.to/lastmile_qr_scan", "ios": "https://dc.lft.to/lastmile_qr_scan"}, "bike_id": "ee155cef671d724fad252a4c691e2a97", "lon": -77.0269285}, {"is_reserved": 0, "fusion_lon": 0.0, "fusion_lat": 0.0, "name": "291cc56ee58b210c05410db464f4fc15", "type": "electric_scooter", "is_disabled": 0, "lat": 38.91771933333333, "rental_uris": {"android": "https://dc.lft.to/lastmile_qr_scan", "ios": "https://dc.lft.to/lastmile_qr_scan"}, "bike_id": "291cc56ee58b210c05410db464f4fc15", "lon": -77.04572083333333}, {"is_reserved": 0, "fusion_lon": 0.0, "fusion_lat": 0.0, "name": "1f4d792f5a9c6f960826b0152275cb6a", "type": "electric_bike", "is_disabled": 0, "lat": 38.91436683333333, "rental_uris": {"android": "https://dc.lft.to/lastmile_qr_scan", "ios": "https://dc.lft.to/lastmile_qr_scan"}, "bike_id": "1f4d792f5a9c6f960826b0152275cb6a", "lon": -77.01702516666667}, {"is_reserved": 0, "fusion_lon": 0.0, "fusion_lat": 0.0, "name": "a0505160794e3eef713873ed72e1d52d", "type": "electric_scooter", "is_disabled": 0, "lat": 38.93453133333333, "rental_uris": {"android": "https://dc.lft.to/lastmile_qr_scan", "ios": "https://dc.lft.to/lastmile_qr_scan"}, "bike_id": "a0505160794e3eef713873ed72e1d52d", "lon": -77.0375655}, {"is_reserved": 0, "fusion_lon": 0.0, "fusion_lat": 0.0, "name": "dd467ecb336a6b6ef404203dbb4d3a61", "type": "electric_scooter", "is_disabled": 0, "lat": 38.9002715, "rental_uris": {"android": "https://dc.lft.to/lastmile_qr_scan", "ios": "https://dc.lft.to/lastmile_qr_scan"}, "bike_id": "dd467ecb336a6b6ef404203dbb4d3a61", "lon": -76.98857983333333}, {"is_reserved": 0, "fusion_lon": 0.0, "fusion_lat": 0.0, "name": "f8829e35e1e36e3514aba6023c605d93", "type": "electric_scooter", "is_disabled": 0, "lat": 38.907407166666665, "rental_uris": {"android": "https://dc.lft.to/lastmile_qr_scan", "ios": "https://dc.lft.to/lastmile_qr_scan"}, "bike_id": "f8829e35e1e36e3514aba6023c605d93", "lon": -77.04147516666667}, {"is_reserved": 0, "fusion_lon": 0.0, "fusion_lat": 0.0, "name": "d8c160be09ad2a4931283dce3b22d932", "type": "electric_scooter", "is_disabled": 0, "lat": 38.9362365, "rental_uris": {"android": "https://dc.lft.to/lastmile_qr_scan", "ios": "https://dc.lft.to/lastmile_qr_scan"}, "bike_id": "d8c160be09ad2a4931283dce3b22d932", "lon": -77.05900083333333}, {"is_reserved": 0, "fusion_lon": 0.0, "fusion_lat": 0.0, "name": "a9f547e3608f0963afa02126e90d1211", "type": "electric_scooter", "is_disabled": 0, "lat": 38.9043755, "rental_uris": {"android": "https://dc.lft.to/lastmile_qr_scan", "ios": "https://dc.lft.to/lastmile_qr_scan"}, "bike_id": "a9f547e3608f0963afa02126e90d1211", "lon": -77.02591516666666}, {"is_reserved": 0, "fusion_lon": 0.0, "fusion_lat": 0.0, "name": "89d4d32f89c4dddac41b8f09a44d7176", "type": "electric_scooter", "is_disabled": 0, "lat": 38.9282385, "rental_uris": {"android": "https://dc.lft.to/lastmile_qr_scan", "ios": "https://dc.lft.to/lastmile_qr_scan"}, "bike_id": "89d4d32f89c4dddac41b8f09a44d7176", "lon": -77.02257116666667}, {"is_reserved": 0, "fusion_lon": 0.0, "fusion_lat": 0.0, "name": "79f9bb78e54d7e38d834967f3de6b67e", "type": "electric_scooter", "is_disabled": 0, "lat": 38.896292, "rental_uris": {"android": "https://dc.lft.to/lastmile_qr_scan", "ios": "https://dc.lft.to/lastmile_qr_scan"}, "bike_id": "79f9bb78e54d7e38d834967f3de6b67e", "lon": -77.031865}, {"is_reserved": 0, "fusion_lon": 0.0, "fusion_lat": 0.0, "name": "94a5fe933e090967c842551124daab78", "type": "electric_scooter", "is_disabled": 0, "lat": 38.90578883333333, "rental_uris": {"android": "https://dc.lft.to/lastmile_qr_scan", "ios": "https://dc.lft.to/lastmile_qr_scan"}, "bike_id": "94a5fe933e090967c842551124daab78", "lon": -77.00704866666666}, {"is_reserved": 0, "fusion_lon": 0.0, "fusion_lat": 0.0, "name": "37554b9a59fe56bc7b7286518fbc715f", "type": "electric_scooter", "is_disabled": 0, "lat": 38.91790816666666, "rental_uris": {"android": "https://dc.lft.to/lastmile_qr_scan", "ios": "https://dc.lft.to/lastmile_qr_scan"}, "bike_id": "37554b9a59fe56bc7b7286518fbc715f", "lon": -77.025917}, {"is_reserved": 0, "fusion_lon": 0.0, "fusion_lat": 0.0, "name": "5afe79fc1b56f8e295294c046d62c3d8", "type": "electric_scooter", "is_disabled": 0, "lat": 38.89015966666667, "rental_uris": {"android": "https://dc.lft.to/lastmile_qr_scan", "ios": "https://dc.lft.to/lastmile_qr_scan"}, "bike_id": "5afe79fc1b56f8e295294c046d62c3d8", "lon": -76.9373365}, {"is_reserved": 0, "fusion_lon": 0.0, "fusion_lat": 0.0, "name": "0a8457eebb722bfc96f0dc49a0bbc032", "type": "electric_scooter", "is_disabled": 0, "lat": 38.90270233333333, "rental_uris": {"android": "https://dc.lft.to/lastmile_qr_scan", "ios": "https://dc.lft.to/lastmile_qr_scan"}, "bike_id": "0a8457eebb722bfc96f0dc49a0bbc032", "lon": -77.031494}, {"is_reserved": 0, "fusion_lon": 0.0, "fusion_lat": 0.0, "name": "ff4520a893f92cd6defca128ed9853b8", "type": "electric_scooter", "is_disabled": 0, "lat": 38.90813833333333, "rental_uris": {"android": "https://dc.lft.to/lastmile_qr_scan", "ios": "https://dc.lft.to/lastmile_qr_scan"}, "bike_id": "ff4520a893f92cd6defca128ed9853b8", "lon": -77.03441333333333}, {"is_reserved": 0, "fusion_lon": 0.0, "fusion_lat": 0.0, "name": "d8f449f66b509ae00795c05c752d6707", "type": "electric_scooter", "is_disabled": 0, "lat": 38.92243633333333, "rental_uris": {"android": "https://dc.lft.to/lastmile_qr_scan", "ios": "https://dc.lft.to/lastmile_qr_scan"}, "bike_id": "d8f449f66b509ae00795c05c752d6707", "lon": -77.029568}, {"is_reserved": 0, "fusion_lon": 0.0, "fusion_lat": 0.0, "name": "cd7d227ad23503c82af18a1217383ce3", "type": "electric_bike", "is_disabled": 0, "lat": 38.881248666666664, "rental_uris": {"android": "https://dc.lft.to/lastmile_qr_scan", "ios": "https://dc.lft.to/lastmile_qr_scan"}, "bike_id": "cd7d227ad23503c82af18a1217383ce3", "lon": -77.01651983333333}, {"is_reserved": 0, "fusion_lon": 0.0, "fusion_lat": 0.0, "name": "1b8b84ce30fd35f20fb0d3296093113d", "type": "electric_scooter", "is_disabled": 0, "lat": 38.918850666666664, "rental_uris": {"android": "https://dc.lft.to/lastmile_qr_scan", "ios": "https://dc.lft.to/lastmile_qr_scan"}, "bike_id": "1b8b84ce30fd35f20fb0d3296093113d", "lon": -77.02964683333333}, {"is_reserved": 0, "fusion_lon": 0.0, "fusion_lat": 0.0, "name": "e5899c85401bb504fd85ee15953a95d5", "type": "electric_scooter", "is_disabled": 0, "lat": 38.8625385, "rental_uris": {"android": "https://dc.lft.to/lastmile_qr_scan", "ios": "https://dc.lft.to/lastmile_qr_scan"}, "bike_id": "e5899c85401bb504fd85ee15953a95d5", "lon": -76.99514833333333}, {"is_reserved": 0, "fusion_lon": 0.0, "fusion_lat": 0.0, "name": "069276e424e16c814aefe3c33eb7a5c9", "type": "electric_scooter", "is_disabled": 0, "lat": 38.92273333333333, "rental_uris": {"android": "https://dc.lft.to/lastmile_qr_scan", "ios": "https://dc.lft.to/lastmile_qr_scan"}, "bike_id": "069276e424e16c814aefe3c33eb7a5c9", "lon": -77.04283016666666}, {"is_reserved": 0, "fusion_lon": 0.0, "fusion_lat": 0.0, "name": "e46706194ee5d8e41959688218a7e55e", "type": "electric_scooter", "is_disabled": 0, "lat": 38.91573783333333, "rental_uris": {"android": "https://dc.lft.to/lastmile_qr_scan", "ios": "https://dc.lft.to/lastmile_qr_scan"}, "bike_id": "e46706194ee5d8e41959688218a7e55e", "lon": -77.02407516666666}, {"is_reserved": 0, "fusion_lon": 0.0, "fusion_lat": 0.0, "name": "8e8c58e5392a366145812d86851c1d4f", "type": "electric_scooter", "is_disabled": 0, "lat": 38.895023333333334, "rental_uris": {"android": "https://dc.lft.to/lastmile_qr_scan", "ios": "https://dc.lft.to/lastmile_qr_scan"}, "bike_id": "8e8c58e5392a366145812d86851c1d4f", "lon": -76.9347715}, {"is_reserved": 0, "fusion_lon": 0.0, "fusion_lat": 0.0, "name": "fbc7ba53bed77fffc93344c2d34c8a54", "type": "electric_scooter", "is_disabled": 0, "lat": 38.922730333333334, "rental_uris": {"android": "https://dc.lft.to/lastmile_qr_scan", "ios": "https://dc.lft.to/lastmile_qr_scan"}, "bike_id": "fbc7ba53bed77fffc93344c2d34c8a54", "lon": -77.04281783333333}, {"is_reserved": 0, "fusion_lon": 0.0, "fusion_lat": 0.0, "name": "799c306e03e14b7c252cb6ec03b458fe", "type": "electric_scooter", "is_disabled": 0, "lat": 38.88768666666667, "rental_uris": {"android": "https://dc.lft.to/lastmile_qr_scan", "ios": "https://dc.lft.to/lastmile_qr_scan"}, "bike_id": "799c306e03e14b7c252cb6ec03b458fe", "lon": -76.986826}, {"is_reserved": 0, "fusion_lon": 0.0, "fusion_lat": 0.0, "name": "8f737ce9eb9b81a9aa281f7b900b524f", "type": "electric_scooter", "is_disabled": 0, "lat": 38.920482666666665, "rental_uris": {"android": "https://dc.lft.to/lastmile_qr_scan", "ios": "https://dc.lft.to/lastmile_qr_scan"}, "bike_id": "8f737ce9eb9b81a9aa281f7b900b524f", "lon": -77.02426883333334}, {"is_reserved": 0, "fusion_lon": 0.0, "fusion_lat": 0.0, "name": "1aca12e90b595f3f2ece5d8a3b9bcd1d", "type": "electric_bike", "is_disabled": 0, "lat": 39.05636233333333, "rental_uris": {"android": "https://dc.lft.to/lastmile_qr_scan", "ios": "https://dc.lft.to/lastmile_qr_scan"}, "bike_id": "1aca12e90b595f3f2ece5d8a3b9bcd1d", "lon": -77.1252825}, {"is_reserved": 0, "fusion_lon": 0.0, "fusion_lat": 0.0, "name": "4a44d234e7cf731cc05072a501826d47", "type": "electric_scooter", "is_disabled": 0, "lat": 38.903813, "rental_uris": {"android": "https://dc.lft.to/lastmile_qr_scan", "ios": "https://dc.lft.to/lastmile_qr_scan"}, "bike_id": "4a44d234e7cf731cc05072a501826d47", "lon": -77.03827783333334}, {"is_reserved": 0, "fusion_lon": 0.0, "fusion_lat": 0.0, "name": "f6f0186ae7816ab109b13c43487c5ce9", "type": "electric_scooter", "is_disabled": 0, "lat": 38.897402666666665, "rental_uris": {"android": "https://dc.lft.to/lastmile_qr_scan", "ios": "https://dc.lft.to/lastmile_qr_scan"}, "bike_id": "f6f0186ae7816ab109b13c43487c5ce9", "lon": -77.0334475}, {"is_reserved": 0, "fusion_lon": 0.0, "fusion_lat": 0.0, "name": "856408f8cb29f4945d58aea2b816c403", "type": "electric_scooter", "is_disabled": 0, "lat": 38.9451455, "rental_uris": {"android": "https://dc.lft.to/lastmile_qr_scan", "ios": "https://dc.lft.to/lastmile_qr_scan"}, "bike_id": "856408f8cb29f4945d58aea2b816c403", "lon": -77.07455416666667}, {"is_reserved": 0, "fusion_lon": 0.0, "fusion_lat": 0.0, "name": "5553ff68e0deb0c22cb0f9902384dd9f", "type": "electric_scooter", "is_disabled": 0, "lat": 38.924461666666666, "rental_uris": {"android": "https://dc.lft.to/lastmile_qr_scan", "ios": "https://dc.lft.to/lastmile_qr_scan"}, "bike_id": "5553ff68e0deb0c22cb0f9902384dd9f", "lon": -76.979123}, {"is_reserved": 0, "fusion_lon": 0.0, "fusion_lat": 0.0, "name": "565f23ab787090c34b0b814c296db833", "type": "electric_scooter", "is_disabled": 0, "lat": 38.90503966666667, "rental_uris": {"android": "https://dc.lft.to/lastmile_qr_scan", "ios": "https://dc.lft.to/lastmile_qr_scan"}, "bike_id": "565f23ab787090c34b0b814c296db833", "lon": -77.0295725}, {"is_reserved": 0, "fusion_lon": 0.0, "fusion_lat": 0.0, "name": "a651605ef69005debbc7ceba136f4cfd", "type": "electric_scooter", "is_disabled": 0, "lat": 38.90992033333333, "rental_uris": {"android": "https://dc.lft.to/lastmile_qr_scan", "ios": "https://dc.lft.to/lastmile_qr_scan"}, "bike_id": "a651605ef69005debbc7ceba136f4cfd", "lon": -77.0281355}, {"is_reserved": 0, "fusion_lon": 0.0, "fusion_lat": 0.0, "name": "8203daeacf500b5d9732c89271c38cd3", "type": "electric_scooter", "is_disabled": 0, "lat": 38.91027866666667, "rental_uris": {"android": "https://dc.lft.to/lastmile_qr_scan", "ios": "https://dc.lft.to/lastmile_qr_scan"}, "bike_id": "8203daeacf500b5d9732c89271c38cd3", "lon": -77.03441566666666}, {"is_reserved": 0, "fusion_lon": 0.0, "fusion_lat": 0.0, "name": "51a0497c9c10bbb631211412aa2896e3", "type": "electric_scooter", "is_disabled": 0, "lat": 38.922272166666666, "rental_uris": {"android": "https://dc.lft.to/lastmile_qr_scan", "ios": "https://dc.lft.to/lastmile_qr_scan"}, "bike_id": "51a0497c9c10bbb631211412aa2896e3", "lon": -76.97532266666667}, {"is_reserved": 0, "fusion_lon": 0.0, "fusion_lat": 0.0, "name": "670a27eecbcbf5663d90dd57c2443995", "type": "electric_scooter", "is_disabled": 0, "lat": 38.90885983333333, "rental_uris": {"android": "https://dc.lft.to/lastmile_qr_scan", "ios": "https://dc.lft.to/lastmile_qr_scan"}, "bike_id": "670a27eecbcbf5663d90dd57c2443995", "lon": -77.07323666666667}, {"is_reserved": 0, "fusion_lon": 0.0, "fusion_lat": 0.0, "name": "0cc93c8a84ddc6c32e3ac65ec177082d", "type": "electric_scooter", "is_disabled": 0, "lat": 38.889893, "rental_uris": {"android": "https://dc.lft.to/lastmile_qr_scan", "ios": "https://dc.lft.to/lastmile_qr_scan"}, "bike_id": "0cc93c8a84ddc6c32e3ac65ec177082d", "lon": -76.93109833333334}, {"is_reserved": 0, "fusion_lon": 0.0, "fusion_lat": 0.0, "name": "73c1921ff8ecb7b272f4c160e0f1efc3", "type": "electric_scooter", "is_disabled": 0, "lat": 38.892204666666665, "rental_uris": {"android": "https://dc.lft.to/lastmile_qr_scan", "ios": "https://dc.lft.to/lastmile_qr_scan"}, "bike_id": "73c1921ff8ecb7b272f4c160e0f1efc3", "lon": -77.04377616666666}, {"is_reserved": 0, "fusion_lon": 0.0, "fusion_lat": 0.0, "name": "8c2ab7882eb8e6d985577fbc2ec03793", "type": "electric_scooter", "is_disabled": 0, "lat": 38.9452695, "rental_uris": {"android": "https://dc.lft.to/lastmile_qr_scan", "ios": "https://dc.lft.to/lastmile_qr_scan"}, "bike_id": "8c2ab7882eb8e6d985577fbc2ec03793", "lon": -77.02091316666667}, {"is_reserved": 0, "fusion_lon": 0.0, "fusion_lat": 0.0, "name": "6f6d8e2e3071f1195c9e96bac784aef1", "type": "electric_scooter", "is_disabled": 0, "lat": 38.90604966666667, "rental_uris": {"android": "https://dc.lft.to/lastmile_qr_scan", "ios": "https://dc.lft.to/lastmile_qr_scan"}, "bike_id": "6f6d8e2e3071f1195c9e96bac784aef1", "lon": -76.98518516666667}, {"is_reserved": 0, "fusion_lon": 0.0, "fusion_lat": 0.0, "name": "99d05be9d8a37f3284b75a9ec9130ca4", "type": "electric_scooter", "is_disabled": 0, "lat": 38.92388733333333, "rental_uris": {"android": "https://dc.lft.to/lastmile_qr_scan", "ios": "https://dc.lft.to/lastmile_qr_scan"}, "bike_id": "99d05be9d8a37f3284b75a9ec9130ca4", "lon": -77.03547766666667}, {"is_reserved": 0, "fusion_lon": 0.0, "fusion_lat": 0.0, "name": "4b5c173599f99fa30a1423a5735a57a5", "type": "electric_scooter", "is_disabled": 0, "lat": 38.934579, "rental_uris": {"android": "https://dc.lft.to/lastmile_qr_scan", "ios": "https://dc.lft.to/lastmile_qr_scan"}, "bike_id": "4b5c173599f99fa30a1423a5735a57a5", "lon": -77.03049433333334}, {"is_reserved": 0, "fusion_lon": 0.0, "fusion_lat": 0.0, "name": "210bd6c773593cfbffac5e6bd222f907", "type": "electric_scooter", "is_disabled": 0, "lat": 38.91265, "rental_uris": {"android": "https://dc.lft.to/lastmile_qr_scan", "ios": "https://dc.lft.to/lastmile_qr_scan"}, "bike_id": "210bd6c773593cfbffac5e6bd222f907", "lon": -77.03124133333333}, {"is_reserved": 0, "fusion_lon": 0.0, "fusion_lat": 0.0, "name": "b7aac9a924d4d520d50dde6e44a54fbd", "type": "electric_bike", "is_disabled": 0, "lat": 38.92202666666667, "rental_uris": {"android": "https://dc.lft.to/lastmile_qr_scan", "ios": "https://dc.lft.to/lastmile_qr_scan"}, "bike_id": "b7aac9a924d4d520d50dde6e44a54fbd", "lon": -77.08194933333333}, {"is_reserved": 0, "fusion_lon": 0.0, "fusion_lat": 0.0, "name": "c0f6d57d7b76679741efe3faac76a97e", "type": "electric_scooter", "is_disabled": 0, "lat": 38.950555, "rental_uris": {"android": "https://dc.lft.to/lastmile_qr_scan", "ios": "https://dc.lft.to/lastmile_qr_scan"}, "bike_id": "c0f6d57d7b76679741efe3faac76a97e", "lon": -77.0072925}, {"is_reserved": 0, "fusion_lon": 0.0, "fusion_lat": 0.0, "name": "f62faf7e87764c731e1614bd2f657f2e", "type": "electric_scooter", "is_disabled": 0, "lat": 38.91799983333333, "rental_uris": {"android": "https://dc.lft.to/lastmile_qr_scan", "ios": "https://dc.lft.to/lastmile_qr_scan"}, "bike_id": "f62faf7e87764c731e1614bd2f657f2e", "lon": -77.03207483333334}, {"is_reserved": 0, "fusion_lon": 0.0, "fusion_lat": 0.0, "name": "ceca8f3e6fe390e8f64cf6d1a782804c", "type": "electric_scooter", "is_disabled": 0, "lat": 38.896120333333336, "rental_uris": {"android": "https://dc.lft.to/lastmile_qr_scan", "ios": "https://dc.lft.to/lastmile_qr_scan"}, "bike_id": "ceca8f3e6fe390e8f64cf6d1a782804c", "lon": -76.9929905}, {"is_reserved": 0, "fusion_lon": 0.0, "fusion_lat": 0.0, "name": "323bfc9a3ab0c219cb6bea037f92cdc5", "type": "electric_scooter", "is_disabled": 0, "lat": 38.8922345, "rental_uris": {"android": "https://dc.lft.to/lastmile_qr_scan", "ios": "https://dc.lft.to/lastmile_qr_scan"}, "bike_id": "323bfc9a3ab0c219cb6bea037f92cdc5", "lon": -77.03165}, {"is_reserved": 0, "fusion_lon": 0.0, "fusion_lat": 0.0, "name": "30465c2bf9b87898eec219de432be16b", "type": "electric_scooter", "is_disabled": 0, "lat": 38.9133625, "rental_uris": {"android": "https://dc.lft.to/lastmile_qr_scan", "ios": "https://dc.lft.to/lastmile_qr_scan"}, "bike_id": "30465c2bf9b87898eec219de432be16b", "lon": -77.0481915}, {"is_reserved": 0, "fusion_lon": 0.0, "fusion_lat": 0.0, "name": "6104da7c28cb93b50640806c7c78a3c9", "type": "electric_bike", "is_disabled": 0, "lat": 39.05499533333333, "rental_uris": {"android": "https://dc.lft.to/lastmile_qr_scan", "ios": "https://dc.lft.to/lastmile_qr_scan"}, "bike_id": "6104da7c28cb93b50640806c7c78a3c9", "lon": -77.04650633333334}, {"is_reserved": 0, "fusion_lon": 0.0, "fusion_lat": 0.0, "name": "06aebd37eb2486838d662bcb760d3d59", "type": "electric_scooter", "is_disabled": 0, "lat": 38.92331333333333, "rental_uris": {"android": "https://dc.lft.to/lastmile_qr_scan", "ios": "https://dc.lft.to/lastmile_qr_scan"}, "bike_id": "06aebd37eb2486838d662bcb760d3d59", "lon": -77.0378325}, {"is_reserved": 0, "fusion_lon": 0.0, "fusion_lat": 0.0, "name": "74865e3be5f480ccecd59855420f94ec", "type": "electric_scooter", "is_disabled": 0, "lat": 38.907888166666666, "rental_uris": {"android": "https://dc.lft.to/lastmile_qr_scan", "ios": "https://dc.lft.to/lastmile_qr_scan"}, "bike_id": "74865e3be5f480ccecd59855420f94ec", "lon": -77.0344675}, {"is_reserved": 0, "fusion_lon": 0.0, "fusion_lat": 0.0, "name": "dc60be620b31a40c24e089721dac9873", "type": "electric_bike", "is_disabled": 0, "lat": 38.9543735, "rental_uris": {"android": "https://dc.lft.to/lastmile_qr_scan", "ios": "https://dc.lft.to/lastmile_qr_scan"}, "bike_id": "dc60be620b31a40c24e089721dac9873", "lon": -76.98912066666666}, {"is_reserved": 0, "fusion_lon": 0.0, "fusion_lat": 0.0, "name": "e817035268d6cb29eb3eaa8a11fa090f", "type": "electric_scooter", "is_disabled": 0, "lat": 38.8860735, "rental_uris": {"android": "https://dc.lft.to/lastmile_qr_scan", "ios": "https://dc.lft.to/lastmile_qr_scan"}, "bike_id": "e817035268d6cb29eb3eaa8a11fa090f", "lon": -76.99512066666666}, {"is_reserved": 0, "fusion_lon": 0.0, "fusion_lat": 0.0, "name": "6f2bf2d4f9b858606189c2ab6df7715d", "type": "electric_scooter", "is_disabled": 0, "lat": 38.90429133333333, "rental_uris": {"android": "https://dc.lft.to/lastmile_qr_scan", "ios": "https://dc.lft.to/lastmile_qr_scan"}, "bike_id": "6f2bf2d4f9b858606189c2ab6df7715d", "lon": -77.0433225}, {"is_reserved": 0, "fusion_lon": 0.0, "fusion_lat": 0.0, "name": "a76d2d0c1e8431f6d4a4059a9a35c4c2", "type": "electric_bike", "is_disabled": 0, "lat": 38.92966916666666, "rental_uris": {"android": "https://dc.lft.to/lastmile_qr_scan", "ios": "https://dc.lft.to/lastmile_qr_scan"}, "bike_id": "a76d2d0c1e8431f6d4a4059a9a35c4c2", "lon": -77.1856145}, {"is_reserved": 0, "fusion_lon": 0.0, "fusion_lat": 0.0, "name": "74c22c1e9e596895d07cc2449b85ed10", "type": "electric_scooter", "is_disabled": 0, "lat": 38.933979, "rental_uris": {"android": "https://dc.lft.to/lastmile_qr_scan", "ios": "https://dc.lft.to/lastmile_qr_scan"}, "bike_id": "74c22c1e9e596895d07cc2449b85ed10", "lon": -77.039867}, {"is_reserved": 0, "fusion_lon": 0.0, "fusion_lat": 0.0, "name": "9106667b479beef08b560cb241ddeabf", "type": "electric_bike", "is_disabled": 0, "lat": 38.86490466666667, "rental_uris": {"android": "https://dc.lft.to/lastmile_qr_scan", "ios": "https://dc.lft.to/lastmile_qr_scan"}, "bike_id": "9106667b479beef08b560cb241ddeabf", "lon": -76.97746916666667}, {"is_reserved": 0, "fusion_lon": 0.0, "fusion_lat": 0.0, "name": "47b389f964d22b741f34c4ceb4f24b57", "type": "electric_scooter", "is_disabled": 0, "lat": 38.92144566666666, "rental_uris": {"android": "https://dc.lft.to/lastmile_qr_scan", "ios": "https://dc.lft.to/lastmile_qr_scan"}, "bike_id": "47b389f964d22b741f34c4ceb4f24b57", "lon": -77.03660916666666}, {"is_reserved": 0, "fusion_lon": 0.0, "fusion_lat": 0.0, "name": "e92fd0cbdc7386ecb3a06f58c0db5819", "type": "electric_bike", "is_disabled": 0, "lat": 38.953327333333334, "rental_uris": {"android": "https://dc.lft.to/lastmile_qr_scan", "ios": "https://dc.lft.to/lastmile_qr_scan"}, "bike_id": "e92fd0cbdc7386ecb3a06f58c0db5819", "lon": -76.98250183333333}, {"is_reserved": 0, "fusion_lon": 0.0, "fusion_lat": 0.0, "name": "277d819999da440cc60ff314f19e0a7b", "type": "electric_scooter", "is_disabled": 0, "lat": 38.91797233333333, "rental_uris": {"android": "https://dc.lft.to/lastmile_qr_scan", "ios": "https://dc.lft.to/lastmile_qr_scan"}, "bike_id": "277d819999da440cc60ff314f19e0a7b", "lon": -77.03456733333333}, {"is_reserved": 0, "fusion_lon": 0.0, "fusion_lat": 0.0, "name": "e592098d16f3f2d02b18eb847307904f", "type": "electric_scooter", "is_disabled": 0, "lat": 38.892325666666665, "rental_uris": {"android": "https://dc.lft.to/lastmile_qr_scan", "ios": "https://dc.lft.to/lastmile_qr_scan"}, "bike_id": "e592098d16f3f2d02b18eb847307904f", "lon": -77.05004383333333}, {"is_reserved": 0, "fusion_lon": 0.0, "fusion_lat": 0.0, "name": "2eb1f6a43f617b62a101581694f4339f", "type": "electric_bike", "is_disabled": 0, "lat": 38.93170583333333, "rental_uris": {"android": "https://dc.lft.to/lastmile_qr_scan", "ios": "https://dc.lft.to/lastmile_qr_scan"}, "bike_id": "2eb1f6a43f617b62a101581694f4339f", "lon": -76.88402283333333}, {"is_reserved": 0, "fusion_lon": 0.0, "fusion_lat": 0.0, "name": "02451c615898d11d4f4d8f2375c678ea", "type": "electric_scooter", "is_disabled": 0, "lat": 38.91492016666667, "rental_uris": {"android": "https://dc.lft.to/lastmile_qr_scan", "ios": "https://dc.lft.to/lastmile_qr_scan"}, "bike_id": "02451c615898d11d4f4d8f2375c678ea", "lon": -77.01992333333334}, {"is_reserved": 0, "fusion_lon": 0.0, "fusion_lat": 0.0, "name": "7c054c635a2c600c12e5e2ed1bdce58b", "type": "electric_scooter", "is_disabled": 0, "lat": 38.939472333333335, "rental_uris": {"android": "https://dc.lft.to/lastmile_qr_scan", "ios": "https://dc.lft.to/lastmile_qr_scan"}, "bike_id": "7c054c635a2c600c12e5e2ed1bdce58b", "lon": -77.02489416666667}, {"is_reserved": 0, "fusion_lon": 0.0, "fusion_lat": 0.0, "name": "194782ed96adb9505fe55ddf50cfa702", "type": "electric_scooter", "is_disabled": 0, "lat": 38.908939, "rental_uris": {"android": "https://dc.lft.to/lastmile_qr_scan", "ios": "https://dc.lft.to/lastmile_qr_scan"}, "bike_id": "194782ed96adb9505fe55ddf50cfa702", "lon": -76.998488}, {"is_reserved": 0, "fusion_lon": 0.0, "fusion_lat": 0.0, "name": "be6c2064b295ab76263f89fd90970510", "type": "electric_scooter", "is_disabled": 0, "lat": 38.90258133333333, "rental_uris": {"android": "https://dc.lft.to/lastmile_qr_scan", "ios": "https://dc.lft.to/lastmile_qr_scan"}, "bike_id": "be6c2064b295ab76263f89fd90970510", "lon": -77.036599}, {"is_reserved": 0, "fusion_lon": 0.0, "fusion_lat": 0.0, "name": "f5744390b122879de4884d25e7d3b58e", "type": "electric_scooter", "is_disabled": 0, "lat": 38.923221833333336, "rental_uris": {"android": "https://dc.lft.to/lastmile_qr_scan", "ios": "https://dc.lft.to/lastmile_qr_scan"}, "bike_id": "f5744390b122879de4884d25e7d3b58e", "lon": -77.035464}, {"is_reserved": 0, "fusion_lon": 0.0, "fusion_lat": 0.0, "name": "71470d825228f7dc6c0babdab00d12a4", "type": "electric_scooter", "is_disabled": 0, "lat": 38.9960485, "rental_uris": {"android": "https://dc.lft.to/lastmile_qr_scan", "ios": "https://dc.lft.to/lastmile_qr_scan"}, "bike_id": "71470d825228f7dc6c0babdab00d12a4", "lon": -77.03219666666666}, {"is_reserved": 0, "fusion_lon": 0.0, "fusion_lat": 0.0, "name": "c15f94e3b60d9e96b1704820d2c78e3e", "type": "electric_scooter", "is_disabled": 0, "lat": 38.906682833333335, "rental_uris": {"android": "https://dc.lft.to/lastmile_qr_scan", "ios": "https://dc.lft.to/lastmile_qr_scan"}, "bike_id": "c15f94e3b60d9e96b1704820d2c78e3e", "lon": -77.02719866666666}, {"is_reserved": 0, "fusion_lon": 0.0, "fusion_lat": 0.0, "name": "246ef20ff7bb2b6fcd27e06a677cd177", "type": "electric_scooter", "is_disabled": 0, "lat": 38.9061685, "rental_uris": {"android": "https://dc.lft.to/lastmile_qr_scan", "ios": "https://dc.lft.to/lastmile_qr_scan"}, "bike_id": "246ef20ff7bb2b6fcd27e06a677cd177", "lon": -77.00447916666667}, {"is_reserved": 0, "fusion_lon": 0.0, "fusion_lat": 0.0, "name": "3e8305ad9f8f41ee7cdfa8fe17462f7b", "type": "electric_scooter", "is_disabled": 0, "lat": 38.8647555, "rental_uris": {"android": "https://dc.lft.to/lastmile_qr_scan", "ios": "https://dc.lft.to/lastmile_qr_scan"}, "bike_id": "3e8305ad9f8f41ee7cdfa8fe17462f7b", "lon": -76.98227566666667}, {"is_reserved": 0, "fusion_lon": 0.0, "fusion_lat": 0.0, "name": "ac6df47e85970dbe5484ae14692651b3", "type": "electric_scooter", "is_disabled": 0, "lat": 38.8357485, "rental_uris": {"android": "https://dc.lft.to/lastmile_qr_scan", "ios": "https://dc.lft.to/lastmile_qr_scan"}, "bike_id": "ac6df47e85970dbe5484ae14692651b3", "lon": -76.99489433333333}, {"is_reserved": 0, "fusion_lon": 0.0, "fusion_lat": 0.0, "name": "9b049038b8c14f6ba495546f17b47e6c", "type": "electric_scooter", "is_disabled": 0, "lat": 38.87459166666667, "rental_uris": {"android": "https://dc.lft.to/lastmile_qr_scan", "ios": "https://dc.lft.to/lastmile_qr_scan"}, "bike_id": "9b049038b8c14f6ba495546f17b47e6c", "lon": -77.00556233333333}, {"is_reserved": 0, "fusion_lon": 0.0, "fusion_lat": 0.0, "name": "c20c41b1e5757d05dba116952c0870fa", "type": "electric_scooter", "is_disabled": 0, "lat": 38.90723, "rental_uris": {"android": "https://dc.lft.to/lastmile_qr_scan", "ios": "https://dc.lft.to/lastmile_qr_scan"}, "bike_id": "c20c41b1e5757d05dba116952c0870fa", "lon": -77.025456}, {"is_reserved": 0, "fusion_lon": 0.0, "fusion_lat": 0.0, "name": "b648e3edd98cf7cef8b6be079ad59653", "type": "electric_scooter", "is_disabled": 0, "lat": 38.922976166666665, "rental_uris": {"android": "https://dc.lft.to/lastmile_qr_scan", "ios": "https://dc.lft.to/lastmile_qr_scan"}, "bike_id": "b648e3edd98cf7cef8b6be079ad59653", "lon": -77.04265416666667}, {"is_reserved": 0, "fusion_lon": 0.0, "fusion_lat": 0.0, "name": "b0387a36638536dd2abfb73a34c5d915", "type": "electric_scooter", "is_disabled": 0, "lat": 38.8964945, "rental_uris": {"android": "https://dc.lft.to/lastmile_qr_scan", "ios": "https://dc.lft.to/lastmile_qr_scan"}, "bike_id": "b0387a36638536dd2abfb73a34c5d915", "lon": -77.0316255}, {"is_reserved": 0, "fusion_lon": 0.0, "fusion_lat": 0.0, "name": "9f4bc7b9a97c8fe2ed42c1b35fe4f540", "type": "electric_scooter", "is_disabled": 0, "lat": 38.88875216666667, "rental_uris": {"android": "https://dc.lft.to/lastmile_qr_scan", "ios": "https://dc.lft.to/lastmile_qr_scan"}, "bike_id": "9f4bc7b9a97c8fe2ed42c1b35fe4f540", "lon": -76.9821515}, {"is_reserved": 0, "fusion_lon": 0.0, "fusion_lat": 0.0, "name": "579d3fa0a15f3980b957499e2fde156e", "type": "electric_scooter", "is_disabled": 0, "lat": 38.900785166666665, "rental_uris": {"android": "https://dc.lft.to/lastmile_qr_scan", "ios": "https://dc.lft.to/lastmile_qr_scan"}, "bike_id": "579d3fa0a15f3980b957499e2fde156e", "lon": -77.04883183333334}, {"is_reserved": 0, "fusion_lon": 0.0, "fusion_lat": 0.0, "name": "971e52966caf5f709dfd584a1c712ac5", "type": "electric_scooter", "is_disabled": 0, "lat": 38.915526, "rental_uris": {"android": "https://dc.lft.to/lastmile_qr_scan", "ios": "https://dc.lft.to/lastmile_qr_scan"}, "bike_id": "971e52966caf5f709dfd584a1c712ac5", "lon": -77.02556633333333}, {"is_reserved": 0, "fusion_lon": 0.0, "fusion_lat": 0.0, "name": "79ea6dc1e4c0575d440951e8fd3ddae6", "type": "electric_scooter", "is_disabled": 0, "lat": 38.9285245, "rental_uris": {"android": "https://dc.lft.to/lastmile_qr_scan", "ios": "https://dc.lft.to/lastmile_qr_scan"}, "bike_id": "79ea6dc1e4c0575d440951e8fd3ddae6", "lon": -77.03620333333333}, {"is_reserved": 0, "fusion_lon": 0.0, "fusion_lat": 0.0, "name": "dd9bf417d0f009a3a21c6a44ed8ad3a1", "type": "electric_scooter", "is_disabled": 0, "lat": 38.899713, "rental_uris": {"android": "https://dc.lft.to/lastmile_qr_scan", "ios": "https://dc.lft.to/lastmile_qr_scan"}, "bike_id": "dd9bf417d0f009a3a21c6a44ed8ad3a1", "lon": -77.04825133333334}, {"is_reserved": 0, "fusion_lon": 0.0, "fusion_lat": 0.0, "name": "492cdc73837e54def10102e67acd0f9e", "type": "electric_scooter", "is_disabled": 0, "lat": 38.937813166666665, "rental_uris": {"android": "https://dc.lft.to/lastmile_qr_scan", "ios": "https://dc.lft.to/lastmile_qr_scan"}, "bike_id": "492cdc73837e54def10102e67acd0f9e", "lon": -77.03290983333333}, {"is_reserved": 0, "fusion_lon": 0.0, "fusion_lat": 0.0, "name": "efb97fa7fb2516342c9f175bc2f90384", "type": "electric_scooter", "is_disabled": 0, "lat": 38.92067816666667, "rental_uris": {"android": "https://dc.lft.to/lastmile_qr_scan", "ios": "https://dc.lft.to/lastmile_qr_scan"}, "bike_id": "efb97fa7fb2516342c9f175bc2f90384", "lon": -77.03815733333333}, {"is_reserved": 0, "fusion_lon": 0.0, "fusion_lat": 0.0, "name": "3603b1c4bb7a0ed19c63a5f441178b77", "type": "electric_scooter", "is_disabled": 0, "lat": 38.9267045, "rental_uris": {"android": "https://dc.lft.to/lastmile_qr_scan", "ios": "https://dc.lft.to/lastmile_qr_scan"}, "bike_id": "3603b1c4bb7a0ed19c63a5f441178b77", "lon": -77.04283416666667}, {"is_reserved": 0, "fusion_lon": 0.0, "fusion_lat": 0.0, "name": "261dd91cb105602f69b995e677505dff", "type": "electric_scooter", "is_disabled": 0, "lat": 38.92371266666667, "rental_uris": {"android": "https://dc.lft.to/lastmile_qr_scan", "ios": "https://dc.lft.to/lastmile_qr_scan"}, "bike_id": "261dd91cb105602f69b995e677505dff", "lon": -77.02923883333334}, {"is_reserved": 0, "fusion_lon": 0.0, "fusion_lat": 0.0, "name": "aebecda94b980e95a1e5f887dad9a568", "type": "electric_scooter", "is_disabled": 0, "lat": 38.900931666666665, "rental_uris": {"android": "https://dc.lft.to/lastmile_qr_scan", "ios": "https://dc.lft.to/lastmile_qr_scan"}, "bike_id": "aebecda94b980e95a1e5f887dad9a568", "lon": -77.047463}, {"is_reserved": 0, "fusion_lon": 0.0, "fusion_lat": 0.0, "name": "9ed963a0ef0ad36f501312569e0216af", "type": "electric_scooter", "is_disabled": 0, "lat": 38.881748, "rental_uris": {"android": "https://dc.lft.to/lastmile_qr_scan", "ios": "https://dc.lft.to/lastmile_qr_scan"}, "bike_id": "9ed963a0ef0ad36f501312569e0216af", "lon": -76.92981433333334}, {"is_reserved": 0, "fusion_lon": 0.0, "fusion_lat": 0.0, "name": "2dc80c293fb01a78d38311cb27a38497", "type": "electric_scooter", "is_disabled": 0, "lat": 38.862565833333335, "rental_uris": {"android": "https://dc.lft.to/lastmile_qr_scan", "ios": "https://dc.lft.to/lastmile_qr_scan"}, "bike_id": "2dc80c293fb01a78d38311cb27a38497", "lon": -76.99516016666666}, {"is_reserved": 0, "fusion_lon": 0.0, "fusion_lat": 0.0, "name": "6848b1acb78281ef16e6cfedd11306f0", "type": "electric_scooter", "is_disabled": 0, "lat": 38.92685383333333, "rental_uris": {"android": "https://dc.lft.to/lastmile_qr_scan", "ios": "https://dc.lft.to/lastmile_qr_scan"}, "bike_id": "6848b1acb78281ef16e6cfedd11306f0", "lon": -77.015068}, {"is_reserved": 0, "fusion_lon": 0.0, "fusion_lat": 0.0, "name": "7d08b07cc777d14f3a1a78786d8be59b", "type": "electric_scooter", "is_disabled": 0, "lat": 38.92748733333333, "rental_uris": {"android": "https://dc.lft.to/lastmile_qr_scan", "ios": "https://dc.lft.to/lastmile_qr_scan"}, "bike_id": "7d08b07cc777d14f3a1a78786d8be59b", "lon": -77.0215045}, {"is_reserved": 0, "fusion_lon": 0.0, "fusion_lat": 0.0, "name": "016c79c9511cf74e087997d021fa854c", "type": "electric_scooter", "is_disabled": 0, "lat": 38.92123933333333, "rental_uris": {"android": "https://dc.lft.to/lastmile_qr_scan", "ios": "https://dc.lft.to/lastmile_qr_scan"}, "bike_id": "016c79c9511cf74e087997d021fa854c", "lon": -77.04380383333333}, {"is_reserved": 0, "fusion_lon": 0.0, "fusion_lat": 0.0, "name": "d8f803616da7b3b27107c1dbadb46b66", "type": "electric_scooter", "is_disabled": 0, "lat": 38.92047633333333, "rental_uris": {"android": "https://dc.lft.to/lastmile_qr_scan", "ios": "https://dc.lft.to/lastmile_qr_scan"}, "bike_id": "d8f803616da7b3b27107c1dbadb46b66", "lon": -76.98944233333333}, {"is_reserved": 0, "fusion_lon": 0.0, "fusion_lat": 0.0, "name": "1cbd10ca3f6cd4567ea9ae9d58b7e3fa", "type": "electric_bike", "is_disabled": 0, "lat": 38.829484666666666, "rental_uris": {"android": "https://dc.lft.to/lastmile_qr_scan", "ios": "https://dc.lft.to/lastmile_qr_scan"}, "bike_id": "1cbd10ca3f6cd4567ea9ae9d58b7e3fa", "lon": -77.12356833333334}, {"is_reserved": 0, "fusion_lon": 0.0, "fusion_lat": 0.0, "name": "d22d2e3c25e70210342a184916b37507", "type": "electric_scooter", "is_disabled": 0, "lat": 38.92648416666667, "rental_uris": {"android": "https://dc.lft.to/lastmile_qr_scan", "ios": "https://dc.lft.to/lastmile_qr_scan"}, "bike_id": "d22d2e3c25e70210342a184916b37507", "lon": -77.02500683333334}, {"is_reserved": 0, "fusion_lon": 0.0, "fusion_lat": 0.0, "name": "414103d510049ab271a71fe025bf042f", "type": "electric_scooter", "is_disabled": 0, "lat": 38.880433, "rental_uris": {"android": "https://dc.lft.to/lastmile_qr_scan", "ios": "https://dc.lft.to/lastmile_qr_scan"}, "bike_id": "414103d510049ab271a71fe025bf042f", "lon": -76.98622183333333}, {"is_reserved": 0, "fusion_lon": 0.0, "fusion_lat": 0.0, "name": "ac796980a9928187e58eeb73026dbcad", "type": "electric_scooter", "is_disabled": 0, "lat": 38.92068733333333, "rental_uris": {"android": "https://dc.lft.to/lastmile_qr_scan", "ios": "https://dc.lft.to/lastmile_qr_scan"}, "bike_id": "ac796980a9928187e58eeb73026dbcad", "lon": -77.043805}, {"is_reserved": 0, "fusion_lon": 0.0, "fusion_lat": 0.0, "name": "945753f43c816240d88e8389cabbfd56", "type": "electric_scooter", "is_disabled": 0, "lat": 38.9058255, "rental_uris": {"android": "https://dc.lft.to/lastmile_qr_scan", "ios": "https://dc.lft.to/lastmile_qr_scan"}, "bike_id": "945753f43c816240d88e8389cabbfd56", "lon": -77.0345485}, {"is_reserved": 0, "fusion_lon": 0.0, "fusion_lat": 0.0, "name": "6a6cf6b3517ba943edaa97642def512e", "type": "electric_scooter", "is_disabled": 0, "lat": 38.936092, "rental_uris": {"android": "https://dc.lft.to/lastmile_qr_scan", "ios": "https://dc.lft.to/lastmile_qr_scan"}, "bike_id": "6a6cf6b3517ba943edaa97642def512e", "lon": -77.03787716666666}, {"is_reserved": 0, "fusion_lon": 0.0, "fusion_lat": 0.0, "name": "2582128b4e0ff0f18462e03a237ea6e2", "type": "electric_scooter", "is_disabled": 0, "lat": 38.935364666666665, "rental_uris": {"android": "https://dc.lft.to/lastmile_qr_scan", "ios": "https://dc.lft.to/lastmile_qr_scan"}, "bike_id": "2582128b4e0ff0f18462e03a237ea6e2", "lon": -77.02349916666667}, {"is_reserved": 0, "fusion_lon": 0.0, "fusion_lat": 0.0, "name": "bbbb16d3ec60ff7706573da232320bbe", "type": "electric_scooter", "is_disabled": 0, "lat": 38.92087033333333, "rental_uris": {"android": "https://dc.lft.to/lastmile_qr_scan", "ios": "https://dc.lft.to/lastmile_qr_scan"}, "bike_id": "bbbb16d3ec60ff7706573da232320bbe", "lon": -77.02194033333333}, {"is_reserved": 0, "fusion_lon": 0.0, "fusion_lat": 0.0, "name": "f13938e985342c9e3c8b2721db9975e9", "type": "electric_scooter", "is_disabled": 0, "lat": 38.92496366666666, "rental_uris": {"android": "https://dc.lft.to/lastmile_qr_scan", "ios": "https://dc.lft.to/lastmile_qr_scan"}, "bike_id": "f13938e985342c9e3c8b2721db9975e9", "lon": -77.021733}, {"is_reserved": 0, "fusion_lon": 0.0, "fusion_lat": 0.0, "name": "9533e4eba3d99257ec5934ac1f5702a5", "type": "electric_scooter", "is_disabled": 0, "lat": 38.91819533333334, "rental_uris": {"android": "https://dc.lft.to/lastmile_qr_scan", "ios": "https://dc.lft.to/lastmile_qr_scan"}, "bike_id": "9533e4eba3d99257ec5934ac1f5702a5", "lon": -77.03457133333333}, {"is_reserved": 0, "fusion_lon": 0.0, "fusion_lat": 0.0, "name": "3469ca021ef924836e650d22b323c0ce", "type": "electric_scooter", "is_disabled": 0, "lat": 38.90052083333333, "rental_uris": {"android": "https://dc.lft.to/lastmile_qr_scan", "ios": "https://dc.lft.to/lastmile_qr_scan"}, "bike_id": "3469ca021ef924836e650d22b323c0ce", "lon": -77.03937266666667}, {"is_reserved": 0, "fusion_lon": 0.0, "fusion_lat": 0.0, "name": "5f25bdda122d669cce48ba41faec71bd", "type": "electric_bike", "is_disabled": 0, "lat": 38.94557016666667, "rental_uris": {"android": "https://dc.lft.to/lastmile_qr_scan", "ios": "https://dc.lft.to/lastmile_qr_scan"}, "bike_id": "5f25bdda122d669cce48ba41faec71bd", "lon": -76.9668555}, {"is_reserved": 0, "fusion_lon": 0.0, "fusion_lat": 0.0, "name": "e128ead61e0744fa7f6f684e64c12c01", "type": "electric_bike", "is_disabled": 0, "lat": 38.947541, "rental_uris": {"android": "https://dc.lft.to/lastmile_qr_scan", "ios": "https://dc.lft.to/lastmile_qr_scan"}, "bike_id": "e128ead61e0744fa7f6f684e64c12c01", "lon": -77.02367833333334}, {"is_reserved": 0, "fusion_lon": 0.0, "fusion_lat": 0.0, "name": "601d9383c2a3ee5569f3d5a268715c6c", "type": "electric_scooter", "is_disabled": 0, "lat": 38.90075266666667, "rental_uris": {"android": "https://dc.lft.to/lastmile_qr_scan", "ios": "https://dc.lft.to/lastmile_qr_scan"}, "bike_id": "601d9383c2a3ee5569f3d5a268715c6c", "lon": -77.0021175}, {"is_reserved": 0, "fusion_lon": 0.0, "fusion_lat": 0.0, "name": "0de944fa50826fa1a7b5757044440387", "type": "electric_scooter", "is_disabled": 0, "lat": 38.91693316666667, "rental_uris": {"android": "https://dc.lft.to/lastmile_qr_scan", "ios": "https://dc.lft.to/lastmile_qr_scan"}, "bike_id": "0de944fa50826fa1a7b5757044440387", "lon": -77.02296983333333}, {"is_reserved": 0, "fusion_lon": 0.0, "fusion_lat": 0.0, "name": "055e88c9b6c03b44248036fa8e43b942", "type": "electric_scooter", "is_disabled": 0, "lat": 38.91190366666667, "rental_uris": {"android": "https://dc.lft.to/lastmile_qr_scan", "ios": "https://dc.lft.to/lastmile_qr_scan"}, "bike_id": "055e88c9b6c03b44248036fa8e43b942", "lon": -77.00463783333333}, {"is_reserved": 0, "fusion_lon": 0.0, "fusion_lat": 0.0, "name": "21eb4417e08ba4ec1d90dab4b1575e62", "type": "electric_scooter", "is_disabled": 0, "lat": 38.90713083333333, "rental_uris": {"android": "https://dc.lft.to/lastmile_qr_scan", "ios": "https://dc.lft.to/lastmile_qr_scan"}, "bike_id": "21eb4417e08ba4ec1d90dab4b1575e62", "lon": -76.99822366666666}, {"is_reserved": 0, "fusion_lon": 0.0, "fusion_lat": 0.0, "name": "5ec358e34418a471aa9fc6f6310b2c92", "type": "electric_scooter", "is_disabled": 0, "lat": 38.91105783333333, "rental_uris": {"android": "https://dc.lft.to/lastmile_qr_scan", "ios": "https://dc.lft.to/lastmile_qr_scan"}, "bike_id": "5ec358e34418a471aa9fc6f6310b2c92", "lon": -77.02420916666667}, {"is_reserved": 0, "fusion_lon": 0.0, "fusion_lat": 0.0, "name": "d05d7ab2852ae58859049c316d6a81ec", "type": "electric_scooter", "is_disabled": 0, "lat": 38.89016266666667, "rental_uris": {"android": "https://dc.lft.to/lastmile_qr_scan", "ios": "https://dc.lft.to/lastmile_qr_scan"}, "bike_id": "d05d7ab2852ae58859049c316d6a81ec", "lon": -76.937368}, {"is_reserved": 0, "fusion_lon": 0.0, "fusion_lat": 0.0, "name": "69ccfe0d0db6553c1c365b79ce055020", "type": "electric_scooter", "is_disabled": 0, "lat": 38.9317135, "rental_uris": {"android": "https://dc.lft.to/lastmile_qr_scan", "ios": "https://dc.lft.to/lastmile_qr_scan"}, "bike_id": "69ccfe0d0db6553c1c365b79ce055020", "lon": -77.028133}, {"is_reserved": 0, "fusion_lon": 0.0, "fusion_lat": 0.0, "name": "44ea2e16291610f0dad6d10379c5e936", "type": "electric_scooter", "is_disabled": 0, "lat": 38.93531516666667, "rental_uris": {"android": "https://dc.lft.to/lastmile_qr_scan", "ios": "https://dc.lft.to/lastmile_qr_scan"}, "bike_id": "44ea2e16291610f0dad6d10379c5e936", "lon": -77.03474116666666}, {"is_reserved": 0, "fusion_lon": 0.0, "fusion_lat": 0.0, "name": "8f2c0ed5ffaaaee6aef3f2cc0654da14", "type": "electric_scooter", "is_disabled": 0, "lat": 38.9276775, "rental_uris": {"android": "https://dc.lft.to/lastmile_qr_scan", "ios": "https://dc.lft.to/lastmile_qr_scan"}, "bike_id": "8f2c0ed5ffaaaee6aef3f2cc0654da14", "lon": -77.0206505}, {"is_reserved": 0, "fusion_lon": 0.0, "fusion_lat": 0.0, "name": "3190a4a9fc07edc416bfb64dc817cd1f", "type": "electric_scooter", "is_disabled": 0, "lat": 38.9065125, "rental_uris": {"android": "https://dc.lft.to/lastmile_qr_scan", "ios": "https://dc.lft.to/lastmile_qr_scan"}, "bike_id": "3190a4a9fc07edc416bfb64dc817cd1f", "lon": -77.02713933333334}, {"is_reserved": 0, "fusion_lon": 0.0, "fusion_lat": 0.0, "name": "67ab820e63ad85e5a89e470b7d8f7058", "type": "electric_bike", "is_disabled": 0, "lat": 38.94921, "rental_uris": {"android": "https://dc.lft.to/lastmile_qr_scan", "ios": "https://dc.lft.to/lastmile_qr_scan"}, "bike_id": "67ab820e63ad85e5a89e470b7d8f7058", "lon": -77.0079745}, {"is_reserved": 0, "fusion_lon": 0.0, "fusion_lat": 0.0, "name": "36cda6ff534493b974d6ffe5adee2bff", "type": "electric_scooter", "is_disabled": 0, "lat": 38.908918666666665, "rental_uris": {"android": "https://dc.lft.to/lastmile_qr_scan", "ios": "https://dc.lft.to/lastmile_qr_scan"}, "bike_id": "36cda6ff534493b974d6ffe5adee2bff", "lon": -77.04572733333333}, {"is_reserved": 0, "fusion_lon": 0.0, "fusion_lat": 0.0, "name": "8d7baa356417adbc91d23c6c321e5e8e", "type": "electric_scooter", "is_disabled": 0, "lat": 38.901342, "rental_uris": {"android": "https://dc.lft.to/lastmile_qr_scan", "ios": "https://dc.lft.to/lastmile_qr_scan"}, "bike_id": "8d7baa356417adbc91d23c6c321e5e8e", "lon": -77.04362716666667}, {"is_reserved": 0, "fusion_lon": 0.0, "fusion_lat": 0.0, "name": "e16850597ad5028400006208d4101847", "type": "electric_scooter", "is_disabled": 0, "lat": 38.9110985, "rental_uris": {"android": "https://dc.lft.to/lastmile_qr_scan", "ios": "https://dc.lft.to/lastmile_qr_scan"}, "bike_id": "e16850597ad5028400006208d4101847", "lon": -77.043162}, {"is_reserved": 0, "fusion_lon": 0.0, "fusion_lat": 0.0, "name": "0c2e6d5459218c7aa24b18511b149be8", "type": "electric_scooter", "is_disabled": 0, "lat": 38.90861233333333, "rental_uris": {"android": "https://dc.lft.to/lastmile_qr_scan", "ios": "https://dc.lft.to/lastmile_qr_scan"}, "bike_id": "0c2e6d5459218c7aa24b18511b149be8", "lon": -77.04262966666667}, {"is_reserved": 0, "fusion_lon": 0.0, "fusion_lat": 0.0, "name": "8de95e9db7d30512af23bbe00ca78cc0", "type": "electric_scooter", "is_disabled": 0, "lat": 38.90863933333333, "rental_uris": {"android": "https://dc.lft.to/lastmile_qr_scan", "ios": "https://dc.lft.to/lastmile_qr_scan"}, "bike_id": "8de95e9db7d30512af23bbe00ca78cc0", "lon": -77.07100516666667}, {"is_reserved": 0, "fusion_lon": 0.0, "fusion_lat": 0.0, "name": "d7e2543a587f4c9bc9232fddb861b3c1", "type": "electric_scooter", "is_disabled": 0, "lat": 38.876812, "rental_uris": {"android": "https://dc.lft.to/lastmile_qr_scan", "ios": "https://dc.lft.to/lastmile_qr_scan"}, "bike_id": "d7e2543a587f4c9bc9232fddb861b3c1", "lon": -77.01787666666667}, {"is_reserved": 0, "fusion_lon": 0.0, "fusion_lat": 0.0, "name": "233065b9b758f3cde5342c1002f2faa8", "type": "electric_scooter", "is_disabled": 0, "lat": 38.88065866666667, "rental_uris": {"android": "https://dc.lft.to/lastmile_qr_scan", "ios": "https://dc.lft.to/lastmile_qr_scan"}, "bike_id": "233065b9b758f3cde5342c1002f2faa8", "lon": -76.93222766666666}, {"is_reserved": 0, "fusion_lon": 0.0, "fusion_lat": 0.0, "name": "f8655c38524cc9a6e6c871fb31487b13", "type": "electric_scooter", "is_disabled": 0, "lat": 38.905603, "rental_uris": {"android": "https://dc.lft.to/lastmile_qr_scan", "ios": "https://dc.lft.to/lastmile_qr_scan"}, "bike_id": "f8655c38524cc9a6e6c871fb31487b13", "lon": -77.00704516666667}, {"is_reserved": 0, "fusion_lon": 0.0, "fusion_lat": 0.0, "name": "75e8ddc06ee0a68ab3de6d41d83067d2", "type": "electric_scooter", "is_disabled": 0, "lat": 38.9105755, "rental_uris": {"android": "https://dc.lft.to/lastmile_qr_scan", "ios": "https://dc.lft.to/lastmile_qr_scan"}, "bike_id": "75e8ddc06ee0a68ab3de6d41d83067d2", "lon": -77.04248833333334}, {"is_reserved": 0, "fusion_lon": 0.0, "fusion_lat": 0.0, "name": "9e59ef7b57960f08d296c8d3c947462e", "type": "electric_scooter", "is_disabled": 0, "lat": 38.95066083333333, "rental_uris": {"android": "https://dc.lft.to/lastmile_qr_scan", "ios": "https://dc.lft.to/lastmile_qr_scan"}, "bike_id": "9e59ef7b57960f08d296c8d3c947462e", "lon": -77.06533683333333}, {"is_reserved": 0, "fusion_lon": 0.0, "fusion_lat": 0.0, "name": "a7a96c6c458e37dbb10db9b13893dbe8", "type": "electric_scooter", "is_disabled": 0, "lat": 38.92209033333334, "rental_uris": {"android": "https://dc.lft.to/lastmile_qr_scan", "ios": "https://dc.lft.to/lastmile_qr_scan"}, "bike_id": "a7a96c6c458e37dbb10db9b13893dbe8", "lon": -77.02966366666666}, {"is_reserved": 0, "fusion_lon": 0.0, "fusion_lat": 0.0, "name": "53de58a291ddcaf60706ee104c5c701b", "type": "electric_scooter", "is_disabled": 0, "lat": 38.90728516666667, "rental_uris": {"android": "https://dc.lft.to/lastmile_qr_scan", "ios": "https://dc.lft.to/lastmile_qr_scan"}, "bike_id": "53de58a291ddcaf60706ee104c5c701b", "lon": -77.02991183333333}, {"is_reserved": 0, "fusion_lon": 0.0, "fusion_lat": 0.0, "name": "76b114b5f265547e30d188f2f5e47f37", "type": "electric_scooter", "is_disabled": 0, "lat": 38.928833833333336, "rental_uris": {"android": "https://dc.lft.to/lastmile_qr_scan", "ios": "https://dc.lft.to/lastmile_qr_scan"}, "bike_id": "76b114b5f265547e30d188f2f5e47f37", "lon": -77.033308}, {"is_reserved": 0, "fusion_lon": 0.0, "fusion_lat": 0.0, "name": "3b5b7cc5c2c2c3d9d2b4c07ef816a247", "type": "electric_scooter", "is_disabled": 0, "lat": 38.902821833333334, "rental_uris": {"android": "https://dc.lft.to/lastmile_qr_scan", "ios": "https://dc.lft.to/lastmile_qr_scan"}, "bike_id": "3b5b7cc5c2c2c3d9d2b4c07ef816a247", "lon": -77.04540216666666}, {"is_reserved": 0, "fusion_lon": 0.0, "fusion_lat": 0.0, "name": "76cdba6a0403651d7d36a058e58c8aa6", "type": "electric_scooter", "is_disabled": 0, "lat": 38.92846933333333, "rental_uris": {"android": "https://dc.lft.to/lastmile_qr_scan", "ios": "https://dc.lft.to/lastmile_qr_scan"}, "bike_id": "76cdba6a0403651d7d36a058e58c8aa6", "lon": -77.0273815}, {"is_reserved": 0, "fusion_lon": 0.0, "fusion_lat": 0.0, "name": "113ac09d9435644975bcd9b3b9b5b2f7", "type": "electric_scooter", "is_disabled": 0, "lat": 38.909160166666666, "rental_uris": {"android": "https://dc.lft.to/lastmile_qr_scan", "ios": "https://dc.lft.to/lastmile_qr_scan"}, "bike_id": "113ac09d9435644975bcd9b3b9b5b2f7", "lon": -77.07259616666667}, {"is_reserved": 0, "fusion_lon": 0.0, "fusion_lat": 0.0, "name": "660e721cc347e2830437817eec526bdf", "type": "electric_scooter", "is_disabled": 0, "lat": 38.919915833333334, "rental_uris": {"android": "https://dc.lft.to/lastmile_qr_scan", "ios": "https://dc.lft.to/lastmile_qr_scan"}, "bike_id": "660e721cc347e2830437817eec526bdf", "lon": -77.021469}, {"is_reserved": 0, "fusion_lon": 0.0, "fusion_lat": 0.0, "name": "5c6569ea7c7c068ee835e81ac4290947", "type": "electric_scooter", "is_disabled": 0, "lat": 38.89313933333333, "rental_uris": {"android": "https://dc.lft.to/lastmile_qr_scan", "ios": "https://dc.lft.to/lastmile_qr_scan"}, "bike_id": "5c6569ea7c7c068ee835e81ac4290947", "lon": -76.93980633333334}, {"is_reserved": 0, "fusion_lon": 0.0, "fusion_lat": 0.0, "name": "7d684c473f660fb8b875fdeb1c1e7411", "type": "electric_scooter", "is_disabled": 0, "lat": 38.904451333333334, "rental_uris": {"android": "https://dc.lft.to/lastmile_qr_scan", "ios": "https://dc.lft.to/lastmile_qr_scan"}, "bike_id": "7d684c473f660fb8b875fdeb1c1e7411", "lon": -77.05149866666666}, {"is_reserved": 0, "fusion_lon": 0.0, "fusion_lat": 0.0, "name": "850bbda971295921e57b8b9b3119d954", "type": "electric_bike", "is_disabled": 0, "lat": 38.9014055, "rental_uris": {"android": "https://dc.lft.to/lastmile_qr_scan", "ios": "https://dc.lft.to/lastmile_qr_scan"}, "bike_id": "850bbda971295921e57b8b9b3119d954", "lon": -77.01779366666666}, {"is_reserved": 0, "fusion_lon": 0.0, "fusion_lat": 0.0, "name": "6c93adc898fd9d563b1652f485128347", "type": "electric_scooter", "is_disabled": 0, "lat": 38.92727766666667, "rental_uris": {"android": "https://dc.lft.to/lastmile_qr_scan", "ios": "https://dc.lft.to/lastmile_qr_scan"}, "bike_id": "6c93adc898fd9d563b1652f485128347", "lon": -77.03520483333334}, {"is_reserved": 0, "fusion_lon": 0.0, "fusion_lat": 0.0, "name": "68860d4c0312373653bbfbf53d7e25fa", "type": "electric_scooter", "is_disabled": 0, "lat": 38.901344333333334, "rental_uris": {"android": "https://dc.lft.to/lastmile_qr_scan", "ios": "https://dc.lft.to/lastmile_qr_scan"}, "bike_id": "68860d4c0312373653bbfbf53d7e25fa", "lon": -77.01313283333333}, {"is_reserved": 0, "fusion_lon": 0.0, "fusion_lat": 0.0, "name": "19b26acc9a54bdc1fdecfb6dde3ee124", "type": "electric_scooter", "is_disabled": 0, "lat": 38.921441, "rental_uris": {"android": "https://dc.lft.to/lastmile_qr_scan", "ios": "https://dc.lft.to/lastmile_qr_scan"}, "bike_id": "19b26acc9a54bdc1fdecfb6dde3ee124", "lon": -77.02082733333333}, {"is_reserved": 0, "fusion_lon": 0.0, "fusion_lat": 0.0, "name": "11019f0308864dcbf0a4b4fac20eecd3", "type": "electric_scooter", "is_disabled": 0, "lat": 38.898660166666666, "rental_uris": {"android": "https://dc.lft.to/lastmile_qr_scan", "ios": "https://dc.lft.to/lastmile_qr_scan"}, "bike_id": "11019f0308864dcbf0a4b4fac20eecd3", "lon": -76.94661550000001}, {"is_reserved": 0, "fusion_lon": 0.0, "fusion_lat": 0.0, "name": "73b36ff7fe0bbfebb85a8d56153bfece", "type": "electric_scooter", "is_disabled": 0, "lat": 38.8850575, "rental_uris": {"android": "https://dc.lft.to/lastmile_qr_scan", "ios": "https://dc.lft.to/lastmile_qr_scan"}, "bike_id": "73b36ff7fe0bbfebb85a8d56153bfece", "lon": -76.99843466666667}, {"is_reserved": 0, "fusion_lon": 0.0, "fusion_lat": 0.0, "name": "b11a493ed0e0cab5cef14c5c1832b2af", "type": "electric_scooter", "is_disabled": 0, "lat": 38.923815833333336, "rental_uris": {"android": "https://dc.lft.to/lastmile_qr_scan", "ios": "https://dc.lft.to/lastmile_qr_scan"}, "bike_id": "b11a493ed0e0cab5cef14c5c1832b2af", "lon": -77.01937066666666}, {"is_reserved": 0, "fusion_lon": 0.0, "fusion_lat": 0.0, "name": "9ecee02fcc3a14c586783872c5e82a87", "type": "electric_scooter", "is_disabled": 0, "lat": 38.89240933333333, "rental_uris": {"android": "https://dc.lft.to/lastmile_qr_scan", "ios": "https://dc.lft.to/lastmile_qr_scan"}, "bike_id": "9ecee02fcc3a14c586783872c5e82a87", "lon": -77.0416455}, {"is_reserved": 0, "fusion_lon": 0.0, "fusion_lat": 0.0, "name": "b7c1e630c73800ae64cc3bc639e0b395", "type": "electric_scooter", "is_disabled": 0, "lat": 38.90784333333333, "rental_uris": {"android": "https://dc.lft.to/lastmile_qr_scan", "ios": "https://dc.lft.to/lastmile_qr_scan"}, "bike_id": "b7c1e630c73800ae64cc3bc639e0b395", "lon": -77.03444766666667}, {"is_reserved": 0, "fusion_lon": 0.0, "fusion_lat": 0.0, "name": "df284f7ff99b14be90a3a554caca4a8e", "type": "electric_scooter", "is_disabled": 0, "lat": 38.90644316666667, "rental_uris": {"android": "https://dc.lft.to/lastmile_qr_scan", "ios": "https://dc.lft.to/lastmile_qr_scan"}, "bike_id": "df284f7ff99b14be90a3a554caca4a8e", "lon": -77.04881383333333}, {"is_reserved": 0, "fusion_lon": 0.0, "fusion_lat": 0.0, "name": "83c1e238d5d2e7f463b5b0e3723b9b95", "type": "electric_scooter", "is_disabled": 0, "lat": 38.895005166666664, "rental_uris": {"android": "https://dc.lft.to/lastmile_qr_scan", "ios": "https://dc.lft.to/lastmile_qr_scan"}, "bike_id": "83c1e238d5d2e7f463b5b0e3723b9b95", "lon": -77.00945433333334}, {"is_reserved": 0, "fusion_lon": 0.0, "fusion_lat": 0.0, "name": "038f9946512aff8c3b6f21685562c99d", "type": "electric_scooter", "is_disabled": 0, "lat": 38.92517216666667, "rental_uris": {"android": "https://dc.lft.to/lastmile_qr_scan", "ios": "https://dc.lft.to/lastmile_qr_scan"}, "bike_id": "038f9946512aff8c3b6f21685562c99d", "lon": -77.05042083333333}, {"is_reserved": 0, "fusion_lon": 0.0, "fusion_lat": 0.0, "name": "1f442220558e3d12b93919ba04273c16", "type": "electric_scooter", "is_disabled": 0, "lat": 38.91666033333333, "rental_uris": {"android": "https://dc.lft.to/lastmile_qr_scan", "ios": "https://dc.lft.to/lastmile_qr_scan"}, "bike_id": "1f442220558e3d12b93919ba04273c16", "lon": -77.02955}, {"is_reserved": 0, "fusion_lon": 0.0, "fusion_lat": 0.0, "name": "ed36b5063e02a39574fd73b6021ff6cb", "type": "electric_scooter", "is_disabled": 0, "lat": 38.92751333333333, "rental_uris": {"android": "https://dc.lft.to/lastmile_qr_scan", "ios": "https://dc.lft.to/lastmile_qr_scan"}, "bike_id": "ed36b5063e02a39574fd73b6021ff6cb", "lon": -77.024243}, {"is_reserved": 0, "fusion_lon": 0.0, "fusion_lat": 0.0, "name": "8a34386b1c9f47db862b8c43b91f082f", "type": "electric_scooter", "is_disabled": 0, "lat": 38.8955135, "rental_uris": {"android": "https://dc.lft.to/lastmile_qr_scan", "ios": "https://dc.lft.to/lastmile_qr_scan"}, "bike_id": "8a34386b1c9f47db862b8c43b91f082f", "lon": -76.94879566666667}, {"is_reserved": 0, "fusion_lon": 0.0, "fusion_lat": 0.0, "name": "fa36976f09b2b6be57d8861f6ffcf4b8", "type": "electric_scooter", "is_disabled": 0, "lat": 38.872238, "rental_uris": {"android": "https://dc.lft.to/lastmile_qr_scan", "ios": "https://dc.lft.to/lastmile_qr_scan"}, "bike_id": "fa36976f09b2b6be57d8861f6ffcf4b8", "lon": -76.97727833333333}, {"is_reserved": 0, "fusion_lon": 0.0, "fusion_lat": 0.0, "name": "8b4fa167baaf83d97542270503e4035d", "type": "electric_scooter", "is_disabled": 0, "lat": 38.922630833333336, "rental_uris": {"android": "https://dc.lft.to/lastmile_qr_scan", "ios": "https://dc.lft.to/lastmile_qr_scan"}, "bike_id": "8b4fa167baaf83d97542270503e4035d", "lon": -77.02962133333334}, {"is_reserved": 0, "fusion_lon": 0.0, "fusion_lat": 0.0, "name": "80c1d07e7a42b577597d362bdd690204", "type": "electric_scooter", "is_disabled": 0, "lat": 38.92337466666667, "rental_uris": {"android": "https://dc.lft.to/lastmile_qr_scan", "ios": "https://dc.lft.to/lastmile_qr_scan"}, "bike_id": "80c1d07e7a42b577597d362bdd690204", "lon": -77.0478805}, {"is_reserved": 0, "fusion_lon": 0.0, "fusion_lat": 0.0, "name": "3d4224ca80cb0513c2e5fd5aa514e3da", "type": "electric_scooter", "is_disabled": 0, "lat": 38.91409866666667, "rental_uris": {"android": "https://dc.lft.to/lastmile_qr_scan", "ios": "https://dc.lft.to/lastmile_qr_scan"}, "bike_id": "3d4224ca80cb0513c2e5fd5aa514e3da", "lon": -77.04196316666666}, {"is_reserved": 0, "fusion_lon": 0.0, "fusion_lat": 0.0, "name": "15926c9a3b2a84667b23b75acd5048f5", "type": "electric_scooter", "is_disabled": 0, "lat": 38.913011166666664, "rental_uris": {"android": "https://dc.lft.to/lastmile_qr_scan", "ios": "https://dc.lft.to/lastmile_qr_scan"}, "bike_id": "15926c9a3b2a84667b23b75acd5048f5", "lon": -76.98463683333334}, {"is_reserved": 0, "fusion_lon": 0.0, "fusion_lat": 0.0, "name": "478f7d35180b36c653a82822aa0b77f8", "type": "electric_scooter", "is_disabled": 0, "lat": 38.878163666666666, "rental_uris": {"android": "https://dc.lft.to/lastmile_qr_scan", "ios": "https://dc.lft.to/lastmile_qr_scan"}, "bike_id": "478f7d35180b36c653a82822aa0b77f8", "lon": -76.93104883333334}, {"is_reserved": 0, "fusion_lon": 0.0, "fusion_lat": 0.0, "name": "224a29790e26f518159a9b36cb0c813b", "type": "electric_scooter", "is_disabled": 0, "lat": 38.892213166666664, "rental_uris": {"android": "https://dc.lft.to/lastmile_qr_scan", "ios": "https://dc.lft.to/lastmile_qr_scan"}, "bike_id": "224a29790e26f518159a9b36cb0c813b", "lon": -77.04262916666667}, {"is_reserved": 0, "fusion_lon": 0.0, "fusion_lat": 0.0, "name": "f3ed48169bb1d99a9bf8166b9baf9898", "type": "electric_scooter", "is_disabled": 0, "lat": 38.920137, "rental_uris": {"android": "https://dc.lft.to/lastmile_qr_scan", "ios": "https://dc.lft.to/lastmile_qr_scan"}, "bike_id": "f3ed48169bb1d99a9bf8166b9baf9898", "lon": -77.02171616666666}, {"is_reserved": 0, "fusion_lon": 0.0, "fusion_lat": 0.0, "name": "7ce81e5bce3a039bc34cee429f76cd32", "type": "electric_scooter", "is_disabled": 0, "lat": 38.93675966666667, "rental_uris": {"android": "https://dc.lft.to/lastmile_qr_scan", "ios": "https://dc.lft.to/lastmile_qr_scan"}, "bike_id": "7ce81e5bce3a039bc34cee429f76cd32", "lon": -77.036383}, {"is_reserved": 0, "fusion_lon": 0.0, "fusion_lat": 0.0, "name": "4539220b90d9af302b3277295b20e680", "type": "electric_scooter", "is_disabled": 0, "lat": 38.93961133333333, "rental_uris": {"android": "https://dc.lft.to/lastmile_qr_scan", "ios": "https://dc.lft.to/lastmile_qr_scan"}, "bike_id": "4539220b90d9af302b3277295b20e680", "lon": -77.027517}, {"is_reserved": 0, "fusion_lon": 0.0, "fusion_lat": 0.0, "name": "3bddd139d12bee05cc3b28c56ca342e0", "type": "electric_scooter", "is_disabled": 0, "lat": 38.915477833333334, "rental_uris": {"android": "https://dc.lft.to/lastmile_qr_scan", "ios": "https://dc.lft.to/lastmile_qr_scan"}, "bike_id": "3bddd139d12bee05cc3b28c56ca342e0", "lon": -77.012716}, {"is_reserved": 0, "fusion_lon": 0.0, "fusion_lat": 0.0, "name": "accf32d0af6812cffa0001a9761589f5", "type": "electric_scooter", "is_disabled": 0, "lat": 38.88597383333333, "rental_uris": {"android": "https://dc.lft.to/lastmile_qr_scan", "ios": "https://dc.lft.to/lastmile_qr_scan"}, "bike_id": "accf32d0af6812cffa0001a9761589f5", "lon": -76.9962295}, {"is_reserved": 0, "fusion_lon": 0.0, "fusion_lat": 0.0, "name": "32dc8b668cb6e77d0a0f1c889d9ac831", "type": "electric_scooter", "is_disabled": 0, "lat": 38.8650215, "rental_uris": {"android": "https://dc.lft.to/lastmile_qr_scan", "ios": "https://dc.lft.to/lastmile_qr_scan"}, "bike_id": "32dc8b668cb6e77d0a0f1c889d9ac831", "lon": -76.99003033333334}, {"is_reserved": 0, "fusion_lon": 0.0, "fusion_lat": 0.0, "name": "ea569f36ec2e7b10c27bb8268c2d1aaa", "type": "electric_scooter", "is_disabled": 0, "lat": 38.90738733333333, "rental_uris": {"android": "https://dc.lft.to/lastmile_qr_scan", "ios": "https://dc.lft.to/lastmile_qr_scan"}, "bike_id": "ea569f36ec2e7b10c27bb8268c2d1aaa", "lon": -77.02694633333333}, {"is_reserved": 0, "fusion_lon": 0.0, "fusion_lat": 0.0, "name": "521f1719d30a4e0910fe01cbbdf82015", "type": "electric_scooter", "is_disabled": 0, "lat": 38.9353755, "rental_uris": {"android": "https://dc.lft.to/lastmile_qr_scan", "ios": "https://dc.lft.to/lastmile_qr_scan"}, "bike_id": "521f1719d30a4e0910fe01cbbdf82015", "lon": -77.0574815}, {"is_reserved": 0, "fusion_lon": 0.0, "fusion_lat": 0.0, "name": "10178dec7f6e6dc9e15bba395a6ac929", "type": "electric_scooter", "is_disabled": 0, "lat": 38.891048166666664, "rental_uris": {"android": "https://dc.lft.to/lastmile_qr_scan", "ios": "https://dc.lft.to/lastmile_qr_scan"}, "bike_id": "10178dec7f6e6dc9e15bba395a6ac929", "lon": -77.00288066666667}, {"is_reserved": 0, "fusion_lon": 0.0, "fusion_lat": 0.0, "name": "9593e79d31d8b72370643865eef2c80c", "type": "electric_scooter", "is_disabled": 0, "lat": 38.9002525, "rental_uris": {"android": "https://dc.lft.to/lastmile_qr_scan", "ios": "https://dc.lft.to/lastmile_qr_scan"}, "bike_id": "9593e79d31d8b72370643865eef2c80c", "lon": -77.01764516666667}, {"is_reserved": 0, "fusion_lon": 0.0, "fusion_lat": 0.0, "name": "d1bac8ad3da015791458dd5f963c53f8", "type": "electric_scooter", "is_disabled": 0, "lat": 38.91119366666667, "rental_uris": {"android": "https://dc.lft.to/lastmile_qr_scan", "ios": "https://dc.lft.to/lastmile_qr_scan"}, "bike_id": "d1bac8ad3da015791458dd5f963c53f8", "lon": -77.02388766666667}, {"is_reserved": 0, "fusion_lon": 0.0, "fusion_lat": 0.0, "name": "bda750e4e29e776be9ec4b2073faf343", "type": "electric_bike", "is_disabled": 0, "lat": 38.865158, "rental_uris": {"android": "https://dc.lft.to/lastmile_qr_scan", "ios": "https://dc.lft.to/lastmile_qr_scan"}, "bike_id": "bda750e4e29e776be9ec4b2073faf343", "lon": -76.97334266666667}, {"is_reserved": 0, "fusion_lon": 0.0, "fusion_lat": 0.0, "name": "47cba90a21dfcda090935ec4ab10b0ae", "type": "electric_scooter", "is_disabled": 0, "lat": 38.92080383333333, "rental_uris": {"android": "https://dc.lft.to/lastmile_qr_scan", "ios": "https://dc.lft.to/lastmile_qr_scan"}, "bike_id": "47cba90a21dfcda090935ec4ab10b0ae", "lon": -77.0318155}, {"is_reserved": 0, "fusion_lon": 0.0, "fusion_lat": 0.0, "name": "171419a941f0ee354b729d56879632a4", "type": "electric_scooter", "is_disabled": 0, "lat": 38.86388216666667, "rental_uris": {"android": "https://dc.lft.to/lastmile_qr_scan", "ios": "https://dc.lft.to/lastmile_qr_scan"}, "bike_id": "171419a941f0ee354b729d56879632a4", "lon": -76.98912416666667}, {"is_reserved": 0, "fusion_lon": 0.0, "fusion_lat": 0.0, "name": "1fba6b4dd04c66eb819db65ba2c29d25", "type": "electric_scooter", "is_disabled": 0, "lat": 38.93535833333333, "rental_uris": {"android": "https://dc.lft.to/lastmile_qr_scan", "ios": "https://dc.lft.to/lastmile_qr_scan"}, "bike_id": "1fba6b4dd04c66eb819db65ba2c29d25", "lon": -77.02352066666667}, {"is_reserved": 0, "fusion_lon": 0.0, "fusion_lat": 0.0, "name": "bb4fb08ab7adaf56ffcb9921eeab5a96", "type": "electric_scooter", "is_disabled": 0, "lat": 38.938664833333334, "rental_uris": {"android": "https://dc.lft.to/lastmile_qr_scan", "ios": "https://dc.lft.to/lastmile_qr_scan"}, "bike_id": "bb4fb08ab7adaf56ffcb9921eeab5a96", "lon": -77.02653033333333}, {"is_reserved": 0, "fusion_lon": 0.0, "fusion_lat": 0.0, "name": "fb1d5f6b83c4f4c30e48d36a2a48e348", "type": "electric_scooter", "is_disabled": 0, "lat": 38.909705833333334, "rental_uris": {"android": "https://dc.lft.to/lastmile_qr_scan", "ios": "https://dc.lft.to/lastmile_qr_scan"}, "bike_id": "fb1d5f6b83c4f4c30e48d36a2a48e348", "lon": -77.042597}, {"is_reserved": 0, "fusion_lon": 0.0, "fusion_lat": 0.0, "name": "ee2d7b7ae37c81622cde240d6b2cbd1c", "type": "electric_scooter", "is_disabled": 0, "lat": 38.887388, "rental_uris": {"android": "https://dc.lft.to/lastmile_qr_scan", "ios": "https://dc.lft.to/lastmile_qr_scan"}, "bike_id": "ee2d7b7ae37c81622cde240d6b2cbd1c", "lon": -77.02732483333334}, {"is_reserved": 0, "fusion_lon": 0.0, "fusion_lat": 0.0, "name": "d23ca4628e01505431eb98ed84f7eb8a", "type": "electric_scooter", "is_disabled": 0, "lat": 38.942012166666665, "rental_uris": {"android": "https://dc.lft.to/lastmile_qr_scan", "ios": "https://dc.lft.to/lastmile_qr_scan"}, "bike_id": "d23ca4628e01505431eb98ed84f7eb8a", "lon": -77.02503266666666}, {"is_reserved": 0, "fusion_lon": 0.0, "fusion_lat": 0.0, "name": "61d9c62b1b8490bd653b8bc4fc7428b9", "type": "electric_scooter", "is_disabled": 0, "lat": 38.92665183333333, "rental_uris": {"android": "https://dc.lft.to/lastmile_qr_scan", "ios": "https://dc.lft.to/lastmile_qr_scan"}, "bike_id": "61d9c62b1b8490bd653b8bc4fc7428b9", "lon": -76.99534933333334}, {"is_reserved": 0, "fusion_lon": 0.0, "fusion_lat": 0.0, "name": "71c0a092cb81c1d720e1ea4f0d5baa61", "type": "electric_scooter", "is_disabled": 0, "lat": 38.90970333333333, "rental_uris": {"android": "https://dc.lft.to/lastmile_qr_scan", "ios": "https://dc.lft.to/lastmile_qr_scan"}, "bike_id": "71c0a092cb81c1d720e1ea4f0d5baa61", "lon": -77.04018266666667}, {"is_reserved": 0, "fusion_lon": 0.0, "fusion_lat": 0.0, "name": "b81911eec1fcca366e6f7e8bdaed12b4", "type": "electric_bike", "is_disabled": 0, "lat": 38.86583066666667, "rental_uris": {"android": "https://dc.lft.to/lastmile_qr_scan", "ios": "https://dc.lft.to/lastmile_qr_scan"}, "bike_id": "b81911eec1fcca366e6f7e8bdaed12b4", "lon": -77.04760916666666}, {"is_reserved": 0, "fusion_lon": 0.0, "fusion_lat": 0.0, "name": "242be690f8f96f1b0936e07f68e75b21", "type": "electric_scooter", "is_disabled": 0, "lat": 38.9176655, "rental_uris": {"android": "https://dc.lft.to/lastmile_qr_scan", "ios": "https://dc.lft.to/lastmile_qr_scan"}, "bike_id": "242be690f8f96f1b0936e07f68e75b21", "lon": -77.04768783333333}, {"is_reserved": 0, "fusion_lon": 0.0, "fusion_lat": 0.0, "name": "7ac4b38423b8254720c62fdb14fa59cc", "type": "electric_scooter", "is_disabled": 0, "lat": 38.90034766666667, "rental_uris": {"android": "https://dc.lft.to/lastmile_qr_scan", "ios": "https://dc.lft.to/lastmile_qr_scan"}, "bike_id": "7ac4b38423b8254720c62fdb14fa59cc", "lon": -77.011793}, {"is_reserved": 0, "fusion_lon": 0.0, "fusion_lat": 0.0, "name": "eebdc0d83391c68c8eb320a4e61dea12", "type": "electric_scooter", "is_disabled": 0, "lat": 38.91268516666667, "rental_uris": {"android": "https://dc.lft.to/lastmile_qr_scan", "ios": "https://dc.lft.to/lastmile_qr_scan"}, "bike_id": "eebdc0d83391c68c8eb320a4e61dea12", "lon": -77.03136683333334}, {"is_reserved": 0, "fusion_lon": 0.0, "fusion_lat": 0.0, "name": "3346911be4f5b189d222f442721d900e", "type": "electric_scooter", "is_disabled": 0, "lat": 38.93955016666666, "rental_uris": {"android": "https://dc.lft.to/lastmile_qr_scan", "ios": "https://dc.lft.to/lastmile_qr_scan"}, "bike_id": "3346911be4f5b189d222f442721d900e", "lon": -77.07250066666667}, {"is_reserved": 0, "fusion_lon": 0.0, "fusion_lat": 0.0, "name": "c257b57a1de2e4f38f92b8a7c33e9188", "type": "electric_scooter", "is_disabled": 0, "lat": 38.916928, "rental_uris": {"android": "https://dc.lft.to/lastmile_qr_scan", "ios": "https://dc.lft.to/lastmile_qr_scan"}, "bike_id": "c257b57a1de2e4f38f92b8a7c33e9188", "lon": -77.03121633333333}, {"is_reserved": 0, "fusion_lon": 0.0, "fusion_lat": 0.0, "name": "ffa02aeade8ca6dc1b932d3f2d97e898", "type": "electric_scooter", "is_disabled": 0, "lat": 38.908181166666665, "rental_uris": {"android": "https://dc.lft.to/lastmile_qr_scan", "ios": "https://dc.lft.to/lastmile_qr_scan"}, "bike_id": "ffa02aeade8ca6dc1b932d3f2d97e898", "lon": -76.99266016666667}, {"is_reserved": 0, "fusion_lon": 0.0, "fusion_lat": 0.0, "name": "e0da50e9395361b301112de06d015ed1", "type": "electric_scooter", "is_disabled": 0, "lat": 38.917933, "rental_uris": {"android": "https://dc.lft.to/lastmile_qr_scan", "ios": "https://dc.lft.to/lastmile_qr_scan"}, "bike_id": "e0da50e9395361b301112de06d015ed1", "lon": -77.023252}, {"is_reserved": 0, "fusion_lon": 0.0, "fusion_lat": 0.0, "name": "f91a0b3a33553c8ca2fa147a0ee6561f", "type": "electric_scooter", "is_disabled": 0, "lat": 38.90791333333333, "rental_uris": {"android": "https://dc.lft.to/lastmile_qr_scan", "ios": "https://dc.lft.to/lastmile_qr_scan"}, "bike_id": "f91a0b3a33553c8ca2fa147a0ee6561f", "lon": -77.03864566666667}, {"is_reserved": 0, "fusion_lon": 0.0, "fusion_lat": 0.0, "name": "8a84bf134f08f846b0bec0d52c2ef601", "type": "electric_scooter", "is_disabled": 0, "lat": 38.90722133333333, "rental_uris": {"android": "https://dc.lft.to/lastmile_qr_scan", "ios": "https://dc.lft.to/lastmile_qr_scan"}, "bike_id": "8a84bf134f08f846b0bec0d52c2ef601", "lon": -77.038244}, {"is_reserved": 0, "fusion_lon": 0.0, "fusion_lat": 0.0, "name": "5ff7e42253fa93ca825c371f3fc31b09", "type": "electric_scooter", "is_disabled": 0, "lat": 38.945129333333334, "rental_uris": {"android": "https://dc.lft.to/lastmile_qr_scan", "ios": "https://dc.lft.to/lastmile_qr_scan"}, "bike_id": "5ff7e42253fa93ca825c371f3fc31b09", "lon": -77.03318916666667}, {"is_reserved": 0, "fusion_lon": 0.0, "fusion_lat": 0.0, "name": "6303ad172b1a5cbe0009aa63feb2d30e", "type": "electric_scooter", "is_disabled": 0, "lat": 38.89235333333333, "rental_uris": {"android": "https://dc.lft.to/lastmile_qr_scan", "ios": "https://dc.lft.to/lastmile_qr_scan"}, "bike_id": "6303ad172b1a5cbe0009aa63feb2d30e", "lon": -77.03186566666666}, {"is_reserved": 0, "fusion_lon": 0.0, "fusion_lat": 0.0, "name": "9d1c734a747cec29013f4d2acc764524", "type": "electric_scooter", "is_disabled": 0, "lat": 38.922501833333335, "rental_uris": {"android": "https://dc.lft.to/lastmile_qr_scan", "ios": "https://dc.lft.to/lastmile_qr_scan"}, "bike_id": "9d1c734a747cec29013f4d2acc764524", "lon": -77.0306575}, {"is_reserved": 0, "fusion_lon": 0.0, "fusion_lat": 0.0, "name": "4c9a6bd1bde211391feff6382ecde423", "type": "electric_scooter", "is_disabled": 0, "lat": 38.908099, "rental_uris": {"android": "https://dc.lft.to/lastmile_qr_scan", "ios": "https://dc.lft.to/lastmile_qr_scan"}, "bike_id": "4c9a6bd1bde211391feff6382ecde423", "lon": -77.043454}, {"is_reserved": 0, "fusion_lon": 0.0, "fusion_lat": 0.0, "name": "acde8f16e298e33798cd3fd2b6bec012", "type": "electric_scooter", "is_disabled": 0, "lat": 38.928882, "rental_uris": {"android": "https://dc.lft.to/lastmile_qr_scan", "ios": "https://dc.lft.to/lastmile_qr_scan"}, "bike_id": "acde8f16e298e33798cd3fd2b6bec012", "lon": -77.03331733333333}, {"is_reserved": 0, "fusion_lon": 0.0, "fusion_lat": 0.0, "name": "6bd031e90d6fd692330d7ee2f7507bb5", "type": "electric_bike", "is_disabled": 0, "lat": 38.85891433333333, "rental_uris": {"android": "https://dc.lft.to/lastmile_qr_scan", "ios": "https://dc.lft.to/lastmile_qr_scan"}, "bike_id": "6bd031e90d6fd692330d7ee2f7507bb5", "lon": -77.11864583333333}, {"is_reserved": 0, "fusion_lon": 0.0, "fusion_lat": 0.0, "name": "de5892bb75b4f8131f9fe01973b106a7", "type": "electric_scooter", "is_disabled": 0, "lat": 38.91117933333334, "rental_uris": {"android": "https://dc.lft.to/lastmile_qr_scan", "ios": "https://dc.lft.to/lastmile_qr_scan"}, "bike_id": "de5892bb75b4f8131f9fe01973b106a7", "lon": -77.031602}, {"is_reserved": 0, "fusion_lon": 0.0, "fusion_lat": 0.0, "name": "d62c27280ad6f6604f5cf65f7d295704", "type": "electric_scooter", "is_disabled": 0, "lat": 38.9215425, "rental_uris": {"android": "https://dc.lft.to/lastmile_qr_scan", "ios": "https://dc.lft.to/lastmile_qr_scan"}, "bike_id": "d62c27280ad6f6604f5cf65f7d295704", "lon": -77.03510933333334}, {"is_reserved": 0, "fusion_lon": 0.0, "fusion_lat": 0.0, "name": "011008af990a2f6964179a915dba6d60", "type": "electric_scooter", "is_disabled": 0, "lat": 38.92156266666667, "rental_uris": {"android": "https://dc.lft.to/lastmile_qr_scan", "ios": "https://dc.lft.to/lastmile_qr_scan"}, "bike_id": "011008af990a2f6964179a915dba6d60", "lon": -77.03341783333333}, {"is_reserved": 0, "fusion_lon": 0.0, "fusion_lat": 0.0, "name": "3584cc469a20dd24fa34a1387bdefc2f", "type": "electric_scooter", "is_disabled": 0, "lat": 38.91691683333333, "rental_uris": {"android": "https://dc.lft.to/lastmile_qr_scan", "ios": "https://dc.lft.to/lastmile_qr_scan"}, "bike_id": "3584cc469a20dd24fa34a1387bdefc2f", "lon": -77.03133716666666}, {"is_reserved": 0, "fusion_lon": 0.0, "fusion_lat": 0.0, "name": "7e94fcb6e873c10eefc82693ec0afd38", "type": "electric_scooter", "is_disabled": 0, "lat": 38.921318, "rental_uris": {"android": "https://dc.lft.to/lastmile_qr_scan", "ios": "https://dc.lft.to/lastmile_qr_scan"}, "bike_id": "7e94fcb6e873c10eefc82693ec0afd38", "lon": -77.041133}, {"is_reserved": 0, "fusion_lon": 0.0, "fusion_lat": 0.0, "name": "41957454b269823782351089dd4adfb9", "type": "electric_scooter", "is_disabled": 0, "lat": 38.887252333333336, "rental_uris": {"android": "https://dc.lft.to/lastmile_qr_scan", "ios": "https://dc.lft.to/lastmile_qr_scan"}, "bike_id": "41957454b269823782351089dd4adfb9", "lon": -77.02833516666666}, {"is_reserved": 0, "fusion_lon": 0.0, "fusion_lat": 0.0, "name": "a06fe61cb0f5e8af2f43c5c272f12546", "type": "electric_scooter", "is_disabled": 0, "lat": 38.91118266666667, "rental_uris": {"android": "https://dc.lft.to/lastmile_qr_scan", "ios": "https://dc.lft.to/lastmile_qr_scan"}, "bike_id": "a06fe61cb0f5e8af2f43c5c272f12546", "lon": -77.03830816666667}, {"is_reserved": 0, "fusion_lon": 0.0, "fusion_lat": 0.0, "name": "66e877511ce13b482807b8f7aeb03cad", "type": "electric_scooter", "is_disabled": 0, "lat": 38.8665955, "rental_uris": {"android": "https://dc.lft.to/lastmile_qr_scan", "ios": "https://dc.lft.to/lastmile_qr_scan"}, "bike_id": "66e877511ce13b482807b8f7aeb03cad", "lon": -76.98881816666666}, {"is_reserved": 0, "fusion_lon": 0.0, "fusion_lat": 0.0, "name": "11645250267e0f4ca37b046b14cef329", "type": "electric_scooter", "is_disabled": 0, "lat": 38.869931333333334, "rental_uris": {"android": "https://dc.lft.to/lastmile_qr_scan", "ios": "https://dc.lft.to/lastmile_qr_scan"}, "bike_id": "11645250267e0f4ca37b046b14cef329", "lon": -76.97591216666666}, {"is_reserved": 0, "fusion_lon": 0.0, "fusion_lat": 0.0, "name": "c72d8ffdb6f90f6eaa0d8053f5686ef4", "type": "electric_scooter", "is_disabled": 0, "lat": 38.905392666666664, "rental_uris": {"android": "https://dc.lft.to/lastmile_qr_scan", "ios": "https://dc.lft.to/lastmile_qr_scan"}, "bike_id": "c72d8ffdb6f90f6eaa0d8053f5686ef4", "lon": -77.00599183333334}, {"is_reserved": 0, "fusion_lon": 0.0, "fusion_lat": 0.0, "name": "e28de356f152e6644dcc0e67b1fbc55b", "type": "electric_scooter", "is_disabled": 0, "lat": 38.902588333333334, "rental_uris": {"android": "https://dc.lft.to/lastmile_qr_scan", "ios": "https://dc.lft.to/lastmile_qr_scan"}, "bike_id": "e28de356f152e6644dcc0e67b1fbc55b", "lon": -76.99559716666667}, {"is_reserved": 0, "fusion_lon": 0.0, "fusion_lat": 0.0, "name": "19d4e89530738055b94de381c7acf3e1", "type": "electric_scooter", "is_disabled": 0, "lat": 38.878273, "rental_uris": {"android": "https://dc.lft.to/lastmile_qr_scan", "ios": "https://dc.lft.to/lastmile_qr_scan"}, "bike_id": "19d4e89530738055b94de381c7acf3e1", "lon": -76.96305216666667}, {"is_reserved": 0, "fusion_lon": 0.0, "fusion_lat": 0.0, "name": "29d5000332befecab29ad3aa1f11fe8e", "type": "electric_scooter", "is_disabled": 0, "lat": 38.98453933333333, "rental_uris": {"android": "https://dc.lft.to/lastmile_qr_scan", "ios": "https://dc.lft.to/lastmile_qr_scan"}, "bike_id": "29d5000332befecab29ad3aa1f11fe8e", "lon": -77.02644766666667}, {"is_reserved": 0, "fusion_lon": 0.0, "fusion_lat": 0.0, "name": "68b1941a42b4e8a858b06831aa35bcdc", "type": "electric_scooter", "is_disabled": 0, "lat": 38.9323575, "rental_uris": {"android": "https://dc.lft.to/lastmile_qr_scan", "ios": "https://dc.lft.to/lastmile_qr_scan"}, "bike_id": "68b1941a42b4e8a858b06831aa35bcdc", "lon": -77.038557}, {"is_reserved": 0, "fusion_lon": 0.0, "fusion_lat": 0.0, "name": "b6cad12fe3f223b4698534281ba9b15c", "type": "electric_scooter", "is_disabled": 0, "lat": 38.9155395, "rental_uris": {"android": "https://dc.lft.to/lastmile_qr_scan", "ios": "https://dc.lft.to/lastmile_qr_scan"}, "bike_id": "b6cad12fe3f223b4698534281ba9b15c", "lon": -77.0204855}, {"is_reserved": 0, "fusion_lon": 0.0, "fusion_lat": 0.0, "name": "1903135f60240ea67f8e5dd3cf2b2be8", "type": "electric_bike", "is_disabled": 0, "lat": 39.052831833333336, "rental_uris": {"android": "https://dc.lft.to/lastmile_qr_scan", "ios": "https://dc.lft.to/lastmile_qr_scan"}, "bike_id": "1903135f60240ea67f8e5dd3cf2b2be8", "lon": -77.08071733333334}, {"is_reserved": 0, "fusion_lon": 0.0, "fusion_lat": 0.0, "name": "0bc62750ea42df94556943e570126c77", "type": "electric_scooter", "is_disabled": 0, "lat": 38.9006995, "rental_uris": {"android": "https://dc.lft.to/lastmile_qr_scan", "ios": "https://dc.lft.to/lastmile_qr_scan"}, "bike_id": "0bc62750ea42df94556943e570126c77", "lon": -77.00211666666667}, {"is_reserved": 0, "fusion_lon": 0.0, "fusion_lat": 0.0, "name": "cc08e70986d5337c6e752a49d8951c68", "type": "electric_bike", "is_disabled": 0, "lat": 38.81836916666666, "rental_uris": {"android": "https://dc.lft.to/lastmile_qr_scan", "ios": "https://dc.lft.to/lastmile_qr_scan"}, "bike_id": "cc08e70986d5337c6e752a49d8951c68", "lon": -77.10570166666666}, {"is_reserved": 0, "fusion_lon": 0.0, "fusion_lat": 0.0, "name": "2b07875108bfa7d779bf252857d32677", "type": "electric_bike", "is_disabled": 0, "lat": 38.8662285, "rental_uris": {"android": "https://dc.lft.to/lastmile_qr_scan", "ios": "https://dc.lft.to/lastmile_qr_scan"}, "bike_id": "2b07875108bfa7d779bf252857d32677", "lon": -76.94570266666666}, {"is_reserved": 0, "fusion_lon": 0.0, "fusion_lat": 0.0, "name": "d18b186f18dc6c556a729bddb98e6a13", "type": "electric_scooter", "is_disabled": 0, "lat": 38.89876683333333, "rental_uris": {"android": "https://dc.lft.to/lastmile_qr_scan", "ios": "https://dc.lft.to/lastmile_qr_scan"}, "bike_id": "d18b186f18dc6c556a729bddb98e6a13", "lon": -76.931873}, {"is_reserved": 0, "fusion_lon": 0.0, "fusion_lat": 0.0, "name": "3d8c2ce4c1a968b1ffd01bde0faaa122", "type": "electric_scooter", "is_disabled": 0, "lat": 38.9041515, "rental_uris": {"android": "https://dc.lft.to/lastmile_qr_scan", "ios": "https://dc.lft.to/lastmile_qr_scan"}, "bike_id": "3d8c2ce4c1a968b1ffd01bde0faaa122", "lon": -76.99841033333334}, {"is_reserved": 0, "fusion_lon": 0.0, "fusion_lat": 0.0, "name": "c6e69114ec48a3827b97687347870438", "type": "electric_scooter", "is_disabled": 0, "lat": 38.8747125, "rental_uris": {"android": "https://dc.lft.to/lastmile_qr_scan", "ios": "https://dc.lft.to/lastmile_qr_scan"}, "bike_id": "c6e69114ec48a3827b97687347870438", "lon": -77.00552333333333}, {"is_reserved": 0, "fusion_lon": 0.0, "fusion_lat": 0.0, "name": "942b8fb988cc81c86d75d7eeaee93d51", "type": "electric_scooter", "is_disabled": 0, "lat": 38.926109333333336, "rental_uris": {"android": "https://dc.lft.to/lastmile_qr_scan", "ios": "https://dc.lft.to/lastmile_qr_scan"}, "bike_id": "942b8fb988cc81c86d75d7eeaee93d51", "lon": -77.03956866666667}, {"is_reserved": 0, "fusion_lon": 0.0, "fusion_lat": 0.0, "name": "ebeda128ed2336e538f7dabb73201674", "type": "electric_scooter", "is_disabled": 0, "lat": 38.914147, "rental_uris": {"android": "https://dc.lft.to/lastmile_qr_scan", "ios": "https://dc.lft.to/lastmile_qr_scan"}, "bike_id": "ebeda128ed2336e538f7dabb73201674", "lon": -77.04921616666667}, {"is_reserved": 0, "fusion_lon": 0.0, "fusion_lat": 0.0, "name": "d07f35687b036c36868a001dbe7a5028", "type": "electric_scooter", "is_disabled": 0, "lat": 38.88088833333333, "rental_uris": {"android": "https://dc.lft.to/lastmile_qr_scan", "ios": "https://dc.lft.to/lastmile_qr_scan"}, "bike_id": "d07f35687b036c36868a001dbe7a5028", "lon": -76.99831583333334}, {"is_reserved": 0, "fusion_lon": 0.0, "fusion_lat": 0.0, "name": "239d2476b6de7023e8ee3571416ce1b4", "type": "electric_scooter", "is_disabled": 0, "lat": 38.902718, "rental_uris": {"android": "https://dc.lft.to/lastmile_qr_scan", "ios": "https://dc.lft.to/lastmile_qr_scan"}, "bike_id": "239d2476b6de7023e8ee3571416ce1b4", "lon": -77.017814}, {"is_reserved": 0, "fusion_lon": 0.0, "fusion_lat": 0.0, "name": "da204e469fa7a30615758173e7dc2266", "type": "electric_scooter", "is_disabled": 0, "lat": 38.88382166666667, "rental_uris": {"android": "https://dc.lft.to/lastmile_qr_scan", "ios": "https://dc.lft.to/lastmile_qr_scan"}, "bike_id": "da204e469fa7a30615758173e7dc2266", "lon": -77.030348}, {"is_reserved": 0, "fusion_lon": 0.0, "fusion_lat": 0.0, "name": "134dfa302183cd3351d89e04d8a7390e", "type": "electric_scooter", "is_disabled": 0, "lat": 38.87629866666666, "rental_uris": {"android": "https://dc.lft.to/lastmile_qr_scan", "ios": "https://dc.lft.to/lastmile_qr_scan"}, "bike_id": "134dfa302183cd3351d89e04d8a7390e", "lon": -77.0125595}, {"is_reserved": 0, "fusion_lon": 0.0, "fusion_lat": 0.0, "name": "869dd2085f0106ef6c2a24279b660411", "type": "electric_scooter", "is_disabled": 0, "lat": 38.92488016666667, "rental_uris": {"android": "https://dc.lft.to/lastmile_qr_scan", "ios": "https://dc.lft.to/lastmile_qr_scan"}, "bike_id": "869dd2085f0106ef6c2a24279b660411", "lon": -77.03186033333333}, {"is_reserved": 0, "fusion_lon": 0.0, "fusion_lat": 0.0, "name": "c3879dc05c2516e3040dc52ac748de2f", "type": "electric_scooter", "is_disabled": 0, "lat": 38.90615016666667, "rental_uris": {"android": "https://dc.lft.to/lastmile_qr_scan", "ios": "https://dc.lft.to/lastmile_qr_scan"}, "bike_id": "c3879dc05c2516e3040dc52ac748de2f", "lon": -76.98686166666667}, {"is_reserved": 0, "fusion_lon": 0.0, "fusion_lat": 0.0, "name": "0975431062bd37253e8e78047cb6e913", "type": "electric_scooter", "is_disabled": 0, "lat": 38.9176275, "rental_uris": {"android": "https://dc.lft.to/lastmile_qr_scan", "ios": "https://dc.lft.to/lastmile_qr_scan"}, "bike_id": "0975431062bd37253e8e78047cb6e913", "lon": -77.012312}, {"is_reserved": 0, "fusion_lon": 0.0, "fusion_lat": 0.0, "name": "130b131bc802ddccba4adc59ca5de61d", "type": "electric_scooter", "is_disabled": 0, "lat": 38.8600775, "rental_uris": {"android": "https://dc.lft.to/lastmile_qr_scan", "ios": "https://dc.lft.to/lastmile_qr_scan"}, "bike_id": "130b131bc802ddccba4adc59ca5de61d", "lon": -76.98519866666666}, {"is_reserved": 0, "fusion_lon": 0.0, "fusion_lat": 0.0, "name": "295fb8b61d26d46b118d71c9adda98fb", "type": "electric_bike", "is_disabled": 0, "lat": 38.9568535, "rental_uris": {"android": "https://dc.lft.to/lastmile_qr_scan", "ios": "https://dc.lft.to/lastmile_qr_scan"}, "bike_id": "295fb8b61d26d46b118d71c9adda98fb", "lon": -77.02229616666666}, {"is_reserved": 0, "fusion_lon": 0.0, "fusion_lat": 0.0, "name": "bd575fa5877f9c96b1497141a4e70cd9", "type": "electric_scooter", "is_disabled": 0, "lat": 38.914729333333334, "rental_uris": {"android": "https://dc.lft.to/lastmile_qr_scan", "ios": "https://dc.lft.to/lastmile_qr_scan"}, "bike_id": "bd575fa5877f9c96b1497141a4e70cd9", "lon": -77.03846166666666}, {"is_reserved": 0, "fusion_lon": 0.0, "fusion_lat": 0.0, "name": "eb38c04bdeadb572605eaad04949f78b", "type": "electric_scooter", "is_disabled": 0, "lat": 38.908290666666666, "rental_uris": {"android": "https://dc.lft.to/lastmile_qr_scan", "ios": "https://dc.lft.to/lastmile_qr_scan"}, "bike_id": "eb38c04bdeadb572605eaad04949f78b", "lon": -77.0331365}, {"is_reserved": 0, "fusion_lon": 0.0, "fusion_lat": 0.0, "name": "6497fb9b1da3df729b7fde39f0806cb1", "type": "electric_scooter", "is_disabled": 0, "lat": 38.91546566666667, "rental_uris": {"android": "https://dc.lft.to/lastmile_qr_scan", "ios": "https://dc.lft.to/lastmile_qr_scan"}, "bike_id": "6497fb9b1da3df729b7fde39f0806cb1", "lon": -77.0385495}, {"is_reserved": 0, "fusion_lon": 0.0, "fusion_lat": 0.0, "name": "168f9ea4918c6e2f607654be24f874d2", "type": "electric_scooter", "is_disabled": 0, "lat": 38.90830016666666, "rental_uris": {"android": "https://dc.lft.to/lastmile_qr_scan", "ios": "https://dc.lft.to/lastmile_qr_scan"}, "bike_id": "168f9ea4918c6e2f607654be24f874d2", "lon": -77.07416566666667}, {"is_reserved": 0, "fusion_lon": 0.0, "fusion_lat": 0.0, "name": "3de8d4349c3947733849c51eaf447711", "type": "electric_scooter", "is_disabled": 0, "lat": 38.95075116666667, "rental_uris": {"android": "https://dc.lft.to/lastmile_qr_scan", "ios": "https://dc.lft.to/lastmile_qr_scan"}, "bike_id": "3de8d4349c3947733849c51eaf447711", "lon": -76.99568233333333}, {"is_reserved": 0, "fusion_lon": 0.0, "fusion_lat": 0.0, "name": "cbd4a339f7417aebb6c879e1ca96224c", "type": "electric_scooter", "is_disabled": 0, "lat": 38.907347333333334, "rental_uris": {"android": "https://dc.lft.to/lastmile_qr_scan", "ios": "https://dc.lft.to/lastmile_qr_scan"}, "bike_id": "cbd4a339f7417aebb6c879e1ca96224c", "lon": -77.02974366666666}, {"is_reserved": 0, "fusion_lon": 0.0, "fusion_lat": 0.0, "name": "22ebe28e0d9e2ffac54d575fa1f0bb4b", "type": "electric_bike", "is_disabled": 0, "lat": 38.92457183333333, "rental_uris": {"android": "https://dc.lft.to/lastmile_qr_scan", "ios": "https://dc.lft.to/lastmile_qr_scan"}, "bike_id": "22ebe28e0d9e2ffac54d575fa1f0bb4b", "lon": -77.03765683333333}, {"is_reserved": 0, "fusion_lon": 0.0, "fusion_lat": 0.0, "name": "cff73af3295354e474698badd73911d0", "type": "electric_scooter", "is_disabled": 0, "lat": 38.9019975, "rental_uris": {"android": "https://dc.lft.to/lastmile_qr_scan", "ios": "https://dc.lft.to/lastmile_qr_scan"}, "bike_id": "cff73af3295354e474698badd73911d0", "lon": -77.0481625}, {"is_reserved": 0, "fusion_lon": 0.0, "fusion_lat": 0.0, "name": "3ade3129a126df5d242568c72423b75c", "type": "electric_scooter", "is_disabled": 0, "lat": 38.921831166666664, "rental_uris": {"android": "https://dc.lft.to/lastmile_qr_scan", "ios": "https://dc.lft.to/lastmile_qr_scan"}, "bike_id": "3ade3129a126df5d242568c72423b75c", "lon": -77.0434735}, {"is_reserved": 0, "fusion_lon": 0.0, "fusion_lat": 0.0, "name": "4386f8e6d0b7ac999393b7ab2e74b06b", "type": "electric_bike", "is_disabled": 0, "lat": 39.050476, "rental_uris": {"android": "https://dc.lft.to/lastmile_qr_scan", "ios": "https://dc.lft.to/lastmile_qr_scan"}, "bike_id": "4386f8e6d0b7ac999393b7ab2e74b06b", "lon": -77.05153066666666}, {"is_reserved": 0, "fusion_lon": 0.0, "fusion_lat": 0.0, "name": "42e5eff9a806739a6a25d83ec9a82812", "type": "electric_scooter", "is_disabled": 0, "lat": 38.904082833333334, "rental_uris": {"android": "https://dc.lft.to/lastmile_qr_scan", "ios": "https://dc.lft.to/lastmile_qr_scan"}, "bike_id": "42e5eff9a806739a6a25d83ec9a82812", "lon": -76.97329833333333}, {"is_reserved": 0, "fusion_lon": 0.0, "fusion_lat": 0.0, "name": "93fb3e0c8aa14808ea1b7d505ae0e426", "type": "electric_scooter", "is_disabled": 0, "lat": 38.921421333333335, "rental_uris": {"android": "https://dc.lft.to/lastmile_qr_scan", "ios": "https://dc.lft.to/lastmile_qr_scan"}, "bike_id": "93fb3e0c8aa14808ea1b7d505ae0e426", "lon": -77.04528933333333}, {"is_reserved": 0, "fusion_lon": 0.0, "fusion_lat": 0.0, "name": "dd42486fc8672a0def233c41d5e287e4", "type": "electric_bike", "is_disabled": 0, "lat": 38.83230866666667, "rental_uris": {"android": "https://dc.lft.to/lastmile_qr_scan", "ios": "https://dc.lft.to/lastmile_qr_scan"}, "bike_id": "dd42486fc8672a0def233c41d5e287e4", "lon": -76.94623066666666}, {"is_reserved": 0, "fusion_lon": 0.0, "fusion_lat": 0.0, "name": "619e296a13e10862898ae039ffc9643c", "type": "electric_scooter", "is_disabled": 0, "lat": 38.9171635, "rental_uris": {"android": "https://dc.lft.to/lastmile_qr_scan", "ios": "https://dc.lft.to/lastmile_qr_scan"}, "bike_id": "619e296a13e10862898ae039ffc9643c", "lon": -77.0386135}, {"is_reserved": 0, "fusion_lon": 0.0, "fusion_lat": 0.0, "name": "8c3bce9e6bf45ab5f1f3cc249f39b7a1", "type": "electric_scooter", "is_disabled": 0, "lat": 38.885608833333336, "rental_uris": {"android": "https://dc.lft.to/lastmile_qr_scan", "ios": "https://dc.lft.to/lastmile_qr_scan"}, "bike_id": "8c3bce9e6bf45ab5f1f3cc249f39b7a1", "lon": -76.9979705}, {"is_reserved": 0, "fusion_lon": 0.0, "fusion_lat": 0.0, "name": "36b7946ca636efe143a5133f9a9260d0", "type": "electric_scooter", "is_disabled": 0, "lat": 38.876829666666666, "rental_uris": {"android": "https://dc.lft.to/lastmile_qr_scan", "ios": "https://dc.lft.to/lastmile_qr_scan"}, "bike_id": "36b7946ca636efe143a5133f9a9260d0", "lon": -77.00413733333333}, {"is_reserved": 0, "fusion_lon": 0.0, "fusion_lat": 0.0, "name": "39f256a501b919e05cfb5b37c87b7eb1", "type": "electric_scooter", "is_disabled": 0, "lat": 38.9109945, "rental_uris": {"android": "https://dc.lft.to/lastmile_qr_scan", "ios": "https://dc.lft.to/lastmile_qr_scan"}, "bike_id": "39f256a501b919e05cfb5b37c87b7eb1", "lon": -77.0280315}, {"is_reserved": 0, "fusion_lon": 0.0, "fusion_lat": 0.0, "name": "802cdf57d794640f643d922f3814ef56", "type": "electric_scooter", "is_disabled": 0, "lat": 38.934081666666664, "rental_uris": {"android": "https://dc.lft.to/lastmile_qr_scan", "ios": "https://dc.lft.to/lastmile_qr_scan"}, "bike_id": "802cdf57d794640f643d922f3814ef56", "lon": -77.03261366666666}, {"is_reserved": 0, "fusion_lon": 0.0, "fusion_lat": 0.0, "name": "67893b17630a0a0db9bd28306d2d65bb", "type": "electric_scooter", "is_disabled": 0, "lat": 38.93025316666667, "rental_uris": {"android": "https://dc.lft.to/lastmile_qr_scan", "ios": "https://dc.lft.to/lastmile_qr_scan"}, "bike_id": "67893b17630a0a0db9bd28306d2d65bb", "lon": -77.06312416666667}, {"is_reserved": 0, "fusion_lon": 0.0, "fusion_lat": 0.0, "name": "ed5c2379fb41071c6769bb6cfb2228ee", "type": "electric_scooter", "is_disabled": 0, "lat": 38.905312, "rental_uris": {"android": "https://dc.lft.to/lastmile_qr_scan", "ios": "https://dc.lft.to/lastmile_qr_scan"}, "bike_id": "ed5c2379fb41071c6769bb6cfb2228ee", "lon": -77.03242816666666}, {"is_reserved": 0, "fusion_lon": 0.0, "fusion_lat": 0.0, "name": "fb17a86c23204dc239885bebd74660b4", "type": "electric_scooter", "is_disabled": 0, "lat": 38.888643, "rental_uris": {"android": "https://dc.lft.to/lastmile_qr_scan", "ios": "https://dc.lft.to/lastmile_qr_scan"}, "bike_id": "fb17a86c23204dc239885bebd74660b4", "lon": -77.03108116666667}, {"is_reserved": 0, "fusion_lon": 0.0, "fusion_lat": 0.0, "name": "0eaef129a759b04c1174935668871026", "type": "electric_scooter", "is_disabled": 0, "lat": 38.90482383333333, "rental_uris": {"android": "https://dc.lft.to/lastmile_qr_scan", "ios": "https://dc.lft.to/lastmile_qr_scan"}, "bike_id": "0eaef129a759b04c1174935668871026", "lon": -77.046471}, {"is_reserved": 0, "fusion_lon": 0.0, "fusion_lat": 0.0, "name": "c88d05ed852250585fab81c389773b00", "type": "electric_scooter", "is_disabled": 0, "lat": 38.891857, "rental_uris": {"android": "https://dc.lft.to/lastmile_qr_scan", "ios": "https://dc.lft.to/lastmile_qr_scan"}, "bike_id": "c88d05ed852250585fab81c389773b00", "lon": -77.0363475}, {"is_reserved": 0, "fusion_lon": 0.0, "fusion_lat": 0.0, "name": "f439053f2586626f3668c44305360e99", "type": "electric_scooter", "is_disabled": 0, "lat": 38.900785, "rental_uris": {"android": "https://dc.lft.to/lastmile_qr_scan", "ios": "https://dc.lft.to/lastmile_qr_scan"}, "bike_id": "f439053f2586626f3668c44305360e99", "lon": -76.93868566666667}, {"is_reserved": 0, "fusion_lon": 0.0, "fusion_lat": 0.0, "name": "f6bff2045f030ceb81426b7bcc1cda98", "type": "electric_scooter", "is_disabled": 0, "lat": 38.91899216666667, "rental_uris": {"android": "https://dc.lft.to/lastmile_qr_scan", "ios": "https://dc.lft.to/lastmile_qr_scan"}, "bike_id": "f6bff2045f030ceb81426b7bcc1cda98", "lon": -76.987428}, {"is_reserved": 0, "fusion_lon": 0.0, "fusion_lat": 0.0, "name": "ffe38c95d298070452db2676aaae0a9d", "type": "electric_scooter", "is_disabled": 0, "lat": 38.907663, "rental_uris": {"android": "https://dc.lft.to/lastmile_qr_scan", "ios": "https://dc.lft.to/lastmile_qr_scan"}, "bike_id": "ffe38c95d298070452db2676aaae0a9d", "lon": -76.97837266666667}, {"is_reserved": 0, "fusion_lon": 0.0, "fusion_lat": 0.0, "name": "c7a692553246a1fed59652412763ea68", "type": "electric_scooter", "is_disabled": 0, "lat": 38.919194, "rental_uris": {"android": "https://dc.lft.to/lastmile_qr_scan", "ios": "https://dc.lft.to/lastmile_qr_scan"}, "bike_id": "c7a692553246a1fed59652412763ea68", "lon": -77.0318795}, {"is_reserved": 0, "fusion_lon": 0.0, "fusion_lat": 0.0, "name": "c791dba0d0ebc97cc404ee1040ec5a29", "type": "electric_scooter", "is_disabled": 0, "lat": 38.91600533333333, "rental_uris": {"android": "https://dc.lft.to/lastmile_qr_scan", "ios": "https://dc.lft.to/lastmile_qr_scan"}, "bike_id": "c791dba0d0ebc97cc404ee1040ec5a29", "lon": -77.0230795}, {"is_reserved": 0, "fusion_lon": 0.0, "fusion_lat": 0.0, "name": "e13d3dcb524189b3601095c7913953a9", "type": "electric_scooter", "is_disabled": 0, "lat": 38.931345666666665, "rental_uris": {"android": "https://dc.lft.to/lastmile_qr_scan", "ios": "https://dc.lft.to/lastmile_qr_scan"}, "bike_id": "e13d3dcb524189b3601095c7913953a9", "lon": -77.03820833333333}, {"is_reserved": 0, "fusion_lon": 0.0, "fusion_lat": 0.0, "name": "22c9a8bc26ab70cbcda15f8e5fa2f496", "type": "electric_scooter", "is_disabled": 0, "lat": 38.920528833333336, "rental_uris": {"android": "https://dc.lft.to/lastmile_qr_scan", "ios": "https://dc.lft.to/lastmile_qr_scan"}, "bike_id": "22c9a8bc26ab70cbcda15f8e5fa2f496", "lon": -77.03469183333333}, {"is_reserved": 0, "fusion_lon": 0.0, "fusion_lat": 0.0, "name": "ff4a18e9addf84080cbb871357ae878b", "type": "electric_scooter", "is_disabled": 0, "lat": 38.95198033333333, "rental_uris": {"android": "https://dc.lft.to/lastmile_qr_scan", "ios": "https://dc.lft.to/lastmile_qr_scan"}, "bike_id": "ff4a18e9addf84080cbb871357ae878b", "lon": -77.02738183333334}, {"is_reserved": 0, "fusion_lon": 0.0, "fusion_lat": 0.0, "name": "f6c7b9c574855b3d84633a59e8929486", "type": "electric_scooter", "is_disabled": 0, "lat": 38.875393, "rental_uris": {"android": "https://dc.lft.to/lastmile_qr_scan", "ios": "https://dc.lft.to/lastmile_qr_scan"}, "bike_id": "f6c7b9c574855b3d84633a59e8929486", "lon": -77.00583116666667}, {"is_reserved": 0, "fusion_lon": 0.0, "fusion_lat": 0.0, "name": "6ce0e466e895559f432a8241a26b6d63", "type": "electric_scooter", "is_disabled": 0, "lat": 38.90712466666667, "rental_uris": {"android": "https://dc.lft.to/lastmile_qr_scan", "ios": "https://dc.lft.to/lastmile_qr_scan"}, "bike_id": "6ce0e466e895559f432a8241a26b6d63", "lon": -77.048115}, {"is_reserved": 0, "fusion_lon": 0.0, "fusion_lat": 0.0, "name": "3ec89715098a17996cadd12708739cdd", "type": "electric_scooter", "is_disabled": 0, "lat": 38.90152783333333, "rental_uris": {"android": "https://dc.lft.to/lastmile_qr_scan", "ios": "https://dc.lft.to/lastmile_qr_scan"}, "bike_id": "3ec89715098a17996cadd12708739cdd", "lon": -77.0403925}, {"is_reserved": 0, "fusion_lon": 0.0, "fusion_lat": 0.0, "name": "eac7739653d5f1c96d3fc723af11dad1", "type": "electric_scooter", "is_disabled": 0, "lat": 38.903327833333336, "rental_uris": {"android": "https://dc.lft.to/lastmile_qr_scan", "ios": "https://dc.lft.to/lastmile_qr_scan"}, "bike_id": "eac7739653d5f1c96d3fc723af11dad1", "lon": -77.00571616666667}, {"is_reserved": 0, "fusion_lon": 0.0, "fusion_lat": 0.0, "name": "e57863e18f86bd119dabd014420d402c", "type": "electric_scooter", "is_disabled": 0, "lat": 38.913846, "rental_uris": {"android": "https://dc.lft.to/lastmile_qr_scan", "ios": "https://dc.lft.to/lastmile_qr_scan"}, "bike_id": "e57863e18f86bd119dabd014420d402c", "lon": -77.01706716666666},