{"data": {"bikes": [{"bike_id": "4ebb3c765f5cd817386e823f3e7bb8b6", "type": "electric_scooter", "is_disabled": 0, "lat": 38.91275183333333, "rental_uris": {"ios": "https://dc.lft.to/lastmile_qr_scan", "android": "https://dc.lft.to/lastmile_qr_scan"}, "is_reserved": 0, "fusion_lon": 0.0, "fusion_lat": 0.0, "lon": -77.05159383333333, "name": "4ebb3c765f5cd817386e823f3e7bb8b6"}, {"bike_id": "b17ed3e798f1ea2e30fd52802c039685", "type": "electric_scooter", "is_disabled": 0, "lat": 38.91866383333333, "rental_uris": {"ios": "https://dc.lft.to/lastmile_qr_scan", "android": "https://dc.lft.to/lastmile_qr_scan"}, "is_reserved": 0, "fusion_lon": 0.0, "fusion_lat": 0.0, "lon": -77.01503833333334, "name": "b17ed3e798f1ea2e30fd52802c039685"}, {"bike_id": "c43b32bbbcdedec8548c5f197c5f8493", "type": "electric_scooter", "is_disabled": 0, "lat": 38.943375833333334, "rental_uris": {"ios": "https://dc.lft.to/lastmile_qr_scan", "android": "https://dc.lft.to/lastmile_qr_scan"}, "is_reserved": 0, "fusion_lon": 0.0, "fusion_lat": 0.0, "lon": -77.0147865, "name": "c43b32bbbcdedec8548c5f197c5f8493"}, {"bike_id": "bfb21cca7c4c1a08a809bd750758a973", "type": "electric_scooter", "is_disabled": 0, "lat": 38.882662333333336, "rental_uris": {"ios": "https://dc.lft.to/lastmile_qr_scan", "android": "https://dc.lft.to/lastmile_qr_scan"}, "is_reserved": 0, "fusion_lon": 0.0, "fusion_lat": 0.0, "lon": -76.99248416666667, "name": "bfb21cca7c4c1a08a809bd750758a973"}, {"bike_id": "7b036f4316089b95f052e25f0b4526a5", "type": "electric_scooter", "is_disabled": 0, "lat": 38.93155566666667, "rental_uris": {"ios": "https://dc.lft.to/lastmile_qr_scan", "android": "https://dc.lft.to/lastmile_qr_scan"}, "is_reserved": 0, "fusion_lon": 0.0, "fusion_lat": 0.0, "lon": -77.033399, "name": "7b036f4316089b95f052e25f0b4526a5"}, {"bike_id": "c37658acafd67eff87d5a08227667e54", "type": "electric_scooter", "is_disabled": 0, "lat": 38.9215775, "rental_uris": {"ios": "https://dc.lft.to/lastmile_qr_scan", "android": "https://dc.lft.to/lastmile_qr_scan"}, "is_reserved": 0, "fusion_lon": 0.0, "fusion_lat": 0.0, "lon": -77.03321316666667, "name": "c37658acafd67eff87d5a08227667e54"}, {"bike_id": "568c4d3ff6829038a0169de8a4d97c30", "type": "electric_scooter", "is_disabled": 0, "lat": 38.90519066666667, "rental_uris": {"ios": "https://dc.lft.to/lastmile_qr_scan", "android": "https://dc.lft.to/lastmile_qr_scan"}, "is_reserved": 0, "fusion_lon": 0.0, "fusion_lat": 0.0, "lon": -77.0405785, "name": "568c4d3ff6829038a0169de8a4d97c30"}, {"bike_id": "fa95223fa951ee33ae4005cf553b67ce", "type": "electric_scooter", "is_disabled": 0, "lat": 38.90504716666667, "rental_uris": {"ios": "https://dc.lft.to/lastmile_qr_scan", "android": "https://dc.lft.to/lastmile_qr_scan"}, "is_reserved": 0, "fusion_lon": 0.0, "fusion_lat": 0.0, "lon": -77.063741, "name": "fa95223fa951ee33ae4005cf553b67ce"}, {"bike_id": "ed6521abef9e1d4e575676f1c636e53e", "type": "electric_scooter", "is_disabled": 0, "lat": 38.929041166666664, "rental_uris": {"ios": "https://dc.lft.to/lastmile_qr_scan", "android": "https://dc.lft.to/lastmile_qr_scan"}, "is_reserved": 0, "fusion_lon": 0.0, "fusion_lat": 0.0, "lon": -77.03268716666666, "name": "ed6521abef9e1d4e575676f1c636e53e"}, {"bike_id": "105de878054ab61fe34454354bb6e90a", "type": "electric_scooter", "is_disabled": 0, "lat": 38.9039145, "rental_uris": {"ios": "https://dc.lft.to/lastmile_qr_scan", "android": "https://dc.lft.to/lastmile_qr_scan"}, "is_reserved": 0, "fusion_lon": 0.0, "fusion_lat": 0.0, "lon": -77.068608, "name": "105de878054ab61fe34454354bb6e90a"}, {"bike_id": "8ed3a12929a7410d2a11eb3cec5daeaa", "type": "electric_scooter", "is_disabled": 0, "lat": 38.90639316666667, "rental_uris": {"ios": "https://dc.lft.to/lastmile_qr_scan", "android": "https://dc.lft.to/lastmile_qr_scan"}, "is_reserved": 0, "fusion_lon": 0.0, "fusion_lat": 0.0, "lon": -77.03134466666667, "name": "8ed3a12929a7410d2a11eb3cec5daeaa"}, {"bike_id": "895e96d774538fdc2ac34a3329a50e84", "type": "electric_scooter", "is_disabled": 0, "lat": 38.90469816666667, "rental_uris": {"ios": "https://dc.lft.to/lastmile_qr_scan", "android": "https://dc.lft.to/lastmile_qr_scan"}, "is_reserved": 0, "fusion_lon": 0.0, "fusion_lat": 0.0, "lon": -77.06267783333334, "name": "895e96d774538fdc2ac34a3329a50e84"}, {"bike_id": "c3e07609ed85b0ff4d118eb570e6789c", "type": "electric_scooter", "is_disabled": 0, "lat": 38.9135265, "rental_uris": {"ios": "https://dc.lft.to/lastmile_qr_scan", "android": "https://dc.lft.to/lastmile_qr_scan"}, "is_reserved": 0, "fusion_lon": 0.0, "fusion_lat": 0.0, "lon": -77.03179033333333, "name": "c3e07609ed85b0ff4d118eb570e6789c"}, {"bike_id": "c0bee203fe8e4e9f3543d333060bfd6f", "type": "electric_scooter", "is_disabled": 0, "lat": 38.90494566666667, "rental_uris": {"ios": "https://dc.lft.to/lastmile_qr_scan", "android": "https://dc.lft.to/lastmile_qr_scan"}, "is_reserved": 0, "fusion_lon": 0.0, "fusion_lat": 0.0, "lon": -77.02936583333333, "name": "c0bee203fe8e4e9f3543d333060bfd6f"}, {"bike_id": "5ac30271f9a2be822cec612622f52e73", "type": "electric_scooter", "is_disabled": 0, "lat": 38.91692316666666, "rental_uris": {"ios": "https://dc.lft.to/lastmile_qr_scan", "android": "https://dc.lft.to/lastmile_qr_scan"}, "is_reserved": 0, "fusion_lon": 0.0, "fusion_lat": 0.0, "lon": -77.02870366666667, "name": "5ac30271f9a2be822cec612622f52e73"}, {"bike_id": "2896982d9450ad5c8fcbfbd030c3b968", "type": "electric_scooter", "is_disabled": 0, "lat": 38.87630983333333, "rental_uris": {"ios": "https://dc.lft.to/lastmile_qr_scan", "android": "https://dc.lft.to/lastmile_qr_scan"}, "is_reserved": 0, "fusion_lon": 0.0, "fusion_lat": 0.0, "lon": -76.96525983333333, "name": "2896982d9450ad5c8fcbfbd030c3b968"}, {"bike_id": "033349851e2ba1c1bb55246d30bd2acf", "type": "electric_scooter", "is_disabled": 0, "lat": 38.949941833333334, "rental_uris": {"ios": "https://dc.lft.to/lastmile_qr_scan", "android": "https://dc.lft.to/lastmile_qr_scan"}, "is_reserved": 0, "fusion_lon": 0.0, "fusion_lat": 0.0, "lon": -77.01830966666667, "name": "033349851e2ba1c1bb55246d30bd2acf"}, {"bike_id": "8677ef86d380fa91723b1b40fa2c334a", "type": "electric_scooter", "is_disabled": 0, "lat": 38.9006625, "rental_uris": {"ios": "https://dc.lft.to/lastmile_qr_scan", "android": "https://dc.lft.to/lastmile_qr_scan"}, "is_reserved": 0, "fusion_lon": 0.0, "fusion_lat": 0.0, "lon": -76.9273455, "name": "8677ef86d380fa91723b1b40fa2c334a"}, {"bike_id": "f6c3ea59f6a49e14e1e94b9791898465", "type": "electric_scooter", "is_disabled": 0, "lat": 38.905021166666664, "rental_uris": {"ios": "https://dc.lft.to/lastmile_qr_scan", "android": "https://dc.lft.to/lastmile_qr_scan"}, "is_reserved": 0, "fusion_lon": 0.0, "fusion_lat": 0.0, "lon": -77.06886116666666, "name": "f6c3ea59f6a49e14e1e94b9791898465"}, {"bike_id": "b719436fd2cfd48da8f806587cc89f78", "type": "electric_scooter", "is_disabled": 0, "lat": 38.93403683333333, "rental_uris": {"ios": "https://dc.lft.to/lastmile_qr_scan", "android": "https://dc.lft.to/lastmile_qr_scan"}, "is_reserved": 0, "fusion_lon": 0.0, "fusion_lat": 0.0, "lon": -77.03516733333333, "name": "b719436fd2cfd48da8f806587cc89f78"}, {"bike_id": "93ab3b832003403e1ecb89c328d4e87e", "type": "electric_scooter", "is_disabled": 0, "lat": 38.90931666666667, "rental_uris": {"ios": "https://dc.lft.to/lastmile_qr_scan", "android": "https://dc.lft.to/lastmile_qr_scan"}, "is_reserved": 0, "fusion_lon": 0.0, "fusion_lat": 0.0, "lon": -77.064013, "name": "93ab3b832003403e1ecb89c328d4e87e"}, {"bike_id": "bee102ca50e1907119092d8eb7591fd9", "type": "electric_scooter", "is_disabled": 0, "lat": 38.911039833333334, "rental_uris": {"ios": "https://dc.lft.to/lastmile_qr_scan", "android": "https://dc.lft.to/lastmile_qr_scan"}, "is_reserved": 0, "fusion_lon": 0.0, "fusion_lat": 0.0, "lon": -77.011484, "name": "bee102ca50e1907119092d8eb7591fd9"}, {"bike_id": "22ecbd3202b76afb73d0e5bac0af52ee", "type": "electric_scooter", "is_disabled": 0, "lat": 38.924868333333336, "rental_uris": {"ios": "https://dc.lft.to/lastmile_qr_scan", "android": "https://dc.lft.to/lastmile_qr_scan"}, "is_reserved": 0, "fusion_lon": 0.0, "fusion_lat": 0.0, "lon": -77.0521885, "name": "22ecbd3202b76afb73d0e5bac0af52ee"}, {"bike_id": "4caf37d484e12817a81382bf1d45d126", "type": "electric_scooter", "is_disabled": 0, "lat": 38.944184, "rental_uris": {"ios": "https://dc.lft.to/lastmile_qr_scan", "android": "https://dc.lft.to/lastmile_qr_scan"}, "is_reserved": 0, "fusion_lon": 0.0, "fusion_lat": 0.0, "lon": -77.00733566666666, "name": "4caf37d484e12817a81382bf1d45d126"}, {"bike_id": "a0347ea52c1e6dafa6732e9a49e0f755", "type": "electric_scooter", "is_disabled": 0, "lat": 38.90956533333333, "rental_uris": {"ios": "https://dc.lft.to/lastmile_qr_scan", "android": "https://dc.lft.to/lastmile_qr_scan"}, "is_reserved": 0, "fusion_lon": 0.0, "fusion_lat": 0.0, "lon": -77.02710933333333, "name": "a0347ea52c1e6dafa6732e9a49e0f755"}, {"bike_id": "c3359a61d6a7786227c99852363b0936", "type": "electric_scooter", "is_disabled": 0, "lat": 38.9094355, "rental_uris": {"ios": "https://dc.lft.to/lastmile_qr_scan", "android": "https://dc.lft.to/lastmile_qr_scan"}, "is_reserved": 0, "fusion_lon": 0.0, "fusion_lat": 0.0, "lon": -77.055591, "name": "c3359a61d6a7786227c99852363b0936"}, {"bike_id": "1c81c4efc579bea9129494e98399d80b", "type": "electric_scooter", "is_disabled": 0, "lat": 38.84437533333333, "rental_uris": {"ios": "https://dc.lft.to/lastmile_qr_scan", "android": "https://dc.lft.to/lastmile_qr_scan"}, "is_reserved": 0, "fusion_lon": 0.0, "fusion_lat": 0.0, "lon": -76.99865366666667, "name": "1c81c4efc579bea9129494e98399d80b"}, {"bike_id": "faa76f13569f8d3163752878258e9cd5", "type": "electric_scooter", "is_disabled": 0, "lat": 38.938486833333336, "rental_uris": {"ios": "https://dc.lft.to/lastmile_qr_scan", "android": "https://dc.lft.to/lastmile_qr_scan"}, "is_reserved": 0, "fusion_lon": 0.0, "fusion_lat": 0.0, "lon": -77.07230183333333, "name": "faa76f13569f8d3163752878258e9cd5"}, {"bike_id": "28b0d371a0e4b1822a247d8ffce6957e", "type": "electric_scooter", "is_disabled": 0, "lat": 38.90701216666667, "rental_uris": {"ios": "https://dc.lft.to/lastmile_qr_scan", "android": "https://dc.lft.to/lastmile_qr_scan"}, "is_reserved": 0, "fusion_lon": 0.0, "fusion_lat": 0.0, "lon": -77.04178866666666, "name": "28b0d371a0e4b1822a247d8ffce6957e"}, {"bike_id": "032529dac5fcc114d16da47f9918f144", "type": "electric_scooter", "is_disabled": 0, "lat": 38.908381, "rental_uris": {"ios": "https://dc.lft.to/lastmile_qr_scan", "android": "https://dc.lft.to/lastmile_qr_scan"}, "is_reserved": 0, "fusion_lon": 0.0, "fusion_lat": 0.0, "lon": -77.01976733333333, "name": "032529dac5fcc114d16da47f9918f144"}, {"bike_id": "7c82f707a09b9b3cf50fc96a9799e4cf", "type": "electric_bike", "is_disabled": 0, "lat": 38.836119333333336, "rental_uris": {"ios": "https://dc.lft.to/lastmile_qr_scan", "android": "https://dc.lft.to/lastmile_qr_scan"}, "is_reserved": 0, "fusion_lon": 0.0, "fusion_lat": 0.0, "lon": -77.00379616666666, "name": "7c82f707a09b9b3cf50fc96a9799e4cf"}, {"bike_id": "1d8d60d48e2c3b65087cb28209f883e8", "type": "electric_scooter", "is_disabled": 0, "lat": 38.918353833333335, "rental_uris": {"ios": "https://dc.lft.to/lastmile_qr_scan", "android": "https://dc.lft.to/lastmile_qr_scan"}, "is_reserved": 0, "fusion_lon": 0.0, "fusion_lat": 0.0, "lon": -77.02451733333334, "name": "1d8d60d48e2c3b65087cb28209f883e8"}, {"bike_id": "c61d0bc67e83cfd9ac2f9877fd193d31", "type": "electric_scooter", "is_disabled": 0, "lat": 38.9216315, "rental_uris": {"ios": "https://dc.lft.to/lastmile_qr_scan", "android": "https://dc.lft.to/lastmile_qr_scan"}, "is_reserved": 0, "fusion_lon": 0.0, "fusion_lat": 0.0, "lon": -77.03848516666666, "name": "c61d0bc67e83cfd9ac2f9877fd193d31"}, {"bike_id": "e07043c9c08f80cf5e47cc73bd5f3dc5", "type": "electric_bike", "is_disabled": 0, "lat": 38.889557833333335, "rental_uris": {"ios": "https://dc.lft.to/lastmile_qr_scan", "android": "https://dc.lft.to/lastmile_qr_scan"}, "is_reserved": 0, "fusion_lon": 0.0, "fusion_lat": 0.0, "lon": -77.091338, "name": "e07043c9c08f80cf5e47cc73bd5f3dc5"}, {"bike_id": "b618d60b4e894aecace44412974ecbbd", "type": "electric_scooter", "is_disabled": 0, "lat": 38.927894333333334, "rental_uris": {"ios": "https://dc.lft.to/lastmile_qr_scan", "android": "https://dc.lft.to/lastmile_qr_scan"}, "is_reserved": 0, "fusion_lon": 0.0, "fusion_lat": 0.0, "lon": -77.022061, "name": "b618d60b4e894aecace44412974ecbbd"}, {"bike_id": "0feb65d11daf4ea714883bc151a02ae2", "type": "electric_scooter", "is_disabled": 0, "lat": 38.90765233333333, "rental_uris": {"ios": "https://dc.lft.to/lastmile_qr_scan", "android": "https://dc.lft.to/lastmile_qr_scan"}, "is_reserved": 0, "fusion_lon": 0.0, "fusion_lat": 0.0, "lon": -77.0360295, "name": "0feb65d11daf4ea714883bc151a02ae2"}, {"bike_id": "72a379578b810b857b2d4ab5e7197834", "type": "electric_scooter", "is_disabled": 0, "lat": 38.911835833333335, "rental_uris": {"ios": "https://dc.lft.to/lastmile_qr_scan", "android": "https://dc.lft.to/lastmile_qr_scan"}, "is_reserved": 0, "fusion_lon": 0.0, "fusion_lat": 0.0, "lon": -77.0686025, "name": "72a379578b810b857b2d4ab5e7197834"}, {"bike_id": "1d5698484443dd892612af845ef42c06", "type": "electric_scooter", "is_disabled": 0, "lat": 38.905941, "rental_uris": {"ios": "https://dc.lft.to/lastmile_qr_scan", "android": "https://dc.lft.to/lastmile_qr_scan"}, "is_reserved": 0, "fusion_lon": 0.0, "fusion_lat": 0.0, "lon": -77.07305516666666, "name": "1d5698484443dd892612af845ef42c06"}, {"bike_id": "44a86703d9ba7be15fdecdd10d6878b2", "type": "electric_scooter", "is_disabled": 0, "lat": 38.918014666666664, "rental_uris": {"ios": "https://dc.lft.to/lastmile_qr_scan", "android": "https://dc.lft.to/lastmile_qr_scan"}, "is_reserved": 0, "fusion_lon": 0.0, "fusion_lat": 0.0, "lon": -77.0366535, "name": "44a86703d9ba7be15fdecdd10d6878b2"}, {"bike_id": "4c371355f63ef13d27742d0ce194da61", "type": "electric_scooter", "is_disabled": 0, "lat": 38.91797283333333, "rental_uris": {"ios": "https://dc.lft.to/lastmile_qr_scan", "android": "https://dc.lft.to/lastmile_qr_scan"}, "is_reserved": 0, "fusion_lon": 0.0, "fusion_lat": 0.0, "lon": -77.02319616666666, "name": "4c371355f63ef13d27742d0ce194da61"}, {"bike_id": "a2bf1e9d600c6ab1dc09a5e920c789d0", "type": "electric_scooter", "is_disabled": 0, "lat": 38.95317516666667, "rental_uris": {"ios": "https://dc.lft.to/lastmile_qr_scan", "android": "https://dc.lft.to/lastmile_qr_scan"}, "is_reserved": 0, "fusion_lon": 0.0, "fusion_lat": 0.0, "lon": -77.06980983333334, "name": "a2bf1e9d600c6ab1dc09a5e920c789d0"}, {"bike_id": "59fe72890693cce27223f384e7cf46a6", "type": "electric_scooter", "is_disabled": 0, "lat": 38.894853, "rental_uris": {"ios": "https://dc.lft.to/lastmile_qr_scan", "android": "https://dc.lft.to/lastmile_qr_scan"}, "is_reserved": 0, "fusion_lon": 0.0, "fusion_lat": 0.0, "lon": -77.010993, "name": "59fe72890693cce27223f384e7cf46a6"}, {"bike_id": "29d92a7450f982a6f91716d371c27345", "type": "electric_scooter", "is_disabled": 0, "lat": 38.915471, "rental_uris": {"ios": "https://dc.lft.to/lastmile_qr_scan", "android": "https://dc.lft.to/lastmile_qr_scan"}, "is_reserved": 0, "fusion_lon": 0.0, "fusion_lat": 0.0, "lon": -77.01273483333334, "name": "29d92a7450f982a6f91716d371c27345"}, {"bike_id": "c19af2f3df865c9e376082638ea74022", "type": "electric_scooter", "is_disabled": 0, "lat": 38.9114125, "rental_uris": {"ios": "https://dc.lft.to/lastmile_qr_scan", "android": "https://dc.lft.to/lastmile_qr_scan"}, "is_reserved": 0, "fusion_lon": 0.0, "fusion_lat": 0.0, "lon": -76.990107, "name": "c19af2f3df865c9e376082638ea74022"}, {"bike_id": "2933c46e7bd5fd3a4aba902186a1900a", "type": "electric_scooter", "is_disabled": 0, "lat": 38.93608916666667, "rental_uris": {"ios": "https://dc.lft.to/lastmile_qr_scan", "android": "https://dc.lft.to/lastmile_qr_scan"}, "is_reserved": 0, "fusion_lon": 0.0, "fusion_lat": 0.0, "lon": -77.0380455, "name": "2933c46e7bd5fd3a4aba902186a1900a"}, {"bike_id": "9255f109c4b487e3c026e83d6f5bc7f2", "type": "electric_scooter", "is_disabled": 0, "lat": 38.925657666666666, "rental_uris": {"ios": "https://dc.lft.to/lastmile_qr_scan", "android": "https://dc.lft.to/lastmile_qr_scan"}, "is_reserved": 0, "fusion_lon": 0.0, "fusion_lat": 0.0, "lon": -77.04009916666666, "name": "9255f109c4b487e3c026e83d6f5bc7f2"}, {"bike_id": "0299a9f1ffa028c226aef094adfa4339", "type": "electric_scooter", "is_disabled": 0, "lat": 38.9298235, "rental_uris": {"ios": "https://dc.lft.to/lastmile_qr_scan", "android": "https://dc.lft.to/lastmile_qr_scan"}, "is_reserved": 0, "fusion_lon": 0.0, "fusion_lat": 0.0, "lon": -77.02771116666666, "name": "0299a9f1ffa028c226aef094adfa4339"}, {"bike_id": "ef7f9dc32d00164c0a948a3ecc650cb7", "type": "electric_bike", "is_disabled": 0, "lat": 38.873000166666664, "rental_uris": {"ios": "https://dc.lft.to/lastmile_qr_scan", "android": "https://dc.lft.to/lastmile_qr_scan"}, "is_reserved": 0, "fusion_lon": 0.0, "fusion_lat": 0.0, "lon": -77.13908233333333, "name": "ef7f9dc32d00164c0a948a3ecc650cb7"}, {"bike_id": "845ef30f838f3be8db30f8e4ecec51bd", "type": "electric_scooter", "is_disabled": 0, "lat": 38.919687333333336, "rental_uris": {"ios": "https://dc.lft.to/lastmile_qr_scan", "android": "https://dc.lft.to/lastmile_qr_scan"}, "is_reserved": 0, "fusion_lon": 0.0, "fusion_lat": 0.0, "lon": -77.04143166666667, "name": "845ef30f838f3be8db30f8e4ecec51bd"}, {"bike_id": "719fbbd9ad5e6f82f23c69a09b149917", "type": "electric_scooter", "is_disabled": 0, "lat": 38.888884833333336, "rental_uris": {"ios": "https://dc.lft.to/lastmile_qr_scan", "android": "https://dc.lft.to/lastmile_qr_scan"}, "is_reserved": 0, "fusion_lon": 0.0, "fusion_lat": 0.0, "lon": -77.03326333333334, "name": "719fbbd9ad5e6f82f23c69a09b149917"}, {"bike_id": "fef7c8a271dd204fc7036c356639b73a", "type": "electric_scooter", "is_disabled": 0, "lat": 38.9354435, "rental_uris": {"ios": "https://dc.lft.to/lastmile_qr_scan", "android": "https://dc.lft.to/lastmile_qr_scan"}, "is_reserved": 0, "fusion_lon": 0.0, "fusion_lat": 0.0, "lon": -77.03402033333333, "name": "fef7c8a271dd204fc7036c356639b73a"}, {"bike_id": "1033009cb8ab4583f6b84abf54f43081", "type": "electric_scooter", "is_disabled": 0, "lat": 38.934751, "rental_uris": {"ios": "https://dc.lft.to/lastmile_qr_scan", "android": "https://dc.lft.to/lastmile_qr_scan"}, "is_reserved": 0, "fusion_lon": 0.0, "fusion_lat": 0.0, "lon": -77.07282383333333, "name": "1033009cb8ab4583f6b84abf54f43081"}, {"bike_id": "3de72bdaa71e24ef4593bd89a3e1b500", "type": "electric_scooter", "is_disabled": 0, "lat": 38.921484666666665, "rental_uris": {"ios": "https://dc.lft.to/lastmile_qr_scan", "android": "https://dc.lft.to/lastmile_qr_scan"}, "is_reserved": 0, "fusion_lon": 0.0, "fusion_lat": 0.0, "lon": -77.0180415, "name": "3de72bdaa71e24ef4593bd89a3e1b500"}, {"bike_id": "63fb835836d9f4029f614234303f307d", "type": "electric_scooter", "is_disabled": 0, "lat": 38.93393183333333, "rental_uris": {"ios": "https://dc.lft.to/lastmile_qr_scan", "android": "https://dc.lft.to/lastmile_qr_scan"}, "is_reserved": 0, "fusion_lon": 0.0, "fusion_lat": 0.0, "lon": -77.0222165, "name": "63fb835836d9f4029f614234303f307d"}, {"bike_id": "b5da6c9381dca42cb695a3db05d18994", "type": "electric_scooter", "is_disabled": 0, "lat": 38.94294333333333, "rental_uris": {"ios": "https://dc.lft.to/lastmile_qr_scan", "android": "https://dc.lft.to/lastmile_qr_scan"}, "is_reserved": 0, "fusion_lon": 0.0, "fusion_lat": 0.0, "lon": -77.0216965, "name": "b5da6c9381dca42cb695a3db05d18994"}, {"bike_id": "30e656f62b49093b245e5576c3add173", "type": "electric_scooter", "is_disabled": 0, "lat": 38.923339, "rental_uris": {"ios": "https://dc.lft.to/lastmile_qr_scan", "android": "https://dc.lft.to/lastmile_qr_scan"}, "is_reserved": 0, "fusion_lon": 0.0, "fusion_lat": 0.0, "lon": -77.036108, "name": "30e656f62b49093b245e5576c3add173"}, {"bike_id": "46cb86983a076c64348231cf2b123f86", "type": "electric_bike", "is_disabled": 0, "lat": 38.94866866666667, "rental_uris": {"ios": "https://dc.lft.to/lastmile_qr_scan", "android": "https://dc.lft.to/lastmile_qr_scan"}, "is_reserved": 0, "fusion_lon": 0.0, "fusion_lat": 0.0, "lon": -77.021997, "name": "46cb86983a076c64348231cf2b123f86"}, {"bike_id": "e107dff787e4b7563a34b4acbd3ffddf", "type": "electric_scooter", "is_disabled": 0, "lat": 38.912615, "rental_uris": {"ios": "https://dc.lft.to/lastmile_qr_scan", "android": "https://dc.lft.to/lastmile_qr_scan"}, "is_reserved": 0, "fusion_lon": 0.0, "fusion_lat": 0.0, "lon": -77.03268983333334, "name": "e107dff787e4b7563a34b4acbd3ffddf"}, {"bike_id": "1800c50f7310f719e54e3c7bc71df08c", "type": "electric_scooter", "is_disabled": 0, "lat": 38.89490033333333, "rental_uris": {"ios": "https://dc.lft.to/lastmile_qr_scan", "android": "https://dc.lft.to/lastmile_qr_scan"}, "is_reserved": 0, "fusion_lon": 0.0, "fusion_lat": 0.0, "lon": -77.01092383333334, "name": "1800c50f7310f719e54e3c7bc71df08c"}, {"bike_id": "ab4ea0c7564ee2a4a0ad57fd1f4f7077", "type": "electric_scooter", "is_disabled": 0, "lat": 38.93464733333333, "rental_uris": {"ios": "https://dc.lft.to/lastmile_qr_scan", "android": "https://dc.lft.to/lastmile_qr_scan"}, "is_reserved": 0, "fusion_lon": 0.0, "fusion_lat": 0.0, "lon": -77.07184633333334, "name": "ab4ea0c7564ee2a4a0ad57fd1f4f7077"}, {"bike_id": "31353f62a43b1fcff9f203353d703b02", "type": "electric_scooter", "is_disabled": 0, "lat": 38.93745333333333, "rental_uris": {"ios": "https://dc.lft.to/lastmile_qr_scan", "android": "https://dc.lft.to/lastmile_qr_scan"}, "is_reserved": 0, "fusion_lon": 0.0, "fusion_lat": 0.0, "lon": -77.0357525, "name": "31353f62a43b1fcff9f203353d703b02"}, {"bike_id": "4c57dab09ac1db3b9c50fad3d808af18", "type": "electric_scooter", "is_disabled": 0, "lat": 38.912418, "rental_uris": {"ios": "https://dc.lft.to/lastmile_qr_scan", "android": "https://dc.lft.to/lastmile_qr_scan"}, "is_reserved": 0, "fusion_lon": 0.0, "fusion_lat": 0.0, "lon": -77.022186, "name": "4c57dab09ac1db3b9c50fad3d808af18"}, {"bike_id": "b6ab47d7d14ae5aefc9d88b85a0ff708", "type": "electric_scooter", "is_disabled": 0, "lat": 38.913808333333336, "rental_uris": {"ios": "https://dc.lft.to/lastmile_qr_scan", "android": "https://dc.lft.to/lastmile_qr_scan"}, "is_reserved": 0, "fusion_lon": 0.0, "fusion_lat": 0.0, "lon": -77.04131116666667, "name": "b6ab47d7d14ae5aefc9d88b85a0ff708"}, {"bike_id": "1efbc5f044767e0ca69cfa89abc37e52", "type": "electric_scooter", "is_disabled": 0, "lat": 38.907342, "rental_uris": {"ios": "https://dc.lft.to/lastmile_qr_scan", "android": "https://dc.lft.to/lastmile_qr_scan"}, "is_reserved": 0, "fusion_lon": 0.0, "fusion_lat": 0.0, "lon": -77.02440483333334, "name": "1efbc5f044767e0ca69cfa89abc37e52"}, {"bike_id": "8d734a243a1931946af56c061157f4b8", "type": "electric_scooter", "is_disabled": 0, "lat": 38.89844083333333, "rental_uris": {"ios": "https://dc.lft.to/lastmile_qr_scan", "android": "https://dc.lft.to/lastmile_qr_scan"}, "is_reserved": 0, "fusion_lon": 0.0, "fusion_lat": 0.0, "lon": -77.02217283333333, "name": "8d734a243a1931946af56c061157f4b8"}, {"bike_id": "ea32d0fd5267758c01d781c2ee5ba773", "type": "electric_scooter", "is_disabled": 0, "lat": 38.946219666666664, "rental_uris": {"ios": "https://dc.lft.to/lastmile_qr_scan", "android": "https://dc.lft.to/lastmile_qr_scan"}, "is_reserved": 0, "fusion_lon": 0.0, "fusion_lat": 0.0, "lon": -77.07228716666667, "name": "ea32d0fd5267758c01d781c2ee5ba773"}, {"bike_id": "408af49e9d4145b81514ea61367f8ebc", "type": "electric_scooter", "is_disabled": 0, "lat": 38.897396, "rental_uris": {"ios": "https://dc.lft.to/lastmile_qr_scan", "android": "https://dc.lft.to/lastmile_qr_scan"}, "is_reserved": 0, "fusion_lon": 0.0, "fusion_lat": 0.0, "lon": -77.02493733333333, "name": "408af49e9d4145b81514ea61367f8ebc"}, {"bike_id": "d21b5e049142e88c53da5b478bb709b2", "type": "electric_scooter", "is_disabled": 0, "lat": 38.9007355, "rental_uris": {"ios": "https://dc.lft.to/lastmile_qr_scan", "android": "https://dc.lft.to/lastmile_qr_scan"}, "is_reserved": 0, "fusion_lon": 0.0, "fusion_lat": 0.0, "lon": -77.0307575, "name": "d21b5e049142e88c53da5b478bb709b2"}, {"bike_id": "0ec7f34b641dcd2231b55ab59cabadb9", "type": "electric_scooter", "is_disabled": 0, "lat": 38.9140205, "rental_uris": {"ios": "https://dc.lft.to/lastmile_qr_scan", "android": "https://dc.lft.to/lastmile_qr_scan"}, "is_reserved": 0, "fusion_lon": 0.0, "fusion_lat": 0.0, "lon": -77.03143316666667, "name": "0ec7f34b641dcd2231b55ab59cabadb9"}, {"bike_id": "36bdb4144768de4c9498de20051bc84b", "type": "electric_bike", "is_disabled": 0, "lat": 38.897310833333336, "rental_uris": {"ios": "https://dc.lft.to/lastmile_qr_scan", "android": "https://dc.lft.to/lastmile_qr_scan"}, "is_reserved": 0, "fusion_lon": 0.0, "fusion_lat": 0.0, "lon": -77.05541283333334, "name": "36bdb4144768de4c9498de20051bc84b"}, {"bike_id": "80c8fbc3d4c58a8c66d2fe426b2f0727", "type": "electric_scooter", "is_disabled": 0, "lat": 38.913516, "rental_uris": {"ios": "https://dc.lft.to/lastmile_qr_scan", "android": "https://dc.lft.to/lastmile_qr_scan"}, "is_reserved": 0, "fusion_lon": 0.0, "fusion_lat": 0.0, "lon": -77.008908, "name": "80c8fbc3d4c58a8c66d2fe426b2f0727"}, {"bike_id": "e671a9e67352fb4efeb9dfbaa3230bc0", "type": "electric_bike", "is_disabled": 0, "lat": 38.8315995, "rental_uris": {"ios": "https://dc.lft.to/lastmile_qr_scan", "android": "https://dc.lft.to/lastmile_qr_scan"}, "is_reserved": 0, "fusion_lon": 0.0, "fusion_lat": 0.0, "lon": -76.99546233333334, "name": "e671a9e67352fb4efeb9dfbaa3230bc0"}, {"bike_id": "42025767f710e23a3b531224c9581304", "type": "electric_scooter", "is_disabled": 0, "lat": 38.916771833333335, "rental_uris": {"ios": "https://dc.lft.to/lastmile_qr_scan", "android": "https://dc.lft.to/lastmile_qr_scan"}, "is_reserved": 0, "fusion_lon": 0.0, "fusion_lat": 0.0, "lon": -77.023293, "name": "42025767f710e23a3b531224c9581304"}, {"bike_id": "74e16e1b2730300972bb0f7e30e6960d", "type": "electric_scooter", "is_disabled": 0, "lat": 38.906419, "rental_uris": {"ios": "https://dc.lft.to/lastmile_qr_scan", "android": "https://dc.lft.to/lastmile_qr_scan"}, "is_reserved": 0, "fusion_lon": 0.0, "fusion_lat": 0.0, "lon": -77.0434465, "name": "74e16e1b2730300972bb0f7e30e6960d"}, {"bike_id": "395c3acf0f9a51f92fa9e613d585edc1", "type": "electric_bike", "is_disabled": 0, "lat": 38.807606666666665, "rental_uris": {"ios": "https://dc.lft.to/lastmile_qr_scan", "android": "https://dc.lft.to/lastmile_qr_scan"}, "is_reserved": 0, "fusion_lon": 0.0, "fusion_lat": 0.0, "lon": -77.094653, "name": "395c3acf0f9a51f92fa9e613d585edc1"}, {"bike_id": "3c7615fd638b3fd55a0ed2119cc1feaa", "type": "electric_scooter", "is_disabled": 0, "lat": 38.919940833333335, "rental_uris": {"ios": "https://dc.lft.to/lastmile_qr_scan", "android": "https://dc.lft.to/lastmile_qr_scan"}, "is_reserved": 0, "fusion_lon": 0.0, "fusion_lat": 0.0, "lon": -77.017756, "name": "3c7615fd638b3fd55a0ed2119cc1feaa"}, {"bike_id": "408607cc2c22bdc6781499df0ad08667", "type": "electric_scooter", "is_disabled": 0, "lat": 38.86506683333333, "rental_uris": {"ios": "https://dc.lft.to/lastmile_qr_scan", "android": "https://dc.lft.to/lastmile_qr_scan"}, "is_reserved": 0, "fusion_lon": 0.0, "fusion_lat": 0.0, "lon": -76.99001916666667, "name": "408607cc2c22bdc6781499df0ad08667"}, {"bike_id": "5a85c3d6a3ea1d48edd205e49a44806e", "type": "electric_scooter", "is_disabled": 0, "lat": 38.916068833333334, "rental_uris": {"ios": "https://dc.lft.to/lastmile_qr_scan", "android": "https://dc.lft.to/lastmile_qr_scan"}, "is_reserved": 0, "fusion_lon": 0.0, "fusion_lat": 0.0, "lon": -77.03382866666666, "name": "5a85c3d6a3ea1d48edd205e49a44806e"}, {"bike_id": "ee2049d178ee29e1501d31416d82dc41", "type": "electric_scooter", "is_disabled": 0, "lat": 38.907433, "rental_uris": {"ios": "https://dc.lft.to/lastmile_qr_scan", "android": "https://dc.lft.to/lastmile_qr_scan"}, "is_reserved": 0, "fusion_lon": 0.0, "fusion_lat": 0.0, "lon": -77.04149083333333, "name": "ee2049d178ee29e1501d31416d82dc41"}, {"bike_id": "45697d83e866f4d245a6fd422c66ad1e", "type": "electric_scooter", "is_disabled": 0, "lat": 38.923928333333336, "rental_uris": {"ios": "https://dc.lft.to/lastmile_qr_scan", "android": "https://dc.lft.to/lastmile_qr_scan"}, "is_reserved": 0, "fusion_lon": 0.0, "fusion_lat": 0.0, "lon": -77.0447185, "name": "45697d83e866f4d245a6fd422c66ad1e"}, {"bike_id": "54b4242f0c88d3437cf10ef1e4464f7f", "type": "electric_scooter", "is_disabled": 0, "lat": 38.90954933333333, "rental_uris": {"ios": "https://dc.lft.to/lastmile_qr_scan", "android": "https://dc.lft.to/lastmile_qr_scan"}, "is_reserved": 0, "fusion_lon": 0.0, "fusion_lat": 0.0, "lon": -77.02714616666667, "name": "54b4242f0c88d3437cf10ef1e4464f7f"}, {"bike_id": "4be94ef800bb900692779e7e24f04aea", "type": "electric_scooter", "is_disabled": 0, "lat": 38.918013333333334, "rental_uris": {"ios": "https://dc.lft.to/lastmile_qr_scan", "android": "https://dc.lft.to/lastmile_qr_scan"}, "is_reserved": 0, "fusion_lon": 0.0, "fusion_lat": 0.0, "lon": -77.023172, "name": "4be94ef800bb900692779e7e24f04aea"}, {"bike_id": "ef2795a3ce38b0d8202d1b8326f7df67", "type": "electric_scooter", "is_disabled": 0, "lat": 38.928275, "rental_uris": {"ios": "https://dc.lft.to/lastmile_qr_scan", "android": "https://dc.lft.to/lastmile_qr_scan"}, "is_reserved": 0, "fusion_lon": 0.0, "fusion_lat": 0.0, "lon": -77.00600883333334, "name": "ef2795a3ce38b0d8202d1b8326f7df67"}, {"bike_id": "c3c3a29252e76c71732f739f998e98f6", "type": "electric_bike", "is_disabled": 0, "lat": 38.87278216666667, "rental_uris": {"ios": "https://dc.lft.to/lastmile_qr_scan", "android": "https://dc.lft.to/lastmile_qr_scan"}, "is_reserved": 0, "fusion_lon": 0.0, "fusion_lat": 0.0, "lon": -77.233183, "name": "c3c3a29252e76c71732f739f998e98f6"}, {"bike_id": "fcfaefc03ae4ee4d681c3629acaa11e0", "type": "electric_bike", "is_disabled": 0, "lat": 38.880625, "rental_uris": {"ios": "https://dc.lft.to/lastmile_qr_scan", "android": "https://dc.lft.to/lastmile_qr_scan"}, "is_reserved": 0, "fusion_lon": 0.0, "fusion_lat": 0.0, "lon": -76.96240316666666, "name": "fcfaefc03ae4ee4d681c3629acaa11e0"}, {"bike_id": "281355a095b0c844357b7e3fd80e79a5", "type": "electric_scooter", "is_disabled": 0, "lat": 38.9130515, "rental_uris": {"ios": "https://dc.lft.to/lastmile_qr_scan", "android": "https://dc.lft.to/lastmile_qr_scan"}, "is_reserved": 0, "fusion_lon": 0.0, "fusion_lat": 0.0, "lon": -77.04553466666667, "name": "281355a095b0c844357b7e3fd80e79a5"}, {"bike_id": "025f3ef2c861236da990e0001ad179fc", "type": "electric_scooter", "is_disabled": 0, "lat": 38.869848, "rental_uris": {"ios": "https://dc.lft.to/lastmile_qr_scan", "android": "https://dc.lft.to/lastmile_qr_scan"}, "is_reserved": 0, "fusion_lon": 0.0, "fusion_lat": 0.0, "lon": -76.9817315, "name": "025f3ef2c861236da990e0001ad179fc"}, {"bike_id": "d26307e06163cd932dad8a0b5bcb0163", "type": "electric_scooter", "is_disabled": 0, "lat": 38.9660565, "rental_uris": {"ios": "https://dc.lft.to/lastmile_qr_scan", "android": "https://dc.lft.to/lastmile_qr_scan"}, "is_reserved": 0, "fusion_lon": 0.0, "fusion_lat": 0.0, "lon": -77.0197725, "name": "d26307e06163cd932dad8a0b5bcb0163"}, {"bike_id": "70e6225f13e5a208c7ed7857633ec6b6", "type": "electric_scooter", "is_disabled": 0, "lat": 38.947920333333336, "rental_uris": {"ios": "https://dc.lft.to/lastmile_qr_scan", "android": "https://dc.lft.to/lastmile_qr_scan"}, "is_reserved": 0, "fusion_lon": 0.0, "fusion_lat": 0.0, "lon": -77.021305, "name": "70e6225f13e5a208c7ed7857633ec6b6"}, {"bike_id": "8b460dea4a598614de77046c52f154b0", "type": "electric_scooter", "is_disabled": 0, "lat": 38.911284, "rental_uris": {"ios": "https://dc.lft.to/lastmile_qr_scan", "android": "https://dc.lft.to/lastmile_qr_scan"}, "is_reserved": 0, "fusion_lon": 0.0, "fusion_lat": 0.0, "lon": -77.03178516666667, "name": "8b460dea4a598614de77046c52f154b0"}, {"bike_id": "c0bc37615c790c59ad2c8a7892b8e6f5", "type": "electric_scooter", "is_disabled": 0, "lat": 38.92176333333333, "rental_uris": {"ios": "https://dc.lft.to/lastmile_qr_scan", "android": "https://dc.lft.to/lastmile_qr_scan"}, "is_reserved": 0, "fusion_lon": 0.0, "fusion_lat": 0.0, "lon": -77.042274, "name": "c0bc37615c790c59ad2c8a7892b8e6f5"}, {"bike_id": "55054fa6f3826c2ad873af46308bdb96", "type": "electric_scooter", "is_disabled": 0, "lat": 38.918474333333336, "rental_uris": {"ios": "https://dc.lft.to/lastmile_qr_scan", "android": "https://dc.lft.to/lastmile_qr_scan"}, "is_reserved": 0, "fusion_lon": 0.0, "fusion_lat": 0.0, "lon": -77.02460466666666, "name": "55054fa6f3826c2ad873af46308bdb96"}, {"bike_id": "5ec35e9f6e1f061e2ea854d91b3fa6d7", "type": "electric_scooter", "is_disabled": 0, "lat": 38.923758166666666, "rental_uris": {"ios": "https://dc.lft.to/lastmile_qr_scan", "android": "https://dc.lft.to/lastmile_qr_scan"}, "is_reserved": 0, "fusion_lon": 0.0, "fusion_lat": 0.0, "lon": -77.03047416666666, "name": "5ec35e9f6e1f061e2ea854d91b3fa6d7"}, {"bike_id": "ac6e661d434604e14d0f54e89f9a1056", "type": "electric_scooter", "is_disabled": 0, "lat": 38.882212333333335, "rental_uris": {"ios": "https://dc.lft.to/lastmile_qr_scan", "android": "https://dc.lft.to/lastmile_qr_scan"}, "is_reserved": 0, "fusion_lon": 0.0, "fusion_lat": 0.0, "lon": -76.92665266666667, "name": "ac6e661d434604e14d0f54e89f9a1056"}, {"bike_id": "33b825f66333610e7ebce9fd28a18cba", "type": "electric_scooter", "is_disabled": 0, "lat": 38.91872133333333, "rental_uris": {"ios": "https://dc.lft.to/lastmile_qr_scan", "android": "https://dc.lft.to/lastmile_qr_scan"}, "is_reserved": 0, "fusion_lon": 0.0, "fusion_lat": 0.0, "lon": -77.04194883333334, "name": "33b825f66333610e7ebce9fd28a18cba"}, {"bike_id": "5ae2b6c33222491c3116b87eee25f1cd", "type": "electric_scooter", "is_disabled": 0, "lat": 38.914254, "rental_uris": {"ios": "https://dc.lft.to/lastmile_qr_scan", "android": "https://dc.lft.to/lastmile_qr_scan"}, "is_reserved": 0, "fusion_lon": 0.0, "fusion_lat": 0.0, "lon": -77.04798816666667, "name": "5ae2b6c33222491c3116b87eee25f1cd"}, {"bike_id": "e93b78781be49bdc75d184b7880038cf", "type": "electric_bike", "is_disabled": 0, "lat": 38.91014766666667, "rental_uris": {"ios": "https://dc.lft.to/lastmile_qr_scan", "android": "https://dc.lft.to/lastmile_qr_scan"}, "is_reserved": 0, "fusion_lon": 0.0, "fusion_lat": 0.0, "lon": -77.22801066666666, "name": "e93b78781be49bdc75d184b7880038cf"}, {"bike_id": "2b4d9984cd617a44a56048d8f5200dc6", "type": "electric_scooter", "is_disabled": 0, "lat": 38.88269833333333, "rental_uris": {"ios": "https://dc.lft.to/lastmile_qr_scan", "android": "https://dc.lft.to/lastmile_qr_scan"}, "is_reserved": 0, "fusion_lon": 0.0, "fusion_lat": 0.0, "lon": -76.9935835, "name": "2b4d9984cd617a44a56048d8f5200dc6"}, {"bike_id": "5ed5b032d810fd538aca16ffeb12c227", "type": "electric_scooter", "is_disabled": 0, "lat": 38.914167166666665, "rental_uris": {"ios": "https://dc.lft.to/lastmile_qr_scan", "android": "https://dc.lft.to/lastmile_qr_scan"}, "is_reserved": 0, "fusion_lon": 0.0, "fusion_lat": 0.0, "lon": -77.03178983333333, "name": "5ed5b032d810fd538aca16ffeb12c227"}, {"bike_id": "5477388dec8b9acbea1afbfdc5dd5a82", "type": "electric_scooter", "is_disabled": 0, "lat": 38.88045116666667, "rental_uris": {"ios": "https://dc.lft.to/lastmile_qr_scan", "android": "https://dc.lft.to/lastmile_qr_scan"}, "is_reserved": 0, "fusion_lon": 0.0, "fusion_lat": 0.0, "lon": -77.00547533333334, "name": "5477388dec8b9acbea1afbfdc5dd5a82"}, {"bike_id": "c881e85dd32826b3e6d7d46ab9ccbeb5", "type": "electric_scooter", "is_disabled": 0, "lat": 38.93071316666666, "rental_uris": {"ios": "https://dc.lft.to/lastmile_qr_scan", "android": "https://dc.lft.to/lastmile_qr_scan"}, "is_reserved": 0, "fusion_lon": 0.0, "fusion_lat": 0.0, "lon": -77.019907, "name": "c881e85dd32826b3e6d7d46ab9ccbeb5"}, {"bike_id": "63386357bdedc1b8ec229cb0daffdaec", "type": "electric_scooter", "is_disabled": 0, "lat": 38.906637, "rental_uris": {"ios": "https://dc.lft.to/lastmile_qr_scan", "android": "https://dc.lft.to/lastmile_qr_scan"}, "is_reserved": 0, "fusion_lon": 0.0, "fusion_lat": 0.0, "lon": -77.02965383333333, "name": "63386357bdedc1b8ec229cb0daffdaec"}, {"bike_id": "f3a3d8e0026ef63402a518055082d086", "type": "electric_scooter", "is_disabled": 0, "lat": 38.90650516666667, "rental_uris": {"ios": "https://dc.lft.to/lastmile_qr_scan", "android": "https://dc.lft.to/lastmile_qr_scan"}, "is_reserved": 0, "fusion_lon": 0.0, "fusion_lat": 0.0, "lon": -77.029466, "name": "f3a3d8e0026ef63402a518055082d086"}, {"bike_id": "1898a84aba136fe326d571d7b0c8f9b5", "type": "electric_scooter", "is_disabled": 0, "lat": 38.9150745, "rental_uris": {"ios": "https://dc.lft.to/lastmile_qr_scan", "android": "https://dc.lft.to/lastmile_qr_scan"}, "is_reserved": 0, "fusion_lon": 0.0, "fusion_lat": 0.0, "lon": -77.01772816666667, "name": "1898a84aba136fe326d571d7b0c8f9b5"}, {"bike_id": "1517df9b1a2883b4e5fd8e1be61c3fe0", "type": "electric_scooter", "is_disabled": 0, "lat": 38.910989666666666, "rental_uris": {"ios": "https://dc.lft.to/lastmile_qr_scan", "android": "https://dc.lft.to/lastmile_qr_scan"}, "is_reserved": 0, "fusion_lon": 0.0, "fusion_lat": 0.0, "lon": -77.011424, "name": "1517df9b1a2883b4e5fd8e1be61c3fe0"}, {"bike_id": "151be058b39884082e725106f01cdb08", "type": "electric_scooter", "is_disabled": 0, "lat": 38.90555666666667, "rental_uris": {"ios": "https://dc.lft.to/lastmile_qr_scan", "android": "https://dc.lft.to/lastmile_qr_scan"}, "is_reserved": 0, "fusion_lon": 0.0, "fusion_lat": 0.0, "lon": -77.0455985, "name": "151be058b39884082e725106f01cdb08"}, {"bike_id": "e750e34a48cbab960cc1e5d7ff04fe36", "type": "electric_scooter", "is_disabled": 0, "lat": 38.942031, "rental_uris": {"ios": "https://dc.lft.to/lastmile_qr_scan", "android": "https://dc.lft.to/lastmile_qr_scan"}, "is_reserved": 0, "fusion_lon": 0.0, "fusion_lat": 0.0, "lon": -77.02585666666667, "name": "e750e34a48cbab960cc1e5d7ff04fe36"}, {"bike_id": "f9b9fbbe5517b56675d3e18e98b88300", "type": "electric_scooter", "is_disabled": 0, "lat": 38.905136666666664, "rental_uris": {"ios": "https://dc.lft.to/lastmile_qr_scan", "android": "https://dc.lft.to/lastmile_qr_scan"}, "is_reserved": 0, "fusion_lon": 0.0, "fusion_lat": 0.0, "lon": -77.06902483333333, "name": "f9b9fbbe5517b56675d3e18e98b88300"}, {"bike_id": "ce7df92c60c68667fc4a7842c08a1053", "type": "electric_scooter", "is_disabled": 0, "lat": 38.94115033333333, "rental_uris": {"ios": "https://dc.lft.to/lastmile_qr_scan", "android": "https://dc.lft.to/lastmile_qr_scan"}, "is_reserved": 0, "fusion_lon": 0.0, "fusion_lat": 0.0, "lon": -77.02536983333333, "name": "ce7df92c60c68667fc4a7842c08a1053"}, {"bike_id": "3e87bc41362b6d71401508c5be3d05cb", "type": "electric_scooter", "is_disabled": 0, "lat": 38.84432733333333, "rental_uris": {"ios": "https://dc.lft.to/lastmile_qr_scan", "android": "https://dc.lft.to/lastmile_qr_scan"}, "is_reserved": 0, "fusion_lon": 0.0, "fusion_lat": 0.0, "lon": -76.99870016666667, "name": "3e87bc41362b6d71401508c5be3d05cb"}, {"bike_id": "ded0ec1b9155406f8e14930848405ae5", "type": "electric_scooter", "is_disabled": 0, "lat": 38.91717166666667, "rental_uris": {"ios": "https://dc.lft.to/lastmile_qr_scan", "android": "https://dc.lft.to/lastmile_qr_scan"}, "is_reserved": 0, "fusion_lon": 0.0, "fusion_lat": 0.0, "lon": -77.04156333333333, "name": "ded0ec1b9155406f8e14930848405ae5"}, {"bike_id": "f883393d61b357a8581da48dfabd01aa", "type": "electric_scooter", "is_disabled": 0, "lat": 38.9127215, "rental_uris": {"ios": "https://dc.lft.to/lastmile_qr_scan", "android": "https://dc.lft.to/lastmile_qr_scan"}, "is_reserved": 0, "fusion_lon": 0.0, "fusion_lat": 0.0, "lon": -77.030269, "name": "f883393d61b357a8581da48dfabd01aa"}, {"bike_id": "5cf49887b400366585ecfec42cbf2c44", "type": "electric_scooter", "is_disabled": 0, "lat": 38.912727, "rental_uris": {"ios": "https://dc.lft.to/lastmile_qr_scan", "android": "https://dc.lft.to/lastmile_qr_scan"}, "is_reserved": 0, "fusion_lon": 0.0, "fusion_lat": 0.0, "lon": -77.02953233333334, "name": "5cf49887b400366585ecfec42cbf2c44"}, {"bike_id": "4fd8c0beb4b00a0ceaa785f90cfebe6f", "type": "electric_scooter", "is_disabled": 0, "lat": 38.91635216666667, "rental_uris": {"ios": "https://dc.lft.to/lastmile_qr_scan", "android": "https://dc.lft.to/lastmile_qr_scan"}, "is_reserved": 0, "fusion_lon": 0.0, "fusion_lat": 0.0, "lon": -77.02288366666667, "name": "4fd8c0beb4b00a0ceaa785f90cfebe6f"}, {"bike_id": "0e03a86444370746a970fedbd63997a9", "type": "electric_scooter", "is_disabled": 0, "lat": 38.911950166666664, "rental_uris": {"ios": "https://dc.lft.to/lastmile_qr_scan", "android": "https://dc.lft.to/lastmile_qr_scan"}, "is_reserved": 0, "fusion_lon": 0.0, "fusion_lat": 0.0, "lon": -77.010426, "name": "0e03a86444370746a970fedbd63997a9"}, {"bike_id": "00c193b3c9c4a470fb9e8579ea291463", "type": "electric_scooter", "is_disabled": 0, "lat": 38.9427245, "rental_uris": {"ios": "https://dc.lft.to/lastmile_qr_scan", "android": "https://dc.lft.to/lastmile_qr_scan"}, "is_reserved": 0, "fusion_lon": 0.0, "fusion_lat": 0.0, "lon": -77.03256783333333, "name": "00c193b3c9c4a470fb9e8579ea291463"}, {"bike_id": "f62231739acc6067e8370add222e863b", "type": "electric_scooter", "is_disabled": 0, "lat": 38.910606333333334, "rental_uris": {"ios": "https://dc.lft.to/lastmile_qr_scan", "android": "https://dc.lft.to/lastmile_qr_scan"}, "is_reserved": 0, "fusion_lon": 0.0, "fusion_lat": 0.0, "lon": -77.0416945, "name": "f62231739acc6067e8370add222e863b"}, {"bike_id": "143a4f7a3038cb341e42433db824d35e", "type": "electric_scooter", "is_disabled": 0, "lat": 38.9247645, "rental_uris": {"ios": "https://dc.lft.to/lastmile_qr_scan", "android": "https://dc.lft.to/lastmile_qr_scan"}, "is_reserved": 0, "fusion_lon": 0.0, "fusion_lat": 0.0, "lon": -77.0282865, "name": "143a4f7a3038cb341e42433db824d35e"}, {"bike_id": "c78e4ba2e29b9d4e3ae1dec25618edd5", "type": "electric_scooter", "is_disabled": 0, "lat": 38.9067335, "rental_uris": {"ios": "https://dc.lft.to/lastmile_qr_scan", "android": "https://dc.lft.to/lastmile_qr_scan"}, "is_reserved": 0, "fusion_lon": 0.0, "fusion_lat": 0.0, "lon": -77.04161433333333, "name": "c78e4ba2e29b9d4e3ae1dec25618edd5"}, {"bike_id": "99dcdf3981e9d6ad2d7586e7252b417e", "type": "electric_scooter", "is_disabled": 0, "lat": 38.8531955, "rental_uris": {"ios": "https://dc.lft.to/lastmile_qr_scan", "android": "https://dc.lft.to/lastmile_qr_scan"}, "is_reserved": 0, "fusion_lon": 0.0, "fusion_lat": 0.0, "lon": -76.98006166666667, "name": "99dcdf3981e9d6ad2d7586e7252b417e"}, {"bike_id": "a4ae1ef26aef879bc37fee429e7af513", "type": "electric_scooter", "is_disabled": 0, "lat": 38.878679, "rental_uris": {"ios": "https://dc.lft.to/lastmile_qr_scan", "android": "https://dc.lft.to/lastmile_qr_scan"}, "is_reserved": 0, "fusion_lon": 0.0, "fusion_lat": 0.0, "lon": -76.96979, "name": "a4ae1ef26aef879bc37fee429e7af513"}, {"bike_id": "de99885d20a611c9d541a276ea40a8e1", "type": "electric_scooter", "is_disabled": 0, "lat": 38.8885155, "rental_uris": {"ios": "https://dc.lft.to/lastmile_qr_scan", "android": "https://dc.lft.to/lastmile_qr_scan"}, "is_reserved": 0, "fusion_lon": 0.0, "fusion_lat": 0.0, "lon": -76.92674716666667, "name": "de99885d20a611c9d541a276ea40a8e1"}, {"bike_id": "a47f49c0ab842bbb22a9abf4e1a25c01", "type": "electric_scooter", "is_disabled": 0, "lat": 38.86684116666667, "rental_uris": {"ios": "https://dc.lft.to/lastmile_qr_scan", "android": "https://dc.lft.to/lastmile_qr_scan"}, "is_reserved": 0, "fusion_lon": 0.0, "fusion_lat": 0.0, "lon": -76.98584066666666, "name": "a47f49c0ab842bbb22a9abf4e1a25c01"}, {"bike_id": "570cae408d6776c8a6608831633149a2", "type": "electric_scooter", "is_disabled": 0, "lat": 38.8742545, "rental_uris": {"ios": "https://dc.lft.to/lastmile_qr_scan", "android": "https://dc.lft.to/lastmile_qr_scan"}, "is_reserved": 0, "fusion_lon": 0.0, "fusion_lat": 0.0, "lon": -76.96910316666667, "name": "570cae408d6776c8a6608831633149a2"}, {"bike_id": "ff6f44245539f98f9ad0cbd19799efe5", "type": "electric_scooter", "is_disabled": 0, "lat": 38.9157805, "rental_uris": {"ios": "https://dc.lft.to/lastmile_qr_scan", "android": "https://dc.lft.to/lastmile_qr_scan"}, "is_reserved": 0, "fusion_lon": 0.0, "fusion_lat": 0.0, "lon": -77.02058366666667, "name": "ff6f44245539f98f9ad0cbd19799efe5"}, {"bike_id": "7ec4cad2f8ca64e882df82a2f9db42a2", "type": "electric_scooter", "is_disabled": 0, "lat": 38.897641166666666, "rental_uris": {"ios": "https://dc.lft.to/lastmile_qr_scan", "android": "https://dc.lft.to/lastmile_qr_scan"}, "is_reserved": 0, "fusion_lon": 0.0, "fusion_lat": 0.0, "lon": -77.051555, "name": "7ec4cad2f8ca64e882df82a2f9db42a2"}, {"bike_id": "05b7e603b495c83d4a6066bbd847a1c1", "type": "electric_scooter", "is_disabled": 0, "lat": 38.9012035, "rental_uris": {"ios": "https://dc.lft.to/lastmile_qr_scan", "android": "https://dc.lft.to/lastmile_qr_scan"}, "is_reserved": 0, "fusion_lon": 0.0, "fusion_lat": 0.0, "lon": -76.92953016666667, "name": "05b7e603b495c83d4a6066bbd847a1c1"}, {"bike_id": "ff6fbe8418d76d8d3ebf2a55b586cc54", "type": "electric_scooter", "is_disabled": 0, "lat": 38.885338833333336, "rental_uris": {"ios": "https://dc.lft.to/lastmile_qr_scan", "android": "https://dc.lft.to/lastmile_qr_scan"}, "is_reserved": 0, "fusion_lon": 0.0, "fusion_lat": 0.0, "lon": -76.99820483333333, "name": "ff6fbe8418d76d8d3ebf2a55b586cc54"}, {"bike_id": "1f39861b40a49bbbb5859bfe4a0248ef", "type": "electric_bike", "is_disabled": 0, "lat": 38.97399883333333, "rental_uris": {"ios": "https://dc.lft.to/lastmile_qr_scan", "android": "https://dc.lft.to/lastmile_qr_scan"}, "is_reserved": 0, "fusion_lon": 0.0, "fusion_lat": 0.0, "lon": -77.06450966666667, "name": "1f39861b40a49bbbb5859bfe4a0248ef"}, {"bike_id": "0f23fe32e17f90e7ca0498b204c118fd", "type": "electric_scooter", "is_disabled": 0, "lat": 38.9562865, "rental_uris": {"ios": "https://dc.lft.to/lastmile_qr_scan", "android": "https://dc.lft.to/lastmile_qr_scan"}, "is_reserved": 0, "fusion_lon": 0.0, "fusion_lat": 0.0, "lon": -77.0361345, "name": "0f23fe32e17f90e7ca0498b204c118fd"}, {"bike_id": "acfefb0651dd4bc3aeeaf431456cb19c", "type": "electric_scooter", "is_disabled": 0, "lat": 38.92329616666667, "rental_uris": {"ios": "https://dc.lft.to/lastmile_qr_scan", "android": "https://dc.lft.to/lastmile_qr_scan"}, "is_reserved": 0, "fusion_lon": 0.0, "fusion_lat": 0.0, "lon": -77.0377905, "name": "acfefb0651dd4bc3aeeaf431456cb19c"}, {"bike_id": "13de07a7c61e43a140c50cd516b38aca", "type": "electric_bike", "is_disabled": 0, "lat": 38.9317355, "rental_uris": {"ios": "https://dc.lft.to/lastmile_qr_scan", "android": "https://dc.lft.to/lastmile_qr_scan"}, "is_reserved": 0, "fusion_lon": 0.0, "fusion_lat": 0.0, "lon": -77.03554366666667, "name": "13de07a7c61e43a140c50cd516b38aca"}, {"bike_id": "355e02281da4653b27dcce51f8a0dde2", "type": "electric_scooter", "is_disabled": 0, "lat": 38.899094, "rental_uris": {"ios": "https://dc.lft.to/lastmile_qr_scan", "android": "https://dc.lft.to/lastmile_qr_scan"}, "is_reserved": 0, "fusion_lon": 0.0, "fusion_lat": 0.0, "lon": -77.03930583333333, "name": "355e02281da4653b27dcce51f8a0dde2"}, {"bike_id": "4c30d8fd413b16f1dda3a8364d56d511", "type": "electric_scooter", "is_disabled": 0, "lat": 38.923255833333336, "rental_uris": {"ios": "https://dc.lft.to/lastmile_qr_scan", "android": "https://dc.lft.to/lastmile_qr_scan"}, "is_reserved": 0, "fusion_lon": 0.0, "fusion_lat": 0.0, "lon": -77.0354495, "name": "4c30d8fd413b16f1dda3a8364d56d511"}, {"bike_id": "a9c47fa5fe2f87029114ab7c4c5c7580", "type": "electric_scooter", "is_disabled": 0, "lat": 38.9220265, "rental_uris": {"ios": "https://dc.lft.to/lastmile_qr_scan", "android": "https://dc.lft.to/lastmile_qr_scan"}, "is_reserved": 0, "fusion_lon": 0.0, "fusion_lat": 0.0, "lon": -77.04700466666667, "name": "a9c47fa5fe2f87029114ab7c4c5c7580"}, {"bike_id": "094b66c3bfbef1d38a1dbb36a4f9f526", "type": "electric_scooter", "is_disabled": 0, "lat": 38.923339, "rental_uris": {"ios": "https://dc.lft.to/lastmile_qr_scan", "android": "https://dc.lft.to/lastmile_qr_scan"}, "is_reserved": 0, "fusion_lon": 0.0, "fusion_lat": 0.0, "lon": -77.036095, "name": "094b66c3bfbef1d38a1dbb36a4f9f526"}, {"bike_id": "5c1f6b1ca4e9fe2f1fd22ded227d03d2", "type": "electric_scooter", "is_disabled": 0, "lat": 38.9247195, "rental_uris": {"ios": "https://dc.lft.to/lastmile_qr_scan", "android": "https://dc.lft.to/lastmile_qr_scan"}, "is_reserved": 0, "fusion_lon": 0.0, "fusion_lat": 0.0, "lon": -77.0282775, "name": "5c1f6b1ca4e9fe2f1fd22ded227d03d2"}, {"bike_id": "7661c318ffd333d45c865fe17b84b8a5", "type": "electric_scooter", "is_disabled": 0, "lat": 38.9200765, "rental_uris": {"ios": "https://dc.lft.to/lastmile_qr_scan", "android": "https://dc.lft.to/lastmile_qr_scan"}, "is_reserved": 0, "fusion_lon": 0.0, "fusion_lat": 0.0, "lon": -77.041714, "name": "7661c318ffd333d45c865fe17b84b8a5"}, {"bike_id": "d1b71e66484ed07bffe7107c6f2eef04", "type": "electric_scooter", "is_disabled": 0, "lat": 38.90494316666667, "rental_uris": {"ios": "https://dc.lft.to/lastmile_qr_scan", "android": "https://dc.lft.to/lastmile_qr_scan"}, "is_reserved": 0, "fusion_lon": 0.0, "fusion_lat": 0.0, "lon": -76.94967216666667, "name": "d1b71e66484ed07bffe7107c6f2eef04"}, {"bike_id": "4e26b54b183e707141f916cf3fdbc09e", "type": "electric_scooter", "is_disabled": 0, "lat": 38.909751666666665, "rental_uris": {"ios": "https://dc.lft.to/lastmile_qr_scan", "android": "https://dc.lft.to/lastmile_qr_scan"}, "is_reserved": 0, "fusion_lon": 0.0, "fusion_lat": 0.0, "lon": -77.034389, "name": "4e26b54b183e707141f916cf3fdbc09e"}, {"bike_id": "86b098062f3fbaa760b010f2a6fd4640", "type": "electric_scooter", "is_disabled": 0, "lat": 38.905952, "rental_uris": {"ios": "https://dc.lft.to/lastmile_qr_scan", "android": "https://dc.lft.to/lastmile_qr_scan"}, "is_reserved": 0, "fusion_lon": 0.0, "fusion_lat": 0.0, "lon": -77.073563, "name": "86b098062f3fbaa760b010f2a6fd4640"}, {"bike_id": "c5bf8ad65591e99c7e929826268089fe", "type": "electric_scooter", "is_disabled": 0, "lat": 38.86376383333333, "rental_uris": {"ios": "https://dc.lft.to/lastmile_qr_scan", "android": "https://dc.lft.to/lastmile_qr_scan"}, "is_reserved": 0, "fusion_lon": 0.0, "fusion_lat": 0.0, "lon": -76.99061, "name": "c5bf8ad65591e99c7e929826268089fe"}, {"bike_id": "dec784e812bb708d3ae07fbf233d1b6d", "type": "electric_scooter", "is_disabled": 0, "lat": 38.86683416666666, "rental_uris": {"ios": "https://dc.lft.to/lastmile_qr_scan", "android": "https://dc.lft.to/lastmile_qr_scan"}, "is_reserved": 0, "fusion_lon": 0.0, "fusion_lat": 0.0, "lon": -76.98544366666667, "name": "dec784e812bb708d3ae07fbf233d1b6d"}, {"bike_id": "1df028c4916827d6fff1f892d2dc3766", "type": "electric_scooter", "is_disabled": 0, "lat": 38.866898666666664, "rental_uris": {"ios": "https://dc.lft.to/lastmile_qr_scan", "android": "https://dc.lft.to/lastmile_qr_scan"}, "is_reserved": 0, "fusion_lon": 0.0, "fusion_lat": 0.0, "lon": -76.98587783333333, "name": "1df028c4916827d6fff1f892d2dc3766"}, {"bike_id": "84c1445935b4ca1b976b27d5919e8672", "type": "electric_scooter", "is_disabled": 0, "lat": 38.90615616666667, "rental_uris": {"ios": "https://dc.lft.to/lastmile_qr_scan", "android": "https://dc.lft.to/lastmile_qr_scan"}, "is_reserved": 0, "fusion_lon": 0.0, "fusion_lat": 0.0, "lon": -77.041485, "name": "84c1445935b4ca1b976b27d5919e8672"}, {"bike_id": "40e795b79248f23d2daeef84230fd640", "type": "electric_scooter", "is_disabled": 0, "lat": 38.927950833333334, "rental_uris": {"ios": "https://dc.lft.to/lastmile_qr_scan", "android": "https://dc.lft.to/lastmile_qr_scan"}, "is_reserved": 0, "fusion_lon": 0.0, "fusion_lat": 0.0, "lon": -77.029659, "name": "40e795b79248f23d2daeef84230fd640"}, {"bike_id": "cf9b09613384bd0dd968c15330b04cbd", "type": "electric_scooter", "is_disabled": 0, "lat": 38.933736333333336, "rental_uris": {"ios": "https://dc.lft.to/lastmile_qr_scan", "android": "https://dc.lft.to/lastmile_qr_scan"}, "is_reserved": 0, "fusion_lon": 0.0, "fusion_lat": 0.0, "lon": -77.05731566666667, "name": "cf9b09613384bd0dd968c15330b04cbd"}, {"bike_id": "a8e8d3534dd97beb6fa5d0554f7486bd", "type": "electric_scooter", "is_disabled": 0, "lat": 38.914989166666665, "rental_uris": {"ios": "https://dc.lft.to/lastmile_qr_scan", "android": "https://dc.lft.to/lastmile_qr_scan"}, "is_reserved": 0, "fusion_lon": 0.0, "fusion_lat": 0.0, "lon": -76.98341266666667, "name": "a8e8d3534dd97beb6fa5d0554f7486bd"}, {"bike_id": "95ebfbacd953d57ea7dad15f3313d2ef", "type": "electric_scooter", "is_disabled": 0, "lat": 38.8991445, "rental_uris": {"ios": "https://dc.lft.to/lastmile_qr_scan", "android": "https://dc.lft.to/lastmile_qr_scan"}, "is_reserved": 0, "fusion_lon": 0.0, "fusion_lat": 0.0, "lon": -76.9817355, "name": "95ebfbacd953d57ea7dad15f3313d2ef"}, {"bike_id": "2ba09ad64ef6c95450467c636091b8bd", "type": "electric_scooter", "is_disabled": 0, "lat": 38.918149166666666, "rental_uris": {"ios": "https://dc.lft.to/lastmile_qr_scan", "android": "https://dc.lft.to/lastmile_qr_scan"}, "is_reserved": 0, "fusion_lon": 0.0, "fusion_lat": 0.0, "lon": -77.024712, "name": "2ba09ad64ef6c95450467c636091b8bd"}, {"bike_id": "0c4f94f1b86e7d26299eace97de6d7fd", "type": "electric_scooter", "is_disabled": 0, "lat": 38.866817833333336, "rental_uris": {"ios": "https://dc.lft.to/lastmile_qr_scan", "android": "https://dc.lft.to/lastmile_qr_scan"}, "is_reserved": 0, "fusion_lon": 0.0, "fusion_lat": 0.0, "lon": -76.98575516666666, "name": "0c4f94f1b86e7d26299eace97de6d7fd"}, {"bike_id": "ea423f2ce891fdd80927e7d7440d97ea", "type": "electric_scooter", "is_disabled": 0, "lat": 38.92193133333333, "rental_uris": {"ios": "https://dc.lft.to/lastmile_qr_scan", "android": "https://dc.lft.to/lastmile_qr_scan"}, "is_reserved": 0, "fusion_lon": 0.0, "fusion_lat": 0.0, "lon": -77.03780933333333, "name": "ea423f2ce891fdd80927e7d7440d97ea"}, {"bike_id": "0ff70ade2e35d866f98ca82b9597552e", "type": "electric_scooter", "is_disabled": 0, "lat": 38.911938666666664, "rental_uris": {"ios": "https://dc.lft.to/lastmile_qr_scan", "android": "https://dc.lft.to/lastmile_qr_scan"}, "is_reserved": 0, "fusion_lon": 0.0, "fusion_lat": 0.0, "lon": -77.04547783333334, "name": "0ff70ade2e35d866f98ca82b9597552e"}, {"bike_id": "150171ccdca248773965cec92269d368", "type": "electric_scooter", "is_disabled": 0, "lat": 38.9141775, "rental_uris": {"ios": "https://dc.lft.to/lastmile_qr_scan", "android": "https://dc.lft.to/lastmile_qr_scan"}, "is_reserved": 0, "fusion_lon": 0.0, "fusion_lat": 0.0, "lon": -77.02215083333333, "name": "150171ccdca248773965cec92269d368"}, {"bike_id": "e8431cfc6c198865f8de350ef5973c4e", "type": "electric_scooter", "is_disabled": 0, "lat": 38.92767666666667, "rental_uris": {"ios": "https://dc.lft.to/lastmile_qr_scan", "android": "https://dc.lft.to/lastmile_qr_scan"}, "is_reserved": 0, "fusion_lon": 0.0, "fusion_lat": 0.0, "lon": -76.96100783333333, "name": "e8431cfc6c198865f8de350ef5973c4e"}, {"bike_id": "e0712d5ffa08faf727c98328cf71a3c7", "type": "electric_scooter", "is_disabled": 0, "lat": 38.867403833333334, "rental_uris": {"ios": "https://dc.lft.to/lastmile_qr_scan", "android": "https://dc.lft.to/lastmile_qr_scan"}, "is_reserved": 0, "fusion_lon": 0.0, "fusion_lat": 0.0, "lon": -76.978613, "name": "e0712d5ffa08faf727c98328cf71a3c7"}, {"bike_id": "713a0b2fdbb1b079c3093cc245ba5a64", "type": "electric_scooter", "is_disabled": 0, "lat": 38.88864433333333, "rental_uris": {"ios": "https://dc.lft.to/lastmile_qr_scan", "android": "https://dc.lft.to/lastmile_qr_scan"}, "is_reserved": 0, "fusion_lon": 0.0, "fusion_lat": 0.0, "lon": -77.02833766666667, "name": "713a0b2fdbb1b079c3093cc245ba5a64"}, {"bike_id": "57e9290a6102eb4f8577785aeee51089", "type": "electric_scooter", "is_disabled": 0, "lat": 38.917672333333336, "rental_uris": {"ios": "https://dc.lft.to/lastmile_qr_scan", "android": "https://dc.lft.to/lastmile_qr_scan"}, "is_reserved": 0, "fusion_lon": 0.0, "fusion_lat": 0.0, "lon": -77.03435916666666, "name": "57e9290a6102eb4f8577785aeee51089"}, {"bike_id": "ff252a25d6ca5f84693aa8fa01e1d005", "type": "electric_scooter", "is_disabled": 0, "lat": 38.914197333333334, "rental_uris": {"ios": "https://dc.lft.to/lastmile_qr_scan", "android": "https://dc.lft.to/lastmile_qr_scan"}, "is_reserved": 0, "fusion_lon": 0.0, "fusion_lat": 0.0, "lon": -77.02101116666667, "name": "ff252a25d6ca5f84693aa8fa01e1d005"}, {"bike_id": "cea1ad5a16bf11cf3251cf3004fddd2e", "type": "electric_scooter", "is_disabled": 0, "lat": 38.9055665, "rental_uris": {"ios": "https://dc.lft.to/lastmile_qr_scan", "android": "https://dc.lft.to/lastmile_qr_scan"}, "is_reserved": 0, "fusion_lon": 0.0, "fusion_lat": 0.0, "lon": -77.0415585, "name": "cea1ad5a16bf11cf3251cf3004fddd2e"}, {"bike_id": "243e7718c10dfb780d4148851fd42535", "type": "electric_scooter", "is_disabled": 0, "lat": 38.91963716666667, "rental_uris": {"ios": "https://dc.lft.to/lastmile_qr_scan", "android": "https://dc.lft.to/lastmile_qr_scan"}, "is_reserved": 0, "fusion_lon": 0.0, "fusion_lat": 0.0, "lon": -77.04178566666667, "name": "243e7718c10dfb780d4148851fd42535"}, {"bike_id": "177a8822e280b29f2b97527d5ceef475", "type": "electric_scooter", "is_disabled": 0, "lat": 38.909470166666665, "rental_uris": {"ios": "https://dc.lft.to/lastmile_qr_scan", "android": "https://dc.lft.to/lastmile_qr_scan"}, "is_reserved": 0, "fusion_lon": 0.0, "fusion_lat": 0.0, "lon": -77.05556616666667, "name": "177a8822e280b29f2b97527d5ceef475"}, {"bike_id": "a378fb0a874e0bb46ba587e236aa5ee3", "type": "electric_scooter", "is_disabled": 0, "lat": 38.83095616666667, "rental_uris": {"ios": "https://dc.lft.to/lastmile_qr_scan", "android": "https://dc.lft.to/lastmile_qr_scan"}, "is_reserved": 0, "fusion_lon": 0.0, "fusion_lat": 0.0, "lon": -77.051574, "name": "a378fb0a874e0bb46ba587e236aa5ee3"}, {"bike_id": "cf9b1d19355f4cb9ecf60055ac8542da", "type": "electric_scooter", "is_disabled": 0, "lat": 38.917867666666666, "rental_uris": {"ios": "https://dc.lft.to/lastmile_qr_scan", "android": "https://dc.lft.to/lastmile_qr_scan"}, "is_reserved": 0, "fusion_lon": 0.0, "fusion_lat": 0.0, "lon": -77.04054216666667, "name": "cf9b1d19355f4cb9ecf60055ac8542da"}, {"bike_id": "a1ff1322a421d0458b0f50376ead7166", "type": "electric_scooter", "is_disabled": 0, "lat": 38.889887, "rental_uris": {"ios": "https://dc.lft.to/lastmile_qr_scan", "android": "https://dc.lft.to/lastmile_qr_scan"}, "is_reserved": 0, "fusion_lon": 0.0, "fusion_lat": 0.0, "lon": -77.00116066666666, "name": "a1ff1322a421d0458b0f50376ead7166"}, {"bike_id": "a92e61919bebd53dce186528afffce05", "type": "electric_scooter", "is_disabled": 0, "lat": 38.91774233333334, "rental_uris": {"ios": "https://dc.lft.to/lastmile_qr_scan", "android": "https://dc.lft.to/lastmile_qr_scan"}, "is_reserved": 0, "fusion_lon": 0.0, "fusion_lat": 0.0, "lon": -77.02376416666667, "name": "a92e61919bebd53dce186528afffce05"}, {"bike_id": "8c9660855f1e9140fcd1c3deca94fdef", "type": "electric_scooter", "is_disabled": 0, "lat": 38.91779983333333, "rental_uris": {"ios": "https://dc.lft.to/lastmile_qr_scan", "android": "https://dc.lft.to/lastmile_qr_scan"}, "is_reserved": 0, "fusion_lon": 0.0, "fusion_lat": 0.0, "lon": -77.03658083333333, "name": "8c9660855f1e9140fcd1c3deca94fdef"}, {"bike_id": "e909261cbf47328396582baaef70fdb0", "type": "electric_scooter", "is_disabled": 0, "lat": 38.9082745, "rental_uris": {"ios": "https://dc.lft.to/lastmile_qr_scan", "android": "https://dc.lft.to/lastmile_qr_scan"}, "is_reserved": 0, "fusion_lon": 0.0, "fusion_lat": 0.0, "lon": -77.02702816666667, "name": "e909261cbf47328396582baaef70fdb0"}, {"bike_id": "a5520a2da34c132b3c2ab90257b132a9", "type": "electric_scooter", "is_disabled": 0, "lat": 38.92015966666666, "rental_uris": {"ios": "https://dc.lft.to/lastmile_qr_scan", "android": "https://dc.lft.to/lastmile_qr_scan"}, "is_reserved": 0, "fusion_lon": 0.0, "fusion_lat": 0.0, "lon": -77.0239935, "name": "a5520a2da34c132b3c2ab90257b132a9"}, {"bike_id": "67ebf8ccfbf80d0225e6f2e2b5bc970d", "type": "electric_scooter", "is_disabled": 0, "lat": 38.90351916666667, "rental_uris": {"ios": "https://dc.lft.to/lastmile_qr_scan", "android": "https://dc.lft.to/lastmile_qr_scan"}, "is_reserved": 0, "fusion_lon": 0.0, "fusion_lat": 0.0, "lon": -77.03640766666666, "name": "67ebf8ccfbf80d0225e6f2e2b5bc970d"}, {"bike_id": "bb56440cb4d33acb5f07c410c0a4b02f", "type": "electric_scooter", "is_disabled": 0, "lat": 38.913677666666665, "rental_uris": {"ios": "https://dc.lft.to/lastmile_qr_scan", "android": "https://dc.lft.to/lastmile_qr_scan"}, "is_reserved": 0, "fusion_lon": 0.0, "fusion_lat": 0.0, "lon": -77.02714533333334, "name": "bb56440cb4d33acb5f07c410c0a4b02f"}, {"bike_id": "271531c31e487389f3c7401f928c977f", "type": "electric_scooter", "is_disabled": 0, "lat": 38.900768, "rental_uris": {"ios": "https://dc.lft.to/lastmile_qr_scan", "android": "https://dc.lft.to/lastmile_qr_scan"}, "is_reserved": 0, "fusion_lon": 0.0, "fusion_lat": 0.0, "lon": -76.92736133333334, "name": "271531c31e487389f3c7401f928c977f"}, {"bike_id": "ba11de24d77a3c5ce69a43e1bea26c99", "type": "electric_scooter", "is_disabled": 0, "lat": 38.91111983333333, "rental_uris": {"ios": "https://dc.lft.to/lastmile_qr_scan", "android": "https://dc.lft.to/lastmile_qr_scan"}, "is_reserved": 0, "fusion_lon": 0.0, "fusion_lat": 0.0, "lon": -77.0282965, "name": "ba11de24d77a3c5ce69a43e1bea26c99"}, {"bike_id": "f4519cfc0dd82ad98691d3fcf5ba4d86", "type": "electric_scooter", "is_disabled": 0, "lat": 38.90428766666667, "rental_uris": {"ios": "https://dc.lft.to/lastmile_qr_scan", "android": "https://dc.lft.to/lastmile_qr_scan"}, "is_reserved": 0, "fusion_lon": 0.0, "fusion_lat": 0.0, "lon": -76.9906465, "name": "f4519cfc0dd82ad98691d3fcf5ba4d86"}, {"bike_id": "5fb09d458461a02797913916cfb5b9d2", "type": "electric_scooter", "is_disabled": 0, "lat": 38.904074333333334, "rental_uris": {"ios": "https://dc.lft.to/lastmile_qr_scan", "android": "https://dc.lft.to/lastmile_qr_scan"}, "is_reserved": 0, "fusion_lon": 0.0, "fusion_lat": 0.0, "lon": -77.06764383333334, "name": "5fb09d458461a02797913916cfb5b9d2"}, {"bike_id": "ca3923aa7534477e08a66bfc1a32fb17", "type": "electric_scooter", "is_disabled": 0, "lat": 38.911851166666665, "rental_uris": {"ios": "https://dc.lft.to/lastmile_qr_scan", "android": "https://dc.lft.to/lastmile_qr_scan"}, "is_reserved": 0, "fusion_lon": 0.0, "fusion_lat": 0.0, "lon": -77.01018616666667, "name": "ca3923aa7534477e08a66bfc1a32fb17"}, {"bike_id": "8713251cbc871605f83cef4e81806c57", "type": "electric_scooter", "is_disabled": 0, "lat": 38.923170666666664, "rental_uris": {"ios": "https://dc.lft.to/lastmile_qr_scan", "android": "https://dc.lft.to/lastmile_qr_scan"}, "is_reserved": 0, "fusion_lon": 0.0, "fusion_lat": 0.0, "lon": -77.0403995, "name": "8713251cbc871605f83cef4e81806c57"}, {"bike_id": "2f897bf6b452c22d0254e2617f427c26", "type": "electric_scooter", "is_disabled": 0, "lat": 38.91637883333333, "rental_uris": {"ios": "https://dc.lft.to/lastmile_qr_scan", "android": "https://dc.lft.to/lastmile_qr_scan"}, "is_reserved": 0, "fusion_lon": 0.0, "fusion_lat": 0.0, "lon": -77.02553416666667, "name": "2f897bf6b452c22d0254e2617f427c26"}, {"bike_id": "135f628fc18c56370fa340c6a9d1a036", "type": "electric_scooter", "is_disabled": 0, "lat": 38.9286755, "rental_uris": {"ios": "https://dc.lft.to/lastmile_qr_scan", "android": "https://dc.lft.to/lastmile_qr_scan"}, "is_reserved": 0, "fusion_lon": 0.0, "fusion_lat": 0.0, "lon": -77.02176016666667, "name": "135f628fc18c56370fa340c6a9d1a036"}, {"bike_id": "f16bb7dd3537f6ed6c46379f5b419a8d", "type": "electric_scooter", "is_disabled": 0, "lat": 38.923218166666665, "rental_uris": {"ios": "https://dc.lft.to/lastmile_qr_scan", "android": "https://dc.lft.to/lastmile_qr_scan"}, "is_reserved": 0, "fusion_lon": 0.0, "fusion_lat": 0.0, "lon": -77.04282466666666, "name": "f16bb7dd3537f6ed6c46379f5b419a8d"}, {"bike_id": "4f95752e03c278899b63c8668deb89db", "type": "electric_scooter", "is_disabled": 0, "lat": 38.95218216666667, "rental_uris": {"ios": "https://dc.lft.to/lastmile_qr_scan", "android": "https://dc.lft.to/lastmile_qr_scan"}, "is_reserved": 0, "fusion_lon": 0.0, "fusion_lat": 0.0, "lon": -77.07069683333333, "name": "4f95752e03c278899b63c8668deb89db"}, {"bike_id": "a3c5565e034e722e1a523167807336d9", "type": "electric_scooter", "is_disabled": 0, "lat": 38.897911, "rental_uris": {"ios": "https://dc.lft.to/lastmile_qr_scan", "android": "https://dc.lft.to/lastmile_qr_scan"}, "is_reserved": 0, "fusion_lon": 0.0, "fusion_lat": 0.0, "lon": -77.0221495, "name": "a3c5565e034e722e1a523167807336d9"}, {"bike_id": "c2e69d7f69a535abd3fc290a2ff08e18", "type": "electric_scooter", "is_disabled": 0, "lat": 38.91747383333333, "rental_uris": {"ios": "https://dc.lft.to/lastmile_qr_scan", "android": "https://dc.lft.to/lastmile_qr_scan"}, "is_reserved": 0, "fusion_lon": 0.0, "fusion_lat": 0.0, "lon": -77.03183183333333, "name": "c2e69d7f69a535abd3fc290a2ff08e18"}, {"bike_id": "74b98e6559deedb0e48c8727f6e6ffc7", "type": "electric_scooter", "is_disabled": 0, "lat": 38.91982, "rental_uris": {"ios": "https://dc.lft.to/lastmile_qr_scan", "android": "https://dc.lft.to/lastmile_qr_scan"}, "is_reserved": 0, "fusion_lon": 0.0, "fusion_lat": 0.0, "lon": -77.0417335, "name": "74b98e6559deedb0e48c8727f6e6ffc7"}, {"bike_id": "032491fbe01a86f2c03d9012f3f94263", "type": "electric_scooter", "is_disabled": 0, "lat": 38.9019045, "rental_uris": {"ios": "https://dc.lft.to/lastmile_qr_scan", "android": "https://dc.lft.to/lastmile_qr_scan"}, "is_reserved": 0, "fusion_lon": 0.0, "fusion_lat": 0.0, "lon": -77.039149, "name": "032491fbe01a86f2c03d9012f3f94263"}, {"bike_id": "c870458b43414a23a93f24f9abf2647d", "type": "electric_scooter", "is_disabled": 0, "lat": 38.93953, "rental_uris": {"ios": "https://dc.lft.to/lastmile_qr_scan", "android": "https://dc.lft.to/lastmile_qr_scan"}, "is_reserved": 0, "fusion_lon": 0.0, "fusion_lat": 0.0, "lon": -77.07239633333333, "name": "c870458b43414a23a93f24f9abf2647d"}, {"bike_id": "a12298ff67958a809977f225af0a8612", "type": "electric_scooter", "is_disabled": 0, "lat": 38.9110855, "rental_uris": {"ios": "https://dc.lft.to/lastmile_qr_scan", "android": "https://dc.lft.to/lastmile_qr_scan"}, "is_reserved": 0, "fusion_lon": 0.0, "fusion_lat": 0.0, "lon": -77.04523866666666, "name": "a12298ff67958a809977f225af0a8612"}, {"bike_id": "cfdbb5bbe6f075a4282f0ec40a18b2e4", "type": "electric_scooter", "is_disabled": 0, "lat": 38.914690666666665, "rental_uris": {"ios": "https://dc.lft.to/lastmile_qr_scan", "android": "https://dc.lft.to/lastmile_qr_scan"}, "is_reserved": 0, "fusion_lon": 0.0, "fusion_lat": 0.0, "lon": -77.00193233333333, "name": "cfdbb5bbe6f075a4282f0ec40a18b2e4"}, {"bike_id": "6c96b66812007959c7f071f234bf92a9", "type": "electric_scooter", "is_disabled": 0, "lat": 38.913308666666666, "rental_uris": {"ios": "https://dc.lft.to/lastmile_qr_scan", "android": "https://dc.lft.to/lastmile_qr_scan"}, "is_reserved": 0, "fusion_lon": 0.0, "fusion_lat": 0.0, "lon": -77.03992416666667, "name": "6c96b66812007959c7f071f234bf92a9"}, {"bike_id": "4c56ec2819162bb63734b2fd38ad1f4a", "type": "electric_scooter", "is_disabled": 0, "lat": 38.8431595, "rental_uris": {"ios": "https://dc.lft.to/lastmile_qr_scan", "android": "https://dc.lft.to/lastmile_qr_scan"}, "is_reserved": 0, "fusion_lon": 0.0, "fusion_lat": 0.0, "lon": -76.9992915, "name": "4c56ec2819162bb63734b2fd38ad1f4a"}, {"bike_id": "4ba21347ad5e76d2e617a18c8e0ba511", "type": "electric_scooter", "is_disabled": 0, "lat": 38.919848333333334, "rental_uris": {"ios": "https://dc.lft.to/lastmile_qr_scan", "android": "https://dc.lft.to/lastmile_qr_scan"}, "is_reserved": 0, "fusion_lon": 0.0, "fusion_lat": 0.0, "lon": -77.01804016666667, "name": "4ba21347ad5e76d2e617a18c8e0ba511"}, {"bike_id": "fe32ac41e9f039e285498befd70be221", "type": "electric_scooter", "is_disabled": 0, "lat": 38.90102066666667, "rental_uris": {"ios": "https://dc.lft.to/lastmile_qr_scan", "android": "https://dc.lft.to/lastmile_qr_scan"}, "is_reserved": 0, "fusion_lon": 0.0, "fusion_lat": 0.0, "lon": -77.03808566666666, "name": "fe32ac41e9f039e285498befd70be221"}, {"bike_id": "adb3810eed49e55e6f7109bf0284c8b6", "type": "electric_scooter", "is_disabled": 0, "lat": 38.92278133333333, "rental_uris": {"ios": "https://dc.lft.to/lastmile_qr_scan", "android": "https://dc.lft.to/lastmile_qr_scan"}, "is_reserved": 0, "fusion_lon": 0.0, "fusion_lat": 0.0, "lon": -77.03658766666666, "name": "adb3810eed49e55e6f7109bf0284c8b6"}, {"bike_id": "95b58382232d3d780f250e892a49a355", "type": "electric_scooter", "is_disabled": 0, "lat": 38.912559333333334, "rental_uris": {"ios": "https://dc.lft.to/lastmile_qr_scan", "android": "https://dc.lft.to/lastmile_qr_scan"}, "is_reserved": 0, "fusion_lon": 0.0, "fusion_lat": 0.0, "lon": -77.06786733333334, "name": "95b58382232d3d780f250e892a49a355"}, {"bike_id": "0818a7f9767781f1530aca5bd7b1576a", "type": "electric_scooter", "is_disabled": 0, "lat": 38.864757166666664, "rental_uris": {"ios": "https://dc.lft.to/lastmile_qr_scan", "android": "https://dc.lft.to/lastmile_qr_scan"}, "is_reserved": 0, "fusion_lon": 0.0, "fusion_lat": 0.0, "lon": -77.00011833333333, "name": "0818a7f9767781f1530aca5bd7b1576a"}, {"bike_id": "9aed5e3b91406efb3732ab6ccee9504a", "type": "electric_bike", "is_disabled": 0, "lat": 38.83612633333333, "rental_uris": {"ios": "https://dc.lft.to/lastmile_qr_scan", "android": "https://dc.lft.to/lastmile_qr_scan"}, "is_reserved": 0, "fusion_lon": 0.0, "fusion_lat": 0.0, "lon": -77.00384216666667, "name": "9aed5e3b91406efb3732ab6ccee9504a"}, {"bike_id": "50d543b67bd546d9a53ec349f935a219", "type": "electric_scooter", "is_disabled": 0, "lat": 38.921481666666665, "rental_uris": {"ios": "https://dc.lft.to/lastmile_qr_scan", "android": "https://dc.lft.to/lastmile_qr_scan"}, "is_reserved": 0, "fusion_lon": 0.0, "fusion_lat": 0.0, "lon": -77.04236383333334, "name": "50d543b67bd546d9a53ec349f935a219"}, {"bike_id": "bed40ede5b7f1f4d2dc8db7b3d9e4316", "type": "electric_scooter", "is_disabled": 0, "lat": 38.922023833333334, "rental_uris": {"ios": "https://dc.lft.to/lastmile_qr_scan", "android": "https://dc.lft.to/lastmile_qr_scan"}, "is_reserved": 0, "fusion_lon": 0.0, "fusion_lat": 0.0, "lon": -77.047012, "name": "bed40ede5b7f1f4d2dc8db7b3d9e4316"}, {"bike_id": "d6abeec65dded4d23daf9419c2ff1c85", "type": "electric_scooter", "is_disabled": 0, "lat": 38.8829865, "rental_uris": {"ios": "https://dc.lft.to/lastmile_qr_scan", "android": "https://dc.lft.to/lastmile_qr_scan"}, "is_reserved": 0, "fusion_lon": 0.0, "fusion_lat": 0.0, "lon": -76.948518, "name": "d6abeec65dded4d23daf9419c2ff1c85"}, {"bike_id": "5f1105466574b917930cfd3f99351c48", "type": "electric_scooter", "is_disabled": 0, "lat": 38.92711583333333, "rental_uris": {"ios": "https://dc.lft.to/lastmile_qr_scan", "android": "https://dc.lft.to/lastmile_qr_scan"}, "is_reserved": 0, "fusion_lon": 0.0, "fusion_lat": 0.0, "lon": -77.02094033333333, "name": "5f1105466574b917930cfd3f99351c48"}, {"bike_id": "66f746d8d9a5e1afab002de218e35b20", "type": "electric_scooter", "is_disabled": 0, "lat": 38.9246805, "rental_uris": {"ios": "https://dc.lft.to/lastmile_qr_scan", "android": "https://dc.lft.to/lastmile_qr_scan"}, "is_reserved": 0, "fusion_lon": 0.0, "fusion_lat": 0.0, "lon": -77.02828933333333, "name": "66f746d8d9a5e1afab002de218e35b20"}, {"bike_id": "415b7265b229197f11e64686118ebe56", "type": "electric_scooter", "is_disabled": 0, "lat": 38.916873833333334, "rental_uris": {"ios": "https://dc.lft.to/lastmile_qr_scan", "android": "https://dc.lft.to/lastmile_qr_scan"}, "is_reserved": 0, "fusion_lon": 0.0, "fusion_lat": 0.0, "lon": -77.03464766666667, "name": "415b7265b229197f11e64686118ebe56"}, {"bike_id": "de6504c38eddc22427c4f6a9088218df", "type": "electric_scooter", "is_disabled": 0, "lat": 38.90703166666667, "rental_uris": {"ios": "https://dc.lft.to/lastmile_qr_scan", "android": "https://dc.lft.to/lastmile_qr_scan"}, "is_reserved": 0, "fusion_lon": 0.0, "fusion_lat": 0.0, "lon": -76.98729333333333, "name": "de6504c38eddc22427c4f6a9088218df"}, {"bike_id": "be1665cf548db4e1b31755e271d319c8", "type": "electric_scooter", "is_disabled": 0, "lat": 38.918185666666666, "rental_uris": {"ios": "https://dc.lft.to/lastmile_qr_scan", "android": "https://dc.lft.to/lastmile_qr_scan"}, "is_reserved": 0, "fusion_lon": 0.0, "fusion_lat": 0.0, "lon": -77.02476916666667, "name": "be1665cf548db4e1b31755e271d319c8"}, {"bike_id": "0062487a87a3199127c4f639bd054bf2", "type": "electric_bike", "is_disabled": 0, "lat": 38.91193783333333, "rental_uris": {"ios": "https://dc.lft.to/lastmile_qr_scan", "android": "https://dc.lft.to/lastmile_qr_scan"}, "is_reserved": 0, "fusion_lon": 0.0, "fusion_lat": 0.0, "lon": -77.05940133333333, "name": "0062487a87a3199127c4f639bd054bf2"}, {"bike_id": "d22142f2a68e23d482211906bf463c19", "type": "electric_scooter", "is_disabled": 0, "lat": 38.923536666666664, "rental_uris": {"ios": "https://dc.lft.to/lastmile_qr_scan", "android": "https://dc.lft.to/lastmile_qr_scan"}, "is_reserved": 0, "fusion_lon": 0.0, "fusion_lat": 0.0, "lon": -77.07641083333333, "name": "d22142f2a68e23d482211906bf463c19"}, {"bike_id": "bf9d923f821c9ad3a2f2bcdba50a9d0f", "type": "electric_bike", "is_disabled": 0, "lat": 38.969612833333336, "rental_uris": {"ios": "https://dc.lft.to/lastmile_qr_scan", "android": "https://dc.lft.to/lastmile_qr_scan"}, "is_reserved": 0, "fusion_lon": 0.0, "fusion_lat": 0.0, "lon": -76.957483, "name": "bf9d923f821c9ad3a2f2bcdba50a9d0f"}, {"bike_id": "c9b5b1d9239c42a87ade94d03fe0d1cf", "type": "electric_scooter", "is_disabled": 0, "lat": 38.8545895, "rental_uris": {"ios": "https://dc.lft.to/lastmile_qr_scan", "android": "https://dc.lft.to/lastmile_qr_scan"}, "is_reserved": 0, "fusion_lon": 0.0, "fusion_lat": 0.0, "lon": -76.972414, "name": "c9b5b1d9239c42a87ade94d03fe0d1cf"}, {"bike_id": "08f4108d3e41ba59d12f40a141f3ee96", "type": "electric_scooter", "is_disabled": 0, "lat": 38.9058785, "rental_uris": {"ios": "https://dc.lft.to/lastmile_qr_scan", "android": "https://dc.lft.to/lastmile_qr_scan"}, "is_reserved": 0, "fusion_lon": 0.0, "fusion_lat": 0.0, "lon": -77.03003016666666, "name": "08f4108d3e41ba59d12f40a141f3ee96"}, {"bike_id": "a291e5bbbc92303517c62a63a03abf82", "type": "electric_scooter", "is_disabled": 0, "lat": 38.92501, "rental_uris": {"ios": "https://dc.lft.to/lastmile_qr_scan", "android": "https://dc.lft.to/lastmile_qr_scan"}, "is_reserved": 0, "fusion_lon": 0.0, "fusion_lat": 0.0, "lon": -77.021654, "name": "a291e5bbbc92303517c62a63a03abf82"}, {"bike_id": "05ecb98cb8da79d10616455e47a39bd5", "type": "electric_scooter", "is_disabled": 0, "lat": 38.90835466666667, "rental_uris": {"ios": "https://dc.lft.to/lastmile_qr_scan", "android": "https://dc.lft.to/lastmile_qr_scan"}, "is_reserved": 0, "fusion_lon": 0.0, "fusion_lat": 0.0, "lon": -77.04156083333334, "name": "05ecb98cb8da79d10616455e47a39bd5"}, {"bike_id": "9083e494ad0c6e9695f9791d6332bf7a", "type": "electric_scooter", "is_disabled": 0, "lat": 38.90027033333333, "rental_uris": {"ios": "https://dc.lft.to/lastmile_qr_scan", "android": "https://dc.lft.to/lastmile_qr_scan"}, "is_reserved": 0, "fusion_lon": 0.0, "fusion_lat": 0.0, "lon": -77.03506483333334, "name": "9083e494ad0c6e9695f9791d6332bf7a"}, {"bike_id": "f5861ccd0aca55ee678831d01c71b99e", "type": "electric_scooter", "is_disabled": 0, "lat": 38.929104333333335, "rental_uris": {"ios": "https://dc.lft.to/lastmile_qr_scan", "android": "https://dc.lft.to/lastmile_qr_scan"}, "is_reserved": 0, "fusion_lon": 0.0, "fusion_lat": 0.0, "lon": -77.03271666666667, "name": "f5861ccd0aca55ee678831d01c71b99e"}, {"bike_id": "5434f8e0a046d4c55fb24c02b23b2756", "type": "electric_scooter", "is_disabled": 0, "lat": 38.89830516666667, "rental_uris": {"ios": "https://dc.lft.to/lastmile_qr_scan", "android": "https://dc.lft.to/lastmile_qr_scan"}, "is_reserved": 0, "fusion_lon": 0.0, "fusion_lat": 0.0, "lon": -77.0455865, "name": "5434f8e0a046d4c55fb24c02b23b2756"}, {"bike_id": "47b5b65e4e3bda08c7f44ac717a2baaf", "type": "electric_scooter", "is_disabled": 0, "lat": 38.921511833333334, "rental_uris": {"ios": "https://dc.lft.to/lastmile_qr_scan", "android": "https://dc.lft.to/lastmile_qr_scan"}, "is_reserved": 0, "fusion_lon": 0.0, "fusion_lat": 0.0, "lon": -77.0387445, "name": "47b5b65e4e3bda08c7f44ac717a2baaf"}, {"bike_id": "2a3a3bf456b39a6154b7d068ad10d44d", "type": "electric_scooter", "is_disabled": 0, "lat": 38.89222616666667, "rental_uris": {"ios": "https://dc.lft.to/lastmile_qr_scan", "android": "https://dc.lft.to/lastmile_qr_scan"}, "is_reserved": 0, "fusion_lon": 0.0, "fusion_lat": 0.0, "lon": -77.03992816666667, "name": "2a3a3bf456b39a6154b7d068ad10d44d"}, {"bike_id": "4354af72118f517528ea7c86a3d94789", "type": "electric_scooter", "is_disabled": 0, "lat": 38.922714166666665, "rental_uris": {"ios": "https://dc.lft.to/lastmile_qr_scan", "android": "https://dc.lft.to/lastmile_qr_scan"}, "is_reserved": 0, "fusion_lon": 0.0, "fusion_lat": 0.0, "lon": -77.03391683333334, "name": "4354af72118f517528ea7c86a3d94789"}, {"bike_id": "21d697b79a2dad030b69c0f56b3cc44b", "type": "electric_bike", "is_disabled": 0, "lat": 38.94120066666667, "rental_uris": {"ios": "https://dc.lft.to/lastmile_qr_scan", "android": "https://dc.lft.to/lastmile_qr_scan"}, "is_reserved": 0, "fusion_lon": 0.0, "fusion_lat": 0.0, "lon": -77.06197966666667, "name": "21d697b79a2dad030b69c0f56b3cc44b"}, {"bike_id": "aab26a718fc6d19c1d08bf697aa2e1dd", "type": "electric_scooter", "is_disabled": 0, "lat": 38.90811133333333, "rental_uris": {"ios": "https://dc.lft.to/lastmile_qr_scan", "android": "https://dc.lft.to/lastmile_qr_scan"}, "is_reserved": 0, "fusion_lon": 0.0, "fusion_lat": 0.0, "lon": -77.03682683333334, "name": "aab26a718fc6d19c1d08bf697aa2e1dd"}, {"bike_id": "e51256eb52f4d3e818b01d9b7507ed1c", "type": "electric_scooter", "is_disabled": 0, "lat": 38.910577, "rental_uris": {"ios": "https://dc.lft.to/lastmile_qr_scan", "android": "https://dc.lft.to/lastmile_qr_scan"}, "is_reserved": 0, "fusion_lon": 0.0, "fusion_lat": 0.0, "lon": -77.05287333333334, "name": "e51256eb52f4d3e818b01d9b7507ed1c"}, {"bike_id": "73fa87f564c95a62b5192f6130b77551", "type": "electric_scooter", "is_disabled": 0, "lat": 38.91916066666667, "rental_uris": {"ios": "https://dc.lft.to/lastmile_qr_scan", "android": "https://dc.lft.to/lastmile_qr_scan"}, "is_reserved": 0, "fusion_lon": 0.0, "fusion_lat": 0.0, "lon": -77.0245115, "name": "73fa87f564c95a62b5192f6130b77551"}, {"bike_id": "e2ec563e16e3db749aa0c996e0ae59d9", "type": "electric_scooter", "is_disabled": 0, "lat": 38.8779895, "rental_uris": {"ios": "https://dc.lft.to/lastmile_qr_scan", "android": "https://dc.lft.to/lastmile_qr_scan"}, "is_reserved": 0, "fusion_lon": 0.0, "fusion_lat": 0.0, "lon": -77.01749433333333, "name": "e2ec563e16e3db749aa0c996e0ae59d9"}, {"bike_id": "b3dd544b91d9eedc376e255aae85bbd9", "type": "electric_scooter", "is_disabled": 0, "lat": 38.9171535, "rental_uris": {"ios": "https://dc.lft.to/lastmile_qr_scan", "android": "https://dc.lft.to/lastmile_qr_scan"}, "is_reserved": 0, "fusion_lon": 0.0, "fusion_lat": 0.0, "lon": -77.0461045, "name": "b3dd544b91d9eedc376e255aae85bbd9"}, {"bike_id": "a8f41800366ad4c21a565528954df000", "type": "electric_scooter", "is_disabled": 0, "lat": 38.89200433333333, "rental_uris": {"ios": "https://dc.lft.to/lastmile_qr_scan", "android": "https://dc.lft.to/lastmile_qr_scan"}, "is_reserved": 0, "fusion_lon": 0.0, "fusion_lat": 0.0, "lon": -77.002321, "name": "a8f41800366ad4c21a565528954df000"}, {"bike_id": "b81839af9fce1b25520e55dc9417858e", "type": "electric_scooter", "is_disabled": 0, "lat": 38.91003583333333, "rental_uris": {"ios": "https://dc.lft.to/lastmile_qr_scan", "android": "https://dc.lft.to/lastmile_qr_scan"}, "is_reserved": 0, "fusion_lon": 0.0, "fusion_lat": 0.0, "lon": -76.99635133333334, "name": "b81839af9fce1b25520e55dc9417858e"}, {"bike_id": "7c81f3a233a1b813beebaaf75c1a0658", "type": "electric_scooter", "is_disabled": 0, "lat": 38.96608116666667, "rental_uris": {"ios": "https://dc.lft.to/lastmile_qr_scan", "android": "https://dc.lft.to/lastmile_qr_scan"}, "is_reserved": 0, "fusion_lon": 0.0, "fusion_lat": 0.0, "lon": -77.0197715, "name": "7c81f3a233a1b813beebaaf75c1a0658"}, {"bike_id": "a5974f24fcaaf634c688478237ff2ad8", "type": "electric_bike", "is_disabled": 0, "lat": 38.95688783333333, "rental_uris": {"ios": "https://dc.lft.to/lastmile_qr_scan", "android": "https://dc.lft.to/lastmile_qr_scan"}, "is_reserved": 0, "fusion_lon": 0.0, "fusion_lat": 0.0, "lon": -77.022255, "name": "a5974f24fcaaf634c688478237ff2ad8"}, {"bike_id": "10b9d34e7c42f9a5ca5818094851389a", "type": "electric_scooter", "is_disabled": 0, "lat": 38.91689916666667, "rental_uris": {"ios": "https://dc.lft.to/lastmile_qr_scan", "android": "https://dc.lft.to/lastmile_qr_scan"}, "is_reserved": 0, "fusion_lon": 0.0, "fusion_lat": 0.0, "lon": -77.023489, "name": "10b9d34e7c42f9a5ca5818094851389a"}, {"bike_id": "a261cdadc2a245c049553912227412b2", "type": "electric_scooter", "is_disabled": 0, "lat": 38.920700833333335, "rental_uris": {"ios": "https://dc.lft.to/lastmile_qr_scan", "android": "https://dc.lft.to/lastmile_qr_scan"}, "is_reserved": 0, "fusion_lon": 0.0, "fusion_lat": 0.0, "lon": -77.03458733333333, "name": "a261cdadc2a245c049553912227412b2"}, {"bike_id": "2c40e84ec29cb680be6064b1359fcfef", "type": "electric_scooter", "is_disabled": 0, "lat": 38.8967005, "rental_uris": {"ios": "https://dc.lft.to/lastmile_qr_scan", "android": "https://dc.lft.to/lastmile_qr_scan"}, "is_reserved": 0, "fusion_lon": 0.0, "fusion_lat": 0.0, "lon": -76.9881505, "name": "2c40e84ec29cb680be6064b1359fcfef"}, {"bike_id": "d4e7708c428413300157e605a57bbdaa", "type": "electric_scooter", "is_disabled": 0, "lat": 38.94513216666667, "rental_uris": {"ios": "https://dc.lft.to/lastmile_qr_scan", "android": "https://dc.lft.to/lastmile_qr_scan"}, "is_reserved": 0, "fusion_lon": 0.0, "fusion_lat": 0.0, "lon": -77.02171283333334, "name": "d4e7708c428413300157e605a57bbdaa"}, {"bike_id": "573f6ac246449c7fd2da4e6984632c56", "type": "electric_scooter", "is_disabled": 0, "lat": 38.90621216666667, "rental_uris": {"ios": "https://dc.lft.to/lastmile_qr_scan", "android": "https://dc.lft.to/lastmile_qr_scan"}, "is_reserved": 0, "fusion_lon": 0.0, "fusion_lat": 0.0, "lon": -77.05138166666667, "name": "573f6ac246449c7fd2da4e6984632c56"}, {"bike_id": "3661fcc04cdf9f7f1bde51d3cd3bee4c", "type": "electric_scooter", "is_disabled": 0, "lat": 38.915621, "rental_uris": {"ios": "https://dc.lft.to/lastmile_qr_scan", "android": "https://dc.lft.to/lastmile_qr_scan"}, "is_reserved": 0, "fusion_lon": 0.0, "fusion_lat": 0.0, "lon": -77.03723166666667, "name": "3661fcc04cdf9f7f1bde51d3cd3bee4c"}, {"bike_id": "e72527813c79219937fc1c9ec78a2e60", "type": "electric_scooter", "is_disabled": 0, "lat": 38.8756245, "rental_uris": {"ios": "https://dc.lft.to/lastmile_qr_scan", "android": "https://dc.lft.to/lastmile_qr_scan"}, "is_reserved": 0, "fusion_lon": 0.0, "fusion_lat": 0.0, "lon": -76.95865416666666, "name": "e72527813c79219937fc1c9ec78a2e60"}, {"bike_id": "609661ffecb0a706ba5bac46c29bb2c2", "type": "electric_bike", "is_disabled": 0, "lat": 38.90619133333333, "rental_uris": {"ios": "https://dc.lft.to/lastmile_qr_scan", "android": "https://dc.lft.to/lastmile_qr_scan"}, "is_reserved": 0, "fusion_lon": 0.0, "fusion_lat": 0.0, "lon": -77.04136966666667, "name": "609661ffecb0a706ba5bac46c29bb2c2"}, {"bike_id": "7a4081b84ff4a82647f5fd94c938191d", "type": "electric_scooter", "is_disabled": 0, "lat": 38.9154825, "rental_uris": {"ios": "https://dc.lft.to/lastmile_qr_scan", "android": "https://dc.lft.to/lastmile_qr_scan"}, "is_reserved": 0, "fusion_lon": 0.0, "fusion_lat": 0.0, "lon": -77.03851683333333, "name": "7a4081b84ff4a82647f5fd94c938191d"}, {"bike_id": "100177769ee29dcb3a51735a19cc9bc1", "type": "electric_scooter", "is_disabled": 0, "lat": 38.93479516666667, "rental_uris": {"ios": "https://dc.lft.to/lastmile_qr_scan", "android": "https://dc.lft.to/lastmile_qr_scan"}, "is_reserved": 0, "fusion_lon": 0.0, "fusion_lat": 0.0, "lon": -77.03420116666666, "name": "100177769ee29dcb3a51735a19cc9bc1"}, {"bike_id": "da760fa72b944fca24b2a731e840ecaa", "type": "electric_bike", "is_disabled": 0, "lat": 39.036955166666665, "rental_uris": {"ios": "https://dc.lft.to/lastmile_qr_scan", "android": "https://dc.lft.to/lastmile_qr_scan"}, "is_reserved": 0, "fusion_lon": 0.0, "fusion_lat": 0.0, "lon": -77.0284715, "name": "da760fa72b944fca24b2a731e840ecaa"}, {"bike_id": "484bf797ea4e00f8a024557f673cfbe4", "type": "electric_scooter", "is_disabled": 0, "lat": 38.9392, "rental_uris": {"ios": "https://dc.lft.to/lastmile_qr_scan", "android": "https://dc.lft.to/lastmile_qr_scan"}, "is_reserved": 0, "fusion_lon": 0.0, "fusion_lat": 0.0, "lon": -77.06050833333333, "name": "484bf797ea4e00f8a024557f673cfbe4"}, {"bike_id": "3fa2281a75566a1d0b1706f77c9618bb", "type": "electric_scooter", "is_disabled": 0, "lat": 38.91670766666667, "rental_uris": {"ios": "https://dc.lft.to/lastmile_qr_scan", "android": "https://dc.lft.to/lastmile_qr_scan"}, "is_reserved": 0, "fusion_lon": 0.0, "fusion_lat": 0.0, "lon": -77.024012, "name": "3fa2281a75566a1d0b1706f77c9618bb"}, {"bike_id": "1e88b098d2868491c2accedb2b099b45", "type": "electric_scooter", "is_disabled": 0, "lat": 38.91690716666667, "rental_uris": {"ios": "https://dc.lft.to/lastmile_qr_scan", "android": "https://dc.lft.to/lastmile_qr_scan"}, "is_reserved": 0, "fusion_lon": 0.0, "fusion_lat": 0.0, "lon": -77.03206483333334, "name": "1e88b098d2868491c2accedb2b099b45"}, {"bike_id": "2a6fbd0775947225d9b49d1c6e0ff502", "type": "electric_scooter", "is_disabled": 0, "lat": 38.91690366666667, "rental_uris": {"ios": "https://dc.lft.to/lastmile_qr_scan", "android": "https://dc.lft.to/lastmile_qr_scan"}, "is_reserved": 0, "fusion_lon": 0.0, "fusion_lat": 0.0, "lon": -77.0346225, "name": "2a6fbd0775947225d9b49d1c6e0ff502"}, {"bike_id": "35db4673f318520f4333d11acf7f9773", "type": "electric_scooter", "is_disabled": 0, "lat": 38.9429445, "rental_uris": {"ios": "https://dc.lft.to/lastmile_qr_scan", "android": "https://dc.lft.to/lastmile_qr_scan"}, "is_reserved": 0, "fusion_lon": 0.0, "fusion_lat": 0.0, "lon": -77.021696, "name": "35db4673f318520f4333d11acf7f9773"}, {"bike_id": "b5007fe4938fcf6973833930cdb5143c", "type": "electric_scooter", "is_disabled": 0, "lat": 38.91418316666667, "rental_uris": {"ios": "https://dc.lft.to/lastmile_qr_scan", "android": "https://dc.lft.to/lastmile_qr_scan"}, "is_reserved": 0, "fusion_lon": 0.0, "fusion_lat": 0.0, "lon": -77.022501, "name": "b5007fe4938fcf6973833930cdb5143c"}, {"bike_id": "033d2ff0ed671a7f69129d827ae1e313", "type": "electric_scooter", "is_disabled": 0, "lat": 38.931836833333335, "rental_uris": {"ios": "https://dc.lft.to/lastmile_qr_scan", "android": "https://dc.lft.to/lastmile_qr_scan"}, "is_reserved": 0, "fusion_lon": 0.0, "fusion_lat": 0.0, "lon": -77.02370916666666, "name": "033d2ff0ed671a7f69129d827ae1e313"}, {"bike_id": "3b53b63fd12fa595285eb9e6e0642388", "type": "electric_scooter", "is_disabled": 0, "lat": 38.933425166666666, "rental_uris": {"ios": "https://dc.lft.to/lastmile_qr_scan", "android": "https://dc.lft.to/lastmile_qr_scan"}, "is_reserved": 0, "fusion_lon": 0.0, "fusion_lat": 0.0, "lon": -77.039812, "name": "3b53b63fd12fa595285eb9e6e0642388"}, {"bike_id": "797423e505542cb6fac63fe03a7ec272", "type": "electric_scooter", "is_disabled": 0, "lat": 38.916776, "rental_uris": {"ios": "https://dc.lft.to/lastmile_qr_scan", "android": "https://dc.lft.to/lastmile_qr_scan"}, "is_reserved": 0, "fusion_lon": 0.0, "fusion_lat": 0.0, "lon": -77.03195033333333, "name": "797423e505542cb6fac63fe03a7ec272"}, {"bike_id": "de8f3017a0d436ad73df344cfc9023bd", "type": "electric_scooter", "is_disabled": 0, "lat": 38.90732916666666, "rental_uris": {"ios": "https://dc.lft.to/lastmile_qr_scan", "android": "https://dc.lft.to/lastmile_qr_scan"}, "is_reserved": 0, "fusion_lon": 0.0, "fusion_lat": 0.0, "lon": -77.00927633333333, "name": "de8f3017a0d436ad73df344cfc9023bd"}, {"bike_id": "5c013a694050120324b16780ad6fc39e", "type": "electric_scooter", "is_disabled": 0, "lat": 38.90953733333333, "rental_uris": {"ios": "https://dc.lft.to/lastmile_qr_scan", "android": "https://dc.lft.to/lastmile_qr_scan"}, "is_reserved": 0, "fusion_lon": 0.0, "fusion_lat": 0.0, "lon": -77.02718466666667, "name": "5c013a694050120324b16780ad6fc39e"}, {"bike_id": "2d304a89b63da0ee462a919ef3fc0d79", "type": "electric_scooter", "is_disabled": 0, "lat": 38.909225166666666, "rental_uris": {"ios": "https://dc.lft.to/lastmile_qr_scan", "android": "https://dc.lft.to/lastmile_qr_scan"}, "is_reserved": 0, "fusion_lon": 0.0, "fusion_lat": 0.0, "lon": -77.015276, "name": "2d304a89b63da0ee462a919ef3fc0d79"}, {"bike_id": "59ff0e5d57b4ac384e9124306afc92e9", "type": "electric_scooter", "is_disabled": 0, "lat": 38.91272883333333, "rental_uris": {"ios": "https://dc.lft.to/lastmile_qr_scan", "android": "https://dc.lft.to/lastmile_qr_scan"}, "is_reserved": 0, "fusion_lon": 0.0, "fusion_lat": 0.0, "lon": -77.02295066666667, "name": "59ff0e5d57b4ac384e9124306afc92e9"}, {"bike_id": "575a8dfd9eeb77eaf7a4f4baee42a2c6", "type": "electric_scooter", "is_disabled": 0, "lat": 38.90210733333333, "rental_uris": {"ios": "https://dc.lft.to/lastmile_qr_scan", "android": "https://dc.lft.to/lastmile_qr_scan"}, "is_reserved": 0, "fusion_lon": 0.0, "fusion_lat": 0.0, "lon": -77.05124216666667, "name": "575a8dfd9eeb77eaf7a4f4baee42a2c6"}, {"bike_id": "e64a96e773dc489fee48540fe293de9e", "type": "electric_scooter", "is_disabled": 0, "lat": 38.898417, "rental_uris": {"ios": "https://dc.lft.to/lastmile_qr_scan", "android": "https://dc.lft.to/lastmile_qr_scan"}, "is_reserved": 0, "fusion_lon": 0.0, "fusion_lat": 0.0, "lon": -76.94627766666666, "name": "e64a96e773dc489fee48540fe293de9e"}, {"bike_id": "72f31d8dff296b0b7ed8dfdf4e80bfa0", "type": "electric_scooter", "is_disabled": 0, "lat": 38.9192625, "rental_uris": {"ios": "https://dc.lft.to/lastmile_qr_scan", "android": "https://dc.lft.to/lastmile_qr_scan"}, "is_reserved": 0, "fusion_lon": 0.0, "fusion_lat": 0.0, "lon": -77.04494266666667, "name": "72f31d8dff296b0b7ed8dfdf4e80bfa0"}, {"bike_id": "d3a477c623441891f485fc67e5c71742", "type": "electric_scooter", "is_disabled": 0, "lat": 38.89617883333333, "rental_uris": {"ios": "https://dc.lft.to/lastmile_qr_scan", "android": "https://dc.lft.to/lastmile_qr_scan"}, "is_reserved": 0, "fusion_lon": 0.0, "fusion_lat": 0.0, "lon": -76.98569716666667, "name": "d3a477c623441891f485fc67e5c71742"}, {"bike_id": "b9d5e3412f26c6cb91d8278080160ad5", "type": "electric_scooter", "is_disabled": 0, "lat": 38.923476, "rental_uris": {"ios": "https://dc.lft.to/lastmile_qr_scan", "android": "https://dc.lft.to/lastmile_qr_scan"}, "is_reserved": 0, "fusion_lon": 0.0, "fusion_lat": 0.0, "lon": -77.03350916666666, "name": "b9d5e3412f26c6cb91d8278080160ad5"}, {"bike_id": "a939063841654a07c3bbd04a98d51185", "type": "electric_scooter", "is_disabled": 0, "lat": 38.902700833333334, "rental_uris": {"ios": "https://dc.lft.to/lastmile_qr_scan", "android": "https://dc.lft.to/lastmile_qr_scan"}, "is_reserved": 0, "fusion_lon": 0.0, "fusion_lat": 0.0, "lon": -77.05477716666667, "name": "a939063841654a07c3bbd04a98d51185"}, {"bike_id": "116c9911437a9038cc2981555656c6b6", "type": "electric_scooter", "is_disabled": 0, "lat": 38.915693, "rental_uris": {"ios": "https://dc.lft.to/lastmile_qr_scan", "android": "https://dc.lft.to/lastmile_qr_scan"}, "is_reserved": 0, "fusion_lon": 0.0, "fusion_lat": 0.0, "lon": -77.03187133333333, "name": "116c9911437a9038cc2981555656c6b6"}, {"bike_id": "0b2050b1e2987bdbdbe6146b69c265a2", "type": "electric_scooter", "is_disabled": 0, "lat": 38.9148635, "rental_uris": {"ios": "https://dc.lft.to/lastmile_qr_scan", "android": "https://dc.lft.to/lastmile_qr_scan"}, "is_reserved": 0, "fusion_lon": 0.0, "fusion_lat": 0.0, "lon": -77.0218105, "name": "0b2050b1e2987bdbdbe6146b69c265a2"}, {"bike_id": "75dc6aedcb81ccb354cf6ca0fa8f05c0", "type": "electric_scooter", "is_disabled": 0, "lat": 38.89476416666667, "rental_uris": {"ios": "https://dc.lft.to/lastmile_qr_scan", "android": "https://dc.lft.to/lastmile_qr_scan"}, "is_reserved": 0, "fusion_lon": 0.0, "fusion_lat": 0.0, "lon": -76.9486175, "name": "75dc6aedcb81ccb354cf6ca0fa8f05c0"}, {"bike_id": "ac26540abdc5f901fa0b0d3b4a08e221", "type": "electric_scooter", "is_disabled": 0, "lat": 38.922403, "rental_uris": {"ios": "https://dc.lft.to/lastmile_qr_scan", "android": "https://dc.lft.to/lastmile_qr_scan"}, "is_reserved": 0, "fusion_lon": 0.0, "fusion_lat": 0.0, "lon": -77.03520316666666, "name": "ac26540abdc5f901fa0b0d3b4a08e221"}, {"bike_id": "ff45f0353140dea7f0dc446879311401", "type": "electric_bike", "is_disabled": 0, "lat": 38.87553666666667, "rental_uris": {"ios": "https://dc.lft.to/lastmile_qr_scan", "android": "https://dc.lft.to/lastmile_qr_scan"}, "is_reserved": 0, "fusion_lon": 0.0, "fusion_lat": 0.0, "lon": -76.96503883333334, "name": "ff45f0353140dea7f0dc446879311401"}, {"bike_id": "12ebae9a3cfcea81dc869fed483abc6f", "type": "electric_scooter", "is_disabled": 0, "lat": 38.91110883333333, "rental_uris": {"ios": "https://dc.lft.to/lastmile_qr_scan", "android": "https://dc.lft.to/lastmile_qr_scan"}, "is_reserved": 0, "fusion_lon": 0.0, "fusion_lat": 0.0, "lon": -77.04902633333333, "name": "12ebae9a3cfcea81dc869fed483abc6f"}, {"bike_id": "8a0d62deada9d476f4225abe3705b59c", "type": "electric_scooter", "is_disabled": 0, "lat": 38.90241283333334, "rental_uris": {"ios": "https://dc.lft.to/lastmile_qr_scan", "android": "https://dc.lft.to/lastmile_qr_scan"}, "is_reserved": 0, "fusion_lon": 0.0, "fusion_lat": 0.0, "lon": -77.046803, "name": "8a0d62deada9d476f4225abe3705b59c"}, {"bike_id": "68c45e83fbad5456ee1879aae3e553be", "type": "electric_scooter", "is_disabled": 0, "lat": 38.845409333333336, "rental_uris": {"ios": "https://dc.lft.to/lastmile_qr_scan", "android": "https://dc.lft.to/lastmile_qr_scan"}, "is_reserved": 0, "fusion_lon": 0.0, "fusion_lat": 0.0, "lon": -76.98549016666666, "name": "68c45e83fbad5456ee1879aae3e553be"}, {"bike_id": "8b3dead6e519b457c974bd577f7286da", "type": "electric_scooter", "is_disabled": 0, "lat": 38.9045155, "rental_uris": {"ios": "https://dc.lft.to/lastmile_qr_scan", "android": "https://dc.lft.to/lastmile_qr_scan"}, "is_reserved": 0, "fusion_lon": 0.0, "fusion_lat": 0.0, "lon": -77.03227583333333, "name": "8b3dead6e519b457c974bd577f7286da"}, {"bike_id": "461c62ef2602be6d31eef87a8e7c5e9e", "type": "electric_scooter", "is_disabled": 0, "lat": 38.90845016666667, "rental_uris": {"ios": "https://dc.lft.to/lastmile_qr_scan", "android": "https://dc.lft.to/lastmile_qr_scan"}, "is_reserved": 0, "fusion_lon": 0.0, "fusion_lat": 0.0, "lon": -77.027158, "name": "461c62ef2602be6d31eef87a8e7c5e9e"}, {"bike_id": "24b02ce9ab66e454d44fc619c02c1930", "type": "electric_bike", "is_disabled": 0, "lat": 38.9179425, "rental_uris": {"ios": "https://dc.lft.to/lastmile_qr_scan", "android": "https://dc.lft.to/lastmile_qr_scan"}, "is_reserved": 0, "fusion_lon": 0.0, "fusion_lat": 0.0, "lon": -77.03203933333333, "name": "24b02ce9ab66e454d44fc619c02c1930"}, {"bike_id": "bce362d159981bfc10dbc6a919193fed", "type": "electric_scooter", "is_disabled": 0, "lat": 38.938671, "rental_uris": {"ios": "https://dc.lft.to/lastmile_qr_scan", "android": "https://dc.lft.to/lastmile_qr_scan"}, "is_reserved": 0, "fusion_lon": 0.0, "fusion_lat": 0.0, "lon": -77.07784333333333, "name": "bce362d159981bfc10dbc6a919193fed"}, {"bike_id": "656e9d5d22bdebe166422d04a53fc141", "type": "electric_scooter", "is_disabled": 0, "lat": 38.922214, "rental_uris": {"ios": "https://dc.lft.to/lastmile_qr_scan", "android": "https://dc.lft.to/lastmile_qr_scan"}, "is_reserved": 0, "fusion_lon": 0.0, "fusion_lat": 0.0, "lon": -77.0237495, "name": "656e9d5d22bdebe166422d04a53fc141"}, {"bike_id": "8eea3a0ff6a2fec6384959d0224d730c", "type": "electric_scooter", "is_disabled": 0, "lat": 38.92320083333333, "rental_uris": {"ios": "https://dc.lft.to/lastmile_qr_scan", "android": "https://dc.lft.to/lastmile_qr_scan"}, "is_reserved": 0, "fusion_lon": 0.0, "fusion_lat": 0.0, "lon": -77.04637633333333, "name": "8eea3a0ff6a2fec6384959d0224d730c"}, {"bike_id": "cec763e7cbd0d5c1e04e762fbd714503", "type": "electric_scooter", "is_disabled": 0, "lat": 38.913995166666666, "rental_uris": {"ios": "https://dc.lft.to/lastmile_qr_scan", "android": "https://dc.lft.to/lastmile_qr_scan"}, "is_reserved": 0, "fusion_lon": 0.0, "fusion_lat": 0.0, "lon": -77.01793733333334, "name": "cec763e7cbd0d5c1e04e762fbd714503"}, {"bike_id": "1858cda6d12dbcd0e078f79066699c87", "type": "electric_scooter", "is_disabled": 0, "lat": 38.90156916666667, "rental_uris": {"ios": "https://dc.lft.to/lastmile_qr_scan", "android": "https://dc.lft.to/lastmile_qr_scan"}, "is_reserved": 0, "fusion_lon": 0.0, "fusion_lat": 0.0, "lon": -77.02187966666666, "name": "1858cda6d12dbcd0e078f79066699c87"}, {"bike_id": "cbc92ef26986f7c1267dff655250bb71", "type": "electric_scooter", "is_disabled": 0, "lat": 38.895426, "rental_uris": {"ios": "https://dc.lft.to/lastmile_qr_scan", "android": "https://dc.lft.to/lastmile_qr_scan"}, "is_reserved": 0, "fusion_lon": 0.0, "fusion_lat": 0.0, "lon": -76.98860933333333, "name": "cbc92ef26986f7c1267dff655250bb71"}, {"bike_id": "62465eeb7707686b4156ac947d37de59", "type": "electric_scooter", "is_disabled": 0, "lat": 38.843176666666665, "rental_uris": {"ios": "https://dc.lft.to/lastmile_qr_scan", "android": "https://dc.lft.to/lastmile_qr_scan"}, "is_reserved": 0, "fusion_lon": 0.0, "fusion_lat": 0.0, "lon": -76.999197, "name": "62465eeb7707686b4156ac947d37de59"}, {"bike_id": "f083031ab6689c37dcc40829e84948e6", "type": "electric_bike", "is_disabled": 0, "lat": 38.8651345, "rental_uris": {"ios": "https://dc.lft.to/lastmile_qr_scan", "android": "https://dc.lft.to/lastmile_qr_scan"}, "is_reserved": 0, "fusion_lon": 0.0, "fusion_lat": 0.0, "lon": -76.97341883333333, "name": "f083031ab6689c37dcc40829e84948e6"}, {"bike_id": "6625ae6be6a6b70ddc4cb97b127bd6ed", "type": "electric_scooter", "is_disabled": 0, "lat": 38.900758333333336, "rental_uris": {"ios": "https://dc.lft.to/lastmile_qr_scan", "android": "https://dc.lft.to/lastmile_qr_scan"}, "is_reserved": 0, "fusion_lon": 0.0, "fusion_lat": 0.0, "lon": -77.05310533333333, "name": "6625ae6be6a6b70ddc4cb97b127bd6ed"}, {"bike_id": "afc814b15140b2a5ffe4baed87cb58ee", "type": "electric_bike", "is_disabled": 0, "lat": 38.906021833333334, "rental_uris": {"ios": "https://dc.lft.to/lastmile_qr_scan", "android": "https://dc.lft.to/lastmile_qr_scan"}, "is_reserved": 0, "fusion_lon": 0.0, "fusion_lat": 0.0, "lon": -77.00881, "name": "afc814b15140b2a5ffe4baed87cb58ee"}, {"bike_id": "1390efae77ec0d479323fa9618f25e8a", "type": "electric_scooter", "is_disabled": 0, "lat": 38.86246083333333, "rental_uris": {"ios": "https://dc.lft.to/lastmile_qr_scan", "android": "https://dc.lft.to/lastmile_qr_scan"}, "is_reserved": 0, "fusion_lon": 0.0, "fusion_lat": 0.0, "lon": -76.995018, "name": "1390efae77ec0d479323fa9618f25e8a"}, {"bike_id": "7b88fee750b6ee3927acf0bd2f92532e", "type": "electric_scooter", "is_disabled": 0, "lat": 38.9560785, "rental_uris": {"ios": "https://dc.lft.to/lastmile_qr_scan", "android": "https://dc.lft.to/lastmile_qr_scan"}, "is_reserved": 0, "fusion_lon": 0.0, "fusion_lat": 0.0, "lon": -77.0009265, "name": "7b88fee750b6ee3927acf0bd2f92532e"}, {"bike_id": "85b9089e4ad9950684810a87cf89503c", "type": "electric_scooter", "is_disabled": 0, "lat": 38.92384366666667, "rental_uris": {"ios": "https://dc.lft.to/lastmile_qr_scan", "android": "https://dc.lft.to/lastmile_qr_scan"}, "is_reserved": 0, "fusion_lon": 0.0, "fusion_lat": 0.0, "lon": -77.03078683333334, "name": "85b9089e4ad9950684810a87cf89503c"}, {"bike_id": "1483fb53dc7d0c6c14f4e2985ae1b7a3", "type": "electric_scooter", "is_disabled": 0, "lat": 38.88063616666667, "rental_uris": {"ios": "https://dc.lft.to/lastmile_qr_scan", "android": "https://dc.lft.to/lastmile_qr_scan"}, "is_reserved": 0, "fusion_lon": 0.0, "fusion_lat": 0.0, "lon": -76.9321735, "name": "1483fb53dc7d0c6c14f4e2985ae1b7a3"}, {"bike_id": "7a62e140f9848807192303bab562edfd", "type": "electric_scooter", "is_disabled": 0, "lat": 38.9156625, "rental_uris": {"ios": "https://dc.lft.to/lastmile_qr_scan", "android": "https://dc.lft.to/lastmile_qr_scan"},