{"data": {"bikes": [{"bike_id": "bd7c7e95684f8390f2705f24d4f8a867", "is_reserved": 0, "fusion_lon": 0.0, "lat": 38.872328833333334, "is_disabled": 0, "name": "bd7c7e95684f8390f2705f24d4f8a867", "fusion_lat": 0.0, "rental_uris": {"ios": "https://dc.lft.to/lastmile_qr_scan", "android": "https://dc.lft.to/lastmile_qr_scan"}, "lon": -77.0162795, "type": "electric_scooter"}, {"bike_id": "d2b727d94323597074f608d5d0f2d366", "is_reserved": 0, "fusion_lon": 0.0, "lat": 38.92709833333333, "is_disabled": 0, "name": "d2b727d94323597074f608d5d0f2d366", "fusion_lat": 0.0, "rental_uris": {"ios": "https://dc.lft.to/lastmile_qr_scan", "android": "https://dc.lft.to/lastmile_qr_scan"}, "lon": -77.042034, "type": "electric_scooter"}, {"bike_id": "4a369da817d6936edbf799cfb5bd4a62", "is_reserved": 0, "fusion_lon": 0.0, "lat": 38.922212, "is_disabled": 0, "name": "4a369da817d6936edbf799cfb5bd4a62", "fusion_lat": 0.0, "rental_uris": {"ios": "https://dc.lft.to/lastmile_qr_scan", "android": "https://dc.lft.to/lastmile_qr_scan"}, "lon": -77.0440125, "type": "electric_scooter"}, {"bike_id": "5915ad2906f3314475deeea5a03aa16d", "is_reserved": 0, "fusion_lon": 0.0, "lat": 38.88738466666667, "is_disabled": 0, "name": "5915ad2906f3314475deeea5a03aa16d", "fusion_lat": 0.0, "rental_uris": {"ios": "https://dc.lft.to/lastmile_qr_scan", "android": "https://dc.lft.to/lastmile_qr_scan"}, "lon": -77.03178333333334, "type": "electric_scooter"}, {"bike_id": "8211d44f637ca77a619bc538fa5137b3", "is_reserved": 0, "fusion_lon": 0.0, "lat": 38.878791166666666, "is_disabled": 0, "name": "8211d44f637ca77a619bc538fa5137b3", "fusion_lat": 0.0, "rental_uris": {"ios": "https://dc.lft.to/lastmile_qr_scan", "android": "https://dc.lft.to/lastmile_qr_scan"}, "lon": -77.005961, "type": "electric_scooter"}, {"bike_id": "e821c8e477d3d62df5ce706afe8fa768", "is_reserved": 0, "fusion_lon": 0.0, "lat": 38.866561833333336, "is_disabled": 0, "name": "e821c8e477d3d62df5ce706afe8fa768", "fusion_lat": 0.0, "rental_uris": {"ios": "https://dc.lft.to/lastmile_qr_scan", "android": "https://dc.lft.to/lastmile_qr_scan"}, "lon": -76.988823, "type": "electric_scooter"}, {"bike_id": "8d35dd63f7749a24aca1f9b116e937d9", "is_reserved": 0, "fusion_lon": 0.0, "lat": 38.812408833333336, "is_disabled": 0, "name": "8d35dd63f7749a24aca1f9b116e937d9", "fusion_lat": 0.0, "rental_uris": {"ios": "https://dc.lft.to/lastmile_qr_scan", "android": "https://dc.lft.to/lastmile_qr_scan"}, "lon": -77.117495, "type": "electric_bike"}, {"bike_id": "6157f4e96f5e6dfe5f7ba120b9b2d67b", "is_reserved": 0, "fusion_lon": 0.0, "lat": 38.912613666666665, "is_disabled": 0, "name": "6157f4e96f5e6dfe5f7ba120b9b2d67b", "fusion_lat": 0.0, "rental_uris": {"ios": "https://dc.lft.to/lastmile_qr_scan", "android": "https://dc.lft.to/lastmile_qr_scan"}, "lon": -77.031471, "type": "electric_scooter"}, {"bike_id": "bc3e45f840d28bca5af27d114e710933", "is_reserved": 0, "fusion_lon": 0.0, "lat": 38.95484116666667, "is_disabled": 0, "name": "bc3e45f840d28bca5af27d114e710933", "fusion_lat": 0.0, "rental_uris": {"ios": "https://dc.lft.to/lastmile_qr_scan", "android": "https://dc.lft.to/lastmile_qr_scan"}, "lon": -77.06568366666667, "type": "electric_scooter"}, {"bike_id": "964376d795c17f04cf5e9f6b50ea24a0", "is_reserved": 0, "fusion_lon": 0.0, "lat": 38.86533933333333, "is_disabled": 0, "name": "964376d795c17f04cf5e9f6b50ea24a0", "fusion_lat": 0.0, "rental_uris": {"ios": "https://dc.lft.to/lastmile_qr_scan", "android": "https://dc.lft.to/lastmile_qr_scan"}, "lon": -76.98709933333333, "type": "electric_scooter"}, {"bike_id": "75f3ced0e732f87549d6eef9131f5e86", "is_reserved": 0, "fusion_lon": 0.0, "lat": 38.921776666666666, "is_disabled": 0, "name": "75f3ced0e732f87549d6eef9131f5e86", "fusion_lat": 0.0, "rental_uris": {"ios": "https://dc.lft.to/lastmile_qr_scan", "android": "https://dc.lft.to/lastmile_qr_scan"}, "lon": -77.02661866666666, "type": "electric_scooter"}, {"bike_id": "16c38f778046beaa3b240a3126cfcb1f", "is_reserved": 0, "fusion_lon": 0.0, "lat": 38.903641666666665, "is_disabled": 0, "name": "16c38f778046beaa3b240a3126cfcb1f", "fusion_lat": 0.0, "rental_uris": {"ios": "https://dc.lft.to/lastmile_qr_scan", "android": "https://dc.lft.to/lastmile_qr_scan"}, "lon": -77.0098635, "type": "electric_scooter"}, {"bike_id": "c59d9282278994d3f1d98be2fe09c7fa", "is_reserved": 0, "fusion_lon": 0.0, "lat": 38.9232325, "is_disabled": 0, "name": "c59d9282278994d3f1d98be2fe09c7fa", "fusion_lat": 0.0, "rental_uris": {"ios": "https://dc.lft.to/lastmile_qr_scan", "android": "https://dc.lft.to/lastmile_qr_scan"}, "lon": -77.02975033333334, "type": "electric_scooter"}, {"bike_id": "c018319a89c49dca156ba92d3b40a6b9", "is_reserved": 0, "fusion_lon": 0.0, "lat": 38.95638966666667, "is_disabled": 0, "name": "c018319a89c49dca156ba92d3b40a6b9", "fusion_lat": 0.0, "rental_uris": {"ios": "https://dc.lft.to/lastmile_qr_scan", "android": "https://dc.lft.to/lastmile_qr_scan"}, "lon": -76.997975, "type": "electric_scooter"}, {"bike_id": "af5361fe9ad77918725349c15ca25c35", "is_reserved": 0, "fusion_lon": 0.0, "lat": 38.920105, "is_disabled": 0, "name": "af5361fe9ad77918725349c15ca25c35", "fusion_lat": 0.0, "rental_uris": {"ios": "https://dc.lft.to/lastmile_qr_scan", "android": "https://dc.lft.to/lastmile_qr_scan"}, "lon": -77.02509666666667, "type": "electric_scooter"}, {"bike_id": "216b7c9581b4a797b88eccbbae8d4685", "is_reserved": 0, "fusion_lon": 0.0, "lat": 38.8874465, "is_disabled": 0, "name": "216b7c9581b4a797b88eccbbae8d4685", "fusion_lat": 0.0, "rental_uris": {"ios": "https://dc.lft.to/lastmile_qr_scan", "android": "https://dc.lft.to/lastmile_qr_scan"}, "lon": -77.02022783333334, "type": "electric_scooter"}, {"bike_id": "fbe40b4596a3e37168eeced52646f276", "is_reserved": 0, "fusion_lon": 0.0, "lat": 38.935209666666665, "is_disabled": 0, "name": "fbe40b4596a3e37168eeced52646f276", "fusion_lat": 0.0, "rental_uris": {"ios": "https://dc.lft.to/lastmile_qr_scan", "android": "https://dc.lft.to/lastmile_qr_scan"}, "lon": -77.023819, "type": "electric_scooter"}, {"bike_id": "ead9e848d3bf86415bfd14f3cdbefefb", "is_reserved": 0, "fusion_lon": 0.0, "lat": 38.99149583333333, "is_disabled": 0, "name": "ead9e848d3bf86415bfd14f3cdbefefb", "fusion_lat": 0.0, "rental_uris": {"ios": "https://dc.lft.to/lastmile_qr_scan", "android": "https://dc.lft.to/lastmile_qr_scan"}, "lon": -77.04741683333333, "type": "electric_scooter"}, {"bike_id": "01d7800baf51a21582e4a460b186d22c", "is_reserved": 0, "fusion_lon": 0.0, "lat": 38.888622, "is_disabled": 0, "name": "01d7800baf51a21582e4a460b186d22c", "fusion_lat": 0.0, "rental_uris": {"ios": "https://dc.lft.to/lastmile_qr_scan", "android": "https://dc.lft.to/lastmile_qr_scan"}, "lon": -77.04009683333334, "type": "electric_bike"}, {"bike_id": "d32260e7f97b29a60131b707089d0078", "is_reserved": 0, "fusion_lon": 0.0, "lat": 38.89239416666667, "is_disabled": 0, "name": "d32260e7f97b29a60131b707089d0078", "fusion_lat": 0.0, "rental_uris": {"ios": "https://dc.lft.to/lastmile_qr_scan", "android": "https://dc.lft.to/lastmile_qr_scan"}, "lon": -77.03960833333333, "type": "electric_scooter"}, {"bike_id": "f4c82483251ff545a4ae3862409afa4c", "is_reserved": 0, "fusion_lon": 0.0, "lat": 38.902498, "is_disabled": 0, "name": "f4c82483251ff545a4ae3862409afa4c", "fusion_lat": 0.0, "rental_uris": {"ios": "https://dc.lft.to/lastmile_qr_scan", "android": "https://dc.lft.to/lastmile_qr_scan"}, "lon": -77.028128, "type": "electric_scooter"}, {"bike_id": "571f32f152e19df933f728fd0fedb895", "is_reserved": 0, "fusion_lon": 0.0, "lat": 38.90849766666667, "is_disabled": 0, "name": "571f32f152e19df933f728fd0fedb895", "fusion_lat": 0.0, "rental_uris": {"ios": "https://dc.lft.to/lastmile_qr_scan", "android": "https://dc.lft.to/lastmile_qr_scan"}, "lon": -77.08087283333333, "type": "electric_bike"}, {"bike_id": "20bac0de7fe71c599635a31cb88638fe", "is_reserved": 0, "fusion_lon": 0.0, "lat": 38.883593166666664, "is_disabled": 0, "name": "20bac0de7fe71c599635a31cb88638fe", "fusion_lat": 0.0, "rental_uris": {"ios": "https://dc.lft.to/lastmile_qr_scan", "android": "https://dc.lft.to/lastmile_qr_scan"}, "lon": -76.99533883333334, "type": "electric_scooter"}, {"bike_id": "7fa48f227edcea5b71d5b84d40aa7ee0", "is_reserved": 0, "fusion_lon": 0.0, "lat": 38.8823055, "is_disabled": 0, "name": "7fa48f227edcea5b71d5b84d40aa7ee0", "fusion_lat": 0.0, "rental_uris": {"ios": "https://dc.lft.to/lastmile_qr_scan", "android": "https://dc.lft.to/lastmile_qr_scan"}, "lon": -76.9909435, "type": "electric_scooter"}, {"bike_id": "bbc5377d4699014c2bf0c3fa659e0df3", "is_reserved": 0, "fusion_lon": 0.0, "lat": 38.96018, "is_disabled": 0, "name": "bbc5377d4699014c2bf0c3fa659e0df3", "fusion_lat": 0.0, "rental_uris": {"ios": "https://dc.lft.to/lastmile_qr_scan", "android": "https://dc.lft.to/lastmile_qr_scan"}, "lon": -77.01732633333333, "type": "electric_bike"}, {"bike_id": "a3c9c8c0bd4c8f1c20e58e6027a8a8ae", "is_reserved": 0, "fusion_lon": 0.0, "lat": 38.9198605, "is_disabled": 0, "name": "a3c9c8c0bd4c8f1c20e58e6027a8a8ae", "fusion_lat": 0.0, "rental_uris": {"ios": "https://dc.lft.to/lastmile_qr_scan", "android": "https://dc.lft.to/lastmile_qr_scan"}, "lon": -76.97311083333334, "type": "electric_scooter"}, {"bike_id": "c6a4cb9b4733feeb5e94b763e6a828d8", "is_reserved": 0, "fusion_lon": 0.0, "lat": 38.886593166666664, "is_disabled": 0, "name": "c6a4cb9b4733feeb5e94b763e6a828d8", "fusion_lat": 0.0, "rental_uris": {"ios": "https://dc.lft.to/lastmile_qr_scan", "android": "https://dc.lft.to/lastmile_qr_scan"}, "lon": -77.001627, "type": "electric_bike"}, {"bike_id": "fab47a8208dffd27ce2cfbea0f058347", "is_reserved": 0, "fusion_lon": 0.0, "lat": 38.96169866666666, "is_disabled": 0, "name": "fab47a8208dffd27ce2cfbea0f058347", "fusion_lat": 0.0, "rental_uris": {"ios": "https://dc.lft.to/lastmile_qr_scan", "android": "https://dc.lft.to/lastmile_qr_scan"}, "lon": -76.99592016666666, "type": "electric_bike"}, {"bike_id": "fa1ecc242e81180ac8b11c5ad87593d0", "is_reserved": 0, "fusion_lon": 0.0, "lat": 38.934368, "is_disabled": 0, "name": "fa1ecc242e81180ac8b11c5ad87593d0", "fusion_lat": 0.0, "rental_uris": {"ios": "https://dc.lft.to/lastmile_qr_scan", "android": "https://dc.lft.to/lastmile_qr_scan"}, "lon": -77.03441066666667, "type": "electric_scooter"}, {"bike_id": "35b50ba47376c297265956b593a1887b", "is_reserved": 0, "fusion_lon": 0.0, "lat": 38.8822315, "is_disabled": 0, "name": "35b50ba47376c297265956b593a1887b", "fusion_lat": 0.0, "rental_uris": {"ios": "https://dc.lft.to/lastmile_qr_scan", "android": "https://dc.lft.to/lastmile_qr_scan"}, "lon": -76.92665333333333, "type": "electric_scooter"}, {"bike_id": "d3b8f17acca1fc28ce2b5fe857264ae3", "is_reserved": 0, "fusion_lon": 0.0, "lat": 38.898779833333336, "is_disabled": 0, "name": "d3b8f17acca1fc28ce2b5fe857264ae3", "fusion_lat": 0.0, "rental_uris": {"ios": "https://dc.lft.to/lastmile_qr_scan", "android": "https://dc.lft.to/lastmile_qr_scan"}, "lon": -76.93162866666667, "type": "electric_scooter"}, {"bike_id": "9b300fe2d7c0744a7887feb6614e6717", "is_reserved": 0, "fusion_lon": 0.0, "lat": 38.9249285, "is_disabled": 0, "name": "9b300fe2d7c0744a7887feb6614e6717", "fusion_lat": 0.0, "rental_uris": {"ios": "https://dc.lft.to/lastmile_qr_scan", "android": "https://dc.lft.to/lastmile_qr_scan"}, "lon": -77.00893516666666, "type": "electric_scooter"}, {"bike_id": "20d3bfd2872a95d7f3dfb3af4557b3c1", "is_reserved": 0, "fusion_lon": 0.0, "lat": 38.900287166666665, "is_disabled": 0, "name": "20d3bfd2872a95d7f3dfb3af4557b3c1", "fusion_lat": 0.0, "rental_uris": {"ios": "https://dc.lft.to/lastmile_qr_scan", "android": "https://dc.lft.to/lastmile_qr_scan"}, "lon": -76.99875083333333, "type": "electric_scooter"}, {"bike_id": "729b9715ccebf9a8c902e67e25b90dfc", "is_reserved": 0, "fusion_lon": 0.0, "lat": 38.9051815, "is_disabled": 0, "name": "729b9715ccebf9a8c902e67e25b90dfc", "fusion_lat": 0.0, "rental_uris": {"ios": "https://dc.lft.to/lastmile_qr_scan", "android": "https://dc.lft.to/lastmile_qr_scan"}, "lon": -77.04360666666666, "type": "electric_scooter"}, {"bike_id": "a3ee8c21a5120b7f70d22ab7c4e3d203", "is_reserved": 0, "fusion_lon": 0.0, "lat": 38.892176666666664, "is_disabled": 0, "name": "a3ee8c21a5120b7f70d22ab7c4e3d203", "fusion_lat": 0.0, "rental_uris": {"ios": "https://dc.lft.to/lastmile_qr_scan", "android": "https://dc.lft.to/lastmile_qr_scan"}, "lon": -77.02447316666667, "type": "electric_scooter"}, {"bike_id": "b5d5362a5988304a5815d5d52be5c67e", "is_reserved": 0, "fusion_lon": 0.0, "lat": 38.901174166666664, "is_disabled": 0, "name": "b5d5362a5988304a5815d5d52be5c67e", "fusion_lat": 0.0, "rental_uris": {"ios": "https://dc.lft.to/lastmile_qr_scan", "android": "https://dc.lft.to/lastmile_qr_scan"}, "lon": -77.049996, "type": "electric_scooter"}, {"bike_id": "b1c090729cf816140f02ec61607df2fd", "is_reserved": 0, "fusion_lon": 0.0, "lat": 38.942247, "is_disabled": 0, "name": "b1c090729cf816140f02ec61607df2fd", "fusion_lat": 0.0, "rental_uris": {"ios": "https://dc.lft.to/lastmile_qr_scan", "android": "https://dc.lft.to/lastmile_qr_scan"}, "lon": -77.01536316666666, "type": "electric_scooter"}, {"bike_id": "2ce5d2eeb07b2fcecd2f07cf851e2793", "is_reserved": 0, "fusion_lon": 0.0, "lat": 38.904835166666665, "is_disabled": 0, "name": "2ce5d2eeb07b2fcecd2f07cf851e2793", "fusion_lat": 0.0, "rental_uris": {"ios": "https://dc.lft.to/lastmile_qr_scan", "android": "https://dc.lft.to/lastmile_qr_scan"}, "lon": -77.06005366666666, "type": "electric_scooter"}, {"bike_id": "031366f516761b071b059232fe8debc3", "is_reserved": 0, "fusion_lon": 0.0, "lat": 39.03880316666667, "is_disabled": 0, "name": "031366f516761b071b059232fe8debc3", "fusion_lat": 0.0, "rental_uris": {"ios": "https://dc.lft.to/lastmile_qr_scan", "android": "https://dc.lft.to/lastmile_qr_scan"}, "lon": -76.9904595, "type": "electric_bike"}, {"bike_id": "ab908643af9b4ded85df0b585da1a08c", "is_reserved": 0, "fusion_lon": 0.0, "lat": 38.89759466666667, "is_disabled": 0, "name": "ab908643af9b4ded85df0b585da1a08c", "fusion_lat": 0.0, "rental_uris": {"ios": "https://dc.lft.to/lastmile_qr_scan", "android": "https://dc.lft.to/lastmile_qr_scan"}, "lon": -76.98554966666667, "type": "electric_scooter"}, {"bike_id": "d714d73ae0a147319818836515a0d5a2", "is_reserved": 0, "fusion_lon": 0.0, "lat": 38.85802233333333, "is_disabled": 0, "name": "d714d73ae0a147319818836515a0d5a2", "fusion_lat": 0.0, "rental_uris": {"ios": "https://dc.lft.to/lastmile_qr_scan", "android": "https://dc.lft.to/lastmile_qr_scan"}, "lon": -76.98659216666667, "type": "electric_scooter"}, {"bike_id": "c65afb840bb4e988a1547f3e7ecb39e8", "is_reserved": 0, "fusion_lon": 0.0, "lat": 38.94435383333333, "is_disabled": 0, "name": "c65afb840bb4e988a1547f3e7ecb39e8", "fusion_lat": 0.0, "rental_uris": {"ios": "https://dc.lft.to/lastmile_qr_scan", "android": "https://dc.lft.to/lastmile_qr_scan"}, "lon": -77.06355433333333, "type": "electric_scooter"}, {"bike_id": "4c487dce29249921dffd3f6d42833b4c", "is_reserved": 0, "fusion_lon": 0.0, "lat": 38.887634, "is_disabled": 0, "name": "4c487dce29249921dffd3f6d42833b4c", "fusion_lat": 0.0, "rental_uris": {"ios": "https://dc.lft.to/lastmile_qr_scan", "android": "https://dc.lft.to/lastmile_qr_scan"}, "lon": -77.03014066666667, "type": "electric_scooter"}, {"bike_id": "1ca6032822810893338c60b45eca1cdd", "is_reserved": 0, "fusion_lon": 0.0, "lat": 38.921183666666664, "is_disabled": 0, "name": "1ca6032822810893338c60b45eca1cdd", "fusion_lat": 0.0, "rental_uris": {"ios": "https://dc.lft.to/lastmile_qr_scan", "android": "https://dc.lft.to/lastmile_qr_scan"}, "lon": -77.03661266666667, "type": "electric_scooter"}, {"bike_id": "bd5febdb6117ed5ef5962b5ecb525cae", "is_reserved": 0, "fusion_lon": 0.0, "lat": 38.89217766666667, "is_disabled": 0, "name": "bd5febdb6117ed5ef5962b5ecb525cae", "fusion_lat": 0.0, "rental_uris": {"ios": "https://dc.lft.to/lastmile_qr_scan", "android": "https://dc.lft.to/lastmile_qr_scan"}, "lon": -77.0433685, "type": "electric_scooter"}, {"bike_id": "92bc308dff02091ff1c8f2f1230052bc", "is_reserved": 0, "fusion_lon": 0.0, "lat": 38.901836833333334, "is_disabled": 0, "name": "92bc308dff02091ff1c8f2f1230052bc", "fusion_lat": 0.0, "rental_uris": {"ios": "https://dc.lft.to/lastmile_qr_scan", "android": "https://dc.lft.to/lastmile_qr_scan"}, "lon": -76.98078583333333, "type": "electric_scooter"}, {"bike_id": "9e43c693b0763e09715ceff8aae91403", "is_reserved": 0, "fusion_lon": 0.0, "lat": 38.91538083333333, "is_disabled": 0, "name": "9e43c693b0763e09715ceff8aae91403", "fusion_lat": 0.0, "rental_uris": {"ios": "https://dc.lft.to/lastmile_qr_scan", "android": "https://dc.lft.to/lastmile_qr_scan"}, "lon": -77.03206333333333, "type": "electric_scooter"}, {"bike_id": "0186b61ac833032e55d70e532f811b25", "is_reserved": 0, "fusion_lon": 0.0, "lat": 38.903794166666664, "is_disabled": 0, "name": "0186b61ac833032e55d70e532f811b25", "fusion_lat": 0.0, "rental_uris": {"ios": "https://dc.lft.to/lastmile_qr_scan", "android": "https://dc.lft.to/lastmile_qr_scan"}, "lon": -77.01604283333333, "type": "electric_scooter"}, {"bike_id": "5660262acd557488ed8f73ae3a23a8d5", "is_reserved": 0, "fusion_lon": 0.0, "lat": 38.921122833333335, "is_disabled": 0, "name": "5660262acd557488ed8f73ae3a23a8d5", "fusion_lat": 0.0, "rental_uris": {"ios": "https://dc.lft.to/lastmile_qr_scan", "android": "https://dc.lft.to/lastmile_qr_scan"}, "lon": -77.01785133333334, "type": "electric_scooter"}, {"bike_id": "7bd114deab20cdae263e281d3897f728", "is_reserved": 0, "fusion_lon": 0.0, "lat": 38.87884433333333, "is_disabled": 0, "name": "7bd114deab20cdae263e281d3897f728", "fusion_lat": 0.0, "rental_uris": {"ios": "https://dc.lft.to/lastmile_qr_scan", "android": "https://dc.lft.to/lastmile_qr_scan"}, "lon": -76.9915285, "type": "electric_scooter"}, {"bike_id": "24569fc7da4f1a1095d3ec5f68d452d6", "is_reserved": 0, "fusion_lon": 0.0, "lat": 38.9203905, "is_disabled": 0, "name": "24569fc7da4f1a1095d3ec5f68d452d6", "fusion_lat": 0.0, "rental_uris": {"ios": "https://dc.lft.to/lastmile_qr_scan", "android": "https://dc.lft.to/lastmile_qr_scan"}, "lon": -76.9994285, "type": "electric_scooter"}, {"bike_id": "5c411f5b545cbb71b64f9355132ed3f4", "is_reserved": 0, "fusion_lon": 0.0, "lat": 38.91428, "is_disabled": 0, "name": "5c411f5b545cbb71b64f9355132ed3f4", "fusion_lat": 0.0, "rental_uris": {"ios": "https://dc.lft.to/lastmile_qr_scan", "android": "https://dc.lft.to/lastmile_qr_scan"}, "lon": -77.03213516666666, "type": "electric_scooter"}, {"bike_id": "27fdc2805eb35ab55927f18eeaf8e3aa", "is_reserved": 0, "fusion_lon": 0.0, "lat": 38.9235925, "is_disabled": 0, "name": "27fdc2805eb35ab55927f18eeaf8e3aa", "fusion_lat": 0.0, "rental_uris": {"ios": "https://dc.lft.to/lastmile_qr_scan", "android": "https://dc.lft.to/lastmile_qr_scan"}, "lon": -77.05136883333333, "type": "electric_scooter"}, {"bike_id": "ff34a0ea635153878dfb213b9feca134", "is_reserved": 0, "fusion_lon": 0.0, "lat": 38.87243133333333, "is_disabled": 0, "name": "ff34a0ea635153878dfb213b9feca134", "fusion_lat": 0.0, "rental_uris": {"ios": "https://dc.lft.to/lastmile_qr_scan", "android": "https://dc.lft.to/lastmile_qr_scan"}, "lon": -76.97729183333334, "type": "electric_scooter"}, {"bike_id": "61c5f4c2c0a248d58106aec30b1f21ae", "is_reserved": 0, "fusion_lon": 0.0, "lat": 38.90521966666667, "is_disabled": 0, "name": "61c5f4c2c0a248d58106aec30b1f21ae", "fusion_lat": 0.0, "rental_uris": {"ios": "https://dc.lft.to/lastmile_qr_scan", "android": "https://dc.lft.to/lastmile_qr_scan"}, "lon": -77.0503275, "type": "electric_scooter"}, {"bike_id": "d0a9c0d64b52bb3c6eadda64b5c7b34f", "is_reserved": 0, "fusion_lon": 0.0, "lat": 38.968196666666664, "is_disabled": 0, "name": "d0a9c0d64b52bb3c6eadda64b5c7b34f", "fusion_lat": 0.0, "rental_uris": {"ios": "https://dc.lft.to/lastmile_qr_scan", "android": "https://dc.lft.to/lastmile_qr_scan"}, "lon": -77.0178905, "type": "electric_scooter"}, {"bike_id": "a7c86d8abcedfa832901c2a70948cd7b", "is_reserved": 0, "fusion_lon": 0.0, "lat": 38.9249005, "is_disabled": 0, "name": "a7c86d8abcedfa832901c2a70948cd7b", "fusion_lat": 0.0, "rental_uris": {"ios": "https://dc.lft.to/lastmile_qr_scan", "android": "https://dc.lft.to/lastmile_qr_scan"}, "lon": -77.02277916666667, "type": "electric_scooter"}, {"bike_id": "dcdcd0ce2cc9c97a81df88e41fc6ddeb", "is_reserved": 0, "fusion_lon": 0.0, "lat": 38.86955066666667, "is_disabled": 0, "name": "dcdcd0ce2cc9c97a81df88e41fc6ddeb", "fusion_lat": 0.0, "rental_uris": {"ios": "https://dc.lft.to/lastmile_qr_scan", "android": "https://dc.lft.to/lastmile_qr_scan"}, "lon": -77.01379866666667, "type": "electric_scooter"}, {"bike_id": "e984192141795bf0e9158b81b4f21328", "is_reserved": 0, "fusion_lon": 0.0, "lat": 38.90256216666667, "is_disabled": 0, "name": "e984192141795bf0e9158b81b4f21328", "fusion_lat": 0.0, "rental_uris": {"ios": "https://dc.lft.to/lastmile_qr_scan", "android": "https://dc.lft.to/lastmile_qr_scan"}, "lon": -77.06017583333333, "type": "electric_scooter"}, {"bike_id": "86021960fbcecadfcca5b7a1409c7509", "is_reserved": 0, "fusion_lon": 0.0, "lat": 38.90459466666667, "is_disabled": 0, "name": "86021960fbcecadfcca5b7a1409c7509", "fusion_lat": 0.0, "rental_uris": {"ios": "https://dc.lft.to/lastmile_qr_scan", "android": "https://dc.lft.to/lastmile_qr_scan"}, "lon": -76.9950295, "type": "electric_scooter"}, {"bike_id": "70ed6a2c52b4daec6a5fe840efff4a9e", "is_reserved": 0, "fusion_lon": 0.0, "lat": 38.87453516666667, "is_disabled": 0, "name": "70ed6a2c52b4daec6a5fe840efff4a9e", "fusion_lat": 0.0, "rental_uris": {"ios": "https://dc.lft.to/lastmile_qr_scan", "android": "https://dc.lft.to/lastmile_qr_scan"}, "lon": -77.00313833333334, "type": "electric_scooter"}, {"bike_id": "58b8f28362a052ce680fe11fd880f842", "is_reserved": 0, "fusion_lon": 0.0, "lat": 38.92373583333333, "is_disabled": 0, "name": "58b8f28362a052ce680fe11fd880f842", "fusion_lat": 0.0, "rental_uris": {"ios": "https://dc.lft.to/lastmile_qr_scan", "android": "https://dc.lft.to/lastmile_qr_scan"}, "lon": -77.0525745, "type": "electric_scooter"}, {"bike_id": "f314b8eb6876e04ba9c9f07171788f7d", "is_reserved": 0, "fusion_lon": 0.0, "lat": 38.9095285, "is_disabled": 0, "name": "f314b8eb6876e04ba9c9f07171788f7d", "fusion_lat": 0.0, "rental_uris": {"ios": "https://dc.lft.to/lastmile_qr_scan", "android": "https://dc.lft.to/lastmile_qr_scan"}, "lon": -77.0482785, "type": "electric_scooter"}, {"bike_id": "1cb60a17f0a7eb75848e01673a967722", "is_reserved": 0, "fusion_lon": 0.0, "lat": 38.9071375, "is_disabled": 0, "name": "1cb60a17f0a7eb75848e01673a967722", "fusion_lat": 0.0, "rental_uris": {"ios": "https://dc.lft.to/lastmile_qr_scan", "android": "https://dc.lft.to/lastmile_qr_scan"}, "lon": -76.99800183333333, "type": "electric_scooter"}, {"bike_id": "583aa4f9368449767dce34fa88527f05", "is_reserved": 0, "fusion_lon": 0.0, "lat": 38.93600133333333, "is_disabled": 0, "name": "583aa4f9368449767dce34fa88527f05", "fusion_lat": 0.0, "rental_uris": {"ios": "https://dc.lft.to/lastmile_qr_scan", "android": "https://dc.lft.to/lastmile_qr_scan"}, "lon": -77.023333, "type": "electric_scooter"}, {"bike_id": "8855efe2f960864e1563ddb6f2ec8b6d", "is_reserved": 0, "fusion_lon": 0.0, "lat": 38.88289133333333, "is_disabled": 0, "name": "8855efe2f960864e1563ddb6f2ec8b6d", "fusion_lat": 0.0, "rental_uris": {"ios": "https://dc.lft.to/lastmile_qr_scan", "android": "https://dc.lft.to/lastmile_qr_scan"}, "lon": -76.99148166666667, "type": "electric_scooter"}, {"bike_id": "449ccd3d060fcdc9a66678703df41edf", "is_reserved": 0, "fusion_lon": 0.0, "lat": 38.902757333333334, "is_disabled": 0, "name": "449ccd3d060fcdc9a66678703df41edf", "fusion_lat": 0.0, "rental_uris": {"ios": "https://dc.lft.to/lastmile_qr_scan", "android": "https://dc.lft.to/lastmile_qr_scan"}, "lon": -77.0411065, "type": "electric_scooter"}, {"bike_id": "7a5030780d0e32b2374ca6ee7985c112", "is_reserved": 0, "fusion_lon": 0.0, "lat": 38.858068333333335, "is_disabled": 0, "name": "7a5030780d0e32b2374ca6ee7985c112", "fusion_lat": 0.0, "rental_uris": {"ios": "https://dc.lft.to/lastmile_qr_scan", "android": "https://dc.lft.to/lastmile_qr_scan"}, "lon": -76.986566, "type": "electric_scooter"}, {"bike_id": "3ab7bde58d6fff401ef3a5879d8d5dab", "is_reserved": 0, "fusion_lon": 0.0, "lat": 38.934164333333335, "is_disabled": 0, "name": "3ab7bde58d6fff401ef3a5879d8d5dab", "fusion_lat": 0.0, "rental_uris": {"ios": "https://dc.lft.to/lastmile_qr_scan", "android": "https://dc.lft.to/lastmile_qr_scan"}, "lon": -77.03415416666667, "type": "electric_scooter"}, {"bike_id": "f4fc1590b05bb5e7e4f6d03c2f1395dd", "is_reserved": 0, "fusion_lon": 0.0, "lat": 38.903759666666666, "is_disabled": 0, "name": "f4fc1590b05bb5e7e4f6d03c2f1395dd", "fusion_lat": 0.0, "rental_uris": {"ios": "https://dc.lft.to/lastmile_qr_scan", "android": "https://dc.lft.to/lastmile_qr_scan"}, "lon": -77.03989483333334, "type": "electric_scooter"}, {"bike_id": "b2c0814af45b6749472a58349e67c584", "is_reserved": 0, "fusion_lon": 0.0, "lat": 38.89185, "is_disabled": 0, "name": "b2c0814af45b6749472a58349e67c584", "fusion_lat": 0.0, "rental_uris": {"ios": "https://dc.lft.to/lastmile_qr_scan", "android": "https://dc.lft.to/lastmile_qr_scan"}, "lon": -77.12265183333334, "type": "electric_bike"}, {"bike_id": "7d96bd7eafe708485f0d0bba8eac0f78", "is_reserved": 0, "fusion_lon": 0.0, "lat": 38.935114666666664, "is_disabled": 0, "name": "7d96bd7eafe708485f0d0bba8eac0f78", "fusion_lat": 0.0, "rental_uris": {"ios": "https://dc.lft.to/lastmile_qr_scan", "android": "https://dc.lft.to/lastmile_qr_scan"}, "lon": -77.05818916666666, "type": "electric_scooter"}, {"bike_id": "2741fa00aec8d9a18f91b2c4118dcb96", "is_reserved": 0, "fusion_lon": 0.0, "lat": 38.8902185, "is_disabled": 0, "name": "2741fa00aec8d9a18f91b2c4118dcb96", "fusion_lat": 0.0, "rental_uris": {"ios": "https://dc.lft.to/lastmile_qr_scan", "android": "https://dc.lft.to/lastmile_qr_scan"}, "lon": -76.94119483333333, "type": "electric_scooter"}, {"bike_id": "8d2dc769b568115fd724f4d19b85b930", "is_reserved": 0, "fusion_lon": 0.0, "lat": 38.924752166666664, "is_disabled": 0, "name": "8d2dc769b568115fd724f4d19b85b930", "fusion_lat": 0.0, "rental_uris": {"ios": "https://dc.lft.to/lastmile_qr_scan", "android": "https://dc.lft.to/lastmile_qr_scan"}, "lon": -77.05223783333334, "type": "electric_scooter"}, {"bike_id": "a566350221d92b405bb54a959039350b", "is_reserved": 0, "fusion_lon": 0.0, "lat": 38.94084216666667, "is_disabled": 0, "name": "a566350221d92b405bb54a959039350b", "fusion_lat": 0.0, "rental_uris": {"ios": "https://dc.lft.to/lastmile_qr_scan", "android": "https://dc.lft.to/lastmile_qr_scan"}, "lon": -77.02547333333334, "type": "electric_scooter"}, {"bike_id": "d97f95f276613feff19d0b6da5a005c2", "is_reserved": 0, "fusion_lon": 0.0, "lat": 38.92858566666666, "is_disabled": 0, "name": "d97f95f276613feff19d0b6da5a005c2", "fusion_lat": 0.0, "rental_uris": {"ios": "https://dc.lft.to/lastmile_qr_scan", "android": "https://dc.lft.to/lastmile_qr_scan"}, "lon": -77.0333625, "type": "electric_scooter"}, {"bike_id": "949133cfce049df26e342fec943101b1", "is_reserved": 0, "fusion_lon": 0.0, "lat": 38.9059865, "is_disabled": 0, "name": "949133cfce049df26e342fec943101b1", "fusion_lat": 0.0, "rental_uris": {"ios": "https://dc.lft.to/lastmile_qr_scan", "android": "https://dc.lft.to/lastmile_qr_scan"}, "lon": -77.03991416666666, "type": "electric_scooter"}, {"bike_id": "854c784533e64ab48d64d3ef64cb8fc8", "is_reserved": 0, "fusion_lon": 0.0, "lat": 38.919835, "is_disabled": 0, "name": "854c784533e64ab48d64d3ef64cb8fc8", "fusion_lat": 0.0, "rental_uris": {"ios": "https://dc.lft.to/lastmile_qr_scan", "android": "https://dc.lft.to/lastmile_qr_scan"}, "lon": -77.04163966666667, "type": "electric_scooter"}, {"bike_id": "2a3fd84410a54f062a63f4218ef4d7dd", "is_reserved": 0, "fusion_lon": 0.0, "lat": 38.90103516666667, "is_disabled": 0, "name": "2a3fd84410a54f062a63f4218ef4d7dd", "fusion_lat": 0.0, "rental_uris": {"ios": "https://dc.lft.to/lastmile_qr_scan", "android": "https://dc.lft.to/lastmile_qr_scan"}, "lon": -77.04372083333334, "type": "electric_scooter"}, {"bike_id": "1fabe37ff1b9e5f9c806a3f99257dcda", "is_reserved": 0, "fusion_lon": 0.0, "lat": 38.9124365, "is_disabled": 0, "name": "1fabe37ff1b9e5f9c806a3f99257dcda", "fusion_lat": 0.0, "rental_uris": {"ios": "https://dc.lft.to/lastmile_qr_scan", "android": "https://dc.lft.to/lastmile_qr_scan"}, "lon": -77.01620766666667, "type": "electric_scooter"}, {"bike_id": "836f681b34110085852d06818e23b508", "is_reserved": 0, "fusion_lon": 0.0, "lat": 38.911994666666665, "is_disabled": 0, "name": "836f681b34110085852d06818e23b508", "fusion_lat": 0.0, "rental_uris": {"ios": "https://dc.lft.to/lastmile_qr_scan", "android": "https://dc.lft.to/lastmile_qr_scan"}, "lon": -77.0488525, "type": "electric_scooter"}, {"bike_id": "d87f919153f5f3d38819a7733b1954c9", "is_reserved": 0, "fusion_lon": 0.0, "lat": 38.912128, "is_disabled": 0, "name": "d87f919153f5f3d38819a7733b1954c9", "fusion_lat": 0.0, "rental_uris": {"ios": "https://dc.lft.to/lastmile_qr_scan", "android": "https://dc.lft.to/lastmile_qr_scan"}, "lon": -77.0046075, "type": "electric_scooter"}, {"bike_id": "5608f9fab23cd85a2f592362caf6af50", "is_reserved": 0, "fusion_lon": 0.0, "lat": 38.90455933333333, "is_disabled": 0, "name": "5608f9fab23cd85a2f592362caf6af50", "fusion_lat": 0.0, "rental_uris": {"ios": "https://dc.lft.to/lastmile_qr_scan", "android": "https://dc.lft.to/lastmile_qr_scan"}, "lon": -77.03864083333333, "type": "electric_scooter"}, {"bike_id": "56f62dc19579f6625076b6120fc0ec94", "is_reserved": 0, "fusion_lon": 0.0, "lat": 38.919480666666665, "is_disabled": 0, "name": "56f62dc19579f6625076b6120fc0ec94", "fusion_lat": 0.0, "rental_uris": {"ios": "https://dc.lft.to/lastmile_qr_scan", "android": "https://dc.lft.to/lastmile_qr_scan"}, "lon": -77.04168683333333, "type": "electric_scooter"}, {"bike_id": "b66b0d5965f6df80af5a5ce206e39767", "is_reserved": 0, "fusion_lon": 0.0, "lat": 38.943884, "is_disabled": 0, "name": "b66b0d5965f6df80af5a5ce206e39767", "fusion_lat": 0.0, "rental_uris": {"ios": "https://dc.lft.to/lastmile_qr_scan", "android": "https://dc.lft.to/lastmile_qr_scan"}, "lon": -77.03899166666666, "type": "electric_scooter"}, {"bike_id": "7e78302b98b18c6335188a2b297f002a", "is_reserved": 0, "fusion_lon": 0.0, "lat": 38.91720983333333, "is_disabled": 0, "name": "7e78302b98b18c6335188a2b297f002a", "fusion_lat": 0.0, "rental_uris": {"ios": "https://dc.lft.to/lastmile_qr_scan", "android": "https://dc.lft.to/lastmile_qr_scan"}, "lon": -77.02510416666667, "type": "electric_scooter"}, {"bike_id": "10e62b405aeebf9e82f56943823c32dc", "is_reserved": 0, "fusion_lon": 0.0, "lat": 38.90713133333333, "is_disabled": 0, "name": "10e62b405aeebf9e82f56943823c32dc", "fusion_lat": 0.0, "rental_uris": {"ios": "https://dc.lft.to/lastmile_qr_scan", "android": "https://dc.lft.to/lastmile_qr_scan"}, "lon": -77.023301, "type": "electric_scooter"}, {"bike_id": "c9b5c534e8f0fbb57f21596bc2d154f5", "is_reserved": 0, "fusion_lon": 0.0, "lat": 38.924418, "is_disabled": 0, "name": "c9b5c534e8f0fbb57f21596bc2d154f5", "fusion_lat": 0.0, "rental_uris": {"ios": "https://dc.lft.to/lastmile_qr_scan", "android": "https://dc.lft.to/lastmile_qr_scan"}, "lon": -76.996672, "type": "electric_bike"}, {"bike_id": "aebfe42e87bf6677a625385a613edda3", "is_reserved": 0, "fusion_lon": 0.0, "lat": 38.89725033333333, "is_disabled": 0, "name": "aebfe42e87bf6677a625385a613edda3", "fusion_lat": 0.0, "rental_uris": {"ios": "https://dc.lft.to/lastmile_qr_scan", "android": "https://dc.lft.to/lastmile_qr_scan"}, "lon": -77.0312025, "type": "electric_scooter"}, {"bike_id": "f5949cf92796204085edb4f014e823a2", "is_reserved": 0, "fusion_lon": 0.0, "lat": 38.90861533333333, "is_disabled": 0, "name": "f5949cf92796204085edb4f014e823a2", "fusion_lat": 0.0, "rental_uris": {"ios": "https://dc.lft.to/lastmile_qr_scan", "android": "https://dc.lft.to/lastmile_qr_scan"}, "lon": -77.0450315, "type": "electric_scooter"}, {"bike_id": "075338a1359972afd6b297f1cf366853", "is_reserved": 0, "fusion_lon": 0.0, "lat": 38.904861833333335, "is_disabled": 0, "name": "075338a1359972afd6b297f1cf366853", "fusion_lat": 0.0, "rental_uris": {"ios": "https://dc.lft.to/lastmile_qr_scan", "android": "https://dc.lft.to/lastmile_qr_scan"}, "lon": -77.06016416666667, "type": "electric_scooter"}, {"bike_id": "237242f80155576405eb0b0893e9eaed", "is_reserved": 0, "fusion_lon": 0.0, "lat": 38.966149, "is_disabled": 0, "name": "237242f80155576405eb0b0893e9eaed", "fusion_lat": 0.0, "rental_uris": {"ios": "https://dc.lft.to/lastmile_qr_scan", "android": "https://dc.lft.to/lastmile_qr_scan"}, "lon": -77.03435, "type": "electric_bike"}, {"bike_id": "b09d363780afd881eac94a14ad024cd6", "is_reserved": 0, "fusion_lon": 0.0, "lat": 38.874771, "is_disabled": 0, "name": "b09d363780afd881eac94a14ad024cd6", "fusion_lat": 0.0, "rental_uris": {"ios": "https://dc.lft.to/lastmile_qr_scan", "android": "https://dc.lft.to/lastmile_qr_scan"}, "lon": -76.96532816666667, "type": "electric_bike"}, {"bike_id": "9115850bef4c7de3270830ca28404c04", "is_reserved": 0, "fusion_lon": 0.0, "lat": 38.903945, "is_disabled": 0, "name": "9115850bef4c7de3270830ca28404c04", "fusion_lat": 0.0, "rental_uris": {"ios": "https://dc.lft.to/lastmile_qr_scan", "android": "https://dc.lft.to/lastmile_qr_scan"}, "lon": -77.040007, "type": "electric_scooter"}, {"bike_id": "4e591b0b5f41d9703aac59aff8aaf1b8", "is_reserved": 0, "fusion_lon": 0.0, "lat": 38.90410133333334, "is_disabled": 0, "name": "4e591b0b5f41d9703aac59aff8aaf1b8", "fusion_lat": 0.0, "rental_uris": {"ios": "https://dc.lft.to/lastmile_qr_scan", "android": "https://dc.lft.to/lastmile_qr_scan"}, "lon": -77.0467435, "type": "electric_scooter"}, {"bike_id": "b4124dc59fb24973e1a914b7ce1204bc", "is_reserved": 0, "fusion_lon": 0.0, "lat": 38.928868, "is_disabled": 0, "name": "b4124dc59fb24973e1a914b7ce1204bc", "fusion_lat": 0.0, "rental_uris": {"ios": "https://dc.lft.to/lastmile_qr_scan", "android": "https://dc.lft.to/lastmile_qr_scan"}, "lon": -77.03330933333334, "type": "electric_scooter"}, {"bike_id": "3ba93a15077519b588696905217c8852", "is_reserved": 0, "fusion_lon": 0.0, "lat": 38.91690283333333, "is_disabled": 0, "name": "3ba93a15077519b588696905217c8852", "fusion_lat": 0.0, "rental_uris": {"ios": "https://dc.lft.to/lastmile_qr_scan", "android": "https://dc.lft.to/lastmile_qr_scan"}, "lon": -77.0348625, "type": "electric_scooter"}, {"bike_id": "2c094933c7007c4bc8fb2534195692eb", "is_reserved": 0, "fusion_lon": 0.0, "lat": 38.92408116666667, "is_disabled": 0, "name": "2c094933c7007c4bc8fb2534195692eb", "fusion_lat": 0.0, "rental_uris": {"ios": "https://dc.lft.to/lastmile_qr_scan", "android": "https://dc.lft.to/lastmile_qr_scan"}, "lon": -77.03546416666667, "type": "electric_scooter"}, {"bike_id": "66c0366c163e48d8ca870dfa27167713", "is_reserved": 0, "fusion_lon": 0.0, "lat": 38.96025866666667, "is_disabled": 0, "name": "66c0366c163e48d8ca870dfa27167713", "fusion_lat": 0.0, "rental_uris": {"ios": "https://dc.lft.to/lastmile_qr_scan", "android": "https://dc.lft.to/lastmile_qr_scan"}, "lon": -77.03384216666667, "type": "electric_bike"}, {"bike_id": "b09db9a19b4a6dea8a478c758409c04f", "is_reserved": 0, "fusion_lon": 0.0, "lat": 38.90992583333333, "is_disabled": 0, "name": "b09db9a19b4a6dea8a478c758409c04f", "fusion_lat": 0.0, "rental_uris": {"ios": "https://dc.lft.to/lastmile_qr_scan", "android": "https://dc.lft.to/lastmile_qr_scan"}, "lon": -77.020958, "type": "electric_scooter"}, {"bike_id": "517c905aece18ac7e3c6f8c336706a7e", "is_reserved": 0, "fusion_lon": 0.0, "lat": 38.923770166666664, "is_disabled": 0, "name": "517c905aece18ac7e3c6f8c336706a7e", "fusion_lat": 0.0, "rental_uris": {"ios": "https://dc.lft.to/lastmile_qr_scan", "android": "https://dc.lft.to/lastmile_qr_scan"}, "lon": -77.02761166666667, "type": "electric_scooter"}, {"bike_id": "3b744ea78e33026879b2405ac72c26bc", "is_reserved": 0, "fusion_lon": 0.0, "lat": 38.92250583333333, "is_disabled": 0, "name": "3b744ea78e33026879b2405ac72c26bc", "fusion_lat": 0.0, "rental_uris": {"ios": "https://dc.lft.to/lastmile_qr_scan", "android": "https://dc.lft.to/lastmile_qr_scan"}, "lon": -77.02984716666667, "type": "electric_scooter"}, {"bike_id": "6d36c5becd893e306a75260c3cb18dd4", "is_reserved": 0, "fusion_lon": 0.0, "lat": 38.892611, "is_disabled": 0, "name": "6d36c5becd893e306a75260c3cb18dd4", "fusion_lat": 0.0, "rental_uris": {"ios": "https://dc.lft.to/lastmile_qr_scan", "android": "https://dc.lft.to/lastmile_qr_scan"}, "lon": -76.94925283333333, "type": "electric_scooter"}, {"bike_id": "4a83b3003738e7b0598d31b1d67e8789", "is_reserved": 0, "fusion_lon": 0.0, "lat": 38.90812116666667, "is_disabled": 0, "name": "4a83b3003738e7b0598d31b1d67e8789", "fusion_lat": 0.0, "rental_uris": {"ios": "https://dc.lft.to/lastmile_qr_scan", "android": "https://dc.lft.to/lastmile_qr_scan"}, "lon": -76.99854500000001, "type": "electric_scooter"}, {"bike_id": "ba2a52a627595daf6f9884454c698439", "is_reserved": 0, "fusion_lon": 0.0, "lat": 38.9206755, "is_disabled": 0, "name": "ba2a52a627595daf6f9884454c698439", "fusion_lat": 0.0, "rental_uris": {"ios": "https://dc.lft.to/lastmile_qr_scan", "android": "https://dc.lft.to/lastmile_qr_scan"}, "lon": -77.04555066666667, "type": "electric_scooter"}, {"bike_id": "cceb9efdf7668f144151841adf0c7921", "is_reserved": 0, "fusion_lon": 0.0, "lat": 38.904702, "is_disabled": 0, "name": "cceb9efdf7668f144151841adf0c7921", "fusion_lat": 0.0, "rental_uris": {"ios": "https://dc.lft.to/lastmile_qr_scan", "android": "https://dc.lft.to/lastmile_qr_scan"}, "lon": -76.9891115, "type": "electric_scooter"}, {"bike_id": "8d11545c6404cb8711f10faf3d785a72", "is_reserved": 0, "fusion_lon": 0.0, "lat": 38.9089275, "is_disabled": 0, "name": "8d11545c6404cb8711f10faf3d785a72", "fusion_lat": 0.0, "rental_uris": {"ios": "https://dc.lft.to/lastmile_qr_scan", "android": "https://dc.lft.to/lastmile_qr_scan"}, "lon": -77.086271, "type": "electric_scooter"}, {"bike_id": "91cb58a317e1cbbb9b3ed63f2de99ad2", "is_reserved": 0, "fusion_lon": 0.0, "lat": 38.90288816666666, "is_disabled": 0, "name": "91cb58a317e1cbbb9b3ed63f2de99ad2", "fusion_lat": 0.0, "rental_uris": {"ios": "https://dc.lft.to/lastmile_qr_scan", "android": "https://dc.lft.to/lastmile_qr_scan"}, "lon": -77.03675833333334, "type": "electric_scooter"}, {"bike_id": "67e028dcd4083b435fb075c742aacec8", "is_reserved": 0, "fusion_lon": 0.0, "lat": 38.958820833333334, "is_disabled": 0, "name": "67e028dcd4083b435fb075c742aacec8", "fusion_lat": 0.0, "rental_uris": {"ios": "https://dc.lft.to/lastmile_qr_scan", "android": "https://dc.lft.to/lastmile_qr_scan"}, "lon": -76.97052083333334, "type": "electric_bike"}, {"bike_id": "6d2610bc662c688c094ffd09a2683dc0", "is_reserved": 0, "fusion_lon": 0.0, "lat": 38.906718, "is_disabled": 0, "name": "6d2610bc662c688c094ffd09a2683dc0", "fusion_lat": 0.0, "rental_uris": {"ios": "https://dc.lft.to/lastmile_qr_scan", "android": "https://dc.lft.to/lastmile_qr_scan"}, "lon": -77.0447665, "type": "electric_scooter"}, {"bike_id": "cd5dab3bc4593c0d8e2fa0afd556e04e", "is_reserved": 0, "fusion_lon": 0.0, "lat": 38.8837385, "is_disabled": 0, "name": "cd5dab3bc4593c0d8e2fa0afd556e04e", "fusion_lat": 0.0, "rental_uris": {"ios": "https://dc.lft.to/lastmile_qr_scan", "android": "https://dc.lft.to/lastmile_qr_scan"}, "lon": -76.94942516666667, "type": "electric_scooter"}, {"bike_id": "20510f340e75e010a55ca2c1e3d7e77a", "is_reserved": 0, "fusion_lon": 0.0, "lat": 38.892266666666664, "is_disabled": 0, "name": "20510f340e75e010a55ca2c1e3d7e77a", "fusion_lat": 0.0, "rental_uris": {"ios": "https://dc.lft.to/lastmile_qr_scan", "android": "https://dc.lft.to/lastmile_qr_scan"}, "lon": -77.032066, "type": "electric_scooter"}, {"bike_id": "bc8f41bb2d0c3e24306bc7c361cb0f3f", "is_reserved": 0, "fusion_lon": 0.0, "lat": 38.92211733333333, "is_disabled": 0, "name": "bc8f41bb2d0c3e24306bc7c361cb0f3f", "fusion_lat": 0.0, "rental_uris": {"ios": "https://dc.lft.to/lastmile_qr_scan", "android": "https://dc.lft.to/lastmile_qr_scan"}, "lon": -77.04263483333334, "type": "electric_scooter"}, {"bike_id": "1f9e54e484ef0751ca9d85a44eb416d0", "is_reserved": 0, "fusion_lon": 0.0, "lat": 38.926578, "is_disabled": 0, "name": "1f9e54e484ef0751ca9d85a44eb416d0", "fusion_lat": 0.0, "rental_uris": {"ios": "https://dc.lft.to/lastmile_qr_scan", "android": "https://dc.lft.to/lastmile_qr_scan"}, "lon": -77.0152585, "type": "electric_scooter"}, {"bike_id": "403e0da6270ae9bc77e141835e96673e", "is_reserved": 0, "fusion_lon": 0.0, "lat": 38.90651533333333, "is_disabled": 0, "name": "403e0da6270ae9bc77e141835e96673e", "fusion_lat": 0.0, "rental_uris": {"ios": "https://dc.lft.to/lastmile_qr_scan", "android": "https://dc.lft.to/lastmile_qr_scan"}, "lon": -77.04499416666667, "type": "electric_scooter"}, {"bike_id": "f91bde407fa2aa7510177177f6c725a5", "is_reserved": 0, "fusion_lon": 0.0, "lat": 38.824414833333336, "is_disabled": 0, "name": "f91bde407fa2aa7510177177f6c725a5", "fusion_lat": 0.0, "rental_uris": {"ios": "https://dc.lft.to/lastmile_qr_scan", "android": "https://dc.lft.to/lastmile_qr_scan"}, "lon": -77.070488, "type": "electric_bike"}, {"bike_id": "0751faf8fd2943f27972330030d93b1a", "is_reserved": 0, "fusion_lon": 0.0, "lat": 38.91766166666667, "is_disabled": 0, "name": "0751faf8fd2943f27972330030d93b1a", "fusion_lat": 0.0, "rental_uris": {"ios": "https://dc.lft.to/lastmile_qr_scan", "android": "https://dc.lft.to/lastmile_qr_scan"}, "lon": -77.04173433333334, "type": "electric_scooter"}, {"bike_id": "4f7da6b878845799aa80f5b2abab8c05", "is_reserved": 0, "fusion_lon": 0.0, "lat": 38.897429333333335, "is_disabled": 0, "name": "4f7da6b878845799aa80f5b2abab8c05", "fusion_lat": 0.0, "rental_uris": {"ios": "https://dc.lft.to/lastmile_qr_scan", "android": "https://dc.lft.to/lastmile_qr_scan"}, "lon": -77.00763616666667, "type": "electric_scooter"}, {"bike_id": "511a31a08503af7f8024e8cc0e9b3bc5", "is_reserved": 0, "fusion_lon": 0.0, "lat": 38.91195333333334, "is_disabled": 0, "name": "511a31a08503af7f8024e8cc0e9b3bc5", "fusion_lat": 0.0, "rental_uris": {"ios": "https://dc.lft.to/lastmile_qr_scan", "android": "https://dc.lft.to/lastmile_qr_scan"}, "lon": -77.04896683333334, "type": "electric_scooter"}, {"bike_id": "2be947bf37c917f145a80cc8b519af02", "is_reserved": 0, "fusion_lon": 0.0, "lat": 38.880021166666666, "is_disabled": 0, "name": "2be947bf37c917f145a80cc8b519af02", "fusion_lat": 0.0, "rental_uris": {"ios": "https://dc.lft.to/lastmile_qr_scan", "android": "https://dc.lft.to/lastmile_qr_scan"}, "lon": -76.91597216666666, "type": "electric_bike"}, {"bike_id": "c23fb92bb48fc33b289e89fbaf54bb50", "is_reserved": 0, "fusion_lon": 0.0, "lat": 38.91671083333333, "is_disabled": 0, "name": "c23fb92bb48fc33b289e89fbaf54bb50", "fusion_lat": 0.0, "rental_uris": {"ios": "https://dc.lft.to/lastmile_qr_scan", "android": "https://dc.lft.to/lastmile_qr_scan"}, "lon": -77.03215066666667, "type": "electric_scooter"}, {"bike_id": "9d8b06becb7d3bd78e2185fcda685cbf", "is_reserved": 0, "fusion_lon": 0.0, "lat": 38.917724666666665, "is_disabled": 0, "name": "9d8b06becb7d3bd78e2185fcda685cbf", "fusion_lat": 0.0, "rental_uris": {"ios": "https://dc.lft.to/lastmile_qr_scan", "android": "https://dc.lft.to/lastmile_qr_scan"}, "lon": -77.041007, "type": "electric_scooter"}, {"bike_id": "759c0153d34e8e16b1602bbfbf9845ed", "is_reserved": 0, "fusion_lon": 0.0, "lat": 38.842897, "is_disabled": 0, "name": "759c0153d34e8e16b1602bbfbf9845ed", "fusion_lat": 0.0, "rental_uris": {"ios": "https://dc.lft.to/lastmile_qr_scan", "android": "https://dc.lft.to/lastmile_qr_scan"}, "lon": -76.9994795, "type": "electric_scooter"}, {"bike_id": "df8b310031de594f3715719da6f6f514", "is_reserved": 0, "fusion_lon": 0.0, "lat": 38.91195533333333, "is_disabled": 0, "name": "df8b310031de594f3715719da6f6f514", "fusion_lat": 0.0, "rental_uris": {"ios": "https://dc.lft.to/lastmile_qr_scan", "android": "https://dc.lft.to/lastmile_qr_scan"}, "lon": -77.01618783333333, "type": "electric_scooter"}, {"bike_id": "39837b77ab53c78f6164ad42d36dd44a", "is_reserved": 0, "fusion_lon": 0.0, "lat": 38.921182333333334, "is_disabled": 0, "name": "39837b77ab53c78f6164ad42d36dd44a", "fusion_lat": 0.0, "rental_uris": {"ios": "https://dc.lft.to/lastmile_qr_scan", "android": "https://dc.lft.to/lastmile_qr_scan"}, "lon": -77.01210533333334, "type": "electric_scooter"}, {"bike_id": "f021a120b07c1999eff1d3a365b65b8e", "is_reserved": 0, "fusion_lon": 0.0, "lat": 38.912678666666665, "is_disabled": 0, "name": "f021a120b07c1999eff1d3a365b65b8e", "fusion_lat": 0.0, "rental_uris": {"ios": "https://dc.lft.to/lastmile_qr_scan", "android": "https://dc.lft.to/lastmile_qr_scan"}, "lon": -77.03145966666666, "type": "electric_scooter"}, {"bike_id": "264fdd498d90f35688c0129c23433d24", "is_reserved": 0, "fusion_lon": 0.0, "lat": 38.94173083333333, "is_disabled": 0, "name": "264fdd498d90f35688c0129c23433d24", "fusion_lat": 0.0, "rental_uris": {"ios": "https://dc.lft.to/lastmile_qr_scan", "android": "https://dc.lft.to/lastmile_qr_scan"}, "lon": -77.025007, "type": "electric_scooter"}, {"bike_id": "fd7142aabf825158dbe4e619ce85c7a9", "is_reserved": 0, "fusion_lon": 0.0, "lat": 38.9029095, "is_disabled": 0, "name": "fd7142aabf825158dbe4e619ce85c7a9", "fusion_lat": 0.0, "rental_uris": {"ios": "https://dc.lft.to/lastmile_qr_scan", "android": "https://dc.lft.to/lastmile_qr_scan"}, "lon": -76.99859033333334, "type": "electric_scooter"}, {"bike_id": "7c2fb71fbd5ba7c24c6304997c33208f", "is_reserved": 0, "fusion_lon": 0.0, "lat": 38.89367433333334, "is_disabled": 0, "name": "7c2fb71fbd5ba7c24c6304997c33208f", "fusion_lat": 0.0, "rental_uris": {"ios": "https://dc.lft.to/lastmile_qr_scan", "android": "https://dc.lft.to/lastmile_qr_scan"}, "lon": -76.94968, "type": "electric_scooter"}, {"bike_id": "19b4b681f7cbb38b23aad1ed04d388b3", "is_reserved": 0, "fusion_lon": 0.0, "lat": 38.876264666666664, "is_disabled": 0, "name": "19b4b681f7cbb38b23aad1ed04d388b3", "fusion_lat": 0.0, "rental_uris": {"ios": "https://dc.lft.to/lastmile_qr_scan", "android": "https://dc.lft.to/lastmile_qr_scan"}, "lon": -76.96526733333333, "type": "electric_scooter"}, {"bike_id": "95915d5c7c1f048157379d371bda3cde", "is_reserved": 0, "fusion_lon": 0.0, "lat": 38.90269216666667, "is_disabled": 0, "name": "95915d5c7c1f048157379d371bda3cde", "fusion_lat": 0.0, "rental_uris": {"ios": "https://dc.lft.to/lastmile_qr_scan", "android": "https://dc.lft.to/lastmile_qr_scan"}, "lon": -77.03363183333333, "type": "electric_scooter"}, {"bike_id": "e2ddca73bf2eef32ccdeff1d75339941", "is_reserved": 0, "fusion_lon": 0.0, "lat": 38.90443616666667, "is_disabled": 0, "name": "e2ddca73bf2eef32ccdeff1d75339941", "fusion_lat": 0.0, "rental_uris": {"ios": "https://dc.lft.to/lastmile_qr_scan", "android": "https://dc.lft.to/lastmile_qr_scan"}, "lon": -76.99627083333333, "type": "electric_scooter"}, {"bike_id": "11394e7b0aca8b030561d363bf921e52", "is_reserved": 0, "fusion_lon": 0.0, "lat": 38.92257516666667, "is_disabled": 0, "name": "11394e7b0aca8b030561d363bf921e52", "fusion_lat": 0.0, "rental_uris": {"ios": "https://dc.lft.to/lastmile_qr_scan", "android": "https://dc.lft.to/lastmile_qr_scan"}, "lon": -77.01828333333333, "type": "electric_scooter"}, {"bike_id": "049fb04d3b8eed72ae0bc55d8c8b4198", "is_reserved": 0, "fusion_lon": 0.0, "lat": 38.902655833333334, "is_disabled": 0, "name": "049fb04d3b8eed72ae0bc55d8c8b4198", "fusion_lat": 0.0, "rental_uris": {"ios": "https://dc.lft.to/lastmile_qr_scan", "android": "https://dc.lft.to/lastmile_qr_scan"}, "lon": -77.059947, "type": "electric_scooter"}, {"bike_id": "ba0d78c762e967acbc0d7743b7f1f8d2", "is_reserved": 0, "fusion_lon": 0.0, "lat": 38.918621, "is_disabled": 0, "name": "ba0d78c762e967acbc0d7743b7f1f8d2", "fusion_lat": 0.0, "rental_uris": {"ios": "https://dc.lft.to/lastmile_qr_scan", "android": "https://dc.lft.to/lastmile_qr_scan"}, "lon": -77.03902033333334, "type": "electric_scooter"}, {"bike_id": "0915afbe3de34f6c7739ee3b4aa22a2c", "is_reserved": 0, "fusion_lon": 0.0, "lat": 38.910281, "is_disabled": 0, "name": "0915afbe3de34f6c7739ee3b4aa22a2c", "fusion_lat": 0.0, "rental_uris": {"ios": "https://dc.lft.to/lastmile_qr_scan", "android": "https://dc.lft.to/lastmile_qr_scan"}, "lon": -77.04397466666667, "type": "electric_scooter"}, {"bike_id": "80103dbb09ae3b00ebcb9934f5703cf3", "is_reserved": 0, "fusion_lon": 0.0, "lat": 38.89829, "is_disabled": 0, "name": "80103dbb09ae3b00ebcb9934f5703cf3", "fusion_lat": 0.0, "rental_uris": {"ios": "https://dc.lft.to/lastmile_qr_scan", "android": "https://dc.lft.to/lastmile_qr_scan"}, "lon": -76.94637216666666, "type": "electric_scooter"}, {"bike_id": "2eb0dd53e3e2937f9f8a634712163909", "is_reserved": 0, "fusion_lon": 0.0, "lat": 38.88931183333333, "is_disabled": 0, "name": "2eb0dd53e3e2937f9f8a634712163909", "fusion_lat": 0.0, "rental_uris": {"ios": "https://dc.lft.to/lastmile_qr_scan", "android": "https://dc.lft.to/lastmile_qr_scan"}, "lon": -77.015113, "type": "electric_scooter"}, {"bike_id": "e06313b8232058a3d01341a7b0d0f26d", "is_reserved": 0, "fusion_lon": 0.0, "lat": 38.884285166666665, "is_disabled": 0, "name": "e06313b8232058a3d01341a7b0d0f26d", "fusion_lat": 0.0, "rental_uris": {"ios": "https://dc.lft.to/lastmile_qr_scan", "android": "https://dc.lft.to/lastmile_qr_scan"}, "lon": -76.95754666666667, "type": "electric_scooter"}, {"bike_id": "729160323b2c909b94f97f8198145965", "is_reserved": 0, "fusion_lon": 0.0, "lat": 38.931116833333334, "is_disabled": 0, "name": "729160323b2c909b94f97f8198145965", "fusion_lat": 0.0, "rental_uris": {"ios": "https://dc.lft.to/lastmile_qr_scan", "android": "https://dc.lft.to/lastmile_qr_scan"}, "lon": -77.02142766666667, "type": "electric_scooter"}, {"bike_id": "9acde1a1586f8a713ce3a8b99668c338", "is_reserved": 0, "fusion_lon": 0.0, "lat": 38.9236095, "is_disabled": 0, "name": "9acde1a1586f8a713ce3a8b99668c338", "fusion_lat": 0.0, "rental_uris": {"ios": "https://dc.lft.to/lastmile_qr_scan", "android": "https://dc.lft.to/lastmile_qr_scan"}, "lon": -77.05050616666666, "type": "electric_scooter"}, {"bike_id": "e6769f15f3cd4c9ec02448cdd56339d8", "is_reserved": 0, "fusion_lon": 0.0, "lat": 38.936909166666666, "is_disabled": 0, "name": "e6769f15f3cd4c9ec02448cdd56339d8", "fusion_lat": 0.0, "rental_uris": {"ios": "https://dc.lft.to/lastmile_qr_scan", "android": "https://dc.lft.to/lastmile_qr_scan"}, "lon": -77.02714983333334, "type": "electric_scooter"}, {"bike_id": "79d924645f0cde28a77f2d043810e07b", "is_reserved": 0, "fusion_lon": 0.0, "lat": 38.890137833333334, "is_disabled": 0, "name": "79d924645f0cde28a77f2d043810e07b", "fusion_lat": 0.0, "rental_uris": {"ios": "https://dc.lft.to/lastmile_qr_scan", "android": "https://dc.lft.to/lastmile_qr_scan"}, "lon": -76.93700583333333, "type": "electric_scooter"}, {"bike_id": "c7b63b69631999450a169547a35dbea5", "is_reserved": 0, "fusion_lon": 0.0, "lat": 38.91399216666667, "is_disabled": 0, "name": "c7b63b69631999450a169547a35dbea5", "fusion_lat": 0.0, "rental_uris": {"ios": "https://dc.lft.to/lastmile_qr_scan", "android": "https://dc.lft.to/lastmile_qr_scan"}, "lon": -77.02589733333333, "type": "electric_scooter"}, {"bike_id": "18579a34aa1fb457c6b4c2a121eb13ef", "is_reserved": 0, "fusion_lon": 0.0, "lat": 38.9073465, "is_disabled": 0, "name": "18579a34aa1fb457c6b4c2a121eb13ef", "fusion_lat": 0.0, "rental_uris": {"ios": "https://dc.lft.to/lastmile_qr_scan", "android": "https://dc.lft.to/lastmile_qr_scan"}, "lon": -77.00062933333334, "type": "electric_scooter"}, {"bike_id": "6b5a8a8a64279c3d9a4abd5308baa643", "is_reserved": 0, "fusion_lon": 0.0, "lat": 38.9649775, "is_disabled": 0, "name": "6b5a8a8a64279c3d9a4abd5308baa643", "fusion_lat": 0.0, "rental_uris": {"ios": "https://dc.lft.to/lastmile_qr_scan", "android": "https://dc.lft.to/lastmile_qr_scan"}, "lon": -77.06488066666667, "type": "electric_bike"}, {"bike_id": "2e3a5f787e95f4e96ac25940d6173101", "is_reserved": 0, "fusion_lon": 0.0, "lat": 38.914264333333335, "is_disabled": 0, "name": "2e3a5f787e95f4e96ac25940d6173101", "fusion_lat": 0.0, "rental_uris": {"ios": "https://dc.lft.to/lastmile_qr_scan", "android": "https://dc.lft.to/lastmile_qr_scan"}, "lon": -77.01713016666666, "type": "electric_scooter"}, {"bike_id": "5387d9e7d489dfe5fdc5883da7d456a6", "is_reserved": 0, "fusion_lon": 0.0, "lat": 38.92460366666667, "is_disabled": 0, "name": "5387d9e7d489dfe5fdc5883da7d456a6", "fusion_lat": 0.0, "rental_uris": {"ios": "https://dc.lft.to/lastmile_qr_scan", "android": "https://dc.lft.to/lastmile_qr_scan"}, "lon": -77.03545, "type": "electric_scooter"}, {"bike_id": "789edc4f8af53cc9f79da3eadc3d736d", "is_reserved": 0, "fusion_lon": 0.0, "lat": 38.91239433333333, "is_disabled": 0, "name": "789edc4f8af53cc9f79da3eadc3d736d", "fusion_lat": 0.0, "rental_uris": {"ios": "https://dc.lft.to/lastmile_qr_scan", "android": "https://dc.lft.to/lastmile_qr_scan"}, "lon": -77.04483316666666, "type": "electric_scooter"}, {"bike_id": "e3de5eed1792be490466a4917bfa7d32", "is_reserved": 0, "fusion_lon": 0.0, "lat": 38.866572, "is_disabled": 0, "name": "e3de5eed1792be490466a4917bfa7d32", "fusion_lat": 0.0, "rental_uris": {"ios": "https://dc.lft.to/lastmile_qr_scan", "android": "https://dc.lft.to/lastmile_qr_scan"}, "lon": -76.9890495, "type": "electric_scooter"}, {"bike_id": "b28b58b157fe820b29bfd92eba821cc6", "is_reserved": 0, "fusion_lon": 0.0, "lat": 38.903181000000004, "is_disabled": 0, "name": "b28b58b157fe820b29bfd92eba821cc6", "fusion_lat": 0.0, "rental_uris": {"ios": "https://dc.lft.to/lastmile_qr_scan", "android": "https://dc.lft.to/lastmile_qr_scan"}, "lon": -77.03350783333333, "type": "electric_scooter"}, {"bike_id": "fc12b5951a05880e5ab87803d012433e", "is_reserved": 0, "fusion_lon": 0.0, "lat": 38.842682333333336, "is_disabled": 0, "name": "fc12b5951a05880e5ab87803d012433e", "fusion_lat": 0.0, "rental_uris": {"ios": "https://dc.lft.to/lastmile_qr_scan", "android": "https://dc.lft.to/lastmile_qr_scan"}, "lon": -76.988463, "type": "electric_bike"}, {"bike_id": "b834fef377d5d5464b0b8bb255394c4e", "is_reserved": 0, "fusion_lon": 0.0, "lat": 38.89228283333333, "is_disabled": 0, "name": "b834fef377d5d5464b0b8bb255394c4e", "fusion_lat": 0.0, "rental_uris": {"ios": "https://dc.lft.to/lastmile_qr_scan", "android": "https://dc.lft.to/lastmile_qr_scan"}, "lon": -77.02211566666666, "type": "electric_scooter"}, {"bike_id": "7cddf9032e382e2fb5585c3af7f4707c", "is_reserved": 0, "fusion_lon": 0.0, "lat": 38.90210733333333, "is_disabled": 0, "name": "7cddf9032e382e2fb5585c3af7f4707c", "fusion_lat": 0.0, "rental_uris": {"ios": "https://dc.lft.to/lastmile_qr_scan", "android": "https://dc.lft.to/lastmile_qr_scan"}, "lon": -77.03374933333333, "type": "electric_scooter"}, {"bike_id": "93c069a0cb1ac044ed2ba057c8dbdea2", "is_reserved": 0, "fusion_lon": 0.0, "lat": 38.87282533333333, "is_disabled": 0, "name": "93c069a0cb1ac044ed2ba057c8dbdea2", "fusion_lat": 0.0, "rental_uris": {"ios": "https://dc.lft.to/lastmile_qr_scan", "android": "https://dc.lft.to/lastmile_qr_scan"}, "lon": -76.97734233333334, "type": "electric_scooter"}, {"bike_id": "9b4ca748093c66cdb3831f7477324572", "is_reserved": 0, "fusion_lon": 0.0, "lat": 38.903431166666664, "is_disabled": 0, "name": "9b4ca748093c66cdb3831f7477324572", "fusion_lat": 0.0, "rental_uris": {"ios": "https://dc.lft.to/lastmile_qr_scan", "android": "https://dc.lft.to/lastmile_qr_scan"}, "lon": -77.03194883333333, "type": "electric_scooter"}, {"bike_id": "7975f159892cd5efa750055fc9773a4b", "is_reserved": 0, "fusion_lon": 0.0, "lat": 38.89803166666667, "is_disabled": 0, "name": "7975f159892cd5efa750055fc9773a4b", "fusion_lat": 0.0, "rental_uris": {"ios": "https://dc.lft.to/lastmile_qr_scan", "android": "https://dc.lft.to/lastmile_qr_scan"}, "lon": -77.0330515, "type": "electric_scooter"}, {"bike_id": "00015cbecd261af08d08ef0c4ea521b8", "is_reserved": 0, "fusion_lon": 0.0, "lat": 38.9168025, "is_disabled": 0, "name": "00015cbecd261af08d08ef0c4ea521b8", "fusion_lat": 0.0, "rental_uris": {"ios": "https://dc.lft.to/lastmile_qr_scan", "android": "https://dc.lft.to/lastmile_qr_scan"}, "lon": -77.0320365, "type": "electric_scooter"}, {"bike_id": "27031c75ebcc867492dd8ad962a9d246", "is_reserved": 0, "fusion_lon": 0.0, "lat": 38.917027, "is_disabled": 0, "name": "27031c75ebcc867492dd8ad962a9d246", "fusion_lat": 0.0, "rental_uris": {"ios": "https://dc.lft.to/lastmile_qr_scan", "android": "https://dc.lft.to/lastmile_qr_scan"}, "lon": -77.0320955, "type": "electric_scooter"}, {"bike_id": "858c93db0c8019e242cd9fc70b0522e9", "is_reserved": 0, "fusion_lon": 0.0, "lat": 38.88487283333333, "is_disabled": 0, "name": "858c93db0c8019e242cd9fc70b0522e9", "fusion_lat": 0.0, "rental_uris": {"ios": "https://dc.lft.to/lastmile_qr_scan", "android": "https://dc.lft.to/lastmile_qr_scan"}, "lon": -77.00731, "type": "electric_scooter"}, {"bike_id": "09f4964bae72d8120abc418582755384", "is_reserved": 0, "fusion_lon": 0.0, "lat": 38.904395, "is_disabled": 0, "name": "09f4964bae72d8120abc418582755384", "fusion_lat": 0.0, "rental_uris": {"ios": "https://dc.lft.to/lastmile_qr_scan", "android": "https://dc.lft.to/lastmile_qr_scan"}, "lon": -77.061156, "type": "electric_scooter"}, {"bike_id": "b58888c2128e832e5d06e4fa85713e08", "is_reserved": 0, "fusion_lon": 0.0, "lat": 38.8456535, "is_disabled": 0, "name": "b58888c2128e832e5d06e4fa85713e08", "fusion_lat": 0.0, "rental_uris": {"ios": "https://dc.lft.to/lastmile_qr_scan", "android": "https://dc.lft.to/lastmile_qr_scan"}, "lon": -77.0962965, "type": "electric_bike"}, {"bike_id": "163327891f12ae0f6ee33bb7bcfaf6dd", "is_reserved": 0, "fusion_lon": 0.0, "lat": 38.89832466666667, "is_disabled": 0, "name": "163327891f12ae0f6ee33bb7bcfaf6dd", "fusion_lat": 0.0, "rental_uris": {"ios": "https://dc.lft.to/lastmile_qr_scan", "android": "https://dc.lft.to/lastmile_qr_scan"}, "lon": -77.02919966666667, "type": "electric_scooter"}, {"bike_id": "e3e11e42e2ffda1fa54e037e0f675829", "is_reserved": 0, "fusion_lon": 0.0, "lat": 38.900726, "is_disabled": 0, "name": "e3e11e42e2ffda1fa54e037e0f675829", "fusion_lat": 0.0, "rental_uris": {"ios": "https://dc.lft.to/lastmile_qr_scan", "android": "https://dc.lft.to/lastmile_qr_scan"}, "lon": -77.05004916666667, "type": "electric_scooter"}, {"bike_id": "bfdb4ec70f53c50afae925733bfc34bd", "is_reserved": 0, "fusion_lon": 0.0, "lat": 38.90848483333333, "is_disabled": 0, "name": "bfdb4ec70f53c50afae925733bfc34bd", "fusion_lat": 0.0, "rental_uris": {"ios": "https://dc.lft.to/lastmile_qr_scan", "android": "https://dc.lft.to/lastmile_qr_scan"}, "lon": -77.054962, "type": "electric_bike"}, {"bike_id": "4b492b709754f66926ff7038384cf67c", "is_reserved": 0, "fusion_lon": 0.0, "lat": 38.901249666666665, "is_disabled": 0, "name": "4b492b709754f66926ff7038384cf67c", "fusion_lat": 0.0, "rental_uris": {"ios": "https://dc.lft.to/lastmile_qr_scan", "android": "https://dc.lft.to/lastmile_qr_scan"}, "lon": -77.04190683333333, "type": "electric_scooter"}, {"bike_id": "b5b58fed1acc5bfcca9a2ada27307cfd", "is_reserved": 0, "fusion_lon": 0.0, "lat": 38.8732375, "is_disabled": 0, "name": "b5b58fed1acc5bfcca9a2ada27307cfd", "fusion_lat": 0.0, "rental_uris": {"ios": "https://dc.lft.to/lastmile_qr_scan", "android": "https://dc.lft.to/lastmile_qr_scan"}, "lon": -77.10626966666666, "type": "electric_bike"}, {"bike_id": "8e9ebc80444f31491bcf52322f93f68b", "is_reserved": 0, "fusion_lon": 0.0, "lat": 38.92648716666667, "is_disabled": 0, "name": "8e9ebc80444f31491bcf52322f93f68b", "fusion_lat": 0.0, "rental_uris": {"ios": "https://dc.lft.to/lastmile_qr_scan", "android": "https://dc.lft.to/lastmile_qr_scan"}, "lon": -77.01562633333333, "type": "electric_scooter"}, {"bike_id": "c7fdd9ebef3980198a36804d2cb5ecde", "is_reserved": 0, "fusion_lon": 0.0, "lat": 38.9086875, "is_disabled": 0, "name": "c7fdd9ebef3980198a36804d2cb5ecde", "fusion_lat": 0.0, "rental_uris": {"ios": "https://dc.lft.to/lastmile_qr_scan", "android": "https://dc.lft.to/lastmile_qr_scan"}, "lon": -77.032978, "type": "electric_scooter"}, {"bike_id": "1417a1a7da3b30b6f23edb98c84f513b", "is_reserved": 0, "fusion_lon": 0.0, "lat": 38.876709166666664, "is_disabled": 0, "name": "1417a1a7da3b30b6f23edb98c84f513b", "fusion_lat": 0.0, "rental_uris": {"ios": "https://dc.lft.to/lastmile_qr_scan", "android": "https://dc.lft.to/lastmile_qr_scan"}, "lon": -77.01789366666667, "type": "electric_scooter"}, {"bike_id": "2031537aa9aa1a39085e9897244eedde", "is_reserved": 0, "fusion_lon": 0.0, "lat": 38.908085666666665, "is_disabled": 0, "name": "2031537aa9aa1a39085e9897244eedde", "fusion_lat": 0.0, "rental_uris": {"ios": "https://dc.lft.to/lastmile_qr_scan", "android": "https://dc.lft.to/lastmile_qr_scan"}, "lon": -76.99209283333333, "type": "electric_scooter"}, {"bike_id": "b108f9f9d5ba1607ce5530ebe27cbc40", "is_reserved": 0, "fusion_lon": 0.0, "lat": 38.90519533333333, "is_disabled": 0, "name": "b108f9f9d5ba1607ce5530ebe27cbc40", "fusion_lat": 0.0, "rental_uris": {"ios": "https://dc.lft.to/lastmile_qr_scan", "android": "https://dc.lft.to/lastmile_qr_scan"}, "lon": -77.06535533333333, "type": "electric_scooter"}, {"bike_id": "d84d2177bc7a4a26290a7ff5305a32ea", "is_reserved": 0, "fusion_lon": 0.0, "lat": 38.8762625, "is_disabled": 0, "name": "d84d2177bc7a4a26290a7ff5305a32ea", "fusion_lat": 0.0, "rental_uris": {"ios": "https://dc.lft.to/lastmile_qr_scan", "android": "https://dc.lft.to/lastmile_qr_scan"}, "lon": -76.965269, "type": "electric_scooter"}, {"bike_id": "2e1bf12065ae83967d66ac79b63e6635", "is_reserved": 0, "fusion_lon": 0.0, "lat": 38.914782333333335, "is_disabled": 0, "name": "2e1bf12065ae83967d66ac79b63e6635", "fusion_lat": 0.0, "rental_uris": {"ios": "https://dc.lft.to/lastmile_qr_scan", "android": "https://dc.lft.to/lastmile_qr_scan"}, "lon": -76.98434233333333, "type": "electric_scooter"}, {"bike_id": "f8f3e8e9dc470eb499b0d07da277b18d", "is_reserved": 0, "fusion_lon": 0.0, "lat": 38.93264516666667, "is_disabled": 0, "name": "f8f3e8e9dc470eb499b0d07da277b18d", "fusion_lat": 0.0, "rental_uris": {"ios": "https://dc.lft.to/lastmile_qr_scan", "android": "https://dc.lft.to/lastmile_qr_scan"}, "lon": -77.0394785, "type": "electric_scooter"}, {"bike_id": "3b215eb4be1b6b701cf3ee45e10bfbc5", "is_reserved": 0, "fusion_lon": 0.0, "lat": 38.91264183333333, "is_disabled": 0, "name": "3b215eb4be1b6b701cf3ee45e10bfbc5", "fusion_lat": 0.0, "rental_uris": {"ios": "https://dc.lft.to/lastmile_qr_scan", "android": "https://dc.lft.to/lastmile_qr_scan"}, "lon": -77.03392783333334, "type": "electric_scooter"}, {"bike_id": "8fced11a8881d2868ee384f4884cf739", "is_reserved": 0, "fusion_lon": 0.0, "lat": 38.946273166666664, "is_disabled": 0, "name": "8fced11a8881d2868ee384f4884cf739", "fusion_lat": 0.0, "rental_uris": {"ios": "https://dc.lft.to/lastmile_qr_scan", "android": "https://dc.lft.to/lastmile_qr_scan"}, "lon": -77.01846, "type": "electric_scooter"}, {"bike_id": "aec5040f2a44f1e39bf49c51ca9a4a57", "is_reserved": 0, "fusion_lon": 0.0, "lat": 38.866587333333335, "is_disabled": 0, "name": "aec5040f2a44f1e39bf49c51ca9a4a57", "fusion_lat": 0.0, "rental_uris": {"ios": "https://dc.lft.to/lastmile_qr_scan", "android": "https://dc.lft.to/lastmile_qr_scan"}, "lon": -76.98894983333334, "type": "electric_scooter"}, {"bike_id": "7b6f38b62246bfcc0958fa7c0c2b0546", "is_reserved": 0, "fusion_lon": 0.0, "lat": 38.9211535, "is_disabled": 0, "name": "7b6f38b62246bfcc0958fa7c0c2b0546", "fusion_lat": 0.0, "rental_uris": {"ios": "https://dc.lft.to/lastmile_qr_scan", "android": "https://dc.lft.to/lastmile_qr_scan"}, "lon": -77.04579066666666, "type": "electric_scooter"}, {"bike_id": "500389530bbf0b89c6ad4401697df655", "is_reserved": 0, "fusion_lon": 0.0, "lat": 38.838621, "is_disabled": 0, "name": "500389530bbf0b89c6ad4401697df655", "fusion_lat": 0.0, "rental_uris": {"ios": "https://dc.lft.to/lastmile_qr_scan", "android": "https://dc.lft.to/lastmile_qr_scan"}, "lon": -76.99697783333333, "type": "electric_bike"}, {"bike_id": "aad01ca02bd3752838a7e83ba4247615", "is_reserved": 0, "fusion_lon": 0.0, "lat": 38.838090333333334, "is_disabled": 0, "name": "aad01ca02bd3752838a7e83ba4247615", "fusion_lat": 0.0, "rental_uris": {"ios": "https://dc.lft.to/lastmile_qr_scan", "android": "https://dc.lft.to/lastmile_qr_scan"}, "lon": -77.09525533333333, "type": "electric_bike"}, {"bike_id": "2f1a6e18f04e22dc47faa637333dacef", "is_reserved": 0, "fusion_lon": 0.0, "lat": 38.865207833333336, "is_disabled": 0, "name": "2f1a6e18f04e22dc47faa637333dacef", "fusion_lat": 0.0, "rental_uris": {"ios": "https://dc.lft.to/lastmile_qr_scan", "android": "https://dc.lft.to/lastmile_qr_scan"}, "lon": -76.990439, "type": "electric_scooter"}, {"bike_id": "9f80b035ae4223dd39ca53ab61dc26ce", "is_reserved": 0, "fusion_lon": 0.0, "lat": 38.897356, "is_disabled": 0, "name": "9f80b035ae4223dd39ca53ab61dc26ce", "fusion_lat": 0.0, "rental_uris": {"ios": "https://dc.lft.to/lastmile_qr_scan", "android": "https://dc.lft.to/lastmile_qr_scan"}, "lon": -76.93845183333333, "type": "electric_scooter"}, {"bike_id": "94c5dafaf253134bdfd7fa629ae22021", "is_reserved": 0, "fusion_lon": 0.0, "lat": 38.91701783333333, "is_disabled": 0, "name": "94c5dafaf253134bdfd7fa629ae22021", "fusion_lat": 0.0, "rental_uris": {"ios": "https://dc.lft.to/lastmile_qr_scan", "android": "https://dc.lft.to/lastmile_qr_scan"}, "lon": -77.04174416666666, "type": "electric_scooter"}, {"bike_id": "69430eef53e8a04dd060946057e2acde", "is_reserved": 0, "fusion_lon": 0.0, "lat": 38.911748833333334, "is_disabled": 0, "name": "69430eef53e8a04dd060946057e2acde", "fusion_lat": 0.0, "rental_uris": {"ios": "https://dc.lft.to/lastmile_qr_scan", "android": "https://dc.lft.to/lastmile_qr_scan"}, "lon": -77.0314215, "type": "electric_scooter"}, {"bike_id": "e642fb311815b50cb0561b68617aeea9", "is_reserved": 0, "fusion_lon": 0.0, "lat": 38.863428666666664, "is_disabled": 0, "name": "e642fb311815b50cb0561b68617aeea9", "fusion_lat": 0.0, "rental_uris": {"ios": "https://dc.lft.to/lastmile_qr_scan", "android": "https://dc.lft.to/lastmile_qr_scan"}, "lon": -76.99003116666667, "type": "electric_scooter"}, {"bike_id": "46003cf32ce2925d3af75478a0f1e2c1", "is_reserved": 0, "fusion_lon": 0.0, "lat": 38.937128333333334, "is_disabled": 0, "name": "46003cf32ce2925d3af75478a0f1e2c1", "fusion_lat": 0.0, "rental_uris": {"ios": "https://dc.lft.to/lastmile_qr_scan", "android": "https://dc.lft.to/lastmile_qr_scan"}, "lon": -77.0327455, "type": "electric_scooter"}, {"bike_id": "67eb1e2b5fd69199c618083dd8738d35", "is_reserved": 0, "fusion_lon": 0.0, "lat": 38.900878166666665, "is_disabled": 0, "name": "67eb1e2b5fd69199c618083dd8738d35", "fusion_lat": 0.0, "rental_uris": {"ios": "https://dc.lft.to/lastmile_qr_scan", "android": "https://dc.lft.to/lastmile_qr_scan"}, "lon": -77.05741283333333, "type": "electric_bike"}, {"bike_id": "9d05ec7285fbbb8d3c4caf1ef90e83c9", "is_reserved": 0, "fusion_lon": 0.0, "lat": 38.9032265, "is_disabled": 0, "name": "9d05ec7285fbbb8d3c4caf1ef90e83c9", "fusion_lat": 0.0, "rental_uris": {"ios": "https://dc.lft.to/lastmile_qr_scan", "android": "https://dc.lft.to/lastmile_qr_scan"}, "lon": -77.06604766666666, "type": "electric_scooter"}, {"bike_id": "c2e5f332e8a60e5865bfcd7ff06ce9a8", "is_reserved": 0, "fusion_lon": 0.0, "lat": 38.955447166666666, "is_disabled": 0, "name": "c2e5f332e8a60e5865bfcd7ff06ce9a8", "fusion_lat": 0.0, "rental_uris": {"ios": "https://dc.lft.to/lastmile_qr_scan", "android": "https://dc.lft.to/lastmile_qr_scan"}, "lon": -76.93531983333334, "type": "electric_bike"}, {"bike_id": "4c2e488c7358bab7bdb4e2bb94810ddd", "is_reserved": 0, "fusion_lon": 0.0, "lat": 38.90431916666667, "is_disabled": 0, "name": "4c2e488c7358bab7bdb4e2bb94810ddd", "fusion_lat": 0.0, "rental_uris": {"ios": "https://dc.lft.to/lastmile_qr_scan", "android": "https://dc.lft.to/lastmile_qr_scan"}, "lon": -77.04845733333333, "type": "electric_scooter"}, {"bike_id": "4b97cb5d3d9db0de8a1681c49b1aaaf0", "is_reserved": 0, "fusion_lon": 0.0, "lat": 38.89829366666667, "is_disabled": 0, "name": "4b97cb5d3d9db0de8a1681c49b1aaaf0", "fusion_lat": 0.0, "rental_uris": {"ios": "https://dc.lft.to/lastmile_qr_scan", "android": "https://dc.lft.to/lastmile_qr_scan"}, "lon": -77.03284183333334, "type": "electric_scooter"}, {"bike_id": "219d2a462cdbf2be770c79427d555b46", "is_reserved": 0, "fusion_lon": 0.0, "lat": 38.90598216666667, "is_disabled": 0, "name": "219d2a462cdbf2be770c79427d555b46", "fusion_lat": 0.0, "rental_uris": {"ios": "https://dc.lft.to/lastmile_qr_scan", "android": "https://dc.lft.to/lastmile_qr_scan"}, "lon": -77.01328816666667, "type": "electric_scooter"}, {"bike_id": "c056a3fae6f5f956ff24c11bcc9fd4bc", "is_reserved": 0, "fusion_lon": 0.0, "lat": 38.84289166666667, "is_disabled": 0, "name": "c056a3fae6f5f956ff24c11bcc9fd4bc", "fusion_lat": 0.0, "rental_uris": {"ios": "https://dc.lft.to/lastmile_qr_scan", "android": "https://dc.lft.to/lastmile_qr_scan"}, "lon": -76.99953816666667, "type": "electric_scooter"}, {"bike_id": "26294580ba5b2e6af8f85d934f602ae4", "is_reserved": 0, "fusion_lon": 0.0, "lat": 38.920140333333336, "is_disabled": 0, "name": "26294580ba5b2e6af8f85d934f602ae4", "fusion_lat": 0.0, "rental_uris": {"ios": "https://dc.lft.to/lastmile_qr_scan", "android": "https://dc.lft.to/lastmile_qr_scan"}, "lon": -77.03986266666666, "type": "electric_scooter"}, {"bike_id": "7fbb79294c9033fa34ead9d60731d820", "is_reserved": 0, "fusion_lon": 0.0, "lat": 38.91920266666666, "is_disabled": 0, "name": "7fbb79294c9033fa34ead9d60731d820", "fusion_lat": 0.0, "rental_uris": {"ios": "https://dc.lft.to/lastmile_qr_scan", "android": "https://dc.lft.to/lastmile_qr_scan"}, "lon": -77.0318885, "type": "electric_scooter"}, {"bike_id": "1065f1988a103ff3995b314a66779267", "is_reserved": 0, "fusion_lon": 0.0, "lat": 38.898143, "is_disabled": 0, "name": "1065f1988a103ff3995b314a66779267", "fusion_lat": 0.0, "rental_uris": {"ios": "https://dc.lft.to/lastmile_qr_scan", "android": "https://dc.lft.to/lastmile_qr_scan"}, "lon": -77.00907783333334, "type": "electric_scooter"}, {"bike_id": "58fa41e991970cb162bf07070d8ab4fc", "is_reserved": 0, "fusion_lon": 0.0, "lat": 38.901883, "is_disabled": 0, "name": "58fa41e991970cb162bf07070d8ab4fc", "fusion_lat": 0.0, "rental_uris": {"ios": "https://dc.lft.to/lastmile_qr_scan", "android": "https://dc.lft.to/lastmile_qr_scan"}, "lon": -77.06124233333334, "type": "electric_scooter"}, {"bike_id": "ba2d0ebf411af998181816842465ceb0", "is_reserved": 0, "fusion_lon": 0.0, "lat": 38.9179815, "is_disabled": 0, "name": "ba2d0ebf411af998181816842465ceb0", "fusion_lat": 0.0, "rental_uris": {"ios": "https://dc.lft.to/lastmile_qr_scan", "android": "https://dc.lft.to/lastmile_qr_scan"}, "lon": -77.0343925, "type": "electric_scooter"}, {"bike_id": "b53d3c37dcd8fd180c6e5d4ee07563bf", "is_reserved": 0, "fusion_lon": 0.0, "lat": 38.93397083333333, "is_disabled": 0, "name": "b53d3c37dcd8fd180c6e5d4ee07563bf", "fusion_lat": 0.0, "rental_uris": {"ios": "https://dc.lft.to/lastmile_qr_scan", "android": "https://dc.lft.to/lastmile_qr_scan"}, "lon": -77.03888216666667, "type": "electric_scooter"}, {"bike_id": "08ffa92ed9a16b80fb22b1a81aaf66a7", "is_reserved": 0, "fusion_lon": 0.0, "lat": 38.917728, "is_disabled": 0, "name": "08ffa92ed9a16b80fb22b1a81aaf66a7", "fusion_lat": 0.0, "rental_uris": {"ios": "https://dc.lft.to/lastmile_qr_scan", "android": "https://dc.lft.to/lastmile_qr_scan"}, "lon": -77.022878, "type": "electric_scooter"}, {"bike_id": "f9325b3ee9fc5022c3ec309ec243ab7a", "is_reserved": 0, "fusion_lon": 0.0, "lat": 38.8783735, "is_disabled": 0, "name": "f9325b3ee9fc5022c3ec309ec243ab7a", "fusion_lat": 0.0, "rental_uris": {"ios": "https://dc.lft.to/lastmile_qr_scan", "android": "https://dc.lft.to/lastmile_qr_scan"}, "lon": -77.00614333333333, "type": "electric_scooter"}, {"bike_id": "d2d627362c775715f20ea215ea89287c", "is_reserved": 0, "fusion_lon": 0.0, "lat": 38.929119166666666, "is_disabled": 0, "name": "d2d627362c775715f20ea215ea89287c", "fusion_lat": 0.0, "rental_uris": {"ios": "https://dc.lft.to/lastmile_qr_scan", "android": "https://dc.lft.to/lastmile_qr_scan"}, "lon": -77.0316175, "type": "electric_scooter"}, {"bike_id": "65b0d12f31f417e7ca464ad09bdaae75", "is_reserved": 0, "fusion_lon": 0.0, "lat": 38.9094825, "is_disabled": 0, "name": "65b0d12f31f417e7ca464ad09bdaae75", "fusion_lat": 0.0, "rental_uris": {"ios": "https://dc.lft.to/lastmile_qr_scan", "android": "https://dc.lft.to/lastmile_qr_scan"}, "lon": -77.048072, "type": "electric_scooter"}, {"bike_id": "15a78b681971e388d8f30bcea473e465", "is_reserved": 0, "fusion_lon": 0.0, "lat": 38.861849, "is_disabled": 0, "name": "15a78b681971e388d8f30bcea473e465", "fusion_lat": 0.0, "rental_uris": {"ios": "https://dc.lft.to/lastmile_qr_scan", "android": "https://dc.lft.to/lastmile_qr_scan"}, "lon": -76.9945235, "type": "electric_scooter"}, {"bike_id": "f85843dfd893014b31060dcbddd0810a", "is_reserved": 0, "fusion_lon": 0.0, "lat": 38.94959033333333, "is_disabled": 0, "name": "f85843dfd893014b31060dcbddd0810a", "fusion_lat": 0.0, "rental_uris": {"ios": "https://dc.lft.to/lastmile_qr_scan", "android": "https://dc.lft.to/lastmile_qr_scan"}, "lon": -76.97294933333333, "type": "electric_bike"}, {"bike_id": "a034bfbdccd3b6d41b2c87b5cf64976f", "is_reserved": 0, "fusion_lon": 0.0, "lat": 38.91263566666667, "is_disabled": 0, "name": "a034bfbdccd3b6d41b2c87b5cf64976f", "fusion_lat": 0.0, "rental_uris": {"ios": "https://dc.lft.to/lastmile_qr_scan", "android": "https://dc.lft.to/lastmile_qr_scan"}, "lon": -77.0439725, "type": "electric_scooter"}, {"bike_id": "fda7a97db62e3364c65edbf69e27eab5", "is_reserved": 0, "fusion_lon": 0.0, "lat": 38.9075735, "is_disabled": 0, "name": "fda7a97db62e3364c65edbf69e27eab5", "fusion_lat": 0.0, "rental_uris": {"ios": "https://dc.lft.to/lastmile_qr_scan", "android": "https://dc.lft.to/lastmile_qr_scan"}, "lon": -77.00125183333333, "type": "electric_scooter"}, {"bike_id": "46c51023e633f8ba38ac2a21d34190af", "is_reserved": 0, "fusion_lon": 0.0, "lat": 38.903700666666666, "is_disabled": 0, "name": "46c51023e633f8ba38ac2a21d34190af", "fusion_lat": 0.0, "rental_uris": {"ios": "https://dc.lft.to/lastmile_qr_scan", "android": "https://dc.lft.to/lastmile_qr_scan"}, "lon": -77.04495283333333, "type": "electric_scooter"}, {"bike_id": "8874fbda5b9d68a0a6459ff43b86f773", "is_reserved": 0, "fusion_lon": 0.0, "lat": 38.866109, "is_disabled": 0, "name": "8874fbda5b9d68a0a6459ff43b86f773", "fusion_lat": 0.0, "rental_uris": {"ios": "https://dc.lft.to/lastmile_qr_scan", "android": "https://dc.lft.to/lastmile_qr_scan"}, "lon": -76.94576733333334, "type": "electric_bike"}, {"bike_id": "88c28081041862f0f25984926b10b4f7", "is_reserved": 0, "fusion_lon": 0.0, "lat": 38.897248833333336, "is_disabled": 0, "name": "88c28081041862f0f25984926b10b4f7", "fusion_lat": 0.0, "rental_uris": {"ios": "https://dc.lft.to/lastmile_qr_scan", "android": "https://dc.lft.to/lastmile_qr_scan"}, "lon": -77.055753, "type": "electric_scooter"}, {"bike_id": "0e7806b4e5385f7b355586a82a0e3211", "is_reserved": 0, "fusion_lon": 0.0, "lat": 38.893604, "is_disabled": 0, "name": "0e7806b4e5385f7b355586a82a0e3211", "fusion_lat": 0.0, "rental_uris": {"ios": "https://dc.lft.to/lastmile_qr_scan", "android": "https://dc.lft.to/lastmile_qr_scan"}, "lon": -77.04787983333334, "type": "electric_scooter"}, {"bike_id": "3195f224be30fdaa41ac1a9133f94136", "is_reserved": 0, "fusion_lon": 0.0, "lat": 38.93074583333333, "is_disabled": 0, "name": "3195f224be30fdaa41ac1a9133f94136", "fusion_lat": 0.0, "rental_uris": {"ios": "https://dc.lft.to/lastmile_qr_scan", "android": "https://dc.lft.to/lastmile_qr_scan"}, "lon": -77.03121766666666, "type": "electric_scooter"}, {"bike_id": "b29278a8629ef498dd3970a5b0bbdafa", "is_reserved": 0, "fusion_lon": 0.0, "lat": 38.942340333333334, "is_disabled": 0, "name": "b29278a8629ef498dd3970a5b0bbdafa", "fusion_lat": 0.0, "rental_uris": {"ios": "https://dc.lft.to/lastmile_qr_scan", "android": "https://dc.lft.to/lastmile_qr_scan"}, "lon": -77.07242866666667, "type": "electric_scooter"}, {"bike_id": "ef333c17aa051220b37813718ad5d8db", "is_reserved": 0, "fusion_lon": 0.0, "lat": 38.92111216666667, "is_disabled": 0, "name": "ef333c17aa051220b37813718ad5d8db", "fusion_lat": 0.0, "rental_uris": {"ios": "https://dc.lft.to/lastmile_qr_scan", "android": "https://dc.lft.to/lastmile_qr_scan"}, "lon": -77.045845, "type": "electric_scooter"}, {"bike_id": "7880be55213e0e74a48ffe39cbd39079", "is_reserved": 0, "fusion_lon": 0.0, "lat": 38.84421183333333, "is_disabled": 0, "name": "7880be55213e0e74a48ffe39cbd39079", "fusion_lat": 0.0, "rental_uris": {"ios": "https://dc.lft.to/lastmile_qr_scan", "android": "https://dc.lft.to/lastmile_qr_scan"}, "lon": -76.99780233333334, "type": "electric_scooter"}, {"bike_id": "8280f3a1f341e474c24c24554afdcc8b", "is_reserved": 0, "fusion_lon": 0.0, "lat": 38.869233666666666, "is_disabled": 0, "name": "8280f3a1f341e474c24c24554afdcc8b", "fusion_lat": 0.0, "rental_uris": {"ios": "https://dc.lft.to/lastmile_qr_scan", "android": "https://dc.lft.to/lastmile_qr_scan"}, "lon": -76.98291966666666, "type": "electric_scooter"}, {"bike_id": "2b189b9ec21f3722e06ec8c1bf475d49", "is_reserved": 0, "fusion_lon": 0.0, "lat": 38.903723666666664, "is_disabled": 0, "name": "2b189b9ec21f3722e06ec8c1bf475d49", "fusion_lat": 0.0, "rental_uris": {"ios": "https://dc.lft.to/lastmile_qr_scan", "android": "https://dc.lft.to/lastmile_qr_scan"}, "lon": -77.02992866666666, "type": "electric_scooter"}, {"bike_id": "5ddd17705499bcb41c36b50d2b793511", "is_reserved": 0, "fusion_lon": 0.0, "lat": 38.8850365, "is_disabled": 0, "name": "5ddd17705499bcb41c36b50d2b793511", "fusion_lat": 0.0, "rental_uris": {"ios": "https://dc.lft.to/lastmile_qr_scan", "android": "https://dc.lft.to/lastmile_qr_scan"}, "lon": -77.00565033333334, "type": "electric_scooter"}, {"bike_id": "13a89484cc4b20d40f26d3ab7ef33ec1", "is_reserved": 0, "fusion_lon": 0.0, "lat": 38.91170533333333, "is_disabled": 0, "name": "13a89484cc4b20d40f26d3ab7ef33ec1", "fusion_lat": 0.0, "rental_uris": {"ios": "https://dc.lft.to/lastmile_qr_scan", "android": "https://dc.lft.to/lastmile_qr_scan"}, "lon": -77.06832566666667, "type": "electric_scooter"}, {"bike_id": "4f7a5fc4aa7bcb576f0428e6148a4bb1", "is_reserved": 0, "fusion_lon": 0.0, "lat": 38.98655633333333, "is_disabled": 0, "name": "4f7a5fc4aa7bcb576f0428e6148a4bb1", "fusion_lat": 0.0, "rental_uris": {"ios": "https://dc.lft.to/lastmile_qr_scan", "android": "https://dc.lft.to/lastmile_qr_scan"}, "lon": -77.05613333333334, "type": "electric_bike"}, {"bike_id": "98075f1806f63282f457b5e14dc5e64d", "is_reserved": 0, "fusion_lon": 0.0, "lat": 38.903307833333336, "is_disabled": 0, "name": "98075f1806f63282f457b5e14dc5e64d", "fusion_lat": 0.0, "rental_uris": {"ios": "https://dc.lft.to/lastmile_qr_scan", "android": "https://dc.lft.to/lastmile_qr_scan"}, "lon": -77.043292, "type": "electric_scooter"}, {"bike_id": "50678b97387e6f95e3a4d4cfcf246869", "is_reserved": 0, "fusion_lon": 0.0, "lat": 38.902338666666665, "is_disabled": 0, "name": "50678b97387e6f95e3a4d4cfcf246869", "fusion_lat": 0.0, "rental_uris": {"ios": "https://dc.lft.to/lastmile_qr_scan", "android": "https://dc.lft.to/lastmile_qr_scan"}, "lon": -77.01822933333334, "type": "electric_scooter"}, {"bike_id": "b07e0e7c4df43c7ef4edac66baabc0a7", "is_reserved": 0, "fusion_lon": 0.0, "lat": 38.88528516666667, "is_disabled": 0, "name": "b07e0e7c4df43c7ef4edac66baabc0a7", "fusion_lat": 0.0, "rental_uris": {"ios": "https://dc.lft.to/lastmile_qr_scan", "android": "https://dc.lft.to/lastmile_qr_scan"}, "lon": -76.99833433333333, "type": "electric_scooter"}, {"bike_id": "96bcdb53637ecb041a21e22e74cb97a4", "is_reserved": 0, "fusion_lon": 0.0, "lat": 38.872071166666665, "is_disabled": 0, "name": "96bcdb53637ecb041a21e22e74cb97a4", "fusion_lat": 0.0, "rental_uris": {"ios": "https://dc.lft.to/lastmile_qr_scan", "android": "https://dc.lft.to/lastmile_qr_scan"}, "lon": -77.0057715, "type": "electric_scooter"}, {"bike_id": "133e7b9da92c528abfc0262e9387cd2b", "is_reserved": 0, "fusion_lon": 0.0, "lat": 38.901354166666664, "is_disabled": 0, "name": "133e7b9da92c528abfc0262e9387cd2b", "fusion_lat": 0.0, "rental_uris": {"ios": "https://dc.lft.to/lastmile_qr_scan", "android": "https://dc.lft.to/lastmile_qr_scan"}, "lon": -77.000728, "type": "electric_scooter"}, {"bike_id": "b34d68e001047002f7d928a69cbdc876", "is_reserved": 0, "fusion_lon": 0.0, "lat": 38.94049116666667, "is_disabled": 0, "name": "b34d68e001047002f7d928a69cbdc876", "fusion_lat": 0.0, "rental_uris": {"ios": "https://dc.lft.to/lastmile_qr_scan", "android": "https://dc.lft.to/lastmile_qr_scan"}, "lon": -77.09269183333333, "type": "electric_scooter"}, {"bike_id": "2ec95e00756c191f5ef1b7c4cd1b7c65", "is_reserved": 0, "fusion_lon": 0.0, "lat": 38.84289283333333, "is_disabled": 0, "name": "2ec95e00756c191f5ef1b7c4cd1b7c65", "fusion_lat": 0.0, "rental_uris": {"ios": "https://dc.lft.to/lastmile_qr_scan", "android": "https://dc.lft.to/lastmile_qr_scan"}, "lon": -76.99952766666667, "type": "electric_scooter"}, {"bike_id": "147cb66912d5651bfcb9ed6ea5da75ab", "is_reserved": 0, "fusion_lon": 0.0, "lat": 38.91413816666667, "is_disabled": 0, "name": "147cb66912d5651bfcb9ed6ea5da75ab", "fusion_lat": 0.0, "rental_uris": {"ios": "https://dc.lft.to/lastmile_qr_scan", "android": "https://dc.lft.to/lastmile_qr_scan"}, "lon": -77.03176266666667, "type": "electric_scooter"}, {"bike_id": "87af5c6221409796b7251e8eaec689e6", "is_reserved": 0, "fusion_lon": 0.0, "lat": 38.867082833333335, "is_disabled": 0, "name": "87af5c6221409796b7251e8eaec689e6", "fusion_lat": 0.0, "rental_uris": {"ios": "https://dc.lft.to/lastmile_qr_scan", "android": "https://dc.lft.to/lastmile_qr_scan"}, "lon": -76.98724133333333, "type": "electric_scooter"}, {"bike_id": "c55447060a5968fc8b9ad362c80e3575", "is_reserved": 0, "fusion_lon": 0.0, "lat": 38.90028366666667, "is_disabled": 0, "name": "c55447060a5968fc8b9ad362c80e3575", "fusion_lat": 0.0, "rental_uris": {"ios": "https://dc.lft.to/lastmile_qr_scan", "android": "https://dc.lft.to/lastmile_qr_scan"}, "lon": -76.99612766666667, "type": "electric_scooter"}, {"bike_id": "117c10b86698502a9d93f227fba309dc", "is_reserved": 0, "fusion_lon": 0.0, "lat": 38.90581683333333, "is_disabled": 0, "name": "117c10b86698502a9d93f227fba309dc", "fusion_lat": 0.0, "rental_uris": {"ios": "https://dc.lft.to/lastmile_qr_scan", "android": "https://dc.lft.to/lastmile_qr_scan"}, "lon": -77.0680345, "type": "electric_scooter"}, {"bike_id": "a14a9e33af21f63d34c8a119e1ca0ba9", "is_reserved": 0, "fusion_lon": 0.0, "lat": 38.97425616666666, "is_disabled": 0, "name": "a14a9e33af21f63d34c8a119e1ca0ba9", "fusion_lat": 0.0, "rental_uris": {"ios": "https://dc.lft.to/lastmile_qr_scan", "android": "https://dc.lft.to/lastmile_qr_scan"}, "lon": -77.01526233333334, "type": "electric_scooter"}, {"bike_id": "60abe23feccb1af1f003f5fef956f8fc", "is_reserved": 0, "fusion_lon": 0.0, "lat": 38.905116166666666, "is_disabled": 0, "name": "60abe23feccb1af1f003f5fef956f8fc", "fusion_lat": 0.0, "rental_uris": {"ios": "https://dc.lft.to/lastmile_qr_scan", "android": "https://dc.lft.to/lastmile_qr_scan"}, "lon": -77.05028516666667, "type": "electric_scooter"}, {"bike_id": "16f8f3c8bc5b2cc6dc6932f3d30eb87f", "is_reserved": 0, "fusion_lon": 0.0, "lat": 38.917444833333334, "is_disabled": 0, "name": "16f8f3c8bc5b2cc6dc6932f3d30eb87f", "fusion_lat": 0.0, "rental_uris": {"ios": "https://dc.lft.to/lastmile_qr_scan", "android": "https://dc.lft.to/lastmile_qr_scan"}, "lon": -77.0075245, "type": "electric_scooter"}, {"bike_id": "faa577f64be68a6d3f28e94615df9d48", "is_reserved": 0, "fusion_lon": 0.0, "lat": 38.9031395, "is_disabled": 0, "name": "faa577f64be68a6d3f28e94615df9d48", "fusion_lat": 0.0, "rental_uris": {"ios": "https://dc.lft.to/lastmile_qr_scan", "android": "https://dc.lft.to/lastmile_qr_scan"}, "lon": -77.03845466666667, "type": "electric_scooter"}, {"bike_id": "f4735767a193bfddf3d0a2a75094a2b7", "is_reserved": 0, "fusion_lon": 0.0, "lat": 38.89615633333333, "is_disabled": 0, "name": "f4735767a193bfddf3d0a2a75094a2b7", "fusion_lat": 0.0, "rental_uris": {"ios": "https://dc.lft.to/lastmile_qr_scan", "android": "https://dc.lft.to/lastmile_qr_scan"}, "lon": -77.0404855, "type": "electric_scooter"}, {"bike_id": "23280eacf4a1d60f58aa870e96c6c659", "is_reserved": 0, "fusion_lon": 0.0, "lat": 38.881311333333336, "is_disabled": 0, "name": "23280eacf4a1d60f58aa870e96c6c659", "fusion_lat": 0.0, "rental_uris": {"ios": "https://dc.lft.to/lastmile_qr_scan", "android": "https://dc.lft.to/lastmile_qr_scan"}, "lon": -76.98095483333333, "type": "electric_bike"}, {"bike_id": "67399d11ab170b7b1e159fb2e025af3a", "is_reserved": 0, "fusion_lon": 0.0, "lat": 38.937410166666666, "is_disabled": 0, "name": "67399d11ab170b7b1e159fb2e025af3a", "fusion_lat": 0.0, "rental_uris": {"ios": "https://dc.lft.to/lastmile_qr_scan", "android": "https://dc.lft.to/lastmile_qr_scan"}, "lon": -77.02487116666667, "type": "electric_scooter"}, {"bike_id": "592c0f2152b5ea363e3f68ff1da77379", "is_reserved": 0, "fusion_lon": 0.0, "lat": 38.908748333333335, "is_disabled": 0, "name": "592c0f2152b5ea363e3f68ff1da77379", "fusion_lat": 0.0, "rental_uris": {"ios": "https://dc.lft.to/lastmile_qr_scan", "android": "https://dc.lft.to/lastmile_qr_scan"}, "lon": -77.043433, "type": "electric_scooter"}, {"bike_id": "12507f5baa0ea9deea865f04d2518a5f", "is_reserved": 0, "fusion_lon": 0.0, "lat": 38.900676, "is_disabled": 0, "name": "12507f5baa0ea9deea865f04d2518a5f", "fusion_lat": 0.0, "rental_uris": {"ios": "https://dc.lft.to/lastmile_qr_scan", "android": "https://dc.lft.to/lastmile_qr_scan"}, "lon": -77.049977, "type": "electric_scooter"}, {"bike_id": "5e1d1f3f02a3dcd8743425f83d67aca8", "is_reserved": 0, "fusion_lon": 0.0, "lat": 38.839799166666666, "is_disabled": 0, "name": "5e1d1f3f02a3dcd8743425f83d67aca8", "fusion_lat": 0.0, "rental_uris": {"ios": "https://dc.lft.to/lastmile_qr_scan", "android": "https://dc.lft.to/lastmile_qr_scan"}, "lon": -77.00574916666666, "type": "electric_bike"}, {"bike_id": "cbada79ca8b0eae0e2afa5edc479e1d5", "is_reserved": 0, "fusion_lon": 0.0, "lat": 38.90781616666666, "is_disabled": 0, "name": "cbada79ca8b0eae0e2afa5edc479e1d5", "fusion_lat": 0.0, "rental_uris": {"ios": "https://dc.lft.to/lastmile_qr_scan", "android": "https://dc.lft.to/lastmile_qr_scan"}, "lon": -77.01110183333333, "type": "electric_scooter"}, {"bike_id": "d0d11c8c2d367ef1edc0df0023c461f0", "is_reserved": 0, "fusion_lon": 0.0, "lat": 38.866535, "is_disabled": 0, "name": "d0d11c8c2d367ef1edc0df0023c461f0", "fusion_lat": 0.0, "rental_uris": {"ios": "https://dc.lft.to/lastmile_qr_scan", "android": "https://dc.lft.to/lastmile_qr_scan"}, "lon": -76.99019183333333, "type": "electric_scooter"}, {"bike_id": "412118847ada7a00d3da5649b8a938f5", "is_reserved": 0, "fusion_lon": 0.0, "lat": 38.899837, "is_disabled": 0, "name": "412118847ada7a00d3da5649b8a938f5", "fusion_lat": 0.0, "rental_uris": {"ios": "https://dc.lft.to/lastmile_qr_scan", "android": "https://dc.lft.to/lastmile_qr_scan"}, "lon": -77.052467, "type": "electric_scooter"}, {"bike_id": "0e9b17aa50eb406cd9dd5c7c2d60d0ef", "is_reserved": 0, "fusion_lon": 0.0, "lat": 38.903466, "is_disabled": 0, "name": "0e9b17aa50eb406cd9dd5c7c2d60d0ef", "fusion_lat": 0.0, "rental_uris": {"ios": "https://dc.lft.to/lastmile_qr_scan", "android": "https://dc.lft.to/lastmile_qr_scan"}, "lon": -77.02956283333333, "type": "electric_scooter"}, {"bike_id": "288e3e6031ecd60c021810e91fcc0194", "is_reserved": 0, "fusion_lon": 0.0, "lat": 38.9079145, "is_disabled": 0, "name": "288e3e6031ecd60c021810e91fcc0194", "fusion_lat": 0.0, "rental_uris": {"ios": "https://dc.lft.to/lastmile_qr_scan", "android": "https://dc.lft.to/lastmile_qr_scan"}, "lon": -77.03185966666666, "type": "electric_scooter"}, {"bike_id": "77f320b922407ed5f5c2925d194c9d35", "is_reserved": 0, "fusion_lon": 0.0, "lat": 38.89825716666667, "is_disabled": 0, "name": "77f320b922407ed5f5c2925d194c9d35", "fusion_lat": 0.0, "rental_uris": {"ios": "https://dc.lft.to/lastmile_qr_scan", "android": "https://dc.lft.to/lastmile_qr_scan"}, "lon": -76.946533, "type": "electric_scooter"}, {"bike_id": "714ddde17eae211b5f1b3fbedf7dfadd", "is_reserved": 0, "fusion_lon": 0.0, "lat": 38.95282783333333, "is_disabled": 0, "name": "714ddde17eae211b5f1b3fbedf7dfadd", "fusion_lat": 0.0, "rental_uris": {"ios": "https://dc.lft.to/lastmile_qr_scan", "android": "https://dc.lft.to/lastmile_qr_scan"}, "lon": -76.94597516666667, "type": "electric_bike"}, {"bike_id": "9e9c3b906d3560e0c4439b90002719b1", "is_reserved": 0, "fusion_lon": 0.0, "lat": 38.9173355, "is_disabled": 0, "name": "9e9c3b906d3560e0c4439b90002719b1", "fusion_lat": 0.0, "rental_uris": {"ios": "https://dc.lft.to/lastmile_qr_scan", "android": "https://dc.lft.to/lastmile_qr_scan"}, "lon": -77.023159, "type": "electric_scooter"}, {"bike_id": "9761627218d5a252a05588cba40b8d47", "is_reserved": 0, "fusion_lon": 0.0, "lat": 38.91982316666667, "is_disabled": 0, "name": "9761627218d5a252a05588cba40b8d47", "fusion_lat": 0.0, "rental_uris": {"ios": "https://dc.lft.to/lastmile_qr_scan", "android": "https://dc.lft.to/lastmile_qr_scan"}, "lon": -77.04164133333333, "type": "electric_scooter"}, {"bike_id": "3dda358f28891fc1fce28ed1c56b2caf", "is_reserved": 0, "fusion_lon": 0.0, "lat": 38.93956683333333, "is_disabled": 0, "name": "3dda358f28891fc1fce28ed1c56b2caf", "fusion_lat": 0.0, "rental_uris": {"ios": "https://dc.lft.to/lastmile_qr_scan", "android": "https://dc.lft.to/lastmile_qr_scan"}, "lon": -77.36094966666667, "type": "electric_bike"}, {"bike_id": "e0f507761a044f045ececda8a7df457f", "is_reserved": 0, "fusion_lon": 0.0, "lat": 38.89807733333333, "is_disabled": 0, "name": "e0f507761a044f045ececda8a7df457f", "fusion_lat": 0.0, "rental_uris": {"ios": "https://dc.lft.to/lastmile_qr_scan", "android": "https://dc.lft.to/lastmile_qr_scan"}, "lon": -77.030583, "type": "electric_scooter"}, {"bike_id": "95d7c42ad0d1ce5540b3e42f3f854388", "is_reserved": 0, "fusion_lon": 0.0, "lat": 38.927465833333336, "is_disabled": 0, "name": "95d7c42ad0d1ce5540b3e42f3f854388", "fusion_lat": 0.0, "rental_uris": {"ios": "https://dc.lft.to/lastmile_qr_scan", "android": "https://dc.lft.to/lastmile_qr_scan"}, "lon": -77.02489283333334, "type": "electric_scooter"}, {"bike_id": "12b811722b82734fcfb10c31b8f68dda", "is_reserved": 0, "fusion_lon": 0.0, "lat": 38.902742, "is_disabled": 0, "name": "12b811722b82734fcfb10c31b8f68dda", "fusion_lat": 0.0, "rental_uris": {"ios": "https://dc.lft.to/lastmile_qr_scan", "android": "https://dc.lft.to/lastmile_qr_scan"}, "lon": -77.03831133333334, "type": "electric_scooter"}, {"bike_id": "f0e10921c49cedd96225e0fd07078407", "is_reserved": 0, "fusion_lon": 0.0, "lat": 38.92306716666667, "is_disabled": 0, "name": "f0e10921c49cedd96225e0fd07078407", "fusion_lat": 0.0, "rental_uris": {"ios": "https://dc.lft.to/lastmile_qr_scan", "android": "https://dc.lft.to/lastmile_qr_scan"}, "lon": -77.04106666666667, "type": "electric_scooter"}, {"bike_id": "ef1750c1fd7f8b3265eee1079e760113", "is_reserved": 0, "fusion_lon": 0.0, "lat": 38.8994255, "is_disabled": 0, "name": "ef1750c1fd7f8b3265eee1079e760113", "fusion_lat": 0.0, "rental_uris": {"ios": "https://dc.lft.to/lastmile_qr_scan", "android": "https://dc.lft.to/lastmile_qr_scan"}, "lon": -76.99024316666667, "type": "electric_scooter"}, {"bike_id": "24d8ced2f4ad0529b9203cecedf2d47a", "is_reserved": 0, "fusion_lon": 0.0, "lat": 38.91686166666667, "is_disabled": 0, "name": "24d8ced2f4ad0529b9203cecedf2d47a", "fusion_lat": 0.0, "rental_uris": {"ios": "https://dc.lft.to/lastmile_qr_scan", "android": "https://dc.lft.to/lastmile_qr_scan"}, "lon": -77.02954816666667, "type": "electric_scooter"}, {"bike_id": "85c5f9e5ad102a6005141083c61aa38a", "is_reserved": 0, "fusion_lon": 0.0, "lat": 38.895527666666666, "is_disabled": 0, "name": "85c5f9e5ad102a6005141083c61aa38a", "fusion_lat": 0.0, "rental_uris": {"ios": "https://dc.lft.to/lastmile_qr_scan", "android": "https://dc.lft.to/lastmile_qr_scan"}, "lon": -76.9308485, "type": "electric_scooter"}, {"bike_id": "2f2f89cb3c89b279c5a5bcc1542d7c7d", "is_reserved": 0, "fusion_lon": 0.0, "lat": 38.90648233333334, "is_disabled": 0, "name": "2f2f89cb3c89b279c5a5bcc1542d7c7d", "fusion_lat": 0.0, "rental_uris": {"ios": "https://dc.lft.to/lastmile_qr_scan", "android": "https://dc.lft.to/lastmile_qr_scan"}, "lon": -76.98372566666667, "type": "electric_scooter"}, {"bike_id": "b1e936c8891e79800445d54612b153eb", "is_reserved": 0, "fusion_lon": 0.0, "lat": 38.89242733333333, "is_disabled": 0, "name": "b1e936c8891e79800445d54612b153eb", "fusion_lat": 0.0, "rental_uris": {"ios": "https://dc.lft.to/lastmile_qr_scan", "android": "https://dc.lft.to/lastmile_qr_scan"}, "lon": -77.039602, "type": "electric_scooter"}, {"bike_id": "72322bbc8e5db12ef6ec334d33f8ce0d", "is_reserved": 0, "fusion_lon": 0.0, "lat": 38.9231055, "is_disabled": 0, "name": "72322bbc8e5db12ef6ec334d33f8ce0d", "fusion_lat": 0.0, "rental_uris": {"ios": "https://dc.lft.to/lastmile_qr_scan", "android": "https://dc.lft.to/lastmile_qr_scan"}, "lon": -77.04762066666666, "type": "electric_scooter"}, {"bike_id": "d919e92188d87f801f9a9c25f7d3d8e3", "is_reserved": 0, "fusion_lon": 0.0, "lat": 38.896130666666664, "is_disabled": 0, "name": "d919e92188d87f801f9a9c25f7d3d8e3", "fusion_lat": 0.0, "rental_uris": {"ios": "https://dc.lft.to/lastmile_qr_scan", "android": "https://dc.lft.to/lastmile_qr_scan"}, "lon": -77.04785316666667, "type": "electric_scooter"}, {"bike_id": "c4c2b8bef2688603004280c85f13816b", "is_reserved": 0, "fusion_lon": 0.0, "lat": 38.8616165, "is_disabled": 0, "name": "c4c2b8bef2688603004280c85f13816b", "fusion_lat": 0.0, "rental_uris": {"ios": "https://dc.lft.to/lastmile_qr_scan", "android": "https://dc.lft.to/lastmile_qr_scan"}, "lon": -76.9506945, "type": "electric_bike"}, {"bike_id": "da879b039b896c625238d629b1f30951", "is_reserved": 0, "fusion_lon": 0.0, "lat": 38.9245305, "is_disabled": 0, "name": "da879b039b896c625238d629b1f30951", "fusion_lat": 0.0, "rental_uris": {"ios": "https://dc.lft.to/lastmile_qr_scan", "android": "https://dc.lft.to/lastmile_qr_scan"}, "lon": -77.0410365, "type": "electric_scooter"}, {"bike_id": "084bf508dfcf9e790ea2d27b409b7185", "is_reserved": 0, "fusion_lon": 0.0, "lat": 38.901489833333336, "is_disabled": 0, "name": "084bf508dfcf9e790ea2d27b409b7185", "fusion_lat": 0.0, "rental_uris": {"ios": "https://dc.lft.to/lastmile_qr_scan", "android": "https://dc.lft.to/lastmile_qr_scan"}, "lon": -77.044654, "type": "electric_scooter"}, {"bike_id": "0314bf945c6358d40a02f02457932c81", "is_reserved": 0, "fusion_lon": 0.0, "lat": 38.91263716666667, "is_disabled": 0, "name": "0314bf945c6358d40a02f02457932c81", "fusion_lat": 0.0, "rental_uris": {"ios": "https://dc.lft.to/lastmile_qr_scan", "android": "https://dc.lft.to/lastmile_qr_scan"}, "lon": -77.0227645, "type": "electric_scooter"}, {"bike_id": "04c0c379965178de87878099f3db540b", "is_reserved": 0, "fusion_lon": 0.0, "lat": 38.94468466666667, "is_disabled": 0, "name": "04c0c379965178de87878099f3db540b", "fusion_lat": 0.0, "rental_uris": {"ios": "https://dc.lft.to/lastmile_qr_scan", "android": "https://dc.lft.to/lastmile_qr_scan"}, "lon": -77.02295283333333, "type": "electric_bike"}, {"bike_id": "c88d1ed9e60e8b88e0a5c3cbc75f5935", "is_reserved": 0, "fusion_lon": 0.0, "lat": 38.912483, "is_disabled": 0, "name": "c88d1ed9e60e8b88e0a5c3cbc75f5935", "fusion_lat": 0.0, "rental_uris": {"ios": "https://dc.lft.to/lastmile_qr_scan", "android": "https://dc.lft.to/lastmile_qr_scan"}, "lon": -77.0444325, "type": "electric_scooter"}, {"bike_id": "d276017cb605e2a82f264c45744fec65", "is_reserved": 0, "fusion_lon": 0.0, "lat": 38.923703, "is_disabled": 0, "name": "d276017cb605e2a82f264c45744fec65", "fusion_lat": 0.0, "rental_uris": {"ios": "https://dc.lft.to/lastmile_qr_scan", "android": "https://dc.lft.to/lastmile_qr_scan"}, "lon": -77.03540716666667, "type": "electric_scooter"}, {"bike_id": "f8153599710a821c2fecd98282961ab0", "is_reserved": 0, "fusion_lon": 0.0, "lat": 38.92846, "is_disabled": 0, "name": "f8153599710a821c2fecd98282961ab0", "fusion_lat": 0.0, "rental_uris": {"ios": "https://dc.lft.to/lastmile_qr_scan", "android": "https://dc.lft.to/lastmile_qr_scan"}, "lon": -77.0543205, "type": "electric_scooter"}, {"bike_id": "b384ef818c5cba79c2d764caf53d07d0", "is_reserved": 0, "fusion_lon": 0.0, "lat": 38.884904666666664, "is_disabled": 0, "name": "b384ef818c5cba79c2d764caf53d07d0", "fusion_lat": 0.0, "rental_uris": {"ios": "https://dc.lft.to/lastmile_qr_scan", "android": "https://dc.lft.to/lastmile_qr_scan"}, "lon": -77.0089865, "type": "electric_scooter"}, {"bike_id": "59c02add34edfd5761da078ff7fe186a", "is_reserved": 0, "fusion_lon": 0.0, "lat": 38.884041833333335, "is_disabled": 0, "name": "59c02add34edfd5761da078ff7fe186a", "fusion_lat": 0.0, "rental_uris": {"ios": "https://dc.lft.to/lastmile_qr_scan", "android": "https://dc.lft.to/lastmile_qr_scan"}, "lon": -76.9606205, "type": "electric_bike"}, {"bike_id": "7b4af0090498a0cc670abb3946631498", "is_reserved": 0, "fusion_lon": 0.0, "lat": 38.86363683333333, "is_disabled": 0, "name": "7b4af0090498a0cc670abb3946631498", "fusion_lat": 0.0, "rental_uris": {"ios": "https://dc.lft.to/lastmile_qr_scan", "android": "https://dc.lft.to/lastmile_qr_scan"}, "lon": -76.9904425, "type": "electric_scooter"}, {"bike_id": "20c81cc64e0879cdf0b8d507c8aa494f", "is_reserved": 0, "fusion_lon": 0.0, "lat": 38.95181683333333, "is_disabled": 0, "name": "20c81cc64e0879cdf0b8d507c8aa494f", "fusion_lat": 0.0, "rental_uris": {"ios": "https://dc.lft.to/lastmile_qr_scan", "android": "https://dc.lft.to/lastmile_qr_scan"}, "lon": -76.93547566666666, "type": "electric_bike"}, {"bike_id": "f48850839cd5e0fc577fa9bf35098872", "is_reserved": 0, "fusion_lon": 0.0, "lat": 38.9126605, "is_disabled": 0, "name": "f48850839cd5e0fc577fa9bf35098872", "fusion_lat": 0.0, "rental_uris": {"ios": "https://dc.lft.to/lastmile_qr_scan", "android": "https://dc.lft.to/lastmile_qr_scan"}, "lon": -77.03625116666667, "type": "electric_scooter"}, {"bike_id": "3a0ee9e13a8d892fb391a0fdd6b0c761", "is_reserved": 0, "fusion_lon": 0.0, "lat": 38.877296666666666, "is_disabled": 0, "name": "3a0ee9e13a8d892fb391a0fdd6b0c761", "fusion_lat": 0.0, "rental_uris": {"ios": "https://dc.lft.to/lastmile_qr_scan", "android": "https://dc.lft.to/lastmile_qr_scan"}, "lon": -77.11853333333333, "type": "electric_bike"}, {"bike_id": "bfd324fd4f515ffab6107949a284d6df", "is_reserved": 0, "fusion_lon": 0.0, "lat": 38.87112783333333, "is_disabled": 0, "name": "bfd324fd4f515ffab6107949a284d6df", "fusion_lat": 0.0, "rental_uris": {"ios": "https://dc.lft.to/lastmile_qr_scan", "android": "https://dc.lft.to/lastmile_qr_scan"}, "lon": -77.010754, "type": "electric_scooter"}, {"bike_id": "4e23a578fcfef31d841cf889a9547ec7", "is_reserved": 0, "fusion_lon": 0.0, "lat": 38.903704833333336, "is_disabled": 0, "name": "4e23a578fcfef31d841cf889a9547ec7", "fusion_lat": 0.0, "rental_uris": {"ios": "https://dc.lft.to/lastmile_qr_scan", "android": "https://dc.lft.to/lastmile_qr_scan"}, "lon": -77.03224983333334, "type": "electric_scooter"}, {"bike_id": "3f2dabdd53f4f3cd67641e0b9a89732f", "is_reserved": 0, "fusion_lon": 0.0, "lat": 38.919155333333336, "is_disabled": 0, "name": "3f2dabdd53f4f3cd67641e0b9a89732f", "fusion_lat": 0.0, "rental_uris": {"ios": "https://dc.lft.to/lastmile_qr_scan", "android": "https://dc.lft.to/lastmile_qr_scan"}, "lon": -77.03103083333333, "type": "electric_scooter"}, {"bike_id": "793abc996bbf38fe9e49de088fe26b45", "is_reserved": 0, "fusion_lon": 0.0, "lat": 38.91713566666667, "is_disabled": 0, "name": "793abc996bbf38fe9e49de088fe26b45", "fusion_lat": 0.0, "rental_uris": {"ios": "https://dc.lft.to/lastmile_qr_scan", "android": "https://dc.lft.to/lastmile_qr_scan"}, "lon": -77.03861833333333, "type": "electric_scooter"}, {"bike_id": "f71f4c43cf4714d1b17df9a34ecfe5d6", "is_reserved": 0, "fusion_lon": 0.0, "lat": 38.916714166666665, "is_disabled": 0, "name": "f71f4c43cf4714d1b17df9a34ecfe5d6", "fusion_lat": 0.0, "rental_uris": {"ios": "https://dc.lft.to/lastmile_qr_scan", "android": "https://dc.lft.to/lastmile_qr_scan"}, "lon": -77.0318725, "type": "electric_scooter"},