{"data": {"bikes": [{"bike_id": "57a6af41e330ee349e3ce14ab60232d0", "type": "electric_scooter", "is_disabled": 0, "lat": 38.91371066666667, "rental_uris": {"ios": "https://dc.lft.to/lastmile_qr_scan", "android": "https://dc.lft.to/lastmile_qr_scan"}, "is_reserved": 0, "fusion_lon": 0.0, "fusion_lat": 0.0, "lon": -77.07259916666666, "name": "57a6af41e330ee349e3ce14ab60232d0"}, {"bike_id": "7614361712f27401d60d8a7251a446de", "type": "electric_scooter", "is_disabled": 0, "lat": 38.921294333333336, "rental_uris": {"ios": "https://dc.lft.to/lastmile_qr_scan", "android": "https://dc.lft.to/lastmile_qr_scan"}, "is_reserved": 0, "fusion_lon": 0.0, "fusion_lat": 0.0, "lon": -77.04565033333333, "name": "7614361712f27401d60d8a7251a446de"}, {"bike_id": "5db736c1857b28948e24a59b6be7d95a", "type": "electric_bike", "is_disabled": 0, "lat": 38.87278, "rental_uris": {"ios": "https://dc.lft.to/lastmile_qr_scan", "android": "https://dc.lft.to/lastmile_qr_scan"}, "is_reserved": 0, "fusion_lon": 0.0, "fusion_lat": 0.0, "lon": -77.23316233333334, "name": "5db736c1857b28948e24a59b6be7d95a"}, {"bike_id": "9ad405dbb59666580e513c9fb3061b93", "type": "electric_bike", "is_disabled": 0, "lat": 38.91017, "rental_uris": {"ios": "https://dc.lft.to/lastmile_qr_scan", "android": "https://dc.lft.to/lastmile_qr_scan"}, "is_reserved": 0, "fusion_lon": 0.0, "fusion_lat": 0.0, "lon": -77.22798683333333, "name": "9ad405dbb59666580e513c9fb3061b93"}, {"bike_id": "66b62464166e9d9f1ed2b0cde65dae0b", "type": "electric_scooter", "is_disabled": 0, "lat": 38.94702766666666, "rental_uris": {"ios": "https://dc.lft.to/lastmile_qr_scan", "android": "https://dc.lft.to/lastmile_qr_scan"}, "is_reserved": 0, "fusion_lon": 0.0, "fusion_lat": 0.0, "lon": -77.01934666666666, "name": "66b62464166e9d9f1ed2b0cde65dae0b"}, {"bike_id": "4febe49cc934e739cb0dcfde3d68ac60", "type": "electric_scooter", "is_disabled": 0, "lat": 38.91911233333333, "rental_uris": {"ios": "https://dc.lft.to/lastmile_qr_scan", "android": "https://dc.lft.to/lastmile_qr_scan"}, "is_reserved": 0, "fusion_lon": 0.0, "fusion_lat": 0.0, "lon": -77.01405633333333, "name": "4febe49cc934e739cb0dcfde3d68ac60"}, {"bike_id": "0bffb15c91c35e79ce4c2a239e0ffcdf", "type": "electric_scooter", "is_disabled": 0, "lat": 38.926006, "rental_uris": {"ios": "https://dc.lft.to/lastmile_qr_scan", "android": "https://dc.lft.to/lastmile_qr_scan"}, "is_reserved": 0, "fusion_lon": 0.0, "fusion_lat": 0.0, "lon": -77.02502716666666, "name": "0bffb15c91c35e79ce4c2a239e0ffcdf"}, {"bike_id": "17be6c2e6f1970695b27f6f55c91c8ef", "type": "electric_scooter", "is_disabled": 0, "lat": 38.924436666666665, "rental_uris": {"ios": "https://dc.lft.to/lastmile_qr_scan", "android": "https://dc.lft.to/lastmile_qr_scan"}, "is_reserved": 0, "fusion_lon": 0.0, "fusion_lat": 0.0, "lon": -77.03347933333333, "name": "17be6c2e6f1970695b27f6f55c91c8ef"}, {"bike_id": "0fc4a4a7fb3849db0ee3417f15bff5d5", "type": "electric_scooter", "is_disabled": 0, "lat": 38.914083166666664, "rental_uris": {"ios": "https://dc.lft.to/lastmile_qr_scan", "android": "https://dc.lft.to/lastmile_qr_scan"}, "is_reserved": 0, "fusion_lon": 0.0, "fusion_lat": 0.0, "lon": -77.015591, "name": "0fc4a4a7fb3849db0ee3417f15bff5d5"}, {"bike_id": "1bbd363e460fb8fafa2a5c3f61d3ebdf", "type": "electric_scooter", "is_disabled": 0, "lat": 38.8697765, "rental_uris": {"ios": "https://dc.lft.to/lastmile_qr_scan", "android": "https://dc.lft.to/lastmile_qr_scan"}, "is_reserved": 0, "fusion_lon": 0.0, "fusion_lat": 0.0, "lon": -76.981705, "name": "1bbd363e460fb8fafa2a5c3f61d3ebdf"}, {"bike_id": "20620bcabf6eb3382866dc7a82027209", "type": "electric_scooter", "is_disabled": 0, "lat": 38.864341, "rental_uris": {"ios": "https://dc.lft.to/lastmile_qr_scan", "android": "https://dc.lft.to/lastmile_qr_scan"}, "is_reserved": 0, "fusion_lon": 0.0, "fusion_lat": 0.0, "lon": -76.98995316666667, "name": "20620bcabf6eb3382866dc7a82027209"}, {"bike_id": "223d489b919ac93d169e61b608196da0", "type": "electric_scooter", "is_disabled": 0, "lat": 38.928552333333336, "rental_uris": {"ios": "https://dc.lft.to/lastmile_qr_scan", "android": "https://dc.lft.to/lastmile_qr_scan"}, "is_reserved": 0, "fusion_lon": 0.0, "fusion_lat": 0.0, "lon": -77.01949733333333, "name": "223d489b919ac93d169e61b608196da0"}, {"bike_id": "207a18c207c33e1b37fcdb5f5ececfda", "type": "electric_scooter", "is_disabled": 0, "lat": 38.9166285, "rental_uris": {"ios": "https://dc.lft.to/lastmile_qr_scan", "android": "https://dc.lft.to/lastmile_qr_scan"}, "is_reserved": 0, "fusion_lon": 0.0, "fusion_lat": 0.0, "lon": -77.03841633333333, "name": "207a18c207c33e1b37fcdb5f5ececfda"}, {"bike_id": "f1028b2bff9e65354b349de98e8c790d", "type": "electric_scooter", "is_disabled": 0, "lat": 38.900941333333336, "rental_uris": {"ios": "https://dc.lft.to/lastmile_qr_scan", "android": "https://dc.lft.to/lastmile_qr_scan"}, "is_reserved": 0, "fusion_lon": 0.0, "fusion_lat": 0.0, "lon": -77.0577805, "name": "f1028b2bff9e65354b349de98e8c790d"}, {"bike_id": "d6ed984d446f72d1aff742d794fe469a", "type": "electric_scooter", "is_disabled": 0, "lat": 38.921542333333335, "rental_uris": {"ios": "https://dc.lft.to/lastmile_qr_scan", "android": "https://dc.lft.to/lastmile_qr_scan"}, "is_reserved": 0, "fusion_lon": 0.0, "fusion_lat": 0.0, "lon": -77.03529466666667, "name": "d6ed984d446f72d1aff742d794fe469a"}, {"bike_id": "47584abdc37ac91b31be2b3646d9c41e", "type": "electric_scooter", "is_disabled": 0, "lat": 38.9193345, "rental_uris": {"ios": "https://dc.lft.to/lastmile_qr_scan", "android": "https://dc.lft.to/lastmile_qr_scan"}, "is_reserved": 0, "fusion_lon": 0.0, "fusion_lat": 0.0, "lon": -77.04490516666667, "name": "47584abdc37ac91b31be2b3646d9c41e"}, {"bike_id": "798403acacb6d0028ff06a635c895b0a", "type": "electric_scooter", "is_disabled": 0, "lat": 38.9100475, "rental_uris": {"ios": "https://dc.lft.to/lastmile_qr_scan", "android": "https://dc.lft.to/lastmile_qr_scan"}, "is_reserved": 0, "fusion_lon": 0.0, "fusion_lat": 0.0, "lon": -76.98633516666666, "name": "798403acacb6d0028ff06a635c895b0a"}, {"bike_id": "b867c220485e2b13249a956c3cc0f136", "type": "electric_scooter", "is_disabled": 0, "lat": 38.93685416666667, "rental_uris": {"ios": "https://dc.lft.to/lastmile_qr_scan", "android": "https://dc.lft.to/lastmile_qr_scan"}, "is_reserved": 0, "fusion_lon": 0.0, "fusion_lat": 0.0, "lon": -77.036293, "name": "b867c220485e2b13249a956c3cc0f136"}, {"bike_id": "638e6c5d74bf58d0e50eb66638c5365c", "type": "electric_scooter", "is_disabled": 0, "lat": 38.94793683333333, "rental_uris": {"ios": "https://dc.lft.to/lastmile_qr_scan", "android": "https://dc.lft.to/lastmile_qr_scan"}, "is_reserved": 0, "fusion_lon": 0.0, "fusion_lat": 0.0, "lon": -77.02136183333333, "name": "638e6c5d74bf58d0e50eb66638c5365c"}, {"bike_id": "be30e30595c7581c1ff3de22c354342c", "type": "electric_bike", "is_disabled": 0, "lat": 38.880663, "rental_uris": {"ios": "https://dc.lft.to/lastmile_qr_scan", "android": "https://dc.lft.to/lastmile_qr_scan"}, "is_reserved": 0, "fusion_lon": 0.0, "fusion_lat": 0.0, "lon": -76.96231716666667, "name": "be30e30595c7581c1ff3de22c354342c"}, {"bike_id": "7d72340beb9e3dd5d0910b0535d82c68", "type": "electric_scooter", "is_disabled": 0, "lat": 38.916151, "rental_uris": {"ios": "https://dc.lft.to/lastmile_qr_scan", "android": "https://dc.lft.to/lastmile_qr_scan"}, "is_reserved": 0, "fusion_lon": 0.0, "fusion_lat": 0.0, "lon": -77.0485615, "name": "7d72340beb9e3dd5d0910b0535d82c68"}, {"bike_id": "85d2bba7b0d722ff36a166c8426e4446", "type": "electric_scooter", "is_disabled": 0, "lat": 38.9168775, "rental_uris": {"ios": "https://dc.lft.to/lastmile_qr_scan", "android": "https://dc.lft.to/lastmile_qr_scan"}, "is_reserved": 0, "fusion_lon": 0.0, "fusion_lat": 0.0, "lon": -77.02283183333333, "name": "85d2bba7b0d722ff36a166c8426e4446"}, {"bike_id": "81c9e2bb880f118a6f63be78f1327984", "type": "electric_scooter", "is_disabled": 0, "lat": 38.900023166666664, "rental_uris": {"ios": "https://dc.lft.to/lastmile_qr_scan", "android": "https://dc.lft.to/lastmile_qr_scan"}, "is_reserved": 0, "fusion_lon": 0.0, "fusion_lat": 0.0, "lon": -77.05328783333333, "name": "81c9e2bb880f118a6f63be78f1327984"}, {"bike_id": "620ddba54b6f94881b355eab9d8fcbc2", "type": "electric_scooter", "is_disabled": 0, "lat": 38.9421325, "rental_uris": {"ios": "https://dc.lft.to/lastmile_qr_scan", "android": "https://dc.lft.to/lastmile_qr_scan"}, "is_reserved": 0, "fusion_lon": 0.0, "fusion_lat": 0.0, "lon": -77.0258495, "name": "620ddba54b6f94881b355eab9d8fcbc2"}, {"bike_id": "82ef23489bbcd5dedcedb1d5e0dfd7cf", "type": "electric_scooter", "is_disabled": 0, "lat": 38.906394666666664, "rental_uris": {"ios": "https://dc.lft.to/lastmile_qr_scan", "android": "https://dc.lft.to/lastmile_qr_scan"}, "is_reserved": 0, "fusion_lon": 0.0, "fusion_lat": 0.0, "lon": -77.01432766666667, "name": "82ef23489bbcd5dedcedb1d5e0dfd7cf"}, {"bike_id": "768dce0f683bb69b5667e22384995382", "type": "electric_scooter", "is_disabled": 0, "lat": 38.90220716666666, "rental_uris": {"ios": "https://dc.lft.to/lastmile_qr_scan", "android": "https://dc.lft.to/lastmile_qr_scan"}, "is_reserved": 0, "fusion_lon": 0.0, "fusion_lat": 0.0, "lon": -77.02210283333334, "name": "768dce0f683bb69b5667e22384995382"}, {"bike_id": "897ec7aa7827f74f4ef01629284f8800", "type": "electric_scooter", "is_disabled": 0, "lat": 38.904969666666666, "rental_uris": {"ios": "https://dc.lft.to/lastmile_qr_scan", "android": "https://dc.lft.to/lastmile_qr_scan"}, "is_reserved": 0, "fusion_lon": 0.0, "fusion_lat": 0.0, "lon": -77.03815816666666, "name": "897ec7aa7827f74f4ef01629284f8800"}, {"bike_id": "f68c7415bc3c4dec9f0f5ed82dc70fb4", "type": "electric_scooter", "is_disabled": 0, "lat": 38.936421, "rental_uris": {"ios": "https://dc.lft.to/lastmile_qr_scan", "android": "https://dc.lft.to/lastmile_qr_scan"}, "is_reserved": 0, "fusion_lon": 0.0, "fusion_lat": 0.0, "lon": -77.05880266666667, "name": "f68c7415bc3c4dec9f0f5ed82dc70fb4"}, {"bike_id": "6d59e3223db68bfde55101fd41928ef0", "type": "electric_scooter", "is_disabled": 0, "lat": 38.910706166666664, "rental_uris": {"ios": "https://dc.lft.to/lastmile_qr_scan", "android": "https://dc.lft.to/lastmile_qr_scan"}, "is_reserved": 0, "fusion_lon": 0.0, "fusion_lat": 0.0, "lon": -77.0371795, "name": "6d59e3223db68bfde55101fd41928ef0"}, {"bike_id": "c16d8d1649040ee17250fdb25f1292f3", "type": "electric_scooter", "is_disabled": 0, "lat": 38.934994333333336, "rental_uris": {"ios": "https://dc.lft.to/lastmile_qr_scan", "android": "https://dc.lft.to/lastmile_qr_scan"}, "is_reserved": 0, "fusion_lon": 0.0, "fusion_lat": 0.0, "lon": -77.07397666666667, "name": "c16d8d1649040ee17250fdb25f1292f3"}, {"bike_id": "f8e34d0f166d06e505aef7231d6460cf", "type": "electric_scooter", "is_disabled": 0, "lat": 38.9126465, "rental_uris": {"ios": "https://dc.lft.to/lastmile_qr_scan", "android": "https://dc.lft.to/lastmile_qr_scan"}, "is_reserved": 0, "fusion_lon": 0.0, "fusion_lat": 0.0, "lon": -77.0049305, "name": "f8e34d0f166d06e505aef7231d6460cf"}, {"bike_id": "e6ec70522e42babe89976e4fd14f633e", "type": "electric_scooter", "is_disabled": 0, "lat": 38.87658416666667, "rental_uris": {"ios": "https://dc.lft.to/lastmile_qr_scan", "android": "https://dc.lft.to/lastmile_qr_scan"}, "is_reserved": 0, "fusion_lon": 0.0, "fusion_lat": 0.0, "lon": -77.00285216666667, "name": "e6ec70522e42babe89976e4fd14f633e"}, {"bike_id": "c62817cdc72e3cdc243b02c73e38d092", "type": "electric_scooter", "is_disabled": 0, "lat": 38.926013, "rental_uris": {"ios": "https://dc.lft.to/lastmile_qr_scan", "android": "https://dc.lft.to/lastmile_qr_scan"}, "is_reserved": 0, "fusion_lon": 0.0, "fusion_lat": 0.0, "lon": -77.02152083333333, "name": "c62817cdc72e3cdc243b02c73e38d092"}, {"bike_id": "04b43f16272c6c3457a4cca2e91cb6e7", "type": "electric_scooter", "is_disabled": 0, "lat": 38.93083033333333, "rental_uris": {"ios": "https://dc.lft.to/lastmile_qr_scan", "android": "https://dc.lft.to/lastmile_qr_scan"}, "is_reserved": 0, "fusion_lon": 0.0, "fusion_lat": 0.0, "lon": -77.0255505, "name": "04b43f16272c6c3457a4cca2e91cb6e7"}, {"bike_id": "0bd527e50640cea800307a82a7b6d4dc", "type": "electric_scooter", "is_disabled": 0, "lat": 38.8668285, "rental_uris": {"ios": "https://dc.lft.to/lastmile_qr_scan", "android": "https://dc.lft.to/lastmile_qr_scan"}, "is_reserved": 0, "fusion_lon": 0.0, "fusion_lat": 0.0, "lon": -76.98568266666666, "name": "0bd527e50640cea800307a82a7b6d4dc"}, {"bike_id": "fdcd3801821bd0aa70664c04da70532d", "type": "electric_scooter", "is_disabled": 0, "lat": 38.90734116666667, "rental_uris": {"ios": "https://dc.lft.to/lastmile_qr_scan", "android": "https://dc.lft.to/lastmile_qr_scan"}, "is_reserved": 0, "fusion_lon": 0.0, "fusion_lat": 0.0, "lon": -77.01307616666666, "name": "fdcd3801821bd0aa70664c04da70532d"}, {"bike_id": "8ea3b1e904ef51faa26b50ea0b683281", "type": "electric_scooter", "is_disabled": 0, "lat": 38.9184745, "rental_uris": {"ios": "https://dc.lft.to/lastmile_qr_scan", "android": "https://dc.lft.to/lastmile_qr_scan"}, "is_reserved": 0, "fusion_lon": 0.0, "fusion_lat": 0.0, "lon": -77.04832983333333, "name": "8ea3b1e904ef51faa26b50ea0b683281"}, {"bike_id": "4e6533dc269b971111d47f691c578776", "type": "electric_scooter", "is_disabled": 0, "lat": 38.866864, "rental_uris": {"ios": "https://dc.lft.to/lastmile_qr_scan", "android": "https://dc.lft.to/lastmile_qr_scan"}, "is_reserved": 0, "fusion_lon": 0.0, "fusion_lat": 0.0, "lon": -76.98573766666667, "name": "4e6533dc269b971111d47f691c578776"}, {"bike_id": "0cc79ae6d2849b8aa1a5ec6b5e0a09d8", "type": "electric_scooter", "is_disabled": 0, "lat": 38.907309, "rental_uris": {"ios": "https://dc.lft.to/lastmile_qr_scan", "android": "https://dc.lft.to/lastmile_qr_scan"}, "is_reserved": 0, "fusion_lon": 0.0, "fusion_lat": 0.0, "lon": -77.03459583333333, "name": "0cc79ae6d2849b8aa1a5ec6b5e0a09d8"}, {"bike_id": "92736f8c2ab39ca5c993cd224498deba", "type": "electric_scooter", "is_disabled": 0, "lat": 38.93637283333333, "rental_uris": {"ios": "https://dc.lft.to/lastmile_qr_scan", "android": "https://dc.lft.to/lastmile_qr_scan"}, "is_reserved": 0, "fusion_lon": 0.0, "fusion_lat": 0.0, "lon": -77.05880183333333, "name": "92736f8c2ab39ca5c993cd224498deba"}, {"bike_id": "9579ac7981eeef654e924a76b8a7f861", "type": "electric_scooter", "is_disabled": 0, "lat": 38.88937416666667, "rental_uris": {"ios": "https://dc.lft.to/lastmile_qr_scan", "android": "https://dc.lft.to/lastmile_qr_scan"}, "is_reserved": 0, "fusion_lon": 0.0, "fusion_lat": 0.0, "lon": -77.0150505, "name": "9579ac7981eeef654e924a76b8a7f861"}, {"bike_id": "b243150eab6b2d6875bd4aa0fbaf91cc", "type": "electric_scooter", "is_disabled": 0, "lat": 38.90494616666667, "rental_uris": {"ios": "https://dc.lft.to/lastmile_qr_scan", "android": "https://dc.lft.to/lastmile_qr_scan"}, "is_reserved": 0, "fusion_lon": 0.0, "fusion_lat": 0.0, "lon": -77.01995233333334, "name": "b243150eab6b2d6875bd4aa0fbaf91cc"}, {"bike_id": "7807d0eec8a925397435ab80d736c425", "type": "electric_scooter", "is_disabled": 0, "lat": 38.92292316666666, "rental_uris": {"ios": "https://dc.lft.to/lastmile_qr_scan", "android": "https://dc.lft.to/lastmile_qr_scan"}, "is_reserved": 0, "fusion_lon": 0.0, "fusion_lat": 0.0, "lon": -77.02958716666667, "name": "7807d0eec8a925397435ab80d736c425"}, {"bike_id": "47c95a273ce48eda3b81a1b4bd3ce6ac", "type": "electric_scooter", "is_disabled": 0, "lat": 38.922783833333334, "rental_uris": {"ios": "https://dc.lft.to/lastmile_qr_scan", "android": "https://dc.lft.to/lastmile_qr_scan"}, "is_reserved": 0, "fusion_lon": 0.0, "fusion_lat": 0.0, "lon": -76.99456183333334, "name": "47c95a273ce48eda3b81a1b4bd3ce6ac"}, {"bike_id": "ab3a0d828e18be4f787b7d372471a094", "type": "electric_scooter", "is_disabled": 0, "lat": 38.90552916666667, "rental_uris": {"ios": "https://dc.lft.to/lastmile_qr_scan", "android": "https://dc.lft.to/lastmile_qr_scan"}, "is_reserved": 0, "fusion_lon": 0.0, "fusion_lat": 0.0, "lon": -76.9961865, "name": "ab3a0d828e18be4f787b7d372471a094"}, {"bike_id": "7d65286d650a89892de914c3e6d7bf83", "type": "electric_scooter", "is_disabled": 0, "lat": 38.922527333333335, "rental_uris": {"ios": "https://dc.lft.to/lastmile_qr_scan", "android": "https://dc.lft.to/lastmile_qr_scan"}, "is_reserved": 0, "fusion_lon": 0.0, "fusion_lat": 0.0, "lon": -77.03893566666666, "name": "7d65286d650a89892de914c3e6d7bf83"}, {"bike_id": "4ba24287574d89808b2b708ffcab09c7", "type": "electric_bike", "is_disabled": 0, "lat": 38.95174516666667, "rental_uris": {"ios": "https://dc.lft.to/lastmile_qr_scan", "android": "https://dc.lft.to/lastmile_qr_scan"}, "is_reserved": 0, "fusion_lon": 0.0, "fusion_lat": 0.0, "lon": -76.96381633333333, "name": "4ba24287574d89808b2b708ffcab09c7"}, {"bike_id": "f5ba90bdd7718deee5fd7d531d2bb0e2", "type": "electric_scooter", "is_disabled": 0, "lat": 38.90958833333333, "rental_uris": {"ios": "https://dc.lft.to/lastmile_qr_scan", "android": "https://dc.lft.to/lastmile_qr_scan"}, "is_reserved": 0, "fusion_lon": 0.0, "fusion_lat": 0.0, "lon": -77.04861, "name": "f5ba90bdd7718deee5fd7d531d2bb0e2"}, {"bike_id": "ebd66b895beddb906287a8f4e1469cdb", "type": "electric_bike", "is_disabled": 0, "lat": 38.804144666666666, "rental_uris": {"ios": "https://dc.lft.to/lastmile_qr_scan", "android": "https://dc.lft.to/lastmile_qr_scan"}, "is_reserved": 0, "fusion_lon": 0.0, "fusion_lat": 0.0, "lon": -77.05551866666667, "name": "ebd66b895beddb906287a8f4e1469cdb"}, {"bike_id": "821dd1fb44de336f143e057fcce7caa7", "type": "electric_scooter", "is_disabled": 0, "lat": 38.9057985, "rental_uris": {"ios": "https://dc.lft.to/lastmile_qr_scan", "android": "https://dc.lft.to/lastmile_qr_scan"}, "is_reserved": 0, "fusion_lon": 0.0, "fusion_lat": 0.0, "lon": -77.02200616666667, "name": "821dd1fb44de336f143e057fcce7caa7"}, {"bike_id": "ea1536302deec873b97ec39d05c29b30", "type": "electric_scooter", "is_disabled": 0, "lat": 38.895547666666666, "rental_uris": {"ios": "https://dc.lft.to/lastmile_qr_scan", "android": "https://dc.lft.to/lastmile_qr_scan"}, "is_reserved": 0, "fusion_lon": 0.0, "fusion_lat": 0.0, "lon": -77.01091683333334, "name": "ea1536302deec873b97ec39d05c29b30"}, {"bike_id": "42bc0220676b22419bbd7ac77381e64b", "type": "electric_bike", "is_disabled": 0, "lat": 38.952307, "rental_uris": {"ios": "https://dc.lft.to/lastmile_qr_scan", "android": "https://dc.lft.to/lastmile_qr_scan"}, "is_reserved": 0, "fusion_lon": 0.0, "fusion_lat": 0.0, "lon": -77.007578, "name": "42bc0220676b22419bbd7ac77381e64b"}, {"bike_id": "804e58beb5748052b3f93d632c17a4de", "type": "electric_bike", "is_disabled": 0, "lat": 38.870907333333335, "rental_uris": {"ios": "https://dc.lft.to/lastmile_qr_scan", "android": "https://dc.lft.to/lastmile_qr_scan"}, "is_reserved": 0, "fusion_lon": 0.0, "fusion_lat": 0.0, "lon": -77.01199816666667, "name": "804e58beb5748052b3f93d632c17a4de"}, {"bike_id": "3fe5c5cedc27bd4ad910c2e6cc635bf0", "type": "electric_bike", "is_disabled": 0, "lat": 38.807536666666664, "rental_uris": {"ios": "https://dc.lft.to/lastmile_qr_scan", "android": "https://dc.lft.to/lastmile_qr_scan"}, "is_reserved": 0, "fusion_lon": 0.0, "fusion_lat": 0.0, "lon": -77.09450166666667, "name": "3fe5c5cedc27bd4ad910c2e6cc635bf0"}, {"bike_id": "c7d22e139ab6187ce2ba9d17a22ce2ec", "type": "electric_scooter", "is_disabled": 0, "lat": 38.923427, "rental_uris": {"ios": "https://dc.lft.to/lastmile_qr_scan", "android": "https://dc.lft.to/lastmile_qr_scan"}, "is_reserved": 0, "fusion_lon": 0.0, "fusion_lat": 0.0, "lon": -77.00187283333334, "name": "c7d22e139ab6187ce2ba9d17a22ce2ec"}, {"bike_id": "ca8048bb389afb93747ea9d322fef27e", "type": "electric_scooter", "is_disabled": 0, "lat": 38.93293633333333, "rental_uris": {"ios": "https://dc.lft.to/lastmile_qr_scan", "android": "https://dc.lft.to/lastmile_qr_scan"}, "is_reserved": 0, "fusion_lon": 0.0, "fusion_lat": 0.0, "lon": -77.03530766666667, "name": "ca8048bb389afb93747ea9d322fef27e"}, {"bike_id": "91ff900be3ad16b67235477d80e71ae3", "type": "electric_scooter", "is_disabled": 0, "lat": 38.8996555, "rental_uris": {"ios": "https://dc.lft.to/lastmile_qr_scan", "android": "https://dc.lft.to/lastmile_qr_scan"}, "is_reserved": 0, "fusion_lon": 0.0, "fusion_lat": 0.0, "lon": -77.047729, "name": "91ff900be3ad16b67235477d80e71ae3"}, {"bike_id": "5a29118eb6e87320391241180b10918e", "type": "electric_scooter", "is_disabled": 0, "lat": 38.923355, "rental_uris": {"ios": "https://dc.lft.to/lastmile_qr_scan", "android": "https://dc.lft.to/lastmile_qr_scan"}, "is_reserved": 0, "fusion_lon": 0.0, "fusion_lat": 0.0, "lon": -77.03590316666667, "name": "5a29118eb6e87320391241180b10918e"}, {"bike_id": "22d85c93286b24fea0f458d91d42b7ba", "type": "electric_bike", "is_disabled": 0, "lat": 39.043079166666665, "rental_uris": {"ios": "https://dc.lft.to/lastmile_qr_scan", "android": "https://dc.lft.to/lastmile_qr_scan"}, "is_reserved": 0, "fusion_lon": 0.0, "fusion_lat": 0.0, "lon": -77.05156716666667, "name": "22d85c93286b24fea0f458d91d42b7ba"}, {"bike_id": "63991063b072b55a6f4a2d18ae35784e", "type": "electric_scooter", "is_disabled": 0, "lat": 38.91050966666667, "rental_uris": {"ios": "https://dc.lft.to/lastmile_qr_scan", "android": "https://dc.lft.to/lastmile_qr_scan"}, "is_reserved": 0, "fusion_lon": 0.0, "fusion_lat": 0.0, "lon": -77.0091915, "name": "63991063b072b55a6f4a2d18ae35784e"}, {"bike_id": "29b0eb64907f8282c6b2428da16596d9", "type": "electric_scooter", "is_disabled": 0, "lat": 38.862098833333334, "rental_uris": {"ios": "https://dc.lft.to/lastmile_qr_scan", "android": "https://dc.lft.to/lastmile_qr_scan"}, "is_reserved": 0, "fusion_lon": 0.0, "fusion_lat": 0.0, "lon": -77.08812283333333, "name": "29b0eb64907f8282c6b2428da16596d9"}, {"bike_id": "28eda56ab45604d6701d3e3aecb80655", "type": "electric_scooter", "is_disabled": 0, "lat": 38.93862716666667, "rental_uris": {"ios": "https://dc.lft.to/lastmile_qr_scan", "android": "https://dc.lft.to/lastmile_qr_scan"}, "is_reserved": 0, "fusion_lon": 0.0, "fusion_lat": 0.0, "lon": -77.03082733333333, "name": "28eda56ab45604d6701d3e3aecb80655"}, {"bike_id": "20d01ac9f825e5c1faa08adce08cb8bd", "type": "electric_scooter", "is_disabled": 0, "lat": 38.8443705, "rental_uris": {"ios": "https://dc.lft.to/lastmile_qr_scan", "android": "https://dc.lft.to/lastmile_qr_scan"}, "is_reserved": 0, "fusion_lon": 0.0, "fusion_lat": 0.0, "lon": -76.99776816666666, "name": "20d01ac9f825e5c1faa08adce08cb8bd"}, {"bike_id": "93c58aa30054afb1086b4bb0316a2eee", "type": "electric_scooter", "is_disabled": 0, "lat": 38.91841, "rental_uris": {"ios": "https://dc.lft.to/lastmile_qr_scan", "android": "https://dc.lft.to/lastmile_qr_scan"}, "is_reserved": 0, "fusion_lon": 0.0, "fusion_lat": 0.0, "lon": -77.02321683333334, "name": "93c58aa30054afb1086b4bb0316a2eee"}, {"bike_id": "2167a0beeb18474caa1793f614c66d8a", "type": "electric_scooter", "is_disabled": 0, "lat": 38.9219465, "rental_uris": {"ios": "https://dc.lft.to/lastmile_qr_scan", "android": "https://dc.lft.to/lastmile_qr_scan"}, "is_reserved": 0, "fusion_lon": 0.0, "fusion_lat": 0.0, "lon": -76.993589, "name": "2167a0beeb18474caa1793f614c66d8a"}, {"bike_id": "c21dc72a62773cd5cb08e0d107af1f0a", "type": "electric_bike", "is_disabled": 0, "lat": 38.82378666666666, "rental_uris": {"ios": "https://dc.lft.to/lastmile_qr_scan", "android": "https://dc.lft.to/lastmile_qr_scan"}, "is_reserved": 0, "fusion_lon": 0.0, "fusion_lat": 0.0, "lon": -77.00225866666666, "name": "c21dc72a62773cd5cb08e0d107af1f0a"}, {"bike_id": "c9113a2eb1c432f101de10ca752a9532", "type": "electric_bike", "is_disabled": 0, "lat": 38.90510666666667, "rental_uris": {"ios": "https://dc.lft.to/lastmile_qr_scan", "android": "https://dc.lft.to/lastmile_qr_scan"}, "is_reserved": 0, "fusion_lon": 0.0, "fusion_lat": 0.0, "lon": -76.98720966666667, "name": "c9113a2eb1c432f101de10ca752a9532"}, {"bike_id": "3f06c44640023c7314935c99c01a35f5", "type": "electric_scooter", "is_disabled": 0, "lat": 38.901760833333334, "rental_uris": {"ios": "https://dc.lft.to/lastmile_qr_scan", "android": "https://dc.lft.to/lastmile_qr_scan"}, "is_reserved": 0, "fusion_lon": 0.0, "fusion_lat": 0.0, "lon": -77.03190016666667, "name": "3f06c44640023c7314935c99c01a35f5"}, {"bike_id": "3835ab0749914a2a42c90f0975f97dc6", "type": "electric_scooter", "is_disabled": 0, "lat": 38.9010445, "rental_uris": {"ios": "https://dc.lft.to/lastmile_qr_scan", "android": "https://dc.lft.to/lastmile_qr_scan"}, "is_reserved": 0, "fusion_lon": 0.0, "fusion_lat": 0.0, "lon": -77.0240785, "name": "3835ab0749914a2a42c90f0975f97dc6"}, {"bike_id": "a24705000d5725c9a3c47cae6c5b23fd", "type": "electric_scooter", "is_disabled": 0, "lat": 38.91878116666667, "rental_uris": {"ios": "https://dc.lft.to/lastmile_qr_scan", "android": "https://dc.lft.to/lastmile_qr_scan"}, "is_reserved": 0, "fusion_lon": 0.0, "fusion_lat": 0.0, "lon": -77.03505466666667, "name": "a24705000d5725c9a3c47cae6c5b23fd"}, {"bike_id": "44077efb16f276bfa9688a9303117771", "type": "electric_scooter", "is_disabled": 0, "lat": 38.910418166666666, "rental_uris": {"ios": "https://dc.lft.to/lastmile_qr_scan", "android": "https://dc.lft.to/lastmile_qr_scan"}, "is_reserved": 0, "fusion_lon": 0.0, "fusion_lat": 0.0, "lon": -77.07347916666667, "name": "44077efb16f276bfa9688a9303117771"}, {"bike_id": "3b0552d4bb1327fb252f49adec93ac75", "type": "electric_scooter", "is_disabled": 0, "lat": 38.928091, "rental_uris": {"ios": "https://dc.lft.to/lastmile_qr_scan", "android": "https://dc.lft.to/lastmile_qr_scan"}, "is_reserved": 0, "fusion_lon": 0.0, "fusion_lat": 0.0, "lon": -77.03221, "name": "3b0552d4bb1327fb252f49adec93ac75"}, {"bike_id": "214c31ee5d609618d85017d429a41dde", "type": "electric_scooter", "is_disabled": 0, "lat": 38.915481666666665, "rental_uris": {"ios": "https://dc.lft.to/lastmile_qr_scan", "android": "https://dc.lft.to/lastmile_qr_scan"}, "is_reserved": 0, "fusion_lon": 0.0, "fusion_lat": 0.0, "lon": -76.9701205, "name": "214c31ee5d609618d85017d429a41dde"}, {"bike_id": "281fced3d7de977571645524ec1c1f21", "type": "electric_scooter", "is_disabled": 0, "lat": 38.893577666666665, "rental_uris": {"ios": "https://dc.lft.to/lastmile_qr_scan", "android": "https://dc.lft.to/lastmile_qr_scan"}, "is_reserved": 0, "fusion_lon": 0.0, "fusion_lat": 0.0, "lon": -76.94930766666667, "name": "281fced3d7de977571645524ec1c1f21"}, {"bike_id": "74f82fa40e0f2d5ee5d9f33b76211421", "type": "electric_scooter", "is_disabled": 0, "lat": 38.90239916666667, "rental_uris": {"ios": "https://dc.lft.to/lastmile_qr_scan", "android": "https://dc.lft.to/lastmile_qr_scan"}, "is_reserved": 0, "fusion_lon": 0.0, "fusion_lat": 0.0, "lon": -77.01864416666666, "name": "74f82fa40e0f2d5ee5d9f33b76211421"}, {"bike_id": "78475026d8be59e4e505aa3b489d85fc", "type": "electric_scooter", "is_disabled": 0, "lat": 38.90012316666667, "rental_uris": {"ios": "https://dc.lft.to/lastmile_qr_scan", "android": "https://dc.lft.to/lastmile_qr_scan"}, "is_reserved": 0, "fusion_lon": 0.0, "fusion_lat": 0.0, "lon": -76.99612783333333, "name": "78475026d8be59e4e505aa3b489d85fc"}, {"bike_id": "19d316d8587f378f2a51a26c85dc42d8", "type": "electric_bike", "is_disabled": 0, "lat": 38.882463, "rental_uris": {"ios": "https://dc.lft.to/lastmile_qr_scan", "android": "https://dc.lft.to/lastmile_qr_scan"}, "is_reserved": 0, "fusion_lon": 0.0, "fusion_lat": 0.0, "lon": -76.96252833333334, "name": "19d316d8587f378f2a51a26c85dc42d8"}, {"bike_id": "7908dbada0ab248ac5843edea55e0380", "type": "electric_scooter", "is_disabled": 0, "lat": 38.9073415, "rental_uris": {"ios": "https://dc.lft.to/lastmile_qr_scan", "android": "https://dc.lft.to/lastmile_qr_scan"}, "is_reserved": 0, "fusion_lon": 0.0, "fusion_lat": 0.0, "lon": -77.03437666666666, "name": "7908dbada0ab248ac5843edea55e0380"}, {"bike_id": "61443b24db9f89ff30eed033d8f93459", "type": "electric_scooter", "is_disabled": 0, "lat": 38.894993, "rental_uris": {"ios": "https://dc.lft.to/lastmile_qr_scan", "android": "https://dc.lft.to/lastmile_qr_scan"}, "is_reserved": 0, "fusion_lon": 0.0, "fusion_lat": 0.0, "lon": -77.021915, "name": "61443b24db9f89ff30eed033d8f93459"}, {"bike_id": "c2ee039b811756bb87e38252c499d63c", "type": "electric_scooter", "is_disabled": 0, "lat": 38.87950683333333, "rental_uris": {"ios": "https://dc.lft.to/lastmile_qr_scan", "android": "https://dc.lft.to/lastmile_qr_scan"}, "is_reserved": 0, "fusion_lon": 0.0, "fusion_lat": 0.0, "lon": -77.02354983333333, "name": "c2ee039b811756bb87e38252c499d63c"}, {"bike_id": "be822284f204fd371e31094368da645c", "type": "electric_scooter", "is_disabled": 0, "lat": 38.924263333333336, "rental_uris": {"ios": "https://dc.lft.to/lastmile_qr_scan", "android": "https://dc.lft.to/lastmile_qr_scan"}, "is_reserved": 0, "fusion_lon": 0.0, "fusion_lat": 0.0, "lon": -77.0226225, "name": "be822284f204fd371e31094368da645c"}, {"bike_id": "1b67fd134e983b975fc083faf6dde76c", "type": "electric_scooter", "is_disabled": 0, "lat": 38.88423983333333, "rental_uris": {"ios": "https://dc.lft.to/lastmile_qr_scan", "android": "https://dc.lft.to/lastmile_qr_scan"}, "is_reserved": 0, "fusion_lon": 0.0, "fusion_lat": 0.0, "lon": -77.00738533333333, "name": "1b67fd134e983b975fc083faf6dde76c"}, {"bike_id": "f1d4e8f9857379c641625f25647f8ddb", "type": "electric_scooter", "is_disabled": 0, "lat": 38.87232816666667, "rental_uris": {"ios": "https://dc.lft.to/lastmile_qr_scan", "android": "https://dc.lft.to/lastmile_qr_scan"}, "is_reserved": 0, "fusion_lon": 0.0, "fusion_lat": 0.0, "lon": -77.0115495, "name": "f1d4e8f9857379c641625f25647f8ddb"}, {"bike_id": "0371afbba592a20cec27dc8b76e3d863", "type": "electric_scooter", "is_disabled": 0, "lat": 38.8637465, "rental_uris": {"ios": "https://dc.lft.to/lastmile_qr_scan", "android": "https://dc.lft.to/lastmile_qr_scan"}, "is_reserved": 0, "fusion_lon": 0.0, "fusion_lat": 0.0, "lon": -76.99054666666666, "name": "0371afbba592a20cec27dc8b76e3d863"}, {"bike_id": "80eb22150ce81c729d75f01075fdc51b", "type": "electric_scooter", "is_disabled": 0, "lat": 38.984343333333335, "rental_uris": {"ios": "https://dc.lft.to/lastmile_qr_scan", "android": "https://dc.lft.to/lastmile_qr_scan"}, "is_reserved": 0, "fusion_lon": 0.0, "fusion_lat": 0.0, "lon": -77.02666783333333, "name": "80eb22150ce81c729d75f01075fdc51b"}, {"bike_id": "515d5e9a2412bae2e4409b2fe1795c1a", "type": "electric_scooter", "is_disabled": 0, "lat": 38.93552716666667, "rental_uris": {"ios": "https://dc.lft.to/lastmile_qr_scan", "android": "https://dc.lft.to/lastmile_qr_scan"}, "is_reserved": 0, "fusion_lon": 0.0, "fusion_lat": 0.0, "lon": -77.02504616666667, "name": "515d5e9a2412bae2e4409b2fe1795c1a"}, {"bike_id": "3484ec4c48d823bf1514b11331c15196", "type": "electric_scooter", "is_disabled": 0, "lat": 38.917661833333334, "rental_uris": {"ios": "https://dc.lft.to/lastmile_qr_scan", "android": "https://dc.lft.to/lastmile_qr_scan"}, "is_reserved": 0, "fusion_lon": 0.0, "fusion_lat": 0.0, "lon": -77.0475955, "name": "3484ec4c48d823bf1514b11331c15196"}, {"bike_id": "f0c83ad1d56adcdf8ad9720325d4fce4", "type": "electric_scooter", "is_disabled": 0, "lat": 38.92822966666667, "rental_uris": {"ios": "https://dc.lft.to/lastmile_qr_scan", "android": "https://dc.lft.to/lastmile_qr_scan"}, "is_reserved": 0, "fusion_lon": 0.0, "fusion_lat": 0.0, "lon": -77.0225625, "name": "f0c83ad1d56adcdf8ad9720325d4fce4"}, {"bike_id": "f8035a0797b904b4453d055f4afefb7e", "type": "electric_scooter", "is_disabled": 0, "lat": 38.90267083333333, "rental_uris": {"ios": "https://dc.lft.to/lastmile_qr_scan", "android": "https://dc.lft.to/lastmile_qr_scan"}, "is_reserved": 0, "fusion_lon": 0.0, "fusion_lat": 0.0, "lon": -77.033814, "name": "f8035a0797b904b4453d055f4afefb7e"}, {"bike_id": "d20cbc4ae6a4bf84efa928f195af0bfe", "type": "electric_scooter", "is_disabled": 0, "lat": 38.92074083333333, "rental_uris": {"ios": "https://dc.lft.to/lastmile_qr_scan", "android": "https://dc.lft.to/lastmile_qr_scan"}, "is_reserved": 0, "fusion_lon": 0.0, "fusion_lat": 0.0, "lon": -77.02510333333333, "name": "d20cbc4ae6a4bf84efa928f195af0bfe"}, {"bike_id": "9c092dc95d29c4c3d4138b6a1768aa58", "type": "electric_bike", "is_disabled": 0, "lat": 38.940237833333335, "rental_uris": {"ios": "https://dc.lft.to/lastmile_qr_scan", "android": "https://dc.lft.to/lastmile_qr_scan"}, "is_reserved": 0, "fusion_lon": 0.0, "fusion_lat": 0.0, "lon": -76.97607166666667, "name": "9c092dc95d29c4c3d4138b6a1768aa58"}, {"bike_id": "40222372c6b78522495a24513845df74", "type": "electric_scooter", "is_disabled": 0, "lat": 38.90667366666667, "rental_uris": {"ios": "https://dc.lft.to/lastmile_qr_scan", "android": "https://dc.lft.to/lastmile_qr_scan"}, "is_reserved": 0, "fusion_lon": 0.0, "fusion_lat": 0.0, "lon": -77.027029, "name": "40222372c6b78522495a24513845df74"}, {"bike_id": "0fff869e5ba287ae441548474dd5333e", "type": "electric_bike", "is_disabled": 0, "lat": 38.95633566666667, "rental_uris": {"ios": "https://dc.lft.to/lastmile_qr_scan", "android": "https://dc.lft.to/lastmile_qr_scan"}, "is_reserved": 0, "fusion_lon": 0.0, "fusion_lat": 0.0, "lon": -76.93873633333334, "name": "0fff869e5ba287ae441548474dd5333e"}, {"bike_id": "33250631390107946b7c1e50e0c7f1c5", "type": "electric_scooter", "is_disabled": 0, "lat": 38.883911499999996, "rental_uris": {"ios": "https://dc.lft.to/lastmile_qr_scan", "android": "https://dc.lft.to/lastmile_qr_scan"}, "is_reserved": 0, "fusion_lon": 0.0, "fusion_lat": 0.0, "lon": -76.9544555, "name": "33250631390107946b7c1e50e0c7f1c5"}, {"bike_id": "9b10fb4e1ea7bef18839efffd3b2b6c4", "type": "electric_scooter", "is_disabled": 0, "lat": 38.9035865, "rental_uris": {"ios": "https://dc.lft.to/lastmile_qr_scan", "android": "https://dc.lft.to/lastmile_qr_scan"}, "is_reserved": 0, "fusion_lon": 0.0, "fusion_lat": 0.0, "lon": -77.0270305, "name": "9b10fb4e1ea7bef18839efffd3b2b6c4"}, {"bike_id": "7538fa3200e329a8ea0a9369fd448fd0", "type": "electric_scooter", "is_disabled": 0, "lat": 38.90028233333334, "rental_uris": {"ios": "https://dc.lft.to/lastmile_qr_scan", "android": "https://dc.lft.to/lastmile_qr_scan"}, "is_reserved": 0, "fusion_lon": 0.0, "fusion_lat": 0.0, "lon": -77.01182633333333, "name": "7538fa3200e329a8ea0a9369fd448fd0"}, {"bike_id": "83887087b919478531edaf5efcd9cf73", "type": "electric_bike", "is_disabled": 0, "lat": 38.796079, "rental_uris": {"ios": "https://dc.lft.to/lastmile_qr_scan", "android": "https://dc.lft.to/lastmile_qr_scan"}, "is_reserved": 0, "fusion_lon": 0.0, "fusion_lat": 0.0, "lon": -76.99741383333334, "name": "83887087b919478531edaf5efcd9cf73"}, {"bike_id": "cce99039d004607163ee374d2333d968", "type": "electric_scooter", "is_disabled": 0, "lat": 38.92449216666667, "rental_uris": {"ios": "https://dc.lft.to/lastmile_qr_scan", "android": "https://dc.lft.to/lastmile_qr_scan"}, "is_reserved": 0, "fusion_lon": 0.0, "fusion_lat": 0.0, "lon": -77.03331816666666, "name": "cce99039d004607163ee374d2333d968"}, {"bike_id": "045217564df38aa7ffe87d68eb998a7d", "type": "electric_scooter", "is_disabled": 0, "lat": 38.88886433333333, "rental_uris": {"ios": "https://dc.lft.to/lastmile_qr_scan", "android": "https://dc.lft.to/lastmile_qr_scan"}, "is_reserved": 0, "fusion_lon": 0.0, "fusion_lat": 0.0, "lon": -76.9477445, "name": "045217564df38aa7ffe87d68eb998a7d"}, {"bike_id": "8f3f21551baa08f7f91095c60ebc0d23", "type": "electric_scooter", "is_disabled": 0, "lat": 38.886822333333335, "rental_uris": {"ios": "https://dc.lft.to/lastmile_qr_scan", "android": "https://dc.lft.to/lastmile_qr_scan"}, "is_reserved": 0, "fusion_lon": 0.0, "fusion_lat": 0.0, "lon": -76.99139183333334, "name": "8f3f21551baa08f7f91095c60ebc0d23"}, {"bike_id": "e6eab452403d41efbba179cce474ba83", "type": "electric_scooter", "is_disabled": 0, "lat": 38.88524616666667, "rental_uris": {"ios": "https://dc.lft.to/lastmile_qr_scan", "android": "https://dc.lft.to/lastmile_qr_scan"}, "is_reserved": 0, "fusion_lon": 0.0, "fusion_lat": 0.0, "lon": -77.0173385, "name": "e6eab452403d41efbba179cce474ba83"}, {"bike_id": "0a2a3ef3062187972946f60e22e3ce66", "type": "electric_scooter", "is_disabled": 0, "lat": 38.905021166666664, "rental_uris": {"ios": "https://dc.lft.to/lastmile_qr_scan", "android": "https://dc.lft.to/lastmile_qr_scan"}, "is_reserved": 0, "fusion_lon": 0.0, "fusion_lat": 0.0, "lon": -77.02600516666666, "name": "0a2a3ef3062187972946f60e22e3ce66"}, {"bike_id": "0bf8fa9a4714c2227a2ca879403cad07", "type": "electric_scooter", "is_disabled": 0, "lat": 38.90577066666667, "rental_uris": {"ios": "https://dc.lft.to/lastmile_qr_scan", "android": "https://dc.lft.to/lastmile_qr_scan"}, "is_reserved": 0, "fusion_lon": 0.0, "fusion_lat": 0.0, "lon": -77.01643266666666, "name": "0bf8fa9a4714c2227a2ca879403cad07"}, {"bike_id": "836a802aac5074f8d539bde2fc88af1b", "type": "electric_scooter", "is_disabled": 0, "lat": 38.91476466666667, "rental_uris": {"ios": "https://dc.lft.to/lastmile_qr_scan", "android": "https://dc.lft.to/lastmile_qr_scan"}, "is_reserved": 0, "fusion_lon": 0.0, "fusion_lat": 0.0, "lon": -77.0090335, "name": "836a802aac5074f8d539bde2fc88af1b"}, {"bike_id": "da1e745720cbbeb100716baea3e8b283", "type": "electric_scooter", "is_disabled": 0, "lat": 38.90261783333333, "rental_uris": {"ios": "https://dc.lft.to/lastmile_qr_scan", "android": "https://dc.lft.to/lastmile_qr_scan"}, "is_reserved": 0, "fusion_lon": 0.0, "fusion_lat": 0.0, "lon": -77.00329066666667, "name": "da1e745720cbbeb100716baea3e8b283"}, {"bike_id": "e37605ed55689fe7e09f28489b85fd4a", "type": "electric_scooter", "is_disabled": 0, "lat": 38.915641, "rental_uris": {"ios": "https://dc.lft.to/lastmile_qr_scan", "android": "https://dc.lft.to/lastmile_qr_scan"}, "is_reserved": 0, "fusion_lon": 0.0, "fusion_lat": 0.0, "lon": -77.03867733333334, "name": "e37605ed55689fe7e09f28489b85fd4a"}, {"bike_id": "f7bc1662ae765d7d333fc3a5d954938c", "type": "electric_scooter", "is_disabled": 0, "lat": 38.916185, "rental_uris": {"ios": "https://dc.lft.to/lastmile_qr_scan", "android": "https://dc.lft.to/lastmile_qr_scan"}, "is_reserved": 0, "fusion_lon": 0.0, "fusion_lat": 0.0, "lon": -77.04518333333333, "name": "f7bc1662ae765d7d333fc3a5d954938c"}, {"bike_id": "57cb13d4367b6137524cb3e207a903a5", "type": "electric_scooter", "is_disabled": 0, "lat": 38.94496133333333, "rental_uris": {"ios": "https://dc.lft.to/lastmile_qr_scan", "android": "https://dc.lft.to/lastmile_qr_scan"}, "is_reserved": 0, "fusion_lon": 0.0, "fusion_lat": 0.0, "lon": -77.02619016666667, "name": "57cb13d4367b6137524cb3e207a903a5"}, {"bike_id": "3470e90beaa8affd6246ef8cd61fc8c8", "type": "electric_scooter", "is_disabled": 0, "lat": 38.90503183333333, "rental_uris": {"ios": "https://dc.lft.to/lastmile_qr_scan", "android": "https://dc.lft.to/lastmile_qr_scan"}, "is_reserved": 0, "fusion_lon": 0.0, "fusion_lat": 0.0, "lon": -77.06109766666667, "name": "3470e90beaa8affd6246ef8cd61fc8c8"}, {"bike_id": "874bc8984e3ee8f683f7ffd93bdc6e6c", "type": "electric_scooter", "is_disabled": 0, "lat": 38.9163405, "rental_uris": {"ios": "https://dc.lft.to/lastmile_qr_scan", "android": "https://dc.lft.to/lastmile_qr_scan"}, "is_reserved": 0, "fusion_lon": 0.0, "fusion_lat": 0.0, "lon": -77.03731416666666, "name": "874bc8984e3ee8f683f7ffd93bdc6e6c"}, {"bike_id": "50b274da6830596e5156ab7d3fabdff4", "type": "electric_scooter", "is_disabled": 0, "lat": 38.924803833333335, "rental_uris": {"ios": "https://dc.lft.to/lastmile_qr_scan", "android": "https://dc.lft.to/lastmile_qr_scan"}, "is_reserved": 0, "fusion_lon": 0.0, "fusion_lat": 0.0, "lon": -77.021967, "name": "50b274da6830596e5156ab7d3fabdff4"}, {"bike_id": "f39fe04c82354cb0826c0366ae4c93db", "type": "electric_bike", "is_disabled": 0, "lat": 38.978829, "rental_uris": {"ios": "https://dc.lft.to/lastmile_qr_scan", "android": "https://dc.lft.to/lastmile_qr_scan"}, "is_reserved": 0, "fusion_lon": 0.0, "fusion_lat": 0.0, "lon": -77.0602805, "name": "f39fe04c82354cb0826c0366ae4c93db"}, {"bike_id": "b22697ff7c0b6363786223e67651143e", "type": "electric_scooter", "is_disabled": 0, "lat": 38.92382633333333, "rental_uris": {"ios": "https://dc.lft.to/lastmile_qr_scan", "android": "https://dc.lft.to/lastmile_qr_scan"}, "is_reserved": 0, "fusion_lon": 0.0, "fusion_lat": 0.0, "lon": -77.02687333333333, "name": "b22697ff7c0b6363786223e67651143e"}, {"bike_id": "d9d4523843d082cb32c93f7ec12ac1d3", "type": "electric_scooter", "is_disabled": 0, "lat": 38.935333, "rental_uris": {"ios": "https://dc.lft.to/lastmile_qr_scan", "android": "https://dc.lft.to/lastmile_qr_scan"}, "is_reserved": 0, "fusion_lon": 0.0, "fusion_lat": 0.0, "lon": -77.02345383333333, "name": "d9d4523843d082cb32c93f7ec12ac1d3"}, {"bike_id": "9983e36f8b977b7df773e1f9d566b5b3", "type": "electric_scooter", "is_disabled": 0, "lat": 38.92196366666667, "rental_uris": {"ios": "https://dc.lft.to/lastmile_qr_scan", "android": "https://dc.lft.to/lastmile_qr_scan"}, "is_reserved": 0, "fusion_lon": 0.0, "fusion_lat": 0.0, "lon": -77.03514383333334, "name": "9983e36f8b977b7df773e1f9d566b5b3"}, {"bike_id": "0c439664c18c86727e4fe11744f6104f", "type": "electric_scooter", "is_disabled": 0, "lat": 38.9540415, "rental_uris": {"ios": "https://dc.lft.to/lastmile_qr_scan", "android": "https://dc.lft.to/lastmile_qr_scan"}, "is_reserved": 0, "fusion_lon": 0.0, "fusion_lat": 0.0, "lon": -76.99848916666667, "name": "0c439664c18c86727e4fe11744f6104f"}, {"bike_id": "c8aabf56940b053707c956fed4590527", "type": "electric_scooter", "is_disabled": 0, "lat": 38.926572666666665, "rental_uris": {"ios": "https://dc.lft.to/lastmile_qr_scan", "android": "https://dc.lft.to/lastmile_qr_scan"}, "is_reserved": 0, "fusion_lon": 0.0, "fusion_lat": 0.0, "lon": -77.03721916666667, "name": "c8aabf56940b053707c956fed4590527"}, {"bike_id": "789ebe481bb4bc5ece2b622629415f87", "type": "electric_scooter", "is_disabled": 0, "lat": 38.93339016666667, "rental_uris": {"ios": "https://dc.lft.to/lastmile_qr_scan", "android": "https://dc.lft.to/lastmile_qr_scan"}, "is_reserved": 0, "fusion_lon": 0.0, "fusion_lat": 0.0, "lon": -77.03868683333333, "name": "789ebe481bb4bc5ece2b622629415f87"}, {"bike_id": "e7dcace6334592e0acafc1e9594136ad", "type": "electric_scooter", "is_disabled": 0, "lat": 38.91565166666667, "rental_uris": {"ios": "https://dc.lft.to/lastmile_qr_scan", "android": "https://dc.lft.to/lastmile_qr_scan"}, "is_reserved": 0, "fusion_lon": 0.0, "fusion_lat": 0.0, "lon": -77.03135166666667, "name": "e7dcace6334592e0acafc1e9594136ad"}, {"bike_id": "76703614f9b1db76cbc7257807b2379e", "type": "electric_scooter", "is_disabled": 0, "lat": 38.928502, "rental_uris": {"ios": "https://dc.lft.to/lastmile_qr_scan", "android": "https://dc.lft.to/lastmile_qr_scan"}, "is_reserved": 0, "fusion_lon": 0.0, "fusion_lat": 0.0, "lon": -77.02732283333333, "name": "76703614f9b1db76cbc7257807b2379e"}, {"bike_id": "74aef96cd3a068913d2a35b2a2b1a981", "type": "electric_bike", "is_disabled": 0, "lat": 38.92458366666666, "rental_uris": {"ios": "https://dc.lft.to/lastmile_qr_scan", "android": "https://dc.lft.to/lastmile_qr_scan"}, "is_reserved": 0, "fusion_lon": 0.0, "fusion_lat": 0.0, "lon": -76.97555, "name": "74aef96cd3a068913d2a35b2a2b1a981"}, {"bike_id": "f1f77eef2c21eec883b52afdbb67062f", "type": "electric_scooter", "is_disabled": 0, "lat": 38.933693, "rental_uris": {"ios": "https://dc.lft.to/lastmile_qr_scan", "android": "https://dc.lft.to/lastmile_qr_scan"}, "is_reserved": 0, "fusion_lon": 0.0, "fusion_lat": 0.0, "lon": -77.03985283333333, "name": "f1f77eef2c21eec883b52afdbb67062f"}, {"bike_id": "001d1bfd82013e5479b167f21e06c50f", "type": "electric_scooter", "is_disabled": 0, "lat": 38.90673866666667, "rental_uris": {"ios": "https://dc.lft.to/lastmile_qr_scan", "android": "https://dc.lft.to/lastmile_qr_scan"}, "is_reserved": 0, "fusion_lon": 0.0, "fusion_lat": 0.0, "lon": -77.07174966666666, "name": "001d1bfd82013e5479b167f21e06c50f"}, {"bike_id": "551c94ab4322fcc23af77df2a0e9ee0c", "type": "electric_scooter", "is_disabled": 0, "lat": 38.86249316666667, "rental_uris": {"ios": "https://dc.lft.to/lastmile_qr_scan", "android": "https://dc.lft.to/lastmile_qr_scan"}, "is_reserved": 0, "fusion_lon": 0.0, "fusion_lat": 0.0, "lon": -76.99501783333334, "name": "551c94ab4322fcc23af77df2a0e9ee0c"}, {"bike_id": "24e0a9ed92ad768bf98a20e357fa7377", "type": "electric_scooter", "is_disabled": 0, "lat": 38.91704133333333, "rental_uris": {"ios": "https://dc.lft.to/lastmile_qr_scan", "android": "https://dc.lft.to/lastmile_qr_scan"}, "is_reserved": 0, "fusion_lon": 0.0, "fusion_lat": 0.0, "lon": -77.0107295, "name": "24e0a9ed92ad768bf98a20e357fa7377"}, {"bike_id": "82517405a067db7e1922831e1c63a1bd", "type": "electric_scooter", "is_disabled": 0, "lat": 38.880632, "rental_uris": {"ios": "https://dc.lft.to/lastmile_qr_scan", "android": "https://dc.lft.to/lastmile_qr_scan"}, "is_reserved": 0, "fusion_lon": 0.0, "fusion_lat": 0.0, "lon": -76.932147, "name": "82517405a067db7e1922831e1c63a1bd"}, {"bike_id": "abce6a605d93b75ad9535828e71dc96a", "type": "electric_scooter", "is_disabled": 0, "lat": 38.910646, "rental_uris": {"ios": "https://dc.lft.to/lastmile_qr_scan", "android": "https://dc.lft.to/lastmile_qr_scan"}, "is_reserved": 0, "fusion_lon": 0.0, "fusion_lat": 0.0, "lon": -77.03085383333334, "name": "abce6a605d93b75ad9535828e71dc96a"}, {"bike_id": "d27aff3150b383d27d6a0e9ec821a355", "type": "electric_scooter", "is_disabled": 0, "lat": 38.92964583333333, "rental_uris": {"ios": "https://dc.lft.to/lastmile_qr_scan", "android": "https://dc.lft.to/lastmile_qr_scan"}, "is_reserved": 0, "fusion_lon": 0.0, "fusion_lat": 0.0, "lon": -77.03779183333333, "name": "d27aff3150b383d27d6a0e9ec821a355"}, {"bike_id": "b12d4e6c60dc6bc3324c2f6c488f964f", "type": "electric_scooter", "is_disabled": 0, "lat": 38.90606366666667, "rental_uris": {"ios": "https://dc.lft.to/lastmile_qr_scan", "android": "https://dc.lft.to/lastmile_qr_scan"}, "is_reserved": 0, "fusion_lon": 0.0, "fusion_lat": 0.0, "lon": -76.99267083333334, "name": "b12d4e6c60dc6bc3324c2f6c488f964f"}, {"bike_id": "17c8ac6e5f73963617f7d948d60fbca8", "type": "electric_bike", "is_disabled": 0, "lat": 38.85895033333333, "rental_uris": {"ios": "https://dc.lft.to/lastmile_qr_scan", "android": "https://dc.lft.to/lastmile_qr_scan"}, "is_reserved": 0, "fusion_lon": 0.0, "fusion_lat": 0.0, "lon": -77.118628, "name": "17c8ac6e5f73963617f7d948d60fbca8"}, {"bike_id": "3970e6eb7b887168c2681ec4296ba9f1", "type": "electric_bike", "is_disabled": 0, "lat": 38.870824666666664, "rental_uris": {"ios": "https://dc.lft.to/lastmile_qr_scan", "android": "https://dc.lft.to/lastmile_qr_scan"}, "is_reserved": 0, "fusion_lon": 0.0, "fusion_lat": 0.0, "lon": -77.01209933333334, "name": "3970e6eb7b887168c2681ec4296ba9f1"}, {"bike_id": "8146708751c42b0154bf58501124a360", "type": "electric_scooter", "is_disabled": 0, "lat": 38.903139, "rental_uris": {"ios": "https://dc.lft.to/lastmile_qr_scan", "android": "https://dc.lft.to/lastmile_qr_scan"}, "is_reserved": 0, "fusion_lon": 0.0, "fusion_lat": 0.0, "lon": -76.97796716666667, "name": "8146708751c42b0154bf58501124a360"}, {"bike_id": "3cd964fd0e0d2923814cf4cb60553fd6", "type": "electric_scooter", "is_disabled": 0, "lat": 38.89968316666667, "rental_uris": {"ios": "https://dc.lft.to/lastmile_qr_scan", "android": "https://dc.lft.to/lastmile_qr_scan"}, "is_reserved": 0, "fusion_lon": 0.0, "fusion_lat": 0.0, "lon": -76.98299983333334, "name": "3cd964fd0e0d2923814cf4cb60553fd6"}, {"bike_id": "174a1000bec59e21536a9f676ca517c6", "type": "electric_scooter", "is_disabled": 0, "lat": 38.892054, "rental_uris": {"ios": "https://dc.lft.to/lastmile_qr_scan", "android": "https://dc.lft.to/lastmile_qr_scan"}, "is_reserved": 0, "fusion_lon": 0.0, "fusion_lat": 0.0, "lon": -76.99931133333334, "name": "174a1000bec59e21536a9f676ca517c6"}, {"bike_id": "eaa525c84040eb7c3e5e275acfc635f0", "type": "electric_scooter", "is_disabled": 0, "lat": 38.90002883333333, "rental_uris": {"ios": "https://dc.lft.to/lastmile_qr_scan", "android": "https://dc.lft.to/lastmile_qr_scan"}, "is_reserved": 0, "fusion_lon": 0.0, "fusion_lat": 0.0, "lon": -77.00198816666666, "name": "eaa525c84040eb7c3e5e275acfc635f0"}, {"bike_id": "7950ce6f631953c99f18031d742d212a", "type": "electric_scooter", "is_disabled": 0, "lat": 38.9145915, "rental_uris": {"ios": "https://dc.lft.to/lastmile_qr_scan", "android": "https://dc.lft.to/lastmile_qr_scan"}, "is_reserved": 0, "fusion_lon": 0.0, "fusion_lat": 0.0, "lon": -77.00210766666666, "name": "7950ce6f631953c99f18031d742d212a"}, {"bike_id": "896f3631e3a486629cf715260e16cc45", "type": "electric_scooter", "is_disabled": 0, "lat": 38.902363333333334, "rental_uris": {"ios": "https://dc.lft.to/lastmile_qr_scan", "android": "https://dc.lft.to/lastmile_qr_scan"}, "is_reserved": 0, "fusion_lon": 0.0, "fusion_lat": 0.0, "lon": -77.00202166666666, "name": "896f3631e3a486629cf715260e16cc45"}, {"bike_id": "997053e694c56170adacfe6de3064992", "type": "electric_scooter", "is_disabled": 0, "lat": 38.908482, "rental_uris": {"ios": "https://dc.lft.to/lastmile_qr_scan", "android": "https://dc.lft.to/lastmile_qr_scan"}, "is_reserved": 0, "fusion_lon": 0.0, "fusion_lat": 0.0, "lon": -77.047607, "name": "997053e694c56170adacfe6de3064992"}, {"bike_id": "e493bf2193fb97a29300cc4b4510afb3", "type": "electric_scooter", "is_disabled": 0, "lat": 38.9232955, "rental_uris": {"ios": "https://dc.lft.to/lastmile_qr_scan", "android": "https://dc.lft.to/lastmile_qr_scan"}, "is_reserved": 0, "fusion_lon": 0.0, "fusion_lat": 0.0, "lon": -77.05372416666667, "name": "e493bf2193fb97a29300cc4b4510afb3"}, {"bike_id": "513572753698b6673e3c5daba0fe8236", "type": "electric_scooter", "is_disabled": 0, "lat": 38.945123333333335, "rental_uris": {"ios": "https://dc.lft.to/lastmile_qr_scan", "android": "https://dc.lft.to/lastmile_qr_scan"}, "is_reserved": 0, "fusion_lon": 0.0, "fusion_lat": 0.0, "lon": -77.03365683333334, "name": "513572753698b6673e3c5daba0fe8236"}, {"bike_id": "8cf0a9d61976b06c883e05108634c183", "type": "electric_scooter", "is_disabled": 0, "lat": 38.94555966666667, "rental_uris": {"ios": "https://dc.lft.to/lastmile_qr_scan", "android": "https://dc.lft.to/lastmile_qr_scan"}, "is_reserved": 0, "fusion_lon": 0.0, "fusion_lat": 0.0, "lon": -77.07120666666667, "name": "8cf0a9d61976b06c883e05108634c183"}, {"bike_id": "5a3a0019f76b8b8961e401abd2514dc3", "type": "electric_scooter", "is_disabled": 0, "lat": 38.8844985, "rental_uris": {"ios": "https://dc.lft.to/lastmile_qr_scan", "android": "https://dc.lft.to/lastmile_qr_scan"}, "is_reserved": 0, "fusion_lon": 0.0, "fusion_lat": 0.0, "lon": -76.95095833333333, "name": "5a3a0019f76b8b8961e401abd2514dc3"}, {"bike_id": "1b02bda4ac53ff7c195a0657841f187f", "type": "electric_scooter", "is_disabled": 0, "lat": 38.93933583333333, "rental_uris": {"ios": "https://dc.lft.to/lastmile_qr_scan", "android": "https://dc.lft.to/lastmile_qr_scan"}, "is_reserved": 0, "fusion_lon": 0.0, "fusion_lat": 0.0, "lon": -77.03683766666667, "name": "1b02bda4ac53ff7c195a0657841f187f"}, {"bike_id": "a5083a10e8a4a6480272e02c25553c84", "type": "electric_scooter", "is_disabled": 0, "lat": 38.9182925, "rental_uris": {"ios": "https://dc.lft.to/lastmile_qr_scan", "android": "https://dc.lft.to/lastmile_qr_scan"}, "is_reserved": 0, "fusion_lon": 0.0, "fusion_lat": 0.0, "lon": -77.04560483333333, "name": "a5083a10e8a4a6480272e02c25553c84"}, {"bike_id": "69797fd0d75951bee53368f5bce9e88a", "type": "electric_scooter", "is_disabled": 0, "lat": 38.92020483333334, "rental_uris": {"ios": "https://dc.lft.to/lastmile_qr_scan", "android": "https://dc.lft.to/lastmile_qr_scan"}, "is_reserved": 0, "fusion_lon": 0.0, "fusion_lat": 0.0, "lon": -77.03102933333334, "name": "69797fd0d75951bee53368f5bce9e88a"}, {"bike_id": "f74eda338c198bb2c48eb8050b38af06", "type": "electric_scooter", "is_disabled": 0, "lat": 38.92786483333333, "rental_uris": {"ios": "https://dc.lft.to/lastmile_qr_scan", "android": "https://dc.lft.to/lastmile_qr_scan"}, "is_reserved": 0, "fusion_lon": 0.0, "fusion_lat": 0.0, "lon": -77.05411033333333, "name": "f74eda338c198bb2c48eb8050b38af06"}, {"bike_id": "b0ea31d2b7e2bc3c25447a9457841ef0", "type": "electric_bike", "is_disabled": 0, "lat": 38.829536166666664, "rental_uris": {"ios": "https://dc.lft.to/lastmile_qr_scan", "android": "https://dc.lft.to/lastmile_qr_scan"}, "is_reserved": 0, "fusion_lon": 0.0, "fusion_lat": 0.0, "lon": -77.12351433333333, "name": "b0ea31d2b7e2bc3c25447a9457841ef0"}, {"bike_id": "0ecf2a8baab847dd85bd5c4d98386409", "type": "electric_scooter", "is_disabled": 0, "lat": 38.86205183333333, "rental_uris": {"ios": "https://dc.lft.to/lastmile_qr_scan", "android": "https://dc.lft.to/lastmile_qr_scan"}, "is_reserved": 0, "fusion_lon": 0.0, "fusion_lat": 0.0, "lon": -76.9946745, "name": "0ecf2a8baab847dd85bd5c4d98386409"}, {"bike_id": "84b39f9a07cd084ed630b41ca49201c7", "type": "electric_scooter", "is_disabled": 0, "lat": 38.943577, "rental_uris": {"ios": "https://dc.lft.to/lastmile_qr_scan", "android": "https://dc.lft.to/lastmile_qr_scan"}, "is_reserved": 0, "fusion_lon": 0.0, "fusion_lat": 0.0, "lon": -77.06129033333333, "name": "84b39f9a07cd084ed630b41ca49201c7"}, {"bike_id": "161b57a6163c9ac0776eec7fff3fe923", "type": "electric_scooter", "is_disabled": 0, "lat": 38.926302666666665, "rental_uris": {"ios": "https://dc.lft.to/lastmile_qr_scan", "android": "https://dc.lft.to/lastmile_qr_scan"}, "is_reserved": 0, "fusion_lon": 0.0, "fusion_lat": 0.0, "lon": -77.0217415, "name": "161b57a6163c9ac0776eec7fff3fe923"}, {"bike_id": "aec85be1cfee3ce9b5290199111cc618", "type": "electric_scooter", "is_disabled": 0, "lat": 38.907303666666664, "rental_uris": {"ios": "https://dc.lft.to/lastmile_qr_scan", "android": "https://dc.lft.to/lastmile_qr_scan"}, "is_reserved": 0, "fusion_lon": 0.0, "fusion_lat": 0.0, "lon": -77.009736, "name": "aec85be1cfee3ce9b5290199111cc618"}, {"bike_id": "eebe9ed9756e22452d9e45aec1ad8b8d", "type": "electric_scooter", "is_disabled": 0, "lat": 38.927890166666664, "rental_uris": {"ios": "https://dc.lft.to/lastmile_qr_scan", "android": "https://dc.lft.to/lastmile_qr_scan"}, "is_reserved": 0, "fusion_lon": 0.0, "fusion_lat": 0.0, "lon": -77.05256433333334, "name": "eebe9ed9756e22452d9e45aec1ad8b8d"}, {"bike_id": "adf27f201ed2bb8ba6cdff8efe05d174", "type": "electric_scooter", "is_disabled": 0, "lat": 38.94715, "rental_uris": {"ios": "https://dc.lft.to/lastmile_qr_scan", "android": "https://dc.lft.to/lastmile_qr_scan"}, "is_reserved": 0, "fusion_lon": 0.0, "fusion_lat": 0.0, "lon": -77.02776566666667, "name": "adf27f201ed2bb8ba6cdff8efe05d174"}, {"bike_id": "5506a072b23a28b975689c7c260d1471", "type": "electric_scooter", "is_disabled": 0, "lat": 38.91333933333333, "rental_uris": {"ios": "https://dc.lft.to/lastmile_qr_scan", "android": "https://dc.lft.to/lastmile_qr_scan"}, "is_reserved": 0, "fusion_lon": 0.0, "fusion_lat": 0.0, "lon": -77.031678, "name": "5506a072b23a28b975689c7c260d1471"}, {"bike_id": "ed29be0f1ab70ff71e057a779478f895", "type": "electric_scooter", "is_disabled": 0, "lat": 38.90801116666667, "rental_uris": {"ios": "https://dc.lft.to/lastmile_qr_scan", "android": "https://dc.lft.to/lastmile_qr_scan"}, "is_reserved": 0, "fusion_lon": 0.0, "fusion_lat": 0.0, "lon": -77.034774, "name": "ed29be0f1ab70ff71e057a779478f895"}, {"bike_id": "be9979c59490174d05903c90a66075d6", "type": "electric_scooter", "is_disabled": 0, "lat": 38.8826435, "rental_uris": {"ios": "https://dc.lft.to/lastmile_qr_scan", "android": "https://dc.lft.to/lastmile_qr_scan"}, "is_reserved": 0, "fusion_lon": 0.0, "fusion_lat": 0.0, "lon": -76.995005, "name": "be9979c59490174d05903c90a66075d6"}, {"bike_id": "758a291ebdf563080a30e0e5f3f911b9", "type": "electric_scooter", "is_disabled": 0, "lat": 38.866772833333336, "rental_uris": {"ios": "https://dc.lft.to/lastmile_qr_scan", "android": "https://dc.lft.to/lastmile_qr_scan"}, "is_reserved": 0, "fusion_lon": 0.0, "fusion_lat": 0.0, "lon": -76.98533616666667, "name": "758a291ebdf563080a30e0e5f3f911b9"}, {"bike_id": "f11e12f528440f8e6541962d55325be8", "type": "electric_bike", "is_disabled": 0, "lat": 38.89290783333333, "rental_uris": {"ios": "https://dc.lft.to/lastmile_qr_scan", "android": "https://dc.lft.to/lastmile_qr_scan"}, "is_reserved": 0, "fusion_lon": 0.0, "fusion_lat": 0.0, "lon": -76.97617066666666, "name": "f11e12f528440f8e6541962d55325be8"}, {"bike_id": "be3f18c93b9192a0cd33087d0a2839b5", "type": "electric_scooter", "is_disabled": 0, "lat": 38.908659666666665, "rental_uris": {"ios": "https://dc.lft.to/lastmile_qr_scan", "android": "https://dc.lft.to/lastmile_qr_scan"}, "is_reserved": 0, "fusion_lon": 0.0, "fusion_lat": 0.0, "lon": -77.02824916666667, "name": "be3f18c93b9192a0cd33087d0a2839b5"}, {"bike_id": "c65b6e5b4bb141e5275a269aa1d797b5", "type": "electric_scooter", "is_disabled": 0, "lat": 38.921582, "rental_uris": {"ios": "https://dc.lft.to/lastmile_qr_scan", "android": "https://dc.lft.to/lastmile_qr_scan"}, "is_reserved": 0, "fusion_lon": 0.0, "fusion_lat": 0.0, "lon": -77.0337255, "name": "c65b6e5b4bb141e5275a269aa1d797b5"}, {"bike_id": "40e196f766b4715ab93e63a0159f6514", "type": "electric_scooter", "is_disabled": 0, "lat": 38.910424666666664, "rental_uris": {"ios": "https://dc.lft.to/lastmile_qr_scan", "android": "https://dc.lft.to/lastmile_qr_scan"}, "is_reserved": 0, "fusion_lon": 0.0, "fusion_lat": 0.0, "lon": -77.01022183333333, "name": "40e196f766b4715ab93e63a0159f6514"}, {"bike_id": "c2179402f13e5f0e0d196c9fb5ed168d", "type": "electric_scooter", "is_disabled": 0, "lat": 38.924622, "rental_uris": {"ios": "https://dc.lft.to/lastmile_qr_scan", "android": "https://dc.lft.to/lastmile_qr_scan"}, "is_reserved": 0, "fusion_lon": 0.0, "fusion_lat": 0.0, "lon": -77.05233583333333, "name": "c2179402f13e5f0e0d196c9fb5ed168d"}, {"bike_id": "00d51fc343d6ebcaf65f0ba9ee9db3a9", "type": "electric_scooter", "is_disabled": 0, "lat": 38.91564533333333, "rental_uris": {"ios": "https://dc.lft.to/lastmile_qr_scan", "android": "https://dc.lft.to/lastmile_qr_scan"}, "is_reserved": 0, "fusion_lon": 0.0, "fusion_lat": 0.0, "lon": -77.03170266666666, "name": "00d51fc343d6ebcaf65f0ba9ee9db3a9"}, {"bike_id": "93f99459649791d5284f57b1d0132717", "type": "electric_scooter", "is_disabled": 0, "lat": 38.91664183333334, "rental_uris": {"ios": "https://dc.lft.to/lastmile_qr_scan", "android": "https://dc.lft.to/lastmile_qr_scan"}, "is_reserved": 0, "fusion_lon": 0.0, "fusion_lat": 0.0, "lon": -77.02889716666667, "name": "93f99459649791d5284f57b1d0132717"}, {"bike_id": "213af7bae5062993385cae40331dcdf4", "type": "electric_scooter", "is_disabled": 0, "lat": 38.91564833333333, "rental_uris": {"ios": "https://dc.lft.to/lastmile_qr_scan", "android": "https://dc.lft.to/lastmile_qr_scan"}, "is_reserved": 0, "fusion_lon": 0.0, "fusion_lat": 0.0, "lon": -77.04285316666666, "name": "213af7bae5062993385cae40331dcdf4"}, {"bike_id": "3f1f86b2567b09ecb29da8f489040af2", "type": "electric_scooter", "is_disabled": 0, "lat": 38.892187166666666, "rental_uris": {"ios": "https://dc.lft.to/lastmile_qr_scan", "android": "https://dc.lft.to/lastmile_qr_scan"}, "is_reserved": 0, "fusion_lon": 0.0, "fusion_lat": 0.0, "lon": -77.02584966666667, "name": "3f1f86b2567b09ecb29da8f489040af2"}, {"bike_id": "067fda53a260d4b99f588ef8278b75c5", "type": "electric_scooter", "is_disabled": 0, "lat": 38.912386833333336, "rental_uris": {"ios": "https://dc.lft.to/lastmile_qr_scan", "android": "https://dc.lft.to/lastmile_qr_scan"}, "is_reserved": 0, "fusion_lon": 0.0, "fusion_lat": 0.0, "lon": -77.0091385, "name": "067fda53a260d4b99f588ef8278b75c5"}, {"bike_id": "c741e10aa18a8af3719e88b92e992625", "type": "electric_scooter", "is_disabled": 0, "lat": 38.9490325, "rental_uris": {"ios": "https://dc.lft.to/lastmile_qr_scan", "android": "https://dc.lft.to/lastmile_qr_scan"}, "is_reserved": 0, "fusion_lon": 0.0, "fusion_lat": 0.0, "lon": -77.006423, "name": "c741e10aa18a8af3719e88b92e992625"}, {"bike_id": "b18a9b829deb617d61f74da09d56af16", "type": "electric_scooter", "is_disabled": 0, "lat": 38.90655733333333, "rental_uris": {"ios": "https://dc.lft.to/lastmile_qr_scan", "android": "https://dc.lft.to/lastmile_qr_scan"}, "is_reserved": 0, "fusion_lon": 0.0, "fusion_lat": 0.0, "lon": -77.053211, "name": "b18a9b829deb617d61f74da09d56af16"}, {"bike_id": "7a89bc2fa16f30eccc2afd0cfbcae9ce", "type": "electric_scooter", "is_disabled": 0, "lat": 38.924072, "rental_uris": {"ios": "https://dc.lft.to/lastmile_qr_scan", "android": "https://dc.lft.to/lastmile_qr_scan"}, "is_reserved": 0, "fusion_lon": 0.0, "fusion_lat": 0.0, "lon": -77.0297725, "name": "7a89bc2fa16f30eccc2afd0cfbcae9ce"}, {"bike_id": "74353df913b2bf0a74cf73944b6d0ef4", "type": "electric_scooter", "is_disabled": 0, "lat": 38.93292533333333, "rental_uris": {"ios": "https://dc.lft.to/lastmile_qr_scan", "android": "https://dc.lft.to/lastmile_qr_scan"}, "is_reserved": 0, "fusion_lon": 0.0, "fusion_lat": 0.0, "lon": -77.036047, "name": "74353df913b2bf0a74cf73944b6d0ef4"}, {"bike_id": "ba87451db81f478d5c1a35efd835ffff", "type": "electric_scooter", "is_disabled": 0, "lat": 38.91599016666667, "rental_uris": {"ios": "https://dc.lft.to/lastmile_qr_scan", "android": "https://dc.lft.to/lastmile_qr_scan"}, "is_reserved": 0, "fusion_lon": 0.0, "fusion_lat": 0.0, "lon": -77.01222833333334, "name": "ba87451db81f478d5c1a35efd835ffff"}, {"bike_id": "408f97591a8e2e8adf908e2ec1b7258d", "type": "electric_scooter", "is_disabled": 0, "lat": 38.932405, "rental_uris": {"ios": "https://dc.lft.to/lastmile_qr_scan", "android": "https://dc.lft.to/lastmile_qr_scan"}, "is_reserved": 0, "fusion_lon": 0.0, "fusion_lat": 0.0, "lon": -77.02949166666667, "name": "408f97591a8e2e8adf908e2ec1b7258d"}, {"bike_id": "74c1d4603147883743e14107a56ac17a", "type": "electric_scooter", "is_disabled": 0, "lat": 38.902196333333336, "rental_uris": {"ios": "https://dc.lft.to/lastmile_qr_scan", "android": "https://dc.lft.to/lastmile_qr_scan"}, "is_reserved": 0, "fusion_lon": 0.0, "fusion_lat": 0.0, "lon": -77.0238125, "name": "74c1d4603147883743e14107a56ac17a"}, {"bike_id": "3788acf1716bbcbea4125e15f4fae6eb", "type": "electric_scooter", "is_disabled": 0, "lat": 38.906683666666666, "rental_uris": {"ios": "https://dc.lft.to/lastmile_qr_scan", "android": "https://dc.lft.to/lastmile_qr_scan"}, "is_reserved": 0, "fusion_lon": 0.0, "fusion_lat": 0.0, "lon": -77.04613016666667, "name": "3788acf1716bbcbea4125e15f4fae6eb"}, {"bike_id": "de40bb20f4bae117591adc8ee8371c5b", "type": "electric_scooter", "is_disabled": 0, "lat": 38.91924733333333, "rental_uris": {"ios": "https://dc.lft.to/lastmile_qr_scan", "android": "https://dc.lft.to/lastmile_qr_scan"}, "is_reserved": 0, "fusion_lon": 0.0, "fusion_lat": 0.0, "lon": -77.03424016666666, "name": "de40bb20f4bae117591adc8ee8371c5b"}, {"bike_id": "39c2f567993acb899342c5900eb1b684", "type": "electric_scooter", "is_disabled": 0, "lat": 38.908361666666664, "rental_uris": {"ios": "https://dc.lft.to/lastmile_qr_scan", "android": "https://dc.lft.to/lastmile_qr_scan"}, "is_reserved": 0, "fusion_lon": 0.0, "fusion_lat": 0.0, "lon": -77.02381166666666, "name": "39c2f567993acb899342c5900eb1b684"}, {"bike_id": "94989d9f1b31488bba50280a74254817", "type": "electric_scooter", "is_disabled": 0, "lat": 38.92243916666666, "rental_uris": {"ios": "https://dc.lft.to/lastmile_qr_scan", "android": "https://dc.lft.to/lastmile_qr_scan"}, "is_reserved": 0, "fusion_lon": 0.0, "fusion_lat": 0.0, "lon": -77.074713, "name": "94989d9f1b31488bba50280a74254817"}, {"bike_id": "bef34ffd6e5f280c28c6f1d7663e26b2", "type": "electric_scooter", "is_disabled": 0, "lat": 38.90681933333333, "rental_uris": {"ios": "https://dc.lft.to/lastmile_qr_scan", "android": "https://dc.lft.to/lastmile_qr_scan"}, "is_reserved": 0, "fusion_lon": 0.0, "fusion_lat": 0.0, "lon": -77.06334633333333, "name": "bef34ffd6e5f280c28c6f1d7663e26b2"}, {"bike_id": "3d6ab41739032376fb0e288c895a2783", "type": "electric_scooter", "is_disabled": 0, "lat": 38.93680066666667, "rental_uris": {"ios": "https://dc.lft.to/lastmile_qr_scan", "android": "https://dc.lft.to/lastmile_qr_scan"}, "is_reserved": 0, "fusion_lon": 0.0, "fusion_lat": 0.0, "lon": -77.03621466666667, "name": "3d6ab41739032376fb0e288c895a2783"}, {"bike_id": "133df2914a6cee897efae6141ba5e8c7", "type": "electric_scooter", "is_disabled": 0, "lat": 38.903697666666666, "rental_uris": {"ios": "https://dc.lft.to/lastmile_qr_scan", "android": "https://dc.lft.to/lastmile_qr_scan"}, "is_reserved": 0, "fusion_lon": 0.0, "fusion_lat": 0.0, "lon": -77.00754716666667, "name": "133df2914a6cee897efae6141ba5e8c7"}, {"bike_id": "7776ada431fe0bbe13fcb52546676d2e", "type": "electric_scooter", "is_disabled": 0, "lat": 38.91416683333333, "rental_uris": {"ios": "https://dc.lft.to/lastmile_qr_scan", "android": "https://dc.lft.to/lastmile_qr_scan"}, "is_reserved": 0, "fusion_lon": 0.0, "fusion_lat": 0.0, "lon": -77.02101666666667, "name": "7776ada431fe0bbe13fcb52546676d2e"}, {"bike_id": "9413dc80d81fcff09b482709b5f754ad", "type": "electric_scooter", "is_disabled": 0, "lat": 38.938714, "rental_uris": {"ios": "https://dc.lft.to/lastmile_qr_scan", "android": "https://dc.lft.to/lastmile_qr_scan"}, "is_reserved": 0, "fusion_lon": 0.0, "fusion_lat": 0.0, "lon": -77.024439, "name": "9413dc80d81fcff09b482709b5f754ad"}, {"bike_id": "355c1dfac4043a0de2b4aef4b8eb5888", "type": "electric_scooter", "is_disabled": 0, "lat": 38.8826755, "rental_uris": {"ios": "https://dc.lft.to/lastmile_qr_scan", "android": "https://dc.lft.to/lastmile_qr_scan"}, "is_reserved": 0, "fusion_lon": 0.0, "fusion_lat": 0.0, "lon": -76.99253, "name": "355c1dfac4043a0de2b4aef4b8eb5888"}, {"bike_id": "81aca14f18d464ff9d73bae2863c0666", "type": "electric_scooter", "is_disabled": 0, "lat": 38.92084233333333, "rental_uris": {"ios": "https://dc.lft.to/lastmile_qr_scan", "android": "https://dc.lft.to/lastmile_qr_scan"}, "is_reserved": 0, "fusion_lon": 0.0, "fusion_lat": 0.0, "lon": -77.02401916666666, "name": "81aca14f18d464ff9d73bae2863c0666"}, {"bike_id": "a49d14aa545dd00819d5512837d5893e", "type": "electric_scooter", "is_disabled": 0, "lat": 38.92753916666667, "rental_uris": {"ios": "https://dc.lft.to/lastmile_qr_scan", "android": "https://dc.lft.to/lastmile_qr_scan"}, "is_reserved": 0, "fusion_lon": 0.0, "fusion_lat": 0.0, "lon": -77.0229475, "name": "a49d14aa545dd00819d5512837d5893e"}, {"bike_id": "c2aa45a9bf48a6d29846e59c1279472e", "type": "electric_scooter", "is_disabled": 0, "lat": 38.91638116666667, "rental_uris": {"ios": "https://dc.lft.to/lastmile_qr_scan", "android": "https://dc.lft.to/lastmile_qr_scan"}, "is_reserved": 0, "fusion_lon": 0.0, "fusion_lat": 0.0, "lon": -77.0399425, "name": "c2aa45a9bf48a6d29846e59c1279472e"}, {"bike_id": "95286a7ee30276fa672935ee4f88f7f2", "type": "electric_scooter", "is_disabled": 0, "lat": 38.884763, "rental_uris": {"ios": "https://dc.lft.to/lastmile_qr_scan", "android": "https://dc.lft.to/lastmile_qr_scan"}, "is_reserved": 0, "fusion_lon": 0.0, "fusion_lat": 0.0, "lon": -77.02362983333333, "name": "95286a7ee30276fa672935ee4f88f7f2"}, {"bike_id": "46c8b668748956083d2e8550b5a19cd6", "type": "electric_scooter", "is_disabled": 0, "lat": 38.90264283333333, "rental_uris": {"ios": "https://dc.lft.to/lastmile_qr_scan", "android": "https://dc.lft.to/lastmile_qr_scan"}, "is_reserved": 0, "fusion_lon": 0.0, "fusion_lat": 0.0, "lon": -77.0032795, "name": "46c8b668748956083d2e8550b5a19cd6"}, {"bike_id": "e57cf942d0a051d6d09753b1e03cdf16", "type": "electric_scooter", "is_disabled": 0, "lat": 38.90821416666667, "rental_uris": {"ios": "https://dc.lft.to/lastmile_qr_scan", "android": "https://dc.lft.to/lastmile_qr_scan"}, "is_reserved": 0, "fusion_lon": 0.0, "fusion_lat": 0.0, "lon": -77.03848416666666, "name": "e57cf942d0a051d6d09753b1e03cdf16"}, {"bike_id": "0f631ba9a253286087679db89781313d", "type": "electric_scooter", "is_disabled": 0, "lat": 38.908886, "rental_uris": {"ios": "https://dc.lft.to/lastmile_qr_scan", "android": "https://dc.lft.to/lastmile_qr_scan"}, "is_reserved": 0, "fusion_lon": 0.0, "fusion_lat": 0.0, "lon": -76.99846183333334, "name": "0f631ba9a253286087679db89781313d"}, {"bike_id": "87fbbb9a3948d55caa54bfd94fe46797", "type": "electric_scooter", "is_disabled": 0, "lat": 38.902932, "rental_uris": {"ios": "https://dc.lft.to/lastmile_qr_scan", "android": "https://dc.lft.to/lastmile_qr_scan"}, "is_reserved": 0, "fusion_lon": 0.0, "fusion_lat": 0.0, "lon": -77.02429433333333, "name": "87fbbb9a3948d55caa54bfd94fe46797"}, {"bike_id": "a61250f607f13d1d0f0d7bc0b0a4e85e", "type": "electric_scooter", "is_disabled": 0, "lat": 38.920774333333334, "rental_uris": {"ios": "https://dc.lft.to/lastmile_qr_scan", "android": "https://dc.lft.to/lastmile_qr_scan"}, "is_reserved": 0, "fusion_lon": 0.0, "fusion_lat": 0.0, "lon": -77.01453516666666, "name": "a61250f607f13d1d0f0d7bc0b0a4e85e"}, {"bike_id": "aecd1a1890430233000f69e69296d282", "type": "electric_scooter", "is_disabled": 0, "lat": 38.9370175, "rental_uris": {"ios": "https://dc.lft.to/lastmile_qr_scan", "android": "https://dc.lft.to/lastmile_qr_scan"}, "is_reserved": 0, "fusion_lon": 0.0, "fusion_lat": 0.0, "lon": -77.03280883333333, "name": "aecd1a1890430233000f69e69296d282"}, {"bike_id": "93058aa82508a0a558e277bc110c88f3", "type": "electric_scooter", "is_disabled": 0, "lat": 38.90561916666667, "rental_uris": {"ios": "https://dc.lft.to/lastmile_qr_scan", "android": "https://dc.lft.to/lastmile_qr_scan"}, "is_reserved": 0, "fusion_lon": 0.0, "fusion_lat": 0.0, "lon": -77.02834683333333, "name": "93058aa82508a0a558e277bc110c88f3"}, {"bike_id": "255feeb4984777299425444995e63b43", "type": "electric_scooter", "is_disabled": 0, "lat": 38.86683883333333, "rental_uris": {"ios": "https://dc.lft.to/lastmile_qr_scan", "android": "https://dc.lft.to/lastmile_qr_scan"}, "is_reserved": 0, "fusion_lon": 0.0, "fusion_lat": 0.0, "lon": -76.98570083333334, "name": "255feeb4984777299425444995e63b43"}, {"bike_id": "12f086124fb055ae5c138dd71217413b", "type": "electric_scooter", "is_disabled": 0, "lat": 38.884903333333334, "rental_uris": {"ios": "https://dc.lft.to/lastmile_qr_scan", "android": "https://dc.lft.to/lastmile_qr_scan"}, "is_reserved": 0, "fusion_lon": 0.0, "fusion_lat": 0.0, "lon": -77.01497783333333, "name": "12f086124fb055ae5c138dd71217413b"}, {"bike_id": "e59e7ee6b507225f0c4ea4e3b21fa1e6", "type": "electric_scooter", "is_disabled": 0, "lat": 38.911039833333334, "rental_uris": {"ios": "https://dc.lft.to/lastmile_qr_scan", "android": "https://dc.lft.to/lastmile_qr_scan"}, "is_reserved": 0, "fusion_lon": 0.0, "fusion_lat": 0.0, "lon": -77.044755, "name": "e59e7ee6b507225f0c4ea4e3b21fa1e6"}, {"bike_id": "67b90bee6803316b4c8a4d156d43a8b3", "type": "electric_scooter", "is_disabled": 0, "lat": 38.92796233333333, "rental_uris": {"ios": "https://dc.lft.to/lastmile_qr_scan", "android": "https://dc.lft.to/lastmile_qr_scan"}, "is_reserved": 0, "fusion_lon": 0.0, "fusion_lat": 0.0, "lon": -77.021312, "name": "67b90bee6803316b4c8a4d156d43a8b3"}, {"bike_id": "b06d7ab6d6e38094e571409c62638bef", "type": "electric_scooter", "is_disabled": 0, "lat": 38.93118316666666, "rental_uris": {"ios": "https://dc.lft.to/lastmile_qr_scan", "android": "https://dc.lft.to/lastmile_qr_scan"}, "is_reserved": 0, "fusion_lon": 0.0, "fusion_lat": 0.0, "lon": -77.02067916666667, "name": "b06d7ab6d6e38094e571409c62638bef"}, {"bike_id": "7813abf7a70c313fdc4c8d2e7b2b7cae", "type": "electric_scooter", "is_disabled": 0, "lat": 38.905927166666665, "rental_uris": {"ios": "https://dc.lft.to/lastmile_qr_scan", "android": "https://dc.lft.to/lastmile_qr_scan"}, "is_reserved": 0, "fusion_lon": 0.0, "fusion_lat": 0.0, "lon": -77.021729, "name": "7813abf7a70c313fdc4c8d2e7b2b7cae"}, {"bike_id": "e05bfdfa925faec4106a887cd8726edc", "type": "electric_scooter", "is_disabled": 0, "lat": 38.86215833333333, "rental_uris": {"ios": "https://dc.lft.to/lastmile_qr_scan", "android": "https://dc.lft.to/lastmile_qr_scan"}, "is_reserved": 0, "fusion_lon": 0.0, "fusion_lat": 0.0, "lon": -76.994825, "name": "e05bfdfa925faec4106a887cd8726edc"}, {"bike_id": "eae53403484572a70addb1fbd64ee48a", "type": "electric_scooter", "is_disabled": 0, "lat": 38.90265466666666, "rental_uris": {"ios": "https://dc.lft.to/lastmile_qr_scan", "android": "https://dc.lft.to/lastmile_qr_scan"}, "is_reserved": 0, "fusion_lon": 0.0, "fusion_lat": 0.0, "lon": -77.0196415, "name": "eae53403484572a70addb1fbd64ee48a"}, {"bike_id": "4e66507ed10180b276fe20603e12e6d1", "type": "electric_scooter", "is_disabled": 0, "lat": 38.917103833333336, "rental_uris": {"ios": "https://dc.lft.to/lastmile_qr_scan", "android": "https://dc.lft.to/lastmile_qr_scan"}, "is_reserved": 0, "fusion_lon": 0.0, "fusion_lat": 0.0, "lon": -77.038598, "name": "4e66507ed10180b276fe20603e12e6d1"}, {"bike_id": "05ba06ef4e0d35b10196db5ad102d6bb", "type": "electric_scooter", "is_disabled": 0, "lat": 38.9168375, "rental_uris": {"ios": "https://dc.lft.to/lastmile_qr_scan", "android": "https://dc.lft.to/lastmile_qr_scan"}, "is_reserved": 0, "fusion_lon": 0.0, "fusion_lat": 0.0, "lon": -77.02943533333334, "name": "05ba06ef4e0d35b10196db5ad102d6bb"}, {"bike_id": "271d0768da4d88890921c2fbd3f5afb6", "type": "electric_scooter", "is_disabled": 0, "lat": 38.956863, "rental_uris": {"ios": "https://dc.lft.to/lastmile_qr_scan", "android": "https://dc.lft.to/lastmile_qr_scan"}, "is_reserved": 0, "fusion_lon": 0.0, "fusion_lat": 0.0, "lon": -77.02394616666666, "name": "271d0768da4d88890921c2fbd3f5afb6"}, {"bike_id": "6f5d37fd2c9a591a9aef9bd10c0c433f", "type": "electric_scooter", "is_disabled": 0, "lat": 38.92065633333333, "rental_uris": {"ios": "https://dc.lft.to/lastmile_qr_scan", "android": "https://dc.lft.to/lastmile_qr_scan"}, "is_reserved": 0, "fusion_lon": 0.0, "fusion_lat": 0.0, "lon": -77.03460866666667, "name": "6f5d37fd2c9a591a9aef9bd10c0c433f"}, {"bike_id": "081075ef7520d95ae940494377e9bc1b", "type": "electric_scooter", "is_disabled": 0, "lat": 38.907292166666664, "rental_uris": {"ios": "https://dc.lft.to/lastmile_qr_scan", "android": "https://dc.lft.to/lastmile_qr_scan"}, "is_reserved": 0, "fusion_lon": 0.0, "fusion_lat": 0.0, "lon": -77.053234, "name": "081075ef7520d95ae940494377e9bc1b"}, {"bike_id": "b32f74ae2e9b68e305d746134ace79ce", "type": "electric_scooter", "is_disabled": 0, "lat": 38.908478833333334, "rental_uris": {"ios": "https://dc.lft.to/lastmile_qr_scan", "android": "https://dc.lft.to/lastmile_qr_scan"}, "is_reserved": 0, "fusion_lon": 0.0, "fusion_lat": 0.0, "lon": -76.99793816666667, "name": "b32f74ae2e9b68e305d746134ace79ce"}, {"bike_id": "99800bb40a6e2c14f0ac01ccf90a4bbc", "type": "electric_scooter", "is_disabled": 0, "lat": 38.883631333333334, "rental_uris": {"ios": "https://dc.lft.to/lastmile_qr_scan", "android": "https://dc.lft.to/lastmile_qr_scan"}, "is_reserved": 0, "fusion_lon": 0.0, "fusion_lat": 0.0, "lon": -77.02601816666666, "name": "99800bb40a6e2c14f0ac01ccf90a4bbc"}, {"bike_id": "bf0a892eb9f11d5cc97f791e5ae1e2ef", "type": "electric_scooter", "is_disabled": 0, "lat": 38.919237, "rental_uris": {"ios": "https://dc.lft.to/lastmile_qr_scan", "android": "https://dc.lft.to/lastmile_qr_scan"}, "is_reserved": 0, "fusion_lon": 0.0, "fusion_lat": 0.0, "lon": -77.04239683333333, "name": "bf0a892eb9f11d5cc97f791e5ae1e2ef"}, {"bike_id": "0b3056ae5bd62dbc169d090f98dca25c", "type": "electric_scooter", "is_disabled": 0, "lat": 38.8668385, "rental_uris": {"ios": "https://dc.lft.to/lastmile_qr_scan", "android": "https://dc.lft.to/lastmile_qr_scan"}, "is_reserved": 0, "fusion_lon": 0.0, "fusion_lat": 0.0, "lon": -76.985557, "name": "0b3056ae5bd62dbc169d090f98dca25c"}, {"bike_id": "c86ddb7d4c8c1f41bb91ff73453fdb45", "type": "electric_scooter", "is_disabled": 0, "lat": 38.90518, "rental_uris": {"ios": "https://dc.lft.to/lastmile_qr_scan", "android": "https://dc.lft.to/lastmile_qr_scan"}, "is_reserved": 0, "fusion_lon": 0.0, "fusion_lat": 0.0, "lon": -77.051359, "name": "c86ddb7d4c8c1f41bb91ff73453fdb45"}, {"bike_id": "23d39d3bbda380d950bce7464662ba92", "type": "electric_scooter", "is_disabled": 0, "lat": 38.920168333333336, "rental_uris": {"ios": "https://dc.lft.to/lastmile_qr_scan", "android": "https://dc.lft.to/lastmile_qr_scan"}, "is_reserved": 0, "fusion_lon": 0.0, "fusion_lat": 0.0, "lon": -77.03121, "name": "23d39d3bbda380d950bce7464662ba92"}, {"bike_id": "3a94a73357279887fd6ed015b1e50551", "type": "electric_scooter", "is_disabled": 0, "lat": 38.9025845, "rental_uris": {"ios": "https://dc.lft.to/lastmile_qr_scan", "android": "https://dc.lft.to/lastmile_qr_scan"}, "is_reserved": 0, "fusion_lon": 0.0, "fusion_lat": 0.0, "lon": -77.03949133333333, "name": "3a94a73357279887fd6ed015b1e50551"}, {"bike_id": "38eecc7743c741a072c585c3bd6b759e", "type": "electric_scooter", "is_disabled": 0, "lat": 38.905849333333336, "rental_uris": {"ios": "https://dc.lft.to/lastmile_qr_scan", "android": "https://dc.lft.to/lastmile_qr_scan"}, "is_reserved": 0, "fusion_lon": 0.0, "fusion_lat": 0.0, "lon": -77.01997016666667, "name": "38eecc7743c741a072c585c3bd6b759e"}, {"bike_id": "940076d086cc0b570815fd8693dcb7f7", "type": "electric_scooter", "is_disabled": 0, "lat": 38.864126166666665, "rental_uris": {"ios": "https://dc.lft.to/lastmile_qr_scan", "android": "https://dc.lft.to/lastmile_qr_scan"}, "is_reserved": 0, "fusion_lon": 0.0, "fusion_lat": 0.0, "lon": -76.98045633333334, "name": "940076d086cc0b570815fd8693dcb7f7"}, {"bike_id": "12b4760ae4698f73ba7008cb5b03703d", "type": "electric_scooter", "is_disabled": 0, "lat": 38.8637485, "rental_uris": {"ios": "https://dc.lft.to/lastmile_qr_scan", "android": "https://dc.lft.to/lastmile_qr_scan"}, "is_reserved": 0, "fusion_lon": 0.0, "fusion_lat": 0.0, "lon": -76.99060883333334, "name": "12b4760ae4698f73ba7008cb5b03703d"}, {"bike_id": "a2f85dbaafd9398f64a5a03f8ba98b86", "type": "electric_scooter", "is_disabled": 0, "lat": 38.937664166666664, "rental_uris": {"ios": "https://dc.lft.to/lastmile_qr_scan", "android": "https://dc.lft.to/lastmile_qr_scan"}, "is_reserved": 0, "fusion_lon": 0.0, "fusion_lat": 0.0, "lon": -77.0248305, "name": "a2f85dbaafd9398f64a5a03f8ba98b86"}, {"bike_id": "c55b945a4dc54aa525d9ed66032dde7e", "type": "electric_scooter", "is_disabled": 0, "lat": 38.93133383333333, "rental_uris": {"ios": "https://dc.lft.to/lastmile_qr_scan", "android": "https://dc.lft.to/lastmile_qr_scan"}, "is_reserved": 0, "fusion_lon": 0.0, "fusion_lat": 0.0, "lon": -77.0280525, "name": "c55b945a4dc54aa525d9ed66032dde7e"}, {"bike_id": "593598fa0585375c22140405397aeecf", "type": "electric_scooter", "is_disabled": 0, "lat": 38.923734333333336, "rental_uris": {"ios": "https://dc.lft.to/lastmile_qr_scan", "android": "https://dc.lft.to/lastmile_qr_scan"}, "is_reserved": 0, "fusion_lon": 0.0, "fusion_lat": 0.0, "lon": -77.01916083333333, "name": "593598fa0585375c22140405397aeecf"}, {"bike_id": "35c13f814724d08ee6be003d7284f887", "type": "electric_scooter", "is_disabled": 0, "lat": 38.901211333333336, "rental_uris": {"ios": "https://dc.lft.to/lastmile_qr_scan", "android": "https://dc.lft.to/lastmile_qr_scan"}, "is_reserved": 0, "fusion_lon": 0.0, "fusion_lat": 0.0, "lon": -76.92950216666667, "name": "35c13f814724d08ee6be003d7284f887"}, {"bike_id": "e679400e22b4720458196552d173d124", "type": "electric_scooter", "is_disabled": 0, "lat": 38.902816666666666, "rental_uris": {"ios": "https://dc.lft.to/lastmile_qr_scan", "android": "https://dc.lft.to/lastmile_qr_scan"}, "is_reserved": 0, "fusion_lon": 0.0, "fusion_lat": 0.0, "lon": -77.00352166666667, "name": "e679400e22b4720458196552d173d124"}, {"bike_id": "6846e441c4f0a1ce4ea204f9630d20a1", "type": "electric_scooter", "is_disabled": 0, "lat": 38.95629616666667, "rental_uris": {"ios": "https://dc.lft.to/lastmile_qr_scan", "android": "https://dc.lft.to/lastmile_qr_scan"}, "is_reserved": 0, "fusion_lon": 0.0, "fusion_lat": 0.0, "lon": -77.03611066666667, "name": "6846e441c4f0a1ce4ea204f9630d20a1"}, {"bike_id": "a181d523f11c27f3f94e487c8dbc12d1", "type": "electric_scooter", "is_disabled": 0, "lat": 38.92459233333334, "rental_uris": {"ios": "https://dc.lft.to/lastmile_qr_scan", "android": "https://dc.lft.to/lastmile_qr_scan"}, "is_reserved": 0, "fusion_lon": 0.0, "fusion_lat": 0.0, "lon": -77.02409066666667, "name": "a181d523f11c27f3f94e487c8dbc12d1"}, {"bike_id": "bc6ed9fdb6c0b53910acc253c826b3c3", "type": "electric_scooter", "is_disabled": 0, "lat": 38.923316166666666, "rental_uris": {"ios": "https://dc.lft.to/lastmile_qr_scan", "android": "https://dc.lft.to/lastmile_qr_scan"}, "is_reserved": 0, "fusion_lon": 0.0, "fusion_lat": 0.0, "lon": -77.03781433333333, "name": "bc6ed9fdb6c0b53910acc253c826b3c3"}, {"bike_id": "2c60816dfd18bb26c8f887974aece38c", "type": "electric_scooter", "is_disabled": 0, "lat": 38.87335133333333, "rental_uris": {"ios": "https://dc.lft.to/lastmile_qr_scan", "android": "https://dc.lft.to/lastmile_qr_scan"}, "is_reserved": 0, "fusion_lon": 0.0, "fusion_lat": 0.0, "lon": -76.96781916666667, "name": "2c60816dfd18bb26c8f887974aece38c"}, {"bike_id": "a0765f1423d79592c67831965e2e793f", "type": "electric_scooter", "is_disabled": 0, "lat": 38.91713583333333, "rental_uris": {"ios": "https://dc.lft.to/lastmile_qr_scan", "android": "https://dc.lft.to/lastmile_qr_scan"}, "is_reserved": 0, "fusion_lon": 0.0, "fusion_lat": 0.0, "lon": -77.034558, "name": "a0765f1423d79592c67831965e2e793f"}, {"bike_id": "44941c7a19c32df18d4475a96e5fc5d8", "type": "electric_scooter", "is_disabled": 0, "lat": 38.877363333333335, "rental_uris": {"ios": "https://dc.lft.to/lastmile_qr_scan", "android": "https://dc.lft.to/lastmile_qr_scan"}, "is_reserved": 0, "fusion_lon": 0.0, "fusion_lat": 0.0, "lon": -77.01994633333334, "name": "44941c7a19c32df18d4475a96e5fc5d8"}, {"bike_id": "dc5f92f4306bf5b49dfd4be96aa38e5d", "type": "electric_scooter", "is_disabled": 0, "lat": 38.9290025, "rental_uris": {"ios": "https://dc.lft.to/lastmile_qr_scan", "android": "https://dc.lft.to/lastmile_qr_scan"}, "is_reserved": 0, "fusion_lon": 0.0, "fusion_lat": 0.0, "lon": -77.0545455, "name": "dc5f92f4306bf5b49dfd4be96aa38e5d"}, {"bike_id": "702ab23940e1429c25abe4563a03e716", "type": "electric_scooter", "is_disabled": 0, "lat": 38.879189333333336, "rental_uris": {"ios": "https://dc.lft.to/lastmile_qr_scan", "android": "https://dc.lft.to/lastmile_qr_scan"}, "is_reserved": 0, "fusion_lon": 0.0, "fusion_lat": 0.0, "lon": -77.008857, "name": "702ab23940e1429c25abe4563a03e716"}, {"bike_id": "0b098780408ef2447ce8fcc6a9f4df88", "type": "electric_bike", "is_disabled": 0, "lat": 38.97394166666667, "rental_uris": {"ios": "https://dc.lft.to/lastmile_qr_scan", "android": "https://dc.lft.to/lastmile_qr_scan"}, "is_reserved": 0, "fusion_lon": 0.0, "fusion_lat": 0.0, "lon": -77.06446166666667, "name": "0b098780408ef2447ce8fcc6a9f4df88"}, {"bike_id": "21b7648db1a74f4451b56df8cdbf1d9b", "type": "electric_bike", "is_disabled": 0, "lat": 39.057863833333336, "rental_uris": {"ios": "https://dc.lft.to/lastmile_qr_scan", "android": "https://dc.lft.to/lastmile_qr_scan"}, "is_reserved": 0, "fusion_lon": 0.0, "fusion_lat": 0.0, "lon": -77.15017966666667, "name": "21b7648db1a74f4451b56df8cdbf1d9b"}, {"bike_id": "a8d1f2c047c4eb64ef6ac8144e429b0d", "type": "electric_bike", "is_disabled": 0, "lat": 38.85320983333333, "rental_uris": {"ios": "https://dc.lft.to/lastmile_qr_scan", "android": "https://dc.lft.to/lastmile_qr_scan"}, "is_reserved": 0, "fusion_lon": 0.0, "fusion_lat": 0.0, "lon": -76.98005116666667, "name": "a8d1f2c047c4eb64ef6ac8144e429b0d"}, {"bike_id": "80807f0475f05ec70c9659a7fde656d0", "type": "electric_scooter", "is_disabled": 0, "lat": 38.93538066666667, "rental_uris": {"ios": "https://dc.lft.to/lastmile_qr_scan", "android": "https://dc.lft.to/lastmile_qr_scan"}, "is_reserved": 0, "fusion_lon": 0.0, "fusion_lat": 0.0, "lon": -77.02343416666666, "name": "80807f0475f05ec70c9659a7fde656d0"}, {"bike_id": "15bcb2b68bf496ef70f5bbba019ab094", "type": "electric_scooter", "is_disabled": 0, "lat": 38.85209316666667, "rental_uris": {"ios": "https://dc.lft.to/lastmile_qr_scan", "android": "https://dc.lft.to/lastmile_qr_scan"}, "is_reserved": 0, "fusion_lon": 0.0, "fusion_lat": 0.0, "lon": -76.98555066666667, "name": "15bcb2b68bf496ef70f5bbba019ab094"}, {"bike_id": "194cff7c1bab338a60180180f029976b", "type": "electric_scooter", "is_disabled": 0, "lat": 38.903611166666664, "rental_uris": {"ios": "https://dc.lft.to/lastmile_qr_scan", "android": "https://dc.lft.to/lastmile_qr_scan"}, "is_reserved": 0, "fusion_lon": 0.0, "fusion_lat": 0.0, "lon": -76.99384016666667, "name": "194cff7c1bab338a60180180f029976b"}, {"bike_id": "183b7d82cb5ac7818901beac44ee32ed", "type": "electric_bike", "is_disabled": 0, "lat": 38.897385, "rental_uris": {"ios": "https://dc.lft.to/lastmile_qr_scan", "android": "https://dc.lft.to/lastmile_qr_scan"}, "is_reserved": 0, "fusion_lon": 0.0, "fusion_lat": 0.0, "lon": -76.942484, "name": "183b7d82cb5ac7818901beac44ee32ed"}, {"bike_id": "2c6b3bb0206bd85b94882944d0ad38f3", "type": "electric_scooter", "is_disabled": 0, "lat": 38.93441466666667, "rental_uris": {"ios": "https://dc.lft.to/lastmile_qr_scan", "android": "https://dc.lft.to/lastmile_qr_scan"}, "is_reserved": 0, "fusion_lon": 0.0, "fusion_lat": 0.0, "lon": -77.0297835, "name": "2c6b3bb0206bd85b94882944d0ad38f3"}, {"bike_id": "bf8a4e67894bf7d58866918052854bea", "type": "electric_scooter", "is_disabled": 0, "lat": 38.92192033333333, "rental_uris": {"ios": "https://dc.lft.to/lastmile_qr_scan", "android": "https://dc.lft.to/lastmile_qr_scan"}, "is_reserved": 0, "fusion_lon": 0.0, "fusion_lat": 0.0, "lon": -76.99363966666667, "name": "bf8a4e67894bf7d58866918052854bea"}, {"bike_id": "833e8c3dd4076d7e668aa2fa9ef21deb", "type": "electric_scooter", "is_disabled": 0, "lat": 38.91272716666667, "rental_uris": {"ios": "https://dc.lft.to/lastmile_qr_scan", "android": "https://dc.lft.to/lastmile_qr_scan"}, "is_reserved": 0, "fusion_lon": 0.0, "fusion_lat": 0.0, "lon": -77.04724433333334, "name": "833e8c3dd4076d7e668aa2fa9ef21deb"}, {"bike_id": "c543471be188afb10d0d5a818c655f75", "type": "electric_scooter", "is_disabled": 0, "lat": 38.930073166666666, "rental_uris": {"ios": "https://dc.lft.to/lastmile_qr_scan", "android": "https://dc.lft.to/lastmile_qr_scan"}, "is_reserved": 0, "fusion_lon": 0.0, "fusion_lat": 0.0, "lon": -77.01428583333333, "name": "c543471be188afb10d0d5a818c655f75"}, {"bike_id": "71f6df907a1809626a52f54d1ebb4105", "type": "electric_scooter", "is_disabled": 0, "lat": 38.857004833333335, "rental_uris": {"ios": "https://dc.lft.to/lastmile_qr_scan", "android": "https://dc.lft.to/lastmile_qr_scan"}, "is_reserved": 0, "fusion_lon": 0.0, "fusion_lat": 0.0, "lon": -76.98967183333333, "name": "71f6df907a1809626a52f54d1ebb4105"}, {"bike_id": "78d8659b3716f56415ec4f4bda9dbdbb", "type": "electric_scooter", "is_disabled": 0, "lat": 38.90061216666667, "rental_uris": {"ios": "https://dc.lft.to/lastmile_qr_scan", "android": "https://dc.lft.to/lastmile_qr_scan"}, "is_reserved": 0, "fusion_lon": 0.0, "fusion_lat": 0.0, "lon": -76.93473733333333, "name": "78d8659b3716f56415ec4f4bda9dbdbb"}, {"bike_id": "6d7164f7d74dea2d81763014f15a962f", "type": "electric_scooter", "is_disabled": 0, "lat": 38.905142, "rental_uris": {"ios": "https://dc.lft.to/lastmile_qr_scan", "android": "https://dc.lft.to/lastmile_qr_scan"}, "is_reserved": 0, "fusion_lon": 0.0, "fusion_lat": 0.0, "lon": -77.0296825, "name": "6d7164f7d74dea2d81763014f15a962f"}, {"bike_id": "2837ea643e8cd96b3f367f078a22c624", "type": "electric_scooter", "is_disabled": 0, "lat": 38.930821, "rental_uris": {"ios": "https://dc.lft.to/lastmile_qr_scan", "android": "https://dc.lft.to/lastmile_qr_scan"}, "is_reserved": 0, "fusion_lon": 0.0, "fusion_lat": 0.0, "lon": -77.02793, "name": "2837ea643e8cd96b3f367f078a22c624"}, {"bike_id": "d45420e8df313db4daa9f394863c6d40", "type": "electric_bike", "is_disabled": 0, "lat": 39.014853, "rental_uris": {"ios": "https://dc.lft.to/lastmile_qr_scan", "android": "https://dc.lft.to/lastmile_qr_scan"}, "is_reserved": 0, "fusion_lon": 0.0, "fusion_lat": 0.0, "lon": -77.054937, "name": "d45420e8df313db4daa9f394863c6d40"}, {"bike_id": "ed59cd8c711c44c8698c81ab8d79ba20", "type": "electric_scooter", "is_disabled": 0, "lat": 38.91887666666667, "rental_uris": {"ios": "https://dc.lft.to/lastmile_qr_scan", "android": "https://dc.lft.to/lastmile_qr_scan"}, "is_reserved": 0, "fusion_lon": 0.0, "fusion_lat": 0.0, "lon": -77.014573, "name": "ed59cd8c711c44c8698c81ab8d79ba20"}, {"bike_id": "f9cc1ed7052d2a91b0a8d3cb606b40eb", "type": "electric_scooter", "is_disabled": 0, "lat": 38.9107955, "rental_uris": {"ios": "https://dc.lft.to/lastmile_qr_scan", "android": "https://dc.lft.to/lastmile_qr_scan"}, "is_reserved": 0, "fusion_lon": 0.0, "fusion_lat": 0.0, "lon": -77.0150765, "name": "f9cc1ed7052d2a91b0a8d3cb606b40eb"}, {"bike_id": "252ee73aca02b3535bd25d711be51e8c", "type": "electric_scooter", "is_disabled": 0, "lat": 38.928764, "rental_uris": {"ios": "https://dc.lft.to/lastmile_qr_scan", "android": "https://dc.lft.to/lastmile_qr_scan"}, "is_reserved": 0, "fusion_lon": 0.0, "fusion_lat": 0.0, "lon": -77.01231383333334, "name": "252ee73aca02b3535bd25d711be51e8c"}, {"bike_id": "12f06925f46895cad3c6e7bd2b16a1ca", "type": "electric_scooter", "is_disabled": 0, "lat": 38.90041816666667, "rental_uris": {"ios": "https://dc.lft.to/lastmile_qr_scan", "android": "https://dc.lft.to/lastmile_qr_scan"}, "is_reserved": 0, "fusion_lon": 0.0, "fusion_lat": 0.0, "lon": -77.01772983333333, "name": "12f06925f46895cad3c6e7bd2b16a1ca"}, {"bike_id": "f634bf549f080ddfe10dc2b6f8f76462", "type": "electric_scooter", "is_disabled": 0, "lat": 38.901952333333334, "rental_uris": {"ios": "https://dc.lft.to/lastmile_qr_scan", "android": "https://dc.lft.to/lastmile_qr_scan"}, "is_reserved": 0, "fusion_lon": 0.0, "fusion_lat": 0.0, "lon": -77.01290116666667, "name": "f634bf549f080ddfe10dc2b6f8f76462"}, {"bike_id": "7fb9c4756b2548b2a6ae5bc81a250868", "type": "electric_scooter", "is_disabled": 0, "lat": 38.91119183333333, "rental_uris": {"ios": "https://dc.lft.to/lastmile_qr_scan", "android": "https://dc.lft.to/lastmile_qr_scan"}, "is_reserved": 0, "fusion_lon": 0.0, "fusion_lat": 0.0, "lon": -77.04162, "name": "7fb9c4756b2548b2a6ae5bc81a250868"}, {"bike_id": "c52095c1bab7006336d4d4c3ac0a957a", "type": "electric_scooter", "is_disabled": 0, "lat": 38.923458833333335, "rental_uris": {"ios": "https://dc.lft.to/lastmile_qr_scan", "android": "https://dc.lft.to/lastmile_qr_scan"}, "is_reserved": 0, "fusion_lon": 0.0, "fusion_lat": 0.0, "lon": -77.05044883333333, "name": "c52095c1bab7006336d4d4c3ac0a957a"}, {"bike_id": "a4c007ee70632e086102f096d4f30a67", "type": "electric_scooter", "is_disabled": 0, "lat": 38.9095075, "rental_uris": {"ios": "https://dc.lft.to/lastmile_qr_scan", "android": "https://dc.lft.to/lastmile_qr_scan"}, "is_reserved": 0, "fusion_lon": 0.0, "fusion_lat": 0.0, "lon": -77.02688483333333, "name": "a4c007ee70632e086102f096d4f30a67"}, {"bike_id": "bec7792d57d536cdebc61d1e5d6df12d", "type": "electric_scooter", "is_disabled": 0, "lat": 38.925424166666666, "rental_uris": {"ios": "https://dc.lft.to/lastmile_qr_scan", "android": "https://dc.lft.to/lastmile_qr_scan"}, "is_reserved": 0, "fusion_lon": 0.0, "fusion_lat": 0.0, "lon": -77.02278616666666, "name": "bec7792d57d536cdebc61d1e5d6df12d"}, {"bike_id": "970e566093c312f71ed82417d4067308", "type": "electric_scooter", "is_disabled": 0, "lat": 38.9396895, "rental_uris": {"ios": "https://dc.lft.to/lastmile_qr_scan", "android": "https://dc.lft.to/lastmile_qr_scan"}, "is_reserved": 0, "fusion_lon": 0.0, "fusion_lat": 0.0, "lon": -77.02488433333333, "name": "970e566093c312f71ed82417d4067308"}, {"bike_id": "67ae2ea881ff7e739ae895a13ac8f6c1", "type": "electric_scooter", "is_disabled": 0, "lat": 38.91620666666667, "rental_uris": {"ios": "https://dc.lft.to/lastmile_qr_scan", "android": "https://dc.lft.to/lastmile_qr_scan"}, "is_reserved": 0, "fusion_lon": 0.0, "fusion_lat": 0.0, "lon": -77.0363955, "name": "67ae2ea881ff7e739ae895a13ac8f6c1"}, {"bike_id": "90288ef0b78646e16f5b6a5e2bbc7e31", "type": "electric_scooter", "is_disabled": 0, "lat": 38.908979333333335, "rental_uris": {"ios": "https://dc.lft.to/lastmile_qr_scan", "android": "https://dc.lft.to/lastmile_qr_scan"}, "is_reserved": 0, "fusion_lon": 0.0, "fusion_lat": 0.0, "lon": -77.086196, "name": "90288ef0b78646e16f5b6a5e2bbc7e31"}, {"bike_id": "fc6c137230340ca4ed3d0d47495ec234", "type": "electric_scooter", "is_disabled": 0, "lat": 38.87080366666667, "rental_uris": {"ios": "https://dc.lft.to/lastmile_qr_scan", "android": "https://dc.lft.to/lastmile_qr_scan"}, "is_reserved": 0, "fusion_lon": 0.0, "fusion_lat": 0.0, "lon": -77.01184133333334, "name": "fc6c137230340ca4ed3d0d47495ec234"}, {"bike_id": "6740d7ce54af1412d369162e84977045", "type": "electric_scooter", "is_disabled": 0, "lat": 38.958978, "rental_uris": {"ios": "https://dc.lft.to/lastmile_qr_scan", "android": "https://dc.lft.to/lastmile_qr_scan"}, "is_reserved": 0, "fusion_lon": 0.0, "fusion_lat": 0.0, "lon": -77.08594883333333, "name": "6740d7ce54af1412d369162e84977045"}, {"bike_id": "8075cfa327098d3979a0503c9cf2243c", "type": "electric_scooter", "is_disabled": 0, "lat": 38.87124216666667, "rental_uris": {"ios": "https://dc.lft.to/lastmile_qr_scan", "android": "https://dc.lft.to/lastmile_qr_scan"}, "is_reserved": 0, "fusion_lon": 0.0, "fusion_lat": 0.0, "lon": -77.0075715, "name": "8075cfa327098d3979a0503c9cf2243c"}, {"bike_id": "3368ef35c044e181f644c775866b8919", "type": "electric_scooter", "is_disabled": 0, "lat": 38.9319715, "rental_uris": {"ios": "https://dc.lft.to/lastmile_qr_scan", "android": "https://dc.lft.to/lastmile_qr_scan"}, "is_reserved": 0, "fusion_lon": 0.0, "fusion_lat": 0.0, "lon": -77.0195795, "name": "3368ef35c044e181f644c775866b8919"}, {"bike_id": "b92ad5c53194bc8c9d74c0b3f55d8112", "type": "electric_scooter", "is_disabled": 0, "lat": 38.91640116666667, "rental_uris": {"ios": "https://dc.lft.to/lastmile_qr_scan", "android": "https://dc.lft.to/lastmile_qr_scan"}, "is_reserved": 0, "fusion_lon": 0.0, "fusion_lat": 0.0, "lon": -77.00044983333333, "name": "b92ad5c53194bc8c9d74c0b3f55d8112"}, {"bike_id": "0c0ed41482208e3ee65b9f4cafd4fd18", "type": "electric_scooter", "is_disabled": 0, "lat": 38.9208485, "rental_uris": {"ios": "https://dc.lft.to/lastmile_qr_scan", "android": "https://dc.lft.to/lastmile_qr_scan"}, "is_reserved": 0, "fusion_lon": 0.0, "fusion_lat": 0.0, "lon": -77.02401083333334, "name": "0c0ed41482208e3ee65b9f4cafd4fd18"}, {"bike_id": "69434e5ac10ea4101d5f450d8b9f823d", "type": "electric_scooter", "is_disabled": 0, "lat": 38.9148465, "rental_uris": {"ios": "https://dc.lft.to/lastmile_qr_scan", "android": "https://dc.lft.to/lastmile_qr_scan"}, "is_reserved": 0, "fusion_lon": 0.0, "fusion_lat": 0.0, "lon": -77.02171266666667, "name": "69434e5ac10ea4101d5f450d8b9f823d"}, {"bike_id": "5b2877d72c13f213aea25ce75f15ed11", "type": "electric_scooter", "is_disabled": 0, "lat": 38.9346895, "rental_uris": {"ios": "https://dc.lft.to/lastmile_qr_scan", "android": "https://dc.lft.to/lastmile_qr_scan"}, "is_reserved": 0, "fusion_lon": 0.0, "fusion_lat": 0.0, "lon": -77.028021, "name": "5b2877d72c13f213aea25ce75f15ed11"}, {"bike_id": "9dfee2aaf00dcc2928eefab9f2f1fe82", "type": "electric_scooter", "is_disabled": 0, "lat": 38.862458333333336, "rental_uris": {"ios": "https://dc.lft.to/lastmile_qr_scan", "android": "https://dc.lft.to/lastmile_qr_scan"}, "is_reserved": 0, "fusion_lon": 0.0, "fusion_lat": 0.0, "lon": -76.9949825, "name": "9dfee2aaf00dcc2928eefab9f2f1fe82"}, {"bike_id": "abfe266d7a70f900cf955fe032ba09f9", "type": "electric_scooter", "is_disabled": 0, "lat": 38.874538, "rental_uris": {"ios": "https://dc.lft.to/lastmile_qr_scan", "android": "https://dc.lft.to/lastmile_qr_scan"}, "is_reserved": 0, "fusion_lon": 0.0, "fusion_lat": 0.0, "lon": -77.00293033333334, "name": "abfe266d7a70f900cf955fe032ba09f9"}, {"bike_id": "ecd8bcae50f6687b7f700f319dc3a353", "type": "electric_scooter", "is_disabled": 0, "lat": 38.90312983333333, "rental_uris": {"ios": "https://dc.lft.to/lastmile_qr_scan", "android": "https://dc.lft.to/lastmile_qr_scan"}, "is_reserved": 0, "fusion_lon": 0.0, "fusion_lat": 0.0, "lon": -76.9835465, "name": "ecd8bcae50f6687b7f700f319dc3a353"}, {"bike_id": "808b3d339dcbc4094614137c327ed879", "type": "electric_scooter", "is_disabled": 0, "lat": 38.948393833333334, "rental_uris": {"ios": "https://dc.lft.to/lastmile_qr_scan", "android": "https://dc.lft.to/lastmile_qr_scan"}, "is_reserved": 0, "fusion_lon": 0.0, "fusion_lat": 0.0, "lon": -77.025394, "name": "808b3d339dcbc4094614137c327ed879"}, {"bike_id": "17a6b441aef50426921e67960c451f64", "type": "electric_scooter", "is_disabled": 0, "lat": 38.93427233333333, "rental_uris": {"ios": "https://dc.lft.to/lastmile_qr_scan", "android": "https://dc.lft.to/lastmile_qr_scan"}, "is_reserved": 0, "fusion_lon": 0.0, "fusion_lat": 0.0, "lon": -77.0390365, "name": "17a6b441aef50426921e67960c451f64"}, {"bike_id": "c1c64fde38d495f6a145c438645a0c89", "type": "electric_scooter", "is_disabled": 0, "lat": 38.920877833333336, "rental_uris": {"ios": "https://dc.lft.to/lastmile_qr_scan", "android": "https://dc.lft.to/lastmile_qr_scan"}, "is_reserved": 0, "fusion_lon": 0.0, "fusion_lat": 0.0, "lon": -77.023993, "name": "c1c64fde38d495f6a145c438645a0c89"}, {"bike_id": "26d46c79461f8ea307c029b0f26bea38", "type": "electric_scooter", "is_disabled": 0, "lat": 38.85445933333333, "rental_uris": {"ios": "https://dc.lft.to/lastmile_qr_scan", "android": "https://dc.lft.to/lastmile_qr_scan"}, "is_reserved": 0, "fusion_lon": 0.0, "fusion_lat": 0.0, "lon": -76.98606983333333, "name": "26d46c79461f8ea307c029b0f26bea38"}, {"bike_id": "67349fd7af9b921a358ae1f88efd27c5", "type": "electric_scooter", "is_disabled": 0, "lat": 38.942927833333336, "rental_uris": {"ios": "https://dc.lft.to/lastmile_qr_scan", "android": "https://dc.lft.to/lastmile_qr_scan"}, "is_reserved": 0, "fusion_lon": 0.0, "fusion_lat": 0.0, "lon": -77.02162516666667, "name": "67349fd7af9b921a358ae1f88efd27c5"}, {"bike_id": "4ddcf3bb77494ce3475a711e78cbc5cb", "type": "electric_scooter", "is_disabled": 0, "lat": 38.918145, "rental_uris": {"ios": "https://dc.lft.to/lastmile_qr_scan", "android": "https://dc.lft.to/lastmile_qr_scan"}, "is_reserved": 0, "fusion_lon": 0.0, "fusion_lat": 0.0, "lon": -77.036563, "name": "4ddcf3bb77494ce3475a711e78cbc5cb"}, {"bike_id": "b99651122d4cbfe9a90d6a9a51fd0304", "type": "electric_scooter", "is_disabled": 0, "lat": 38.907180833333335, "rental_uris": {"ios": "https://dc.lft.to/lastmile_qr_scan", "android": "https://dc.lft.to/lastmile_qr_scan"}, "is_reserved": 0, "fusion_lon": 0.0, "fusion_lat": 0.0, "lon": -77.044843, "name": "b99651122d4cbfe9a90d6a9a51fd0304"}, {"bike_id": "6aaa8143feb279147a9edf6c358e23ef", "type": "electric_bike", "is_disabled": 0, "lat": 38.854174, "rental_uris": {"ios": "https://dc.lft.to/lastmile_qr_scan", "android": "https://dc.lft.to/lastmile_qr_scan"}, "is_reserved": 0, "fusion_lon": 0.0, "fusion_lat": 0.0, "lon": -77.12075616666667, "name": "6aaa8143feb279147a9edf6c358e23ef"}, {"bike_id": "9893ccfb965cfbd434ee7d8d87608d39", "type": "electric_scooter", "is_disabled": 0, "lat": 38.91167316666667, "rental_uris": {"ios": "https://dc.lft.to/lastmile_qr_scan", "android": "https://dc.lft.to/lastmile_qr_scan"}, "is_reserved": 0, "fusion_lon": 0.0, "fusion_lat": 0.0, "lon": -77.0162285, "name": "9893ccfb965cfbd434ee7d8d87608d39"}, {"bike_id": "555b60b1e9d555da3ef0c697812ef0ea", "type": "electric_scooter", "is_disabled": 0, "lat": 38.93321233333333, "rental_uris": {"ios": "https://dc.lft.to/lastmile_qr_scan", "android": "https://dc.lft.to/lastmile_qr_scan"}, "is_reserved": 0, "fusion_lon": 0.0, "fusion_lat": 0.0, "lon": -77.02920183333333, "name": "555b60b1e9d555da3ef0c697812ef0ea"}, {"bike_id": "73a8edbc216db44b61ed07c5626d6150", "type": "electric_scooter", "is_disabled": 0, "lat": 38.907369833333334, "rental_uris": {"ios": "https://dc.lft.to/lastmile_qr_scan", "android": "https://dc.lft.to/lastmile_qr_scan"}, "is_reserved": 0, "fusion_lon": 0.0, "fusion_lat": 0.0, "lon": -77.034386, "name": "73a8edbc216db44b61ed07c5626d6150"}, {"bike_id": "4d492ba40e8802ea01ccae82c8c61bbd", "type": "electric_scooter", "is_disabled": 0, "lat": 38.9082275, "rental_uris": {"ios": "https://dc.lft.to/lastmile_qr_scan", "android": "https://dc.lft.to/lastmile_qr_scan"}, "is_reserved": 0, "fusion_lon": 0.0, "fusion_lat": 0.0, "lon": -77.043278, "name": "4d492ba40e8802ea01ccae82c8c61bbd"},