{"data": {"bikes": [{"is_disabled": 0, "rental_uris": {"android": "https://dc.lft.to/lastmile_qr_scan", "ios": "https://dc.lft.to/lastmile_qr_scan"}, "is_reserved": 0, "name": "45281361784985de509d565128af1d32", "lon": -77.06104633333334, "type": "electric_scooter", "bike_id": "45281361784985de509d565128af1d32", "fusion_lon": 0.0, "lat": 38.943673833333335, "fusion_lat": 0.0}, {"is_disabled": 0, "rental_uris": {"android": "https://dc.lft.to/lastmile_qr_scan", "ios": "https://dc.lft.to/lastmile_qr_scan"}, "is_reserved": 0, "name": "8a4b385ccd3a916268ee36f1d614d8bd", "lon": -77.03440633333334, "type": "electric_scooter", "bike_id": "8a4b385ccd3a916268ee36f1d614d8bd", "fusion_lon": 0.0, "lat": 38.934347333333335, "fusion_lat": 0.0}, {"is_disabled": 0, "rental_uris": {"android": "https://dc.lft.to/lastmile_qr_scan", "ios": "https://dc.lft.to/lastmile_qr_scan"}, "is_reserved": 0, "name": "789d006e8780575b16a55ac392a5f671", "lon": -77.01776016666666, "type": "electric_scooter", "bike_id": "789d006e8780575b16a55ac392a5f671", "fusion_lon": 0.0, "lat": 38.91910516666667, "fusion_lat": 0.0}, {"is_disabled": 0, "rental_uris": {"android": "https://dc.lft.to/lastmile_qr_scan", "ios": "https://dc.lft.to/lastmile_qr_scan"}, "is_reserved": 0, "name": "076d28987b8377aaa77831cb2d1bb439", "lon": -77.0334485, "type": "electric_scooter", "bike_id": "076d28987b8377aaa77831cb2d1bb439", "fusion_lon": 0.0, "lat": 38.93780316666667, "fusion_lat": 0.0}, {"is_disabled": 0, "rental_uris": {"android": "https://dc.lft.to/lastmile_qr_scan", "ios": "https://dc.lft.to/lastmile_qr_scan"}, "is_reserved": 0, "name": "3ba14b79f7bb3f15a911928548164531", "lon": -76.998795, "type": "electric_scooter", "bike_id": "3ba14b79f7bb3f15a911928548164531", "fusion_lon": 0.0, "lat": 38.88970066666667, "fusion_lat": 0.0}, {"is_disabled": 0, "rental_uris": {"android": "https://dc.lft.to/lastmile_qr_scan", "ios": "https://dc.lft.to/lastmile_qr_scan"}, "is_reserved": 0, "name": "66d42d75b7fb31ff15060c2c2348c130", "lon": -77.04699466666666, "type": "electric_scooter", "bike_id": "66d42d75b7fb31ff15060c2c2348c130", "fusion_lon": 0.0, "lat": 38.915694333333334, "fusion_lat": 0.0}, {"is_disabled": 0, "rental_uris": {"android": "https://dc.lft.to/lastmile_qr_scan", "ios": "https://dc.lft.to/lastmile_qr_scan"}, "is_reserved": 0, "name": "0468b82129d579a7d72d2285c2133a20", "lon": -77.055301, "type": "electric_scooter", "bike_id": "0468b82129d579a7d72d2285c2133a20", "fusion_lon": 0.0, "lat": 38.921606833333335, "fusion_lat": 0.0}, {"is_disabled": 0, "rental_uris": {"android": "https://dc.lft.to/lastmile_qr_scan", "ios": "https://dc.lft.to/lastmile_qr_scan"}, "is_reserved": 0, "name": "660d72d283f2430f7368e49f17e937e6", "lon": -77.0416865, "type": "electric_scooter", "bike_id": "660d72d283f2430f7368e49f17e937e6", "fusion_lon": 0.0, "lat": 38.912708, "fusion_lat": 0.0}, {"is_disabled": 0, "rental_uris": {"android": "https://dc.lft.to/lastmile_qr_scan", "ios": "https://dc.lft.to/lastmile_qr_scan"}, "is_reserved": 0, "name": "223ab1690c1bcafe8cd67fc7b737445e", "lon": -77.04666233333333, "type": "electric_scooter", "bike_id": "223ab1690c1bcafe8cd67fc7b737445e", "fusion_lon": 0.0, "lat": 38.90742016666667, "fusion_lat": 0.0}, {"is_disabled": 0, "rental_uris": {"android": "https://dc.lft.to/lastmile_qr_scan", "ios": "https://dc.lft.to/lastmile_qr_scan"}, "is_reserved": 0, "name": "5d4253175b0f09734be211957950ef1f", "lon": -77.01722783333334, "type": "electric_scooter", "bike_id": "5d4253175b0f09734be211957950ef1f", "fusion_lon": 0.0, "lat": 38.905341166666666, "fusion_lat": 0.0}, {"is_disabled": 0, "rental_uris": {"android": "https://dc.lft.to/lastmile_qr_scan", "ios": "https://dc.lft.to/lastmile_qr_scan"}, "is_reserved": 0, "name": "d5a68960f69330baac6ab572804effd7", "lon": -77.04338683333333, "type": "electric_scooter", "bike_id": "d5a68960f69330baac6ab572804effd7", "fusion_lon": 0.0, "lat": 38.8982995, "fusion_lat": 0.0}, {"is_disabled": 0, "rental_uris": {"android": "https://dc.lft.to/lastmile_qr_scan", "ios": "https://dc.lft.to/lastmile_qr_scan"}, "is_reserved": 0, "name": "1b9fc4321144a9256e176b848acfc761", "lon": -77.05124833333333, "type": "electric_scooter", "bike_id": "1b9fc4321144a9256e176b848acfc761", "fusion_lon": 0.0, "lat": 38.905913166666664, "fusion_lat": 0.0}, {"is_disabled": 0, "rental_uris": {"android": "https://dc.lft.to/lastmile_qr_scan", "ios": "https://dc.lft.to/lastmile_qr_scan"}, "is_reserved": 0, "name": "2d94716febf92d0d505c6ec67f1a0560", "lon": -76.95208716666667, "type": "electric_scooter", "bike_id": "2d94716febf92d0d505c6ec67f1a0560", "fusion_lon": 0.0, "lat": 38.89250366666667, "fusion_lat": 0.0}, {"is_disabled": 0, "rental_uris": {"android": "https://dc.lft.to/lastmile_qr_scan", "ios": "https://dc.lft.to/lastmile_qr_scan"}, "is_reserved": 0, "name": "a8928f6da28fce67358fad0376d97928", "lon": -77.04675516666667, "type": "electric_scooter", "bike_id": "a8928f6da28fce67358fad0376d97928", "fusion_lon": 0.0, "lat": 38.904917, "fusion_lat": 0.0}, {"is_disabled": 0, "rental_uris": {"android": "https://dc.lft.to/lastmile_qr_scan", "ios": "https://dc.lft.to/lastmile_qr_scan"}, "is_reserved": 0, "name": "4a495d9b6a8c5503f601d82c1dfee4bf", "lon": -76.9837635, "type": "electric_scooter", "bike_id": "4a495d9b6a8c5503f601d82c1dfee4bf", "fusion_lon": 0.0, "lat": 38.914980166666666, "fusion_lat": 0.0}, {"is_disabled": 0, "rental_uris": {"android": "https://dc.lft.to/lastmile_qr_scan", "ios": "https://dc.lft.to/lastmile_qr_scan"}, "is_reserved": 0, "name": "e6043c5bd1d228dad3b486f0dc48237e", "lon": -77.044533, "type": "electric_scooter", "bike_id": "e6043c5bd1d228dad3b486f0dc48237e", "fusion_lon": 0.0, "lat": 38.918619, "fusion_lat": 0.0}, {"is_disabled": 0, "rental_uris": {"android": "https://dc.lft.to/lastmile_qr_scan", "ios": "https://dc.lft.to/lastmile_qr_scan"}, "is_reserved": 0, "name": "55c77ca92eebbbe5870cbca81caf0041", "lon": -76.99901716666666, "type": "electric_scooter", "bike_id": "55c77ca92eebbbe5870cbca81caf0041", "fusion_lon": 0.0, "lat": 38.9003075, "fusion_lat": 0.0}, {"is_disabled": 0, "rental_uris": {"android": "https://dc.lft.to/lastmile_qr_scan", "ios": "https://dc.lft.to/lastmile_qr_scan"}, "is_reserved": 0, "name": "8907f9adad0f472b5c520c5e016174a3", "lon": -77.040131, "type": "electric_scooter", "bike_id": "8907f9adad0f472b5c520c5e016174a3", "fusion_lon": 0.0, "lat": 38.920877833333336, "fusion_lat": 0.0}, {"is_disabled": 0, "rental_uris": {"android": "https://dc.lft.to/lastmile_qr_scan", "ios": "https://dc.lft.to/lastmile_qr_scan"}, "is_reserved": 0, "name": "7c0d7b77cbce4935ae918d54491a0218", "lon": -77.00330183333334, "type": "electric_scooter", "bike_id": "7c0d7b77cbce4935ae918d54491a0218", "fusion_lon": 0.0, "lat": 38.90466966666666, "fusion_lat": 0.0}, {"is_disabled": 0, "rental_uris": {"android": "https://dc.lft.to/lastmile_qr_scan", "ios": "https://dc.lft.to/lastmile_qr_scan"}, "is_reserved": 0, "name": "436b5e9edced0958b7ed1c5dbe5be796", "lon": -77.03663283333333, "type": "electric_scooter", "bike_id": "436b5e9edced0958b7ed1c5dbe5be796", "fusion_lon": 0.0, "lat": 38.922593, "fusion_lat": 0.0}, {"is_disabled": 0, "rental_uris": {"android": "https://dc.lft.to/lastmile_qr_scan", "ios": "https://dc.lft.to/lastmile_qr_scan"}, "is_reserved": 0, "name": "7e1dc6df53a75a7300a3333d181ccdda", "lon": -77.07897383333334, "type": "electric_bike", "bike_id": "7e1dc6df53a75a7300a3333d181ccdda", "fusion_lon": 0.0, "lat": 38.839340166666666, "fusion_lat": 0.0}, {"is_disabled": 0, "rental_uris": {"android": "https://dc.lft.to/lastmile_qr_scan", "ios": "https://dc.lft.to/lastmile_qr_scan"}, "is_reserved": 0, "name": "c0a8c943c958ed9fff1314be754c4d01", "lon": -77.07068983333333, "type": "electric_scooter", "bike_id": "c0a8c943c958ed9fff1314be754c4d01", "fusion_lon": 0.0, "lat": 38.919449, "fusion_lat": 0.0}, {"is_disabled": 0, "rental_uris": {"android": "https://dc.lft.to/lastmile_qr_scan", "ios": "https://dc.lft.to/lastmile_qr_scan"}, "is_reserved": 0, "name": "b1f6c96efde8ceaf499059c06231fdfb", "lon": -77.03462483333334, "type": "electric_scooter", "bike_id": "b1f6c96efde8ceaf499059c06231fdfb", "fusion_lon": 0.0, "lat": 38.92151916666667, "fusion_lat": 0.0}, {"is_disabled": 0, "rental_uris": {"android": "https://dc.lft.to/lastmile_qr_scan", "ios": "https://dc.lft.to/lastmile_qr_scan"}, "is_reserved": 0, "name": "e3dea9f30676ae9d27a54fd7927cb859", "lon": -77.04368916666667, "type": "electric_scooter", "bike_id": "e3dea9f30676ae9d27a54fd7927cb859", "fusion_lon": 0.0, "lat": 38.92575433333333, "fusion_lat": 0.0}, {"is_disabled": 0, "rental_uris": {"android": "https://dc.lft.to/lastmile_qr_scan", "ios": "https://dc.lft.to/lastmile_qr_scan"}, "is_reserved": 0, "name": "bace4bcfd4f29857bb21c35004b7cc95", "lon": -77.02375916666666, "type": "electric_scooter", "bike_id": "bace4bcfd4f29857bb21c35004b7cc95", "fusion_lon": 0.0, "lat": 38.902043666666664, "fusion_lat": 0.0}, {"is_disabled": 0, "rental_uris": {"android": "https://dc.lft.to/lastmile_qr_scan", "ios": "https://dc.lft.to/lastmile_qr_scan"}, "is_reserved": 0, "name": "8357387521f447066e5f2a90872f689d", "lon": -77.01769816666666, "type": "electric_scooter", "bike_id": "8357387521f447066e5f2a90872f689d", "fusion_lon": 0.0, "lat": 38.8772965, "fusion_lat": 0.0}, {"is_disabled": 0, "rental_uris": {"android": "https://dc.lft.to/lastmile_qr_scan", "ios": "https://dc.lft.to/lastmile_qr_scan"}, "is_reserved": 0, "name": "b914686d3e9091e3f26f5de6d37e6f4d", "lon": -76.989515, "type": "electric_scooter", "bike_id": "b914686d3e9091e3f26f5de6d37e6f4d", "fusion_lon": 0.0, "lat": 38.844018, "fusion_lat": 0.0}, {"is_disabled": 0, "rental_uris": {"android": "https://dc.lft.to/lastmile_qr_scan", "ios": "https://dc.lft.to/lastmile_qr_scan"}, "is_reserved": 0, "name": "36490032555a5d18cab11a7dbd9461f7", "lon": -77.032656, "type": "electric_scooter", "bike_id": "36490032555a5d18cab11a7dbd9461f7", "fusion_lon": 0.0, "lat": 38.9352585, "fusion_lat": 0.0}, {"is_disabled": 0, "rental_uris": {"android": "https://dc.lft.to/lastmile_qr_scan", "ios": "https://dc.lft.to/lastmile_qr_scan"}, "is_reserved": 0, "name": "902fc0f10e65c2dab3a02b432a9bf1b8", "lon": -77.02182366666666, "type": "electric_scooter", "bike_id": "902fc0f10e65c2dab3a02b432a9bf1b8", "fusion_lon": 0.0, "lat": 38.921051, "fusion_lat": 0.0}, {"is_disabled": 0, "rental_uris": {"android": "https://dc.lft.to/lastmile_qr_scan", "ios": "https://dc.lft.to/lastmile_qr_scan"}, "is_reserved": 0, "name": "2e64847084356eb8eab4cb85b9ad6f9c", "lon": -77.0416905, "type": "electric_scooter", "bike_id": "2e64847084356eb8eab4cb85b9ad6f9c", "fusion_lon": 0.0, "lat": 38.91549883333333, "fusion_lat": 0.0}, {"is_disabled": 0, "rental_uris": {"android": "https://dc.lft.to/lastmile_qr_scan", "ios": "https://dc.lft.to/lastmile_qr_scan"}, "is_reserved": 0, "name": "2a3618ff68875db7d7c3d8b32f33e9b1", "lon": -77.090973, "type": "electric_scooter", "bike_id": "2a3618ff68875db7d7c3d8b32f33e9b1", "fusion_lon": 0.0, "lat": 38.956367, "fusion_lat": 0.0}, {"is_disabled": 0, "rental_uris": {"android": "https://dc.lft.to/lastmile_qr_scan", "ios": "https://dc.lft.to/lastmile_qr_scan"}, "is_reserved": 0, "name": "bbb550378cefc8dcbe7197d5b93a9ef6", "lon": -77.041738, "type": "electric_scooter", "bike_id": "bbb550378cefc8dcbe7197d5b93a9ef6", "fusion_lon": 0.0, "lat": 38.911925833333335, "fusion_lat": 0.0}, {"is_disabled": 0, "rental_uris": {"android": "https://dc.lft.to/lastmile_qr_scan", "ios": "https://dc.lft.to/lastmile_qr_scan"}, "is_reserved": 0, "name": "14f571ee5eccf42d6d019eb4d1d02f51", "lon": -77.03211983333334, "type": "electric_scooter", "bike_id": "14f571ee5eccf42d6d019eb4d1d02f51", "fusion_lon": 0.0, "lat": 38.925823333333334, "fusion_lat": 0.0}, {"is_disabled": 0, "rental_uris": {"android": "https://dc.lft.to/lastmile_qr_scan", "ios": "https://dc.lft.to/lastmile_qr_scan"}, "is_reserved": 0, "name": "e849024fdf5e5ca0000b734a2363ba42", "lon": -77.00930133333334, "type": "electric_scooter", "bike_id": "e849024fdf5e5ca0000b734a2363ba42", "fusion_lon": 0.0, "lat": 38.87117883333333, "fusion_lat": 0.0}, {"is_disabled": 0, "rental_uris": {"android": "https://dc.lft.to/lastmile_qr_scan", "ios": "https://dc.lft.to/lastmile_qr_scan"}, "is_reserved": 0, "name": "1ee718662427e0c21d5ca7242f3fc79f", "lon": -76.97238066666667, "type": "electric_scooter", "bike_id": "1ee718662427e0c21d5ca7242f3fc79f", "fusion_lon": 0.0, "lat": 38.85460466666667, "fusion_lat": 0.0}, {"is_disabled": 0, "rental_uris": {"android": "https://dc.lft.to/lastmile_qr_scan", "ios": "https://dc.lft.to/lastmile_qr_scan"}, "is_reserved": 0, "name": "15d8c3b8ae4670ab991e25b29f70161c", "lon": -76.9805505, "type": "electric_scooter", "bike_id": "15d8c3b8ae4670ab991e25b29f70161c", "fusion_lon": 0.0, "lat": 38.90164433333333, "fusion_lat": 0.0}, {"is_disabled": 0, "rental_uris": {"android": "https://dc.lft.to/lastmile_qr_scan", "ios": "https://dc.lft.to/lastmile_qr_scan"}, "is_reserved": 0, "name": "25c372a4116deb9e09e4165b62f9ce86", "lon": -77.00926733333333, "type": "electric_scooter", "bike_id": "25c372a4116deb9e09e4165b62f9ce86", "fusion_lon": 0.0, "lat": 38.89837083333333, "fusion_lat": 0.0}, {"is_disabled": 0, "rental_uris": {"android": "https://dc.lft.to/lastmile_qr_scan", "ios": "https://dc.lft.to/lastmile_qr_scan"}, "is_reserved": 0, "name": "72538fd4382d23a19ad4cd28ff64d7e8", "lon": -77.01132516666667, "type": "electric_scooter", "bike_id": "72538fd4382d23a19ad4cd28ff64d7e8", "fusion_lon": 0.0, "lat": 38.909599666666665, "fusion_lat": 0.0}, {"is_disabled": 0, "rental_uris": {"android": "https://dc.lft.to/lastmile_qr_scan", "ios": "https://dc.lft.to/lastmile_qr_scan"}, "is_reserved": 0, "name": "901d179f5ba72ed74d2015a5b1e22ee1", "lon": -77.04152016666667, "type": "electric_scooter", "bike_id": "901d179f5ba72ed74d2015a5b1e22ee1", "fusion_lon": 0.0, "lat": 38.90656083333333, "fusion_lat": 0.0}, {"is_disabled": 0, "rental_uris": {"android": "https://dc.lft.to/lastmile_qr_scan", "ios": "https://dc.lft.to/lastmile_qr_scan"}, "is_reserved": 0, "name": "218d316557893d982419fa0a20bdd1ef", "lon": -77.0217675, "type": "electric_scooter", "bike_id": "218d316557893d982419fa0a20bdd1ef", "fusion_lon": 0.0, "lat": 38.90169266666667, "fusion_lat": 0.0}, {"is_disabled": 0, "rental_uris": {"android": "https://dc.lft.to/lastmile_qr_scan", "ios": "https://dc.lft.to/lastmile_qr_scan"}, "is_reserved": 0, "name": "6cc205c94e6cd21724957411262e4c70", "lon": -77.07083466666667, "type": "electric_scooter", "bike_id": "6cc205c94e6cd21724957411262e4c70", "fusion_lon": 0.0, "lat": 38.9390805, "fusion_lat": 0.0}, {"is_disabled": 0, "rental_uris": {"android": "https://dc.lft.to/lastmile_qr_scan", "ios": "https://dc.lft.to/lastmile_qr_scan"}, "is_reserved": 0, "name": "d55cb7f95f98f9d20e5f29f44eb3b0d7", "lon": -76.99609316666667, "type": "electric_scooter", "bike_id": "d55cb7f95f98f9d20e5f29f44eb3b0d7", "fusion_lon": 0.0, "lat": 38.86465916666667, "fusion_lat": 0.0}, {"is_disabled": 0, "rental_uris": {"android": "https://dc.lft.to/lastmile_qr_scan", "ios": "https://dc.lft.to/lastmile_qr_scan"}, "is_reserved": 0, "name": "45ddffb12af0723739e12f22edb39480", "lon": -77.04284, "type": "electric_scooter", "bike_id": "45ddffb12af0723739e12f22edb39480", "fusion_lon": 0.0, "lat": 38.910383, "fusion_lat": 0.0}, {"is_disabled": 0, "rental_uris": {"android": "https://dc.lft.to/lastmile_qr_scan", "ios": "https://dc.lft.to/lastmile_qr_scan"}, "is_reserved": 0, "name": "c1789dd38435c47b715a29af4027ecc1", "lon": -77.0207995, "type": "electric_scooter", "bike_id": "c1789dd38435c47b715a29af4027ecc1", "fusion_lon": 0.0, "lat": 38.884880333333335, "fusion_lat": 0.0}, {"is_disabled": 0, "rental_uris": {"android": "https://dc.lft.to/lastmile_qr_scan", "ios": "https://dc.lft.to/lastmile_qr_scan"}, "is_reserved": 0, "name": "9d6966344cd27ae073f2bff9ff3d1c98", "lon": -77.00528416666667, "type": "electric_scooter", "bike_id": "9d6966344cd27ae073f2bff9ff3d1c98", "fusion_lon": 0.0, "lat": 38.87474, "fusion_lat": 0.0}, {"is_disabled": 0, "rental_uris": {"android": "https://dc.lft.to/lastmile_qr_scan", "ios": "https://dc.lft.to/lastmile_qr_scan"}, "is_reserved": 0, "name": "c5a9e85526182bf57d78fd6144a81eeb", "lon": -76.98112516666667, "type": "electric_scooter", "bike_id": "c5a9e85526182bf57d78fd6144a81eeb", "fusion_lon": 0.0, "lat": 38.89608333333334, "fusion_lat": 0.0}, {"is_disabled": 0, "rental_uris": {"android": "https://dc.lft.to/lastmile_qr_scan", "ios": "https://dc.lft.to/lastmile_qr_scan"}, "is_reserved": 0, "name": "0f0c4c829eaf111c2f7669c7b5dc85e8", "lon": -77.00338383333333, "type": "electric_scooter", "bike_id": "0f0c4c829eaf111c2f7669c7b5dc85e8", "fusion_lon": 0.0, "lat": 38.88988583333333, "fusion_lat": 0.0}, {"is_disabled": 0, "rental_uris": {"android": "https://dc.lft.to/lastmile_qr_scan", "ios": "https://dc.lft.to/lastmile_qr_scan"}, "is_reserved": 0, "name": "e01d3b007ed03937572656b88bfbc0d0", "lon": -77.031968, "type": "electric_scooter", "bike_id": "e01d3b007ed03937572656b88bfbc0d0", "fusion_lon": 0.0, "lat": 38.91008266666667, "fusion_lat": 0.0}, {"is_disabled": 0, "rental_uris": {"android": "https://dc.lft.to/lastmile_qr_scan", "ios": "https://dc.lft.to/lastmile_qr_scan"}, "is_reserved": 0, "name": "aa9ccd8c4f262561aec10624ab5f7283", "lon": -77.01389333333333, "type": "electric_scooter", "bike_id": "aa9ccd8c4f262561aec10624ab5f7283", "fusion_lon": 0.0, "lat": 38.880338333333334, "fusion_lat": 0.0}, {"is_disabled": 0, "rental_uris": {"android": "https://dc.lft.to/lastmile_qr_scan", "ios": "https://dc.lft.to/lastmile_qr_scan"}, "is_reserved": 0, "name": "78ce127500ca6f0c03e71d7467fa9074", "lon": -77.0603735, "type": "electric_scooter", "bike_id": "78ce127500ca6f0c03e71d7467fa9074", "fusion_lon": 0.0, "lat": 38.938821833333336, "fusion_lat": 0.0}, {"is_disabled": 0, "rental_uris": {"android": "https://dc.lft.to/lastmile_qr_scan", "ios": "https://dc.lft.to/lastmile_qr_scan"}, "is_reserved": 0, "name": "ea85375884f2b93e7c7f0bd6b6fd50e2", "lon": -77.02808366666666, "type": "electric_scooter", "bike_id": "ea85375884f2b93e7c7f0bd6b6fd50e2", "fusion_lon": 0.0, "lat": 38.91645116666667, "fusion_lat": 0.0}, {"is_disabled": 0, "rental_uris": {"android": "https://dc.lft.to/lastmile_qr_scan", "ios": "https://dc.lft.to/lastmile_qr_scan"}, "is_reserved": 0, "name": "2a0b23939ce41d98979f8fd3b7fd97d3", "lon": -77.06374566666666, "type": "electric_bike", "bike_id": "2a0b23939ce41d98979f8fd3b7fd97d3", "fusion_lon": 0.0, "lat": 38.8627395, "fusion_lat": 0.0}, {"is_disabled": 0, "rental_uris": {"android": "https://dc.lft.to/lastmile_qr_scan", "ios": "https://dc.lft.to/lastmile_qr_scan"}, "is_reserved": 0, "name": "20eba14ffd03e67fc07147fbf0fc77bf", "lon": -77.03780433333333, "type": "electric_scooter", "bike_id": "20eba14ffd03e67fc07147fbf0fc77bf", "fusion_lon": 0.0, "lat": 38.9262225, "fusion_lat": 0.0}, {"is_disabled": 0, "rental_uris": {"android": "https://dc.lft.to/lastmile_qr_scan", "ios": "https://dc.lft.to/lastmile_qr_scan"}, "is_reserved": 0, "name": "1bf78117bcd78988dd7f2a9786661962", "lon": -77.026672, "type": "electric_scooter", "bike_id": "1bf78117bcd78988dd7f2a9786661962", "fusion_lon": 0.0, "lat": 38.93282083333333, "fusion_lat": 0.0}, {"is_disabled": 0, "rental_uris": {"android": "https://dc.lft.to/lastmile_qr_scan", "ios": "https://dc.lft.to/lastmile_qr_scan"}, "is_reserved": 0, "name": "5cd120d7211bd6a3d6adf2f74f8d62e9", "lon": -77.01027483333333, "type": "electric_scooter", "bike_id": "5cd120d7211bd6a3d6adf2f74f8d62e9", "fusion_lon": 0.0, "lat": 38.911172666666666, "fusion_lat": 0.0}, {"is_disabled": 0, "rental_uris": {"android": "https://dc.lft.to/lastmile_qr_scan", "ios": "https://dc.lft.to/lastmile_qr_scan"}, "is_reserved": 0, "name": "33b2a36631c6b492098a985dfcde9f7a", "lon": -77.03251766666666, "type": "electric_scooter", "bike_id": "33b2a36631c6b492098a985dfcde9f7a", "fusion_lon": 0.0, "lat": 38.91327366666667, "fusion_lat": 0.0}, {"is_disabled": 0, "rental_uris": {"android": "https://dc.lft.to/lastmile_qr_scan", "ios": "https://dc.lft.to/lastmile_qr_scan"}, "is_reserved": 0, "name": "ac6c97f2a8ee1fc31754b50d88ae413e", "lon": -77.03533683333333, "type": "electric_scooter", "bike_id": "ac6c97f2a8ee1fc31754b50d88ae413e", "fusion_lon": 0.0, "lat": 38.923441333333336, "fusion_lat": 0.0}, {"is_disabled": 0, "rental_uris": {"android": "https://dc.lft.to/lastmile_qr_scan", "ios": "https://dc.lft.to/lastmile_qr_scan"}, "is_reserved": 0, "name": "781c9ee7384370ae59fba98a04678886", "lon": -77.02198883333334, "type": "electric_scooter", "bike_id": "781c9ee7384370ae59fba98a04678886", "fusion_lon": 0.0, "lat": 38.909827, "fusion_lat": 0.0}, {"is_disabled": 0, "rental_uris": {"android": "https://dc.lft.to/lastmile_qr_scan", "ios": "https://dc.lft.to/lastmile_qr_scan"}, "is_reserved": 0, "name": "613cadcb80033f4ce89c386d84fb7d2e", "lon": -77.04364333333334, "type": "electric_scooter", "bike_id": "613cadcb80033f4ce89c386d84fb7d2e", "fusion_lon": 0.0, "lat": 38.90246883333333, "fusion_lat": 0.0}, {"is_disabled": 0, "rental_uris": {"android": "https://dc.lft.to/lastmile_qr_scan", "ios": "https://dc.lft.to/lastmile_qr_scan"}, "is_reserved": 0, "name": "0bb5bd0c6d50e8cc51812e0f97134f51", "lon": -77.0375135, "type": "electric_scooter", "bike_id": "0bb5bd0c6d50e8cc51812e0f97134f51", "fusion_lon": 0.0, "lat": 38.929097666666664, "fusion_lat": 0.0}, {"is_disabled": 0, "rental_uris": {"android": "https://dc.lft.to/lastmile_qr_scan", "ios": "https://dc.lft.to/lastmile_qr_scan"}, "is_reserved": 0, "name": "736eec9d918194b19a4dd66b27b1fd2b", "lon": -77.02394, "type": "electric_scooter", "bike_id": "736eec9d918194b19a4dd66b27b1fd2b", "fusion_lon": 0.0, "lat": 38.9070775, "fusion_lat": 0.0}, {"is_disabled": 0, "rental_uris": {"android": "https://dc.lft.to/lastmile_qr_scan", "ios": "https://dc.lft.to/lastmile_qr_scan"}, "is_reserved": 0, "name": "042583074fba80ee02b4385bf49a1f98", "lon": -77.031527, "type": "electric_scooter", "bike_id": "042583074fba80ee02b4385bf49a1f98", "fusion_lon": 0.0, "lat": 38.92719683333333, "fusion_lat": 0.0}, {"is_disabled": 0, "rental_uris": {"android": "https://dc.lft.to/lastmile_qr_scan", "ios": "https://dc.lft.to/lastmile_qr_scan"}, "is_reserved": 0, "name": "cf7ed20c2b3a12a63c41943870d9f099", "lon": -76.98777566666666, "type": "electric_scooter", "bike_id": "cf7ed20c2b3a12a63c41943870d9f099", "fusion_lon": 0.0, "lat": 38.89826383333333, "fusion_lat": 0.0}, {"is_disabled": 0, "rental_uris": {"android": "https://dc.lft.to/lastmile_qr_scan", "ios": "https://dc.lft.to/lastmile_qr_scan"}, "is_reserved": 0, "name": "83201cbb39440a26b692b33b36f82f3c", "lon": -77.04182416666667, "type": "electric_scooter", "bike_id": "83201cbb39440a26b692b33b36f82f3c", "fusion_lon": 0.0, "lat": 38.89232616666666, "fusion_lat": 0.0}, {"is_disabled": 0, "rental_uris": {"android": "https://dc.lft.to/lastmile_qr_scan", "ios": "https://dc.lft.to/lastmile_qr_scan"}, "is_reserved": 0, "name": "ec0685b21babd0f6e9f79490375517d6", "lon": -76.98180383333333, "type": "electric_bike", "bike_id": "ec0685b21babd0f6e9f79490375517d6", "fusion_lon": 0.0, "lat": 38.9848465, "fusion_lat": 0.0}, {"is_disabled": 0, "rental_uris": {"android": "https://dc.lft.to/lastmile_qr_scan", "ios": "https://dc.lft.to/lastmile_qr_scan"}, "is_reserved": 0, "name": "9f866a3fdc22f71b589c714234b02afc", "lon": -77.03413933333333, "type": "electric_scooter", "bike_id": "9f866a3fdc22f71b589c714234b02afc", "fusion_lon": 0.0, "lat": 38.91922133333333, "fusion_lat": 0.0}, {"is_disabled": 0, "rental_uris": {"android": "https://dc.lft.to/lastmile_qr_scan", "ios": "https://dc.lft.to/lastmile_qr_scan"}, "is_reserved": 0, "name": "69b88e3e41f3fca4e3c00d1d52bed036", "lon": -77.0394155, "type": "electric_scooter", "bike_id": "69b88e3e41f3fca4e3c00d1d52bed036", "fusion_lon": 0.0, "lat": 38.898979, "fusion_lat": 0.0}, {"is_disabled": 0, "rental_uris": {"android": "https://dc.lft.to/lastmile_qr_scan", "ios": "https://dc.lft.to/lastmile_qr_scan"}, "is_reserved": 0, "name": "6d218c27d6d35e61fa0be824991480ae", "lon": -77.030192, "type": "electric_scooter", "bike_id": "6d218c27d6d35e61fa0be824991480ae", "fusion_lon": 0.0, "lat": 38.922414, "fusion_lat": 0.0}, {"is_disabled": 0, "rental_uris": {"android": "https://dc.lft.to/lastmile_qr_scan", "ios": "https://dc.lft.to/lastmile_qr_scan"}, "is_reserved": 0, "name": "330fba96965fda989bf76e9b18713100", "lon": -77.01228016666667, "type": "electric_scooter", "bike_id": "330fba96965fda989bf76e9b18713100", "fusion_lon": 0.0, "lat": 38.88584733333333, "fusion_lat": 0.0}, {"is_disabled": 0, "rental_uris": {"android": "https://dc.lft.to/lastmile_qr_scan", "ios": "https://dc.lft.to/lastmile_qr_scan"}, "is_reserved": 0, "name": "5731120b84c456e93828712c1cba786c", "lon": -77.0021045, "type": "electric_scooter", "bike_id": "5731120b84c456e93828712c1cba786c", "fusion_lon": 0.0, "lat": 38.915671333333336, "fusion_lat": 0.0}, {"is_disabled": 0, "rental_uris": {"android": "https://dc.lft.to/lastmile_qr_scan", "ios": "https://dc.lft.to/lastmile_qr_scan"}, "is_reserved": 0, "name": "bf79295c24f28a6db8a99243af09429b", "lon": -77.02365916666666, "type": "electric_scooter", "bike_id": "bf79295c24f28a6db8a99243af09429b", "fusion_lon": 0.0, "lat": 38.93129616666667, "fusion_lat": 0.0}, {"is_disabled": 0, "rental_uris": {"android": "https://dc.lft.to/lastmile_qr_scan", "ios": "https://dc.lft.to/lastmile_qr_scan"}, "is_reserved": 0, "name": "830a082a7700bd42eb1d31dfb516e685", "lon": -76.92161116666666, "type": "electric_bike", "bike_id": "830a082a7700bd42eb1d31dfb516e685", "fusion_lon": 0.0, "lat": 39.0103995, "fusion_lat": 0.0}, {"is_disabled": 0, "rental_uris": {"android": "https://dc.lft.to/lastmile_qr_scan", "ios": "https://dc.lft.to/lastmile_qr_scan"}, "is_reserved": 0, "name": "8984bcfe831547b75ef0084fbd36905a", "lon": -77.04873833333333, "type": "electric_scooter", "bike_id": "8984bcfe831547b75ef0084fbd36905a", "fusion_lon": 0.0, "lat": 38.90950983333333, "fusion_lat": 0.0}, {"is_disabled": 0, "rental_uris": {"android": "https://dc.lft.to/lastmile_qr_scan", "ios": "https://dc.lft.to/lastmile_qr_scan"}, "is_reserved": 0, "name": "dc607253a42ccb4588dc577ecba0b66e", "lon": -77.0239645, "type": "electric_scooter", "bike_id": "dc607253a42ccb4588dc577ecba0b66e", "fusion_lon": 0.0, "lat": 38.93101033333333, "fusion_lat": 0.0}, {"is_disabled": 0, "rental_uris": {"android": "https://dc.lft.to/lastmile_qr_scan", "ios": "https://dc.lft.to/lastmile_qr_scan"}, "is_reserved": 0, "name": "557055ab9b6afc7807bf084178a970a9", "lon": -77.0398745, "type": "electric_scooter", "bike_id": "557055ab9b6afc7807bf084178a970a9", "fusion_lon": 0.0, "lat": 38.91811533333333, "fusion_lat": 0.0}, {"is_disabled": 0, "rental_uris": {"android": "https://dc.lft.to/lastmile_qr_scan", "ios": "https://dc.lft.to/lastmile_qr_scan"}, "is_reserved": 0, "name": "40973e1833e25b658f899f3ad25005ba", "lon": -77.02240316666666, "type": "electric_scooter", "bike_id": "40973e1833e25b658f899f3ad25005ba", "fusion_lon": 0.0, "lat": 38.911181666666664, "fusion_lat": 0.0}, {"is_disabled": 0, "rental_uris": {"android": "https://dc.lft.to/lastmile_qr_scan", "ios": "https://dc.lft.to/lastmile_qr_scan"}, "is_reserved": 0, "name": "b28095461e821e6dfb0c188f1ecb13e0", "lon": -77.037881, "type": "electric_scooter", "bike_id": "b28095461e821e6dfb0c188f1ecb13e0", "fusion_lon": 0.0, "lat": 38.930288166666664, "fusion_lat": 0.0}, {"is_disabled": 0, "rental_uris": {"android": "https://dc.lft.to/lastmile_qr_scan", "ios": "https://dc.lft.to/lastmile_qr_scan"}, "is_reserved": 0, "name": "66be9d8fc138d3fcea1663bc895a6ada", "lon": -77.03267866666667, "type": "electric_scooter", "bike_id": "66be9d8fc138d3fcea1663bc895a6ada", "fusion_lon": 0.0, "lat": 38.933299166666664, "fusion_lat": 0.0}, {"is_disabled": 0, "rental_uris": {"android": "https://dc.lft.to/lastmile_qr_scan", "ios": "https://dc.lft.to/lastmile_qr_scan"}, "is_reserved": 0, "name": "1b05ca49e1c9e33d84eb80b57cdcc682", "lon": -76.9471685, "type": "electric_scooter", "bike_id": "1b05ca49e1c9e33d84eb80b57cdcc682", "fusion_lon": 0.0, "lat": 38.89700633333333, "fusion_lat": 0.0}, {"is_disabled": 0, "rental_uris": {"android": "https://dc.lft.to/lastmile_qr_scan", "ios": "https://dc.lft.to/lastmile_qr_scan"}, "is_reserved": 0, "name": "b7dc687d74a965fe8b4572e856e17223", "lon": -76.992013, "type": "electric_scooter", "bike_id": "b7dc687d74a965fe8b4572e856e17223", "fusion_lon": 0.0, "lat": 38.889633333333336, "fusion_lat": 0.0}, {"is_disabled": 0, "rental_uris": {"android": "https://dc.lft.to/lastmile_qr_scan", "ios": "https://dc.lft.to/lastmile_qr_scan"}, "is_reserved": 0, "name": "6c8a5968a6ea5c6e132ac3e714f82389", "lon": -77.02783183333334, "type": "electric_scooter", "bike_id": "6c8a5968a6ea5c6e132ac3e714f82389", "fusion_lon": 0.0, "lat": 38.92775, "fusion_lat": 0.0}, {"is_disabled": 0, "rental_uris": {"android": "https://dc.lft.to/lastmile_qr_scan", "ios": "https://dc.lft.to/lastmile_qr_scan"}, "is_reserved": 0, "name": "3ed0186d749087a284ea411949b14a8b", "lon": -77.0601105, "type": "electric_scooter", "bike_id": "3ed0186d749087a284ea411949b14a8b", "fusion_lon": 0.0, "lat": 38.905325500000004, "fusion_lat": 0.0}, {"is_disabled": 0, "rental_uris": {"android": "https://dc.lft.to/lastmile_qr_scan", "ios": "https://dc.lft.to/lastmile_qr_scan"}, "is_reserved": 0, "name": "6c42da2c90b077d2a4a8e15e9d830053", "lon": -77.03392116666667, "type": "electric_scooter", "bike_id": "6c42da2c90b077d2a4a8e15e9d830053", "fusion_lon": 0.0, "lat": 38.9191525, "fusion_lat": 0.0}, {"is_disabled": 0, "rental_uris": {"android": "https://dc.lft.to/lastmile_qr_scan", "ios": "https://dc.lft.to/lastmile_qr_scan"}, "is_reserved": 0, "name": "ebfb7227d97c008bdc813094c6b00b1d", "lon": -77.005672, "type": "electric_scooter", "bike_id": "ebfb7227d97c008bdc813094c6b00b1d", "fusion_lon": 0.0, "lat": 38.885037, "fusion_lat": 0.0}, {"is_disabled": 0, "rental_uris": {"android": "https://dc.lft.to/lastmile_qr_scan", "ios": "https://dc.lft.to/lastmile_qr_scan"}, "is_reserved": 0, "name": "dcc64a7a1dd9a2bef4d567a71c441fbc", "lon": -77.01646283333334, "type": "electric_scooter", "bike_id": "dcc64a7a1dd9a2bef4d567a71c441fbc", "fusion_lon": 0.0, "lat": 38.87633366666667, "fusion_lat": 0.0}, {"is_disabled": 0, "rental_uris": {"android": "https://dc.lft.to/lastmile_qr_scan", "ios": "https://dc.lft.to/lastmile_qr_scan"}, "is_reserved": 0, "name": "bf79ceda330a41869029f6cc8a650f81", "lon": -77.03462316666666, "type": "electric_scooter", "bike_id": "bf79ceda330a41869029f6cc8a650f81", "fusion_lon": 0.0, "lat": 38.92159633333333, "fusion_lat": 0.0}, {"is_disabled": 0, "rental_uris": {"android": "https://dc.lft.to/lastmile_qr_scan", "ios": "https://dc.lft.to/lastmile_qr_scan"}, "is_reserved": 0, "name": "170ce72b0334ad18ad551cf5ad674215", "lon": -77.0437295, "type": "electric_scooter", "bike_id": "170ce72b0334ad18ad551cf5ad674215", "fusion_lon": 0.0, "lat": 38.910558333333334, "fusion_lat": 0.0}, {"is_disabled": 0, "rental_uris": {"android": "https://dc.lft.to/lastmile_qr_scan", "ios": "https://dc.lft.to/lastmile_qr_scan"}, "is_reserved": 0, "name": "30cb537ab3ae32d8e42e50c78e9816b5", "lon": -77.0294365, "type": "electric_scooter", "bike_id": "30cb537ab3ae32d8e42e50c78e9816b5", "fusion_lon": 0.0, "lat": 38.90425616666667, "fusion_lat": 0.0}, {"is_disabled": 0, "rental_uris": {"android": "https://dc.lft.to/lastmile_qr_scan", "ios": "https://dc.lft.to/lastmile_qr_scan"}, "is_reserved": 0, "name": "9d7a7502daa085f946ee01bc06eb1328", "lon": -77.03827816666667, "type": "electric_scooter", "bike_id": "9d7a7502daa085f946ee01bc06eb1328", "fusion_lon": 0.0, "lat": 38.9149735, "fusion_lat": 0.0}, {"is_disabled": 0, "rental_uris": {"android": "https://dc.lft.to/lastmile_qr_scan", "ios": "https://dc.lft.to/lastmile_qr_scan"}, "is_reserved": 0, "name": "894b34b002b25f52d1054e6b193ea949", "lon": -77.03516016666667, "type": "electric_scooter", "bike_id": "894b34b002b25f52d1054e6b193ea949", "fusion_lon": 0.0, "lat": 38.92139133333333, "fusion_lat": 0.0}, {"is_disabled": 0, "rental_uris": {"android": "https://dc.lft.to/lastmile_qr_scan", "ios": "https://dc.lft.to/lastmile_qr_scan"}, "is_reserved": 0, "name": "6c418d90023eff66e13b671f1942b19c", "lon": -77.02389066666667, "type": "electric_scooter", "bike_id": "6c418d90023eff66e13b671f1942b19c", "fusion_lon": 0.0, "lat": 38.9086945, "fusion_lat": 0.0}, {"is_disabled": 0, "rental_uris": {"android": "https://dc.lft.to/lastmile_qr_scan", "ios": "https://dc.lft.to/lastmile_qr_scan"}, "is_reserved": 0, "name": "c636be40b1547806864fa01b1352d8d9", "lon": -77.028053, "type": "electric_scooter", "bike_id": "c636be40b1547806864fa01b1352d8d9", "fusion_lon": 0.0, "lat": 38.962139666666666, "fusion_lat": 0.0}, {"is_disabled": 0, "rental_uris": {"android": "https://dc.lft.to/lastmile_qr_scan", "ios": "https://dc.lft.to/lastmile_qr_scan"}, "is_reserved": 0, "name": "0a75596a7692474128fa05cb9fff87ec", "lon": -77.0177385, "type": "electric_scooter", "bike_id": "0a75596a7692474128fa05cb9fff87ec", "fusion_lon": 0.0, "lat": 38.877249166666665, "fusion_lat": 0.0}, {"is_disabled": 0, "rental_uris": {"android": "https://dc.lft.to/lastmile_qr_scan", "ios": "https://dc.lft.to/lastmile_qr_scan"}, "is_reserved": 0, "name": "346767a321728a0f0846cb1e21a99179", "lon": -77.01396283333334, "type": "electric_scooter", "bike_id": "346767a321728a0f0846cb1e21a99179", "fusion_lon": 0.0, "lat": 38.928529166666664, "fusion_lat": 0.0}, {"is_disabled": 0, "rental_uris": {"android": "https://dc.lft.to/lastmile_qr_scan", "ios": "https://dc.lft.to/lastmile_qr_scan"}, "is_reserved": 0, "name": "39b788bcdf1ebd70fdde72b43c665f66", "lon": -77.042076, "type": "electric_scooter", "bike_id": "39b788bcdf1ebd70fdde72b43c665f66", "fusion_lon": 0.0, "lat": 38.911251666666665, "fusion_lat": 0.0}, {"is_disabled": 0, "rental_uris": {"android": "https://dc.lft.to/lastmile_qr_scan", "ios": "https://dc.lft.to/lastmile_qr_scan"}, "is_reserved": 0, "name": "dcf5ff6c1a1304d2560aa9d1761ff408", "lon": -77.04178116666667, "type": "electric_scooter", "bike_id": "dcf5ff6c1a1304d2560aa9d1761ff408", "fusion_lon": 0.0, "lat": 38.91555983333333, "fusion_lat": 0.0}, {"is_disabled": 0, "rental_uris": {"android": "https://dc.lft.to/lastmile_qr_scan", "ios": "https://dc.lft.to/lastmile_qr_scan"}, "is_reserved": 0, "name": "73e14bcd0fbd5d95c5888e65d410dd44", "lon": -77.04901183333334, "type": "electric_bike", "bike_id": "73e14bcd0fbd5d95c5888e65d410dd44", "fusion_lon": 0.0, "lat": 38.87490233333333, "fusion_lat": 0.0}, {"is_disabled": 0, "rental_uris": {"android": "https://dc.lft.to/lastmile_qr_scan", "ios": "https://dc.lft.to/lastmile_qr_scan"}, "is_reserved": 0, "name": "bb0f106d19b8fa3578a59114ef1e1217", "lon": -77.03870533333334, "type": "electric_scooter", "bike_id": "bb0f106d19b8fa3578a59114ef1e1217", "fusion_lon": 0.0, "lat": 38.9215115, "fusion_lat": 0.0}, {"is_disabled": 0, "rental_uris": {"android": "https://dc.lft.to/lastmile_qr_scan", "ios": "https://dc.lft.to/lastmile_qr_scan"}, "is_reserved": 0, "name": "1272c9066ad9db58ded8399b864e8e67", "lon": -76.87496466666667, "type": "electric_bike", "bike_id": "1272c9066ad9db58ded8399b864e8e67", "fusion_lon": 0.0, "lat": 38.990904666666665, "fusion_lat": 0.0}, {"is_disabled": 0, "rental_uris": {"android": "https://dc.lft.to/lastmile_qr_scan", "ios": "https://dc.lft.to/lastmile_qr_scan"}, "is_reserved": 0, "name": "f0f33ec4883e5d070901b3d26385a0e2", "lon": -77.03229583333334, "type": "electric_scooter", "bike_id": "f0f33ec4883e5d070901b3d26385a0e2", "fusion_lon": 0.0, "lat": 38.918223, "fusion_lat": 0.0}, {"is_disabled": 0, "rental_uris": {"android": "https://dc.lft.to/lastmile_qr_scan", "ios": "https://dc.lft.to/lastmile_qr_scan"}, "is_reserved": 0, "name": "1b14d5bf9b3c3b2141570ee19ce1e300", "lon": -77.0052745, "type": "electric_scooter", "bike_id": "1b14d5bf9b3c3b2141570ee19ce1e300", "fusion_lon": 0.0, "lat": 38.880536, "fusion_lat": 0.0}, {"is_disabled": 0, "rental_uris": {"android": "https://dc.lft.to/lastmile_qr_scan", "ios": "https://dc.lft.to/lastmile_qr_scan"}, "is_reserved": 0, "name": "938c95ad2b47db05eb5e6826396b159e", "lon": -77.02728416666666, "type": "electric_scooter", "bike_id": "938c95ad2b47db05eb5e6826396b159e", "fusion_lon": 0.0, "lat": 38.903497333333334, "fusion_lat": 0.0}, {"is_disabled": 0, "rental_uris": {"android": "https://dc.lft.to/lastmile_qr_scan", "ios": "https://dc.lft.to/lastmile_qr_scan"}, "is_reserved": 0, "name": "33eae421c5a093c8b72f31cb770ecbc9", "lon": -77.04877183333333, "type": "electric_scooter", "bike_id": "33eae421c5a093c8b72f31cb770ecbc9", "fusion_lon": 0.0, "lat": 38.9102065, "fusion_lat": 0.0}, {"is_disabled": 0, "rental_uris": {"android": "https://dc.lft.to/lastmile_qr_scan", "ios": "https://dc.lft.to/lastmile_qr_scan"}, "is_reserved": 0, "name": "0a793f9963775d714c53dbb4996fb375", "lon": -77.05508233333333, "type": "electric_scooter", "bike_id": "0a793f9963775d714c53dbb4996fb375", "fusion_lon": 0.0, "lat": 38.92977533333333, "fusion_lat": 0.0}, {"is_disabled": 0, "rental_uris": {"android": "https://dc.lft.to/lastmile_qr_scan", "ios": "https://dc.lft.to/lastmile_qr_scan"}, "is_reserved": 0, "name": "0f3243d7fe4bb6eb8c1436693621546c", "lon": -77.10029, "type": "electric_bike", "bike_id": "0f3243d7fe4bb6eb8c1436693621546c", "fusion_lon": 0.0, "lat": 38.9906275, "fusion_lat": 0.0}, {"is_disabled": 0, "rental_uris": {"android": "https://dc.lft.to/lastmile_qr_scan", "ios": "https://dc.lft.to/lastmile_qr_scan"}, "is_reserved": 0, "name": "8a050b8c2e84989d029d6eacef1789c6", "lon": -77.0281265, "type": "electric_scooter", "bike_id": "8a050b8c2e84989d029d6eacef1789c6", "fusion_lon": 0.0, "lat": 38.904551166666664, "fusion_lat": 0.0}, {"is_disabled": 0, "rental_uris": {"android": "https://dc.lft.to/lastmile_qr_scan", "ios": "https://dc.lft.to/lastmile_qr_scan"}, "is_reserved": 0, "name": "dfd0c44403337a48e33dadcadb746265", "lon": -77.02157283333334, "type": "electric_scooter", "bike_id": "dfd0c44403337a48e33dadcadb746265", "fusion_lon": 0.0, "lat": 38.926048333333334, "fusion_lat": 0.0}, {"is_disabled": 0, "rental_uris": {"android": "https://dc.lft.to/lastmile_qr_scan", "ios": "https://dc.lft.to/lastmile_qr_scan"}, "is_reserved": 0, "name": "22c645e6391967a2bd2984799c14203b", "lon": -77.195467, "type": "electric_bike", "bike_id": "22c645e6391967a2bd2984799c14203b", "fusion_lon": 0.0, "lat": 39.11505533333333, "fusion_lat": 0.0}, {"is_disabled": 0, "rental_uris": {"android": "https://dc.lft.to/lastmile_qr_scan", "ios": "https://dc.lft.to/lastmile_qr_scan"}, "is_reserved": 0, "name": "90afab73db4a113c717f06c0c04c27b4", "lon": -77.0043365, "type": "electric_scooter", "bike_id": "90afab73db4a113c717f06c0c04c27b4", "fusion_lon": 0.0, "lat": 38.838083, "fusion_lat": 0.0}, {"is_disabled": 0, "rental_uris": {"android": "https://dc.lft.to/lastmile_qr_scan", "ios": "https://dc.lft.to/lastmile_qr_scan"}, "is_reserved": 0, "name": "4f6782b95ec5ac9b06d08a13f4edf021", "lon": -77.02352583333334, "type": "electric_scooter", "bike_id": "4f6782b95ec5ac9b06d08a13f4edf021", "fusion_lon": 0.0, "lat": 38.942937666666666, "fusion_lat": 0.0}, {"is_disabled": 0, "rental_uris": {"android": "https://dc.lft.to/lastmile_qr_scan", "ios": "https://dc.lft.to/lastmile_qr_scan"}, "is_reserved": 0, "name": "27efd6fcb819b85802efc1a5759a07d3", "lon": -76.9809845, "type": "electric_bike", "bike_id": "27efd6fcb819b85802efc1a5759a07d3", "fusion_lon": 0.0, "lat": 38.857183166666665, "fusion_lat": 0.0}, {"is_disabled": 0, "rental_uris": {"android": "https://dc.lft.to/lastmile_qr_scan", "ios": "https://dc.lft.to/lastmile_qr_scan"}, "is_reserved": 0, "name": "91b586c7f7dff9c9731d297fbe47ff93", "lon": -77.0468595, "type": "electric_scooter", "bike_id": "91b586c7f7dff9c9731d297fbe47ff93", "fusion_lon": 0.0, "lat": 38.915937666666665, "fusion_lat": 0.0}, {"is_disabled": 0, "rental_uris": {"android": "https://dc.lft.to/lastmile_qr_scan", "ios": "https://dc.lft.to/lastmile_qr_scan"}, "is_reserved": 0, "name": "fe0886129f6fcb5802bc758a32457ab2", "lon": -77.04977316666667, "type": "electric_bike", "bike_id": "fe0886129f6fcb5802bc758a32457ab2", "fusion_lon": 0.0, "lat": 38.992437333333335, "fusion_lat": 0.0}, {"is_disabled": 0, "rental_uris": {"android": "https://dc.lft.to/lastmile_qr_scan", "ios": "https://dc.lft.to/lastmile_qr_scan"}, "is_reserved": 0, "name": "348d1ffa086bfafc31ebde2bf6a53d67", "lon": -77.05908216666667, "type": "electric_scooter", "bike_id": "348d1ffa086bfafc31ebde2bf6a53d67", "fusion_lon": 0.0, "lat": 38.90540766666667, "fusion_lat": 0.0}, {"is_disabled": 0, "rental_uris": {"android": "https://dc.lft.to/lastmile_qr_scan", "ios": "https://dc.lft.to/lastmile_qr_scan"}, "is_reserved": 0, "name": "6ce73ea45aeacabcf843e6ba4ae2f251", "lon": -77.03720033333333, "type": "electric_scooter", "bike_id": "6ce73ea45aeacabcf843e6ba4ae2f251", "fusion_lon": 0.0, "lat": 38.9265615, "fusion_lat": 0.0}, {"is_disabled": 0, "rental_uris": {"android": "https://dc.lft.to/lastmile_qr_scan", "ios": "https://dc.lft.to/lastmile_qr_scan"}, "is_reserved": 0, "name": "f205f1290f668e5748578e601ad0f0b2", "lon": -77.01764133333333, "type": "electric_scooter", "bike_id": "f205f1290f668e5748578e601ad0f0b2", "fusion_lon": 0.0, "lat": 38.885864, "fusion_lat": 0.0}, {"is_disabled": 0, "rental_uris": {"android": "https://dc.lft.to/lastmile_qr_scan", "ios": "https://dc.lft.to/lastmile_qr_scan"}, "is_reserved": 0, "name": "bf2f75cc78dd5b4046fb5d95746fb490", "lon": -77.04636766666667, "type": "electric_scooter", "bike_id": "bf2f75cc78dd5b4046fb5d95746fb490", "fusion_lon": 0.0, "lat": 38.90564066666666, "fusion_lat": 0.0}, {"is_disabled": 0, "rental_uris": {"android": "https://dc.lft.to/lastmile_qr_scan", "ios": "https://dc.lft.to/lastmile_qr_scan"}, "is_reserved": 0, "name": "81fbd3700675308599bb2c3882cec4e8", "lon": -77.00850466666667, "type": "electric_scooter", "bike_id": "81fbd3700675308599bb2c3882cec4e8", "fusion_lon": 0.0, "lat": 38.906854833333334, "fusion_lat": 0.0}, {"is_disabled": 0, "rental_uris": {"android": "https://dc.lft.to/lastmile_qr_scan", "ios": "https://dc.lft.to/lastmile_qr_scan"}, "is_reserved": 0, "name": "a21d982c255608340d1657592db1246b", "lon": -76.94829783333333, "type": "electric_scooter", "bike_id": "a21d982c255608340d1657592db1246b", "fusion_lon": 0.0, "lat": 38.88518833333333, "fusion_lat": 0.0}, {"is_disabled": 0, "rental_uris": {"android": "https://dc.lft.to/lastmile_qr_scan", "ios": "https://dc.lft.to/lastmile_qr_scan"}, "is_reserved": 0, "name": "ecdf23bf2cf13d4be8f58a8758a264d1", "lon": -77.0200265, "type": "electric_scooter", "bike_id": "ecdf23bf2cf13d4be8f58a8758a264d1", "fusion_lon": 0.0, "lat": 38.9158015, "fusion_lat": 0.0}, {"is_disabled": 0, "rental_uris": {"android": "https://dc.lft.to/lastmile_qr_scan", "ios": "https://dc.lft.to/lastmile_qr_scan"}, "is_reserved": 0, "name": "c0eb0367eff4a47017ee82ab7466b21e", "lon": -76.97514733333334, "type": "electric_bike", "bike_id": "c0eb0367eff4a47017ee82ab7466b21e", "fusion_lon": 0.0, "lat": 38.903075, "fusion_lat": 0.0}, {"is_disabled": 0, "rental_uris": {"android": "https://dc.lft.to/lastmile_qr_scan", "ios": "https://dc.lft.to/lastmile_qr_scan"}, "is_reserved": 0, "name": "c63a4c755e882e6873cec7b5b5d28959", "lon": -77.03861683333334, "type": "electric_scooter", "bike_id": "c63a4c755e882e6873cec7b5b5d28959", "fusion_lon": 0.0, "lat": 38.9156345, "fusion_lat": 0.0}, {"is_disabled": 0, "rental_uris": {"android": "https://dc.lft.to/lastmile_qr_scan", "ios": "https://dc.lft.to/lastmile_qr_scan"}, "is_reserved": 0, "name": "c7351c500e80d284fe3ea035bbd85dbd", "lon": -76.97882733333333, "type": "electric_scooter", "bike_id": "c7351c500e80d284fe3ea035bbd85dbd", "fusion_lon": 0.0, "lat": 38.92730916666667, "fusion_lat": 0.0}, {"is_disabled": 0, "rental_uris": {"android": "https://dc.lft.to/lastmile_qr_scan", "ios": "https://dc.lft.to/lastmile_qr_scan"}, "is_reserved": 0, "name": "191721fd11b29211ad136359729936df", "lon": -77.01227616666667, "type": "electric_scooter", "bike_id": "191721fd11b29211ad136359729936df", "fusion_lon": 0.0, "lat": 38.88581466666667, "fusion_lat": 0.0}, {"is_disabled": 0, "rental_uris": {"android": "https://dc.lft.to/lastmile_qr_scan", "ios": "https://dc.lft.to/lastmile_qr_scan"}, "is_reserved": 0, "name": "cdeed1a97d95d957b6cf829ad2896d7d", "lon": -77.033192, "type": "electric_scooter", "bike_id": "cdeed1a97d95d957b6cf829ad2896d7d", "fusion_lon": 0.0, "lat": 38.898450833333335, "fusion_lat": 0.0}, {"is_disabled": 0, "rental_uris": {"android": "https://dc.lft.to/lastmile_qr_scan", "ios": "https://dc.lft.to/lastmile_qr_scan"}, "is_reserved": 0, "name": "681ac875a3cb14fc9fbbecc1e618c51d", "lon": -77.02291566666666, "type": "electric_scooter", "bike_id": "681ac875a3cb14fc9fbbecc1e618c51d", "fusion_lon": 0.0, "lat": 38.916144833333334, "fusion_lat": 0.0}, {"is_disabled": 0, "rental_uris": {"android": "https://dc.lft.to/lastmile_qr_scan", "ios": "https://dc.lft.to/lastmile_qr_scan"}, "is_reserved": 0, "name": "787d4d7e69be18658898b563f212598b", "lon": -77.0233685, "type": "electric_scooter", "bike_id": "787d4d7e69be18658898b563f212598b", "fusion_lon": 0.0, "lat": 38.91602433333333, "fusion_lat": 0.0}, {"is_disabled": 0, "rental_uris": {"android": "https://dc.lft.to/lastmile_qr_scan", "ios": "https://dc.lft.to/lastmile_qr_scan"}, "is_reserved": 0, "name": "5e4fdfb27c27c4cb2edfab95c0dfceec", "lon": -77.04574266666667, "type": "electric_scooter", "bike_id": "5e4fdfb27c27c4cb2edfab95c0dfceec", "fusion_lon": 0.0, "lat": 38.917826166666664, "fusion_lat": 0.0}, {"is_disabled": 0, "rental_uris": {"android": "https://dc.lft.to/lastmile_qr_scan", "ios": "https://dc.lft.to/lastmile_qr_scan"}, "is_reserved": 0, "name": "2058f6e7d4d7e710b02c483c8cc09a33", "lon": -77.05439766666667, "type": "electric_scooter", "bike_id": "2058f6e7d4d7e710b02c483c8cc09a33", "fusion_lon": 0.0, "lat": 38.896037166666666, "fusion_lat": 0.0}, {"is_disabled": 0, "rental_uris": {"android": "https://dc.lft.to/lastmile_qr_scan", "ios": "https://dc.lft.to/lastmile_qr_scan"}, "is_reserved": 0, "name": "dec0c49b911d614c813fb81907368352", "lon": -77.03660116666667, "type": "electric_scooter", "bike_id": "dec0c49b911d614c813fb81907368352", "fusion_lon": 0.0, "lat": 38.912433166666666, "fusion_lat": 0.0}, {"is_disabled": 0, "rental_uris": {"android": "https://dc.lft.to/lastmile_qr_scan", "ios": "https://dc.lft.to/lastmile_qr_scan"}, "is_reserved": 0, "name": "f7c5e2789741ab3ffde1026702393045", "lon": -77.10438766666667, "type": "electric_bike", "bike_id": "f7c5e2789741ab3ffde1026702393045", "fusion_lon": 0.0, "lat": 39.02867633333334, "fusion_lat": 0.0}, {"is_disabled": 0, "rental_uris": {"android": "https://dc.lft.to/lastmile_qr_scan", "ios": "https://dc.lft.to/lastmile_qr_scan"}, "is_reserved": 0, "name": "51e5f7e49edd89e7c43b9f59cb312923", "lon": -77.0453215, "type": "electric_scooter", "bike_id": "51e5f7e49edd89e7c43b9f59cb312923", "fusion_lon": 0.0, "lat": 38.90649366666667, "fusion_lat": 0.0}, {"is_disabled": 0, "rental_uris": {"android": "https://dc.lft.to/lastmile_qr_scan", "ios": "https://dc.lft.to/lastmile_qr_scan"}, "is_reserved": 0, "name": "ebf7171bb5b59c50227bd81aaf46104c", "lon": -77.03774516666667, "type": "electric_bike", "bike_id": "ebf7171bb5b59c50227bd81aaf46104c", "fusion_lon": 0.0, "lat": 38.92948483333333, "fusion_lat": 0.0}, {"is_disabled": 0, "rental_uris": {"android": "https://dc.lft.to/lastmile_qr_scan", "ios": "https://dc.lft.to/lastmile_qr_scan"}, "is_reserved": 0, "name": "17199afe7bc880780141e6c58406bbfe", "lon": -76.99570633333333, "type": "electric_bike", "bike_id": "17199afe7bc880780141e6c58406bbfe", "fusion_lon": 0.0, "lat": 39.007893, "fusion_lat": 0.0}, {"is_disabled": 0, "rental_uris": {"android": "https://dc.lft.to/lastmile_qr_scan", "ios": "https://dc.lft.to/lastmile_qr_scan"}, "is_reserved": 0, "name": "197e2831f53d8dd295af7c18961f52a8", "lon": -77.02155566666667, "type": "electric_scooter", "bike_id": "197e2831f53d8dd295af7c18961f52a8", "fusion_lon": 0.0, "lat": 38.926039, "fusion_lat": 0.0}, {"is_disabled": 0, "rental_uris": {"android": "https://dc.lft.to/lastmile_qr_scan", "ios": "https://dc.lft.to/lastmile_qr_scan"}, "is_reserved": 0, "name": "32fb1b5ee61e881844a425555de7bbec", "lon": -77.02225433333334, "type": "electric_scooter", "bike_id": "32fb1b5ee61e881844a425555de7bbec", "fusion_lon": 0.0, "lat": 38.90558133333333, "fusion_lat": 0.0}, {"is_disabled": 0, "rental_uris": {"android": "https://dc.lft.to/lastmile_qr_scan", "ios": "https://dc.lft.to/lastmile_qr_scan"}, "is_reserved": 0, "name": "b75ad8fa10047c90a4dfc19bf8f1eee0", "lon": -77.02263816666667, "type": "electric_scooter", "bike_id": "b75ad8fa10047c90a4dfc19bf8f1eee0", "fusion_lon": 0.0, "lat": 38.9273755, "fusion_lat": 0.0}, {"is_disabled": 0, "rental_uris": {"android": "https://dc.lft.to/lastmile_qr_scan", "ios": "https://dc.lft.to/lastmile_qr_scan"}, "is_reserved": 0, "name": "343e04844974f337000d97ca52cb5fad", "lon": -76.98707283333333, "type": "electric_scooter", "bike_id": "343e04844974f337000d97ca52cb5fad", "fusion_lon": 0.0, "lat": 38.8669865, "fusion_lat": 0.0}, {"is_disabled": 0, "rental_uris": {"android": "https://dc.lft.to/lastmile_qr_scan", "ios": "https://dc.lft.to/lastmile_qr_scan"}, "is_reserved": 0, "name": "bb11918a9cf6f6e2a464b13c14ac4449", "lon": -76.98870266666667, "type": "electric_scooter", "bike_id": "bb11918a9cf6f6e2a464b13c14ac4449", "fusion_lon": 0.0, "lat": 38.892145166666666, "fusion_lat": 0.0}, {"is_disabled": 0, "rental_uris": {"android": "https://dc.lft.to/lastmile_qr_scan", "ios": "https://dc.lft.to/lastmile_qr_scan"}, "is_reserved": 0, "name": "dc95876bb61802f00d49659bc29c7095", "lon": -77.0266745, "type": "electric_scooter", "bike_id": "dc95876bb61802f00d49659bc29c7095", "fusion_lon": 0.0, "lat": 38.89628033333334, "fusion_lat": 0.0}, {"is_disabled": 0, "rental_uris": {"android": "https://dc.lft.to/lastmile_qr_scan", "ios": "https://dc.lft.to/lastmile_qr_scan"}, "is_reserved": 0, "name": "e8c723ff02e5ad0c43ac21ef5f902284", "lon": -77.03208966666666, "type": "electric_scooter", "bike_id": "e8c723ff02e5ad0c43ac21ef5f902284", "fusion_lon": 0.0, "lat": 38.925816166666664, "fusion_lat": 0.0}, {"is_disabled": 0, "rental_uris": {"android": "https://dc.lft.to/lastmile_qr_scan", "ios": "https://dc.lft.to/lastmile_qr_scan"}, "is_reserved": 0, "name": "68b9be5ff042ff6217ab5d1733faa996", "lon": -77.02958983333333, "type": "electric_scooter", "bike_id": "68b9be5ff042ff6217ab5d1733faa996", "fusion_lon": 0.0, "lat": 38.91774316666667, "fusion_lat": 0.0}, {"is_disabled": 0, "rental_uris": {"android": "https://dc.lft.to/lastmile_qr_scan", "ios": "https://dc.lft.to/lastmile_qr_scan"}, "is_reserved": 0, "name": "b065aa0410b81d3b8b80951924ff2ace", "lon": -77.04024366666667, "type": "electric_scooter", "bike_id": "b065aa0410b81d3b8b80951924ff2ace", "fusion_lon": 0.0, "lat": 38.917113666666665, "fusion_lat": 0.0}, {"is_disabled": 0, "rental_uris": {"android": "https://dc.lft.to/lastmile_qr_scan", "ios": "https://dc.lft.to/lastmile_qr_scan"}, "is_reserved": 0, "name": "5fe82421d01fe0c4b271f24cde837d5e", "lon": -77.04369583333333, "type": "electric_scooter", "bike_id": "5fe82421d01fe0c4b271f24cde837d5e", "fusion_lon": 0.0, "lat": 38.92112783333334, "fusion_lat": 0.0}, {"is_disabled": 0, "rental_uris": {"android": "https://dc.lft.to/lastmile_qr_scan", "ios": "https://dc.lft.to/lastmile_qr_scan"}, "is_reserved": 0, "name": "955bd54679f86ae93ce51f246630224d", "lon": -77.03839466666666, "type": "electric_scooter", "bike_id": "955bd54679f86ae93ce51f246630224d", "fusion_lon": 0.0, "lat": 38.90679933333333, "fusion_lat": 0.0}, {"is_disabled": 0, "rental_uris": {"android": "https://dc.lft.to/lastmile_qr_scan", "ios": "https://dc.lft.to/lastmile_qr_scan"}, "is_reserved": 0, "name": "ac0ea059c6617bdfae5440ddded31da4", "lon": -77.12899383333334, "type": "electric_bike", "bike_id": "ac0ea059c6617bdfae5440ddded31da4", "fusion_lon": 0.0, "lat": 38.86379616666667, "fusion_lat": 0.0}, {"is_disabled": 0, "rental_uris": {"android": "https://dc.lft.to/lastmile_qr_scan", "ios": "https://dc.lft.to/lastmile_qr_scan"}, "is_reserved": 0, "name": "939129bb407f0d79ba36ae300ff448dc", "lon": -77.05939366666667, "type": "electric_scooter", "bike_id": "939129bb407f0d79ba36ae300ff448dc", "fusion_lon": 0.0, "lat": 38.936739333333335, "fusion_lat": 0.0}, {"is_disabled": 0, "rental_uris": {"android": "https://dc.lft.to/lastmile_qr_scan", "ios": "https://dc.lft.to/lastmile_qr_scan"}, "is_reserved": 0, "name": "18a224da62341665e971657a3540226c", "lon": -77.0385785, "type": "electric_scooter", "bike_id": "18a224da62341665e971657a3540226c", "fusion_lon": 0.0, "lat": 38.917182, "fusion_lat": 0.0}, {"is_disabled": 0, "rental_uris": {"android": "https://dc.lft.to/lastmile_qr_scan", "ios": "https://dc.lft.to/lastmile_qr_scan"}, "is_reserved": 0, "name": "e16ffef3e8cc4bc53df7ec3a504a8546", "lon": -77.00917066666666, "type": "electric_scooter", "bike_id": "e16ffef3e8cc4bc53df7ec3a504a8546", "fusion_lon": 0.0, "lat": 38.959496666666666, "fusion_lat": 0.0}, {"is_disabled": 0, "rental_uris": {"android": "https://dc.lft.to/lastmile_qr_scan", "ios": "https://dc.lft.to/lastmile_qr_scan"}, "is_reserved": 0, "name": "61a782624f034bfcde27771747d6b8f1", "lon": -77.0726695, "type": "electric_scooter", "bike_id": "61a782624f034bfcde27771747d6b8f1", "fusion_lon": 0.0, "lat": 38.906695166666665, "fusion_lat": 0.0}, {"is_disabled": 0, "rental_uris": {"android": "https://dc.lft.to/lastmile_qr_scan", "ios": "https://dc.lft.to/lastmile_qr_scan"}, "is_reserved": 0, "name": "3ffc72e856664625f4a36daf6c288e26", "lon": -77.04391483333333, "type": "electric_scooter", "bike_id": "3ffc72e856664625f4a36daf6c288e26", "fusion_lon": 0.0, "lat": 38.9108435, "fusion_lat": 0.0}, {"is_disabled": 0, "rental_uris": {"android": "https://dc.lft.to/lastmile_qr_scan", "ios": "https://dc.lft.to/lastmile_qr_scan"}, "is_reserved": 0, "name": "c8cda63e449bfb9a677086d66af6c7f4", "lon": -77.03858683333333, "type": "electric_scooter", "bike_id": "c8cda63e449bfb9a677086d66af6c7f4", "fusion_lon": 0.0, "lat": 38.907869166666664, "fusion_lat": 0.0}, {"is_disabled": 0, "rental_uris": {"android": "https://dc.lft.to/lastmile_qr_scan", "ios": "https://dc.lft.to/lastmile_qr_scan"}, "is_reserved": 0, "name": "c386ca46f50c3658ee4a5e0ef10c5661", "lon": -77.0272295, "type": "electric_scooter", "bike_id": "c386ca46f50c3658ee4a5e0ef10c5661", "fusion_lon": 0.0, "lat": 38.908514333333336, "fusion_lat": 0.0}, {"is_disabled": 0, "rental_uris": {"android": "https://dc.lft.to/lastmile_qr_scan", "ios": "https://dc.lft.to/lastmile_qr_scan"}, "is_reserved": 0, "name": "d55c240b25f274b4a4678bc0a576f732", "lon": -77.04014333333333, "type": "electric_scooter", "bike_id": "d55c240b25f274b4a4678bc0a576f732", "fusion_lon": 0.0, "lat": 38.9130895, "fusion_lat": 0.0}, {"is_disabled": 0, "rental_uris": {"android": "https://dc.lft.to/lastmile_qr_scan", "ios": "https://dc.lft.to/lastmile_qr_scan"}, "is_reserved": 0, "name": "6424b0f8a37f8e7189c0f8000b6272a9", "lon": -77.02721766666667, "type": "electric_scooter", "bike_id": "6424b0f8a37f8e7189c0f8000b6272a9", "fusion_lon": 0.0, "lat": 38.94090583333333, "fusion_lat": 0.0}, {"is_disabled": 0, "rental_uris": {"android": "https://dc.lft.to/lastmile_qr_scan", "ios": "https://dc.lft.to/lastmile_qr_scan"}, "is_reserved": 0, "name": "642086b2f4e02d208264212259350c9d", "lon": -77.021033, "type": "electric_bike", "bike_id": "642086b2f4e02d208264212259350c9d", "fusion_lon": 0.0, "lat": 39.023011, "fusion_lat": 0.0}, {"is_disabled": 0, "rental_uris": {"android": "https://dc.lft.to/lastmile_qr_scan", "ios": "https://dc.lft.to/lastmile_qr_scan"}, "is_reserved": 0, "name": "6c709af33f9cd0ef23f7292cd99d49fb", "lon": -77.027732, "type": "electric_scooter", "bike_id": "6c709af33f9cd0ef23f7292cd99d49fb", "fusion_lon": 0.0, "lat": 38.926865, "fusion_lat": 0.0}, {"is_disabled": 0, "rental_uris": {"android": "https://dc.lft.to/lastmile_qr_scan", "ios": "https://dc.lft.to/lastmile_qr_scan"}, "is_reserved": 0, "name": "0194f3e5290e0fbf9ca8f5c87c65ecaf", "lon": -76.93778116666667, "type": "electric_scooter", "bike_id": "0194f3e5290e0fbf9ca8f5c87c65ecaf", "fusion_lon": 0.0, "lat": 38.899645, "fusion_lat": 0.0}, {"is_disabled": 0, "rental_uris": {"android": "https://dc.lft.to/lastmile_qr_scan", "ios": "https://dc.lft.to/lastmile_qr_scan"}, "is_reserved": 0, "name": "811a10db481bd16495edf71407a626a7", "lon": -77.03163, "type": "electric_scooter", "bike_id": "811a10db481bd16495edf71407a626a7", "fusion_lon": 0.0, "lat": 38.927927333333336, "fusion_lat": 0.0}, {"is_disabled": 0, "rental_uris": {"android": "https://dc.lft.to/lastmile_qr_scan", "ios": "https://dc.lft.to/lastmile_qr_scan"}, "is_reserved": 0, "name": "6d50bfd023843a6f87cfe48c95841458", "lon": -77.03451616666666, "type": "electric_scooter", "bike_id": "6d50bfd023843a6f87cfe48c95841458", "fusion_lon": 0.0, "lat": 38.9642915, "fusion_lat": 0.0}, {"is_disabled": 0, "rental_uris": {"android": "https://dc.lft.to/lastmile_qr_scan", "ios": "https://dc.lft.to/lastmile_qr_scan"}, "is_reserved": 0, "name": "b86a2a43e437f3940d83907dc1b112d8", "lon": -76.9160045, "type": "electric_bike", "bike_id": "b86a2a43e437f3940d83907dc1b112d8", "fusion_lon": 0.0, "lat": 38.87984433333333, "fusion_lat": 0.0}, {"is_disabled": 0, "rental_uris": {"android": "https://dc.lft.to/lastmile_qr_scan", "ios": "https://dc.lft.to/lastmile_qr_scan"}, "is_reserved": 0, "name": "32e78d01a0e37bfecd9fedbfab5a2e9d", "lon": -77.04846433333333, "type": "electric_scooter", "bike_id": "32e78d01a0e37bfecd9fedbfab5a2e9d", "fusion_lon": 0.0, "lat": 38.88834666666666, "fusion_lat": 0.0}, {"is_disabled": 0, "rental_uris": {"android": "https://dc.lft.to/lastmile_qr_scan", "ios": "https://dc.lft.to/lastmile_qr_scan"}, "is_reserved": 0, "name": "5c4dcc4eab7ca99d95b6596b4abc5db1", "lon": -77.15267983333334, "type": "electric_bike", "bike_id": "5c4dcc4eab7ca99d95b6596b4abc5db1", "fusion_lon": 0.0, "lat": 39.1056495, "fusion_lat": 0.0}, {"is_disabled": 0, "rental_uris": {"android": "https://dc.lft.to/lastmile_qr_scan", "ios": "https://dc.lft.to/lastmile_qr_scan"}, "is_reserved": 0, "name": "1f8b0c6543941415e91552c9457a4c43", "lon": -77.02378566666667, "type": "electric_scooter", "bike_id": "1f8b0c6543941415e91552c9457a4c43", "fusion_lon": 0.0, "lat": 38.9140205, "fusion_lat": 0.0}, {"is_disabled": 0, "rental_uris": {"android": "https://dc.lft.to/lastmile_qr_scan", "ios": "https://dc.lft.to/lastmile_qr_scan"}, "is_reserved": 0, "name": "13b3185d6ca5a52af61ad46eeea0b847", "lon": -77.0394655, "type": "electric_scooter", "bike_id": "13b3185d6ca5a52af61ad46eeea0b847", "fusion_lon": 0.0, "lat": 38.898986666666666, "fusion_lat": 0.0}, {"is_disabled": 0, "rental_uris": {"android": "https://dc.lft.to/lastmile_qr_scan", "ios": "https://dc.lft.to/lastmile_qr_scan"}, "is_reserved": 0, "name": "f591d5b34eb6f4e7c81929431d12f983", "lon": -76.98327266666666, "type": "electric_scooter", "bike_id": "f591d5b34eb6f4e7c81929431d12f983", "fusion_lon": 0.0, "lat": 38.861738333333335, "fusion_lat": 0.0}, {"is_disabled": 0, "rental_uris": {"android": "https://dc.lft.to/lastmile_qr_scan", "ios": "https://dc.lft.to/lastmile_qr_scan"}, "is_reserved": 0, "name": "17ce156c0d93294a3c2b3c366dde3bb6", "lon": -76.9683155, "type": "electric_bike", "bike_id": "17ce156c0d93294a3c2b3c366dde3bb6", "fusion_lon": 0.0, "lat": 38.924445166666665, "fusion_lat": 0.0}, {"is_disabled": 0, "rental_uris": {"android": "https://dc.lft.to/lastmile_qr_scan", "ios": "https://dc.lft.to/lastmile_qr_scan"}, "is_reserved": 0, "name": "284e9515e1c6f918cc1b316e5eb04d11", "lon": -77.03194816666667, "type": "electric_scooter", "bike_id": "284e9515e1c6f918cc1b316e5eb04d11", "fusion_lon": 0.0, "lat": 38.91834583333333, "fusion_lat": 0.0}, {"is_disabled": 0, "rental_uris": {"android": "https://dc.lft.to/lastmile_qr_scan", "ios": "https://dc.lft.to/lastmile_qr_scan"}, "is_reserved": 0, "name": "7849e335a54b7daf0ce6e318e2a7a148", "lon": -76.94778366666667, "type": "electric_scooter", "bike_id": "7849e335a54b7daf0ce6e318e2a7a148", "fusion_lon": 0.0, "lat": 38.8846515, "fusion_lat": 0.0}, {"is_disabled": 0, "rental_uris": {"android": "https://dc.lft.to/lastmile_qr_scan", "ios": "https://dc.lft.to/lastmile_qr_scan"}, "is_reserved": 0, "name": "7098ff1c835d3ac2eae4024c00ec4d3b", "lon": -76.98230983333333, "type": "electric_scooter", "bike_id": "7098ff1c835d3ac2eae4024c00ec4d3b", "fusion_lon": 0.0, "lat": 38.8647145, "fusion_lat": 0.0}, {"is_disabled": 0, "rental_uris": {"android": "https://dc.lft.to/lastmile_qr_scan", "ios": "https://dc.lft.to/lastmile_qr_scan"}, "is_reserved": 0, "name": "bd9c5d1fdea8ef291a980089d2d9b177", "lon": -77.00688716666667, "type": "electric_scooter", "bike_id": "bd9c5d1fdea8ef291a980089d2d9b177", "fusion_lon": 0.0, "lat": 38.90013166666667, "fusion_lat": 0.0}, {"is_disabled": 0, "rental_uris": {"android": "https://dc.lft.to/lastmile_qr_scan", "ios": "https://dc.lft.to/lastmile_qr_scan"}, "is_reserved": 0, "name": "e0e69aaaf145cfd758e786ebf891306a", "lon": -77.05933916666666, "type": "electric_scooter", "bike_id": "e0e69aaaf145cfd758e786ebf891306a", "fusion_lon": 0.0, "lat": 38.936787333333335, "fusion_lat": 0.0}, {"is_disabled": 0, "rental_uris": {"android": "https://dc.lft.to/lastmile_qr_scan", "ios": "https://dc.lft.to/lastmile_qr_scan"}, "is_reserved": 0, "name": "cb75f3be61163cdb801480c632e2bc7a", "lon": -77.02297866666666, "type": "electric_scooter", "bike_id": "cb75f3be61163cdb801480c632e2bc7a", "fusion_lon": 0.0, "lat": 38.91790816666666, "fusion_lat": 0.0}, {"is_disabled": 0, "rental_uris": {"android": "https://dc.lft.to/lastmile_qr_scan", "ios": "https://dc.lft.to/lastmile_qr_scan"}, "is_reserved": 0, "name": "5ce892aa7f1f9b9fc137457250107365", "lon": -76.9489505, "type": "electric_scooter", "bike_id": "5ce892aa7f1f9b9fc137457250107365", "fusion_lon": 0.0, "lat": 38.8952765, "fusion_lat": 0.0}, {"is_disabled": 0, "rental_uris": {"android": "https://dc.lft.to/lastmile_qr_scan", "ios": "https://dc.lft.to/lastmile_qr_scan"}, "is_reserved": 0, "name": "c609eb22da0ac0800c2a7f6c872e1989", "lon": -77.04394733333334, "type": "electric_scooter", "bike_id": "c609eb22da0ac0800c2a7f6c872e1989", "fusion_lon": 0.0, "lat": 38.90581183333333, "fusion_lat": 0.0}, {"is_disabled": 0, "rental_uris": {"android": "https://dc.lft.to/lastmile_qr_scan", "ios": "https://dc.lft.to/lastmile_qr_scan"}, "is_reserved": 0, "name": "b5a2f24faf0292bb69d3b8a44fe79438", "lon": -76.99951866666666, "type": "electric_scooter", "bike_id": "b5a2f24faf0292bb69d3b8a44fe79438", "fusion_lon": 0.0, "lat": 38.84291533333333, "fusion_lat": 0.0}, {"is_disabled": 0, "rental_uris": {"android": "https://dc.lft.to/lastmile_qr_scan", "ios": "https://dc.lft.to/lastmile_qr_scan"}, "is_reserved": 0, "name": "458aa57dd06715fbc1f82db33b1a3259", "lon": -77.02491383333333, "type": "electric_scooter", "bike_id": "458aa57dd06715fbc1f82db33b1a3259", "fusion_lon": 0.0, "lat": 38.9057375, "fusion_lat": 0.0}, {"is_disabled": 0, "rental_uris": {"android": "https://dc.lft.to/lastmile_qr_scan", "ios": "https://dc.lft.to/lastmile_qr_scan"}, "is_reserved": 0, "name": "bc503542e7e635533cb33428db610c4b", "lon": -77.0404215, "type": "electric_scooter", "bike_id": "bc503542e7e635533cb33428db610c4b", "fusion_lon": 0.0, "lat": 38.90593633333334, "fusion_lat": 0.0}, {"is_disabled": 0, "rental_uris": {"android": "https://dc.lft.to/lastmile_qr_scan", "ios": "https://dc.lft.to/lastmile_qr_scan"}, "is_reserved": 0, "name": "63f49785b083aa0247770a1c5536660d", "lon": -77.057468, "type": "electric_scooter", "bike_id": "63f49785b083aa0247770a1c5536660d", "fusion_lon": 0.0, "lat": 38.93350266666667, "fusion_lat": 0.0}, {"is_disabled": 0, "rental_uris": {"android": "https://dc.lft.to/lastmile_qr_scan", "ios": "https://dc.lft.to/lastmile_qr_scan"}, "is_reserved": 0, "name": "ea7201b3ad12393491b38c4cb0b9cbc1", "lon": -77.05789633333333, "type": "electric_scooter", "bike_id": "ea7201b3ad12393491b38c4cb0b9cbc1", "fusion_lon": 0.0, "lat": 38.905103, "fusion_lat": 0.0}, {"is_disabled": 0, "rental_uris": {"android": "https://dc.lft.to/lastmile_qr_scan", "ios": "https://dc.lft.to/lastmile_qr_scan"}, "is_reserved": 0, "name": "d911481c349d2e603a2c4a64c95c98b2", "lon": -77.03175316666666, "type": "electric_scooter", "bike_id": "d911481c349d2e603a2c4a64c95c98b2", "fusion_lon": 0.0, "lat": 38.914214, "fusion_lat": 0.0}, {"is_disabled": 0, "rental_uris": {"android": "https://dc.lft.to/lastmile_qr_scan", "ios": "https://dc.lft.to/lastmile_qr_scan"}, "is_reserved": 0, "name": "7dab7110b599d9400ac3a988a49f62a8", "lon": -77.03863883333334, "type": "electric_scooter", "bike_id": "7dab7110b599d9400ac3a988a49f62a8", "fusion_lon": 0.0, "lat": 38.901255, "fusion_lat": 0.0}, {"is_disabled": 0, "rental_uris": {"android": "https://dc.lft.to/lastmile_qr_scan", "ios": "https://dc.lft.to/lastmile_qr_scan"}, "is_reserved": 0, "name": "208e221870def923a592d44a195fb8ec", "lon": -77.0152745, "type": "electric_scooter", "bike_id": "208e221870def923a592d44a195fb8ec", "fusion_lon": 0.0, "lat": 38.884894, "fusion_lat": 0.0}, {"is_disabled": 0, "rental_uris": {"android": "https://dc.lft.to/lastmile_qr_scan", "ios": "https://dc.lft.to/lastmile_qr_scan"}, "is_reserved": 0, "name": "ec57bbe48ecb680f1a72990fc2202d07", "lon": -77.02386433333334, "type": "electric_scooter", "bike_id": "ec57bbe48ecb680f1a72990fc2202d07", "fusion_lon": 0.0, "lat": 38.90868283333333, "fusion_lat": 0.0}, {"is_disabled": 0, "rental_uris": {"android": "https://dc.lft.to/lastmile_qr_scan", "ios": "https://dc.lft.to/lastmile_qr_scan"}, "is_reserved": 0, "name": "3cf16993c11cd6d1f2a253b7b1e7e123", "lon": -77.04239333333334, "type": "electric_scooter", "bike_id": "3cf16993c11cd6d1f2a253b7b1e7e123", "fusion_lon": 0.0, "lat": 38.91930966666666, "fusion_lat": 0.0}, {"is_disabled": 0, "rental_uris": {"android": "https://dc.lft.to/lastmile_qr_scan", "ios": "https://dc.lft.to/lastmile_qr_scan"}, "is_reserved": 0, "name": "ab2932d22aa1975d1972232746482f8a", "lon": -77.01883283333333, "type": "electric_scooter", "bike_id": "ab2932d22aa1975d1972232746482f8a", "fusion_lon": 0.0, "lat": 38.900568, "fusion_lat": 0.0}, {"is_disabled": 0, "rental_uris": {"android": "https://dc.lft.to/lastmile_qr_scan", "ios": "https://dc.lft.to/lastmile_qr_scan"}, "is_reserved": 0, "name": "e16466f9596c96fe7c4412f4e723911d", "lon": -77.03200533333333, "type": "electric_scooter", "bike_id": "e16466f9596c96fe7c4412f4e723911d", "fusion_lon": 0.0, "lat": 38.916802833333335, "fusion_lat": 0.0}, {"is_disabled": 0, "rental_uris": {"android": "https://dc.lft.to/lastmile_qr_scan", "ios": "https://dc.lft.to/lastmile_qr_scan"}, "is_reserved": 0, "name": "f4df4e124841cb4f056e90b94ab1102e", "lon": -77.04173816666666, "type": "electric_scooter", "bike_id": "f4df4e124841cb4f056e90b94ab1102e", "fusion_lon": 0.0, "lat": 38.91360266666667, "fusion_lat": 0.0}, {"is_disabled": 0, "rental_uris": {"android": "https://dc.lft.to/lastmile_qr_scan", "ios": "https://dc.lft.to/lastmile_qr_scan"}, "is_reserved": 0, "name": "6114171c41c825872ca875d93bb2e612", "lon": -77.0381105, "type": "electric_scooter", "bike_id": "6114171c41c825872ca875d93bb2e612", "fusion_lon": 0.0, "lat": 38.9155445, "fusion_lat": 0.0}, {"is_disabled": 0, "rental_uris": {"android": "https://dc.lft.to/lastmile_qr_scan", "ios": "https://dc.lft.to/lastmile_qr_scan"}, "is_reserved": 0, "name": "50acfc44f5303fbbb5deaec386ea6600", "lon": -76.9964595, "type": "electric_scooter", "bike_id": "50acfc44f5303fbbb5deaec386ea6600", "fusion_lon": 0.0, "lat": 38.887189, "fusion_lat": 0.0}, {"is_disabled": 0, "rental_uris": {"android": "https://dc.lft.to/lastmile_qr_scan", "ios": "https://dc.lft.to/lastmile_qr_scan"}, "is_reserved": 0, "name": "b3278fcc20bc7ba20dbb1fba1248201c", "lon": -77.03421483333334, "type": "electric_scooter", "bike_id": "b3278fcc20bc7ba20dbb1fba1248201c", "fusion_lon": 0.0, "lat": 38.91184766666667, "fusion_lat": 0.0}, {"is_disabled": 0, "rental_uris": {"android": "https://dc.lft.to/lastmile_qr_scan", "ios": "https://dc.lft.to/lastmile_qr_scan"}, "is_reserved": 0, "name": "a539e5fafa8f372d4657036befade3c5", "lon": -77.038658, "type": "electric_scooter", "bike_id": "a539e5fafa8f372d4657036befade3c5", "fusion_lon": 0.0, "lat": 38.91688883333333, "fusion_lat": 0.0}, {"is_disabled": 0, "rental_uris": {"android": "https://dc.lft.to/lastmile_qr_scan", "ios": "https://dc.lft.to/lastmile_qr_scan"}, "is_reserved": 0, "name": "783de6576ca78a778b39e8a9232d8ad4", "lon": -77.01752066666667, "type": "electric_scooter", "bike_id": "783de6576ca78a778b39e8a9232d8ad4", "fusion_lon": 0.0, "lat": 38.903823833333334, "fusion_lat": 0.0}, {"is_disabled": 0, "rental_uris": {"android": "https://dc.lft.to/lastmile_qr_scan", "ios": "https://dc.lft.to/lastmile_qr_scan"}, "is_reserved": 0, "name": "e04e87dc64f7f603cbfc199a0d1519e4", "lon": -77.03289166666667, "type": "electric_scooter", "bike_id": "e04e87dc64f7f603cbfc199a0d1519e4", "fusion_lon": 0.0, "lat": 38.904372333333335, "fusion_lat": 0.0}, {"is_disabled": 0, "rental_uris": {"android": "https://dc.lft.to/lastmile_qr_scan", "ios": "https://dc.lft.to/lastmile_qr_scan"}, "is_reserved": 0, "name": "2988962fce1f2fe10886cb0a84871968", "lon": -77.01618683333334, "type": "electric_scooter", "bike_id": "2988962fce1f2fe10886cb0a84871968", "fusion_lon": 0.0, "lat": 38.878704166666665, "fusion_lat": 0.0}, {"is_disabled": 0, "rental_uris": {"android": "https://dc.lft.to/lastmile_qr_scan", "ios": "https://dc.lft.to/lastmile_qr_scan"}, "is_reserved": 0, "name": "64ba25168bf91ced2068c4ab8f006a5b", "lon": -77.0504685, "type": "electric_scooter", "bike_id": "64ba25168bf91ced2068c4ab8f006a5b", "fusion_lon": 0.0, "lat": 38.92357466666667, "fusion_lat": 0.0}, {"is_disabled": 0, "rental_uris": {"android": "https://dc.lft.to/lastmile_qr_scan", "ios": "https://dc.lft.to/lastmile_qr_scan"}, "is_reserved": 0, "name": "b883e267b0868b804a99370b631763d0", "lon": -76.96527633333334, "type": "electric_scooter", "bike_id": "b883e267b0868b804a99370b631763d0", "fusion_lon": 0.0, "lat": 38.876275, "fusion_lat": 0.0}, {"is_disabled": 0, "rental_uris": {"android": "https://dc.lft.to/lastmile_qr_scan", "ios": "https://dc.lft.to/lastmile_qr_scan"}, "is_reserved": 0, "name": "4bed1d33a6062faac95c75450479d907", "lon": -77.03753083333334, "type": "electric_scooter", "bike_id": "4bed1d33a6062faac95c75450479d907", "fusion_lon": 0.0, "lat": 38.929080666666664, "fusion_lat": 0.0}, {"is_disabled": 0, "rental_uris": {"android": "https://dc.lft.to/lastmile_qr_scan", "ios": "https://dc.lft.to/lastmile_qr_scan"}, "is_reserved": 0, "name": "2f2fbac881f957116f1b5e9befe70e12", "lon": -77.026726, "type": "electric_scooter", "bike_id": "2f2fbac881f957116f1b5e9befe70e12", "fusion_lon": 0.0, "lat": 38.91270383333333, "fusion_lat": 0.0}, {"is_disabled": 0, "rental_uris": {"android": "https://dc.lft.to/lastmile_qr_scan", "ios": "https://dc.lft.to/lastmile_qr_scan"}, "is_reserved": 0, "name": "da770e4dc67acbca7deb77b7bfd65266", "lon": -77.04234283333334, "type": "electric_scooter", "bike_id": "da770e4dc67acbca7deb77b7bfd65266", "fusion_lon": 0.0, "lat": 38.92222016666667, "fusion_lat": 0.0}, {"is_disabled": 0, "rental_uris": {"android": "https://dc.lft.to/lastmile_qr_scan", "ios": "https://dc.lft.to/lastmile_qr_scan"}, "is_reserved": 0, "name": "4bb046360c8c1c5f43b9788821f0ebf7", "lon": -77.022029, "type": "electric_scooter", "bike_id": "4bb046360c8c1c5f43b9788821f0ebf7", "fusion_lon": 0.0, "lat": 38.899535666666665, "fusion_lat": 0.0}, {"is_disabled": 0, "rental_uris": {"android": "https://dc.lft.to/lastmile_qr_scan", "ios": "https://dc.lft.to/lastmile_qr_scan"}, "is_reserved": 0, "name": "3c3457d6db4a636719abccf4e3f5ea19", "lon": -77.03032516666667, "type": "electric_scooter", "bike_id": "3c3457d6db4a636719abccf4e3f5ea19", "fusion_lon": 0.0, "lat": 38.931218, "fusion_lat": 0.0}, {"is_disabled": 0, "rental_uris": {"android": "https://dc.lft.to/lastmile_qr_scan", "ios": "https://dc.lft.to/lastmile_qr_scan"}, "is_reserved": 0, "name": "11707189406017fd4e170bb47c24da57", "lon": -77.04871566666667, "type": "electric_scooter", "bike_id": "11707189406017fd4e170bb47c24da57", "fusion_lon": 0.0, "lat": 38.90949783333333, "fusion_lat": 0.0}, {"is_disabled": 0, "rental_uris": {"android": "https://dc.lft.to/lastmile_qr_scan", "ios": "https://dc.lft.to/lastmile_qr_scan"}, "is_reserved": 0, "name": "92b3f81bc9ba084906c04cbad40ad5ee", "lon": -77.031453, "type": "electric_scooter", "bike_id": "92b3f81bc9ba084906c04cbad40ad5ee", "fusion_lon": 0.0, "lat": 38.920258, "fusion_lat": 0.0}, {"is_disabled": 0, "rental_uris": {"android": "https://dc.lft.to/lastmile_qr_scan", "ios": "https://dc.lft.to/lastmile_qr_scan"}, "is_reserved": 0, "name": "458bd32527bf41e6aca1af9770be3a2c", "lon": -77.0386945, "type": "electric_scooter", "bike_id": "458bd32527bf41e6aca1af9770be3a2c", "fusion_lon": 0.0, "lat": 38.908111166666664, "fusion_lat": 0.0}, {"is_disabled": 0, "rental_uris": {"android": "https://dc.lft.to/lastmile_qr_scan", "ios": "https://dc.lft.to/lastmile_qr_scan"}, "is_reserved": 0, "name": "412644dcfee08398657497501f330e65", "lon": -77.04486166666666, "type": "electric_scooter", "bike_id": "412644dcfee08398657497501f330e65", "fusion_lon": 0.0, "lat": 38.91154916666667, "fusion_lat": 0.0}, {"is_disabled": 0, "rental_uris": {"android": "https://dc.lft.to/lastmile_qr_scan", "ios": "https://dc.lft.to/lastmile_qr_scan"}, "is_reserved": 0, "name": "05b136912f1cff54f034bae51b0632b6", "lon": -77.0326795, "type": "electric_scooter", "bike_id": "05b136912f1cff54f034bae51b0632b6", "fusion_lon": 0.0, "lat": 38.91567333333333, "fusion_lat": 0.0}, {"is_disabled": 0, "rental_uris": {"android": "https://dc.lft.to/lastmile_qr_scan", "ios": "https://dc.lft.to/lastmile_qr_scan"}, "is_reserved": 0, "name": "17b91476cac599e70fd7c926e1d40873", "lon": -77.03728566666666, "type": "electric_scooter", "bike_id": "17b91476cac599e70fd7c926e1d40873", "fusion_lon": 0.0, "lat": 38.911223666666665, "fusion_lat": 0.0}, {"is_disabled": 0, "rental_uris": {"android": "https://dc.lft.to/lastmile_qr_scan", "ios": "https://dc.lft.to/lastmile_qr_scan"}, "is_reserved": 0, "name": "2b4b14ee59657da07c728837a771f1c5", "lon": -77.04731933333333, "type": "electric_scooter", "bike_id": "2b4b14ee59657da07c728837a771f1c5", "fusion_lon": 0.0, "lat": 38.905949, "fusion_lat": 0.0}, {"is_disabled": 0, "rental_uris": {"android": "https://dc.lft.to/lastmile_qr_scan", "ios": "https://dc.lft.to/lastmile_qr_scan"}, "is_reserved": 0, "name": "f0a1b68253fd92accad3067d7c50046f", "lon": -77.04013283333333, "type": "electric_scooter", "bike_id": "f0a1b68253fd92accad3067d7c50046f", "fusion_lon": 0.0, "lat": 38.91793783333333, "fusion_lat": 0.0}, {"is_disabled": 0, "rental_uris": {"android": "https://dc.lft.to/lastmile_qr_scan", "ios": "https://dc.lft.to/lastmile_qr_scan"}, "is_reserved": 0, "name": "9b6bcb0e58f732fdc00388077ecc1509", "lon": -77.020024, "type": "electric_scooter", "bike_id": "9b6bcb0e58f732fdc00388077ecc1509", "fusion_lon": 0.0, "lat": 38.897441, "fusion_lat": 0.0}, {"is_disabled": 0, "rental_uris": {"android": "https://dc.lft.to/lastmile_qr_scan", "ios": "https://dc.lft.to/lastmile_qr_scan"}, "is_reserved": 0, "name": "4ba97b19b6b6eed1f1fbaf40222a67dc", "lon": -77.0341585, "type": "electric_scooter", "bike_id": "4ba97b19b6b6eed1f1fbaf40222a67dc", "fusion_lon": 0.0, "lat": 38.93539583333333, "fusion_lat": 0.0}, {"is_disabled": 0, "rental_uris": {"android": "https://dc.lft.to/lastmile_qr_scan", "ios": "https://dc.lft.to/lastmile_qr_scan"}, "is_reserved": 0, "name": "ba5f22236c1e704f1853cdc2839b1b51", "lon": -77.03783966666667, "type": "electric_scooter", "bike_id": "ba5f22236c1e704f1853cdc2839b1b51", "fusion_lon": 0.0, "lat": 38.93023866666667, "fusion_lat": 0.0}, {"is_disabled": 0, "rental_uris": {"android": "https://dc.lft.to/lastmile_qr_scan", "ios": "https://dc.lft.to/lastmile_qr_scan"}, "is_reserved": 0, "name": "f219b114799f16c26fccfb6d25209234", "lon": -76.97619266666666, "type": "electric_scooter", "bike_id": "f219b114799f16c26fccfb6d25209234", "fusion_lon": 0.0, "lat": 38.93141933333333, "fusion_lat": 0.0}, {"is_disabled": 0, "rental_uris": {"android": "https://dc.lft.to/lastmile_qr_scan", "ios": "https://dc.lft.to/lastmile_qr_scan"}, "is_reserved": 0, "name": "c80cd82433327f241e913d2b761ca6cd", "lon": -76.9406, "type": "electric_scooter", "bike_id": "c80cd82433327f241e913d2b761ca6cd", "fusion_lon": 0.0, "lat": 38.890419666666666, "fusion_lat": 0.0}, {"is_disabled": 0, "rental_uris": {"android": "https://dc.lft.to/lastmile_qr_scan", "ios": "https://dc.lft.to/lastmile_qr_scan"}, "is_reserved": 0, "name": "5ed148ca9d43652b7cbf79005e839563", "lon": -77.03174583333333, "type": "electric_scooter", "bike_id": "5ed148ca9d43652b7cbf79005e839563", "fusion_lon": 0.0, "lat": 38.917808666666666, "fusion_lat": 0.0}, {"is_disabled": 0, "rental_uris": {"android": "https://dc.lft.to/lastmile_qr_scan", "ios": "https://dc.lft.to/lastmile_qr_scan"}, "is_reserved": 0, "name": "9ca2e490c2238a0c40faec24c91457dc", "lon": -77.03051916666666, "type": "electric_scooter", "bike_id": "9ca2e490c2238a0c40faec24c91457dc", "fusion_lon": 0.0, "lat": 38.934539, "fusion_lat": 0.0}, {"is_disabled": 0, "rental_uris": {"android": "https://dc.lft.to/lastmile_qr_scan", "ios": "https://dc.lft.to/lastmile_qr_scan"}, "is_reserved": 0, "name": "bb6cac0a8630ee032810e3af1e88b1b0", "lon": -76.98771366666666, "type": "electric_scooter", "bike_id": "bb6cac0a8630ee032810e3af1e88b1b0", "fusion_lon": 0.0, "lat": 38.91169716666667, "fusion_lat": 0.0}, {"is_disabled": 0, "rental_uris": {"android": "https://dc.lft.to/lastmile_qr_scan", "ios": "https://dc.lft.to/lastmile_qr_scan"}, "is_reserved": 0, "name": "be6bfc309424fa0b8373fb074e820c61", "lon": -76.93744083333333, "type": "electric_scooter", "bike_id": "be6bfc309424fa0b8373fb074e820c61", "fusion_lon": 0.0, "lat": 38.89020216666667, "fusion_lat": 0.0}, {"is_disabled": 0, "rental_uris": {"android": "https://dc.lft.to/lastmile_qr_scan", "ios": "https://dc.lft.to/lastmile_qr_scan"}, "is_reserved": 0, "name": "a1e78727297b25a01280cef9b6efd491", "lon": -77.03861466666666, "type": "electric_scooter", "bike_id": "a1e78727297b25a01280cef9b6efd491", "fusion_lon": 0.0, "lat": 38.90779466666667, "fusion_lat": 0.0}, {"is_disabled": 0, "rental_uris": {"android": "https://dc.lft.to/lastmile_qr_scan", "ios": "https://dc.lft.to/lastmile_qr_scan"}, "is_reserved": 0, "name": "24c46e399a5c581cd3db4a7a2b0dcc27", "lon": -77.04721916666666, "type": "electric_scooter", "bike_id": "24c46e399a5c581cd3db4a7a2b0dcc27", "fusion_lon": 0.0, "lat": 38.897412, "fusion_lat": 0.0}, {"is_disabled": 0, "rental_uris": {"android": "https://dc.lft.to/lastmile_qr_scan", "ios": "https://dc.lft.to/lastmile_qr_scan"}, "is_reserved": 0, "name": "65609dda45cf0569a596b69711b0cda6", "lon": -77.03741083333334, "type": "electric_scooter", "bike_id": "65609dda45cf0569a596b69711b0cda6", "fusion_lon": 0.0, "lat": 38.9119635, "fusion_lat": 0.0}, {"is_disabled": 0, "rental_uris": {"android": "https://dc.lft.to/lastmile_qr_scan", "ios": "https://dc.lft.to/lastmile_qr_scan"}, "is_reserved": 0, "name": "750e1b4c84c471caef6dea076c5a629a", "lon": -77.12584716666667, "type": "electric_bike", "bike_id": "750e1b4c84c471caef6dea076c5a629a", "fusion_lon": 0.0, "lat": 38.8514645, "fusion_lat": 0.0}, {"is_disabled": 0, "rental_uris": {"android": "https://dc.lft.to/lastmile_qr_scan", "ios": "https://dc.lft.to/lastmile_qr_scan"}, "is_reserved": 0, "name": "ce771096fa4479c0a86df9154e2d76b6", "lon": -76.98268733333333, "type": "electric_scooter", "bike_id": "ce771096fa4479c0a86df9154e2d76b6", "fusion_lon": 0.0, "lat": 38.885319833333334, "fusion_lat": 0.0}, {"is_disabled": 0, "rental_uris": {"android": "https://dc.lft.to/lastmile_qr_scan", "ios": "https://dc.lft.to/lastmile_qr_scan"}, "is_reserved": 0, "name": "44fff0fa9ae6f6477b8ec74290abb7c3", "lon": -77.0183975, "type": "electric_scooter", "bike_id": "44fff0fa9ae6f6477b8ec74290abb7c3", "fusion_lon": 0.0, "lat": 38.92223883333333, "fusion_lat": 0.0}, {"is_disabled": 0, "rental_uris": {"android": "https://dc.lft.to/lastmile_qr_scan", "ios": "https://dc.lft.to/lastmile_qr_scan"}, "is_reserved": 0, "name": "a911a4578abae9bd121d4e9608636b73", "lon": -76.93228016666667, "type": "electric_bike", "bike_id": "a911a4578abae9bd121d4e9608636b73", "fusion_lon": 0.0, "lat": 38.865930666666664, "fusion_lat": 0.0}, {"is_disabled": 0, "rental_uris": {"android": "https://dc.lft.to/lastmile_qr_scan", "ios": "https://dc.lft.to/lastmile_qr_scan"}, "is_reserved": 0, "name": "97466a20ca1b57ce57a269ea4df4f6fe", "lon": -76.99632183333334, "type": "electric_scooter", "bike_id": "97466a20ca1b57ce57a269ea4df4f6fe", "fusion_lon": 0.0, "lat": 38.846199, "fusion_lat": 0.0}, {"is_disabled": 0, "rental_uris": {"android": "https://dc.lft.to/lastmile_qr_scan", "ios": "https://dc.lft.to/lastmile_qr_scan"}, "is_reserved": 0, "name": "07b6da76eb4e1304ad0167e5254f5fa3", "lon": -77.03173966666667, "type": "electric_scooter", "bike_id": "07b6da76eb4e1304ad0167e5254f5fa3", "fusion_lon": 0.0, "lat": 38.91419033333333, "fusion_lat": 0.0}, {"is_disabled": 0, "rental_uris": {"android": "https://dc.lft.to/lastmile_qr_scan", "ios": "https://dc.lft.to/lastmile_qr_scan"}, "is_reserved": 0, "name": "ee5ec7dd7df5654c4573eef56e9a0844", "lon": -77.03920466666666, "type": "electric_scooter", "bike_id": "ee5ec7dd7df5654c4573eef56e9a0844", "fusion_lon": 0.0, "lat": 38.91912716666667, "fusion_lat": 0.0}, {"is_disabled": 0, "rental_uris": {"android": "https://dc.lft.to/lastmile_qr_scan", "ios": "https://dc.lft.to/lastmile_qr_scan"}, "is_reserved": 0, "name": "c7fd3bff115d58c9dbdb22dd155c17ce", "lon": -77.12737583333333, "type": "electric_bike", "bike_id": "c7fd3bff115d58c9dbdb22dd155c17ce", "fusion_lon": 0.0, "lat": 38.8956695, "fusion_lat": 0.0}, {"is_disabled": 0, "rental_uris": {"android": "https://dc.lft.to/lastmile_qr_scan", "ios": "https://dc.lft.to/lastmile_qr_scan"}, "is_reserved": 0, "name": "113f54fe47a568b71b20d11524427f33", "lon": -77.03649316666667, "type": "electric_scooter", "bike_id": "113f54fe47a568b71b20d11524427f33", "fusion_lon": 0.0, "lat": 38.92799383333333, "fusion_lat": 0.0}, {"is_disabled": 0, "rental_uris": {"android": "https://dc.lft.to/lastmile_qr_scan", "ios": "https://dc.lft.to/lastmile_qr_scan"}, "is_reserved": 0, "name": "de62686599a10af7002cf9c199af3475", "lon": -77.04040666666667, "type": "electric_scooter", "bike_id": "de62686599a10af7002cf9c199af3475", "fusion_lon": 0.0, "lat": 38.900307, "fusion_lat": 0.0}, {"is_disabled": 0, "rental_uris": {"android": "https://dc.lft.to/lastmile_qr_scan", "ios": "https://dc.lft.to/lastmile_qr_scan"}, "is_reserved": 0, "name": "847fda1bd7a6247d0c196576c98383c7", "lon": -77.04155733333333, "type": "electric_scooter", "bike_id": "847fda1bd7a6247d0c196576c98383c7", "fusion_lon": 0.0, "lat": 38.914209, "fusion_lat": 0.0}, {"is_disabled": 0, "rental_uris": {"android": "https://dc.lft.to/lastmile_qr_scan", "ios": "https://dc.lft.to/lastmile_qr_scan"}, "is_reserved": 0, "name": "58445b17e31c673634915e8f9e294f14", "lon": -77.03337916666666, "type": "electric_scooter", "bike_id": "58445b17e31c673634915e8f9e294f14", "fusion_lon": 0.0, "lat": 38.91800666666666, "fusion_lat": 0.0}, {"is_disabled": 0, "rental_uris": {"android": "https://dc.lft.to/lastmile_qr_scan", "ios": "https://dc.lft.to/lastmile_qr_scan"}, "is_reserved": 0, "name": "1a38dfb3064ed4e0232549da20b9101b", "lon": -76.93054366666667, "type": "electric_scooter", "bike_id": "1a38dfb3064ed4e0232549da20b9101b", "fusion_lon": 0.0, "lat": 38.89794083333334, "fusion_lat": 0.0}, {"is_disabled": 0, "rental_uris": {"android": "https://dc.lft.to/lastmile_qr_scan", "ios": "https://dc.lft.to/lastmile_qr_scan"}, "is_reserved": 0, "name": "f5e3397a610e2a00fcdbdcdcf68956f3", "lon": -77.02319133333333, "type": "electric_scooter", "bike_id": "f5e3397a610e2a00fcdbdcdcf68956f3", "fusion_lon": 0.0, "lat": 38.920921166666666, "fusion_lat": 0.0}, {"is_disabled": 0, "rental_uris": {"android": "https://dc.lft.to/lastmile_qr_scan", "ios": "https://dc.lft.to/lastmile_qr_scan"}, "is_reserved": 0, "name": "a985b9621dcc223ab49a511bdc374fd0", "lon": -77.02164566666667, "type": "electric_scooter", "bike_id": "a985b9621dcc223ab49a511bdc374fd0", "fusion_lon": 0.0, "lat": 38.8948935, "fusion_lat": 0.0}, {"is_disabled": 0, "rental_uris": {"android": "https://dc.lft.to/lastmile_qr_scan", "ios": "https://dc.lft.to/lastmile_qr_scan"}, "is_reserved": 0, "name": "723c1380b46c376e3a6408a68386f547", "lon": -77.0222645, "type": "electric_scooter", "bike_id": "723c1380b46c376e3a6408a68386f547", "fusion_lon": 0.0, "lat": 38.935471166666666, "fusion_lat": 0.0}, {"is_disabled": 0, "rental_uris": {"android": "https://dc.lft.to/lastmile_qr_scan", "ios": "https://dc.lft.to/lastmile_qr_scan"}, "is_reserved": 0, "name": "4feec574a3343fa6444830c2a18935f0", "lon": -77.03209266666667, "type": "electric_scooter", "bike_id": "4feec574a3343fa6444830c2a18935f0", "fusion_lon": 0.0, "lat": 38.920067333333336, "fusion_lat": 0.0}, {"is_disabled": 0, "rental_uris": {"android": "https://dc.lft.to/lastmile_qr_scan", "ios": "https://dc.lft.to/lastmile_qr_scan"}, "is_reserved": 0, "name": "fa5443e9ca809cb621f716da06a49393", "lon": -77.03241016666666, "type": "electric_scooter", "bike_id": "fa5443e9ca809cb621f716da06a49393", "fusion_lon": 0.0, "lat": 38.918308333333336, "fusion_lat": 0.0}, {"is_disabled": 0, "rental_uris": {"android": "https://dc.lft.to/lastmile_qr_scan", "ios": "https://dc.lft.to/lastmile_qr_scan"}, "is_reserved": 0, "name": "058d4714e76efc655edfc6b299242f1f", "lon": -77.014741, "type": "electric_scooter", "bike_id": "058d4714e76efc655edfc6b299242f1f", "fusion_lon": 0.0, "lat": 38.91763816666667, "fusion_lat": 0.0}, {"is_disabled": 0, "rental_uris": {"android": "https://dc.lft.to/lastmile_qr_scan", "ios": "https://dc.lft.to/lastmile_qr_scan"}, "is_reserved": 0, "name": "755f73b93b29c066cb019b944bc437aa", "lon": -77.04364366666667, "type": "electric_scooter", "bike_id": "755f73b93b29c066cb019b944bc437aa", "fusion_lon": 0.0, "lat": 38.90245983333333, "fusion_lat": 0.0}, {"is_disabled": 0, "rental_uris": {"android": "https://dc.lft.to/lastmile_qr_scan", "ios": "https://dc.lft.to/lastmile_qr_scan"}, "is_reserved": 0, "name": "4a02ed15a9f07fad1d7d7cff2a902a0a", "lon": -77.01536666666667, "type": "electric_scooter", "bike_id": "4a02ed15a9f07fad1d7d7cff2a902a0a", "fusion_lon": 0.0, "lat": 38.887432833333335, "fusion_lat": 0.0}, {"is_disabled": 0, "rental_uris": {"android": "https://dc.lft.to/lastmile_qr_scan", "ios": "https://dc.lft.to/lastmile_qr_scan"}, "is_reserved": 0, "name": "4bb8f7299d9fe43e854034465c349b05", "lon": -77.007102, "type": "electric_scooter", "bike_id": "4bb8f7299d9fe43e854034465c349b05", "fusion_lon": 0.0, "lat": 38.88496416666667, "fusion_lat": 0.0}, {"is_disabled": 0, "rental_uris": {"android": "https://dc.lft.to/lastmile_qr_scan", "ios": "https://dc.lft.to/lastmile_qr_scan"}, "is_reserved": 0, "name": "aeb982ec7ee56928ca45e06622dfcb1e", "lon": -77.01508716666666, "type": "electric_scooter", "bike_id": "aeb982ec7ee56928ca45e06622dfcb1e", "fusion_lon": 0.0, "lat": 38.872614666666664, "fusion_lat": 0.0}, {"is_disabled": 0, "rental_uris": {"android": "https://dc.lft.to/lastmile_qr_scan", "ios": "https://dc.lft.to/lastmile_qr_scan"}, "is_reserved": 0, "name": "c50b6c92630508ef540047712260cbcb", "lon": -77.01109933333333, "type": "electric_scooter", "bike_id": "c50b6c92630508ef540047712260cbcb", "fusion_lon": 0.0, "lat": 38.909698, "fusion_lat": 0.0}, {"is_disabled": 0, "rental_uris": {"android": "https://dc.lft.to/lastmile_qr_scan", "ios": "https://dc.lft.to/lastmile_qr_scan"}, "is_reserved": 0, "name": "d7355eea79c893db81c83471e277883e", "lon": -76.983497, "type": "electric_scooter", "bike_id": "d7355eea79c893db81c83471e277883e", "fusion_lon": 0.0, "lat": 38.9154355, "fusion_lat": 0.0}, {"is_disabled": 0, "rental_uris": {"android": "https://dc.lft.to/lastmile_qr_scan", "ios": "https://dc.lft.to/lastmile_qr_scan"}, "is_reserved": 0, "name": "10a9bb1ad6ef669ecdaaf061cf1cf6fc", "lon": -77.03140766666667, "type": "electric_scooter", "bike_id": "10a9bb1ad6ef669ecdaaf061cf1cf6fc", "fusion_lon": 0.0, "lat": 38.92483333333333, "fusion_lat": 0.0}, {"is_disabled": 0, "rental_uris": {"android": "https://dc.lft.to/lastmile_qr_scan", "ios": "https://dc.lft.to/lastmile_qr_scan"}, "is_reserved": 0, "name": "6e3e3dce63f8c3e4e5a7fff364e1c39d", "lon": -77.04088266666666, "type": "electric_scooter", "bike_id": "6e3e3dce63f8c3e4e5a7fff364e1c39d", "fusion_lon": 0.0, "lat": 38.900278, "fusion_lat": 0.0}, {"is_disabled": 0, "rental_uris": {"android": "https://dc.lft.to/lastmile_qr_scan", "ios": "https://dc.lft.to/lastmile_qr_scan"}, "is_reserved": 0, "name": "48bed905f9648d5535a798a5b84df9aa", "lon": -77.03659933333333, "type": "electric_scooter", "bike_id": "48bed905f9648d5535a798a5b84df9aa", "fusion_lon": 0.0, "lat": 38.9124435, "fusion_lat": 0.0}, {"is_disabled": 0, "rental_uris": {"android": "https://dc.lft.to/lastmile_qr_scan", "ios": "https://dc.lft.to/lastmile_qr_scan"}, "is_reserved": 0, "name": "cc34667600584249869ddf45635e034a", "lon": -77.03983766666667, "type": "electric_bike", "bike_id": "cc34667600584249869ddf45635e034a", "fusion_lon": 0.0, "lat": 38.802978333333336, "fusion_lat": 0.0}, {"is_disabled": 0, "rental_uris": {"android": "https://dc.lft.to/lastmile_qr_scan", "ios": "https://dc.lft.to/lastmile_qr_scan"}, "is_reserved": 0, "name": "7624f231079cde12c7fa01c20272d7c0", "lon": -77.039897, "type": "electric_scooter", "bike_id": "7624f231079cde12c7fa01c20272d7c0", "fusion_lon": 0.0, "lat": 38.907287833333335, "fusion_lat": 0.0}, {"is_disabled": 0, "rental_uris": {"android": "https://dc.lft.to/lastmile_qr_scan", "ios": "https://dc.lft.to/lastmile_qr_scan"}, "is_reserved": 0, "name": "ebba5e8b5184ff2ba6f865269bbc3195", "lon": -76.99536066666667, "type": "electric_scooter", "bike_id": "ebba5e8b5184ff2ba6f865269bbc3195", "fusion_lon": 0.0, "lat": 38.86253683333333, "fusion_lat": 0.0}, {"is_disabled": 0, "rental_uris": {"android": "https://dc.lft.to/lastmile_qr_scan", "ios": "https://dc.lft.to/lastmile_qr_scan"}, "is_reserved": 0, "name": "8e57dc9941b027b5173d04e015b8dd79", "lon": -77.022205, "type": "electric_scooter", "bike_id": "8e57dc9941b027b5173d04e015b8dd79", "fusion_lon": 0.0, "lat": 38.912715, "fusion_lat": 0.0}, {"is_disabled": 0, "rental_uris": {"android": "https://dc.lft.to/lastmile_qr_scan", "ios": "https://dc.lft.to/lastmile_qr_scan"}, "is_reserved": 0, "name": "a319fd40a5ee6ce37f45b8e82f08fc17", "lon": -77.02999333333334, "type": "electric_scooter", "bike_id": "a319fd40a5ee6ce37f45b8e82f08fc17", "fusion_lon": 0.0, "lat": 38.924827, "fusion_lat": 0.0}, {"is_disabled": 0, "rental_uris": {"android": "https://dc.lft.to/lastmile_qr_scan", "ios": "https://dc.lft.to/lastmile_qr_scan"}, "is_reserved": 0, "name": "b42f1681b1251402bdc696f27add77cd", "lon": -77.09572533333333, "type": "electric_bike", "bike_id": "b42f1681b1251402bdc696f27add77cd", "fusion_lon": 0.0, "lat": 38.916829666666665, "fusion_lat": 0.0}, {"is_disabled": 0, "rental_uris": {"android": "https://dc.lft.to/lastmile_qr_scan", "ios": "https://dc.lft.to/lastmile_qr_scan"}, "is_reserved": 0, "name": "c99cea1f316551f2b00a6523a88cba2c", "lon": -77.01747016666667, "type": "electric_scooter", "bike_id": "c99cea1f316551f2b00a6523a88cba2c", "fusion_lon": 0.0, "lat": 38.88320083333333, "fusion_lat": 0.0}, {"is_disabled": 0, "rental_uris": {"android": "https://dc.lft.to/lastmile_qr_scan", "ios": "https://dc.lft.to/lastmile_qr_scan"}, "is_reserved": 0, "name": "63dac057b7718302b1ba5dff02ea5406", "lon": -77.024136, "type": "electric_scooter", "bike_id": "63dac057b7718302b1ba5dff02ea5406", "fusion_lon": 0.0, "lat": 38.91255366666667, "fusion_lat": 0.0}, {"is_disabled": 0, "rental_uris": {"android": "https://dc.lft.to/lastmile_qr_scan", "ios": "https://dc.lft.to/lastmile_qr_scan"}, "is_reserved": 0, "name": "eb6390c8c2ebfdd9e8487fe3993f669c", "lon": -77.05755, "type": "electric_bike", "bike_id": "eb6390c8c2ebfdd9e8487fe3993f669c", "fusion_lon": 0.0, "lat": 38.9244095, "fusion_lat": 0.0}, {"is_disabled": 0, "rental_uris": {"android": "https://dc.lft.to/lastmile_qr_scan", "ios": "https://dc.lft.to/lastmile_qr_scan"}, "is_reserved": 0, "name": "1e65c65c7267f91c127eaf10e1bcd6a6", "lon": -77.0499425, "type": "electric_scooter", "bike_id": "1e65c65c7267f91c127eaf10e1bcd6a6", "fusion_lon": 0.0, "lat": 38.897303, "fusion_lat": 0.0}, {"is_disabled": 0, "rental_uris": {"android": "https://dc.lft.to/lastmile_qr_scan", "ios": "https://dc.lft.to/lastmile_qr_scan"}, "is_reserved": 0, "name": "7bf50aa3517455ff0906b46904d4afa2", "lon": -76.94636916666667, "type": "electric_scooter", "bike_id": "7bf50aa3517455ff0906b46904d4afa2", "fusion_lon": 0.0, "lat": 38.89844316666667, "fusion_lat": 0.0}, {"is_disabled": 0, "rental_uris": {"android": "https://dc.lft.to/lastmile_qr_scan", "ios": "https://dc.lft.to/lastmile_qr_scan"}, "is_reserved": 0, "name": "e93b0cead5280366de025533ac02b3d8", "lon": -77.05050283333334, "type": "electric_scooter", "bike_id": "e93b0cead5280366de025533ac02b3d8", "fusion_lon": 0.0, "lat": 38.916689166666664, "fusion_lat": 0.0}, {"is_disabled": 0, "rental_uris": {"android": "https://dc.lft.to/lastmile_qr_scan", "ios": "https://dc.lft.to/lastmile_qr_scan"}, "is_reserved": 0, "name": "e15063f6c1ffe8d5b962dcf0ca40363f", "lon": -76.99630766666667, "type": "electric_scooter", "bike_id": "e15063f6c1ffe8d5b962dcf0ca40363f", "fusion_lon": 0.0, "lat": 38.900336, "fusion_lat": 0.0}, {"is_disabled": 0, "rental_uris": {"android": "https://dc.lft.to/lastmile_qr_scan", "ios": "https://dc.lft.to/lastmile_qr_scan"}, "is_reserved": 0, "name": "036bf042721ddeef1f4659747cbd0cc1", "lon": -77.03207616666667, "type": "electric_scooter", "bike_id": "036bf042721ddeef1f4659747cbd0cc1", "fusion_lon": 0.0, "lat": 38.90735516666667, "fusion_lat": 0.0}, {"is_disabled": 0, "rental_uris": {"android": "https://dc.lft.to/lastmile_qr_scan", "ios": "https://dc.lft.to/lastmile_qr_scan"}, "is_reserved": 0, "name": "a087e3f47ed808196b687ebeb7a65c0e", "lon": -77.03311316666667, "type": "electric_scooter", "bike_id": "a087e3f47ed808196b687ebeb7a65c0e", "fusion_lon": 0.0, "lat": 38.91819233333333, "fusion_lat": 0.0}, {"is_disabled": 0, "rental_uris": {"android": "https://dc.lft.to/lastmile_qr_scan", "ios": "https://dc.lft.to/lastmile_qr_scan"}, "is_reserved": 0, "name": "43f4290b98fb2cbe04bb0c4e617ed65e", "lon": -77.026951, "type": "electric_scooter", "bike_id": "43f4290b98fb2cbe04bb0c4e617ed65e", "fusion_lon": 0.0, "lat": 38.9363375, "fusion_lat": 0.0}, {"is_disabled": 0, "rental_uris": {"android": "https://dc.lft.to/lastmile_qr_scan", "ios": "https://dc.lft.to/lastmile_qr_scan"}, "is_reserved": 0, "name": "2975e6fb161e00587ea04702a9062c17", "lon": -77.04503633333333, "type": "electric_scooter", "bike_id": "2975e6fb161e00587ea04702a9062c17", "fusion_lon": 0.0, "lat": 38.921352, "fusion_lat": 0.0}, {"is_disabled": 0, "rental_uris": {"android": "https://dc.lft.to/lastmile_qr_scan", "ios": "https://dc.lft.to/lastmile_qr_scan"}, "is_reserved": 0, "name": "5b60404bac92f4d466cdb31fe638bbcc", "lon": -77.00922933333334, "type": "electric_bike", "bike_id": "5b60404bac92f4d466cdb31fe638bbcc", "fusion_lon": 0.0, "lat": 38.978496666666665, "fusion_lat": 0.0}, {"is_disabled": 0, "rental_uris": {"android": "https://dc.lft.to/lastmile_qr_scan", "ios": "https://dc.lft.to/lastmile_qr_scan"}, "is_reserved": 0, "name": "aa1cf93d71912339d5088313a7497707", "lon": -77.03520966666666, "type": "electric_bike", "bike_id": "aa1cf93d71912339d5088313a7497707", "fusion_lon": 0.0, "lat": 38.9359795, "fusion_lat": 0.0}, {"is_disabled": 0, "rental_uris": {"android": "https://dc.lft.to/lastmile_qr_scan", "ios": "https://dc.lft.to/lastmile_qr_scan"}, "is_reserved": 0, "name": "5219458f30d41e2feaccd501fef80b96", "lon": -77.03871366666667, "type": "electric_scooter", "bike_id": "5219458f30d41e2feaccd501fef80b96", "fusion_lon": 0.0, "lat": 38.92152433333333, "fusion_lat": 0.0}, {"is_disabled": 0, "rental_uris": {"android": "https://dc.lft.to/lastmile_qr_scan", "ios": "https://dc.lft.to/lastmile_qr_scan"}, "is_reserved": 0, "name": "811f35ceebdea399f3a09ee5b665da03", "lon": -77.03172, "type": "electric_scooter", "bike_id": "811f35ceebdea399f3a09ee5b665da03", "fusion_lon": 0.0, "lat": 38.893641833333334, "fusion_lat": 0.0}, {"is_disabled": 0, "rental_uris": {"android": "https://dc.lft.to/lastmile_qr_scan", "ios": "https://dc.lft.to/lastmile_qr_scan"}, "is_reserved": 0, "name": "bf2bacf447970aead74f342e67a69319", "lon": -77.05149683333333, "type": "electric_scooter", "bike_id": "bf2bacf447970aead74f342e67a69319", "fusion_lon": 0.0, "lat": 38.89763966666666, "fusion_lat": 0.0}, {"is_disabled": 0, "rental_uris": {"android": "https://dc.lft.to/lastmile_qr_scan", "ios": "https://dc.lft.to/lastmile_qr_scan"}, "is_reserved": 0, "name": "8311d6f42e69336c88a242638377b6f1", "lon": -76.98990883333333, "type": "electric_scooter", "bike_id": "8311d6f42e69336c88a242638377b6f1", "fusion_lon": 0.0, "lat": 38.8643, "fusion_lat": 0.0}, {"is_disabled": 0, "rental_uris": {"android": "https://dc.lft.to/lastmile_qr_scan", "ios": "https://dc.lft.to/lastmile_qr_scan"}, "is_reserved": 0, "name": "8503f605d0c791168cc068638457239c", "lon": -77.038528, "type": "electric_scooter", "bike_id": "8503f605d0c791168cc068638457239c", "fusion_lon": 0.0, "lat": 38.92167833333333, "fusion_lat": 0.0}, {"is_disabled": 0, "rental_uris": {"android": "https://dc.lft.to/lastmile_qr_scan", "ios": "https://dc.lft.to/lastmile_qr_scan"}, "is_reserved": 0, "name": "d8507c2878f13ac293a78d6ea1c22fe4", "lon": -77.04193316666667, "type": "electric_scooter", "bike_id": "d8507c2878f13ac293a78d6ea1c22fe4", "fusion_lon": 0.0, "lat": 38.926216833333335, "fusion_lat": 0.0}, {"is_disabled": 0, "rental_uris": {"android": "https://dc.lft.to/lastmile_qr_scan", "ios": "https://dc.lft.to/lastmile_qr_scan"}, "is_reserved": 0, "name": "e7c709811dccdbb1e9238c0899d067af", "lon": -77.04316066666667, "type": "electric_scooter", "bike_id": "e7c709811dccdbb1e9238c0899d067af", "fusion_lon": 0.0, "lat": 38.91874, "fusion_lat": 0.0}, {"is_disabled": 0, "rental_uris": {"android": "https://dc.lft.to/lastmile_qr_scan", "ios": "https://dc.lft.to/lastmile_qr_scan"}, "is_reserved": 0, "name": "78bf6f713e49347e2e8c7eacd780b581", "lon": -77.03122116666667, "type": "electric_scooter", "bike_id": "78bf6f713e49347e2e8c7eacd780b581", "fusion_lon": 0.0, "lat": 38.92390983333333, "fusion_lat": 0.0}, {"is_disabled": 0, "rental_uris": {"android": "https://dc.lft.to/lastmile_qr_scan", "ios": "https://dc.lft.to/lastmile_qr_scan"}, "is_reserved": 0, "name": "5ca2ad1ac87d4a2dc780e528f9927ace", "lon": -76.98710533333333, "type": "electric_scooter", "bike_id": "5ca2ad1ac87d4a2dc780e528f9927ace", "fusion_lon": 0.0, "lat": 38.866999, "fusion_lat": 0.0}, {"is_disabled": 0, "rental_uris": {"android": "https://dc.lft.to/lastmile_qr_scan", "ios": "https://dc.lft.to/lastmile_qr_scan"}, "is_reserved": 0, "name": "677b9f8240cd4a8ba13941c5c67ff284", "lon": -77.00607066666667, "type": "electric_scooter", "bike_id": "677b9f8240cd4a8ba13941c5c67ff284", "fusion_lon": 0.0, "lat": 38.90575883333333, "fusion_lat": 0.0}, {"is_disabled": 0, "rental_uris": {"android": "https://dc.lft.to/lastmile_qr_scan", "ios": "https://dc.lft.to/lastmile_qr_scan"}, "is_reserved": 0, "name": "935b40b6659a5efeac405fcb36099f12", "lon": -77.00917666666666, "type": "electric_scooter", "bike_id": "935b40b6659a5efeac405fcb36099f12", "fusion_lon": 0.0, "lat": 38.897813, "fusion_lat": 0.0}, {"is_disabled": 0, "rental_uris": {"android": "https://dc.lft.to/lastmile_qr_scan", "ios": "https://dc.lft.to/lastmile_qr_scan"}, "is_reserved": 0, "name": "0ee0a60c7f95df494a0eb6237e9d0592", "lon": -77.02695866666667, "type": "electric_scooter", "bike_id": "0ee0a60c7f95df494a0eb6237e9d0592", "fusion_lon": 0.0, "lat": 38.90736233333333, "fusion_lat": 0.0}, {"is_disabled": 0, "rental_uris": {"android": "https://dc.lft.to/lastmile_qr_scan", "ios": "https://dc.lft.to/lastmile_qr_scan"}, "is_reserved": 0, "name": "2d1c83008468cd376bc1a75a66a5bbcc", "lon": -77.04203683333333, "type": "electric_scooter", "bike_id": "2d1c83008468cd376bc1a75a66a5bbcc", "fusion_lon": 0.0, "lat": 38.9296855, "fusion_lat": 0.0},