{"data": {"bikes": [{"type": "electric_scooter", "fusion_lon": 0.0, "bike_id": "78c8384a9619f10c763cf53f04f186c3", "is_disabled": 0, "lat": 38.92254916666667, "rental_uris": {"ios": "https://dc.lft.to/lastmile_qr_scan", "android": "https://dc.lft.to/lastmile_qr_scan"}, "is_reserved": 0, "lon": -77.019466, "fusion_lat": 0.0, "name": "78c8384a9619f10c763cf53f04f186c3"}, {"type": "electric_scooter", "fusion_lon": 0.0, "bike_id": "c484cceaa71b7cf5dd1f6591fe2d2822", "is_disabled": 0, "lat": 38.92885916666667, "rental_uris": {"ios": "https://dc.lft.to/lastmile_qr_scan", "android": "https://dc.lft.to/lastmile_qr_scan"}, "is_reserved": 0, "lon": -77.03350716666667, "fusion_lat": 0.0, "name": "c484cceaa71b7cf5dd1f6591fe2d2822"}, {"type": "electric_bike", "fusion_lon": 0.0, "bike_id": "d427d53509506928a3c7b1902dea2191", "is_disabled": 0, "lat": 38.900376333333334, "rental_uris": {"ios": "https://dc.lft.to/lastmile_qr_scan", "android": "https://dc.lft.to/lastmile_qr_scan"}, "is_reserved": 0, "lon": -76.97227266666667, "fusion_lat": 0.0, "name": "d427d53509506928a3c7b1902dea2191"}, {"type": "electric_scooter", "fusion_lon": 0.0, "bike_id": "0c0021060141fa67e33e420a03836920", "is_disabled": 0, "lat": 38.900530333333336, "rental_uris": {"ios": "https://dc.lft.to/lastmile_qr_scan", "android": "https://dc.lft.to/lastmile_qr_scan"}, "is_reserved": 0, "lon": -76.9884235, "fusion_lat": 0.0, "name": "0c0021060141fa67e33e420a03836920"}, {"type": "electric_scooter", "fusion_lon": 0.0, "bike_id": "4fa0701a4ada4bb7b51ae7480fd43b82", "is_disabled": 0, "lat": 38.904180333333336, "rental_uris": {"ios": "https://dc.lft.to/lastmile_qr_scan", "android": "https://dc.lft.to/lastmile_qr_scan"}, "is_reserved": 0, "lon": -77.06770233333333, "fusion_lat": 0.0, "name": "4fa0701a4ada4bb7b51ae7480fd43b82"}, {"type": "electric_scooter", "fusion_lon": 0.0, "bike_id": "4b9e1e79e094d40ffbd688772bc1596a", "is_disabled": 0, "lat": 38.95767266666667, "rental_uris": {"ios": "https://dc.lft.to/lastmile_qr_scan", "android": "https://dc.lft.to/lastmile_qr_scan"}, "is_reserved": 0, "lon": -77.0149615, "fusion_lat": 0.0, "name": "4b9e1e79e094d40ffbd688772bc1596a"}, {"type": "electric_scooter", "fusion_lon": 0.0, "bike_id": "a10f588d99292223b6755138cf68ee25", "is_disabled": 0, "lat": 38.901490333333335, "rental_uris": {"ios": "https://dc.lft.to/lastmile_qr_scan", "android": "https://dc.lft.to/lastmile_qr_scan"}, "is_reserved": 0, "lon": -77.05911583333334, "fusion_lat": 0.0, "name": "a10f588d99292223b6755138cf68ee25"}, {"type": "electric_scooter", "fusion_lon": 0.0, "bike_id": "253e1256ae2f0a6c1470201d68bc4fe5", "is_disabled": 0, "lat": 38.924505, "rental_uris": {"ios": "https://dc.lft.to/lastmile_qr_scan", "android": "https://dc.lft.to/lastmile_qr_scan"}, "is_reserved": 0, "lon": -77.03894916666667, "fusion_lat": 0.0, "name": "253e1256ae2f0a6c1470201d68bc4fe5"}, {"type": "electric_scooter", "fusion_lon": 0.0, "bike_id": "49aa1a015ef1a30aa24079b186d0c3a7", "is_disabled": 0, "lat": 38.87676066666667, "rental_uris": {"ios": "https://dc.lft.to/lastmile_qr_scan", "android": "https://dc.lft.to/lastmile_qr_scan"}, "is_reserved": 0, "lon": -76.93120433333333, "fusion_lat": 0.0, "name": "49aa1a015ef1a30aa24079b186d0c3a7"}, {"type": "electric_scooter", "fusion_lon": 0.0, "bike_id": "f9dd06fcac904e5c7517cf1632645cc2", "is_disabled": 0, "lat": 38.9424475, "rental_uris": {"ios": "https://dc.lft.to/lastmile_qr_scan", "android": "https://dc.lft.to/lastmile_qr_scan"}, "is_reserved": 0, "lon": -77.05874466666667, "fusion_lat": 0.0, "name": "f9dd06fcac904e5c7517cf1632645cc2"}, {"type": "electric_scooter", "fusion_lon": 0.0, "bike_id": "fa3265640377be417c1480cc08e9ff7c", "is_disabled": 0, "lat": 38.935186333333334, "rental_uris": {"ios": "https://dc.lft.to/lastmile_qr_scan", "android": "https://dc.lft.to/lastmile_qr_scan"}, "is_reserved": 0, "lon": -77.05431833333333, "fusion_lat": 0.0, "name": "fa3265640377be417c1480cc08e9ff7c"}, {"type": "electric_scooter", "fusion_lon": 0.0, "bike_id": "b3738ed255d1a3c9875a86559b72aff7", "is_disabled": 0, "lat": 38.90173866666667, "rental_uris": {"ios": "https://dc.lft.to/lastmile_qr_scan", "android": "https://dc.lft.to/lastmile_qr_scan"}, "is_reserved": 0, "lon": -77.02484683333333, "fusion_lat": 0.0, "name": "b3738ed255d1a3c9875a86559b72aff7"}, {"type": "electric_scooter", "fusion_lon": 0.0, "bike_id": "4810dba8a421ad5bd3b771f8aacae658", "is_disabled": 0, "lat": 38.877676, "rental_uris": {"ios": "https://dc.lft.to/lastmile_qr_scan", "android": "https://dc.lft.to/lastmile_qr_scan"}, "is_reserved": 0, "lon": -76.99607766666666, "fusion_lat": 0.0, "name": "4810dba8a421ad5bd3b771f8aacae658"}, {"type": "electric_scooter", "fusion_lon": 0.0, "bike_id": "da24e7f33a30fc12578b04da046ad7c2", "is_disabled": 0, "lat": 38.905228666666666, "rental_uris": {"ios": "https://dc.lft.to/lastmile_qr_scan", "android": "https://dc.lft.to/lastmile_qr_scan"}, "is_reserved": 0, "lon": -77.050827, "fusion_lat": 0.0, "name": "da24e7f33a30fc12578b04da046ad7c2"}, {"type": "electric_scooter", "fusion_lon": 0.0, "bike_id": "9eae30f7209feceebee90bab37e51063", "is_disabled": 0, "lat": 38.94985783333333, "rental_uris": {"ios": "https://dc.lft.to/lastmile_qr_scan", "android": "https://dc.lft.to/lastmile_qr_scan"}, "is_reserved": 0, "lon": -77.024434, "fusion_lat": 0.0, "name": "9eae30f7209feceebee90bab37e51063"}, {"type": "electric_scooter", "fusion_lon": 0.0, "bike_id": "8063d30b0bd87df01a0ff7ee4be1583f", "is_disabled": 0, "lat": 38.926544166666666, "rental_uris": {"ios": "https://dc.lft.to/lastmile_qr_scan", "android": "https://dc.lft.to/lastmile_qr_scan"}, "is_reserved": 0, "lon": -77.02430566666666, "fusion_lat": 0.0, "name": "8063d30b0bd87df01a0ff7ee4be1583f"}, {"type": "electric_scooter", "fusion_lon": 0.0, "bike_id": "2e1cd7b34f8fcb0d2f6824fe47635ad5", "is_disabled": 0, "lat": 38.89653283333333, "rental_uris": {"ios": "https://dc.lft.to/lastmile_qr_scan", "android": "https://dc.lft.to/lastmile_qr_scan"}, "is_reserved": 0, "lon": -77.04006433333333, "fusion_lat": 0.0, "name": "2e1cd7b34f8fcb0d2f6824fe47635ad5"}, {"type": "electric_scooter", "fusion_lon": 0.0, "bike_id": "f4b4a877d253c3cbfa2b7b0a830e48c2", "is_disabled": 0, "lat": 38.88759016666667, "rental_uris": {"ios": "https://dc.lft.to/lastmile_qr_scan", "android": "https://dc.lft.to/lastmile_qr_scan"}, "is_reserved": 0, "lon": -76.99230616666667, "fusion_lat": 0.0, "name": "f4b4a877d253c3cbfa2b7b0a830e48c2"}, {"type": "electric_scooter", "fusion_lon": 0.0, "bike_id": "87a4886728740f8ecc427d79acc0f579", "is_disabled": 0, "lat": 38.89841216666667, "rental_uris": {"ios": "https://dc.lft.to/lastmile_qr_scan", "android": "https://dc.lft.to/lastmile_qr_scan"}, "is_reserved": 0, "lon": -77.02846, "fusion_lat": 0.0, "name": "87a4886728740f8ecc427d79acc0f579"}, {"type": "electric_scooter", "fusion_lon": 0.0, "bike_id": "311953d01be7312d315f169435c7467e", "is_disabled": 0, "lat": 38.91420516666667, "rental_uris": {"ios": "https://dc.lft.to/lastmile_qr_scan", "android": "https://dc.lft.to/lastmile_qr_scan"}, "is_reserved": 0, "lon": -77.03546833333333, "fusion_lat": 0.0, "name": "311953d01be7312d315f169435c7467e"}, {"type": "electric_scooter", "fusion_lon": 0.0, "bike_id": "93d5a8bb2210f7f1e7b91ebc7ab63174", "is_disabled": 0, "lat": 38.89259783333333, "rental_uris": {"ios": "https://dc.lft.to/lastmile_qr_scan", "android": "https://dc.lft.to/lastmile_qr_scan"}, "is_reserved": 0, "lon": -77.02205866666667, "fusion_lat": 0.0, "name": "93d5a8bb2210f7f1e7b91ebc7ab63174"}, {"type": "electric_scooter", "fusion_lon": 0.0, "bike_id": "a34b007a66cd679a32c28d49faa0afbe", "is_disabled": 0, "lat": 38.905996, "rental_uris": {"ios": "https://dc.lft.to/lastmile_qr_scan", "android": "https://dc.lft.to/lastmile_qr_scan"}, "is_reserved": 0, "lon": -77.00691316666666, "fusion_lat": 0.0, "name": "a34b007a66cd679a32c28d49faa0afbe"}, {"type": "electric_scooter", "fusion_lon": 0.0, "bike_id": "c02ecac407e30e4d46373d3aa729a572", "is_disabled": 0, "lat": 38.887364, "rental_uris": {"ios": "https://dc.lft.to/lastmile_qr_scan", "android": "https://dc.lft.to/lastmile_qr_scan"}, "is_reserved": 0, "lon": -77.0317395, "fusion_lat": 0.0, "name": "c02ecac407e30e4d46373d3aa729a572"}, {"type": "electric_scooter", "fusion_lon": 0.0, "bike_id": "ee130a3aa351f5d5a6a484f2784f65d9", "is_disabled": 0, "lat": 38.8849455, "rental_uris": {"ios": "https://dc.lft.to/lastmile_qr_scan", "android": "https://dc.lft.to/lastmile_qr_scan"}, "is_reserved": 0, "lon": -77.00709783333333, "fusion_lat": 0.0, "name": "ee130a3aa351f5d5a6a484f2784f65d9"}, {"type": "electric_scooter", "fusion_lon": 0.0, "bike_id": "cd5316469a80d465b7bfe5f0098024c3", "is_disabled": 0, "lat": 38.90249266666667, "rental_uris": {"ios": "https://dc.lft.to/lastmile_qr_scan", "android": "https://dc.lft.to/lastmile_qr_scan"}, "is_reserved": 0, "lon": -77.04552266666667, "fusion_lat": 0.0, "name": "cd5316469a80d465b7bfe5f0098024c3"}, {"type": "electric_scooter", "fusion_lon": 0.0, "bike_id": "81ed04b3cb31863aae089c9071a1187e", "is_disabled": 0, "lat": 38.92748383333333, "rental_uris": {"ios": "https://dc.lft.to/lastmile_qr_scan", "android": "https://dc.lft.to/lastmile_qr_scan"}, "is_reserved": 0, "lon": -77.03563566666666, "fusion_lat": 0.0, "name": "81ed04b3cb31863aae089c9071a1187e"}, {"type": "electric_scooter", "fusion_lon": 0.0, "bike_id": "5ade5b4e0c9e6f16b76ebf5ca7eb9fd3", "is_disabled": 0, "lat": 38.92635333333333, "rental_uris": {"ios": "https://dc.lft.to/lastmile_qr_scan", "android": "https://dc.lft.to/lastmile_qr_scan"}, "is_reserved": 0, "lon": -76.99624583333333, "fusion_lat": 0.0, "name": "5ade5b4e0c9e6f16b76ebf5ca7eb9fd3"}, {"type": "electric_scooter", "fusion_lon": 0.0, "bike_id": "c557e7c6ef4a92450a3e80979b611998", "is_disabled": 0, "lat": 38.91192083333333, "rental_uris": {"ios": "https://dc.lft.to/lastmile_qr_scan", "android": "https://dc.lft.to/lastmile_qr_scan"}, "is_reserved": 0, "lon": -77.045383, "fusion_lat": 0.0, "name": "c557e7c6ef4a92450a3e80979b611998"}, {"type": "electric_scooter", "fusion_lon": 0.0, "bike_id": "a1fc935bc22b9fc72b13342a2ae9dcf8", "is_disabled": 0, "lat": 38.89765283333333, "rental_uris": {"ios": "https://dc.lft.to/lastmile_qr_scan", "android": "https://dc.lft.to/lastmile_qr_scan"}, "is_reserved": 0, "lon": -76.9864475, "fusion_lat": 0.0, "name": "a1fc935bc22b9fc72b13342a2ae9dcf8"}, {"type": "electric_scooter", "fusion_lon": 0.0, "bike_id": "8fca902dd3fda77bc203a1142101312a", "is_disabled": 0, "lat": 38.8956795, "rental_uris": {"ios": "https://dc.lft.to/lastmile_qr_scan", "android": "https://dc.lft.to/lastmile_qr_scan"}, "is_reserved": 0, "lon": -77.02144383333334, "fusion_lat": 0.0, "name": "8fca902dd3fda77bc203a1142101312a"}, {"type": "electric_scooter", "fusion_lon": 0.0, "bike_id": "6a98808b3e30187e28cbf4f02e0742f2", "is_disabled": 0, "lat": 38.89809366666667, "rental_uris": {"ios": "https://dc.lft.to/lastmile_qr_scan", "android": "https://dc.lft.to/lastmile_qr_scan"}, "is_reserved": 0, "lon": -77.041704, "fusion_lat": 0.0, "name": "6a98808b3e30187e28cbf4f02e0742f2"}, {"type": "electric_scooter", "fusion_lon": 0.0, "bike_id": "bae6e5bf5a5ef0aba3b9818b8cb11f62", "is_disabled": 0, "lat": 38.925822833333335, "rental_uris": {"ios": "https://dc.lft.to/lastmile_qr_scan", "android": "https://dc.lft.to/lastmile_qr_scan"}, "is_reserved": 0, "lon": -77.03277583333333, "fusion_lat": 0.0, "name": "bae6e5bf5a5ef0aba3b9818b8cb11f62"}, {"type": "electric_scooter", "fusion_lon": 0.0, "bike_id": "cdd9da86ba9f9db168b41b300677e44d", "is_disabled": 0, "lat": 38.933109333333334, "rental_uris": {"ios": "https://dc.lft.to/lastmile_qr_scan", "android": "https://dc.lft.to/lastmile_qr_scan"}, "is_reserved": 0, "lon": -77.032654, "fusion_lat": 0.0, "name": "cdd9da86ba9f9db168b41b300677e44d"}, {"type": "electric_scooter", "fusion_lon": 0.0, "bike_id": "6a065ed41d850ab710ad604996c35a55", "is_disabled": 0, "lat": 38.9052175, "rental_uris": {"ios": "https://dc.lft.to/lastmile_qr_scan", "android": "https://dc.lft.to/lastmile_qr_scan"}, "is_reserved": 0, "lon": -77.0493165, "fusion_lat": 0.0, "name": "6a065ed41d850ab710ad604996c35a55"}, {"type": "electric_scooter", "fusion_lon": 0.0, "bike_id": "4b036f44b0711e0b8ef7caadb51c0cf2", "is_disabled": 0, "lat": 38.9105685, "rental_uris": {"ios": "https://dc.lft.to/lastmile_qr_scan", "android": "https://dc.lft.to/lastmile_qr_scan"}, "is_reserved": 0, "lon": -77.05016733333333, "fusion_lat": 0.0, "name": "4b036f44b0711e0b8ef7caadb51c0cf2"}, {"type": "electric_scooter", "fusion_lon": 0.0, "bike_id": "65c753a8a2d06bc32f2e70e614b2bd0e", "is_disabled": 0, "lat": 38.910425333333336, "rental_uris": {"ios": "https://dc.lft.to/lastmile_qr_scan", "android": "https://dc.lft.to/lastmile_qr_scan"}, "is_reserved": 0, "lon": -76.985651, "fusion_lat": 0.0, "name": "65c753a8a2d06bc32f2e70e614b2bd0e"}, {"type": "electric_scooter", "fusion_lon": 0.0, "bike_id": "a135dfbbe19a9bc7c0a4e92f6f8753e6", "is_disabled": 0, "lat": 38.93795466666667, "rental_uris": {"ios": "https://dc.lft.to/lastmile_qr_scan", "android": "https://dc.lft.to/lastmile_qr_scan"}, "is_reserved": 0, "lon": -77.023301, "fusion_lat": 0.0, "name": "a135dfbbe19a9bc7c0a4e92f6f8753e6"}, {"type": "electric_scooter", "fusion_lon": 0.0, "bike_id": "82791a78e0105353cfa5b4293b48fec1", "is_disabled": 0, "lat": 38.8923605, "rental_uris": {"ios": "https://dc.lft.to/lastmile_qr_scan", "android": "https://dc.lft.to/lastmile_qr_scan"}, "is_reserved": 0, "lon": -77.04671133333333, "fusion_lat": 0.0, "name": "82791a78e0105353cfa5b4293b48fec1"}, {"type": "electric_scooter", "fusion_lon": 0.0, "bike_id": "82d14196e8aee18738b187593bc8d2c0", "is_disabled": 0, "lat": 38.92615983333334, "rental_uris": {"ios": "https://dc.lft.to/lastmile_qr_scan", "android": "https://dc.lft.to/lastmile_qr_scan"}, "is_reserved": 0, "lon": -77.0215945, "fusion_lat": 0.0, "name": "82d14196e8aee18738b187593bc8d2c0"}, {"type": "electric_scooter", "fusion_lon": 0.0, "bike_id": "f4d866ea8318e82611a7b9d714753291", "is_disabled": 0, "lat": 38.897414833333336, "rental_uris": {"ios": "https://dc.lft.to/lastmile_qr_scan", "android": "https://dc.lft.to/lastmile_qr_scan"}, "is_reserved": 0, "lon": -77.00758383333333, "fusion_lat": 0.0, "name": "f4d866ea8318e82611a7b9d714753291"}, {"type": "electric_scooter", "fusion_lon": 0.0, "bike_id": "479df7dac7577b84a18123bbb85c689b", "is_disabled": 0, "lat": 38.93457016666667, "rental_uris": {"ios": "https://dc.lft.to/lastmile_qr_scan", "android": "https://dc.lft.to/lastmile_qr_scan"}, "is_reserved": 0, "lon": -77.03243583333334, "fusion_lat": 0.0, "name": "479df7dac7577b84a18123bbb85c689b"}, {"type": "electric_scooter", "fusion_lon": 0.0, "bike_id": "f6db4b56941117829d657464116adc08", "is_disabled": 0, "lat": 38.92749666666667, "rental_uris": {"ios": "https://dc.lft.to/lastmile_qr_scan", "android": "https://dc.lft.to/lastmile_qr_scan"}, "is_reserved": 0, "lon": -77.02533933333333, "fusion_lat": 0.0, "name": "f6db4b56941117829d657464116adc08"}, {"type": "electric_scooter", "fusion_lon": 0.0, "bike_id": "6e7a65b305842cedebfbc5f7dd10800d", "is_disabled": 0, "lat": 38.90921216666667, "rental_uris": {"ios": "https://dc.lft.to/lastmile_qr_scan", "android": "https://dc.lft.to/lastmile_qr_scan"}, "is_reserved": 0, "lon": -77.04880766666666, "fusion_lat": 0.0, "name": "6e7a65b305842cedebfbc5f7dd10800d"}, {"type": "electric_scooter", "fusion_lon": 0.0, "bike_id": "77abae044165beb7ee3c2c830f5eb163", "is_disabled": 0, "lat": 38.90828283333333, "rental_uris": {"ios": "https://dc.lft.to/lastmile_qr_scan", "android": "https://dc.lft.to/lastmile_qr_scan"}, "is_reserved": 0, "lon": -77.0391245, "fusion_lat": 0.0, "name": "77abae044165beb7ee3c2c830f5eb163"}, {"type": "electric_scooter", "fusion_lon": 0.0, "bike_id": "b6cd2256bf3006cab573358408054273", "is_disabled": 0, "lat": 38.91914216666667, "rental_uris": {"ios": "https://dc.lft.to/lastmile_qr_scan", "android": "https://dc.lft.to/lastmile_qr_scan"}, "is_reserved": 0, "lon": -77.02136916666667, "fusion_lat": 0.0, "name": "b6cd2256bf3006cab573358408054273"}, {"type": "electric_scooter", "fusion_lon": 0.0, "bike_id": "b708d20aef841229f18cd8c5d8067e97", "is_disabled": 0, "lat": 38.934351166666666, "rental_uris": {"ios": "https://dc.lft.to/lastmile_qr_scan", "android": "https://dc.lft.to/lastmile_qr_scan"}, "is_reserved": 0, "lon": -77.04421, "fusion_lat": 0.0, "name": "b708d20aef841229f18cd8c5d8067e97"}, {"type": "electric_scooter", "fusion_lon": 0.0, "bike_id": "770789be134276f999a1427ac1460883", "is_disabled": 0, "lat": 38.92170866666667, "rental_uris": {"ios": "https://dc.lft.to/lastmile_qr_scan", "android": "https://dc.lft.to/lastmile_qr_scan"}, "is_reserved": 0, "lon": -77.021957, "fusion_lat": 0.0, "name": "770789be134276f999a1427ac1460883"}, {"type": "electric_scooter", "fusion_lon": 0.0, "bike_id": "58f5928e7c44fa4be7b4a182e46cc395", "is_disabled": 0, "lat": 38.88708416666667, "rental_uris": {"ios": "https://dc.lft.to/lastmile_qr_scan", "android": "https://dc.lft.to/lastmile_qr_scan"}, "is_reserved": 0, "lon": -77.02822633333334, "fusion_lat": 0.0, "name": "58f5928e7c44fa4be7b4a182e46cc395"}, {"type": "electric_bike", "fusion_lon": 0.0, "bike_id": "fd2b7075840778518cfdf5abcdf59624", "is_disabled": 0, "lat": 38.85782866666667, "rental_uris": {"ios": "https://dc.lft.to/lastmile_qr_scan", "android": "https://dc.lft.to/lastmile_qr_scan"}, "is_reserved": 0, "lon": -76.97324583333334, "fusion_lat": 0.0, "name": "fd2b7075840778518cfdf5abcdf59624"}, {"type": "electric_scooter", "fusion_lon": 0.0, "bike_id": "210673eeee79a1df9e2651124da6cf9b", "is_disabled": 0, "lat": 38.9199415, "rental_uris": {"ios": "https://dc.lft.to/lastmile_qr_scan", "android": "https://dc.lft.to/lastmile_qr_scan"}, "is_reserved": 0, "lon": -77.0295325, "fusion_lat": 0.0, "name": "210673eeee79a1df9e2651124da6cf9b"}, {"type": "electric_scooter", "fusion_lon": 0.0, "bike_id": "6035c81d5628cc019feb4c931d7466d6", "is_disabled": 0, "lat": 38.88318966666667, "rental_uris": {"ios": "https://dc.lft.to/lastmile_qr_scan", "android": "https://dc.lft.to/lastmile_qr_scan"}, "is_reserved": 0, "lon": -77.003544, "fusion_lat": 0.0, "name": "6035c81d5628cc019feb4c931d7466d6"}, {"type": "electric_scooter", "fusion_lon": 0.0, "bike_id": "fd6f5fbe81195d39cf93b6231ded51f9", "is_disabled": 0, "lat": 38.9571015, "rental_uris": {"ios": "https://dc.lft.to/lastmile_qr_scan", "android": "https://dc.lft.to/lastmile_qr_scan"}, "is_reserved": 0, "lon": -77.02394483333333, "fusion_lat": 0.0, "name": "fd6f5fbe81195d39cf93b6231ded51f9"}, {"type": "electric_bike", "fusion_lon": 0.0, "bike_id": "c9f6d2f49dce4c4df3a97320b017c21d", "is_disabled": 0, "lat": 38.8075435, "rental_uris": {"ios": "https://dc.lft.to/lastmile_qr_scan", "android": "https://dc.lft.to/lastmile_qr_scan"}, "is_reserved": 0, "lon": -77.09451066666666, "fusion_lat": 0.0, "name": "c9f6d2f49dce4c4df3a97320b017c21d"}, {"type": "electric_scooter", "fusion_lon": 0.0, "bike_id": "84be0cd60b8cbe340bc143c8a8937f47", "is_disabled": 0, "lat": 38.93617833333333, "rental_uris": {"ios": "https://dc.lft.to/lastmile_qr_scan", "android": "https://dc.lft.to/lastmile_qr_scan"}, "is_reserved": 0, "lon": -77.037989, "fusion_lat": 0.0, "name": "84be0cd60b8cbe340bc143c8a8937f47"}, {"type": "electric_scooter", "fusion_lon": 0.0, "bike_id": "9526fb9e2227214af2e26778f4b822bb", "is_disabled": 0, "lat": 38.892245833333334, "rental_uris": {"ios": "https://dc.lft.to/lastmile_qr_scan", "android": "https://dc.lft.to/lastmile_qr_scan"}, "is_reserved": 0, "lon": -77.03162533333334, "fusion_lat": 0.0, "name": "9526fb9e2227214af2e26778f4b822bb"}, {"type": "electric_scooter", "fusion_lon": 0.0, "bike_id": "70115df59dc890b071b8456fa6c74684", "is_disabled": 0, "lat": 38.8981295, "rental_uris": {"ios": "https://dc.lft.to/lastmile_qr_scan", "android": "https://dc.lft.to/lastmile_qr_scan"}, "is_reserved": 0, "lon": -77.02932033333333, "fusion_lat": 0.0, "name": "70115df59dc890b071b8456fa6c74684"}, {"type": "electric_scooter", "fusion_lon": 0.0, "bike_id": "28b86282e0fb20b2fd84e488005bb96b", "is_disabled": 0, "lat": 38.927978333333336, "rental_uris": {"ios": "https://dc.lft.to/lastmile_qr_scan", "android": "https://dc.lft.to/lastmile_qr_scan"}, "is_reserved": 0, "lon": -77.03691633333334, "fusion_lat": 0.0, "name": "28b86282e0fb20b2fd84e488005bb96b"}, {"type": "electric_scooter", "fusion_lon": 0.0, "bike_id": "e196b52722cf5071e01c9863d3c27abe", "is_disabled": 0, "lat": 38.94610516666667, "rental_uris": {"ios": "https://dc.lft.to/lastmile_qr_scan", "android": "https://dc.lft.to/lastmile_qr_scan"}, "is_reserved": 0, "lon": -77.07877783333333, "fusion_lat": 0.0, "name": "e196b52722cf5071e01c9863d3c27abe"}, {"type": "electric_scooter", "fusion_lon": 0.0, "bike_id": "eb126dcf301773f6e6ef533632fc308a", "is_disabled": 0, "lat": 38.95412483333333, "rental_uris": {"ios": "https://dc.lft.to/lastmile_qr_scan", "android": "https://dc.lft.to/lastmile_qr_scan"}, "is_reserved": 0, "lon": -77.03518516666666, "fusion_lat": 0.0, "name": "eb126dcf301773f6e6ef533632fc308a"}, {"type": "electric_scooter", "fusion_lon": 0.0, "bike_id": "b217685acfb63d533e0a076410f3840e", "is_disabled": 0, "lat": 38.9260515, "rental_uris": {"ios": "https://dc.lft.to/lastmile_qr_scan", "android": "https://dc.lft.to/lastmile_qr_scan"}, "is_reserved": 0, "lon": -77.02154, "fusion_lat": 0.0, "name": "b217685acfb63d533e0a076410f3840e"}, {"type": "electric_scooter", "fusion_lon": 0.0, "bike_id": "f7f34e18525809bf0cf2c5998fc18b73", "is_disabled": 0, "lat": 38.902339166666664, "rental_uris": {"ios": "https://dc.lft.to/lastmile_qr_scan", "android": "https://dc.lft.to/lastmile_qr_scan"}, "is_reserved": 0, "lon": -77.02938033333334, "fusion_lat": 0.0, "name": "f7f34e18525809bf0cf2c5998fc18b73"}, {"type": "electric_scooter", "fusion_lon": 0.0, "bike_id": "21081370f6c55d3326b1dc3637584541", "is_disabled": 0, "lat": 38.876738833333334, "rental_uris": {"ios": "https://dc.lft.to/lastmile_qr_scan", "android": "https://dc.lft.to/lastmile_qr_scan"}, "is_reserved": 0, "lon": -77.0007095, "fusion_lat": 0.0, "name": "21081370f6c55d3326b1dc3637584541"}, {"type": "electric_scooter", "fusion_lon": 0.0, "bike_id": "365f9b2a724c41d112b2ee16c09e1695", "is_disabled": 0, "lat": 38.910363333333336, "rental_uris": {"ios": "https://dc.lft.to/lastmile_qr_scan", "android": "https://dc.lft.to/lastmile_qr_scan"}, "is_reserved": 0, "lon": -77.04659633333333, "fusion_lat": 0.0, "name": "365f9b2a724c41d112b2ee16c09e1695"}, {"type": "electric_scooter", "fusion_lon": 0.0, "bike_id": "4084ba3a403bff3292de085ad8e36865", "is_disabled": 0, "lat": 38.88738016666667, "rental_uris": {"ios": "https://dc.lft.to/lastmile_qr_scan", "android": "https://dc.lft.to/lastmile_qr_scan"}, "is_reserved": 0, "lon": -77.03176616666667, "fusion_lat": 0.0, "name": "4084ba3a403bff3292de085ad8e36865"}, {"type": "electric_scooter", "fusion_lon": 0.0, "bike_id": "3ea83874b918892632bd938660b32eb0", "is_disabled": 0, "lat": 38.9333495, "rental_uris": {"ios": "https://dc.lft.to/lastmile_qr_scan", "android": "https://dc.lft.to/lastmile_qr_scan"}, "is_reserved": 0, "lon": -77.03266416666666, "fusion_lat": 0.0, "name": "3ea83874b918892632bd938660b32eb0"}, {"type": "electric_scooter", "fusion_lon": 0.0, "bike_id": "c0a70275fad39e536b994976b1c8bc80", "is_disabled": 0, "lat": 38.9072205, "rental_uris": {"ios": "https://dc.lft.to/lastmile_qr_scan", "android": "https://dc.lft.to/lastmile_qr_scan"}, "is_reserved": 0, "lon": -77.02168733333333, "fusion_lat": 0.0, "name": "c0a70275fad39e536b994976b1c8bc80"}, {"type": "electric_scooter", "fusion_lon": 0.0, "bike_id": "b74ee6821a78c2f98bf7df886ef5f044", "is_disabled": 0, "lat": 38.92709266666667, "rental_uris": {"ios": "https://dc.lft.to/lastmile_qr_scan", "android": "https://dc.lft.to/lastmile_qr_scan"}, "is_reserved": 0, "lon": -77.03761233333333, "fusion_lat": 0.0, "name": "b74ee6821a78c2f98bf7df886ef5f044"}, {"type": "electric_scooter", "fusion_lon": 0.0, "bike_id": "ca272bc2f26040b16f134a69ee5294dd", "is_disabled": 0, "lat": 38.9223335, "rental_uris": {"ios": "https://dc.lft.to/lastmile_qr_scan", "android": "https://dc.lft.to/lastmile_qr_scan"}, "is_reserved": 0, "lon": -77.04709733333334, "fusion_lat": 0.0, "name": "ca272bc2f26040b16f134a69ee5294dd"}, {"type": "electric_scooter", "fusion_lon": 0.0, "bike_id": "214216c81d59fe387a5e6034816d3620", "is_disabled": 0, "lat": 38.904146833333336, "rental_uris": {"ios": "https://dc.lft.to/lastmile_qr_scan", "android": "https://dc.lft.to/lastmile_qr_scan"}, "is_reserved": 0, "lon": -76.97327666666666, "fusion_lat": 0.0, "name": "214216c81d59fe387a5e6034816d3620"}, {"type": "electric_scooter", "fusion_lon": 0.0, "bike_id": "640649b57e799a2df336bd4d829d308b", "is_disabled": 0, "lat": 38.91732433333333, "rental_uris": {"ios": "https://dc.lft.to/lastmile_qr_scan", "android": "https://dc.lft.to/lastmile_qr_scan"}, "is_reserved": 0, "lon": -77.0694965, "fusion_lat": 0.0, "name": "640649b57e799a2df336bd4d829d308b"}, {"type": "electric_scooter", "fusion_lon": 0.0, "bike_id": "d18134089b8e94d5b6711325488f6984", "is_disabled": 0, "lat": 38.9006065, "rental_uris": {"ios": "https://dc.lft.to/lastmile_qr_scan", "android": "https://dc.lft.to/lastmile_qr_scan"}, "is_reserved": 0, "lon": -76.99846883333333, "fusion_lat": 0.0, "name": "d18134089b8e94d5b6711325488f6984"}, {"type": "electric_scooter", "fusion_lon": 0.0, "bike_id": "d2398fe913332562d5b70ec64125a664", "is_disabled": 0, "lat": 38.922671666666666, "rental_uris": {"ios": "https://dc.lft.to/lastmile_qr_scan", "android": "https://dc.lft.to/lastmile_qr_scan"}, "is_reserved": 0, "lon": -77.01824416666666, "fusion_lat": 0.0, "name": "d2398fe913332562d5b70ec64125a664"}, {"type": "electric_scooter", "fusion_lon": 0.0, "bike_id": "d1db63738d62a684e0d7f757925e318d", "is_disabled": 0, "lat": 38.884077833333336, "rental_uris": {"ios": "https://dc.lft.to/lastmile_qr_scan", "android": "https://dc.lft.to/lastmile_qr_scan"}, "is_reserved": 0, "lon": -77.02954466666667, "fusion_lat": 0.0, "name": "d1db63738d62a684e0d7f757925e318d"}, {"type": "electric_bike", "fusion_lon": 0.0, "bike_id": "6ed94eeaef9fbad5cb240787ab5e31ae", "is_disabled": 0, "lat": 38.902452833333335, "rental_uris": {"ios": "https://dc.lft.to/lastmile_qr_scan", "android": "https://dc.lft.to/lastmile_qr_scan"}, "is_reserved": 0, "lon": -77.047146, "fusion_lat": 0.0, "name": "6ed94eeaef9fbad5cb240787ab5e31ae"}, {"type": "electric_scooter", "fusion_lon": 0.0, "bike_id": "4411cd0faa24c6433adb30d84e2afc5c", "is_disabled": 0, "lat": 38.88542733333333, "rental_uris": {"ios": "https://dc.lft.to/lastmile_qr_scan", "android": "https://dc.lft.to/lastmile_qr_scan"}, "is_reserved": 0, "lon": -77.0110085, "fusion_lat": 0.0, "name": "4411cd0faa24c6433adb30d84e2afc5c"}, {"type": "electric_scooter", "fusion_lon": 0.0, "bike_id": "dcf26e89ca39e5c5ca2e90cc8501bcf8", "is_disabled": 0, "lat": 38.9056955, "rental_uris": {"ios": "https://dc.lft.to/lastmile_qr_scan", "android": "https://dc.lft.to/lastmile_qr_scan"}, "is_reserved": 0, "lon": -77.00670916666667, "fusion_lat": 0.0, "name": "dcf26e89ca39e5c5ca2e90cc8501bcf8"}, {"type": "electric_scooter", "fusion_lon": 0.0, "bike_id": "0010956ed19fc65724f05336ff7d653d", "is_disabled": 0, "lat": 38.91417233333333, "rental_uris": {"ios": "https://dc.lft.to/lastmile_qr_scan", "android": "https://dc.lft.to/lastmile_qr_scan"}, "is_reserved": 0, "lon": -77.04507066666666, "fusion_lat": 0.0, "name": "0010956ed19fc65724f05336ff7d653d"}, {"type": "electric_scooter", "fusion_lon": 0.0, "bike_id": "0da1b85174a18ca1d39fc834abef217d", "is_disabled": 0, "lat": 38.89268116666667, "rental_uris": {"ios": "https://dc.lft.to/lastmile_qr_scan", "android": "https://dc.lft.to/lastmile_qr_scan"}, "is_reserved": 0, "lon": -77.04202166666667, "fusion_lat": 0.0, "name": "0da1b85174a18ca1d39fc834abef217d"}, {"type": "electric_scooter", "fusion_lon": 0.0, "bike_id": "17fb00be050d2f7a1e3479cae1de98ee", "is_disabled": 0, "lat": 38.8755375, "rental_uris": {"ios": "https://dc.lft.to/lastmile_qr_scan", "android": "https://dc.lft.to/lastmile_qr_scan"}, "is_reserved": 0, "lon": -76.96486733333333, "fusion_lat": 0.0, "name": "17fb00be050d2f7a1e3479cae1de98ee"}, {"type": "electric_scooter", "fusion_lon": 0.0, "bike_id": "10449767227a6d60800f65cd65cbd534", "is_disabled": 0, "lat": 38.9310705, "rental_uris": {"ios": "https://dc.lft.to/lastmile_qr_scan", "android": "https://dc.lft.to/lastmile_qr_scan"}, "is_reserved": 0, "lon": -77.038038, "fusion_lat": 0.0, "name": "10449767227a6d60800f65cd65cbd534"}, {"type": "electric_scooter", "fusion_lon": 0.0, "bike_id": "b5ff5c72c5222b4fa33e76aeb9ba73d4", "is_disabled": 0, "lat": 38.91440716666666, "rental_uris": {"ios": "https://dc.lft.to/lastmile_qr_scan", "android": "https://dc.lft.to/lastmile_qr_scan"}, "is_reserved": 0, "lon": -77.04173066666667, "fusion_lat": 0.0, "name": "b5ff5c72c5222b4fa33e76aeb9ba73d4"}, {"type": "electric_scooter", "fusion_lon": 0.0, "bike_id": "fd37b631cdc8a5ee70d900dc78a8b6ef", "is_disabled": 0, "lat": 38.897339333333335, "rental_uris": {"ios": "https://dc.lft.to/lastmile_qr_scan", "android": "https://dc.lft.to/lastmile_qr_scan"}, "is_reserved": 0, "lon": -77.02466533333333, "fusion_lat": 0.0, "name": "fd37b631cdc8a5ee70d900dc78a8b6ef"}, {"type": "electric_scooter", "fusion_lon": 0.0, "bike_id": "b6b09eee29b34c737183a4f00f5977cb", "is_disabled": 0, "lat": 38.89225166666667, "rental_uris": {"ios": "https://dc.lft.to/lastmile_qr_scan", "android": "https://dc.lft.to/lastmile_qr_scan"}, "is_reserved": 0, "lon": -77.048648, "fusion_lat": 0.0, "name": "b6b09eee29b34c737183a4f00f5977cb"}, {"type": "electric_scooter", "fusion_lon": 0.0, "bike_id": "8763ef688543a0f099ce2ec252b5ea9b", "is_disabled": 0, "lat": 38.90069716666667, "rental_uris": {"ios": "https://dc.lft.to/lastmile_qr_scan", "android": "https://dc.lft.to/lastmile_qr_scan"}, "is_reserved": 0, "lon": -77.0469925, "fusion_lat": 0.0, "name": "8763ef688543a0f099ce2ec252b5ea9b"}, {"type": "electric_scooter", "fusion_lon": 0.0, "bike_id": "d4c7aae40d97087592bd57509b76c07a", "is_disabled": 0, "lat": 38.8996225, "rental_uris": {"ios": "https://dc.lft.to/lastmile_qr_scan", "android": "https://dc.lft.to/lastmile_qr_scan"}, "is_reserved": 0, "lon": -77.04726633333334, "fusion_lat": 0.0, "name": "d4c7aae40d97087592bd57509b76c07a"}, {"type": "electric_scooter", "fusion_lon": 0.0, "bike_id": "fe2e8a00a3489ca9f536bbd06ae5d7f9", "is_disabled": 0, "lat": 38.925214833333335, "rental_uris": {"ios": "https://dc.lft.to/lastmile_qr_scan", "android": "https://dc.lft.to/lastmile_qr_scan"}, "is_reserved": 0, "lon": -77.0225785, "fusion_lat": 0.0, "name": "fe2e8a00a3489ca9f536bbd06ae5d7f9"}, {"type": "electric_bike", "fusion_lon": 0.0, "bike_id": "3709a233754a9451404a758a8c40092a", "is_disabled": 0, "lat": 38.895138, "rental_uris": {"ios": "https://dc.lft.to/lastmile_qr_scan", "android": "https://dc.lft.to/lastmile_qr_scan"}, "is_reserved": 0, "lon": -77.04680466666667, "fusion_lat": 0.0, "name": "3709a233754a9451404a758a8c40092a"}, {"type": "electric_scooter", "fusion_lon": 0.0, "bike_id": "ebdb08d474b136ae875e6827f0c68a2d", "is_disabled": 0, "lat": 38.9145245, "rental_uris": {"ios": "https://dc.lft.to/lastmile_qr_scan", "android": "https://dc.lft.to/lastmile_qr_scan"}, "is_reserved": 0, "lon": -77.02391133333333, "fusion_lat": 0.0, "name": "ebdb08d474b136ae875e6827f0c68a2d"}, {"type": "electric_scooter", "fusion_lon": 0.0, "bike_id": "e7fe935d2c4b23482e395a5dd404d396", "is_disabled": 0, "lat": 38.915578, "rental_uris": {"ios": "https://dc.lft.to/lastmile_qr_scan", "android": "https://dc.lft.to/lastmile_qr_scan"}, "is_reserved": 0, "lon": -77.03319683333334, "fusion_lat": 0.0, "name": "e7fe935d2c4b23482e395a5dd404d396"}, {"type": "electric_scooter", "fusion_lon": 0.0, "bike_id": "ec7cf007fbf9c8f82ddd20fba8f70a5f", "is_disabled": 0, "lat": 38.90521783333333, "rental_uris": {"ios": "https://dc.lft.to/lastmile_qr_scan", "android": "https://dc.lft.to/lastmile_qr_scan"}, "is_reserved": 0, "lon": -77.0495125, "fusion_lat": 0.0, "name": "ec7cf007fbf9c8f82ddd20fba8f70a5f"}, {"type": "electric_scooter", "fusion_lon": 0.0, "bike_id": "b76408ca1195e05b7ffa0092e4d89aba", "is_disabled": 0, "lat": 38.944606, "rental_uris": {"ios": "https://dc.lft.to/lastmile_qr_scan", "android": "https://dc.lft.to/lastmile_qr_scan"}, "is_reserved": 0, "lon": -77.02807533333333, "fusion_lat": 0.0, "name": "b76408ca1195e05b7ffa0092e4d89aba"}, {"type": "electric_scooter", "fusion_lon": 0.0, "bike_id": "b9b550bffe2039d90c018eeaebf172f6", "is_disabled": 0, "lat": 38.905788666666666, "rental_uris": {"ios": "https://dc.lft.to/lastmile_qr_scan", "android": "https://dc.lft.to/lastmile_qr_scan"}, "is_reserved": 0, "lon": -77.04191466666667, "fusion_lat": 0.0, "name": "b9b550bffe2039d90c018eeaebf172f6"}, {"type": "electric_bike", "fusion_lon": 0.0, "bike_id": "6201be53df3969ad739cb2aac2d772c8", "is_disabled": 0, "lat": 38.96786816666667, "rental_uris": {"ios": "https://dc.lft.to/lastmile_qr_scan", "android": "https://dc.lft.to/lastmile_qr_scan"}, "is_reserved": 0, "lon": -76.96261666666666, "fusion_lat": 0.0, "name": "6201be53df3969ad739cb2aac2d772c8"}, {"type": "electric_scooter", "fusion_lon": 0.0, "bike_id": "e8d70ed98ae349d4e83a06d940296357", "is_disabled": 0, "lat": 38.926867, "rental_uris": {"ios": "https://dc.lft.to/lastmile_qr_scan", "android": "https://dc.lft.to/lastmile_qr_scan"}, "is_reserved": 0, "lon": -77.0278175, "fusion_lat": 0.0, "name": "e8d70ed98ae349d4e83a06d940296357"}, {"type": "electric_scooter", "fusion_lon": 0.0, "bike_id": "f6b9e28f88e6d085380c5766a9d09e1e", "is_disabled": 0, "lat": 38.86028233333333, "rental_uris": {"ios": "https://dc.lft.to/lastmile_qr_scan", "android": "https://dc.lft.to/lastmile_qr_scan"}, "is_reserved": 0, "lon": -76.969998, "fusion_lat": 0.0, "name": "f6b9e28f88e6d085380c5766a9d09e1e"}, {"type": "electric_scooter", "fusion_lon": 0.0, "bike_id": "edef0fc71ba15fbdeb5fee80e15e7c32", "is_disabled": 0, "lat": 38.91258966666667, "rental_uris": {"ios": "https://dc.lft.to/lastmile_qr_scan", "android": "https://dc.lft.to/lastmile_qr_scan"}, "is_reserved": 0, "lon": -77.0380455, "fusion_lat": 0.0, "name": "edef0fc71ba15fbdeb5fee80e15e7c32"}, {"type": "electric_scooter", "fusion_lon": 0.0, "bike_id": "62ba1e05e858782bcec9ca013b2acf45", "is_disabled": 0, "lat": 38.895910666666666, "rental_uris": {"ios": "https://dc.lft.to/lastmile_qr_scan", "android": "https://dc.lft.to/lastmile_qr_scan"}, "is_reserved": 0, "lon": -77.029746, "fusion_lat": 0.0, "name": "62ba1e05e858782bcec9ca013b2acf45"}, {"type": "electric_bike", "fusion_lon": 0.0, "bike_id": "86e3d5e8472696f8229a93af13e819fa", "is_disabled": 0, "lat": 38.94477916666666, "rental_uris": {"ios": "https://dc.lft.to/lastmile_qr_scan", "android": "https://dc.lft.to/lastmile_qr_scan"}, "is_reserved": 0, "lon": -76.986898, "fusion_lat": 0.0, "name": "86e3d5e8472696f8229a93af13e819fa"}, {"type": "electric_scooter", "fusion_lon": 0.0, "bike_id": "ffec884e8c879924cdc5da32de90b85d", "is_disabled": 0, "lat": 38.8994375, "rental_uris": {"ios": "https://dc.lft.to/lastmile_qr_scan", "android": "https://dc.lft.to/lastmile_qr_scan"}, "is_reserved": 0, "lon": -76.99734683333334, "fusion_lat": 0.0, "name": "ffec884e8c879924cdc5da32de90b85d"}, {"type": "electric_bike", "fusion_lon": 0.0, "bike_id": "80184ac5ec4ac744559f9d0d7d49e822", "is_disabled": 0, "lat": 38.891057, "rental_uris": {"ios": "https://dc.lft.to/lastmile_qr_scan", "android": "https://dc.lft.to/lastmile_qr_scan"}, "is_reserved": 0, "lon": -76.93479983333333, "fusion_lat": 0.0, "name": "80184ac5ec4ac744559f9d0d7d49e822"}, {"type": "electric_bike", "fusion_lon": 0.0, "bike_id": "8467d5ccae0686faaec1b302dc1b2026", "is_disabled": 0, "lat": 38.92660733333334, "rental_uris": {"ios": "https://dc.lft.to/lastmile_qr_scan", "android": "https://dc.lft.to/lastmile_qr_scan"}, "is_reserved": 0, "lon": -77.090095, "fusion_lat": 0.0, "name": "8467d5ccae0686faaec1b302dc1b2026"}, {"type": "electric_scooter", "fusion_lon": 0.0, "bike_id": "9ae3bcf13cb50123aedb6a2ca7cd2921", "is_disabled": 0, "lat": 38.899659666666665, "rental_uris": {"ios": "https://dc.lft.to/lastmile_qr_scan", "android": "https://dc.lft.to/lastmile_qr_scan"}, "is_reserved": 0, "lon": -77.020111, "fusion_lat": 0.0, "name": "9ae3bcf13cb50123aedb6a2ca7cd2921"}, {"type": "electric_scooter", "fusion_lon": 0.0, "bike_id": "fb5cfc05beebec9eb72f0423b991c25e", "is_disabled": 0, "lat": 38.86217883333333, "rental_uris": {"ios": "https://dc.lft.to/lastmile_qr_scan", "android": "https://dc.lft.to/lastmile_qr_scan"}, "is_reserved": 0, "lon": -76.99475533333333, "fusion_lat": 0.0, "name": "fb5cfc05beebec9eb72f0423b991c25e"}, {"type": "electric_scooter", "fusion_lon": 0.0, "bike_id": "d43be15a3668ae95223c78a2fd027361", "is_disabled": 0, "lat": 38.884925, "rental_uris": {"ios": "https://dc.lft.to/lastmile_qr_scan", "android": "https://dc.lft.to/lastmile_qr_scan"}, "is_reserved": 0, "lon": -77.01525183333334, "fusion_lat": 0.0, "name": "d43be15a3668ae95223c78a2fd027361"}, {"type": "electric_scooter", "fusion_lon": 0.0, "bike_id": "770be7398de3d88f7b87b5c705c8bffb", "is_disabled": 0, "lat": 38.90050133333333, "rental_uris": {"ios": "https://dc.lft.to/lastmile_qr_scan", "android": "https://dc.lft.to/lastmile_qr_scan"}, "is_reserved": 0, "lon": -76.98834883333333, "fusion_lat": 0.0, "name": "770be7398de3d88f7b87b5c705c8bffb"}, {"type": "electric_scooter", "fusion_lon": 0.0, "bike_id": "619be867b9eae2d8247c8c165925ea44", "is_disabled": 0, "lat": 38.915145, "rental_uris": {"ios": "https://dc.lft.to/lastmile_qr_scan", "android": "https://dc.lft.to/lastmile_qr_scan"}, "is_reserved": 0, "lon": -77.0461885, "fusion_lat": 0.0, "name": "619be867b9eae2d8247c8c165925ea44"}, {"type": "electric_scooter", "fusion_lon": 0.0, "bike_id": "d5a3378aa2afce42846c0ff2a4525275", "is_disabled": 0, "lat": 38.88644166666667, "rental_uris": {"ios": "https://dc.lft.to/lastmile_qr_scan", "android": "https://dc.lft.to/lastmile_qr_scan"}, "is_reserved": 0, "lon": -77.02133783333333, "fusion_lat": 0.0, "name": "d5a3378aa2afce42846c0ff2a4525275"}, {"type": "electric_scooter", "fusion_lon": 0.0, "bike_id": "37fb1c2fa7dbaab347c17cdd5ef946be", "is_disabled": 0, "lat": 38.916272666666664, "rental_uris": {"ios": "https://dc.lft.to/lastmile_qr_scan", "android": "https://dc.lft.to/lastmile_qr_scan"}, "is_reserved": 0, "lon": -77.02296866666667, "fusion_lat": 0.0, "name": "37fb1c2fa7dbaab347c17cdd5ef946be"}, {"type": "electric_scooter", "fusion_lon": 0.0, "bike_id": "642e5d1735be3abce6d96daeae045ed6", "is_disabled": 0, "lat": 38.91821683333333, "rental_uris": {"ios": "https://dc.lft.to/lastmile_qr_scan", "android": "https://dc.lft.to/lastmile_qr_scan"}, "is_reserved": 0, "lon": -77.0253035, "fusion_lat": 0.0, "name": "642e5d1735be3abce6d96daeae045ed6"}, {"type": "electric_bike", "fusion_lon": 0.0, "bike_id": "119da3c92fbe7c8298916b280700e16e", "is_disabled": 0, "lat": 38.9810935, "rental_uris": {"ios": "https://dc.lft.to/lastmile_qr_scan", "android": "https://dc.lft.to/lastmile_qr_scan"}, "is_reserved": 0, "lon": -77.007519, "fusion_lat": 0.0, "name": "119da3c92fbe7c8298916b280700e16e"}, {"type": "electric_bike", "fusion_lon": 0.0, "bike_id": "2d8b0e207d7554a1addaa89986b6477c", "is_disabled": 0, "lat": 38.85094683333333, "rental_uris": {"ios": "https://dc.lft.to/lastmile_qr_scan", "android": "https://dc.lft.to/lastmile_qr_scan"}, "is_reserved": 0, "lon": -76.957027, "fusion_lat": 0.0, "name": "2d8b0e207d7554a1addaa89986b6477c"}, {"type": "electric_scooter", "fusion_lon": 0.0, "bike_id": "19ee5e52abe9a1de309e370868d98205", "is_disabled": 0, "lat": 38.92329816666667, "rental_uris": {"ios": "https://dc.lft.to/lastmile_qr_scan", "android": "https://dc.lft.to/lastmile_qr_scan"}, "is_reserved": 0, "lon": -77.0195185, "fusion_lat": 0.0, "name": "19ee5e52abe9a1de309e370868d98205"}, {"type": "electric_scooter", "fusion_lon": 0.0, "bike_id": "1060f419f156fa0bf891630edd996c6f", "is_disabled": 0, "lat": 38.8978275, "rental_uris": {"ios": "https://dc.lft.to/lastmile_qr_scan", "android": "https://dc.lft.to/lastmile_qr_scan"}, "is_reserved": 0, "lon": -77.02222333333333, "fusion_lat": 0.0, "name": "1060f419f156fa0bf891630edd996c6f"}, {"type": "electric_scooter", "fusion_lon": 0.0, "bike_id": "e536222dc40360dda963177647fa2ca9", "is_disabled": 0, "lat": 38.92609233333334, "rental_uris": {"ios": "https://dc.lft.to/lastmile_qr_scan", "android": "https://dc.lft.to/lastmile_qr_scan"}, "is_reserved": 0, "lon": -77.02154016666667, "fusion_lat": 0.0, "name": "e536222dc40360dda963177647fa2ca9"}, {"type": "electric_scooter", "fusion_lon": 0.0, "bike_id": "c8f6239c49bf15bf503f16e857fa2b92", "is_disabled": 0, "lat": 38.88187533333333, "rental_uris": {"ios": "https://dc.lft.to/lastmile_qr_scan", "android": "https://dc.lft.to/lastmile_qr_scan"}, "is_reserved": 0, "lon": -77.02199983333334, "fusion_lat": 0.0, "name": "c8f6239c49bf15bf503f16e857fa2b92"}, {"type": "electric_scooter", "fusion_lon": 0.0, "bike_id": "538f497a702292a2352df130a6e47795", "is_disabled": 0, "lat": 38.917710666666665, "rental_uris": {"ios": "https://dc.lft.to/lastmile_qr_scan", "android": "https://dc.lft.to/lastmile_qr_scan"}, "is_reserved": 0, "lon": -77.0345705, "fusion_lat": 0.0, "name": "538f497a702292a2352df130a6e47795"}, {"type": "electric_scooter", "fusion_lon": 0.0, "bike_id": "ab7ada20c4fcac8e9aaccb4c5629e169", "is_disabled": 0, "lat": 38.93313283333333, "rental_uris": {"ios": "https://dc.lft.to/lastmile_qr_scan", "android": "https://dc.lft.to/lastmile_qr_scan"}, "is_reserved": 0, "lon": -77.03265166666667, "fusion_lat": 0.0, "name": "ab7ada20c4fcac8e9aaccb4c5629e169"}, {"type": "electric_bike", "fusion_lon": 0.0, "bike_id": "f1be3ff2e8257ea172eeebacbc731734", "is_disabled": 0, "lat": 38.807391333333335, "rental_uris": {"ios": "https://dc.lft.to/lastmile_qr_scan", "android": "https://dc.lft.to/lastmile_qr_scan"}, "is_reserved": 0, "lon": -77.09722366666666, "fusion_lat": 0.0, "name": "f1be3ff2e8257ea172eeebacbc731734"}, {"type": "electric_bike", "fusion_lon": 0.0, "bike_id": "bd6e4303ef0852e706aadfc5d8f0ec8e", "is_disabled": 0, "lat": 38.862653, "rental_uris": {"ios": "https://dc.lft.to/lastmile_qr_scan", "android": "https://dc.lft.to/lastmile_qr_scan"}, "is_reserved": 0, "lon": -76.98347933333334, "fusion_lat": 0.0, "name": "bd6e4303ef0852e706aadfc5d8f0ec8e"}, {"type": "electric_scooter", "fusion_lon": 0.0, "bike_id": "6e1ee8ecd13c407689d67242a42c0190", "is_disabled": 0, "lat": 38.91610983333333, "rental_uris": {"ios": "https://dc.lft.to/lastmile_qr_scan", "android": "https://dc.lft.to/lastmile_qr_scan"}, "is_reserved": 0, "lon": -77.04877333333333, "fusion_lat": 0.0, "name": "6e1ee8ecd13c407689d67242a42c0190"}, {"type": "electric_scooter", "fusion_lon": 0.0, "bike_id": "4d14dfed030807b298ead7fcd6624f28", "is_disabled": 0, "lat": 38.8621825, "rental_uris": {"ios": "https://dc.lft.to/lastmile_qr_scan", "android": "https://dc.lft.to/lastmile_qr_scan"}, "is_reserved": 0, "lon": -76.9947605, "fusion_lat": 0.0, "name": "4d14dfed030807b298ead7fcd6624f28"}, {"type": "electric_scooter", "fusion_lon": 0.0, "bike_id": "a85e20dc53309699be269e651d0dc86d", "is_disabled": 0, "lat": 38.92867733333333, "rental_uris": {"ios": "https://dc.lft.to/lastmile_qr_scan", "android": "https://dc.lft.to/lastmile_qr_scan"}, "is_reserved": 0, "lon": -77.03739033333333, "fusion_lat": 0.0, "name": "a85e20dc53309699be269e651d0dc86d"}, {"type": "electric_scooter", "fusion_lon": 0.0, "bike_id": "387c5482a5e78f22d54be59e5522fe95", "is_disabled": 0, "lat": 38.912471, "rental_uris": {"ios": "https://dc.lft.to/lastmile_qr_scan", "android": "https://dc.lft.to/lastmile_qr_scan"}, "is_reserved": 0, "lon": -77.06289766666667, "fusion_lat": 0.0, "name": "387c5482a5e78f22d54be59e5522fe95"}, {"type": "electric_scooter", "fusion_lon": 0.0, "bike_id": "8e58e02edbb41dd6b4b955a575dd389c", "is_disabled": 0, "lat": 38.907381, "rental_uris": {"ios": "https://dc.lft.to/lastmile_qr_scan", "android": "https://dc.lft.to/lastmile_qr_scan"}, "is_reserved": 0, "lon": -77.04330283333333, "fusion_lat": 0.0, "name": "8e58e02edbb41dd6b4b955a575dd389c"}, {"type": "electric_scooter", "fusion_lon": 0.0, "bike_id": "d192c13b5fea294657d4f8fcfecce778", "is_disabled": 0, "lat": 38.935345833333336, "rental_uris": {"ios": "https://dc.lft.to/lastmile_qr_scan", "android": "https://dc.lft.to/lastmile_qr_scan"}, "is_reserved": 0, "lon": -77.02854333333333, "fusion_lat": 0.0, "name": "d192c13b5fea294657d4f8fcfecce778"}, {"type": "electric_scooter", "fusion_lon": 0.0, "bike_id": "a3dc772e3fed036e19995f7b2380e034", "is_disabled": 0, "lat": 38.921081, "rental_uris": {"ios": "https://dc.lft.to/lastmile_qr_scan", "android": "https://dc.lft.to/lastmile_qr_scan"}, "is_reserved": 0, "lon": -77.02524983333333, "fusion_lat": 0.0, "name": "a3dc772e3fed036e19995f7b2380e034"}, {"type": "electric_scooter", "fusion_lon": 0.0, "bike_id": "689deec88fa8feb64c6ad188f8892944", "is_disabled": 0, "lat": 38.925838166666665, "rental_uris": {"ios": "https://dc.lft.to/lastmile_qr_scan", "android": "https://dc.lft.to/lastmile_qr_scan"}, "is_reserved": 0, "lon": -77.0260725, "fusion_lat": 0.0, "name": "689deec88fa8feb64c6ad188f8892944"}, {"type": "electric_scooter", "fusion_lon": 0.0, "bike_id": "6eeb5994d407ae1145e8cc6c482ca001", "is_disabled": 0, "lat": 38.91514033333333, "rental_uris": {"ios": "https://dc.lft.to/lastmile_qr_scan", "android": "https://dc.lft.to/lastmile_qr_scan"}, "is_reserved": 0, "lon": -77.0144035, "fusion_lat": 0.0, "name": "6eeb5994d407ae1145e8cc6c482ca001"}, {"type": "electric_scooter", "fusion_lon": 0.0, "bike_id": "987f4fea66127e08230ee45b5d89bcfc", "is_disabled": 0, "lat": 38.907903, "rental_uris": {"ios": "https://dc.lft.to/lastmile_qr_scan", "android": "https://dc.lft.to/lastmile_qr_scan"}, "is_reserved": 0, "lon": -77.07251616666667, "fusion_lat": 0.0, "name": "987f4fea66127e08230ee45b5d89bcfc"}, {"type": "electric_scooter", "fusion_lon": 0.0, "bike_id": "8930a31b3ddd26b186b44b2582df465d", "is_disabled": 0, "lat": 38.89364, "rental_uris": {"ios": "https://dc.lft.to/lastmile_qr_scan", "android": "https://dc.lft.to/lastmile_qr_scan"}, "is_reserved": 0, "lon": -76.99751116666667, "fusion_lat": 0.0, "name": "8930a31b3ddd26b186b44b2582df465d"}, {"type": "electric_scooter", "fusion_lon": 0.0, "bike_id": "ab49e2ad3efec29f057725997d7852b7", "is_disabled": 0, "lat": 38.93199933333333, "rental_uris": {"ios": "https://dc.lft.to/lastmile_qr_scan", "android": "https://dc.lft.to/lastmile_qr_scan"}, "is_reserved": 0, "lon": -77.02962233333334, "fusion_lat": 0.0, "name": "ab49e2ad3efec29f057725997d7852b7"}, {"type": "electric_scooter", "fusion_lon": 0.0, "bike_id": "b395e46645ce49ca53204acc0b0cbe9d", "is_disabled": 0, "lat": 38.91919383333333, "rental_uris": {"ios": "https://dc.lft.to/lastmile_qr_scan", "android": "https://dc.lft.to/lastmile_qr_scan"}, "is_reserved": 0, "lon": -77.01902133333333, "fusion_lat": 0.0, "name": "b395e46645ce49ca53204acc0b0cbe9d"}, {"type": "electric_scooter", "fusion_lon": 0.0, "bike_id": "85df88e3782012925b96a013642c33c8", "is_disabled": 0, "lat": 38.926722, "rental_uris": {"ios": "https://dc.lft.to/lastmile_qr_scan", "android": "https://dc.lft.to/lastmile_qr_scan"}, "is_reserved": 0, "lon": -77.02118516666667, "fusion_lat": 0.0, "name": "85df88e3782012925b96a013642c33c8"}, {"type": "electric_scooter", "fusion_lon": 0.0, "bike_id": "dd626e7f77fba0242566c3eaab04036b", "is_disabled": 0, "lat": 38.88959416666667, "rental_uris": {"ios": "https://dc.lft.to/lastmile_qr_scan", "android": "https://dc.lft.to/lastmile_qr_scan"}, "is_reserved": 0, "lon": -76.98083433333333, "fusion_lat": 0.0, "name": "dd626e7f77fba0242566c3eaab04036b"}, {"type": "electric_scooter", "fusion_lon": 0.0, "bike_id": "4c1960fed78d7efb4957a0d26ff85b5c", "is_disabled": 0, "lat": 38.902424, "rental_uris": {"ios": "https://dc.lft.to/lastmile_qr_scan", "android": "https://dc.lft.to/lastmile_qr_scan"}, "is_reserved": 0, "lon": -77.00212683333334, "fusion_lat": 0.0, "name": "4c1960fed78d7efb4957a0d26ff85b5c"}, {"type": "electric_scooter", "fusion_lon": 0.0, "bike_id": "8549d19bf871397d97f42e9e10f94117", "is_disabled": 0, "lat": 38.876676, "rental_uris": {"ios": "https://dc.lft.to/lastmile_qr_scan", "android": "https://dc.lft.to/lastmile_qr_scan"}, "is_reserved": 0, "lon": -77.00464383333333, "fusion_lat": 0.0, "name": "8549d19bf871397d97f42e9e10f94117"}, {"type": "electric_scooter", "fusion_lon": 0.0, "bike_id": "c684c91c21bdbec65c2eec4adae2545a", "is_disabled": 0, "lat": 38.935674666666664, "rental_uris": {"ios": "https://dc.lft.to/lastmile_qr_scan", "android": "https://dc.lft.to/lastmile_qr_scan"}, "is_reserved": 0, "lon": -77.07466633333334, "fusion_lat": 0.0, "name": "c684c91c21bdbec65c2eec4adae2545a"}, {"type": "electric_scooter", "fusion_lon": 0.0, "bike_id": "81ca0e330e42cd40ca0e279ad06ff57c", "is_disabled": 0, "lat": 38.89228466666667, "rental_uris": {"ios": "https://dc.lft.to/lastmile_qr_scan", "android": "https://dc.lft.to/lastmile_qr_scan"}, "is_reserved": 0, "lon": -77.0418425, "fusion_lat": 0.0, "name": "81ca0e330e42cd40ca0e279ad06ff57c"}, {"type": "electric_scooter", "fusion_lon": 0.0, "bike_id": "09862a989f116a0404fe8c9f58d4925e", "is_disabled": 0, "lat": 38.892258, "rental_uris": {"ios": "https://dc.lft.to/lastmile_qr_scan", "android": "https://dc.lft.to/lastmile_qr_scan"}, "is_reserved": 0, "lon": -77.04513066666667, "fusion_lat": 0.0, "name": "09862a989f116a0404fe8c9f58d4925e"}, {"type": "electric_scooter", "fusion_lon": 0.0, "bike_id": "2ab46494eef45b3cbb8dac8efbd9d7fd", "is_disabled": 0, "lat": 38.91021466666667, "rental_uris": {"ios": "https://dc.lft.to/lastmile_qr_scan", "android": "https://dc.lft.to/lastmile_qr_scan"}, "is_reserved": 0, "lon": -77.03853116666667, "fusion_lat": 0.0, "name": "2ab46494eef45b3cbb8dac8efbd9d7fd"}, {"type": "electric_scooter", "fusion_lon": 0.0, "bike_id": "8f1f275deb31856588b3c8642c114ca4", "is_disabled": 0, "lat": 38.933127166666665, "rental_uris": {"ios": "https://dc.lft.to/lastmile_qr_scan", "android": "https://dc.lft.to/lastmile_qr_scan"}, "is_reserved": 0, "lon": -77.03264866666666, "fusion_lat": 0.0, "name": "8f1f275deb31856588b3c8642c114ca4"}, {"type": "electric_scooter", "fusion_lon": 0.0, "bike_id": "2b485ddc3459c1f186ef00087c4d599d", "is_disabled": 0, "lat": 38.90079583333333, "rental_uris": {"ios": "https://dc.lft.to/lastmile_qr_scan", "android": "https://dc.lft.to/lastmile_qr_scan"}, "is_reserved": 0, "lon": -77.02615333333334, "fusion_lat": 0.0, "name": "2b485ddc3459c1f186ef00087c4d599d"}, {"type": "electric_scooter", "fusion_lon": 0.0, "bike_id": "5c17549a7e413d9c9e59c830d054b3da", "is_disabled": 0, "lat": 38.922582166666665, "rental_uris": {"ios": "https://dc.lft.to/lastmile_qr_scan", "android": "https://dc.lft.to/lastmile_qr_scan"}, "is_reserved": 0, "lon": -77.030813, "fusion_lat": 0.0, "name": "5c17549a7e413d9c9e59c830d054b3da"}, {"type": "electric_scooter", "fusion_lon": 0.0, "bike_id": "375dd13d4f11383fcf267ff3757f838b", "is_disabled": 0, "lat": 38.89231216666667, "rental_uris": {"ios": "https://dc.lft.to/lastmile_qr_scan", "android": "https://dc.lft.to/lastmile_qr_scan"}, "is_reserved": 0, "lon": -77.028246, "fusion_lat": 0.0, "name": "375dd13d4f11383fcf267ff3757f838b"}, {"type": "electric_scooter", "fusion_lon": 0.0, "bike_id": "3e92202599765bfadf276e4aff845a1d", "is_disabled": 0, "lat": 38.9202415, "rental_uris": {"ios": "https://dc.lft.to/lastmile_qr_scan", "android": "https://dc.lft.to/lastmile_qr_scan"}, "is_reserved": 0, "lon": -77.04197516666666, "fusion_lat": 0.0, "name": "3e92202599765bfadf276e4aff845a1d"}, {"type": "electric_scooter", "fusion_lon": 0.0, "bike_id": "c80ab2696efb25d2887aab0368315945", "is_disabled": 0, "lat": 38.944548166666664, "rental_uris": {"ios": "https://dc.lft.to/lastmile_qr_scan", "android": "https://dc.lft.to/lastmile_qr_scan"}, "is_reserved": 0, "lon": -77.0279715, "fusion_lat": 0.0, "name": "c80ab2696efb25d2887aab0368315945"}, {"type": "electric_scooter", "fusion_lon": 0.0, "bike_id": "014b9d26705cbcabd7fb59e412a7a5e5", "is_disabled": 0, "lat": 38.9211365, "rental_uris": {"ios": "https://dc.lft.to/lastmile_qr_scan", "android": "https://dc.lft.to/lastmile_qr_scan"}, "is_reserved": 0, "lon": -77.01768983333334, "fusion_lat": 0.0, "name": "014b9d26705cbcabd7fb59e412a7a5e5"}, {"type": "electric_scooter", "fusion_lon": 0.0, "bike_id": "1e7fe473903dc3314f1235d11c85913e", "is_disabled": 0, "lat": 38.877273, "rental_uris": {"ios": "https://dc.lft.to/lastmile_qr_scan", "android": "https://dc.lft.to/lastmile_qr_scan"}, "is_reserved": 0, "lon": -77.01757783333333, "fusion_lat": 0.0, "name": "1e7fe473903dc3314f1235d11c85913e"}, {"type": "electric_scooter", "fusion_lon": 0.0, "bike_id": "bdfcb141759f05bf4a184cd9dd768193", "is_disabled": 0, "lat": 38.903727, "rental_uris": {"ios": "https://dc.lft.to/lastmile_qr_scan", "android": "https://dc.lft.to/lastmile_qr_scan"}, "is_reserved": 0, "lon": -77.066756, "fusion_lat": 0.0, "name": "bdfcb141759f05bf4a184cd9dd768193"}, {"type": "electric_scooter", "fusion_lon": 0.0, "bike_id": "fa0600ebbca4f83647822b2070d40d37", "is_disabled": 0, "lat": 38.924723666666665, "rental_uris": {"ios": "https://dc.lft.to/lastmile_qr_scan", "android": "https://dc.lft.to/lastmile_qr_scan"}, "is_reserved": 0, "lon": -77.0306205, "fusion_lat": 0.0, "name": "fa0600ebbca4f83647822b2070d40d37"}, {"type": "electric_scooter", "fusion_lon": 0.0, "bike_id": "595181aceadfea84be4b7c7469d18108", "is_disabled": 0, "lat": 38.895264, "rental_uris": {"ios": "https://dc.lft.to/lastmile_qr_scan", "android": "https://dc.lft.to/lastmile_qr_scan"}, "is_reserved": 0, "lon": -77.0280525, "fusion_lat": 0.0, "name": "595181aceadfea84be4b7c7469d18108"}, {"type": "electric_scooter", "fusion_lon": 0.0, "bike_id": "f7f7e7d4846efcb4fc0201b91c1d2235", "is_disabled": 0, "lat": 38.900142833333334, "rental_uris": {"ios": "https://dc.lft.to/lastmile_qr_scan", "android": "https://dc.lft.to/lastmile_qr_scan"}, "is_reserved": 0, "lon": -76.98894666666666, "fusion_lat": 0.0, "name": "f7f7e7d4846efcb4fc0201b91c1d2235"}, {"type": "electric_scooter", "fusion_lon": 0.0, "bike_id": "0d4b9a7ed2612f2fdbb42a1189e622f9", "is_disabled": 0, "lat": 38.862690666666666, "rental_uris": {"ios": "https://dc.lft.to/lastmile_qr_scan", "android": "https://dc.lft.to/lastmile_qr_scan"}, "is_reserved": 0, "lon": -76.99570716666666, "fusion_lat": 0.0, "name": "0d4b9a7ed2612f2fdbb42a1189e622f9"}, {"type": "electric_scooter", "fusion_lon": 0.0, "bike_id": "85545dd62151125f3113037082c459f1", "is_disabled": 0, "lat": 38.9032535, "rental_uris": {"ios": "https://dc.lft.to/lastmile_qr_scan", "android": "https://dc.lft.to/lastmile_qr_scan"}, "is_reserved": 0, "lon": -77.05167533333334, "fusion_lat": 0.0, "name": "85545dd62151125f3113037082c459f1"}, {"type": "electric_scooter", "fusion_lon": 0.0, "bike_id": "ebb6e009d514886c7d86dd9045df0734", "is_disabled": 0, "lat": 38.87664066666667, "rental_uris": {"ios": "https://dc.lft.to/lastmile_qr_scan", "android": "https://dc.lft.to/lastmile_qr_scan"}, "is_reserved": 0, "lon": -77.00297633333334, "fusion_lat": 0.0, "name": "ebb6e009d514886c7d86dd9045df0734"}, {"type": "electric_scooter", "fusion_lon": 0.0, "bike_id": "e9b065fe077cf5fe778735bb30f29452", "is_disabled": 0, "lat": 38.914173166666664, "rental_uris": {"ios": "https://dc.lft.to/lastmile_qr_scan", "android": "https://dc.lft.to/lastmile_qr_scan"}, "is_reserved": 0, "lon": -77.04150666666666, "fusion_lat": 0.0, "name": "e9b065fe077cf5fe778735bb30f29452"}, {"type": "electric_bike", "fusion_lon": 0.0, "bike_id": "14d74eff2bcde2030f4ac6ab18c62f1d", "is_disabled": 0, "lat": 38.895667, "rental_uris": {"ios": "https://dc.lft.to/lastmile_qr_scan", "android": "https://dc.lft.to/lastmile_qr_scan"}, "is_reserved": 0, "lon": -77.127374, "fusion_lat": 0.0, "name": "14d74eff2bcde2030f4ac6ab18c62f1d"}, {"type": "electric_scooter", "fusion_lon": 0.0, "bike_id": "38c523de54327b07109561c3c58ec96c", "is_disabled": 0, "lat": 38.88741233333333, "rental_uris": {"ios": "https://dc.lft.to/lastmile_qr_scan", "android": "https://dc.lft.to/lastmile_qr_scan"}, "is_reserved": 0, "lon": -77.01528483333334, "fusion_lat": 0.0, "name": "38c523de54327b07109561c3c58ec96c"}, {"type": "electric_scooter", "fusion_lon": 0.0, "bike_id": "f1f8053eae8228c2acf7305a251b468d", "is_disabled": 0, "lat": 38.89918316666667, "rental_uris": {"ios": "https://dc.lft.to/lastmile_qr_scan", "android": "https://dc.lft.to/lastmile_qr_scan"}, "is_reserved": 0, "lon": -76.93385116666667, "fusion_lat": 0.0, "name": "f1f8053eae8228c2acf7305a251b468d"}, {"type": "electric_scooter", "fusion_lon": 0.0, "bike_id": "4096ef3c23a18b9cc28435e218850c43", "is_disabled": 0, "lat": 38.920653333333334, "rental_uris": {"ios": "https://dc.lft.to/lastmile_qr_scan", "android": "https://dc.lft.to/lastmile_qr_scan"}, "is_reserved": 0, "lon": -77.0380415, "fusion_lat": 0.0, "name": "4096ef3c23a18b9cc28435e218850c43"}, {"type": "electric_scooter", "fusion_lon": 0.0, "bike_id": "0ba64cbae64479185ce4199a6da8b795", "is_disabled": 0, "lat": 38.929089833333336, "rental_uris": {"ios": "https://dc.lft.to/lastmile_qr_scan", "android": "https://dc.lft.to/lastmile_qr_scan"}, "is_reserved": 0, "lon": -77.03279266666667, "fusion_lat": 0.0, "name": "0ba64cbae64479185ce4199a6da8b795"}, {"type": "electric_scooter", "fusion_lon": 0.0, "bike_id": "f1923a876f556ce2d32b567feecd40c9", "is_disabled": 0, "lat": 38.919859333333335, "rental_uris": {"ios": "https://dc.lft.to/lastmile_qr_scan", "android": "https://dc.lft.to/lastmile_qr_scan"}, "is_reserved": 0, "lon": -77.02194716666666, "fusion_lat": 0.0, "name": "f1923a876f556ce2d32b567feecd40c9"}, {"type": "electric_scooter", "fusion_lon": 0.0, "bike_id": "0c34a9f59845fdc2d91cbb13ef7431da", "is_disabled": 0, "lat": 38.92353633333333, "rental_uris": {"ios": "https://dc.lft.to/lastmile_qr_scan", "android": "https://dc.lft.to/lastmile_qr_scan"}, "is_reserved": 0, "lon": -77.0363675, "fusion_lat": 0.0, "name": "0c34a9f59845fdc2d91cbb13ef7431da"}, {"type": "electric_scooter", "fusion_lon": 0.0, "bike_id": "cc47a30edfa6dff38a118d6b357fb433", "is_disabled": 0, "lat": 38.89901616666667, "rental_uris": {"ios": "https://dc.lft.to/lastmile_qr_scan", "android": "https://dc.lft.to/lastmile_qr_scan"}, "is_reserved": 0, "lon": -77.032911, "fusion_lat": 0.0, "name": "cc47a30edfa6dff38a118d6b357fb433"}, {"type": "electric_scooter", "fusion_lon": 0.0, "bike_id": "c9a3e9ea1f2b644a02ad8b2c778fd7b1", "is_disabled": 0, "lat": 38.921646333333335, "rental_uris": {"ios": "https://dc.lft.to/lastmile_qr_scan", "android": "https://dc.lft.to/lastmile_qr_scan"}, "is_reserved": 0, "lon": -77.0338885, "fusion_lat": 0.0, "name": "c9a3e9ea1f2b644a02ad8b2c778fd7b1"}, {"type": "electric_scooter", "fusion_lon": 0.0, "bike_id": "34fd7381058d42873d0dae43128a3858", "is_disabled": 0, "lat": 38.91569533333333, "rental_uris": {"ios": "https://dc.lft.to/lastmile_qr_scan", "android": "https://dc.lft.to/lastmile_qr_scan"}, "is_reserved": 0, "lon": -77.02004716666667, "fusion_lat": 0.0, "name": "34fd7381058d42873d0dae43128a3858"}, {"type": "electric_scooter", "fusion_lon": 0.0, "bike_id": "c66cc1e5d60f04ee08179fa3f1cdbf1f", "is_disabled": 0, "lat": 38.960855333333335, "rental_uris": {"ios": "https://dc.lft.to/lastmile_qr_scan", "android": "https://dc.lft.to/lastmile_qr_scan"}, "is_reserved": 0, "lon": -77.02884716666667, "fusion_lat": 0.0, "name": "c66cc1e5d60f04ee08179fa3f1cdbf1f"}, {"type": "electric_scooter", "fusion_lon": 0.0, "bike_id": "110640bce5315f843a01a8b09e8ab0b6", "is_disabled": 0, "lat": 38.91392616666667, "rental_uris": {"ios": "https://dc.lft.to/lastmile_qr_scan", "android": "https://dc.lft.to/lastmile_qr_scan"}, "is_reserved": 0, "lon": -77.02951216666666, "fusion_lat": 0.0, "name": "110640bce5315f843a01a8b09e8ab0b6"}, {"type": "electric_scooter", "fusion_lon": 0.0, "bike_id": "9d50fa2c9f341cae43710dd39bda69f7", "is_disabled": 0, "lat": 38.88708883333334, "rental_uris": {"ios": "https://dc.lft.to/lastmile_qr_scan", "android": "https://dc.lft.to/lastmile_qr_scan"}, "is_reserved": 0, "lon": -77.02823116666667, "fusion_lat": 0.0, "name": "9d50fa2c9f341cae43710dd39bda69f7"}, {"type": "electric_scooter", "fusion_lon": 0.0, "bike_id": "c372f249eba6737a926d16c16b6ce609", "is_disabled": 0, "lat": 38.90841366666667, "rental_uris": {"ios": "https://dc.lft.to/lastmile_qr_scan", "android": "https://dc.lft.to/lastmile_qr_scan"}, "is_reserved": 0, "lon": -77.043443, "fusion_lat": 0.0, "name": "c372f249eba6737a926d16c16b6ce609"}, {"type": "electric_scooter", "fusion_lon": 0.0, "bike_id": "486498dbc656f1accb2f75d24e9575ca", "is_disabled": 0, "lat": 38.92054233333333, "rental_uris": {"ios": "https://dc.lft.to/lastmile_qr_scan", "android": "https://dc.lft.to/lastmile_qr_scan"}, "is_reserved": 0, "lon": -77.03258133333334, "fusion_lat": 0.0, "name": "486498dbc656f1accb2f75d24e9575ca"}, {"type": "electric_bike", "fusion_lon": 0.0, "bike_id": "af28f49ae6cb4900444915042d87567b", "is_disabled": 0, "lat": 38.8962145, "rental_uris": {"ios": "https://dc.lft.to/lastmile_qr_scan", "android": "https://dc.lft.to/lastmile_qr_scan"}, "is_reserved": 0, "lon": -76.90740166666667, "fusion_lat": 0.0, "name": "af28f49ae6cb4900444915042d87567b"}, {"type": "electric_scooter", "fusion_lon": 0.0, "bike_id": "10569bf964fa57fa9f95dbaf774955f4", "is_disabled": 0, "lat": 38.89223766666667, "rental_uris": {"ios": "https://dc.lft.to/lastmile_qr_scan", "android": "https://dc.lft.to/lastmile_qr_scan"}, "is_reserved": 0, "lon": -77.04335383333333, "fusion_lat": 0.0, "name": "10569bf964fa57fa9f95dbaf774955f4"}, {"type": "electric_scooter", "fusion_lon": 0.0, "bike_id": "f647906cbd7a0c34d62da1fe25232b69", "is_disabled": 0, "lat": 38.916912833333335, "rental_uris": {"ios": "https://dc.lft.to/lastmile_qr_scan", "android": "https://dc.lft.to/lastmile_qr_scan"}, "is_reserved": 0, "lon": -77.02897516666667, "fusion_lat": 0.0, "name": "f647906cbd7a0c34d62da1fe25232b69"}, {"type": "electric_scooter", "fusion_lon": 0.0, "bike_id": "424b3ce4c5b6db27823eed491f0ddc84", "is_disabled": 0, "lat": 38.942464666666666, "rental_uris": {"ios": "https://dc.lft.to/lastmile_qr_scan", "android": "https://dc.lft.to/lastmile_qr_scan"}, "is_reserved": 0, "lon": -77.025762, "fusion_lat": 0.0, "name": "424b3ce4c5b6db27823eed491f0ddc84"}, {"type": "electric_scooter", "fusion_lon": 0.0, "bike_id": "4fa5f3bf33d4893cbf220325560b912f", "is_disabled": 0, "lat": 38.9277345, "rental_uris": {"ios": "https://dc.lft.to/lastmile_qr_scan", "android": "https://dc.lft.to/lastmile_qr_scan"}, "is_reserved": 0, "lon": -77.02821783333333, "fusion_lat": 0.0, "name": "4fa5f3bf33d4893cbf220325560b912f"}, {"type": "electric_scooter", "fusion_lon": 0.0, "bike_id": "a4ff71d9a77028e4e7668285f668cbef", "is_disabled": 0, "lat": 38.89503, "rental_uris": {"ios": "https://dc.lft.to/lastmile_qr_scan", "android": "https://dc.lft.to/lastmile_qr_scan"}, "is_reserved": 0, "lon": -77.00945133333333, "fusion_lat": 0.0, "name": "a4ff71d9a77028e4e7668285f668cbef"}, {"type": "electric_scooter", "fusion_lon": 0.0, "bike_id": "f14be341ac07a153ca4363ec99df7c0d", "is_disabled": 0, "lat": 38.903482833333335, "rental_uris": {"ios": "https://dc.lft.to/lastmile_qr_scan", "android": "https://dc.lft.to/lastmile_qr_scan"}, "is_reserved": 0, "lon": -77.04346116666666, "fusion_lat": 0.0, "name": "f14be341ac07a153ca4363ec99df7c0d"}, {"type": "electric_scooter", "fusion_lon": 0.0, "bike_id": "f7508b8b37777010b16e0f4d8f22e2ff", "is_disabled": 0, "lat": 38.9194885, "rental_uris": {"ios": "https://dc.lft.to/lastmile_qr_scan", "android": "https://dc.lft.to/lastmile_qr_scan"}, "is_reserved": 0, "lon": -77.01780383333333, "fusion_lat": 0.0, "name": "f7508b8b37777010b16e0f4d8f22e2ff"}, {"type": "electric_bike", "fusion_lon": 0.0, "bike_id": "dc95c53958694b518b852c875a4bdb0b", "is_disabled": 0, "lat": 38.8849465, "rental_uris": {"ios": "https://dc.lft.to/lastmile_qr_scan", "android": "https://dc.lft.to/lastmile_qr_scan"}, "is_reserved": 0, "lon": -76.95758883333333, "fusion_lat": 0.0, "name": "dc95c53958694b518b852c875a4bdb0b"}, {"type": "electric_scooter", "fusion_lon": 0.0, "bike_id": "751957f463941f868c7ed19296fffaa3", "is_disabled": 0, "lat": 38.901392, "rental_uris": {"ios": "https://dc.lft.to/lastmile_qr_scan", "android": "https://dc.lft.to/lastmile_qr_scan"}, "is_reserved": 0, "lon": -77.04432866666667, "fusion_lat": 0.0, "name": "751957f463941f868c7ed19296fffaa3"}, {"type": "electric_bike", "fusion_lon": 0.0, "bike_id": "adeb7de70a8d851feee73665c4e93205", "is_disabled": 0, "lat": 38.924095333333334, "rental_uris": {"ios": "https://dc.lft.to/lastmile_qr_scan", "android": "https://dc.lft.to/lastmile_qr_scan"}, "is_reserved": 0, "lon": -77.02473033333334, "fusion_lat": 0.0, "name": "adeb7de70a8d851feee73665c4e93205"}, {"type": "electric_scooter", "fusion_lon": 0.0, "bike_id": "b63465defa6671dc8092243e4facdfee", "is_disabled": 0, "lat": 38.9423285, "rental_uris": {"ios": "https://dc.lft.to/lastmile_qr_scan", "android": "https://dc.lft.to/lastmile_qr_scan"}, "is_reserved": 0, "lon": -77.03869, "fusion_lat": 0.0, "name": "b63465defa6671dc8092243e4facdfee"}, {"type": "electric_scooter", "fusion_lon": 0.0, "bike_id": "c18212f19b7f2e652ac9d17a75ad7024", "is_disabled": 0, "lat": 38.911229666666664, "rental_uris": {"ios": "https://dc.lft.to/lastmile_qr_scan", "android": "https://dc.lft.to/lastmile_qr_scan"}, "is_reserved": 0, "lon": -77.04327833333333, "fusion_lat": 0.0, "name": "c18212f19b7f2e652ac9d17a75ad7024"}, {"type": "electric_scooter", "fusion_lon": 0.0, "bike_id": "baa8322034b854564700a0d9f100f455", "is_disabled": 0, "lat": 38.92167116666667, "rental_uris": {"ios": "https://dc.lft.to/lastmile_qr_scan", "android": "https://dc.lft.to/lastmile_qr_scan"}, "is_reserved": 0, "lon": -77.04688633333333, "fusion_lat": 0.0, "name": "baa8322034b854564700a0d9f100f455"}, {"type": "electric_scooter", "fusion_lon": 0.0, "bike_id": "2f1dc1996dc889e0c5773afe0770968b", "is_disabled": 0, "lat": 38.913581666666666, "rental_uris": {"ios": "https://dc.lft.to/lastmile_qr_scan", "android": "https://dc.lft.to/lastmile_qr_scan"}, "is_reserved": 0, "lon": -77.03198483333334, "fusion_lat": 0.0, "name": "2f1dc1996dc889e0c5773afe0770968b"}, {"type": "electric_scooter", "fusion_lon": 0.0, "bike_id": "3f2c195e6b417c647726f3db63ed118d", "is_disabled": 0, "lat": 38.90740616666667, "rental_uris": {"ios": "https://dc.lft.to/lastmile_qr_scan", "android": "https://dc.lft.to/lastmile_qr_scan"}, "is_reserved": 0, "lon": -77.04335483333334, "fusion_lat": 0.0, "name": "3f2c195e6b417c647726f3db63ed118d"}, {"type": "electric_scooter", "fusion_lon": 0.0, "bike_id": "ff36cd268878d4522a5fea08c45da21e", "is_disabled": 0, "lat": 38.92395116666667, "rental_uris": {"ios": "https://dc.lft.to/lastmile_qr_scan", "android": "https://dc.lft.to/lastmile_qr_scan"}, "is_reserved": 0, "lon": -77.03399716666667, "fusion_lat": 0.0, "name": "ff36cd268878d4522a5fea08c45da21e"}, {"type": "electric_scooter", "fusion_lon": 0.0, "bike_id": "f3f606f0decb6ecaa5260c5062f10c6a", "is_disabled": 0, "lat": 38.887166, "rental_uris": {"ios": "https://dc.lft.to/lastmile_qr_scan", "android": "https://dc.lft.to/lastmile_qr_scan"}, "is_reserved": 0, "lon": -77.022027, "fusion_lat": 0.0, "name": "f3f606f0decb6ecaa5260c5062f10c6a"}, {"type": "electric_scooter", "fusion_lon": 0.0, "bike_id": "8a2802a72ae97ce6b5d0401bd820d1ef", "is_disabled": 0, "lat": 38.90270433333333, "rental_uris": {"ios": "https://dc.lft.to/lastmile_qr_scan", "android": "https://dc.lft.to/lastmile_qr_scan"}, "is_reserved": 0, "lon": -77.04531983333334, "fusion_lat": 0.0, "name": "8a2802a72ae97ce6b5d0401bd820d1ef"}, {"type": "electric_scooter", "fusion_lon": 0.0, "bike_id": "3f8d0d8639772b56cd53f453e70058cd", "is_disabled": 0, "lat": 38.927492666666666, "rental_uris": {"ios": "https://dc.lft.to/lastmile_qr_scan", "android": "https://dc.lft.to/lastmile_qr_scan"}, "is_reserved": 0, "lon": -77.02536283333333, "fusion_lat": 0.0, "name": "3f8d0d8639772b56cd53f453e70058cd"}, {"type": "electric_scooter", "fusion_lon": 0.0, "bike_id": "786a4a33ef93901a40d81b25e3c2fcd8", "is_disabled": 0, "lat": 38.902758166666665, "rental_uris": {"ios": "https://dc.lft.to/lastmile_qr_scan", "android": "https://dc.lft.to/lastmile_qr_scan"}, "is_reserved": 0, "lon": -77.02724633333334, "fusion_lat": 0.0, "name": "786a4a33ef93901a40d81b25e3c2fcd8"}, {"type": "electric_scooter", "fusion_lon": 0.0, "bike_id": "833a79b76474d0c3abd8b4f0cf6aa354", "is_disabled": 0, "lat": 38.904131, "rental_uris": {"ios": "https://dc.lft.to/lastmile_qr_scan", "android": "https://dc.lft.to/lastmile_qr_scan"}, "is_reserved": 0, "lon": -76.9732885, "fusion_lat": 0.0, "name": "833a79b76474d0c3abd8b4f0cf6aa354"}, {"type": "electric_scooter", "fusion_lon": 0.0, "bike_id": "7174af048a8f4a9f73c13339cb54ffc2", "is_disabled": 0, "lat": 38.92046033333333, "rental_uris": {"ios": "https://dc.lft.to/lastmile_qr_scan", "android": "https://dc.lft.to/lastmile_qr_scan"}, "is_reserved": 0, "lon": -77.01668283333333, "fusion_lat": 0.0, "name": "7174af048a8f4a9f73c13339cb54ffc2"}, {"type": "electric_scooter", "fusion_lon": 0.0, "bike_id": "773d02b32da79f6bcc06b8c05eccb0ba", "is_disabled": 0, "lat": 38.904499333333334, "rental_uris": {"ios": "https://dc.lft.to/lastmile_qr_scan", "android": "https://dc.lft.to/lastmile_qr_scan"}, "is_reserved": 0, "lon": -77.03476716666667, "fusion_lat": 0.0, "name": "773d02b32da79f6bcc06b8c05eccb0ba"}, {"type": "electric_scooter", "fusion_lon": 0.0, "bike_id": "410cbb7f5458b7dedb958f4fb8aa08bb", "is_disabled": 0, "lat": 38.8999925, "rental_uris": {"ios": "https://dc.lft.to/lastmile_qr_scan", "android": "https://dc.lft.to/lastmile_qr_scan"}, "is_reserved": 0, "lon": -77.024476, "fusion_lat": 0.0, "name": "410cbb7f5458b7dedb958f4fb8aa08bb"}, {"type": "electric_scooter", "fusion_lon": 0.0, "bike_id": "34cdbc26d6ee59bdbb91f9429bdb46b6", "is_disabled": 0, "lat": 38.8834295, "rental_uris": {"ios": "https://dc.lft.to/lastmile_qr_scan", "android": "https://dc.lft.to/lastmile_qr_scan"}, "is_reserved": 0, "lon": -76.93500316666666, "fusion_lat": 0.0, "name": "34cdbc26d6ee59bdbb91f9429bdb46b6"}, {"type": "electric_scooter", "fusion_lon": 0.0, "bike_id": "ea59c5aca93e9a27a42d2adbc39613d1", "is_disabled": 0, "lat": 38.901257, "rental_uris": {"ios": "https://dc.lft.to/lastmile_qr_scan", "android": "https://dc.lft.to/lastmile_qr_scan"}, "is_reserved": 0, "lon": -77.04418866666667, "fusion_lat": 0.0, "name": "ea59c5aca93e9a27a42d2adbc39613d1"}, {"type": "electric_scooter", "fusion_lon": 0.0, "bike_id": "a424b178952eae24775ba7503d58c273", "is_disabled": 0, "lat": 38.90347, "rental_uris": {"ios": "https://dc.lft.to/lastmile_qr_scan", "android": "https://dc.lft.to/lastmile_qr_scan"}, "is_reserved": 0, "lon": -77.03861433333333, "fusion_lat": 0.0, "name": "a424b178952eae24775ba7503d58c273"}, {"type": "electric_scooter", "fusion_lon": 0.0, "bike_id": "7a9dc5f280bc767f79dff8d28b5c1bf4", "is_disabled": 0, "lat": 38.90912383333333, "rental_uris": {"ios": "https://dc.lft.to/lastmile_qr_scan", "android": "https://dc.lft.to/lastmile_qr_scan"}, "is_reserved": 0, "lon": -77.072664, "fusion_lat": 0.0, "name": "7a9dc5f280bc767f79dff8d28b5c1bf4"}, {"type": "electric_scooter", "fusion_lon": 0.0, "bike_id": "e9f6c4f65ac725e1d416acdaf8e74a1e", "is_disabled": 0, "lat": 38.91896366666667, "rental_uris": {"ios": "https://dc.lft.to/lastmile_qr_scan", "android": "https://dc.lft.to/lastmile_qr_scan"}, "is_reserved": 0, "lon": -77.03821033333334, "fusion_lat": 0.0, "name": "e9f6c4f65ac725e1d416acdaf8e74a1e"}, {"type": "electric_scooter", "fusion_lon": 0.0, "bike_id": "b1d8f252b52e27cbb1d16231340feed5", "is_disabled": 0, "lat": 38.917166333333334, "rental_uris": {"ios": "https://dc.lft.to/lastmile_qr_scan", "android": "https://dc.lft.to/lastmile_qr_scan"}, "is_reserved": 0, "lon": -77.0386005, "fusion_lat": 0.0, "name": "b1d8f252b52e27cbb1d16231340feed5"}, {"type": "electric_scooter", "fusion_lon": 0.0, "bike_id": "a8325c1c09c624a4bcbafb30fac86290", "is_disabled": 0, "lat": 38.927447666666666, "rental_uris": {"ios": "https://dc.lft.to/lastmile_qr_scan", "android": "https://dc.lft.to/lastmile_qr_scan"}, "is_reserved": 0, "lon": -76.95551866666666, "fusion_lat": 0.0, "name": "a8325c1c09c624a4bcbafb30fac86290"}, {"type": "electric_scooter", "fusion_lon": 0.0, "bike_id": "92a9b6b6f277e8f3a19b26fbdd673260", "is_disabled": 0, "lat": 38.8766725, "rental_uris": {"ios": "https://dc.lft.to/lastmile_qr_scan", "android": "https://dc.lft.to/lastmile_qr_scan"}, "is_reserved": 0, "lon": -77.00330216666667, "fusion_lat": 0.0, "name": "92a9b6b6f277e8f3a19b26fbdd673260"}, {"type": "electric_scooter", "fusion_lon": 0.0, "bike_id": "c5936c553f405dc8cfc91ce01fa247be", "is_disabled": 0, "lat": 38.94894816666667, "rental_uris": {"ios": "https://dc.lft.to/lastmile_qr_scan", "android": "https://dc.lft.to/lastmile_qr_scan"}, "is_reserved": 0, "lon": -77.01855116666667, "fusion_lat": 0.0, "name": "c5936c553f405dc8cfc91ce01fa247be"}, {"type": "electric_scooter", "fusion_lon": 0.0, "bike_id": "1410f7b7965e3a8ffcdb030e276fba92", "is_disabled": 0, "lat": 38.866986, "rental_uris": {"ios": "https://dc.lft.to/lastmile_qr_scan", "android": "https://dc.lft.to/lastmile_qr_scan"}, "is_reserved": 0, "lon": -76.98093533333333, "fusion_lat": 0.0, "name": "1410f7b7965e3a8ffcdb030e276fba92"}, {"type": "electric_scooter", "fusion_lon": 0.0, "bike_id": "be92867e728e27d27210de38a32099ee", "is_disabled": 0, "lat": 38.900634, "rental_uris": {"ios": "https://dc.lft.to/lastmile_qr_scan", "android": "https://dc.lft.to/lastmile_qr_scan"}, "is_reserved": 0, "lon": -77.04337883333334, "fusion_lat": 0.0, "name": "be92867e728e27d27210de38a32099ee"}, {"type": "electric_scooter", "fusion_lon": 0.0, "bike_id": "b8f50f982a87bde362ba062ce25c3bf2", "is_disabled": 0, "lat": 38.898414833333334, "rental_uris": {"ios": "https://dc.lft.to/lastmile_qr_scan", "android": "https://dc.lft.to/lastmile_qr_scan"}, "is_reserved": 0, "lon": -77.02867733333333, "fusion_lat": 0.0, "name": "b8f50f982a87bde362ba062ce25c3bf2"}, {"type": "electric_scooter", "fusion_lon": 0.0, "bike_id": "7300cdc66aad47cadaaaca5ca33c7988", "is_disabled": 0, "lat": 38.921333833333335, "rental_uris": {"ios": "https://dc.lft.to/lastmile_qr_scan", "android": "https://dc.lft.to/lastmile_qr_scan"}, "is_reserved": 0, "lon": -77.04211716666667, "fusion_lat": 0.0, "name": "7300cdc66aad47cadaaaca5ca33c7988"}, {"type": "electric_scooter", "fusion_lon": 0.0, "bike_id": "6c86b2a30c68f9f8c5bb2728836af540", "is_disabled": 0, "lat": 38.862907166666666, "rental_uris": {"ios": "https://dc.lft.to/lastmile_qr_scan", "android": "https://dc.lft.to/lastmile_qr_scan"}, "is_reserved": 0, "lon": -76.99229566666666, "fusion_lat": 0.0, "name": "6c86b2a30c68f9f8c5bb2728836af540"}, {"type": "electric_scooter", "fusion_lon": 0.0, "bike_id": "587440a6d4f9c20747c96f24230b01d9", "is_disabled": 0, "lat": 38.90239483333333, "rental_uris": {"ios": "https://dc.lft.to/lastmile_qr_scan", "android": "https://dc.lft.to/lastmile_qr_scan"}, "is_reserved": 0, "lon": -77.00198833333333, "fusion_lat": 0.0, "name": "587440a6d4f9c20747c96f24230b01d9"}, {"type": "electric_scooter", "fusion_lon": 0.0, "bike_id": "2774ca7ec9c5beb21169ffc5653d5be0", "is_disabled": 0, "lat": 38.9070925, "rental_uris": {"ios": "https://dc.lft.to/lastmile_qr_scan", "android": "https://dc.lft.to/lastmile_qr_scan"}, "is_reserved": 0, "lon": -76.985582, "fusion_lat": 0.0, "name": "2774ca7ec9c5beb21169ffc5653d5be0"}, {"type": "electric_scooter", "fusion_lon": 0.0, "bike_id": "3da856390190ada712ca82ec41ba046e", "is_disabled": 0, "lat": 38.90650083333333, "rental_uris": {"ios": "https://dc.lft.to/lastmile_qr_scan", "android": "https://dc.lft.to/lastmile_qr_scan"}, "is_reserved": 0, "lon": -77.04247216666667, "fusion_lat": 0.0, "name": "3da856390190ada712ca82ec41ba046e"}, {"type": "electric_scooter", "fusion_lon": 0.0, "bike_id": "959e6fdfaaad6374a9775be2e3304dd3", "is_disabled": 0, "lat": 38.88609066666667, "rental_uris": {"ios": "https://dc.lft.to/lastmile_qr_scan", "android": "https://dc.lft.to/lastmile_qr_scan"}, "is_reserved": 0, "lon": -76.98373016666666, "fusion_lat": 0.0, "name": "959e6fdfaaad6374a9775be2e3304dd3"}, {"type": "electric_scooter", "fusion_lon": 0.0, "bike_id": "6e685b1c72780fc1ee69d5cd086bf145", "is_disabled": 0, "lat": 38.907266166666666, "rental_uris": {"ios": "https://dc.lft.to/lastmile_qr_scan", "android": "https://dc.lft.to/lastmile_qr_scan"}, "is_reserved": 0, "lon": -77.02491033333334, "fusion_lat": 0.0, "name": "6e685b1c72780fc1ee69d5cd086bf145"}, {"type": "electric_scooter", "fusion_lon": 0.0, "bike_id": "d5bb6aee959c516c34bd57128052d771", "is_disabled": 0, "lat": 38.932834, "rental_uris": {"ios": "https://dc.lft.to/lastmile_qr_scan", "android": "https://dc.lft.to/lastmile_qr_scan"}, "is_reserved": 0, "lon": -77.040835, "fusion_lat": 0.0, "name": "d5bb6aee959c516c34bd57128052d771"}, {"type": "electric_bike", "fusion_lon": 0.0, "bike_id": "885afd16f2f9147eaa58ebdd634fc69e", "is_disabled": 0, "lat": 38.9920665, "rental_uris": {"ios": "https://dc.lft.to/lastmile_qr_scan", "android": "https://dc.lft.to/lastmile_qr_scan"}, "is_reserved": 0, "lon": -77.03208283333333, "fusion_lat": 0.0, "name": "885afd16f2f9147eaa58ebdd634fc69e"}, {"type": "electric_scooter", "fusion_lon": 0.0, "bike_id": "7b9627006e0e6755540266d27ca5d992", "is_disabled": 0, "lat": 38.9382105, "rental_uris": {"ios": "https://dc.lft.to/lastmile_qr_scan", "android": "https://dc.lft.to/lastmile_qr_scan"}, "is_reserved": 0, "lon": -76.98924766666667, "fusion_lat": 0.0, "name": "7b9627006e0e6755540266d27ca5d992"}, {"type": "electric_scooter", "fusion_lon": 0.0, "bike_id": "9ddaf6b16495bceaff0fdfc6e1883c44", "is_disabled": 0, "lat": 38.89925066666667, "rental_uris": {"ios": "https://dc.lft.to/lastmile_qr_scan", "android": "https://dc.lft.to/lastmile_qr_scan"}, "is_reserved": 0, "lon": -76.93378666666666, "fusion_lat": 0.0, "name": "9ddaf6b16495bceaff0fdfc6e1883c44"}, {"type": "electric_scooter", "fusion_lon": 0.0, "bike_id": "dd26ea491d74071d578e3321347c015b", "is_disabled": 0, "lat": 38.897070666666664, "rental_uris": {"ios": "https://dc.lft.to/lastmile_qr_scan", "android": "https://dc.lft.to/lastmile_qr_scan"}, "is_reserved": 0, "lon": -77.01958983333333, "fusion_lat": 0.0, "name": "dd26ea491d74071d578e3321347c015b"}, {"type": "electric_scooter", "fusion_lon": 0.0, "bike_id": "930c3976084914eb0615756cf4450524", "is_disabled": 0, "lat": 38.91035683333333, "rental_uris": {"ios": "https://dc.lft.to/lastmile_qr_scan", "android": "https://dc.lft.to/lastmile_qr_scan"}, "is_reserved": 0, "lon": -77.03199783333334, "fusion_lat": 0.0, "name": "930c3976084914eb0615756cf4450524"}, {"type": "electric_scooter", "fusion_lon": 0.0, "bike_id": "99986dc779fa81b2c3189196e1c9ede9", "is_disabled": 0, "lat": 38.876474, "rental_uris": {"ios": "https://dc.lft.to/lastmile_qr_scan", "android": "https://dc.lft.to/lastmile_qr_scan"}, "is_reserved": 0, "lon": -76.96504883333333, "fusion_lat": 0.0, "name": "99986dc779fa81b2c3189196e1c9ede9"}, {"type": "electric_scooter", "fusion_lon": 0.0, "bike_id": "64953bb1076fef4d13bb657add063b82", "is_disabled": 0, "lat": 38.921701166666665, "rental_uris": {"ios": "https://dc.lft.to/lastmile_qr_scan", "android": "https://dc.lft.to/lastmile_qr_scan"}, "is_reserved": 0, "lon": -77.03846983333334, "fusion_lat": 0.0, "name": "64953bb1076fef4d13bb657add063b82"}, {"type": "electric_scooter", "fusion_lon": 0.0, "bike_id": "2bff8d4d2ba5c0a7c3e8c5feab39c194", "is_disabled": 0, "lat": 38.89905866666667, "rental_uris": {"ios": "https://dc.lft.to/lastmile_qr_scan", "android": "https://dc.lft.to/lastmile_qr_scan"}, "is_reserved": 0, "lon": -77.03323233333333, "fusion_lat": 0.0, "name": "2bff8d4d2ba5c0a7c3e8c5feab39c194"}, {"type": "electric_scooter", "fusion_lon": 0.0, "bike_id": "29ebf88a43ae003c5982905b007db6d6", "is_disabled": 0, "lat": 38.91191716666667, "rental_uris": {"ios": "https://dc.lft.to/lastmile_qr_scan", "android": "https://dc.lft.to/lastmile_qr_scan"}, "is_reserved": 0, "lon": -77.03939, "fusion_lat": 0.0, "name": "29ebf88a43ae003c5982905b007db6d6"}, {"type": "electric_scooter", "fusion_lon": 0.0, "bike_id": "54bb382fda2cc67a17323288481e7055", "is_disabled": 0, "lat": 38.946166, "rental_uris": {"ios": "https://dc.lft.to/lastmile_qr_scan", "android": "https://dc.lft.to/lastmile_qr_scan"}, "is_reserved": 0, "lon": -77.03056183333334, "fusion_lat": 0.0, "name": "54bb382fda2cc67a17323288481e7055"}, {"type": "electric_scooter", "fusion_lon": 0.0, "bike_id": "43a3b39877d8ae9e16cbc852bfd05552", "is_disabled": 0, "lat": 38.9543345, "rental_uris": {"ios": "https://dc.lft.to/lastmile_qr_scan", "android": "https://dc.lft.to/lastmile_qr_scan"}, "is_reserved": 0, "lon": -77.0185095, "fusion_lat": 0.0, "name": "43a3b39877d8ae9e16cbc852bfd05552"}, {"type": "electric_scooter", "fusion_lon": 0.0, "bike_id": "ec585599438bbc4abbfedeaec9c9742b", "is_disabled": 0, "lat": 38.9073175, "rental_uris": {"ios": "https://dc.lft.to/lastmile_qr_scan", "android": "https://dc.lft.to/lastmile_qr_scan"}, "is_reserved": 0, "lon": -77.05323066666666, "fusion_lat": 0.0, "name": "ec585599438bbc4abbfedeaec9c9742b"}, {"type": "electric_scooter", "fusion_lon": 0.0, "bike_id": "d4f97eaba2011360c66c1497b8f1ea06", "is_disabled": 0, "lat": 38.91770266666666, "rental_uris": {"ios": "https://dc.lft.to/lastmile_qr_scan", "android": "https://dc.lft.to/lastmile_qr_scan"}, "is_reserved": 0, "lon": -77.02342083333333, "fusion_lat": 0.0, "name": "d4f97eaba2011360c66c1497b8f1ea06"}, {"type": "electric_scooter", "fusion_lon": 0.0, "bike_id": "471526b9a019bec0c6abc3ba01733f17", "is_disabled": 0, "lat": 38.924086, "rental_uris": {"ios": "https://dc.lft.to/lastmile_qr_scan", "android": "https://dc.lft.to/lastmile_qr_scan"}, "is_reserved": 0, "lon": -77.04207333333333, "fusion_lat": 0.0, "name": "471526b9a019bec0c6abc3ba01733f17"}, {"type": "electric_scooter", "fusion_lon": 0.0, "bike_id": "bd4339a87f28a8fd908d432e41804696", "is_disabled": 0, "lat": 38.905824833333334, "rental_uris": {"ios": "https://dc.lft.to/lastmile_qr_scan", "android": "https://dc.lft.to/lastmile_qr_scan"}, "is_reserved": 0, "lon": -77.04047883333334, "fusion_lat": 0.0, "name": "bd4339a87f28a8fd908d432e41804696"}, {"type": "electric_scooter", "fusion_lon": 0.0, "bike_id": "feeee110d8202ac49702d92e802402db", "is_disabled": 0, "lat": 38.919563833333335, "rental_uris": {"ios": "https://dc.lft.to/lastmile_qr_scan", "android": "https://dc.lft.to/lastmile_qr_scan"}, "is_reserved": 0, "lon": -77.01676233333333, "fusion_lat": 0.0, "name": "feeee110d8202ac49702d92e802402db"}, {"type": "electric_scooter", "fusion_lon": 0.0, "bike_id": "c438e5a85d2cc4c5ee76eed314cc2983", "is_disabled": 0, "lat": 38.89704483333333, "rental_uris": {"ios": "https://dc.lft.to/lastmile_qr_scan", "android": "https://dc.lft.to/lastmile_qr_scan"}, "is_reserved": 0, "lon": -77.04347183333333, "fusion_lat": 0.0, "name": "c438e5a85d2cc4c5ee76eed314cc2983"}, {"type": "electric_scooter", "fusion_lon": 0.0, "bike_id": "fb94afc5ca56325ecf5045cb25cfaedc", "is_disabled": 0, "lat": 38.908279, "rental_uris": {"ios": "https://dc.lft.to/lastmile_qr_scan", "android": "https://dc.lft.to/lastmile_qr_scan"}, "is_reserved": 0, "lon": -77.03904866666667, "fusion_lat": 0.0, "name": "fb94afc5ca56325ecf5045cb25cfaedc"}, {"type": "electric_scooter", "fusion_lon": 0.0, "bike_id": "53dd2ff23bec4563c3a6a5a1f722133b", "is_disabled": 0, "lat": 38.9112115, "rental_uris": {"ios": "https://dc.lft.to/lastmile_qr_scan", "android": "https://dc.lft.to/lastmile_qr_scan"}, "is_reserved": 0, "lon": -77.04369383333334, "fusion_lat": 0.0, "name": "53dd2ff23bec4563c3a6a5a1f722133b"}, {"type": "electric_scooter", "fusion_lon": 0.0, "bike_id": "edacfd847018f49ea766cfcd450f12cf", "is_disabled": 0, "lat": 38.92706583333333, "rental_uris": {"ios": "https://dc.lft.to/lastmile_qr_scan", "android": "https://dc.lft.to/lastmile_qr_scan"}, "is_reserved": 0, "lon": -77.02338416666667, "fusion_lat": 0.0, "name": "edacfd847018f49ea766cfcd450f12cf"}, {"type": "electric_scooter", "fusion_lon": 0.0, "bike_id": "0c2ec45fddae07c557fb8805884c3544", "is_disabled": 0, "lat": 38.914419, "rental_uris": {"ios": "https://dc.lft.to/lastmile_qr_scan", "android": "https://dc.lft.to/lastmile_qr_scan"}, "is_reserved": 0, "lon": -77.0417245, "fusion_lat": 0.0, "name": "0c2ec45fddae07c557fb8805884c3544"}, {"type": "electric_scooter", "fusion_lon": 0.0, "bike_id": "0e35938c23ff229e664f0ba34af32980", "is_disabled": 0, "lat": 38.92340566666667, "rental_uris": {"ios": "https://dc.lft.to/lastmile_qr_scan", "android": "https://dc.lft.to/lastmile_qr_scan"}, "is_reserved": 0, "lon": -77.0365675, "fusion_lat": 0.0, "name": "0e35938c23ff229e664f0ba34af32980"}, {"type": "electric_scooter", "fusion_lon": 0.0, "bike_id": "d74a769e6001c2591c142ceb41c73c1b", "is_disabled": 0, "lat": 38.927112666666666, "rental_uris": {"ios": "https://dc.lft.to/lastmile_qr_scan", "android": "https://dc.lft.to/lastmile_qr_scan"}, "is_reserved": 0, "lon": -77.02093833333333, "fusion_lat": 0.0, "name": "d74a769e6001c2591c142ceb41c73c1b"}, {"type": "electric_scooter", "fusion_lon": 0.0, "bike_id": "4cc56ac66f3b185888e850cc9cca3c83", "is_disabled": 0, "lat": 38.935376, "rental_uris": {"ios": "https://dc.lft.to/lastmile_qr_scan", "android": "https://dc.lft.to/lastmile_qr_scan"}, "is_reserved": 0, "lon": -77.02352566666667, "fusion_lat": 0.0, "name": "4cc56ac66f3b185888e850cc9cca3c83"}, {"type": "electric_scooter", "fusion_lon": 0.0, "bike_id": "ba2a857e867de38804c72608eb78534f", "is_disabled": 0, "lat": 38.89540133333333, "rental_uris": {"ios": "https://dc.lft.to/lastmile_qr_scan", "android": "https://dc.lft.to/lastmile_qr_scan"}, "is_reserved": 0, "lon": -77.02190933333333, "fusion_lat": 0.0, "name": "ba2a857e867de38804c72608eb78534f"}, {"type": "electric_scooter", "fusion_lon": 0.0, "bike_id": "038c0fbb9c586882433214456668573b", "is_disabled": 0, "lat": 38.8922525, "rental_uris": {"ios": "https://dc.lft.to/lastmile_qr_scan", "android": "https://dc.lft.to/lastmile_qr_scan"}, "is_reserved": 0, "lon": -77.0278705, "fusion_lat": 0.0, "name": "038c0fbb9c586882433214456668573b"}, {"type": "electric_scooter", "fusion_lon": 0.0, "bike_id": "702e64be09aa7f62e406691fb4638277", "is_disabled": 0, "lat": 38.87927916666666, "rental_uris": {"ios": "https://dc.lft.to/lastmile_qr_scan", "android": "https://dc.lft.to/lastmile_qr_scan"}, "is_reserved": 0, "lon": -76.99541666666667, "fusion_lat": 0.0, "name": "702e64be09aa7f62e406691fb4638277"}, {"type": "electric_scooter", "fusion_lon": 0.0, "bike_id": "ad226fb782a92958e6b6b7499de82219", "is_disabled": 0, "lat": 38.8922345, "rental_uris": {"ios": "https://dc.lft.to/lastmile_qr_scan", "android": "https://dc.lft.to/lastmile_qr_scan"}, "is_reserved": 0, "lon": -77.02219, "fusion_lat": 0.0, "name": "ad226fb782a92958e6b6b7499de82219"}, {"type": "electric_scooter", "fusion_lon": 0.0, "bike_id": "ac1b0bb133708bdc79f75aafe7156393", "is_disabled": 0, "lat": 38.89225866666666, "rental_uris": {"ios": "https://dc.lft.to/lastmile_qr_scan", "android": "https://dc.lft.to/lastmile_qr_scan"}, "is_reserved": 0, "lon": -77.0262455, "fusion_lat": 0.0, "name": "ac1b0bb133708bdc79f75aafe7156393"}, {"type": "electric_scooter", "fusion_lon": 0.0, "bike_id": "d4d0cd9b024e4cea1555af5dc66b4c34", "is_disabled": 0, "lat": 38.871589166666666, "rental_uris": {"ios": "https://dc.lft.to/lastmile_qr_scan", "android": "https://dc.lft.to/lastmile_qr_scan"}, "is_reserved": 0, "lon": -77.00683533333333, "fusion_lat": 0.0, "name": "d4d0cd9b024e4cea1555af5dc66b4c34"}, {"type": "electric_scooter", "fusion_lon": 0.0, "bike_id": "df5323cce62def7dff394f40bfbfd71f", "is_disabled": 0, "lat": 38.92073466666667, "rental_uris": {"ios": "https://dc.lft.to/lastmile_qr_scan", "android": "https://dc.lft.to/lastmile_qr_scan"}, "is_reserved": 0, "lon": -77.03206683333333, "fusion_lat": 0.0, "name": "df5323cce62def7dff394f40bfbfd71f"}, {"type": "electric_scooter", "fusion_lon": 0.0, "bike_id": "cc4e24ca8df25ef1292eddd4cd9c0d9b", "is_disabled": 0, "lat": 38.9572295, "rental_uris": {"ios": "https://dc.lft.to/lastmile_qr_scan", "android": "https://dc.lft.to/lastmile_qr_scan"}, "is_reserved": 0, "lon": -77.03254716666666, "fusion_lat": 0.0, "name": "cc4e24ca8df25ef1292eddd4cd9c0d9b"}, {"type": "electric_scooter", "fusion_lon": 0.0, "bike_id": "0198531a19e414e8c1ef18a51a43fc17", "is_disabled": 0, "lat": 38.8920045, "rental_uris": {"ios": "https://dc.lft.to/lastmile_qr_scan", "android": "https://dc.lft.to/lastmile_qr_scan"}, "is_reserved": 0, "lon": -77.02379133333334, "fusion_lat": 0.0, "name": "0198531a19e414e8c1ef18a51a43fc17"}, {"type": "electric_scooter", "fusion_lon": 0.0, "bike_id": "3cd0d6993a406460c39781ee8c4b9970", "is_disabled": 0, "lat": 38.90244166666667, "rental_uris": {"ios": "https://dc.lft.to/lastmile_qr_scan", "android": "https://dc.lft.to/lastmile_qr_scan"}, "is_reserved": 0, "lon": -77.001987, "fusion_lat": 0.0, "name": "3cd0d6993a406460c39781ee8c4b9970"}, {"type": "electric_scooter", "fusion_lon": 0.0, "bike_id": "7a23136482f81176352617a28369c81f", "is_disabled": 0, "lat": 38.910839833333334, "rental_uris": {"ios": "https://dc.lft.to/lastmile_qr_scan", "android": "https://dc.lft.to/lastmile_qr_scan"}, "is_reserved": 0, "lon": -76.999416, "fusion_lat": 0.0, "name": "7a23136482f81176352617a28369c81f"}, {"type": "electric_scooter", "fusion_lon": 0.0, "bike_id": "e13e64c2c1b12dba94207c8bdbd1ea23", "is_disabled": 0, "lat": 38.8922725, "rental_uris": {"ios": "https://dc.lft.to/lastmile_qr_scan", "android": "https://dc.lft.to/lastmile_qr_scan"}, "is_reserved": 0, "lon": -77.0262245, "fusion_lat": 0.0, "name": "e13e64c2c1b12dba94207c8bdbd1ea23"}, {"type": "electric_scooter", "fusion_lon": 0.0, "bike_id": "7f090ab6f03d41c55754207e3efc4b28", "is_disabled": 0, "lat": 38.95660083333333, "rental_uris": {"ios": "https://dc.lft.to/lastmile_qr_scan", "android": "https://dc.lft.to/lastmile_qr_scan"}, "is_reserved": 0, "lon": -77.01969216666667, "fusion_lat": 0.0, "name": "7f090ab6f03d41c55754207e3efc4b28"}, {"type": "electric_scooter", "fusion_lon": 0.0, "bike_id": "c48b411c2a43f1c0711b7e2078f2a3aa", "is_disabled": 0, "lat": 38.88092966666667, "rental_uris": {"ios": "https://dc.lft.to/lastmile_qr_scan", "android": "https://dc.lft.to/lastmile_qr_scan"}, "is_reserved": 0, "lon": -76.985262, "fusion_lat": 0.0, "name": "c48b411c2a43f1c0711b7e2078f2a3aa"}, {"type": "electric_scooter", "fusion_lon": 0.0, "bike_id": "32fe3670ebe41009533fb7ab04f1fa3c", "is_disabled": 0, "lat": 38.90254433333333, "rental_uris": {"ios": "https://dc.lft.to/lastmile_qr_scan", "android": "https://dc.lft.to/lastmile_qr_scan"}, "is_reserved": 0, "lon": -77.04343966666667, "fusion_lat": 0.0, "name": "32fe3670ebe41009533fb7ab04f1fa3c"}, {"type": "electric_scooter", "fusion_lon": 0.0, "bike_id": "150e448e035df9575d2390ee7fa4d2f3", "is_disabled": 0, "lat": 38.93171983333333, "rental_uris": {"ios": "https://dc.lft.to/lastmile_qr_scan", "android": "https://dc.lft.to/lastmile_qr_scan"}, "is_reserved": 0, "lon": -77.0366785, "fusion_lat": 0.0, "name": "150e448e035df9575d2390ee7fa4d2f3"}, {"type": "electric_scooter", "fusion_lon": 0.0, "bike_id": "c6eff05693e8299d6207df955d360e9a", "is_disabled": 0, "lat": 38.8747185, "rental_uris": {"ios": "https://dc.lft.to/lastmile_qr_scan", "android": "https://dc.lft.to/lastmile_qr_scan"}, "is_reserved": 0, "lon": -77.00420433333333, "fusion_lat": 0.0, "name": "c6eff05693e8299d6207df955d360e9a"}, {"type": "electric_scooter", "fusion_lon": 0.0, "bike_id": "71841f3bcad0b4c0cd46948489aeaccd", "is_disabled": 0, "lat": 38.89731316666666, "rental_uris": {"ios": "https://dc.lft.to/lastmile_qr_scan", "android": "https://dc.lft.to/lastmile_qr_scan"}, "is_reserved": 0, "lon": -77.01912916666667, "fusion_lat": 0.0, "name": "71841f3bcad0b4c0cd46948489aeaccd"}, {"type": "electric_scooter", "fusion_lon": 0.0, "bike_id": "174c981dded5c6d9708abc2e5f213082", "is_disabled": 0, "lat": 38.913665, "rental_uris": {"ios": "https://dc.lft.to/lastmile_qr_scan", "android": "https://dc.lft.to/lastmile_qr_scan"}, "is_reserved": 0, "lon": -77.02046533333333, "fusion_lat": 0.0, "name": "174c981dded5c6d9708abc2e5f213082"}, {"type": "electric_scooter", "fusion_lon": 0.0, "bike_id": "6b8acc47ebb21bfc5a810a2ea585d5b6", "is_disabled": 0, "lat": 38.92319083333334, "rental_uris": {"ios": "https://dc.lft.to/lastmile_qr_scan", "android": "https://dc.lft.to/lastmile_qr_scan"}, "is_reserved": 0, "lon": -77.03037433333333, "fusion_lat": 0.0, "name": "6b8acc47ebb21bfc5a810a2ea585d5b6"}, {"type": "electric_scooter", "fusion_lon": 0.0, "bike_id": "253bf84def94cf1e85a4ae21fc03237c", "is_disabled": 0, "lat": 38.9263295, "rental_uris": {"ios": "https://dc.lft.to/lastmile_qr_scan", "android": "https://dc.lft.to/lastmile_qr_scan"}, "is_reserved": 0, "lon": -77.02266583333333, "fusion_lat": 0.0, "name": "253bf84def94cf1e85a4ae21fc03237c"}, {"type": "electric_scooter", "fusion_lon": 0.0, "bike_id": "999d3d07823bdb96c4db380846c91831", "is_disabled": 0, "lat": 38.9002705, "rental_uris": {"ios": "https://dc.lft.to/lastmile_qr_scan", "android": "https://dc.lft.to/lastmile_qr_scan"}, "is_reserved": 0, "lon": -76.99755, "fusion_lat": 0.0, "name": "999d3d07823bdb96c4db380846c91831"}, {"type": "electric_scooter", "fusion_lon": 0.0, "bike_id": "c825c105509611997e0ad83ee2b9710b", "is_disabled": 0, "lat": 38.924635, "rental_uris": {"ios": "https://dc.lft.to/lastmile_qr_scan", "android": "https://dc.lft.to/lastmile_qr_scan"}, "is_reserved": 0, "lon": -77.04029083333333, "fusion_lat": 0.0, "name": "c825c105509611997e0ad83ee2b9710b"}, {"type": "electric_scooter", "fusion_lon": 0.0, "bike_id": "3267830e9ad69ef7e51e338273b36dc8", "is_disabled": 0, "lat": 38.895325666666665, "rental_uris": {"ios": "https://dc.lft.to/lastmile_qr_scan", "android": "https://dc.lft.to/lastmile_qr_scan"}, "is_reserved": 0, "lon": -77.01613283333333, "fusion_lat": 0.0, "name": "3267830e9ad69ef7e51e338273b36dc8"}, {"type": "electric_scooter", "fusion_lon": 0.0, "bike_id": "c9a95f40aa820b5bafef8208f7e8b0f8", "is_disabled": 0, "lat": 38.907805333333336, "rental_uris": {"ios": "https://dc.lft.to/lastmile_qr_scan", "android": "https://dc.lft.to/lastmile_qr_scan"}, "is_reserved": 0, "lon": -77.07166566666666, "fusion_lat": 0.0, "name": "c9a95f40aa820b5bafef8208f7e8b0f8"}, {"type": "electric_scooter", "fusion_lon": 0.0, "bike_id": "1873153978d1835ebe6b1c3dc5d6d9c9", "is_disabled": 0, "lat": 38.892274, "rental_uris": {"ios": "https://dc.lft.to/lastmile_qr_scan", "android": "https://dc.lft.to/lastmile_qr_scan"}, "is_reserved": 0, "lon": -77.024199, "fusion_lat": 0.0, "name": "1873153978d1835ebe6b1c3dc5d6d9c9"}, {"type": "electric_scooter", "fusion_lon": 0.0, "bike_id": "b5a5bcdb5f3a05f615e8072e9ff42bf5", "is_disabled": 0, "lat": 38.91995766666667, "rental_uris": {"ios": "https://dc.lft.to/lastmile_qr_scan", "android": "https://dc.lft.to/lastmile_qr_scan"}, "is_reserved": 0, "lon": -77.02392683333333, "fusion_lat": 0.0, "name": "b5a5bcdb5f3a05f615e8072e9ff42bf5"}, {"type": "electric_scooter", "fusion_lon": 0.0, "bike_id": "cb79ca95dd7b3c2431a1590b2786bdc0", "is_disabled": 0, "lat": 38.892083, "rental_uris": {"ios": "https://dc.lft.to/lastmile_qr_scan", "android": "https://dc.lft.to/lastmile_qr_scan"}, "is_reserved": 0, "lon": -76.95696516666666, "fusion_lat": 0.0, "name": "cb79ca95dd7b3c2431a1590b2786bdc0"}, {"type": "electric_scooter", "fusion_lon": 0.0, "bike_id": "c8321e86e6e1a25adfafcbeafa6e9d68", "is_disabled": 0, "lat": 38.874654666666665, "rental_uris": {"ios": "https://dc.lft.to/lastmile_qr_scan", "android": "https://dc.lft.to/lastmile_qr_scan"}, "is_reserved": 0, "lon": -77.00569566666667, "fusion_lat": 0.0, "name": "c8321e86e6e1a25adfafcbeafa6e9d68"}, {"type": "electric_scooter", "fusion_lon": 0.0, "bike_id": "e568ef1a02ef51d0010380ec85ac36ed", "is_disabled": 0, "lat": 38.93090766666667, "rental_uris": {"ios": "https://dc.lft.to/lastmile_qr_scan", "android": "https://dc.lft.to/lastmile_qr_scan"}, "is_reserved": 0, "lon": -77.02786733333333, "fusion_lat": 0.0, "name": "e568ef1a02ef51d0010380ec85ac36ed"}, {"type": "electric_scooter", "fusion_lon": 0.0, "bike_id": "d1d8557fd61e831251cde058636a4f16", "is_disabled": 0, "lat": 38.887176833333335, "rental_uris": {"ios": "https://dc.lft.to/lastmile_qr_scan", "android": "https://dc.lft.to/lastmile_qr_scan"}, "is_reserved": 0, "lon": -77.0220415, "fusion_lat": 0.0, "name": "d1d8557fd61e831251cde058636a4f16"}, {"type": "electric_scooter", "fusion_lon": 0.0, "bike_id": "34c6b0540b9e517a4c96788d9680ec90", "is_disabled": 0, "lat": 38.91852933333333, "rental_uris": {"ios": "https://dc.lft.to/lastmile_qr_scan", "android": "https://dc.lft.to/lastmile_qr_scan"}, "is_reserved": 0, "lon": -77.08998083333333, "fusion_lat": 0.0, "name": "34c6b0540b9e517a4c96788d9680ec90"}, {"type": "electric_scooter", "fusion_lon": 0.0, "bike_id": "cbaa3dc24b998a2b581900faff17f158", "is_disabled": 0, "lat": 38.892256833333334, "rental_uris": {"ios": "https://dc.lft.to/lastmile_qr_scan", "android": "https://dc.lft.to/lastmile_qr_scan"}, "is_reserved": 0, "lon": -77.0451595, "fusion_lat": 0.0, "name": "cbaa3dc24b998a2b581900faff17f158"}, {"type": "electric_scooter", "fusion_lon": 0.0, "bike_id": "3bee4b77e00c19da1cf7e4a24fe31be0", "is_disabled": 0, "lat": 38.925197833333335, "rental_uris": {"ios": "https://dc.lft.to/lastmile_qr_scan", "android": "https://dc.lft.to/lastmile_qr_scan"}, "is_reserved": 0, "lon": -77.02249883333333, "fusion_lat": 0.0, "name": "3bee4b77e00c19da1cf7e4a24fe31be0"}, {"type": "electric_scooter", "fusion_lon": 0.0, "bike_id": "131175fdab944fd69718b70d97096029", "is_disabled": 0, "lat": 38.917841333333335, "rental_uris": {"ios": "https://dc.lft.to/lastmile_qr_scan", "android": "https://dc.lft.to/lastmile_qr_scan"}, "is_reserved": 0, "lon": -77.02308516666666, "fusion_lat": 0.0, "name": "131175fdab944fd69718b70d97096029"}, {"type": "electric_bike", "fusion_lon": 0.0, "bike_id": "82a39eef361e7479f6568a30f896cc09", "is_disabled": 0, "lat": 38.81984, "rental_uris": {"ios": "https://dc.lft.to/lastmile_qr_scan", "android": "https://dc.lft.to/lastmile_qr_scan"}, "is_reserved": 0, "lon": -76.998081, "fusion_lat": 0.0, "name": "82a39eef361e7479f6568a30f896cc09"}, {"type": "electric_scooter", "fusion_lon": 0.0, "bike_id": "e6ae4a784be54db44496995f71e9c6ed", "is_disabled": 0, "lat": 38.89178583333333, "rental_uris": {"ios": "https://dc.lft.to/lastmile_qr_scan", "android": "https://dc.lft.to/lastmile_qr_scan"}, "is_reserved": 0, "lon": -76.926594, "fusion_lat": 0.0, "name": "e6ae4a784be54db44496995f71e9c6ed"}, {"type": "electric_scooter", "fusion_lon": 0.0, "bike_id": "baeb261b203fba7fcd974ef8ddca7a10", "is_disabled": 0, "lat": 38.90648233333334, "rental_uris": {"ios": "https://dc.lft.to/lastmile_qr_scan", "android": "https://dc.lft.to/lastmile_qr_scan"}, "is_reserved": 0, "lon": -76.9837945, "fusion_lat": 0.0, "name": "baeb261b203fba7fcd974ef8ddca7a10"}, {"type": "electric_scooter", "fusion_lon": 0.0, "bike_id": "f05d0b392839a61b6fd9742f43e2622d", "is_disabled": 0, "lat": 38.892269666666664, "rental_uris": {"ios": "https://dc.lft.to/lastmile_qr_scan", "android": "https://dc.lft.to/lastmile_qr_scan"}, "is_reserved": 0, "lon": -77.03339666666666, "fusion_lat": 0.0, "name": "f05d0b392839a61b6fd9742f43e2622d"}, {"type": "electric_scooter", "fusion_lon": 0.0, "bike_id": "639b142d4e9aa896b8f6c294504d12e1", "is_disabled": 0, "lat": 38.912062, "rental_uris": {"ios": "https://dc.lft.to/lastmile_qr_scan", "android": "https://dc.lft.to/lastmile_qr_scan"}, "is_reserved": 0, "lon": -76.98768366666667, "fusion_lat": 0.0, "name": "639b142d4e9aa896b8f6c294504d12e1"}, {"type": "electric_scooter", "fusion_lon": 0.0, "bike_id": "e1fcf2cbd052bb600dc82f4b5410dac7", "is_disabled": 0, "lat": 38.896003666666665, "rental_uris": {"ios": "https://dc.lft.to/lastmile_qr_scan", "android": "https://dc.lft.to/lastmile_qr_scan"}, "is_reserved": 0, "lon": -77.04750116666666, "fusion_lat": 0.0, "name": "e1fcf2cbd052bb600dc82f4b5410dac7"}, {"type": "electric_scooter", "fusion_lon": 0.0, "bike_id": "b9a8979e69a4b6c805794568c0109591", "is_disabled": 0, "lat": 38.928754833333336, "rental_uris": {"ios": "https://dc.lft.to/lastmile_qr_scan", "android": "https://dc.lft.to/lastmile_qr_scan"}, "is_reserved": 0, "lon": -77.03104216666667, "fusion_lat": 0.0, "name": "b9a8979e69a4b6c805794568c0109591"},