{"data": {"bikes": [{"rental_uris": {"ios": "https://dc.lft.to/lastmile_qr_scan", "android": "https://dc.lft.to/lastmile_qr_scan"}, "type": "electric_scooter", "name": "8b2c4ce6edcb42d1fb2e6d798985fe0b", "is_reserved": 0, "lon": -77.05600016666666, "is_disabled": 0, "fusion_lat": 0.0, "lat": 38.93701, "bike_id": "8b2c4ce6edcb42d1fb2e6d798985fe0b", "fusion_lon": 0.0}, {"rental_uris": {"ios": "https://dc.lft.to/lastmile_qr_scan", "android": "https://dc.lft.to/lastmile_qr_scan"}, "type": "electric_scooter", "name": "48832a86687f2ac4ac8cc6df07cc3f0f", "is_reserved": 0, "lon": -77.03662633333333, "is_disabled": 0, "fusion_lat": 0.0, "lat": 38.9175995, "bike_id": "48832a86687f2ac4ac8cc6df07cc3f0f", "fusion_lon": 0.0}, {"rental_uris": {"ios": "https://dc.lft.to/lastmile_qr_scan", "android": "https://dc.lft.to/lastmile_qr_scan"}, "type": "electric_scooter", "name": "46886d6a7a101d49b5ecf3687b3d1c16", "is_reserved": 0, "lon": -77.00760083333333, "is_disabled": 0, "fusion_lat": 0.0, "lat": 38.92673933333333, "bike_id": "46886d6a7a101d49b5ecf3687b3d1c16", "fusion_lon": 0.0}, {"rental_uris": {"ios": "https://dc.lft.to/lastmile_qr_scan", "android": "https://dc.lft.to/lastmile_qr_scan"}, "type": "electric_scooter", "name": "d3833a4e1574dda1a3ba990d9ddde5ef", "is_reserved": 0, "lon": -76.994125, "is_disabled": 0, "fusion_lat": 0.0, "lat": 38.9210315, "bike_id": "d3833a4e1574dda1a3ba990d9ddde5ef", "fusion_lon": 0.0}, {"rental_uris": {"ios": "https://dc.lft.to/lastmile_qr_scan", "android": "https://dc.lft.to/lastmile_qr_scan"}, "type": "electric_scooter", "name": "dc391a9d9bf9319703cb471fee4e56a9", "is_reserved": 0, "lon": -77.007299, "is_disabled": 0, "fusion_lat": 0.0, "lat": 38.87662233333333, "bike_id": "dc391a9d9bf9319703cb471fee4e56a9", "fusion_lon": 0.0}, {"rental_uris": {"ios": "https://dc.lft.to/lastmile_qr_scan", "android": "https://dc.lft.to/lastmile_qr_scan"}, "type": "electric_scooter", "name": "2479f36c6fe5bcb1a8b4dc678958424f", "is_reserved": 0, "lon": -77.0383535, "is_disabled": 0, "fusion_lat": 0.0, "lat": 38.910733, "bike_id": "2479f36c6fe5bcb1a8b4dc678958424f", "fusion_lon": 0.0}, {"rental_uris": {"ios": "https://dc.lft.to/lastmile_qr_scan", "android": "https://dc.lft.to/lastmile_qr_scan"}, "type": "electric_scooter", "name": "96ba25df77ddae810c6468ff7e4d93f2", "is_reserved": 0, "lon": -77.050184, "is_disabled": 0, "fusion_lat": 0.0, "lat": 38.923559166666664, "bike_id": "96ba25df77ddae810c6468ff7e4d93f2", "fusion_lon": 0.0}, {"rental_uris": {"ios": "https://dc.lft.to/lastmile_qr_scan", "android": "https://dc.lft.to/lastmile_qr_scan"}, "type": "electric_scooter", "name": "db974a4d37b0140755f2a63e152edf97", "is_reserved": 0, "lon": -77.0177405, "is_disabled": 0, "fusion_lat": 0.0, "lat": 38.883159666666664, "bike_id": "db974a4d37b0140755f2a63e152edf97", "fusion_lon": 0.0}, {"rental_uris": {"ios": "https://dc.lft.to/lastmile_qr_scan", "android": "https://dc.lft.to/lastmile_qr_scan"}, "type": "electric_scooter", "name": "9cc9cd60876733b99a9287fae766b256", "is_reserved": 0, "lon": -77.02414983333334, "is_disabled": 0, "fusion_lat": 0.0, "lat": 38.9095875, "bike_id": "9cc9cd60876733b99a9287fae766b256", "fusion_lon": 0.0}, {"rental_uris": {"ios": "https://dc.lft.to/lastmile_qr_scan", "android": "https://dc.lft.to/lastmile_qr_scan"}, "type": "electric_scooter", "name": "13f451efcc8501486e702cdc64c31cdb", "is_reserved": 0, "lon": -77.04483266666666, "is_disabled": 0, "fusion_lat": 0.0, "lat": 38.893382833333334, "bike_id": "13f451efcc8501486e702cdc64c31cdb", "fusion_lon": 0.0}, {"rental_uris": {"ios": "https://dc.lft.to/lastmile_qr_scan", "android": "https://dc.lft.to/lastmile_qr_scan"}, "type": "electric_scooter", "name": "29552de407e6b0f705dab155c33a2559", "is_reserved": 0, "lon": -77.0355155, "is_disabled": 0, "fusion_lat": 0.0, "lat": 38.904703833333336, "bike_id": "29552de407e6b0f705dab155c33a2559", "fusion_lon": 0.0}, {"rental_uris": {"ios": "https://dc.lft.to/lastmile_qr_scan", "android": "https://dc.lft.to/lastmile_qr_scan"}, "type": "electric_scooter", "name": "00a0ce328a3c0a48d2a1fb1c35c6ad8c", "is_reserved": 0, "lon": -77.041603, "is_disabled": 0, "fusion_lat": 0.0, "lat": 38.914562333333336, "bike_id": "00a0ce328a3c0a48d2a1fb1c35c6ad8c", "fusion_lon": 0.0}, {"rental_uris": {"ios": "https://dc.lft.to/lastmile_qr_scan", "android": "https://dc.lft.to/lastmile_qr_scan"}, "type": "electric_scooter", "name": "d78ccac3a33c55d83896060417317d34", "is_reserved": 0, "lon": -77.01084283333333, "is_disabled": 0, "fusion_lat": 0.0, "lat": 38.90330483333334, "bike_id": "d78ccac3a33c55d83896060417317d34", "fusion_lon": 0.0}, {"rental_uris": {"ios": "https://dc.lft.to/lastmile_qr_scan", "android": "https://dc.lft.to/lastmile_qr_scan"}, "type": "electric_scooter", "name": "448eb6b9bb59fb1056abf222c1b277b3", "is_reserved": 0, "lon": -77.0428275, "is_disabled": 0, "fusion_lat": 0.0, "lat": 38.90417716666666, "bike_id": "448eb6b9bb59fb1056abf222c1b277b3", "fusion_lon": 0.0}, {"rental_uris": {"ios": "https://dc.lft.to/lastmile_qr_scan", "android": "https://dc.lft.to/lastmile_qr_scan"}, "type": "electric_bike", "name": "8900069565ab9f11159c715b0bbf43cf", "is_reserved": 0, "lon": -76.99668433333333, "is_disabled": 0, "fusion_lat": 0.0, "lat": 38.93256183333333, "bike_id": "8900069565ab9f11159c715b0bbf43cf", "fusion_lon": 0.0}, {"rental_uris": {"ios": "https://dc.lft.to/lastmile_qr_scan", "android": "https://dc.lft.to/lastmile_qr_scan"}, "type": "electric_scooter", "name": "5fc7f9ddd7dedd7ec3cd6f8df15262ab", "is_reserved": 0, "lon": -76.95206466666667, "is_disabled": 0, "fusion_lat": 0.0, "lat": 38.905087, "bike_id": "5fc7f9ddd7dedd7ec3cd6f8df15262ab", "fusion_lon": 0.0}, {"rental_uris": {"ios": "https://dc.lft.to/lastmile_qr_scan", "android": "https://dc.lft.to/lastmile_qr_scan"}, "type": "electric_scooter", "name": "e417e2becb29c387fecffa0c683e4b96", "is_reserved": 0, "lon": -77.030458, "is_disabled": 0, "fusion_lat": 0.0, "lat": 38.92471616666667, "bike_id": "e417e2becb29c387fecffa0c683e4b96", "fusion_lon": 0.0}, {"rental_uris": {"ios": "https://dc.lft.to/lastmile_qr_scan", "android": "https://dc.lft.to/lastmile_qr_scan"}, "type": "electric_scooter", "name": "35a56cda90b99424d3e84fab4b8d2ad8", "is_reserved": 0, "lon": -77.02062466666666, "is_disabled": 0, "fusion_lat": 0.0, "lat": 38.923986, "bike_id": "35a56cda90b99424d3e84fab4b8d2ad8", "fusion_lon": 0.0}, {"rental_uris": {"ios": "https://dc.lft.to/lastmile_qr_scan", "android": "https://dc.lft.to/lastmile_qr_scan"}, "type": "electric_scooter", "name": "675890c5ce5b2646aa3e3a49c863b00f", "is_reserved": 0, "lon": -76.99929266666666, "is_disabled": 0, "fusion_lat": 0.0, "lat": 38.957603166666665, "bike_id": "675890c5ce5b2646aa3e3a49c863b00f", "fusion_lon": 0.0}, {"rental_uris": {"ios": "https://dc.lft.to/lastmile_qr_scan", "android": "https://dc.lft.to/lastmile_qr_scan"}, "type": "electric_scooter", "name": "8272b2a125c370496a4c07c078c0bd5e", "is_reserved": 0, "lon": -77.05533833333334, "is_disabled": 0, "fusion_lat": 0.0, "lat": 38.89986733333333, "bike_id": "8272b2a125c370496a4c07c078c0bd5e", "fusion_lon": 0.0}, {"rental_uris": {"ios": "https://dc.lft.to/lastmile_qr_scan", "android": "https://dc.lft.to/lastmile_qr_scan"}, "type": "electric_scooter", "name": "091a1bf763566f2f3b21d3a35ddeefaa", "is_reserved": 0, "lon": -77.02945783333334, "is_disabled": 0, "fusion_lat": 0.0, "lat": 38.89993116666667, "bike_id": "091a1bf763566f2f3b21d3a35ddeefaa", "fusion_lon": 0.0}, {"rental_uris": {"ios": "https://dc.lft.to/lastmile_qr_scan", "android": "https://dc.lft.to/lastmile_qr_scan"}, "type": "electric_scooter", "name": "d6fbc7c3a12ef545fbd1a837af42ae3a", "is_reserved": 0, "lon": -77.00782883333333, "is_disabled": 0, "fusion_lat": 0.0, "lat": 38.897378333333336, "bike_id": "d6fbc7c3a12ef545fbd1a837af42ae3a", "fusion_lon": 0.0}, {"rental_uris": {"ios": "https://dc.lft.to/lastmile_qr_scan", "android": "https://dc.lft.to/lastmile_qr_scan"}, "type": "electric_scooter", "name": "0e313669ecc094c0dfa951f982075ba6", "is_reserved": 0, "lon": -77.04403516666666, "is_disabled": 0, "fusion_lat": 0.0, "lat": 38.9295035, "bike_id": "0e313669ecc094c0dfa951f982075ba6", "fusion_lon": 0.0}, {"rental_uris": {"ios": "https://dc.lft.to/lastmile_qr_scan", "android": "https://dc.lft.to/lastmile_qr_scan"}, "type": "electric_scooter", "name": "475d07a88e8323749d49063da69a81f6", "is_reserved": 0, "lon": -77.01368216666667, "is_disabled": 0, "fusion_lat": 0.0, "lat": 38.89578683333333, "bike_id": "475d07a88e8323749d49063da69a81f6", "fusion_lon": 0.0}, {"rental_uris": {"ios": "https://dc.lft.to/lastmile_qr_scan", "android": "https://dc.lft.to/lastmile_qr_scan"}, "type": "electric_bike", "name": "3dc369990426edcf5161857e865d48eb", "is_reserved": 0, "lon": -76.99918316666667, "is_disabled": 0, "fusion_lat": 0.0, "lat": 38.994728333333335, "bike_id": "3dc369990426edcf5161857e865d48eb", "fusion_lon": 0.0}, {"rental_uris": {"ios": "https://dc.lft.to/lastmile_qr_scan", "android": "https://dc.lft.to/lastmile_qr_scan"}, "type": "electric_scooter", "name": "6769228e0fa9e121f462b0b8e1d62d93", "is_reserved": 0, "lon": -77.02909016666666, "is_disabled": 0, "fusion_lat": 0.0, "lat": 38.944416333333336, "bike_id": "6769228e0fa9e121f462b0b8e1d62d93", "fusion_lon": 0.0}, {"rental_uris": {"ios": "https://dc.lft.to/lastmile_qr_scan", "android": "https://dc.lft.to/lastmile_qr_scan"}, "type": "electric_scooter", "name": "f8dab0dff1e5d0e5f6eff3a6780b83df", "is_reserved": 0, "lon": -77.04476616666666, "is_disabled": 0, "fusion_lat": 0.0, "lat": 38.92285233333333, "bike_id": "f8dab0dff1e5d0e5f6eff3a6780b83df", "fusion_lon": 0.0}, {"rental_uris": {"ios": "https://dc.lft.to/lastmile_qr_scan", "android": "https://dc.lft.to/lastmile_qr_scan"}, "type": "electric_scooter", "name": "92dc946df0ba9ad24184db5ed619d424", "is_reserved": 0, "lon": -77.04682866666667, "is_disabled": 0, "fusion_lat": 0.0, "lat": 38.892209666666666, "bike_id": "92dc946df0ba9ad24184db5ed619d424", "fusion_lon": 0.0}, {"rental_uris": {"ios": "https://dc.lft.to/lastmile_qr_scan", "android": "https://dc.lft.to/lastmile_qr_scan"}, "type": "electric_scooter", "name": "489b87ac5bafde5e9283395bb1353ec6", "is_reserved": 0, "lon": -77.00240116666667, "is_disabled": 0, "fusion_lat": 0.0, "lat": 38.94066216666667, "bike_id": "489b87ac5bafde5e9283395bb1353ec6", "fusion_lon": 0.0}, {"rental_uris": {"ios": "https://dc.lft.to/lastmile_qr_scan", "android": "https://dc.lft.to/lastmile_qr_scan"}, "type": "electric_scooter", "name": "9892d02a42d8769a45b8091c21d88bb2", "is_reserved": 0, "lon": -77.03539166666667, "is_disabled": 0, "fusion_lat": 0.0, "lat": 38.917981166666664, "bike_id": "9892d02a42d8769a45b8091c21d88bb2", "fusion_lon": 0.0}, {"rental_uris": {"ios": "https://dc.lft.to/lastmile_qr_scan", "android": "https://dc.lft.to/lastmile_qr_scan"}, "type": "electric_scooter", "name": "301b48a6453d278f54238445e9759503", "is_reserved": 0, "lon": -77.06602733333334, "is_disabled": 0, "fusion_lat": 0.0, "lat": 38.911124666666666, "bike_id": "301b48a6453d278f54238445e9759503", "fusion_lon": 0.0}, {"rental_uris": {"ios": "https://dc.lft.to/lastmile_qr_scan", "android": "https://dc.lft.to/lastmile_qr_scan"}, "type": "electric_scooter", "name": "18923a12f3e528fbe3780e518b18b684", "is_reserved": 0, "lon": -77.05509916666666, "is_disabled": 0, "fusion_lat": 0.0, "lat": 38.92980716666667, "bike_id": "18923a12f3e528fbe3780e518b18b684", "fusion_lon": 0.0}, {"rental_uris": {"ios": "https://dc.lft.to/lastmile_qr_scan", "android": "https://dc.lft.to/lastmile_qr_scan"}, "type": "electric_scooter", "name": "f6e2e82fb369449a102a723cb78510f2", "is_reserved": 0, "lon": -77.03444666666667, "is_disabled": 0, "fusion_lat": 0.0, "lat": 38.90997216666667, "bike_id": "f6e2e82fb369449a102a723cb78510f2", "fusion_lon": 0.0}, {"rental_uris": {"ios": "https://dc.lft.to/lastmile_qr_scan", "android": "https://dc.lft.to/lastmile_qr_scan"}, "type": "electric_scooter", "name": "592ed29f23e8539880e8131cc6b4e4cf", "is_reserved": 0, "lon": -77.02318383333333, "is_disabled": 0, "fusion_lat": 0.0, "lat": 38.91768666666667, "bike_id": "592ed29f23e8539880e8131cc6b4e4cf", "fusion_lon": 0.0}, {"rental_uris": {"ios": "https://dc.lft.to/lastmile_qr_scan", "android": "https://dc.lft.to/lastmile_qr_scan"}, "type": "electric_scooter", "name": "98943204f4c44e364aa18343a84b2591", "is_reserved": 0, "lon": -77.05121766666667, "is_disabled": 0, "fusion_lat": 0.0, "lat": 38.9253015, "bike_id": "98943204f4c44e364aa18343a84b2591", "fusion_lon": 0.0}, {"rental_uris": {"ios": "https://dc.lft.to/lastmile_qr_scan", "android": "https://dc.lft.to/lastmile_qr_scan"}, "type": "electric_scooter", "name": "edfc1bb81a1ea7e1de74ba494d898312", "is_reserved": 0, "lon": -77.04672366666667, "is_disabled": 0, "fusion_lat": 0.0, "lat": 38.892825, "bike_id": "edfc1bb81a1ea7e1de74ba494d898312", "fusion_lon": 0.0}, {"rental_uris": {"ios": "https://dc.lft.to/lastmile_qr_scan", "android": "https://dc.lft.to/lastmile_qr_scan"}, "type": "electric_bike", "name": "2951e7d479b931f5c940a5898d4042a3", "is_reserved": 0, "lon": -77.0551655, "is_disabled": 0, "fusion_lat": 0.0, "lat": 38.944089166666664, "bike_id": "2951e7d479b931f5c940a5898d4042a3", "fusion_lon": 0.0}, {"rental_uris": {"ios": "https://dc.lft.to/lastmile_qr_scan", "android": "https://dc.lft.to/lastmile_qr_scan"}, "type": "electric_scooter", "name": "17b99e345a28b8caa2621311454d7bcf", "is_reserved": 0, "lon": -77.04427516666667, "is_disabled": 0, "fusion_lat": 0.0, "lat": 38.89742566666666, "bike_id": "17b99e345a28b8caa2621311454d7bcf", "fusion_lon": 0.0}, {"rental_uris": {"ios": "https://dc.lft.to/lastmile_qr_scan", "android": "https://dc.lft.to/lastmile_qr_scan"}, "type": "electric_scooter", "name": "91c0a26d0b88c6ec1fe364b375054820", "is_reserved": 0, "lon": -77.03347016666666, "is_disabled": 0, "fusion_lat": 0.0, "lat": 38.89739316666667, "bike_id": "91c0a26d0b88c6ec1fe364b375054820", "fusion_lon": 0.0}, {"rental_uris": {"ios": "https://dc.lft.to/lastmile_qr_scan", "android": "https://dc.lft.to/lastmile_qr_scan"}, "type": "electric_scooter", "name": "69346b268f00b8a889f916d2a44bfb99", "is_reserved": 0, "lon": -77.04052433333334, "is_disabled": 0, "fusion_lat": 0.0, "lat": 38.930118666666665, "bike_id": "69346b268f00b8a889f916d2a44bfb99", "fusion_lon": 0.0}, {"rental_uris": {"ios": "https://dc.lft.to/lastmile_qr_scan", "android": "https://dc.lft.to/lastmile_qr_scan"}, "type": "electric_scooter", "name": "98f9a7363617aedbfd9d231c9e8762d1", "is_reserved": 0, "lon": -77.05740383333334, "is_disabled": 0, "fusion_lat": 0.0, "lat": 38.933382333333334, "bike_id": "98f9a7363617aedbfd9d231c9e8762d1", "fusion_lon": 0.0}, {"rental_uris": {"ios": "https://dc.lft.to/lastmile_qr_scan", "android": "https://dc.lft.to/lastmile_qr_scan"}, "type": "electric_scooter", "name": "4748b30d725728033eec0e6ee06b4acd", "is_reserved": 0, "lon": -77.004298, "is_disabled": 0, "fusion_lat": 0.0, "lat": 38.885114333333334, "bike_id": "4748b30d725728033eec0e6ee06b4acd", "fusion_lon": 0.0}, {"rental_uris": {"ios": "https://dc.lft.to/lastmile_qr_scan", "android": "https://dc.lft.to/lastmile_qr_scan"}, "type": "electric_scooter", "name": "2ffc3201efad49ee074ea2c959141a9f", "is_reserved": 0, "lon": -77.0317315, "is_disabled": 0, "fusion_lat": 0.0, "lat": 38.930603833333336, "bike_id": "2ffc3201efad49ee074ea2c959141a9f", "fusion_lon": 0.0}, {"rental_uris": {"ios": "https://dc.lft.to/lastmile_qr_scan", "android": "https://dc.lft.to/lastmile_qr_scan"}, "type": "electric_scooter", "name": "e8d0b15c4c723881f6d15ca39b70be29", "is_reserved": 0, "lon": -77.03777866666667, "is_disabled": 0, "fusion_lat": 0.0, "lat": 38.91576283333333, "bike_id": "e8d0b15c4c723881f6d15ca39b70be29", "fusion_lon": 0.0}, {"rental_uris": {"ios": "https://dc.lft.to/lastmile_qr_scan", "android": "https://dc.lft.to/lastmile_qr_scan"}, "type": "electric_scooter", "name": "5e72fbba9c297712a270e69a74d41a5d", "is_reserved": 0, "lon": -77.049043, "is_disabled": 0, "fusion_lat": 0.0, "lat": 38.90378883333333, "bike_id": "5e72fbba9c297712a270e69a74d41a5d", "fusion_lon": 0.0}, {"rental_uris": {"ios": "https://dc.lft.to/lastmile_qr_scan", "android": "https://dc.lft.to/lastmile_qr_scan"}, "type": "electric_scooter", "name": "88993193ed467f8b4f8d68f02d158a72", "is_reserved": 0, "lon": -77.02432583333334, "is_disabled": 0, "fusion_lat": 0.0, "lat": 38.89734766666667, "bike_id": "88993193ed467f8b4f8d68f02d158a72", "fusion_lon": 0.0}, {"rental_uris": {"ios": "https://dc.lft.to/lastmile_qr_scan", "android": "https://dc.lft.to/lastmile_qr_scan"}, "type": "electric_scooter", "name": "7be47f23ae854cdb3b46069ee551ae08", "is_reserved": 0, "lon": -77.0353045, "is_disabled": 0, "fusion_lat": 0.0, "lat": 38.92254466666667, "bike_id": "7be47f23ae854cdb3b46069ee551ae08", "fusion_lon": 0.0}, {"rental_uris": {"ios": "https://dc.lft.to/lastmile_qr_scan", "android": "https://dc.lft.to/lastmile_qr_scan"}, "type": "electric_scooter", "name": "25bef0ac476c29d5df61cdf5665e7381", "is_reserved": 0, "lon": -77.04258333333334, "is_disabled": 0, "fusion_lat": 0.0, "lat": 38.92250533333333, "bike_id": "25bef0ac476c29d5df61cdf5665e7381", "fusion_lon": 0.0}, {"rental_uris": {"ios": "https://dc.lft.to/lastmile_qr_scan", "android": "https://dc.lft.to/lastmile_qr_scan"}, "type": "electric_scooter", "name": "b865f4bab2404c0edb4d920bab1efe8d", "is_reserved": 0, "lon": -77.021993, "is_disabled": 0, "fusion_lat": 0.0, "lat": 38.91017433333333, "bike_id": "b865f4bab2404c0edb4d920bab1efe8d", "fusion_lon": 0.0}, {"rental_uris": {"ios": "https://dc.lft.to/lastmile_qr_scan", "android": "https://dc.lft.to/lastmile_qr_scan"}, "type": "electric_bike", "name": "ce898fca8aa5b175b527890fb1e0383f", "is_reserved": 0, "lon": -76.97956966666666, "is_disabled": 0, "fusion_lat": 0.0, "lat": 38.9203635, "bike_id": "ce898fca8aa5b175b527890fb1e0383f", "fusion_lon": 0.0}, {"rental_uris": {"ios": "https://dc.lft.to/lastmile_qr_scan", "android": "https://dc.lft.to/lastmile_qr_scan"}, "type": "electric_bike", "name": "ee3be366ee37b08eefd11455bfdb83d3", "is_reserved": 0, "lon": -76.93879183333334, "is_disabled": 0, "fusion_lat": 0.0, "lat": 38.9563055, "bike_id": "ee3be366ee37b08eefd11455bfdb83d3", "fusion_lon": 0.0}, {"rental_uris": {"ios": "https://dc.lft.to/lastmile_qr_scan", "android": "https://dc.lft.to/lastmile_qr_scan"}, "type": "electric_scooter", "name": "5039c37a037380a4229871cee161f2d7", "is_reserved": 0, "lon": -77.0119995, "is_disabled": 0, "fusion_lat": 0.0, "lat": 38.871758166666666, "bike_id": "5039c37a037380a4229871cee161f2d7", "fusion_lon": 0.0}, {"rental_uris": {"ios": "https://dc.lft.to/lastmile_qr_scan", "android": "https://dc.lft.to/lastmile_qr_scan"}, "type": "electric_bike", "name": "cf9e2ea30073408b49e9b7c340fac0ae", "is_reserved": 0, "lon": -76.99270383333334, "is_disabled": 0, "fusion_lat": 0.0, "lat": 38.9323825, "bike_id": "cf9e2ea30073408b49e9b7c340fac0ae", "fusion_lon": 0.0}, {"rental_uris": {"ios": "https://dc.lft.to/lastmile_qr_scan", "android": "https://dc.lft.to/lastmile_qr_scan"}, "type": "electric_scooter", "name": "22e929f97dea6ce791359bc9ea1a23c2", "is_reserved": 0, "lon": -77.04215016666667, "is_disabled": 0, "fusion_lat": 0.0, "lat": 38.925074, "bike_id": "22e929f97dea6ce791359bc9ea1a23c2", "fusion_lon": 0.0}, {"rental_uris": {"ios": "https://dc.lft.to/lastmile_qr_scan", "android": "https://dc.lft.to/lastmile_qr_scan"}, "type": "electric_bike", "name": "b727e8c016372694228f7a0081bba2ce", "is_reserved": 0, "lon": -76.99685816666667, "is_disabled": 0, "fusion_lat": 0.0, "lat": 38.838201, "bike_id": "b727e8c016372694228f7a0081bba2ce", "fusion_lon": 0.0}, {"rental_uris": {"ios": "https://dc.lft.to/lastmile_qr_scan", "android": "https://dc.lft.to/lastmile_qr_scan"}, "type": "electric_scooter", "name": "da7d8f2bf6b294c61548244a87dc478b", "is_reserved": 0, "lon": -77.041397, "is_disabled": 0, "fusion_lat": 0.0, "lat": 38.9073245, "bike_id": "da7d8f2bf6b294c61548244a87dc478b", "fusion_lon": 0.0}, {"rental_uris": {"ios": "https://dc.lft.to/lastmile_qr_scan", "android": "https://dc.lft.to/lastmile_qr_scan"}, "type": "electric_scooter", "name": "ba71b202d81baab3cd9ba7df318616bb", "is_reserved": 0, "lon": -77.0237645, "is_disabled": 0, "fusion_lat": 0.0, "lat": 38.91685983333333, "bike_id": "ba71b202d81baab3cd9ba7df318616bb", "fusion_lon": 0.0}, {"rental_uris": {"ios": "https://dc.lft.to/lastmile_qr_scan", "android": "https://dc.lft.to/lastmile_qr_scan"}, "type": "electric_scooter", "name": "3e99fe4112c791720b1e22d55cc318b7", "is_reserved": 0, "lon": -77.03467033333334, "is_disabled": 0, "fusion_lat": 0.0, "lat": 38.91820633333333, "bike_id": "3e99fe4112c791720b1e22d55cc318b7", "fusion_lon": 0.0}, {"rental_uris": {"ios": "https://dc.lft.to/lastmile_qr_scan", "android": "https://dc.lft.to/lastmile_qr_scan"}, "type": "electric_scooter", "name": "3a7c290a377fe93821e11b42d1746034", "is_reserved": 0, "lon": -76.93426016666666, "is_disabled": 0, "fusion_lat": 0.0, "lat": 38.8934105, "bike_id": "3a7c290a377fe93821e11b42d1746034", "fusion_lon": 0.0}, {"rental_uris": {"ios": "https://dc.lft.to/lastmile_qr_scan", "android": "https://dc.lft.to/lastmile_qr_scan"}, "type": "electric_scooter", "name": "50bd42d8f16271f33a5500112f667ac1", "is_reserved": 0, "lon": -77.04166083333334, "is_disabled": 0, "fusion_lat": 0.0, "lat": 38.91977283333333, "bike_id": "50bd42d8f16271f33a5500112f667ac1", "fusion_lon": 0.0}, {"rental_uris": {"ios": "https://dc.lft.to/lastmile_qr_scan", "android": "https://dc.lft.to/lastmile_qr_scan"}, "type": "electric_scooter", "name": "dd1546964656765ff22dbecf547802a4", "is_reserved": 0, "lon": -77.02692666666667, "is_disabled": 0, "fusion_lat": 0.0, "lat": 38.949785, "bike_id": "dd1546964656765ff22dbecf547802a4", "fusion_lon": 0.0}, {"rental_uris": {"ios": "https://dc.lft.to/lastmile_qr_scan", "android": "https://dc.lft.to/lastmile_qr_scan"}, "type": "electric_scooter", "name": "9e2028239229bc0c9f33ced2b97a75e1", "is_reserved": 0, "lon": -77.02843233333333, "is_disabled": 0, "fusion_lat": 0.0, "lat": 38.89221366666666, "bike_id": "9e2028239229bc0c9f33ced2b97a75e1", "fusion_lon": 0.0}, {"rental_uris": {"ios": "https://dc.lft.to/lastmile_qr_scan", "android": "https://dc.lft.to/lastmile_qr_scan"}, "type": "electric_scooter", "name": "5a61879a720249ed31d803a271af3ab3", "is_reserved": 0, "lon": -77.02175533333333, "is_disabled": 0, "fusion_lat": 0.0, "lat": 38.899254166666665, "bike_id": "5a61879a720249ed31d803a271af3ab3", "fusion_lon": 0.0}, {"rental_uris": {"ios": "https://dc.lft.to/lastmile_qr_scan", "android": "https://dc.lft.to/lastmile_qr_scan"}, "type": "electric_bike", "name": "8a9ae886c65220e32a40a9cd972b3be9", "is_reserved": 0, "lon": -77.01223783333333, "is_disabled": 0, "fusion_lat": 0.0, "lat": 38.95077633333333, "bike_id": "8a9ae886c65220e32a40a9cd972b3be9", "fusion_lon": 0.0}, {"rental_uris": {"ios": "https://dc.lft.to/lastmile_qr_scan", "android": "https://dc.lft.to/lastmile_qr_scan"}, "type": "electric_scooter", "name": "e9c5dbb62d3cba4c27caa9b706f1c274", "is_reserved": 0, "lon": -77.032075, "is_disabled": 0, "fusion_lat": 0.0, "lat": 38.9099045, "bike_id": "e9c5dbb62d3cba4c27caa9b706f1c274", "fusion_lon": 0.0}, {"rental_uris": {"ios": "https://dc.lft.to/lastmile_qr_scan", "android": "https://dc.lft.to/lastmile_qr_scan"}, "type": "electric_scooter", "name": "8b1268882be309e3b4a8799e3ff5719b", "is_reserved": 0, "lon": -77.03176666666667, "is_disabled": 0, "fusion_lat": 0.0, "lat": 38.919312166666664, "bike_id": "8b1268882be309e3b4a8799e3ff5719b", "fusion_lon": 0.0}, {"rental_uris": {"ios": "https://dc.lft.to/lastmile_qr_scan", "android": "https://dc.lft.to/lastmile_qr_scan"}, "type": "electric_scooter", "name": "aae9ae8339c9a7f1871eab7c37d1bb7c", "is_reserved": 0, "lon": -77.03216616666667, "is_disabled": 0, "fusion_lat": 0.0, "lat": 38.904475833333336, "bike_id": "aae9ae8339c9a7f1871eab7c37d1bb7c", "fusion_lon": 0.0}, {"rental_uris": {"ios": "https://dc.lft.to/lastmile_qr_scan", "android": "https://dc.lft.to/lastmile_qr_scan"}, "type": "electric_scooter", "name": "d2b6924e363dda6d2a0715a5b5478368", "is_reserved": 0, "lon": -77.02302233333333, "is_disabled": 0, "fusion_lat": 0.0, "lat": 38.916251333333335, "bike_id": "d2b6924e363dda6d2a0715a5b5478368", "fusion_lon": 0.0}, {"rental_uris": {"ios": "https://dc.lft.to/lastmile_qr_scan", "android": "https://dc.lft.to/lastmile_qr_scan"}, "type": "electric_scooter", "name": "2f4773798f9d7d8e522c24ca288a141d", "is_reserved": 0, "lon": -77.028615, "is_disabled": 0, "fusion_lat": 0.0, "lat": 38.898539, "bike_id": "2f4773798f9d7d8e522c24ca288a141d", "fusion_lon": 0.0}, {"rental_uris": {"ios": "https://dc.lft.to/lastmile_qr_scan", "android": "https://dc.lft.to/lastmile_qr_scan"}, "type": "electric_scooter", "name": "8dd8a837bc011dedd34235c1aec56211", "is_reserved": 0, "lon": -77.0218495, "is_disabled": 0, "fusion_lat": 0.0, "lat": 38.9153105, "bike_id": "8dd8a837bc011dedd34235c1aec56211", "fusion_lon": 0.0}, {"rental_uris": {"ios": "https://dc.lft.to/lastmile_qr_scan", "android": "https://dc.lft.to/lastmile_qr_scan"}, "type": "electric_scooter", "name": "50e2e3b37f8f30596e6911824348772c", "is_reserved": 0, "lon": -77.02422966666667, "is_disabled": 0, "fusion_lat": 0.0, "lat": 38.897177, "bike_id": "50e2e3b37f8f30596e6911824348772c", "fusion_lon": 0.0}, {"rental_uris": {"ios": "https://dc.lft.to/lastmile_qr_scan", "android": "https://dc.lft.to/lastmile_qr_scan"}, "type": "electric_scooter", "name": "fdb67b69d4618ae52e4cfcc896cb24c8", "is_reserved": 0, "lon": -77.04884316666667, "is_disabled": 0, "fusion_lat": 0.0, "lat": 38.899044333333336, "bike_id": "fdb67b69d4618ae52e4cfcc896cb24c8", "fusion_lon": 0.0}, {"rental_uris": {"ios": "https://dc.lft.to/lastmile_qr_scan", "android": "https://dc.lft.to/lastmile_qr_scan"}, "type": "electric_bike", "name": "8ee045b671bf4ac61b6194948934c6a3", "is_reserved": 0, "lon": -76.97528133333333, "is_disabled": 0, "fusion_lat": 0.0, "lat": 38.903252, "bike_id": "8ee045b671bf4ac61b6194948934c6a3", "fusion_lon": 0.0}, {"rental_uris": {"ios": "https://dc.lft.to/lastmile_qr_scan", "android": "https://dc.lft.to/lastmile_qr_scan"}, "type": "electric_scooter", "name": "af24b215d165b49ca6898d9869e19a2f", "is_reserved": 0, "lon": -76.993854, "is_disabled": 0, "fusion_lat": 0.0, "lat": 38.91013866666667, "bike_id": "af24b215d165b49ca6898d9869e19a2f", "fusion_lon": 0.0}, {"rental_uris": {"ios": "https://dc.lft.to/lastmile_qr_scan", "android": "https://dc.lft.to/lastmile_qr_scan"}, "type": "electric_scooter", "name": "de2f5edcfa4aca08acbf1f7a83d0a43e", "is_reserved": 0, "lon": -76.99854866666666, "is_disabled": 0, "fusion_lat": 0.0, "lat": 38.900267666666664, "bike_id": "de2f5edcfa4aca08acbf1f7a83d0a43e", "fusion_lon": 0.0}, {"rental_uris": {"ios": "https://dc.lft.to/lastmile_qr_scan", "android": "https://dc.lft.to/lastmile_qr_scan"}, "type": "electric_scooter", "name": "f91a3f3775a3cd69cea9244e2cb9c68f", "is_reserved": 0, "lon": -77.03719816666667, "is_disabled": 0, "fusion_lat": 0.0, "lat": 38.92653333333333, "bike_id": "f91a3f3775a3cd69cea9244e2cb9c68f", "fusion_lon": 0.0}, {"rental_uris": {"ios": "https://dc.lft.to/lastmile_qr_scan", "android": "https://dc.lft.to/lastmile_qr_scan"}, "type": "electric_scooter", "name": "85e85d19156813f097d9c00aa88897a8", "is_reserved": 0, "lon": -77.01819066666667, "is_disabled": 0, "fusion_lat": 0.0, "lat": 38.9111055, "bike_id": "85e85d19156813f097d9c00aa88897a8", "fusion_lon": 0.0}, {"rental_uris": {"ios": "https://dc.lft.to/lastmile_qr_scan", "android": "https://dc.lft.to/lastmile_qr_scan"}, "type": "electric_scooter", "name": "b6e2cc3421ea8fe1faeed021449b34b3", "is_reserved": 0, "lon": -77.05679383333333, "is_disabled": 0, "fusion_lat": 0.0, "lat": 38.93391066666667, "bike_id": "b6e2cc3421ea8fe1faeed021449b34b3", "fusion_lon": 0.0}, {"rental_uris": {"ios": "https://dc.lft.to/lastmile_qr_scan", "android": "https://dc.lft.to/lastmile_qr_scan"}, "type": "electric_scooter", "name": "1266a5f87baedb18e8a38e5ae31daf0a", "is_reserved": 0, "lon": -77.026272, "is_disabled": 0, "fusion_lat": 0.0, "lat": 38.89220183333333, "bike_id": "1266a5f87baedb18e8a38e5ae31daf0a", "fusion_lon": 0.0}, {"rental_uris": {"ios": "https://dc.lft.to/lastmile_qr_scan", "android": "https://dc.lft.to/lastmile_qr_scan"}, "type": "electric_scooter", "name": "9669a78a5a2697fb3b3b71d7f2f926c7", "is_reserved": 0, "lon": -77.077151, "is_disabled": 0, "fusion_lat": 0.0, "lat": 38.9429205, "bike_id": "9669a78a5a2697fb3b3b71d7f2f926c7", "fusion_lon": 0.0}, {"rental_uris": {"ios": "https://dc.lft.to/lastmile_qr_scan", "android": "https://dc.lft.to/lastmile_qr_scan"}, "type": "electric_scooter", "name": "4484426bc3b5b2723aeff7ab42f23040", "is_reserved": 0, "lon": -77.03081166666666, "is_disabled": 0, "fusion_lat": 0.0, "lat": 38.938759833333336, "bike_id": "4484426bc3b5b2723aeff7ab42f23040", "fusion_lon": 0.0}, {"rental_uris": {"ios": "https://dc.lft.to/lastmile_qr_scan", "android": "https://dc.lft.to/lastmile_qr_scan"}, "type": "electric_scooter", "name": "9993c09d869097e9f3669f1ade103a83", "is_reserved": 0, "lon": -76.998815, "is_disabled": 0, "fusion_lat": 0.0, "lat": 38.920565333333336, "bike_id": "9993c09d869097e9f3669f1ade103a83", "fusion_lon": 0.0}, {"rental_uris": {"ios": "https://dc.lft.to/lastmile_qr_scan", "android": "https://dc.lft.to/lastmile_qr_scan"}, "type": "electric_scooter", "name": "73aef84808f6ce10d05c9286d8144447", "is_reserved": 0, "lon": -77.04505966666666, "is_disabled": 0, "fusion_lat": 0.0, "lat": 38.892232, "bike_id": "73aef84808f6ce10d05c9286d8144447", "fusion_lon": 0.0}, {"rental_uris": {"ios": "https://dc.lft.to/lastmile_qr_scan", "android": "https://dc.lft.to/lastmile_qr_scan"}, "type": "electric_scooter", "name": "aaee736077d6a985d25fbaaf44de4feb", "is_reserved": 0, "lon": -77.04791166666666, "is_disabled": 0, "fusion_lat": 0.0, "lat": 38.8977265, "bike_id": "aaee736077d6a985d25fbaaf44de4feb", "fusion_lon": 0.0}, {"rental_uris": {"ios": "https://dc.lft.to/lastmile_qr_scan", "android": "https://dc.lft.to/lastmile_qr_scan"}, "type": "electric_scooter", "name": "b2e036c18704a5a9ad3c2d65af62a126", "is_reserved": 0, "lon": -76.98373766666667, "is_disabled": 0, "fusion_lat": 0.0, "lat": 38.860368666666666, "bike_id": "b2e036c18704a5a9ad3c2d65af62a126", "fusion_lon": 0.0}, {"rental_uris": {"ios": "https://dc.lft.to/lastmile_qr_scan", "android": "https://dc.lft.to/lastmile_qr_scan"}, "type": "electric_scooter", "name": "9eba2443fb6579d9bb3d75c71b3c5536", "is_reserved": 0, "lon": -77.031962, "is_disabled": 0, "fusion_lat": 0.0, "lat": 38.907108, "bike_id": "9eba2443fb6579d9bb3d75c71b3c5536", "fusion_lon": 0.0}, {"rental_uris": {"ios": "https://dc.lft.to/lastmile_qr_scan", "android": "https://dc.lft.to/lastmile_qr_scan"}, "type": "electric_scooter", "name": "2bee4c6b0c9eb504a003a2496ea3bdae", "is_reserved": 0, "lon": -77.02202883333334, "is_disabled": 0, "fusion_lat": 0.0, "lat": 38.924730333333336, "bike_id": "2bee4c6b0c9eb504a003a2496ea3bdae", "fusion_lon": 0.0}, {"rental_uris": {"ios": "https://dc.lft.to/lastmile_qr_scan", "android": "https://dc.lft.to/lastmile_qr_scan"}, "type": "electric_scooter", "name": "bb5ffb934e9a557f92395cfac1213f6d", "is_reserved": 0, "lon": -77.032053, "is_disabled": 0, "fusion_lat": 0.0, "lat": 38.912473166666665, "bike_id": "bb5ffb934e9a557f92395cfac1213f6d", "fusion_lon": 0.0}, {"rental_uris": {"ios": "https://dc.lft.to/lastmile_qr_scan", "android": "https://dc.lft.to/lastmile_qr_scan"}, "type": "electric_scooter", "name": "d125c4c86af583f6c03e6cd4b6034d37", "is_reserved": 0, "lon": -77.01611416666667, "is_disabled": 0, "fusion_lat": 0.0, "lat": 38.88516883333333, "bike_id": "d125c4c86af583f6c03e6cd4b6034d37", "fusion_lon": 0.0}, {"rental_uris": {"ios": "https://dc.lft.to/lastmile_qr_scan", "android": "https://dc.lft.to/lastmile_qr_scan"}, "type": "electric_scooter", "name": "bbe3e26b88cce1729d1c7451f2fb6092", "is_reserved": 0, "lon": -77.0419135, "is_disabled": 0, "fusion_lat": 0.0, "lat": 38.920396833333335, "bike_id": "bbe3e26b88cce1729d1c7451f2fb6092", "fusion_lon": 0.0}, {"rental_uris": {"ios": "https://dc.lft.to/lastmile_qr_scan", "android": "https://dc.lft.to/lastmile_qr_scan"}, "type": "electric_scooter", "name": "d7df55059cc2f3ae2a06158dc54f3378", "is_reserved": 0, "lon": -77.02011433333334, "is_disabled": 0, "fusion_lat": 0.0, "lat": 38.92415366666667, "bike_id": "d7df55059cc2f3ae2a06158dc54f3378", "fusion_lon": 0.0}, {"rental_uris": {"ios": "https://dc.lft.to/lastmile_qr_scan", "android": "https://dc.lft.to/lastmile_qr_scan"}, "type": "electric_scooter", "name": "2d2d3e8bd8262896487cfca8c3b1f4c9", "is_reserved": 0, "lon": -77.041559, "is_disabled": 0, "fusion_lat": 0.0, "lat": 38.9235545, "bike_id": "2d2d3e8bd8262896487cfca8c3b1f4c9", "fusion_lon": 0.0}, {"rental_uris": {"ios": "https://dc.lft.to/lastmile_qr_scan", "android": "https://dc.lft.to/lastmile_qr_scan"}, "type": "electric_scooter", "name": "9946274cce04b554428325c6ec662aae", "is_reserved": 0, "lon": -77.06417716666667, "is_disabled": 0, "fusion_lat": 0.0, "lat": 38.91402266666667, "bike_id": "9946274cce04b554428325c6ec662aae", "fusion_lon": 0.0}, {"rental_uris": {"ios": "https://dc.lft.to/lastmile_qr_scan", "android": "https://dc.lft.to/lastmile_qr_scan"}, "type": "electric_scooter", "name": "4ee6b45ad348519c66b55a5f5580c441", "is_reserved": 0, "lon": -77.04501783333333, "is_disabled": 0, "fusion_lat": 0.0, "lat": 38.900215, "bike_id": "4ee6b45ad348519c66b55a5f5580c441", "fusion_lon": 0.0}, {"rental_uris": {"ios": "https://dc.lft.to/lastmile_qr_scan", "android": "https://dc.lft.to/lastmile_qr_scan"}, "type": "electric_scooter", "name": "fdb5eaeae486834ff288913d6db3bd52", "is_reserved": 0, "lon": -77.03075216666667, "is_disabled": 0, "fusion_lat": 0.0, "lat": 38.93456366666667, "bike_id": "fdb5eaeae486834ff288913d6db3bd52", "fusion_lon": 0.0}, {"rental_uris": {"ios": "https://dc.lft.to/lastmile_qr_scan", "android": "https://dc.lft.to/lastmile_qr_scan"}, "type": "electric_scooter", "name": "8244edd15d9ada894bcc3d18605d36d3", "is_reserved": 0, "lon": -77.00551883333333, "is_disabled": 0, "fusion_lat": 0.0, "lat": 38.8746285, "bike_id": "8244edd15d9ada894bcc3d18605d36d3", "fusion_lon": 0.0}, {"rental_uris": {"ios": "https://dc.lft.to/lastmile_qr_scan", "android": "https://dc.lft.to/lastmile_qr_scan"}, "type": "electric_scooter", "name": "47bd51675095e906a5fdc364c44e431e", "is_reserved": 0, "lon": -77.009841, "is_disabled": 0, "fusion_lat": 0.0, "lat": 38.90557866666666, "bike_id": "47bd51675095e906a5fdc364c44e431e", "fusion_lon": 0.0}, {"rental_uris": {"ios": "https://dc.lft.to/lastmile_qr_scan", "android": "https://dc.lft.to/lastmile_qr_scan"}, "type": "electric_scooter", "name": "ec1bb93f29019b6f30e184175d873cd4", "is_reserved": 0, "lon": -76.92893, "is_disabled": 0, "fusion_lat": 0.0, "lat": 38.87944316666667, "bike_id": "ec1bb93f29019b6f30e184175d873cd4", "fusion_lon": 0.0}, {"rental_uris": {"ios": "https://dc.lft.to/lastmile_qr_scan", "android": "https://dc.lft.to/lastmile_qr_scan"}, "type": "electric_scooter", "name": "1413b18668939c2b231d684dc6c2081a", "is_reserved": 0, "lon": -77.03215283333333, "is_disabled": 0, "fusion_lat": 0.0, "lat": 38.90826966666667, "bike_id": "1413b18668939c2b231d684dc6c2081a", "fusion_lon": 0.0}, {"rental_uris": {"ios": "https://dc.lft.to/lastmile_qr_scan", "android": "https://dc.lft.to/lastmile_qr_scan"}, "type": "electric_scooter", "name": "51d114dbaa7456d4a794adbfc768c527", "is_reserved": 0, "lon": -77.03173716666667, "is_disabled": 0, "fusion_lat": 0.0, "lat": 38.91930133333334, "bike_id": "51d114dbaa7456d4a794adbfc768c527", "fusion_lon": 0.0}, {"rental_uris": {"ios": "https://dc.lft.to/lastmile_qr_scan", "android": "https://dc.lft.to/lastmile_qr_scan"}, "type": "electric_scooter", "name": "7477edb9e953b315f646025a384e4c16", "is_reserved": 0, "lon": -77.03288566666667, "is_disabled": 0, "fusion_lat": 0.0, "lat": 38.911231666666666, "bike_id": "7477edb9e953b315f646025a384e4c16", "fusion_lon": 0.0}, {"rental_uris": {"ios": "https://dc.lft.to/lastmile_qr_scan", "android": "https://dc.lft.to/lastmile_qr_scan"}, "type": "electric_scooter", "name": "559766572b813dca81c1b696ffd1faee", "is_reserved": 0, "lon": -77.04887633333334, "is_disabled": 0, "fusion_lat": 0.0, "lat": 38.918375166666664, "bike_id": "559766572b813dca81c1b696ffd1faee", "fusion_lon": 0.0}, {"rental_uris": {"ios": "https://dc.lft.to/lastmile_qr_scan", "android": "https://dc.lft.to/lastmile_qr_scan"}, "type": "electric_scooter", "name": "3cf785ada3ae04f1db4623386d11dd4e", "is_reserved": 0, "lon": -77.03659833333333, "is_disabled": 0, "fusion_lat": 0.0, "lat": 38.92289916666667, "bike_id": "3cf785ada3ae04f1db4623386d11dd4e", "fusion_lon": 0.0}, {"rental_uris": {"ios": "https://dc.lft.to/lastmile_qr_scan", "android": "https://dc.lft.to/lastmile_qr_scan"}, "type": "electric_scooter", "name": "45300e7a9065ac8892e2b7a997509df5", "is_reserved": 0, "lon": -77.03601733333333, "is_disabled": 0, "fusion_lat": 0.0, "lat": 38.916960833333334, "bike_id": "45300e7a9065ac8892e2b7a997509df5", "fusion_lon": 0.0}, {"rental_uris": {"ios": "https://dc.lft.to/lastmile_qr_scan", "android": "https://dc.lft.to/lastmile_qr_scan"}, "type": "electric_scooter", "name": "036d45367b0e188f2398a1db0fb75072", "is_reserved": 0, "lon": -77.0426665, "is_disabled": 0, "fusion_lat": 0.0, "lat": 38.906471, "bike_id": "036d45367b0e188f2398a1db0fb75072", "fusion_lon": 0.0}, {"rental_uris": {"ios": "https://dc.lft.to/lastmile_qr_scan", "android": "https://dc.lft.to/lastmile_qr_scan"}, "type": "electric_bike", "name": "b019a9936b0c2ec342b14c56c583ed68", "is_reserved": 0, "lon": -76.96151433333333, "is_disabled": 0, "fusion_lat": 0.0, "lat": 38.856179833333336, "bike_id": "b019a9936b0c2ec342b14c56c583ed68", "fusion_lon": 0.0}, {"rental_uris": {"ios": "https://dc.lft.to/lastmile_qr_scan", "android": "https://dc.lft.to/lastmile_qr_scan"}, "type": "electric_scooter", "name": "d149f8cb72c32569a2cd367c5224c9bc", "is_reserved": 0, "lon": -77.02710933333333, "is_disabled": 0, "fusion_lat": 0.0, "lat": 38.915485333333336, "bike_id": "d149f8cb72c32569a2cd367c5224c9bc", "fusion_lon": 0.0}, {"rental_uris": {"ios": "https://dc.lft.to/lastmile_qr_scan", "android": "https://dc.lft.to/lastmile_qr_scan"}, "type": "electric_scooter", "name": "0128b49996bca9478ce86e60b7c487a0", "is_reserved": 0, "lon": -77.06295, "is_disabled": 0, "fusion_lat": 0.0, "lat": 38.904095166666664, "bike_id": "0128b49996bca9478ce86e60b7c487a0", "fusion_lon": 0.0}, {"rental_uris": {"ios": "https://dc.lft.to/lastmile_qr_scan", "android": "https://dc.lft.to/lastmile_qr_scan"}, "type": "electric_scooter", "name": "01ac0dcc1e1dacecddddb6544610d039", "is_reserved": 0, "lon": -77.03850083333333, "is_disabled": 0, "fusion_lat": 0.0, "lat": 38.913344333333335, "bike_id": "01ac0dcc1e1dacecddddb6544610d039", "fusion_lon": 0.0}, {"rental_uris": {"ios": "https://dc.lft.to/lastmile_qr_scan", "android": "https://dc.lft.to/lastmile_qr_scan"}, "type": "electric_scooter", "name": "3a3067380c7ff4e0c252cd958fd11e94", "is_reserved": 0, "lon": -77.01082433333333, "is_disabled": 0, "fusion_lat": 0.0, "lat": 38.8948795, "bike_id": "3a3067380c7ff4e0c252cd958fd11e94", "fusion_lon": 0.0}, {"rental_uris": {"ios": "https://dc.lft.to/lastmile_qr_scan", "android": "https://dc.lft.to/lastmile_qr_scan"}, "type": "electric_scooter", "name": "f133fd4efd1f7353f94adacdb600af02", "is_reserved": 0, "lon": -77.03956266666667, "is_disabled": 0, "fusion_lat": 0.0, "lat": 38.90116916666667, "bike_id": "f133fd4efd1f7353f94adacdb600af02", "fusion_lon": 0.0}, {"rental_uris": {"ios": "https://dc.lft.to/lastmile_qr_scan", "android": "https://dc.lft.to/lastmile_qr_scan"}, "type": "electric_scooter", "name": "5698b9c8b4063ac0dd2ac642633240d0", "is_reserved": 0, "lon": -77.02198066666666, "is_disabled": 0, "fusion_lat": 0.0, "lat": 38.89908716666667, "bike_id": "5698b9c8b4063ac0dd2ac642633240d0", "fusion_lon": 0.0}, {"rental_uris": {"ios": "https://dc.lft.to/lastmile_qr_scan", "android": "https://dc.lft.to/lastmile_qr_scan"}, "type": "electric_bike", "name": "6c09504979948664f001b6010fd8bc55", "is_reserved": 0, "lon": -77.02585366666666, "is_disabled": 0, "fusion_lat": 0.0, "lat": 38.978738666666665, "bike_id": "6c09504979948664f001b6010fd8bc55", "fusion_lon": 0.0}, {"rental_uris": {"ios": "https://dc.lft.to/lastmile_qr_scan", "android": "https://dc.lft.to/lastmile_qr_scan"}, "type": "electric_scooter", "name": "1cd4252b8e3117092436cfa4fa3330ed", "is_reserved": 0, "lon": -77.01613966666666, "is_disabled": 0, "fusion_lat": 0.0, "lat": 38.9012905, "bike_id": "1cd4252b8e3117092436cfa4fa3330ed", "fusion_lon": 0.0}, {"rental_uris": {"ios": "https://dc.lft.to/lastmile_qr_scan", "android": "https://dc.lft.to/lastmile_qr_scan"}, "type": "electric_scooter", "name": "bdd61f7752153bde6b01c6dd9a620a6f", "is_reserved": 0, "lon": -77.0158615, "is_disabled": 0, "fusion_lat": 0.0, "lat": 38.916448, "bike_id": "bdd61f7752153bde6b01c6dd9a620a6f", "fusion_lon": 0.0}, {"rental_uris": {"ios": "https://dc.lft.to/lastmile_qr_scan", "android": "https://dc.lft.to/lastmile_qr_scan"}, "type": "electric_scooter", "name": "9fedd39cd66a775bfcd61177ada2d36a", "is_reserved": 0, "lon": -77.03440766666667, "is_disabled": 0, "fusion_lat": 0.0, "lat": 38.907359, "bike_id": "9fedd39cd66a775bfcd61177ada2d36a", "fusion_lon": 0.0}, {"rental_uris": {"ios": "https://dc.lft.to/lastmile_qr_scan", "android": "https://dc.lft.to/lastmile_qr_scan"}, "type": "electric_scooter", "name": "44bed9e4e2d169634bd818e9a895abcd", "is_reserved": 0, "lon": -77.04332583333333, "is_disabled": 0, "fusion_lat": 0.0, "lat": 38.907321, "bike_id": "44bed9e4e2d169634bd818e9a895abcd", "fusion_lon": 0.0}, {"rental_uris": {"ios": "https://dc.lft.to/lastmile_qr_scan", "android": "https://dc.lft.to/lastmile_qr_scan"}, "type": "electric_scooter", "name": "b6cc81f0a2cf8470ae772ac78792118b", "is_reserved": 0, "lon": -77.039536, "is_disabled": 0, "fusion_lat": 0.0, "lat": 38.8925295, "bike_id": "b6cc81f0a2cf8470ae772ac78792118b", "fusion_lon": 0.0}, {"rental_uris": {"ios": "https://dc.lft.to/lastmile_qr_scan", "android": "https://dc.lft.to/lastmile_qr_scan"}, "type": "electric_scooter", "name": "e49e03c5c259ad60e4f2807016610d04", "is_reserved": 0, "lon": -77.01067566666667, "is_disabled": 0, "fusion_lat": 0.0, "lat": 38.8981025, "bike_id": "e49e03c5c259ad60e4f2807016610d04", "fusion_lon": 0.0}, {"rental_uris": {"ios": "https://dc.lft.to/lastmile_qr_scan", "android": "https://dc.lft.to/lastmile_qr_scan"}, "type": "electric_bike", "name": "1ea487b28b24eea94b946218faabdb53", "is_reserved": 0, "lon": -76.99917416666666, "is_disabled": 0, "fusion_lat": 0.0, "lat": 38.86446866666667, "bike_id": "1ea487b28b24eea94b946218faabdb53", "fusion_lon": 0.0}, {"rental_uris": {"ios": "https://dc.lft.to/lastmile_qr_scan", "android": "https://dc.lft.to/lastmile_qr_scan"}, "type": "electric_scooter", "name": "64e06bb47cf2f03c4c2785ce33c5b55a", "is_reserved": 0, "lon": -77.04936666666667, "is_disabled": 0, "fusion_lat": 0.0, "lat": 38.9007305, "bike_id": "64e06bb47cf2f03c4c2785ce33c5b55a", "fusion_lon": 0.0}, {"rental_uris": {"ios": "https://dc.lft.to/lastmile_qr_scan", "android": "https://dc.lft.to/lastmile_qr_scan"}, "type": "electric_scooter", "name": "6458effc61eb982ebe0567e02d007d75", "is_reserved": 0, "lon": -77.04069683333333, "is_disabled": 0, "fusion_lat": 0.0, "lat": 38.94772183333333, "bike_id": "6458effc61eb982ebe0567e02d007d75", "fusion_lon": 0.0}, {"rental_uris": {"ios": "https://dc.lft.to/lastmile_qr_scan", "android": "https://dc.lft.to/lastmile_qr_scan"}, "type": "electric_scooter", "name": "94a7225ba9039d88df29dc09bfba4c23", "is_reserved": 0, "lon": -77.03067816666666, "is_disabled": 0, "fusion_lat": 0.0, "lat": 38.905704166666666, "bike_id": "94a7225ba9039d88df29dc09bfba4c23", "fusion_lon": 0.0}, {"rental_uris": {"ios": "https://dc.lft.to/lastmile_qr_scan", "android": "https://dc.lft.to/lastmile_qr_scan"}, "type": "electric_scooter", "name": "508c6810fb1c545bb096e2fee3adfa67", "is_reserved": 0, "lon": -77.03660533333333, "is_disabled": 0, "fusion_lat": 0.0, "lat": 38.918251833333336, "bike_id": "508c6810fb1c545bb096e2fee3adfa67", "fusion_lon": 0.0}, {"rental_uris": {"ios": "https://dc.lft.to/lastmile_qr_scan", "android": "https://dc.lft.to/lastmile_qr_scan"}, "type": "electric_scooter", "name": "e51edc3017e18699b035ca2b875cde78", "is_reserved": 0, "lon": -76.99501716666667, "is_disabled": 0, "fusion_lat": 0.0, "lat": 38.86248116666667, "bike_id": "e51edc3017e18699b035ca2b875cde78", "fusion_lon": 0.0}, {"rental_uris": {"ios": "https://dc.lft.to/lastmile_qr_scan", "android": "https://dc.lft.to/lastmile_qr_scan"}, "type": "electric_scooter", "name": "279d9e871b9d48964286744ae07c95f7", "is_reserved": 0, "lon": -77.00431816666666, "is_disabled": 0, "fusion_lat": 0.0, "lat": 38.8770555, "bike_id": "279d9e871b9d48964286744ae07c95f7", "fusion_lon": 0.0}, {"rental_uris": {"ios": "https://dc.lft.to/lastmile_qr_scan", "android": "https://dc.lft.to/lastmile_qr_scan"}, "type": "electric_scooter", "name": "0ea70c2e2ba4357fd588280c7f1a3065", "is_reserved": 0, "lon": -77.01059333333333, "is_disabled": 0, "fusion_lat": 0.0, "lat": 38.9165165, "bike_id": "0ea70c2e2ba4357fd588280c7f1a3065", "fusion_lon": 0.0}, {"rental_uris": {"ios": "https://dc.lft.to/lastmile_qr_scan", "android": "https://dc.lft.to/lastmile_qr_scan"}, "type": "electric_scooter", "name": "87d7eb4e9e8b2e33ac196f0c7ecaea86", "is_reserved": 0, "lon": -77.03708316666666, "is_disabled": 0, "fusion_lat": 0.0, "lat": 38.9265575, "bike_id": "87d7eb4e9e8b2e33ac196f0c7ecaea86", "fusion_lon": 0.0}, {"rental_uris": {"ios": "https://dc.lft.to/lastmile_qr_scan", "android": "https://dc.lft.to/lastmile_qr_scan"}, "type": "electric_scooter", "name": "3e0267c2bf5fa5c8fb0bf68c6a39d995", "is_reserved": 0, "lon": -76.93478633333334, "is_disabled": 0, "fusion_lat": 0.0, "lat": 38.89504316666667, "bike_id": "3e0267c2bf5fa5c8fb0bf68c6a39d995", "fusion_lon": 0.0}, {"rental_uris": {"ios": "https://dc.lft.to/lastmile_qr_scan", "android": "https://dc.lft.to/lastmile_qr_scan"}, "type": "electric_scooter", "name": "4f9c7631231bf725dbed6f5e56ae7363", "is_reserved": 0, "lon": -77.0433295, "is_disabled": 0, "fusion_lat": 0.0, "lat": 38.907290833333334, "bike_id": "4f9c7631231bf725dbed6f5e56ae7363", "fusion_lon": 0.0}, {"rental_uris": {"ios": "https://dc.lft.to/lastmile_qr_scan", "android": "https://dc.lft.to/lastmile_qr_scan"}, "type": "electric_scooter", "name": "87b2308e3f7fd61f9d7f94f89efb1543", "is_reserved": 0, "lon": -77.06562116666667, "is_disabled": 0, "fusion_lat": 0.0, "lat": 38.94797783333333, "bike_id": "87b2308e3f7fd61f9d7f94f89efb1543", "fusion_lon": 0.0}, {"rental_uris": {"ios": "https://dc.lft.to/lastmile_qr_scan", "android": "https://dc.lft.to/lastmile_qr_scan"}, "type": "electric_bike", "name": "55d15cc2fef93315d5a56554b92a2ab9", "is_reserved": 0, "lon": -77.12731966666666, "is_disabled": 0, "fusion_lat": 0.0, "lat": 38.895626166666666, "bike_id": "55d15cc2fef93315d5a56554b92a2ab9", "fusion_lon": 0.0}, {"rental_uris": {"ios": "https://dc.lft.to/lastmile_qr_scan", "android": "https://dc.lft.to/lastmile_qr_scan"}, "type": "electric_bike", "name": "2c9f562a0d5ad9c29a76679e9d91db2b", "is_reserved": 0, "lon": -77.012246, "is_disabled": 0, "fusion_lat": 0.0, "lat": 38.95091016666667, "bike_id": "2c9f562a0d5ad9c29a76679e9d91db2b", "fusion_lon": 0.0}, {"rental_uris": {"ios": "https://dc.lft.to/lastmile_qr_scan", "android": "https://dc.lft.to/lastmile_qr_scan"}, "type": "electric_scooter", "name": "b8cb56476b8a9222e73b5be50773b639", "is_reserved": 0, "lon": -77.03210716666666, "is_disabled": 0, "fusion_lat": 0.0, "lat": 38.91674366666667, "bike_id": "b8cb56476b8a9222e73b5be50773b639", "fusion_lon": 0.0}, {"rental_uris": {"ios": "https://dc.lft.to/lastmile_qr_scan", "android": "https://dc.lft.to/lastmile_qr_scan"}, "type": "electric_scooter", "name": "b6cf68c423e3715068ebfb9d35ebe009", "is_reserved": 0, "lon": -77.04685533333334, "is_disabled": 0, "fusion_lat": 0.0, "lat": 38.90290016666667, "bike_id": "b6cf68c423e3715068ebfb9d35ebe009", "fusion_lon": 0.0}, {"rental_uris": {"ios": "https://dc.lft.to/lastmile_qr_scan", "android": "https://dc.lft.to/lastmile_qr_scan"}, "type": "electric_scooter", "name": "3e88053b1dc4039149dbf936320326b9", "is_reserved": 0, "lon": -77.036154, "is_disabled": 0, "fusion_lat": 0.0, "lat": 38.928483, "bike_id": "3e88053b1dc4039149dbf936320326b9", "fusion_lon": 0.0}, {"rental_uris": {"ios": "https://dc.lft.to/lastmile_qr_scan", "android": "https://dc.lft.to/lastmile_qr_scan"}, "type": "electric_scooter", "name": "afe4373df448f38284becb74c4c68fd8", "is_reserved": 0, "lon": -77.00684383333333, "is_disabled": 0, "fusion_lat": 0.0, "lat": 38.88428616666667, "bike_id": "afe4373df448f38284becb74c4c68fd8", "fusion_lon": 0.0}, {"rental_uris": {"ios": "https://dc.lft.to/lastmile_qr_scan", "android": "https://dc.lft.to/lastmile_qr_scan"}, "type": "electric_scooter", "name": "4a3f0bdf16ab0843d013930b752e646b", "is_reserved": 0, "lon": -77.0280385, "is_disabled": 0, "fusion_lat": 0.0, "lat": 38.9231545, "bike_id": "4a3f0bdf16ab0843d013930b752e646b", "fusion_lon": 0.0}, {"rental_uris": {"ios": "https://dc.lft.to/lastmile_qr_scan", "android": "https://dc.lft.to/lastmile_qr_scan"}, "type": "electric_scooter", "name": "4a3b4316fee094dadf6d64c0982ac741", "is_reserved": 0, "lon": -77.05143316666667, "is_disabled": 0, "fusion_lat": 0.0, "lat": 38.90565633333333, "bike_id": "4a3b4316fee094dadf6d64c0982ac741", "fusion_lon": 0.0}, {"rental_uris": {"ios": "https://dc.lft.to/lastmile_qr_scan", "android": "https://dc.lft.to/lastmile_qr_scan"}, "type": "electric_scooter", "name": "c8196d6206ebf1499d8fbea5f73b83ea", "is_reserved": 0, "lon": -76.99532933333333, "is_disabled": 0, "fusion_lat": 0.0, "lat": 38.862681333333335, "bike_id": "c8196d6206ebf1499d8fbea5f73b83ea", "fusion_lon": 0.0}, {"rental_uris": {"ios": "https://dc.lft.to/lastmile_qr_scan", "android": "https://dc.lft.to/lastmile_qr_scan"}, "type": "electric_scooter", "name": "b80a2c2f73445c49eba0109ceaa80d05", "is_reserved": 0, "lon": -77.04222866666667, "is_disabled": 0, "fusion_lat": 0.0, "lat": 38.9111995, "bike_id": "b80a2c2f73445c49eba0109ceaa80d05", "fusion_lon": 0.0}, {"rental_uris": {"ios": "https://dc.lft.to/lastmile_qr_scan", "android": "https://dc.lft.to/lastmile_qr_scan"}, "type": "electric_scooter", "name": "2b801542973e41d808d243c2c9c79f44", "is_reserved": 0, "lon": -77.03477633333334, "is_disabled": 0, "fusion_lat": 0.0, "lat": 38.907273333333336, "bike_id": "2b801542973e41d808d243c2c9c79f44", "fusion_lon": 0.0}, {"rental_uris": {"ios": "https://dc.lft.to/lastmile_qr_scan", "android": "https://dc.lft.to/lastmile_qr_scan"}, "type": "electric_scooter", "name": "705295b6e6703ecdfc9ca81cbfc863ce", "is_reserved": 0, "lon": -77.02737883333333, "is_disabled": 0, "fusion_lat": 0.0, "lat": 38.96608483333333, "bike_id": "705295b6e6703ecdfc9ca81cbfc863ce", "fusion_lon": 0.0}, {"rental_uris": {"ios": "https://dc.lft.to/lastmile_qr_scan", "android": "https://dc.lft.to/lastmile_qr_scan"}, "type": "electric_scooter", "name": "8ded1fc2c12d7d7eb3fed61e5658af4d", "is_reserved": 0, "lon": -77.03657333333334, "is_disabled": 0, "fusion_lat": 0.0, "lat": 38.922881, "bike_id": "8ded1fc2c12d7d7eb3fed61e5658af4d", "fusion_lon": 0.0}, {"rental_uris": {"ios": "https://dc.lft.to/lastmile_qr_scan", "android": "https://dc.lft.to/lastmile_qr_scan"}, "type": "electric_scooter", "name": "3b1065529294aa004b32d08d504b03e6", "is_reserved": 0, "lon": -77.07522333333333, "is_disabled": 0, "fusion_lat": 0.0, "lat": 38.939499833333336, "bike_id": "3b1065529294aa004b32d08d504b03e6", "fusion_lon": 0.0}, {"rental_uris": {"ios": "https://dc.lft.to/lastmile_qr_scan", "android": "https://dc.lft.to/lastmile_qr_scan"}, "type": "electric_scooter", "name": "ccb9c6e7372f3a08a829cc21f58b71ff", "is_reserved": 0, "lon": -77.0018595, "is_disabled": 0, "fusion_lat": 0.0, "lat": 38.900238, "bike_id": "ccb9c6e7372f3a08a829cc21f58b71ff", "fusion_lon": 0.0}, {"rental_uris": {"ios": "https://dc.lft.to/lastmile_qr_scan", "android": "https://dc.lft.to/lastmile_qr_scan"}, "type": "electric_scooter", "name": "f35b98719bf5768ebc0e139508836759", "is_reserved": 0, "lon": -77.04373183333334, "is_disabled": 0, "fusion_lat": 0.0, "lat": 38.93494483333333, "bike_id": "f35b98719bf5768ebc0e139508836759", "fusion_lon": 0.0}, {"rental_uris": {"ios": "https://dc.lft.to/lastmile_qr_scan", "android": "https://dc.lft.to/lastmile_qr_scan"}, "type": "electric_bike", "name": "ba26148bcb3f51330528dd25dd2ccb64", "is_reserved": 0, "lon": -77.07523283333333, "is_disabled": 0, "fusion_lat": 0.0, "lat": 38.8428695, "bike_id": "ba26148bcb3f51330528dd25dd2ccb64", "fusion_lon": 0.0}, {"rental_uris": {"ios": "https://dc.lft.to/lastmile_qr_scan", "android": "https://dc.lft.to/lastmile_qr_scan"}, "type": "electric_scooter", "name": "3aeeaf3629853202b5be22b26eafec6d", "is_reserved": 0, "lon": -77.07358516666666, "is_disabled": 0, "fusion_lat": 0.0, "lat": 38.93736783333333, "bike_id": "3aeeaf3629853202b5be22b26eafec6d", "fusion_lon": 0.0}, {"rental_uris": {"ios": "https://dc.lft.to/lastmile_qr_scan", "android": "https://dc.lft.to/lastmile_qr_scan"}, "type": "electric_scooter", "name": "94372e2db9dbaa0ae2f9571791972da7", "is_reserved": 0, "lon": -77.067008, "is_disabled": 0, "fusion_lat": 0.0, "lat": 38.9479645, "bike_id": "94372e2db9dbaa0ae2f9571791972da7", "fusion_lon": 0.0}, {"rental_uris": {"ios": "https://dc.lft.to/lastmile_qr_scan", "android": "https://dc.lft.to/lastmile_qr_scan"}, "type": "electric_scooter", "name": "75c9415ec4cb7ccc3f6ce87afb79f3b8", "is_reserved": 0, "lon": -77.03788266666666, "is_disabled": 0, "fusion_lat": 0.0, "lat": 38.93113483333333, "bike_id": "75c9415ec4cb7ccc3f6ce87afb79f3b8", "fusion_lon": 0.0}, {"rental_uris": {"ios": "https://dc.lft.to/lastmile_qr_scan", "android": "https://dc.lft.to/lastmile_qr_scan"}, "type": "electric_bike", "name": "13f994c3d4abf97a664b665ad16be8fd", "is_reserved": 0, "lon": -76.94546733333334, "is_disabled": 0, "fusion_lat": 0.0, "lat": 38.98304566666667, "bike_id": "13f994c3d4abf97a664b665ad16be8fd", "fusion_lon": 0.0}, {"rental_uris": {"ios": "https://dc.lft.to/lastmile_qr_scan", "android": "https://dc.lft.to/lastmile_qr_scan"}, "type": "electric_bike", "name": "7eefd8e3b4e06426141bb914e64af172", "is_reserved": 0, "lon": -76.9524105, "is_disabled": 0, "fusion_lat": 0.0, "lat": 38.88466583333334, "bike_id": "7eefd8e3b4e06426141bb914e64af172", "fusion_lon": 0.0}, {"rental_uris": {"ios": "https://dc.lft.to/lastmile_qr_scan", "android": "https://dc.lft.to/lastmile_qr_scan"}, "type": "electric_scooter", "name": "acfca3d94ba46726338fde62699adffa", "is_reserved": 0, "lon": -77.014418, "is_disabled": 0, "fusion_lat": 0.0, "lat": 38.91107233333334, "bike_id": "acfca3d94ba46726338fde62699adffa", "fusion_lon": 0.0}, {"rental_uris": {"ios": "https://dc.lft.to/lastmile_qr_scan", "android": "https://dc.lft.to/lastmile_qr_scan"}, "type": "electric_scooter", "name": "5fffedad1259cf855e4d7f888f95bca6", "is_reserved": 0, "lon": -77.024539, "is_disabled": 0, "fusion_lat": 0.0, "lat": 38.918183666666664, "bike_id": "5fffedad1259cf855e4d7f888f95bca6", "fusion_lon": 0.0}, {"rental_uris": {"ios": "https://dc.lft.to/lastmile_qr_scan", "android": "https://dc.lft.to/lastmile_qr_scan"}, "type": "electric_scooter", "name": "8714c129c55304084455b2cb6a9138ea", "is_reserved": 0, "lon": -77.08399316666667, "is_disabled": 0, "fusion_lat": 0.0, "lat": 38.9080445, "bike_id": "8714c129c55304084455b2cb6a9138ea", "fusion_lon": 0.0}, {"rental_uris": {"ios": "https://dc.lft.to/lastmile_qr_scan", "android": "https://dc.lft.to/lastmile_qr_scan"}, "type": "electric_scooter", "name": "e166c9b0820e645c27fa678efa8a4cc9", "is_reserved": 0, "lon": -77.04349266666667, "is_disabled": 0, "fusion_lat": 0.0, "lat": 38.90805733333333, "bike_id": "e166c9b0820e645c27fa678efa8a4cc9", "fusion_lon": 0.0}, {"rental_uris": {"ios": "https://dc.lft.to/lastmile_qr_scan", "android": "https://dc.lft.to/lastmile_qr_scan"}, "type": "electric_scooter", "name": "585dd1ed9ac7be021e35ba44b1d32a99", "is_reserved": 0, "lon": -77.05058716666667, "is_disabled": 0, "fusion_lat": 0.0, "lat": 38.90091066666667, "bike_id": "585dd1ed9ac7be021e35ba44b1d32a99", "fusion_lon": 0.0}, {"rental_uris": {"ios": "https://dc.lft.to/lastmile_qr_scan", "android": "https://dc.lft.to/lastmile_qr_scan"}, "type": "electric_scooter", "name": "50f60dd2ff324bed45638ead3ad11ed1", "is_reserved": 0, "lon": -77.04505983333334, "is_disabled": 0, "fusion_lat": 0.0, "lat": 38.892206333333334, "bike_id": "50f60dd2ff324bed45638ead3ad11ed1", "fusion_lon": 0.0}, {"rental_uris": {"ios": "https://dc.lft.to/lastmile_qr_scan", "android": "https://dc.lft.to/lastmile_qr_scan"}, "type": "electric_scooter", "name": "d802a37a6108f150b19f45beb27cadd7", "is_reserved": 0, "lon": -76.979345, "is_disabled": 0, "fusion_lat": 0.0, "lat": 38.906631833333336, "bike_id": "d802a37a6108f150b19f45beb27cadd7", "fusion_lon": 0.0}, {"rental_uris": {"ios": "https://dc.lft.to/lastmile_qr_scan", "android": "https://dc.lft.to/lastmile_qr_scan"}, "type": "electric_scooter", "name": "0309771d55c27abd018ee162d94e9445", "is_reserved": 0, "lon": -77.03658983333334, "is_disabled": 0, "fusion_lat": 0.0, "lat": 38.922862333333335, "bike_id": "0309771d55c27abd018ee162d94e9445", "fusion_lon": 0.0}, {"rental_uris": {"ios": "https://dc.lft.to/lastmile_qr_scan", "android": "https://dc.lft.to/lastmile_qr_scan"}, "type": "electric_scooter", "name": "33649b49f4483c9fdd805562cdb5179f", "is_reserved": 0, "lon": -77.0092385, "is_disabled": 0, "fusion_lat": 0.0, "lat": 38.89885066666667, "bike_id": "33649b49f4483c9fdd805562cdb5179f", "fusion_lon": 0.0}, {"rental_uris": {"ios": "https://dc.lft.to/lastmile_qr_scan", "android": "https://dc.lft.to/lastmile_qr_scan"}, "type": "electric_scooter", "name": "085af428d078c63d42275361b9bb974f", "is_reserved": 0, "lon": -77.02159033333334, "is_disabled": 0, "fusion_lat": 0.0, "lat": 38.92604383333333, "bike_id": "085af428d078c63d42275361b9bb974f", "fusion_lon": 0.0}, {"rental_uris": {"ios": "https://dc.lft.to/lastmile_qr_scan", "android": "https://dc.lft.to/lastmile_qr_scan"}, "type": "electric_scooter", "name": "90194aefbca6f26d62ce882753eb43a7", "is_reserved": 0, "lon": -77.05218883333333, "is_disabled": 0, "fusion_lat": 0.0, "lat": 38.9002315, "bike_id": "90194aefbca6f26d62ce882753eb43a7", "fusion_lon": 0.0}, {"rental_uris": {"ios": "https://dc.lft.to/lastmile_qr_scan", "android": "https://dc.lft.to/lastmile_qr_scan"}, "type": "electric_scooter", "name": "5b7c4a7f1c2d4d6596b0ffea13e5b644", "is_reserved": 0, "lon": -77.06476783333333, "is_disabled": 0, "fusion_lat": 0.0, "lat": 38.910262, "bike_id": "5b7c4a7f1c2d4d6596b0ffea13e5b644", "fusion_lon": 0.0}, {"rental_uris": {"ios": "https://dc.lft.to/lastmile_qr_scan", "android": "https://dc.lft.to/lastmile_qr_scan"}, "type": "electric_bike", "name": "8233638d17bd3041e6e557244ad1f8c7", "is_reserved": 0, "lon": -77.00138266666667, "is_disabled": 0, "fusion_lat": 0.0, "lat": 38.995037333333336, "bike_id": "8233638d17bd3041e6e557244ad1f8c7", "fusion_lon": 0.0}, {"rental_uris": {"ios": "https://dc.lft.to/lastmile_qr_scan", "android": "https://dc.lft.to/lastmile_qr_scan"}, "type": "electric_scooter", "name": "4149b160976d8471dc6442475b91b072", "is_reserved": 0, "lon": -77.004192, "is_disabled": 0, "fusion_lat": 0.0, "lat": 38.905676666666665, "bike_id": "4149b160976d8471dc6442475b91b072", "fusion_lon": 0.0}, {"rental_uris": {"ios": "https://dc.lft.to/lastmile_qr_scan", "android": "https://dc.lft.to/lastmile_qr_scan"}, "type": "electric_scooter", "name": "44a4c9da7f84cf29369fbf443f4c7022", "is_reserved": 0, "lon": -77.00202566666667, "is_disabled": 0, "fusion_lat": 0.0, "lat": 38.893270333333334, "bike_id": "44a4c9da7f84cf29369fbf443f4c7022", "fusion_lon": 0.0}, {"rental_uris": {"ios": "https://dc.lft.to/lastmile_qr_scan", "android": "https://dc.lft.to/lastmile_qr_scan"}, "type": "electric_scooter", "name": "a53ee595611bd9375a3cdefc31e5948e", "is_reserved": 0, "lon": -77.02697216666667, "is_disabled": 0, "fusion_lat": 0.0, "lat": 38.92338083333333, "bike_id": "a53ee595611bd9375a3cdefc31e5948e", "fusion_lon": 0.0}, {"rental_uris": {"ios": "https://dc.lft.to/lastmile_qr_scan", "android": "https://dc.lft.to/lastmile_qr_scan"}, "type": "electric_scooter", "name": "452c11b0d28675e82806f282dfffac34", "is_reserved": 0, "lon": -77.0467485, "is_disabled": 0, "fusion_lat": 0.0, "lat": 38.892358, "bike_id": "452c11b0d28675e82806f282dfffac34", "fusion_lon": 0.0}, {"rental_uris": {"ios": "https://dc.lft.to/lastmile_qr_scan", "android": "https://dc.lft.to/lastmile_qr_scan"}, "type": "electric_scooter", "name": "25cfb59825295a9f99f701aa69c10db2", "is_reserved": 0, "lon": -77.019966, "is_disabled": 0, "fusion_lat": 0.0, "lat": 38.901622, "bike_id": "25cfb59825295a9f99f701aa69c10db2", "fusion_lon": 0.0}, {"rental_uris": {"ios": "https://dc.lft.to/lastmile_qr_scan", "android": "https://dc.lft.to/lastmile_qr_scan"}, "type": "electric_scooter", "name": "b8000906f585370eff91c39ab1f551ba", "is_reserved": 0, "lon": -77.05021516666666, "is_disabled": 0, "fusion_lat": 0.0, "lat": 38.9105205, "bike_id": "b8000906f585370eff91c39ab1f551ba", "fusion_lon": 0.0}, {"rental_uris": {"ios": "https://dc.lft.to/lastmile_qr_scan", "android": "https://dc.lft.to/lastmile_qr_scan"}, "type": "electric_scooter", "name": "87fd7d13d8f3ba54e033e03ea00e1286", "is_reserved": 0, "lon": -77.01980066666667, "is_disabled": 0, "fusion_lat": 0.0, "lat": 38.9521365, "bike_id": "87fd7d13d8f3ba54e033e03ea00e1286", "fusion_lon": 0.0}, {"rental_uris": {"ios": "https://dc.lft.to/lastmile_qr_scan", "android": "https://dc.lft.to/lastmile_qr_scan"}, "type": "electric_scooter", "name": "c9a01c6e32d45a62dbf642cd01a33a27", "is_reserved": 0, "lon": -77.046742, "is_disabled": 0, "fusion_lat": 0.0, "lat": 38.89235133333333, "bike_id": "c9a01c6e32d45a62dbf642cd01a33a27", "fusion_lon": 0.0}, {"rental_uris": {"ios": "https://dc.lft.to/lastmile_qr_scan", "android": "https://dc.lft.to/lastmile_qr_scan"}, "type": "electric_scooter", "name": "2fd7ffb3579f81be5a21c4ef358e0578", "is_reserved": 0, "lon": -77.0258635, "is_disabled": 0, "fusion_lat": 0.0, "lat": 38.920386, "bike_id": "2fd7ffb3579f81be5a21c4ef358e0578", "fusion_lon": 0.0}, {"rental_uris": {"ios": "https://dc.lft.to/lastmile_qr_scan", "android": "https://dc.lft.to/lastmile_qr_scan"}, "type": "electric_scooter", "name": "733ced0866939e6dd374ddade341bb0e", "is_reserved": 0, "lon": -77.065417, "is_disabled": 0, "fusion_lat": 0.0, "lat": 38.9052365, "bike_id": "733ced0866939e6dd374ddade341bb0e", "fusion_lon": 0.0}, {"rental_uris": {"ios": "https://dc.lft.to/lastmile_qr_scan", "android": "https://dc.lft.to/lastmile_qr_scan"}, "type": "electric_scooter", "name": "975daa92217e1300d63c75f50586acce", "is_reserved": 0, "lon": -77.01946733333334, "is_disabled": 0, "fusion_lat": 0.0, "lat": 38.9241965, "bike_id": "975daa92217e1300d63c75f50586acce", "fusion_lon": 0.0}, {"rental_uris": {"ios": "https://dc.lft.to/lastmile_qr_scan", "android": "https://dc.lft.to/lastmile_qr_scan"}, "type": "electric_scooter", "name": "7c57778e8d3c683e30a42d6609ff1627", "is_reserved": 0, "lon": -77.03851066666667, "is_disabled": 0, "fusion_lat": 0.0, "lat": 38.93246116666667, "bike_id": "7c57778e8d3c683e30a42d6609ff1627", "fusion_lon": 0.0}, {"rental_uris": {"ios": "https://dc.lft.to/lastmile_qr_scan", "android": "https://dc.lft.to/lastmile_qr_scan"}, "type": "electric_scooter", "name": "e99a9cb8774e65525d1d4f3c04401433", "is_reserved": 0, "lon": -77.04498016666666, "is_disabled": 0, "fusion_lat": 0.0, "lat": 38.905042, "bike_id": "e99a9cb8774e65525d1d4f3c04401433", "fusion_lon": 0.0}, {"rental_uris": {"ios": "https://dc.lft.to/lastmile_qr_scan", "android": "https://dc.lft.to/lastmile_qr_scan"}, "type": "electric_scooter", "name": "947309f083bd9129a1d6fcc914688365", "is_reserved": 0, "lon": -77.090303, "is_disabled": 0, "fusion_lat": 0.0, "lat": 38.95606733333334, "bike_id": "947309f083bd9129a1d6fcc914688365", "fusion_lon": 0.0}, {"rental_uris": {"ios": "https://dc.lft.to/lastmile_qr_scan", "android": "https://dc.lft.to/lastmile_qr_scan"}, "type": "electric_scooter", "name": "96dcebc5ac6aa99737df054f24d03e7d", "is_reserved": 0, "lon": -76.96974783333333, "is_disabled": 0, "fusion_lat": 0.0, "lat": 38.861463666666666, "bike_id": "96dcebc5ac6aa99737df054f24d03e7d", "fusion_lon": 0.0}, {"rental_uris": {"ios": "https://dc.lft.to/lastmile_qr_scan", "android": "https://dc.lft.to/lastmile_qr_scan"}, "type": "electric_scooter", "name": "0c8cf71fa1eb5086781de175f21d4b98", "is_reserved": 0, "lon": -77.0436615, "is_disabled": 0, "fusion_lat": 0.0, "lat": 38.89227266666666, "bike_id": "0c8cf71fa1eb5086781de175f21d4b98", "fusion_lon": 0.0}, {"rental_uris": {"ios": "https://dc.lft.to/lastmile_qr_scan", "android": "https://dc.lft.to/lastmile_qr_scan"}, "type": "electric_scooter", "name": "30d311f9819a3632991afe0e952f61ee", "is_reserved": 0, "lon": -77.017685, "is_disabled": 0, "fusion_lat": 0.0, "lat": 38.900817, "bike_id": "30d311f9819a3632991afe0e952f61ee", "fusion_lon": 0.0}, {"rental_uris": {"ios": "https://dc.lft.to/lastmile_qr_scan", "android": "https://dc.lft.to/lastmile_qr_scan"}, "type": "electric_bike", "name": "daccd3e139f02cdef299fbd22618a987", "is_reserved": 0, "lon": -77.08526783333333, "is_disabled": 0, "fusion_lat": 0.0, "lat": 38.856488666666664, "bike_id": "daccd3e139f02cdef299fbd22618a987", "fusion_lon": 0.0}, {"rental_uris": {"ios": "https://dc.lft.to/lastmile_qr_scan", "android": "https://dc.lft.to/lastmile_qr_scan"}, "type": "electric_scooter", "name": "1bc09b1bd1beff97c27a23953f85574d", "is_reserved": 0, "lon": -77.03709283333333, "is_disabled": 0, "fusion_lat": 0.0, "lat": 38.92655766666667, "bike_id": "1bc09b1bd1beff97c27a23953f85574d", "fusion_lon": 0.0}, {"rental_uris": {"ios": "https://dc.lft.to/lastmile_qr_scan", "android": "https://dc.lft.to/lastmile_qr_scan"}, "type": "electric_scooter", "name": "7c57f68f1ce6c26122890fd6d67b22f2", "is_reserved": 0, "lon": -77.03416516666667, "is_disabled": 0, "fusion_lat": 0.0, "lat": 38.9220865, "bike_id": "7c57f68f1ce6c26122890fd6d67b22f2", "fusion_lon": 0.0}, {"rental_uris": {"ios": "https://dc.lft.to/lastmile_qr_scan", "android": "https://dc.lft.to/lastmile_qr_scan"}, "type": "electric_scooter", "name": "a9a3e999cd430d9c1a212596a28666e6", "is_reserved": 0, "lon": -77.01205116666667, "is_disabled": 0, "fusion_lat": 0.0, "lat": 38.90169133333333, "bike_id": "a9a3e999cd430d9c1a212596a28666e6", "fusion_lon": 0.0}, {"rental_uris": {"ios": "https://dc.lft.to/lastmile_qr_scan", "android": "https://dc.lft.to/lastmile_qr_scan"}, "type": "electric_scooter", "name": "3d26e37d5647eeb3be9f5f0d2cd5843c", "is_reserved": 0, "lon": -76.98320016666666, "is_disabled": 0, "fusion_lat": 0.0, "lat": 38.878336166666664, "bike_id": "3d26e37d5647eeb3be9f5f0d2cd5843c", "fusion_lon": 0.0}, {"rental_uris": {"ios": "https://dc.lft.to/lastmile_qr_scan", "android": "https://dc.lft.to/lastmile_qr_scan"}, "type": "electric_scooter", "name": "407d56b41d2e44c77f2a5688c6ec3ecf", "is_reserved": 0, "lon": -77.04657083333333, "is_disabled": 0, "fusion_lat": 0.0, "lat": 38.9212275, "bike_id": "407d56b41d2e44c77f2a5688c6ec3ecf", "fusion_lon": 0.0}, {"rental_uris": {"ios": "https://dc.lft.to/lastmile_qr_scan", "android": "https://dc.lft.to/lastmile_qr_scan"}, "type": "electric_scooter", "name": "981e8f0d50c99ccffd8a20a2b3cf9439", "is_reserved": 0, "lon": -77.00342716666667, "is_disabled": 0, "fusion_lat": 0.0, "lat": 38.89641866666667, "bike_id": "981e8f0d50c99ccffd8a20a2b3cf9439", "fusion_lon": 0.0}, {"rental_uris": {"ios": "https://dc.lft.to/lastmile_qr_scan", "android": "https://dc.lft.to/lastmile_qr_scan"}, "type": "electric_scooter", "name": "94054f77766a32ba4e7528eb7ebac227", "is_reserved": 0, "lon": -77.01820983333333, "is_disabled": 0, "fusion_lat": 0.0, "lat": 38.900748166666666, "bike_id": "94054f77766a32ba4e7528eb7ebac227", "fusion_lon": 0.0}, {"rental_uris": {"ios": "https://dc.lft.to/lastmile_qr_scan", "android": "https://dc.lft.to/lastmile_qr_scan"}, "type": "electric_scooter", "name": "bffb8d6180e6acb114785e48b1f18d2e", "is_reserved": 0, "lon": -76.973517, "is_disabled": 0, "fusion_lat": 0.0, "lat": 38.850037, "bike_id": "bffb8d6180e6acb114785e48b1f18d2e", "fusion_lon": 0.0}, {"rental_uris": {"ios": "https://dc.lft.to/lastmile_qr_scan", "android": "https://dc.lft.to/lastmile_qr_scan"}, "type": "electric_scooter", "name": "1ae3ecac0fc6b0d994ec1777df67daa6", "is_reserved": 0, "lon": -76.98699533333334, "is_disabled": 0, "fusion_lat": 0.0, "lat": 38.85966066666667, "bike_id": "1ae3ecac0fc6b0d994ec1777df67daa6", "fusion_lon": 0.0}, {"rental_uris": {"ios": "https://dc.lft.to/lastmile_qr_scan", "android": "https://dc.lft.to/lastmile_qr_scan"}, "type": "electric_scooter", "name": "28bbecfc850b3be053b2010ae973c140", "is_reserved": 0, "lon": -77.02715933333333, "is_disabled": 0, "fusion_lat": 0.0, "lat": 38.909530833333335, "bike_id": "28bbecfc850b3be053b2010ae973c140", "fusion_lon": 0.0}, {"rental_uris": {"ios": "https://dc.lft.to/lastmile_qr_scan", "android": "https://dc.lft.to/lastmile_qr_scan"}, "type": "electric_scooter", "name": "c7db4c722ff284811b0ce5b161a5bb90", "is_reserved": 0, "lon": -77.04143783333333, "is_disabled": 0, "fusion_lat": 0.0, "lat": 38.930436666666665, "bike_id": "c7db4c722ff284811b0ce5b161a5bb90", "fusion_lon": 0.0}, {"rental_uris": {"ios": "https://dc.lft.to/lastmile_qr_scan", "android": "https://dc.lft.to/lastmile_qr_scan"}, "type": "electric_scooter", "name": "00c3b6ab9f75ca4a450fe109c5b5caf5", "is_reserved": 0, "lon": -77.03870933333333, "is_disabled": 0, "fusion_lat": 0.0, "lat": 38.912536333333335, "bike_id": "00c3b6ab9f75ca4a450fe109c5b5caf5", "fusion_lon": 0.0}, {"rental_uris": {"ios": "https://dc.lft.to/lastmile_qr_scan", "android": "https://dc.lft.to/lastmile_qr_scan"}, "type": "electric_scooter", "name": "5794c4a7dab433be7a6973fb1a92033d", "is_reserved": 0, "lon": -77.01768983333334, "is_disabled": 0, "fusion_lat": 0.0, "lat": 38.887269333333336, "bike_id": "5794c4a7dab433be7a6973fb1a92033d", "fusion_lon": 0.0}, {"rental_uris": {"ios": "https://dc.lft.to/lastmile_qr_scan", "android": "https://dc.lft.to/lastmile_qr_scan"}, "type": "electric_scooter", "name": "ba2ba0a32bb2afccb349a1aefd545a8e", "is_reserved": 0, "lon": -76.989111, "is_disabled": 0, "fusion_lat": 0.0, "lat": 38.90010216666667, "bike_id": "ba2ba0a32bb2afccb349a1aefd545a8e", "fusion_lon": 0.0}, {"rental_uris": {"ios": "https://dc.lft.to/lastmile_qr_scan", "android": "https://dc.lft.to/lastmile_qr_scan"}, "type": "electric_scooter", "name": "c4b3badeaa885d13137dad88088892ad", "is_reserved": 0, "lon": -77.02652966666666, "is_disabled": 0, "fusion_lat": 0.0, "lat": 38.88115716666667, "bike_id": "c4b3badeaa885d13137dad88088892ad", "fusion_lon": 0.0}, {"rental_uris": {"ios": "https://dc.lft.to/lastmile_qr_scan", "android": "https://dc.lft.to/lastmile_qr_scan"}, "type": "electric_scooter", "name": "5bb6a33da3588ff51656bf5f79913493", "is_reserved": 0, "lon": -77.01229916666666, "is_disabled": 0, "fusion_lat": 0.0, "lat": 38.86977183333333, "bike_id": "5bb6a33da3588ff51656bf5f79913493", "fusion_lon": 0.0}, {"rental_uris": {"ios": "https://dc.lft.to/lastmile_qr_scan", "android": "https://dc.lft.to/lastmile_qr_scan"}, "type": "electric_scooter", "name": "4da12bd5933daf8824156bfdb54de034", "is_reserved": 0, "lon": -77.02588483333334, "is_disabled": 0, "fusion_lat": 0.0, "lat": 38.963953, "bike_id": "4da12bd5933daf8824156bfdb54de034", "fusion_lon": 0.0}, {"rental_uris": {"ios": "https://dc.lft.to/lastmile_qr_scan", "android": "https://dc.lft.to/lastmile_qr_scan"}, "type": "electric_scooter", "name": "89bae0d33ed7c2c4afad9731c79e9c39", "is_reserved": 0, "lon": -76.93295616666667, "is_disabled": 0, "fusion_lat": 0.0, "lat": 38.896805, "bike_id": "89bae0d33ed7c2c4afad9731c79e9c39", "fusion_lon": 0.0}, {"rental_uris": {"ios": "https://dc.lft.to/lastmile_qr_scan", "android": "https://dc.lft.to/lastmile_qr_scan"}, "type": "electric_scooter", "name": "77e1c92e4f9f4070e5652cc78b227057", "is_reserved": 0, "lon": -76.9996235, "is_disabled": 0, "fusion_lat": 0.0, "lat": 38.894252, "bike_id": "77e1c92e4f9f4070e5652cc78b227057", "fusion_lon": 0.0}, {"rental_uris": {"ios": "https://dc.lft.to/lastmile_qr_scan", "android": "https://dc.lft.to/lastmile_qr_scan"}, "type": "electric_scooter", "name": "8300cf238ada0de924f2c49df62643b1", "is_reserved": 0, "lon": -77.01798233333334, "is_disabled": 0, "fusion_lat": 0.0, "lat": 38.885977, "bike_id": "8300cf238ada0de924f2c49df62643b1", "fusion_lon": 0.0}, {"rental_uris": {"ios": "https://dc.lft.to/lastmile_qr_scan", "android": "https://dc.lft.to/lastmile_qr_scan"}, "type": "electric_scooter", "name": "1001dd2f0d7cb7b731be92d7da211888", "is_reserved": 0, "lon": -77.03346516666667, "is_disabled": 0, "fusion_lat": 0.0, "lat": 38.89240383333333, "bike_id": "1001dd2f0d7cb7b731be92d7da211888", "fusion_lon": 0.0}, {"rental_uris": {"ios": "https://dc.lft.to/lastmile_qr_scan", "android": "https://dc.lft.to/lastmile_qr_scan"}, "type": "electric_bike", "name": "8f3f93243801aa2904f5a23a37ff446e", "is_reserved": 0, "lon": -76.98344733333333, "is_disabled": 0, "fusion_lat": 0.0, "lat": 38.86256616666667, "bike_id": "8f3f93243801aa2904f5a23a37ff446e", "fusion_lon": 0.0}, {"rental_uris": {"ios": "https://dc.lft.to/lastmile_qr_scan", "android": "https://dc.lft.to/lastmile_qr_scan"}, "type": "electric_scooter", "name": "5c18269cc8a789e27fc494d90f6dc0a1", "is_reserved": 0, "lon": -77.02293533333334, "is_disabled": 0, "fusion_lat": 0.0, "lat": 38.9168285, "bike_id": "5c18269cc8a789e27fc494d90f6dc0a1", "fusion_lon": 0.0}, {"rental_uris": {"ios": "https://dc.lft.to/lastmile_qr_scan", "android": "https://dc.lft.to/lastmile_qr_scan"}, "type": "electric_scooter", "name": "9098c32188edef413adfe453f192486d", "is_reserved": 0, "lon": -77.07153166666667, "is_disabled": 0, "fusion_lat": 0.0, "lat": 38.89595666666666, "bike_id": "9098c32188edef413adfe453f192486d", "fusion_lon": 0.0}, {"rental_uris": {"ios": "https://dc.lft.to/lastmile_qr_scan", "android": "https://dc.lft.to/lastmile_qr_scan"}, "type": "electric_bike", "name": "6582a20e0d26894e6c74ddb18909fc2c", "is_reserved": 0, "lon": -76.91805583333333, "is_disabled": 0, "fusion_lat": 0.0, "lat": 39.00000416666666, "bike_id": "6582a20e0d26894e6c74ddb18909fc2c", "fusion_lon": 0.0}, {"rental_uris": {"ios": "https://dc.lft.to/lastmile_qr_scan", "android": "https://dc.lft.to/lastmile_qr_scan"}, "type": "electric_scooter", "name": "7825ba86ff7bbd7fa343468ea3af8476", "is_reserved": 0, "lon": -77.02320716666667, "is_disabled": 0, "fusion_lat": 0.0, "lat": 38.90203233333333, "bike_id": "7825ba86ff7bbd7fa343468ea3af8476", "fusion_lon": 0.0}, {"rental_uris": {"ios": "https://dc.lft.to/lastmile_qr_scan", "android": "https://dc.lft.to/lastmile_qr_scan"}, "type": "electric_scooter", "name": "41341a6d7be4b7d5c1a77d92b17d1c4f", "is_reserved": 0, "lon": -77.00550366666667, "is_disabled": 0, "fusion_lat": 0.0, "lat": 38.87532383333333, "bike_id": "41341a6d7be4b7d5c1a77d92b17d1c4f", "fusion_lon": 0.0}, {"rental_uris": {"ios": "https://dc.lft.to/lastmile_qr_scan", "android": "https://dc.lft.to/lastmile_qr_scan"}, "type": "electric_scooter", "name": "38410570669e95b5cf2b7e37c86e8bcc", "is_reserved": 0, "lon": -77.04493516666666, "is_disabled": 0, "fusion_lat": 0.0, "lat": 38.90593116666667, "bike_id": "38410570669e95b5cf2b7e37c86e8bcc", "fusion_lon": 0.0}, {"rental_uris": {"ios": "https://dc.lft.to/lastmile_qr_scan", "android": "https://dc.lft.to/lastmile_qr_scan"}, "type": "electric_scooter", "name": "05d37db78d8f0e9edf5ef78947775ade", "is_reserved": 0, "lon": -77.05010566666667, "is_disabled": 0, "fusion_lat": 0.0, "lat": 38.90622666666667, "bike_id": "05d37db78d8f0e9edf5ef78947775ade", "fusion_lon": 0.0}, {"rental_uris": {"ios": "https://dc.lft.to/lastmile_qr_scan", "android": "https://dc.lft.to/lastmile_qr_scan"}, "type": "electric_scooter", "name": "fb3b6ace236f21fdc85eedd4f4c6d764", "is_reserved": 0, "lon": -77.01227616666667, "is_disabled": 0, "fusion_lat": 0.0, "lat": 38.91667916666667, "bike_id": "fb3b6ace236f21fdc85eedd4f4c6d764", "fusion_lon": 0.0}, {"rental_uris": {"ios": "https://dc.lft.to/lastmile_qr_scan", "android": "https://dc.lft.to/lastmile_qr_scan"}, "type": "electric_scooter", "name": "d1c2169ce705eb954cf5acbd01fc5c0f", "is_reserved": 0, "lon": -77.028082, "is_disabled": 0, "fusion_lat": 0.0, "lat": 38.907391833333335, "bike_id": "d1c2169ce705eb954cf5acbd01fc5c0f", "fusion_lon": 0.0}, {"rental_uris": {"ios": "https://dc.lft.to/lastmile_qr_scan", "android": "https://dc.lft.to/lastmile_qr_scan"}, "type": "electric_scooter", "name": "3c38b75d68b84824e0fe8f0b1aa3a77b", "is_reserved": 0, "lon": -77.0314795, "is_disabled": 0, "fusion_lat": 0.0, "lat": 38.88734816666667, "bike_id": "3c38b75d68b84824e0fe8f0b1aa3a77b", "fusion_lon": 0.0}, {"rental_uris": {"ios": "https://dc.lft.to/lastmile_qr_scan", "android": "https://dc.lft.to/lastmile_qr_scan"}, "type": "electric_scooter", "name": "1d20a4d01a0e42b9ccbff9da3cf6e80a", "is_reserved": 0, "lon": -76.99663366666667, "is_disabled": 0, "fusion_lat": 0.0, "lat": 38.892322666666665, "bike_id": "1d20a4d01a0e42b9ccbff9da3cf6e80a", "fusion_lon": 0.0}, {"rental_uris": {"ios": "https://dc.lft.to/lastmile_qr_scan", "android": "https://dc.lft.to/lastmile_qr_scan"}, "type": "electric_scooter", "name": "775c9fc397af92484a02b84db0c28e14", "is_reserved": 0, "lon": -77.03219666666666, "is_disabled": 0, "fusion_lat": 0.0, "lat": 38.91696616666667, "bike_id": "775c9fc397af92484a02b84db0c28e14", "fusion_lon": 0.0}, {"rental_uris": {"ios": "https://dc.lft.to/lastmile_qr_scan", "android": "https://dc.lft.to/lastmile_qr_scan"}, "type": "electric_scooter", "name": "062aa2a5573b26875029d60ffe4cf773", "is_reserved": 0, "lon": -77.03213066666666, "is_disabled": 0, "fusion_lat": 0.0, "lat": 38.909585666666665, "bike_id": "062aa2a5573b26875029d60ffe4cf773", "fusion_lon": 0.0}, {"rental_uris": {"ios": "https://dc.lft.to/lastmile_qr_scan", "android": "https://dc.lft.to/lastmile_qr_scan"}, "type": "electric_scooter", "name": "9ea1c7904e4a81ab96e2286a5385617d", "is_reserved": 0, "lon": -77.0280745, "is_disabled": 0, "fusion_lat": 0.0, "lat": 38.907391833333335, "bike_id": "9ea1c7904e4a81ab96e2286a5385617d", "fusion_lon": 0.0}, {"rental_uris": {"ios": "https://dc.lft.to/lastmile_qr_scan", "android": "https://dc.lft.to/lastmile_qr_scan"}, "type": "electric_scooter", "name": "c524c434447e2718d8c2d6caece13095", "is_reserved": 0, "lon": -77.006486, "is_disabled": 0, "fusion_lat": 0.0, "lat": 38.901023, "bike_id": "c524c434447e2718d8c2d6caece13095", "fusion_lon": 0.0}, {"rental_uris": {"ios": "https://dc.lft.to/lastmile_qr_scan", "android": "https://dc.lft.to/lastmile_qr_scan"}, "type": "electric_scooter", "name": "f9f0084985405e40fd45c178b81ce045", "is_reserved": 0, "lon": -77.0253095, "is_disabled": 0, "fusion_lat": 0.0, "lat": 38.94532316666667, "bike_id": "f9f0084985405e40fd45c178b81ce045", "fusion_lon": 0.0}, {"rental_uris": {"ios": "https://dc.lft.to/lastmile_qr_scan", "android": "https://dc.lft.to/lastmile_qr_scan"}, "type": "electric_scooter", "name": "a0579afdcea13382999c970f58221dc5", "is_reserved": 0, "lon": -77.01915266666667, "is_disabled": 0, "fusion_lat": 0.0, "lat": 38.897315666666664, "bike_id": "a0579afdcea13382999c970f58221dc5", "fusion_lon": 0.0}, {"rental_uris": {"ios": "https://dc.lft.to/lastmile_qr_scan", "android": "https://dc.lft.to/lastmile_qr_scan"}, "type": "electric_scooter", "name": "7e81d38a009113179e27cb0aef120b8c", "is_reserved": 0, "lon": -77.00537166666666, "is_disabled": 0, "fusion_lat": 0.0, "lat": 38.90040183333333, "bike_id": "7e81d38a009113179e27cb0aef120b8c", "fusion_lon": 0.0}, {"rental_uris": {"ios": "https://dc.lft.to/lastmile_qr_scan", "android": "https://dc.lft.to/lastmile_qr_scan"}, "type": "electric_bike", "name": "cfa9f05c5e17942d11a79dc64b4d0e9c", "is_reserved": 0, "lon": -76.95792533333334, "is_disabled": 0, "fusion_lat": 0.0, "lat": 38.9804605, "bike_id": "cfa9f05c5e17942d11a79dc64b4d0e9c", "fusion_lon": 0.0}, {"rental_uris": {"ios": "https://dc.lft.to/lastmile_qr_scan", "android": "https://dc.lft.to/lastmile_qr_scan"}, "type": "electric_scooter", "name": "f9a9436b4e7d4a97b6ef6c2a81d76d9b", "is_reserved": 0, "lon": -76.97567866666667, "is_disabled": 0, "fusion_lat": 0.0, "lat": 38.944230166666664, "bike_id": "f9a9436b4e7d4a97b6ef6c2a81d76d9b", "fusion_lon": 0.0}, {"rental_uris": {"ios": "https://dc.lft.to/lastmile_qr_scan", "android": "https://dc.lft.to/lastmile_qr_scan"}, "type": "electric_scooter", "name": "27dd548f6a7f7fe963df6ae4d8c395a5", "is_reserved": 0, "lon": -77.02916516666667, "is_disabled": 0, "fusion_lat": 0.0, "lat": 38.9091325, "bike_id": "27dd548f6a7f7fe963df6ae4d8c395a5", "fusion_lon": 0.0}, {"rental_uris": {"ios": "https://dc.lft.to/lastmile_qr_scan", "android": "https://dc.lft.to/lastmile_qr_scan"}, "type": "electric_scooter", "name": "050c5c1b04beac5aacbb86263793bd10", "is_reserved": 0, "lon": -77.02642, "is_disabled": 0, "fusion_lat": 0.0, "lat": 38.903016666666666, "bike_id": "050c5c1b04beac5aacbb86263793bd10", "fusion_lon": 0.0}, {"rental_uris": {"ios": "https://dc.lft.to/lastmile_qr_scan", "android": "https://dc.lft.to/lastmile_qr_scan"}, "type": "electric_scooter", "name": "11ecb108e8f4aa86aea485bf285bfe8a", "is_reserved": 0, "lon": -77.04198566666666, "is_disabled": 0, "fusion_lat": 0.0, "lat": 38.920526833333334, "bike_id": "11ecb108e8f4aa86aea485bf285bfe8a", "fusion_lon": 0.0}, {"rental_uris": {"ios": "https://dc.lft.to/lastmile_qr_scan", "android": "https://dc.lft.to/lastmile_qr_scan"}, "type": "electric_scooter", "name": "e9f6e6714f78fa99938aacab1258179d", "is_reserved": 0, "lon": -77.03218883333334, "is_disabled": 0, "fusion_lat": 0.0, "lat": 38.908687, "bike_id": "e9f6e6714f78fa99938aacab1258179d", "fusion_lon": 0.0}, {"rental_uris": {"ios": "https://dc.lft.to/lastmile_qr_scan", "android": "https://dc.lft.to/lastmile_qr_scan"}, "type": "electric_scooter", "name": "0ac0f3ed9d52293e746c5a5f0a779308", "is_reserved": 0, "lon": -76.99791366666666, "is_disabled": 0, "fusion_lat": 0.0, "lat": 38.87633233333333, "bike_id": "0ac0f3ed9d52293e746c5a5f0a779308", "fusion_lon": 0.0}, {"rental_uris": {"ios": "https://dc.lft.to/lastmile_qr_scan", "android": "https://dc.lft.to/lastmile_qr_scan"}, "type": "electric_scooter", "name": "af96d7899abd6ec03cdb154be897f6b2", "is_reserved": 0, "lon": -77.07762016666666, "is_disabled": 0, "fusion_lat": 0.0, "lat": 38.92554633333334, "bike_id": "af96d7899abd6ec03cdb154be897f6b2", "fusion_lon": 0.0}, {"rental_uris": {"ios": "https://dc.lft.to/lastmile_qr_scan", "android": "https://dc.lft.to/lastmile_qr_scan"}, "type": "electric_scooter", "name": "3a7550691f06892c6917411b32caa9a4", "is_reserved": 0, "lon": -77.02218616666667, "is_disabled": 0, "fusion_lat": 0.0, "lat": 38.924715, "bike_id": "3a7550691f06892c6917411b32caa9a4", "fusion_lon": 0.0}, {"rental_uris": {"ios": "https://dc.lft.to/lastmile_qr_scan", "android": "https://dc.lft.to/lastmile_qr_scan"}, "type": "electric_bike", "name": "e7582f39066e3d4b1bc4f41c5e26bcf4", "is_reserved": 0, "lon": -77.001368, "is_disabled": 0, "fusion_lat": 0.0, "lat": 38.995000166666664, "bike_id": "e7582f39066e3d4b1bc4f41c5e26bcf4", "fusion_lon": 0.0}, {"rental_uris": {"ios": "https://dc.lft.to/lastmile_qr_scan", "android": "https://dc.lft.to/lastmile_qr_scan"}, "type": "electric_bike", "name": "74dc618ae56ba4f3e5fd59006ca2cba4", "is_reserved": 0, "lon": -76.94151333333333, "is_disabled": 0, "fusion_lat": 0.0, "lat": 38.890194666666666, "bike_id": "74dc618ae56ba4f3e5fd59006ca2cba4", "fusion_lon": 0.0}, {"rental_uris": {"ios": "https://dc.lft.to/lastmile_qr_scan", "android": "https://dc.lft.to/lastmile_qr_scan"}, "type": "electric_scooter", "name": "f4b0d8a7d3d868cf6ce164a47870f609", "is_reserved": 0, "lon": -77.0298585, "is_disabled": 0, "fusion_lat": 0.0, "lat": 38.9241105, "bike_id": "f4b0d8a7d3d868cf6ce164a47870f609", "fusion_lon": 0.0}, {"rental_uris": {"ios": "https://dc.lft.to/lastmile_qr_scan", "android": "https://dc.lft.to/lastmile_qr_scan"}, "type": "electric_bike", "name": "b2e8320908dd8e8b9df2717c208be977", "is_reserved": 0, "lon": -77.12942233333334, "is_disabled": 0, "fusion_lat": 0.0, "lat": 38.865772, "bike_id": "b2e8320908dd8e8b9df2717c208be977", "fusion_lon": 0.0}, {"rental_uris": {"ios": "https://dc.lft.to/lastmile_qr_scan", "android": "https://dc.lft.to/lastmile_qr_scan"}, "type": "electric_scooter", "name": "a4e7b2e22bafcfbd2dc49d4855077a71", "is_reserved": 0, "lon": -77.03340533333333, "is_disabled": 0, "fusion_lat": 0.0, "lat": 38.92560833333334, "bike_id": "a4e7b2e22bafcfbd2dc49d4855077a71", "fusion_lon": 0.0}, {"rental_uris": {"ios": "https://dc.lft.to/lastmile_qr_scan", "android": "https://dc.lft.to/lastmile_qr_scan"}, "type": "electric_scooter", "name": "61cff37b01a93aa8d340ea7abfaa80b3", "is_reserved": 0, "lon": -77.018259, "is_disabled": 0, "fusion_lat": 0.0, "lat": 38.9025105, "bike_id": "61cff37b01a93aa8d340ea7abfaa80b3", "fusion_lon": 0.0}, {"rental_uris": {"ios": "https://dc.lft.to/lastmile_qr_scan", "android": "https://dc.lft.to/lastmile_qr_scan"}, "type": "electric_bike", "name": "3771df939594a53d3629a1a4a158502b", "is_reserved": 0, "lon": -76.94534816666666, "is_disabled": 0, "fusion_lat": 0.0, "lat": 38.86755216666667, "bike_id": "3771df939594a53d3629a1a4a158502b", "fusion_lon": 0.0}, {"rental_uris": {"ios": "https://dc.lft.to/lastmile_qr_scan", "android": "https://dc.lft.to/lastmile_qr_scan"}, "type": "electric_scooter", "name": "0ff00422b45869c9ed5ae4a1a3d63a83", "is_reserved": 0, "lon": -77.01311183333334, "is_disabled": 0, "fusion_lat": 0.0, "lat": 38.92032583333334, "bike_id": "0ff00422b45869c9ed5ae4a1a3d63a83", "fusion_lon": 0.0}, {"rental_uris": {"ios": "https://dc.lft.to/lastmile_qr_scan", "android": "https://dc.lft.to/lastmile_qr_scan"}, "type": "electric_scooter", "name": "225af2cdd05cd6f45b23547b9e6d89d2", "is_reserved": 0, "lon": -76.999422, "is_disabled": 0, "fusion_lat": 0.0, "lat": 38.90050383333333, "bike_id": "225af2cdd05cd6f45b23547b9e6d89d2", "fusion_lon": 0.0}, {"rental_uris": {"ios": "https://dc.lft.to/lastmile_qr_scan", "android": "https://dc.lft.to/lastmile_qr_scan"}, "type": "electric_scooter", "name": "cb4c23ac4850bad363bc7d372f6f82ad", "is_reserved": 0, "lon": -76.9873845, "is_disabled": 0, "fusion_lat": 0.0, "lat": 38.878364, "bike_id": "cb4c23ac4850bad363bc7d372f6f82ad", "fusion_lon": 0.0}, {"rental_uris": {"ios": "https://dc.lft.to/lastmile_qr_scan", "android": "https://dc.lft.to/lastmile_qr_scan"}, "type": "electric_scooter", "name": "f6360f360e91558371b8750d8fd825a7", "is_reserved": 0, "lon": -76.99552916666667, "is_disabled": 0, "fusion_lat": 0.0, "lat": 38.862311, "bike_id": "f6360f360e91558371b8750d8fd825a7", "fusion_lon": 0.0}, {"rental_uris": {"ios": "https://dc.lft.to/lastmile_qr_scan", "android": "https://dc.lft.to/lastmile_qr_scan"}, "type": "electric_scooter", "name": "24dd7f8200483b6e95c32bfa7d94e981", "is_reserved": 0, "lon": -77.07031133333334, "is_disabled": 0, "fusion_lat": 0.0, "lat": 38.8932135, "bike_id": "24dd7f8200483b6e95c32bfa7d94e981", "fusion_lon": 0.0}, {"rental_uris": {"ios": "https://dc.lft.to/lastmile_qr_scan", "android": "https://dc.lft.to/lastmile_qr_scan"}, "type": "electric_scooter", "name": "0d5b7526d43e8044db3ec6b8f9484b59", "is_reserved": 0, "lon": -77.03353116666666, "is_disabled": 0, "fusion_lat": 0.0, "lat": 38.89244333333333, "bike_id": "0d5b7526d43e8044db3ec6b8f9484b59", "fusion_lon": 0.0}, {"rental_uris": {"ios": "https://dc.lft.to/lastmile_qr_scan", "android": "https://dc.lft.to/lastmile_qr_scan"}, "type": "electric_scooter", "name": "6da40aa76a5b160d75d9307de2e10c1a", "is_reserved": 0, "lon": -77.02132416666667, "is_disabled": 0, "fusion_lat": 0.0, "lat": 38.92465166666667, "bike_id": "6da40aa76a5b160d75d9307de2e10c1a", "fusion_lon": 0.0}, {"rental_uris": {"ios": "https://dc.lft.to/lastmile_qr_scan", "android": "https://dc.lft.to/lastmile_qr_scan"}, "type": "electric_scooter", "name": "e37e1685fba3fafbf024b341d5fd0765", "is_reserved": 0, "lon": -77.007521, "is_disabled": 0, "fusion_lat": 0.0, "lat": 38.87740133333333, "bike_id": "e37e1685fba3fafbf024b341d5fd0765", "fusion_lon": 0.0}, {"rental_uris": {"ios": "https://dc.lft.to/lastmile_qr_scan", "android": "https://dc.lft.to/lastmile_qr_scan"}, "type": "electric_scooter", "name": "a7af3a1e69acd76b5f4a7fdfed98cfc8", "is_reserved": 0, "lon": -77.0500305, "is_disabled": 0, "fusion_lat": 0.0, "lat": 38.89233733333333, "bike_id": "a7af3a1e69acd76b5f4a7fdfed98cfc8", "fusion_lon": 0.0}, {"rental_uris": {"ios": "https://dc.lft.to/lastmile_qr_scan", "android": "https://dc.lft.to/lastmile_qr_scan"}, "type": "electric_scooter", "name": "508c3cee14aaeeaa0abd367588363aa6", "is_reserved": 0, "lon": -77.00581966666667, "is_disabled": 0, "fusion_lat": 0.0, "lat": 38.9056835, "bike_id": "508c3cee14aaeeaa0abd367588363aa6", "fusion_lon": 0.0}, {"rental_uris": {"ios": "https://dc.lft.to/lastmile_qr_scan", "android": "https://dc.lft.to/lastmile_qr_scan"}, "type": "electric_scooter", "name": "0710c2433af6016a7208d9d5c687f602", "is_reserved": 0, "lon": -77.03254633333333, "is_disabled": 0, "fusion_lat": 0.0, "lat": 38.909589833333335, "bike_id": "0710c2433af6016a7208d9d5c687f602", "fusion_lon": 0.0}, {"rental_uris": {"ios": "https://dc.lft.to/lastmile_qr_scan", "android": "https://dc.lft.to/lastmile_qr_scan"}, "type": "electric_scooter", "name": "b350804358d7c386f6f4859ab16d11e7", "is_reserved": 0, "lon": -77.00914183333333, "is_disabled": 0, "fusion_lat": 0.0, "lat": 38.89978383333333, "bike_id": "b350804358d7c386f6f4859ab16d11e7", "fusion_lon": 0.0}, {"rental_uris": {"ios": "https://dc.lft.to/lastmile_qr_scan", "android": "https://dc.lft.to/lastmile_qr_scan"}, "type": "electric_scooter", "name": "16f6214207ba77014819a14c36609720", "is_reserved": 0, "lon": -77.017102, "is_disabled": 0, "fusion_lat": 0.0, "lat": 38.902542, "bike_id": "16f6214207ba77014819a14c36609720", "fusion_lon": 0.0}, {"rental_uris": {"ios": "https://dc.lft.to/lastmile_qr_scan", "android": "https://dc.lft.to/lastmile_qr_scan"}, "type": "electric_scooter", "name": "124a5a237b47b5b57f263bc3aa5f8ce5", "is_reserved": 0, "lon": -77.04692983333334, "is_disabled": 0, "fusion_lat": 0.0, "lat": 38.921622166666666, "bike_id": "124a5a237b47b5b57f263bc3aa5f8ce5", "fusion_lon": 0.0}, {"rental_uris": {"ios": "https://dc.lft.to/lastmile_qr_scan", "android": "https://dc.lft.to/lastmile_qr_scan"}, "type": "electric_scooter", "name": "1b06fcad4abb0ccd34765685ac5e9d67", "is_reserved": 0, "lon": -77.00353, "is_disabled": 0, "fusion_lat": 0.0, "lat": 38.89908466666667, "bike_id": "1b06fcad4abb0ccd34765685ac5e9d67", "fusion_lon": 0.0}, {"rental_uris": {"ios": "https://dc.lft.to/lastmile_qr_scan", "android": "https://dc.lft.to/lastmile_qr_scan"}, "type": "electric_scooter", "name": "346aad04dba7f3043d8063a31691dd0a", "is_reserved": 0, "lon": -77.03130016666667, "is_disabled": 0, "fusion_lat": 0.0, "lat": 38.92371, "bike_id": "346aad04dba7f3043d8063a31691dd0a", "fusion_lon": 0.0}, {"rental_uris": {"ios": "https://dc.lft.to/lastmile_qr_scan", "android": "https://dc.lft.to/lastmile_qr_scan"}, "type": "electric_scooter", "name": "f6b8f50a18375371a31c9f670a473560", "is_reserved": 0, "lon": -77.03350416666666, "is_disabled": 0, "fusion_lat": 0.0, "lat": 38.895316, "bike_id": "f6b8f50a18375371a31c9f670a473560", "fusion_lon": 0.0}, {"rental_uris": {"ios": "https://dc.lft.to/lastmile_qr_scan", "android": "https://dc.lft.to/lastmile_qr_scan"}, "type": "electric_scooter", "name": "582eee13238338f8d3d708b2b6a57dc8", "is_reserved": 0, "lon": -77.044345, "is_disabled": 0, "fusion_lat": 0.0, "lat": 38.901446666666665, "bike_id": "582eee13238338f8d3d708b2b6a57dc8", "fusion_lon": 0.0}, {"rental_uris": {"ios": "https://dc.lft.to/lastmile_qr_scan", "android": "https://dc.lft.to/lastmile_qr_scan"}, "type": "electric_scooter", "name": "eecb73b7011d829c814a08a51ffd53be", "is_reserved": 0, "lon": -77.03778516666667, "is_disabled": 0, "fusion_lat": 0.0, "lat": 38.939707166666665, "bike_id": "eecb73b7011d829c814a08a51ffd53be", "fusion_lon": 0.0}, {"rental_uris": {"ios": "https://dc.lft.to/lastmile_qr_scan", "android": "https://dc.lft.to/lastmile_qr_scan"}, "type": "electric_scooter", "name": "af16f21f351da10461ce3a68eacda70c", "is_reserved": 0, "lon": -77.03210816666666, "is_disabled": 0, "fusion_lat": 0.0, "lat": 38.91425433333333, "bike_id": "af16f21f351da10461ce3a68eacda70c", "fusion_lon": 0.0}, {"rental_uris": {"ios": "https://dc.lft.to/lastmile_qr_scan", "android": "https://dc.lft.to/lastmile_qr_scan"}, "type": "electric_bike", "name": "e2958d6cf2417bd44fcb36b888038a48", "is_reserved": 0, "lon": -76.98461583333334, "is_disabled": 0, "fusion_lat": 0.0, "lat": 38.90974, "bike_id": "e2958d6cf2417bd44fcb36b888038a48", "fusion_lon": 0.0}, {"rental_uris": {"ios": "https://dc.lft.to/lastmile_qr_scan", "android": "https://dc.lft.to/lastmile_qr_scan"}, "type": "electric_scooter", "name": "45319e6419c5d0c9da448cf24045121a", "is_reserved": 0, "lon": -77.06852516666666, "is_disabled": 0, "fusion_lat": 0.0, "lat": 38.903779, "bike_id": "45319e6419c5d0c9da448cf24045121a", "fusion_lon": 0.0}, {"rental_uris": {"ios": "https://dc.lft.to/lastmile_qr_scan", "android": "https://dc.lft.to/lastmile_qr_scan"}, "type": "electric_scooter", "name": "d687b236edcc132a3a7696b9d4bb4fa8", "is_reserved": 0, "lon": -77.06606666666667, "is_disabled": 0, "fusion_lat": 0.0, "lat": 38.905204166666664, "bike_id": "d687b236edcc132a3a7696b9d4bb4fa8", "fusion_lon": 0.0}, {"rental_uris": {"ios": "https://dc.lft.to/lastmile_qr_scan", "android": "https://dc.lft.to/lastmile_qr_scan"}, "type": "electric_scooter", "name": "ecdb4eb9ca678d9bec03eda40e39414b", "is_reserved": 0, "lon": -77.044061, "is_disabled": 0, "fusion_lat": 0.0, "lat": 38.929511, "bike_id": "ecdb4eb9ca678d9bec03eda40e39414b", "fusion_lon": 0.0}, {"rental_uris": {"ios": "https://dc.lft.to/lastmile_qr_scan", "android": "https://dc.lft.to/lastmile_qr_scan"}, "type": "electric_scooter", "name": "2a2ef01dbc3dacbfaaa13ef8d4f83ee6", "is_reserved": 0, "lon": -77.05325783333333, "is_disabled": 0, "fusion_lat": 0.0, "lat": 38.902630333333335, "bike_id": "2a2ef01dbc3dacbfaaa13ef8d4f83ee6", "fusion_lon": 0.0}, {"rental_uris": {"ios": "https://dc.lft.to/lastmile_qr_scan", "android": "https://dc.lft.to/lastmile_qr_scan"}, "type": "electric_scooter", "name": "1d4938dd2f434d20871ea8fdc7eb8733", "is_reserved": 0, "lon": -76.9438355, "is_disabled": 0, "fusion_lat": 0.0, "lat": 38.89117133333333, "bike_id": "1d4938dd2f434d20871ea8fdc7eb8733", "fusion_lon": 0.0}, {"rental_uris": {"ios": "https://dc.lft.to/lastmile_qr_scan", "android": "https://dc.lft.to/lastmile_qr_scan"}, "type": "electric_scooter", "name": "7c3d4cbe6772e5d56afe8f7f170e60f6", "is_reserved": 0, "lon": -76.9656555, "is_disabled": 0, "fusion_lat": 0.0, "lat": 38.8760925, "bike_id": "7c3d4cbe6772e5d56afe8f7f170e60f6", "fusion_lon": 0.0}, {"rental_uris": {"ios": "https://dc.lft.to/lastmile_qr_scan", "android": "https://dc.lft.to/lastmile_qr_scan"}, "type": "electric_bike", "name": "e228cde0d5cc7e63512bde11de2d4c8e", "is_reserved": 0, "lon": -77.07016383333334, "is_disabled": 0, "fusion_lat": 0.0, "lat": 38.84111933333333, "bike_id": "e228cde0d5cc7e63512bde11de2d4c8e", "fusion_lon": 0.0}, {"rental_uris": {"ios": "https://dc.lft.to/lastmile_qr_scan", "android": "https://dc.lft.to/lastmile_qr_scan"}, "type": "electric_scooter", "name": "7fd07a3bfa49ee3c650668ccb5c949c0", "is_reserved": 0, "lon": -77.03664733333333, "is_disabled": 0, "fusion_lat": 0.0, "lat": 38.92280216666666, "bike_id": "7fd07a3bfa49ee3c650668ccb5c949c0", "fusion_lon": 0.0}, {"rental_uris": {"ios": "https://dc.lft.to/lastmile_qr_scan", "android": "https://dc.lft.to/lastmile_qr_scan"}, "type": "electric_scooter", "name": "2b648f60a69db521b9c290cc948ed0ff", "is_reserved": 0, "lon": -77.02414783333333, "is_disabled": 0, "fusion_lat": 0.0, "lat": 38.909606333333336, "bike_id": "2b648f60a69db521b9c290cc948ed0ff", "fusion_lon": 0.0}, {"rental_uris": {"ios": "https://dc.lft.to/lastmile_qr_scan", "android": "https://dc.lft.to/lastmile_qr_scan"}, "type": "electric_scooter", "name": "725b94a900b0d77a3d31555a65989113", "is_reserved": 0, "lon": -76.99855516666666, "is_disabled": 0, "fusion_lat": 0.0, "lat": 38.90026966666667, "bike_id": "725b94a900b0d77a3d31555a65989113", "fusion_lon": 0.0}, {"rental_uris": {"ios": "https://dc.lft.to/lastmile_qr_scan", "android": "https://dc.lft.to/lastmile_qr_scan"}, "type": "electric_scooter", "name": "241bd587bbf1c9bd37db756676ee0ef1", "is_reserved": 0, "lon": -77.02213933333333, "is_disabled": 0, "fusion_lat": 0.0, "lat": 38.915624, "bike_id": "241bd587bbf1c9bd37db756676ee0ef1", "fusion_lon": 0.0}, {"rental_uris": {"ios": "https://dc.lft.to/lastmile_qr_scan", "android": "https://dc.lft.to/lastmile_qr_scan"}, "type": "electric_scooter", "name": "f61ec3bbd11d73d70b318b432351d42e", "is_reserved": 0, "lon": -77.06146883333334, "is_disabled": 0, "fusion_lat": 0.0, "lat": 38.91298783333333, "bike_id": "f61ec3bbd11d73d70b318b432351d42e", "fusion_lon": 0.0}, {"rental_uris": {"ios": "https://dc.lft.to/lastmile_qr_scan", "android": "https://dc.lft.to/lastmile_qr_scan"}, "type": "electric_bike", "name": "4235e9be7fea65f57e2f14722e220bc6", "is_reserved": 0, "lon": -76.985448, "is_disabled": 0, "fusion_lat": 0.0, "lat": 38.8924785, "bike_id": "4235e9be7fea65f57e2f14722e220bc6", "fusion_lon": 0.0}, {"rental_uris": {"ios": "https://dc.lft.to/lastmile_qr_scan", "android": "https://dc.lft.to/lastmile_qr_scan"}, "type": "electric_scooter", "name": "b94a376c8975699549779746ceaf0e08", "is_reserved": 0, "lon": -76.9947825, "is_disabled": 0, "fusion_lat": 0.0, "lat": 38.8621285, "bike_id": "b94a376c8975699549779746ceaf0e08", "fusion_lon": 0.0}, {"rental_uris": {"ios": "https://dc.lft.to/lastmile_qr_scan", "android": "https://dc.lft.to/lastmile_qr_scan"}, "type": "electric_scooter", "name": "507af9fbbaf94916349ac513577d3569", "is_reserved": 0, "lon": -77.03055933333333, "is_disabled": 0, "fusion_lat": 0.0, "lat": 38.90828883333333, "bike_id": "507af9fbbaf94916349ac513577d3569", "fusion_lon": 0.0}, {"rental_uris": {"ios": "https://dc.lft.to/lastmile_qr_scan", "android": "https://dc.lft.to/lastmile_qr_scan"}, "type": "electric_scooter", "name": "b04b34db1e0e135e28a781065e123d8c", "is_reserved": 0, "lon": -77.02417316666667, "is_disabled": 0, "fusion_lat": 0.0, "lat": 38.89844983333333, "bike_id": "b04b34db1e0e135e28a781065e123d8c", "fusion_lon": 0.0}, {"rental_uris": {"ios": "https://dc.lft.to/lastmile_qr_scan", "android": "https://dc.lft.to/lastmile_qr_scan"}, "type": "electric_bike", "name": "03808453e99c6bfe00efd9d543158a55", "is_reserved": 0, "lon": -77.08363283333334, "is_disabled": 0, "fusion_lat": 0.0, "lat": 38.85418116666666, "bike_id": "03808453e99c6bfe00efd9d543158a55", "fusion_lon": 0.0}, {"rental_uris": {"ios": "https://dc.lft.to/lastmile_qr_scan", "android": "https://dc.lft.to/lastmile_qr_scan"}, "type": "electric_scooter", "name": "c38e60f4e87c4853930e300978ad2654", "is_reserved": 0, "lon": -77.04620983333334, "is_disabled": 0, "fusion_lat": 0.0, "lat": 38.9190955, "bike_id": "c38e60f4e87c4853930e300978ad2654", "fusion_lon": 0.0}, {"rental_uris": {"ios": "https://dc.lft.to/lastmile_qr_scan", "android": "https://dc.lft.to/lastmile_qr_scan"}, "type": "electric_scooter", "name": "4476dfeb5dfd6bbe5dcf3dfefc57d26e", "is_reserved": 0, "lon": -76.99743816666667, "is_disabled": 0, "fusion_lat": 0.0, "lat": 38.92040433333333, "bike_id": "4476dfeb5dfd6bbe5dcf3dfefc57d26e", "fusion_lon": 0.0}, {"rental_uris": {"ios": "https://dc.lft.to/lastmile_qr_scan", "android": "https://dc.lft.to/lastmile_qr_scan"}, "type": "electric_scooter", "name": "54286f0959f1c4177b75c58823380e11", "is_reserved": 0, "lon": -77.053321, "is_disabled": 0, "fusion_lat": 0.0, "lat": 38.902345, "bike_id": "54286f0959f1c4177b75c58823380e11", "fusion_lon": 0.0}, {"rental_uris": {"ios": "https://dc.lft.to/lastmile_qr_scan", "android": "https://dc.lft.to/lastmile_qr_scan"}, "type": "electric_scooter", "name": "d9fc19356d8da4ac596ab0877f40f8e4", "is_reserved": 0, "lon": -77.02695166666666, "is_disabled": 0, "fusion_lat": 0.0, "lat": 38.908456666666666, "bike_id": "d9fc19356d8da4ac596ab0877f40f8e4", "fusion_lon": 0.0},