{"data": {"bikes": [{"bike_id": "2da31f545773de6995dcfecb39bedfdc", "fusion_lon": 0.0, "lon": -77.02205433333333, "name": "2da31f545773de6995dcfecb39bedfdc", "is_disabled": 0, "rental_uris": {"android": "https://dc.lft.to/lastmile_qr_scan", "ios": "https://dc.lft.to/lastmile_qr_scan"}, "type": "electric_scooter", "lat": 38.90207483333333, "is_reserved": 0, "fusion_lat": 0.0}, {"bike_id": "495fd662c730952bddabab7709702162", "fusion_lon": 0.0, "lon": -76.93281916666666, "name": "495fd662c730952bddabab7709702162", "is_disabled": 0, "rental_uris": {"android": "https://dc.lft.to/lastmile_qr_scan", "ios": "https://dc.lft.to/lastmile_qr_scan"}, "type": "electric_scooter", "lat": 38.8814795, "is_reserved": 0, "fusion_lat": 0.0}, {"bike_id": "5868d544d2b00687326e31fda99d55f3", "fusion_lon": 0.0, "lon": -77.02826416666667, "name": "5868d544d2b00687326e31fda99d55f3", "is_disabled": 0, "rental_uris": {"android": "https://dc.lft.to/lastmile_qr_scan", "ios": "https://dc.lft.to/lastmile_qr_scan"}, "type": "electric_scooter", "lat": 38.93207983333333, "is_reserved": 0, "fusion_lat": 0.0}, {"bike_id": "3964259a625f02460cb2eb97e51fbd29", "fusion_lon": 0.0, "lon": -77.01790183333334, "name": "3964259a625f02460cb2eb97e51fbd29", "is_disabled": 0, "rental_uris": {"android": "https://dc.lft.to/lastmile_qr_scan", "ios": "https://dc.lft.to/lastmile_qr_scan"}, "type": "electric_scooter", "lat": 38.90394, "is_reserved": 0, "fusion_lat": 0.0}, {"bike_id": "11d5be72358b904781e7de62be482f99", "fusion_lon": 0.0, "lon": -77.03250233333333, "name": "11d5be72358b904781e7de62be482f99", "is_disabled": 0, "rental_uris": {"android": "https://dc.lft.to/lastmile_qr_scan", "ios": "https://dc.lft.to/lastmile_qr_scan"}, "type": "electric_scooter", "lat": 38.93970066666667, "is_reserved": 0, "fusion_lat": 0.0}, {"bike_id": "6e3728ae25a5a4221d46d90871743969", "fusion_lon": 0.0, "lon": -77.02196033333334, "name": "6e3728ae25a5a4221d46d90871743969", "is_disabled": 0, "rental_uris": {"android": "https://dc.lft.to/lastmile_qr_scan", "ios": "https://dc.lft.to/lastmile_qr_scan"}, "type": "electric_scooter", "lat": 38.9184165, "is_reserved": 0, "fusion_lat": 0.0}, {"bike_id": "770f05ca78da762f8ebcc8defc241e52", "fusion_lon": 0.0, "lon": -76.98065633333333, "name": "770f05ca78da762f8ebcc8defc241e52", "is_disabled": 0, "rental_uris": {"android": "https://dc.lft.to/lastmile_qr_scan", "ios": "https://dc.lft.to/lastmile_qr_scan"}, "type": "electric_scooter", "lat": 38.90175166666667, "is_reserved": 0, "fusion_lat": 0.0}, {"bike_id": "aa41ec2f9769c04f7fa91cdd76a2ff87", "fusion_lon": 0.0, "lon": -76.996084, "name": "aa41ec2f9769c04f7fa91cdd76a2ff87", "is_disabled": 0, "rental_uris": {"android": "https://dc.lft.to/lastmile_qr_scan", "ios": "https://dc.lft.to/lastmile_qr_scan"}, "type": "electric_scooter", "lat": 38.89916483333333, "is_reserved": 0, "fusion_lat": 0.0}, {"bike_id": "66a6f554cf914a50ec1323c996d19c97", "fusion_lon": 0.0, "lon": -76.99338933333334, "name": "66a6f554cf914a50ec1323c996d19c97", "is_disabled": 0, "rental_uris": {"android": "https://dc.lft.to/lastmile_qr_scan", "ios": "https://dc.lft.to/lastmile_qr_scan"}, "type": "electric_bike", "lat": 38.972343333333335, "is_reserved": 0, "fusion_lat": 0.0}, {"bike_id": "f93ac2dc21e4457e1bb52d49d0065b91", "fusion_lon": 0.0, "lon": -77.0741775, "name": "f93ac2dc21e4457e1bb52d49d0065b91", "is_disabled": 0, "rental_uris": {"android": "https://dc.lft.to/lastmile_qr_scan", "ios": "https://dc.lft.to/lastmile_qr_scan"}, "type": "electric_scooter", "lat": 38.9130105, "is_reserved": 0, "fusion_lat": 0.0}, {"bike_id": "7530b08c05d69ba8f603070c476c22f4", "fusion_lon": 0.0, "lon": -76.97166633333333, "name": "7530b08c05d69ba8f603070c476c22f4", "is_disabled": 0, "rental_uris": {"android": "https://dc.lft.to/lastmile_qr_scan", "ios": "https://dc.lft.to/lastmile_qr_scan"}, "type": "electric_scooter", "lat": 38.854369, "is_reserved": 0, "fusion_lat": 0.0}, {"bike_id": "6a21121f9c01791bb62d6ee08169418e", "fusion_lon": 0.0, "lon": -76.99693783333333, "name": "6a21121f9c01791bb62d6ee08169418e", "is_disabled": 0, "rental_uris": {"android": "https://dc.lft.to/lastmile_qr_scan", "ios": "https://dc.lft.to/lastmile_qr_scan"}, "type": "electric_scooter", "lat": 38.908402333333335, "is_reserved": 0, "fusion_lat": 0.0}, {"bike_id": "57f32bb89d6a041b50314fb3eee368ff", "fusion_lon": 0.0, "lon": -77.05898416666666, "name": "57f32bb89d6a041b50314fb3eee368ff", "is_disabled": 0, "rental_uris": {"android": "https://dc.lft.to/lastmile_qr_scan", "ios": "https://dc.lft.to/lastmile_qr_scan"}, "type": "electric_scooter", "lat": 38.933469833333334, "is_reserved": 0, "fusion_lat": 0.0}, {"bike_id": "809e06742f6a789086a95f92279a811e", "fusion_lon": 0.0, "lon": -77.02667433333333, "name": "809e06742f6a789086a95f92279a811e", "is_disabled": 0, "rental_uris": {"android": "https://dc.lft.to/lastmile_qr_scan", "ios": "https://dc.lft.to/lastmile_qr_scan"}, "type": "electric_scooter", "lat": 38.97191483333334, "is_reserved": 0, "fusion_lat": 0.0}, {"bike_id": "57e5ab3e3b421be921cd55644765514e", "fusion_lon": 0.0, "lon": -77.03435366666666, "name": "57e5ab3e3b421be921cd55644765514e", "is_disabled": 0, "rental_uris": {"android": "https://dc.lft.to/lastmile_qr_scan", "ios": "https://dc.lft.to/lastmile_qr_scan"}, "type": "electric_scooter", "lat": 38.907647, "is_reserved": 0, "fusion_lat": 0.0}, {"bike_id": "0dc2f4566fa9625d0e11d128323c0279", "fusion_lon": 0.0, "lon": -77.03744666666667, "name": "0dc2f4566fa9625d0e11d128323c0279", "is_disabled": 0, "rental_uris": {"android": "https://dc.lft.to/lastmile_qr_scan", "ios": "https://dc.lft.to/lastmile_qr_scan"}, "type": "electric_scooter", "lat": 38.917042333333335, "is_reserved": 0, "fusion_lat": 0.0}, {"bike_id": "d98ee93607eff7f21d96f516b1eecca6", "fusion_lon": 0.0, "lon": -77.02705766666666, "name": "d98ee93607eff7f21d96f516b1eecca6", "is_disabled": 0, "rental_uris": {"android": "https://dc.lft.to/lastmile_qr_scan", "ios": "https://dc.lft.to/lastmile_qr_scan"}, "type": "electric_scooter", "lat": 38.89835566666667, "is_reserved": 0, "fusion_lat": 0.0}, {"bike_id": "69659c04be5442515ae97fa8f9fa6634", "fusion_lon": 0.0, "lon": -77.024753, "name": "69659c04be5442515ae97fa8f9fa6634", "is_disabled": 0, "rental_uris": {"android": "https://dc.lft.to/lastmile_qr_scan", "ios": "https://dc.lft.to/lastmile_qr_scan"}, "type": "electric_scooter", "lat": 38.93101883333333, "is_reserved": 0, "fusion_lat": 0.0}, {"bike_id": "70d2a46a7ece3a070b12921a63513015", "fusion_lon": 0.0, "lon": -76.93343533333334, "name": "70d2a46a7ece3a070b12921a63513015", "is_disabled": 0, "rental_uris": {"android": "https://dc.lft.to/lastmile_qr_scan", "ios": "https://dc.lft.to/lastmile_qr_scan"}, "type": "electric_scooter", "lat": 38.8881185, "is_reserved": 0, "fusion_lat": 0.0}, {"bike_id": "5f5c67d2e56136bcfc8dcdf558ed809e", "fusion_lon": 0.0, "lon": -77.05884366666666, "name": "5f5c67d2e56136bcfc8dcdf558ed809e", "is_disabled": 0, "rental_uris": {"android": "https://dc.lft.to/lastmile_qr_scan", "ios": "https://dc.lft.to/lastmile_qr_scan"}, "type": "electric_scooter", "lat": 38.91823633333333, "is_reserved": 0, "fusion_lat": 0.0}, {"bike_id": "650ac57f34feaee7488833eb187e35ff", "fusion_lon": 0.0, "lon": -76.987797, "name": "650ac57f34feaee7488833eb187e35ff", "is_disabled": 0, "rental_uris": {"android": "https://dc.lft.to/lastmile_qr_scan", "ios": "https://dc.lft.to/lastmile_qr_scan"}, "type": "electric_bike", "lat": 38.86596633333333, "is_reserved": 0, "fusion_lat": 0.0}, {"bike_id": "85ed10d07e9ed21554c06c1100938cd9", "fusion_lon": 0.0, "lon": -76.98399433333333, "name": "85ed10d07e9ed21554c06c1100938cd9", "is_disabled": 0, "rental_uris": {"android": "https://dc.lft.to/lastmile_qr_scan", "ios": "https://dc.lft.to/lastmile_qr_scan"}, "type": "electric_scooter", "lat": 38.8670075, "is_reserved": 0, "fusion_lat": 0.0}, {"bike_id": "98bbb52e09e74660e2f6e524ac953151", "fusion_lon": 0.0, "lon": -77.03200083333333, "name": "98bbb52e09e74660e2f6e524ac953151", "is_disabled": 0, "rental_uris": {"android": "https://dc.lft.to/lastmile_qr_scan", "ios": "https://dc.lft.to/lastmile_qr_scan"}, "type": "electric_scooter", "lat": 38.905343333333334, "is_reserved": 0, "fusion_lat": 0.0}, {"bike_id": "6338d627e6ad472501029727746dc656", "fusion_lon": 0.0, "lon": -76.99398716666667, "name": "6338d627e6ad472501029727746dc656", "is_disabled": 0, "rental_uris": {"android": "https://dc.lft.to/lastmile_qr_scan", "ios": "https://dc.lft.to/lastmile_qr_scan"}, "type": "electric_scooter", "lat": 38.921634, "is_reserved": 0, "fusion_lat": 0.0}, {"bike_id": "b5ae55f0d97e75f4485c96f599189fbd", "fusion_lon": 0.0, "lon": -77.0345355, "name": "b5ae55f0d97e75f4485c96f599189fbd", "is_disabled": 0, "rental_uris": {"android": "https://dc.lft.to/lastmile_qr_scan", "ios": "https://dc.lft.to/lastmile_qr_scan"}, "type": "electric_scooter", "lat": 38.907955333333334, "is_reserved": 0, "fusion_lat": 0.0}, {"bike_id": "d350171a25375a4d5545e74686d8d710", "fusion_lon": 0.0, "lon": -77.0317975, "name": "d350171a25375a4d5545e74686d8d710", "is_disabled": 0, "rental_uris": {"android": "https://dc.lft.to/lastmile_qr_scan", "ios": "https://dc.lft.to/lastmile_qr_scan"}, "type": "electric_scooter", "lat": 38.92006216666667, "is_reserved": 0, "fusion_lat": 0.0}, {"bike_id": "53bd3304ae7f063424a728e0ef238620", "fusion_lon": 0.0, "lon": -76.93041666666667, "name": "53bd3304ae7f063424a728e0ef238620", "is_disabled": 0, "rental_uris": {"android": "https://dc.lft.to/lastmile_qr_scan", "ios": "https://dc.lft.to/lastmile_qr_scan"}, "type": "electric_scooter", "lat": 38.895148166666665, "is_reserved": 0, "fusion_lat": 0.0}, {"bike_id": "a49e99731572d7bff4f1444de40c5977", "fusion_lon": 0.0, "lon": -76.99034166666667, "name": "a49e99731572d7bff4f1444de40c5977", "is_disabled": 0, "rental_uris": {"android": "https://dc.lft.to/lastmile_qr_scan", "ios": "https://dc.lft.to/lastmile_qr_scan"}, "type": "electric_scooter", "lat": 38.8887345, "is_reserved": 0, "fusion_lat": 0.0}, {"bike_id": "41acace809b7cf3483b0181332a47563", "fusion_lon": 0.0, "lon": -77.04908066666667, "name": "41acace809b7cf3483b0181332a47563", "is_disabled": 0, "rental_uris": {"android": "https://dc.lft.to/lastmile_qr_scan", "ios": "https://dc.lft.to/lastmile_qr_scan"}, "type": "electric_scooter", "lat": 38.90089833333333, "is_reserved": 0, "fusion_lat": 0.0}, {"bike_id": "d47c551fa94339baa5fe7ba48ee2a30a", "fusion_lon": 0.0, "lon": -77.09246883333333, "name": "d47c551fa94339baa5fe7ba48ee2a30a", "is_disabled": 0, "rental_uris": {"android": "https://dc.lft.to/lastmile_qr_scan", "ios": "https://dc.lft.to/lastmile_qr_scan"}, "type": "electric_scooter", "lat": 38.94157116666667, "is_reserved": 0, "fusion_lat": 0.0}, {"bike_id": "2f7de2499b615267ef9fbfc328c650a5", "fusion_lon": 0.0, "lon": -76.97593516666667, "name": "2f7de2499b615267ef9fbfc328c650a5", "is_disabled": 0, "rental_uris": {"android": "https://dc.lft.to/lastmile_qr_scan", "ios": "https://dc.lft.to/lastmile_qr_scan"}, "type": "electric_bike", "lat": 38.840317666666664, "is_reserved": 0, "fusion_lat": 0.0}, {"bike_id": "4acc5f1366c209041753602363463cba", "fusion_lon": 0.0, "lon": -77.042974, "name": "4acc5f1366c209041753602363463cba", "is_disabled": 0, "rental_uris": {"android": "https://dc.lft.to/lastmile_qr_scan", "ios": "https://dc.lft.to/lastmile_qr_scan"}, "type": "electric_scooter", "lat": 38.917909, "is_reserved": 0, "fusion_lat": 0.0}, {"bike_id": "867f183a32937ef0cf01569ac386aff8", "fusion_lon": 0.0, "lon": -77.03294916666667, "name": "867f183a32937ef0cf01569ac386aff8", "is_disabled": 0, "rental_uris": {"android": "https://dc.lft.to/lastmile_qr_scan", "ios": "https://dc.lft.to/lastmile_qr_scan"}, "type": "electric_scooter", "lat": 38.91620666666667, "is_reserved": 0, "fusion_lat": 0.0}, {"bike_id": "658ecdcc283aae4dec93085fe2995842", "fusion_lon": 0.0, "lon": -77.016083, "name": "658ecdcc283aae4dec93085fe2995842", "is_disabled": 0, "rental_uris": {"android": "https://dc.lft.to/lastmile_qr_scan", "ios": "https://dc.lft.to/lastmile_qr_scan"}, "type": "electric_scooter", "lat": 38.912771166666666, "is_reserved": 0, "fusion_lat": 0.0}, {"bike_id": "940be6a9808c70f75150523e75ef4ce7", "fusion_lon": 0.0, "lon": -77.01103383333333, "name": "940be6a9808c70f75150523e75ef4ce7", "is_disabled": 0, "rental_uris": {"android": "https://dc.lft.to/lastmile_qr_scan", "ios": "https://dc.lft.to/lastmile_qr_scan"}, "type": "electric_scooter", "lat": 38.903555, "is_reserved": 0, "fusion_lat": 0.0}, {"bike_id": "b24928df84a90971c4bced999cce902d", "fusion_lon": 0.0, "lon": -77.02626866666667, "name": "b24928df84a90971c4bced999cce902d", "is_disabled": 0, "rental_uris": {"android": "https://dc.lft.to/lastmile_qr_scan", "ios": "https://dc.lft.to/lastmile_qr_scan"}, "type": "electric_scooter", "lat": 38.93009333333333, "is_reserved": 0, "fusion_lat": 0.0}, {"bike_id": "e9f85bb6cb6794aeb8dd53a4d6453346", "fusion_lon": 0.0, "lon": -76.98820933333333, "name": "e9f85bb6cb6794aeb8dd53a4d6453346", "is_disabled": 0, "rental_uris": {"android": "https://dc.lft.to/lastmile_qr_scan", "ios": "https://dc.lft.to/lastmile_qr_scan"}, "type": "electric_scooter", "lat": 38.9003505, "is_reserved": 0, "fusion_lat": 0.0}, {"bike_id": "fdbf4baf930f4c2169ad4ba97405c4f0", "fusion_lon": 0.0, "lon": -77.02277883333333, "name": "fdbf4baf930f4c2169ad4ba97405c4f0", "is_disabled": 0, "rental_uris": {"android": "https://dc.lft.to/lastmile_qr_scan", "ios": "https://dc.lft.to/lastmile_qr_scan"}, "type": "electric_scooter", "lat": 38.918140666666666, "is_reserved": 0, "fusion_lat": 0.0}, {"bike_id": "7b0c22ac59ced9d3c41c9b145be48e0f", "fusion_lon": 0.0, "lon": -77.01460383333334, "name": "7b0c22ac59ced9d3c41c9b145be48e0f", "is_disabled": 0, "rental_uris": {"android": "https://dc.lft.to/lastmile_qr_scan", "ios": "https://dc.lft.to/lastmile_qr_scan"}, "type": "electric_scooter", "lat": 38.91769566666667, "is_reserved": 0, "fusion_lat": 0.0}, {"bike_id": "410b32c93415f4fb86fa44e75924942a", "fusion_lon": 0.0, "lon": -77.02723033333334, "name": "410b32c93415f4fb86fa44e75924942a", "is_disabled": 0, "rental_uris": {"android": "https://dc.lft.to/lastmile_qr_scan", "ios": "https://dc.lft.to/lastmile_qr_scan"}, "type": "electric_scooter", "lat": 38.9276315, "is_reserved": 0, "fusion_lat": 0.0}, {"bike_id": "e00f350d978a29f2f7b5d5eb6b145e59", "fusion_lon": 0.0, "lon": -77.05293583333334, "name": "e00f350d978a29f2f7b5d5eb6b145e59", "is_disabled": 0, "rental_uris": {"android": "https://dc.lft.to/lastmile_qr_scan", "ios": "https://dc.lft.to/lastmile_qr_scan"}, "type": "electric_scooter", "lat": 38.904228833333335, "is_reserved": 0, "fusion_lat": 0.0}, {"bike_id": "a8953192c25482d86d6ead5819741366", "fusion_lon": 0.0, "lon": -76.988173, "name": "a8953192c25482d86d6ead5819741366", "is_disabled": 0, "rental_uris": {"android": "https://dc.lft.to/lastmile_qr_scan", "ios": "https://dc.lft.to/lastmile_qr_scan"}, "type": "electric_scooter", "lat": 38.900386833333336, "is_reserved": 0, "fusion_lat": 0.0}, {"bike_id": "e95d20cde7b3e7fbcaf7f821c6272330", "fusion_lon": 0.0, "lon": -76.98697, "name": "e95d20cde7b3e7fbcaf7f821c6272330", "is_disabled": 0, "rental_uris": {"android": "https://dc.lft.to/lastmile_qr_scan", "ios": "https://dc.lft.to/lastmile_qr_scan"}, "type": "electric_scooter", "lat": 38.86255833333333, "is_reserved": 0, "fusion_lat": 0.0}, {"bike_id": "a378017ef3c446c18d1e98890b3c1e3b", "fusion_lon": 0.0, "lon": -77.02164116666667, "name": "a378017ef3c446c18d1e98890b3c1e3b", "is_disabled": 0, "rental_uris": {"android": "https://dc.lft.to/lastmile_qr_scan", "ios": "https://dc.lft.to/lastmile_qr_scan"}, "type": "electric_scooter", "lat": 38.91425266666667, "is_reserved": 0, "fusion_lat": 0.0}, {"bike_id": "c706a0647c0ba0c60b76a9a71bd2b120", "fusion_lon": 0.0, "lon": -77.02760016666667, "name": "c706a0647c0ba0c60b76a9a71bd2b120", "is_disabled": 0, "rental_uris": {"android": "https://dc.lft.to/lastmile_qr_scan", "ios": "https://dc.lft.to/lastmile_qr_scan"}, "type": "electric_scooter", "lat": 38.9542225, "is_reserved": 0, "fusion_lat": 0.0}, {"bike_id": "31fbdf3670db254efc1fe990d87cc4ba", "fusion_lon": 0.0, "lon": -76.99503716666666, "name": "31fbdf3670db254efc1fe990d87cc4ba", "is_disabled": 0, "rental_uris": {"android": "https://dc.lft.to/lastmile_qr_scan", "ios": "https://dc.lft.to/lastmile_qr_scan"}, "type": "electric_scooter", "lat": 38.88251983333333, "is_reserved": 0, "fusion_lat": 0.0}, {"bike_id": "c86d446989eaaeae77819a248d402ff5", "fusion_lon": 0.0, "lon": -77.03073816666667, "name": "c86d446989eaaeae77819a248d402ff5", "is_disabled": 0, "rental_uris": {"android": "https://dc.lft.to/lastmile_qr_scan", "ios": "https://dc.lft.to/lastmile_qr_scan"}, "type": "electric_scooter", "lat": 38.92370966666667, "is_reserved": 0, "fusion_lat": 0.0}, {"bike_id": "850a7edd2d10ca76c088a558f19ac039", "fusion_lon": 0.0, "lon": -77.031287, "name": "850a7edd2d10ca76c088a558f19ac039", "is_disabled": 0, "rental_uris": {"android": "https://dc.lft.to/lastmile_qr_scan", "ios": "https://dc.lft.to/lastmile_qr_scan"}, "type": "electric_scooter", "lat": 38.923766666666666, "is_reserved": 0, "fusion_lat": 0.0}, {"bike_id": "580327c248cd6c8c227f9930eb5ed9c7", "fusion_lon": 0.0, "lon": -77.0532185, "name": "580327c248cd6c8c227f9930eb5ed9c7", "is_disabled": 0, "rental_uris": {"android": "https://dc.lft.to/lastmile_qr_scan", "ios": "https://dc.lft.to/lastmile_qr_scan"}, "type": "electric_scooter", "lat": 38.923607, "is_reserved": 0, "fusion_lat": 0.0}, {"bike_id": "9d3d08eee0bf96ba8fa15094602d760d", "fusion_lon": 0.0, "lon": -77.0465815, "name": "9d3d08eee0bf96ba8fa15094602d760d", "is_disabled": 0, "rental_uris": {"android": "https://dc.lft.to/lastmile_qr_scan", "ios": "https://dc.lft.to/lastmile_qr_scan"}, "type": "electric_scooter", "lat": 38.89252366666667, "is_reserved": 0, "fusion_lat": 0.0}, {"bike_id": "3350fe3eea3726f7e843403dcafa1a2b", "fusion_lon": 0.0, "lon": -77.0230925, "name": "3350fe3eea3726f7e843403dcafa1a2b", "is_disabled": 0, "rental_uris": {"android": "https://dc.lft.to/lastmile_qr_scan", "ios": "https://dc.lft.to/lastmile_qr_scan"}, "type": "electric_scooter", "lat": 38.89567266666667, "is_reserved": 0, "fusion_lat": 0.0}, {"bike_id": "60ae70d87b9c4d9f489ac8b80893df9c", "fusion_lon": 0.0, "lon": -76.91597383333334, "name": "60ae70d87b9c4d9f489ac8b80893df9c", "is_disabled": 0, "rental_uris": {"android": "https://dc.lft.to/lastmile_qr_scan", "ios": "https://dc.lft.to/lastmile_qr_scan"}, "type": "electric_bike", "lat": 38.879795, "is_reserved": 0, "fusion_lat": 0.0}, {"bike_id": "64fdac44b3aaeb446ad480b60f907f3a", "fusion_lon": 0.0, "lon": -77.04997966666667, "name": "64fdac44b3aaeb446ad480b60f907f3a", "is_disabled": 0, "rental_uris": {"android": "https://dc.lft.to/lastmile_qr_scan", "ios": "https://dc.lft.to/lastmile_qr_scan"}, "type": "electric_scooter", "lat": 38.89229683333333, "is_reserved": 0, "fusion_lat": 0.0}, {"bike_id": "135f62ae92a0edd723431fa3676108c9", "fusion_lon": 0.0, "lon": -77.03172733333334, "name": "135f62ae92a0edd723431fa3676108c9", "is_disabled": 0, "rental_uris": {"android": "https://dc.lft.to/lastmile_qr_scan", "ios": "https://dc.lft.to/lastmile_qr_scan"}, "type": "electric_scooter", "lat": 38.909594, "is_reserved": 0, "fusion_lat": 0.0}, {"bike_id": "7eb3a31f311da010164c7af9f9c0baef", "fusion_lon": 0.0, "lon": -77.01858366666667, "name": "7eb3a31f311da010164c7af9f9c0baef", "is_disabled": 0, "rental_uris": {"android": "https://dc.lft.to/lastmile_qr_scan", "ios": "https://dc.lft.to/lastmile_qr_scan"}, "type": "electric_scooter", "lat": 38.900191666666665, "is_reserved": 0, "fusion_lat": 0.0}, {"bike_id": "1c2d582acc948f340b6c539cedb8ee18", "fusion_lon": 0.0, "lon": -77.0160605, "name": "1c2d582acc948f340b6c539cedb8ee18", "is_disabled": 0, "rental_uris": {"android": "https://dc.lft.to/lastmile_qr_scan", "ios": "https://dc.lft.to/lastmile_qr_scan"}, "type": "electric_scooter", "lat": 38.9181175, "is_reserved": 0, "fusion_lat": 0.0}, {"bike_id": "5cb6001f465f91ff3a4eb8d4d94bc7b8", "fusion_lon": 0.0, "lon": -77.03908333333334, "name": "5cb6001f465f91ff3a4eb8d4d94bc7b8", "is_disabled": 0, "rental_uris": {"android": "https://dc.lft.to/lastmile_qr_scan", "ios": "https://dc.lft.to/lastmile_qr_scan"}, "type": "electric_scooter", "lat": 38.914175, "is_reserved": 0, "fusion_lat": 0.0}, {"bike_id": "54a206a4350fe8230fc61c6836cbd428", "fusion_lon": 0.0, "lon": -77.04411133333333, "name": "54a206a4350fe8230fc61c6836cbd428", "is_disabled": 0, "rental_uris": {"android": "https://dc.lft.to/lastmile_qr_scan", "ios": "https://dc.lft.to/lastmile_qr_scan"}, "type": "electric_scooter", "lat": 38.90899816666666, "is_reserved": 0, "fusion_lat": 0.0}, {"bike_id": "1119314299bfb8e737ff23371cee1252", "fusion_lon": 0.0, "lon": -77.03443116666666, "name": "1119314299bfb8e737ff23371cee1252", "is_disabled": 0, "rental_uris": {"android": "https://dc.lft.to/lastmile_qr_scan", "ios": "https://dc.lft.to/lastmile_qr_scan"}, "type": "electric_scooter", "lat": 38.91738133333333, "is_reserved": 0, "fusion_lat": 0.0}, {"bike_id": "77eb1318fad216a3b21b4b7853e2c484", "fusion_lon": 0.0, "lon": -77.0272125, "name": "77eb1318fad216a3b21b4b7853e2c484", "is_disabled": 0, "rental_uris": {"android": "https://dc.lft.to/lastmile_qr_scan", "ios": "https://dc.lft.to/lastmile_qr_scan"}, "type": "electric_scooter", "lat": 38.924817166666664, "is_reserved": 0, "fusion_lat": 0.0}, {"bike_id": "fa477fcc5ab2f8fff378d030fc88f86a", "fusion_lon": 0.0, "lon": -77.005678, "name": "fa477fcc5ab2f8fff378d030fc88f86a", "is_disabled": 0, "rental_uris": {"android": "https://dc.lft.to/lastmile_qr_scan", "ios": "https://dc.lft.to/lastmile_qr_scan"}, "type": "electric_scooter", "lat": 38.8732395, "is_reserved": 0, "fusion_lat": 0.0}, {"bike_id": "df751a175e0a22f96f0d964702f6fd88", "fusion_lon": 0.0, "lon": -77.02715566666667, "name": "df751a175e0a22f96f0d964702f6fd88", "is_disabled": 0, "rental_uris": {"android": "https://dc.lft.to/lastmile_qr_scan", "ios": "https://dc.lft.to/lastmile_qr_scan"}, "type": "electric_scooter", "lat": 38.9169385, "is_reserved": 0, "fusion_lat": 0.0}, {"bike_id": "8e76704f234152c64ccfd2f92361d1b4", "fusion_lon": 0.0, "lon": -77.03296016666667, "name": "8e76704f234152c64ccfd2f92361d1b4", "is_disabled": 0, "rental_uris": {"android": "https://dc.lft.to/lastmile_qr_scan", "ios": "https://dc.lft.to/lastmile_qr_scan"}, "type": "electric_scooter", "lat": 38.947169, "is_reserved": 0, "fusion_lat": 0.0}, {"bike_id": "4cce1f6aca899d596bd7c95d7f5dc540", "fusion_lon": 0.0, "lon": -77.040094, "name": "4cce1f6aca899d596bd7c95d7f5dc540", "is_disabled": 0, "rental_uris": {"android": "https://dc.lft.to/lastmile_qr_scan", "ios": "https://dc.lft.to/lastmile_qr_scan"}, "type": "electric_scooter", "lat": 38.918264, "is_reserved": 0, "fusion_lat": 0.0}, {"bike_id": "b69cec15333229a3847e3b5d4f4d7e35", "fusion_lon": 0.0, "lon": -77.04183683333333, "name": "b69cec15333229a3847e3b5d4f4d7e35", "is_disabled": 0, "rental_uris": {"android": "https://dc.lft.to/lastmile_qr_scan", "ios": "https://dc.lft.to/lastmile_qr_scan"}, "type": "electric_scooter", "lat": 38.89288883333333, "is_reserved": 0, "fusion_lat": 0.0}, {"bike_id": "5ac337ced6b3d83fe5e221234014b70b", "fusion_lon": 0.0, "lon": -77.0249195, "name": "5ac337ced6b3d83fe5e221234014b70b", "is_disabled": 0, "rental_uris": {"android": "https://dc.lft.to/lastmile_qr_scan", "ios": "https://dc.lft.to/lastmile_qr_scan"}, "type": "electric_scooter", "lat": 38.94185516666667, "is_reserved": 0, "fusion_lat": 0.0}, {"bike_id": "9793a0ead1400ec876cbbec4c91b0f8b", "fusion_lon": 0.0, "lon": -77.01020883333334, "name": "9793a0ead1400ec876cbbec4c91b0f8b", "is_disabled": 0, "rental_uris": {"android": "https://dc.lft.to/lastmile_qr_scan", "ios": "https://dc.lft.to/lastmile_qr_scan"}, "type": "electric_scooter", "lat": 38.91706166666667, "is_reserved": 0, "fusion_lat": 0.0}, {"bike_id": "ef9330150d75ed253f93a5a7fab6591b", "fusion_lon": 0.0, "lon": -77.0332915, "name": "ef9330150d75ed253f93a5a7fab6591b", "is_disabled": 0, "rental_uris": {"android": "https://dc.lft.to/lastmile_qr_scan", "ios": "https://dc.lft.to/lastmile_qr_scan"}, "type": "electric_scooter", "lat": 38.913625333333336, "is_reserved": 0, "fusion_lat": 0.0}, {"bike_id": "46e1ea6e72a5b91e414a6189297e51be", "fusion_lon": 0.0, "lon": -76.99117616666666, "name": "46e1ea6e72a5b91e414a6189297e51be", "is_disabled": 0, "rental_uris": {"android": "https://dc.lft.to/lastmile_qr_scan", "ios": "https://dc.lft.to/lastmile_qr_scan"}, "type": "electric_scooter", "lat": 38.862026666666665, "is_reserved": 0, "fusion_lat": 0.0}, {"bike_id": "65e46a65aad32afff5cc12375c7d821a", "fusion_lon": 0.0, "lon": -77.0072725, "name": "65e46a65aad32afff5cc12375c7d821a", "is_disabled": 0, "rental_uris": {"android": "https://dc.lft.to/lastmile_qr_scan", "ios": "https://dc.lft.to/lastmile_qr_scan"}, "type": "electric_scooter", "lat": 38.88489466666667, "is_reserved": 0, "fusion_lat": 0.0}, {"bike_id": "5dda38e115f4bea25944b4b3d85be90e", "fusion_lon": 0.0, "lon": -77.05273916666667, "name": "5dda38e115f4bea25944b4b3d85be90e", "is_disabled": 0, "rental_uris": {"android": "https://dc.lft.to/lastmile_qr_scan", "ios": "https://dc.lft.to/lastmile_qr_scan"}, "type": "electric_scooter", "lat": 38.92541383333333, "is_reserved": 0, "fusion_lat": 0.0}, {"bike_id": "f0c5fe86605226fc1c479057e6e75bf1", "fusion_lon": 0.0, "lon": -77.01759, "name": "f0c5fe86605226fc1c479057e6e75bf1", "is_disabled": 0, "rental_uris": {"android": "https://dc.lft.to/lastmile_qr_scan", "ios": "https://dc.lft.to/lastmile_qr_scan"}, "type": "electric_scooter", "lat": 38.87722516666667, "is_reserved": 0, "fusion_lat": 0.0}, {"bike_id": "98674cac04840d9127cdbfcc39cc267e", "fusion_lon": 0.0, "lon": -76.9981765, "name": "98674cac04840d9127cdbfcc39cc267e", "is_disabled": 0, "rental_uris": {"android": "https://dc.lft.to/lastmile_qr_scan", "ios": "https://dc.lft.to/lastmile_qr_scan"}, "type": "electric_scooter", "lat": 38.90826533333333, "is_reserved": 0, "fusion_lat": 0.0}, {"bike_id": "b4debf5535c107592973d5a9f44abbce", "fusion_lon": 0.0, "lon": -77.03140383333333, "name": "b4debf5535c107592973d5a9f44abbce", "is_disabled": 0, "rental_uris": {"android": "https://dc.lft.to/lastmile_qr_scan", "ios": "https://dc.lft.to/lastmile_qr_scan"}, "type": "electric_scooter", "lat": 38.917883, "is_reserved": 0, "fusion_lat": 0.0}, {"bike_id": "50a2c350e9bb2e81993cdd2ec910a33b", "fusion_lon": 0.0, "lon": -77.01744316666667, "name": "50a2c350e9bb2e81993cdd2ec910a33b", "is_disabled": 0, "rental_uris": {"android": "https://dc.lft.to/lastmile_qr_scan", "ios": "https://dc.lft.to/lastmile_qr_scan"}, "type": "electric_scooter", "lat": 38.883333, "is_reserved": 0, "fusion_lat": 0.0}, {"bike_id": "468ab8f1773f8181907db7222d7e82c2", "fusion_lon": 0.0, "lon": -77.02712383333333, "name": "468ab8f1773f8181907db7222d7e82c2", "is_disabled": 0, "rental_uris": {"android": "https://dc.lft.to/lastmile_qr_scan", "ios": "https://dc.lft.to/lastmile_qr_scan"}, "type": "electric_scooter", "lat": 38.906877, "is_reserved": 0, "fusion_lat": 0.0}, {"bike_id": "caff4e88b8f97d2dd4dedec62e47fafb", "fusion_lon": 0.0, "lon": -76.99351916666667, "name": "caff4e88b8f97d2dd4dedec62e47fafb", "is_disabled": 0, "rental_uris": {"android": "https://dc.lft.to/lastmile_qr_scan", "ios": "https://dc.lft.to/lastmile_qr_scan"}, "type": "electric_bike", "lat": 38.845051166666664, "is_reserved": 0, "fusion_lat": 0.0}, {"bike_id": "07e412957239fa18879f6523ec0fddc4", "fusion_lon": 0.0, "lon": -77.035716, "name": "07e412957239fa18879f6523ec0fddc4", "is_disabled": 0, "rental_uris": {"android": "https://dc.lft.to/lastmile_qr_scan", "ios": "https://dc.lft.to/lastmile_qr_scan"}, "type": "electric_scooter", "lat": 38.92333516666667, "is_reserved": 0, "fusion_lat": 0.0}, {"bike_id": "80f8d8d74d38998802245a744f9f5b8b", "fusion_lon": 0.0, "lon": -77.027128, "name": "80f8d8d74d38998802245a744f9f5b8b", "is_disabled": 0, "rental_uris": {"android": "https://dc.lft.to/lastmile_qr_scan", "ios": "https://dc.lft.to/lastmile_qr_scan"}, "type": "electric_scooter", "lat": 38.90671666666667, "is_reserved": 0, "fusion_lat": 0.0}, {"bike_id": "db5bf41042f4b210da0947f75241f3c2", "fusion_lon": 0.0, "lon": -77.04859333333333, "name": "db5bf41042f4b210da0947f75241f3c2", "is_disabled": 0, "rental_uris": {"android": "https://dc.lft.to/lastmile_qr_scan", "ios": "https://dc.lft.to/lastmile_qr_scan"}, "type": "electric_scooter", "lat": 38.90579533333333, "is_reserved": 0, "fusion_lat": 0.0}, {"bike_id": "54c9a11e7fa621971ecb282bd8cafb63", "fusion_lon": 0.0, "lon": -77.04359433333333, "name": "54c9a11e7fa621971ecb282bd8cafb63", "is_disabled": 0, "rental_uris": {"android": "https://dc.lft.to/lastmile_qr_scan", "ios": "https://dc.lft.to/lastmile_qr_scan"}, "type": "electric_scooter", "lat": 38.921472, "is_reserved": 0, "fusion_lat": 0.0}, {"bike_id": "85744896a7ba9de52dad045cafc40565", "fusion_lon": 0.0, "lon": -77.0462385, "name": "85744896a7ba9de52dad045cafc40565", "is_disabled": 0, "rental_uris": {"android": "https://dc.lft.to/lastmile_qr_scan", "ios": "https://dc.lft.to/lastmile_qr_scan"}, "type": "electric_scooter", "lat": 38.919295166666664, "is_reserved": 0, "fusion_lat": 0.0}, {"bike_id": "ddd778cdab4c21dee6696232a4093bd3", "fusion_lon": 0.0, "lon": -77.03273583333333, "name": "ddd778cdab4c21dee6696232a4093bd3", "is_disabled": 0, "rental_uris": {"android": "https://dc.lft.to/lastmile_qr_scan", "ios": "https://dc.lft.to/lastmile_qr_scan"}, "type": "electric_scooter", "lat": 38.9206675, "is_reserved": 0, "fusion_lat": 0.0}, {"bike_id": "d8c2c4917c39d8f5c66099e310c7145b", "fusion_lon": 0.0, "lon": -77.01603333333334, "name": "d8c2c4917c39d8f5c66099e310c7145b", "is_disabled": 0, "rental_uris": {"android": "https://dc.lft.to/lastmile_qr_scan", "ios": "https://dc.lft.to/lastmile_qr_scan"}, "type": "electric_scooter", "lat": 38.8996365, "is_reserved": 0, "fusion_lat": 0.0}, {"bike_id": "16c6222228bca80db089a7d2a0d32bac", "fusion_lon": 0.0, "lon": -77.02024483333334, "name": "16c6222228bca80db089a7d2a0d32bac", "is_disabled": 0, "rental_uris": {"android": "https://dc.lft.to/lastmile_qr_scan", "ios": "https://dc.lft.to/lastmile_qr_scan"}, "type": "electric_scooter", "lat": 38.9014805, "is_reserved": 0, "fusion_lat": 0.0}, {"bike_id": "77e96f797677eccc16e2fc628ec9e06b", "fusion_lon": 0.0, "lon": -77.005242, "name": "77e96f797677eccc16e2fc628ec9e06b", "is_disabled": 0, "rental_uris": {"android": "https://dc.lft.to/lastmile_qr_scan", "ios": "https://dc.lft.to/lastmile_qr_scan"}, "type": "electric_scooter", "lat": 38.88027533333333, "is_reserved": 0, "fusion_lat": 0.0}, {"bike_id": "f73e965cf71138ddbc255bd03ebe548b", "fusion_lon": 0.0, "lon": -77.027738, "name": "f73e965cf71138ddbc255bd03ebe548b", "is_disabled": 0, "rental_uris": {"android": "https://dc.lft.to/lastmile_qr_scan", "ios": "https://dc.lft.to/lastmile_qr_scan"}, "type": "electric_scooter", "lat": 38.939589166666664, "is_reserved": 0, "fusion_lat": 0.0}, {"bike_id": "610dabd1ffce6f5f2edba3c24d6f2b59", "fusion_lon": 0.0, "lon": -77.01856033333334, "name": "610dabd1ffce6f5f2edba3c24d6f2b59", "is_disabled": 0, "rental_uris": {"android": "https://dc.lft.to/lastmile_qr_scan", "ios": "https://dc.lft.to/lastmile_qr_scan"}, "type": "electric_scooter", "lat": 38.90025583333333, "is_reserved": 0, "fusion_lat": 0.0}, {"bike_id": "c33a6c7a9faead6e64a3ec6c6d47f26d", "fusion_lon": 0.0, "lon": -77.07939816666666, "name": "c33a6c7a9faead6e64a3ec6c6d47f26d", "is_disabled": 0, "rental_uris": {"android": "https://dc.lft.to/lastmile_qr_scan", "ios": "https://dc.lft.to/lastmile_qr_scan"}, "type": "electric_scooter", "lat": 38.9476765, "is_reserved": 0, "fusion_lat": 0.0}, {"bike_id": "436642440922d735be3eaf70d8afe32d", "fusion_lon": 0.0, "lon": -77.0255635, "name": "436642440922d735be3eaf70d8afe32d", "is_disabled": 0, "rental_uris": {"android": "https://dc.lft.to/lastmile_qr_scan", "ios": "https://dc.lft.to/lastmile_qr_scan"}, "type": "electric_scooter", "lat": 38.9155275, "is_reserved": 0, "fusion_lat": 0.0}, {"bike_id": "0d74d9d050f252b179bc3fcd2fbe74f0", "fusion_lon": 0.0, "lon": -77.0257685, "name": "0d74d9d050f252b179bc3fcd2fbe74f0", "is_disabled": 0, "rental_uris": {"android": "https://dc.lft.to/lastmile_qr_scan", "ios": "https://dc.lft.to/lastmile_qr_scan"}, "type": "electric_scooter", "lat": 38.916021, "is_reserved": 0, "fusion_lat": 0.0}, {"bike_id": "bba5fbcb32adc0ba6be0412ae79e30e6", "fusion_lon": 0.0, "lon": -77.01138716666667, "name": "bba5fbcb32adc0ba6be0412ae79e30e6", "is_disabled": 0, "rental_uris": {"android": "https://dc.lft.to/lastmile_qr_scan", "ios": "https://dc.lft.to/lastmile_qr_scan"}, "type": "electric_scooter", "lat": 38.9119565, "is_reserved": 0, "fusion_lat": 0.0}, {"bike_id": "50aee84cf87cc4814efc6413ba7b1911", "fusion_lon": 0.0, "lon": -77.072498, "name": "50aee84cf87cc4814efc6413ba7b1911", "is_disabled": 0, "rental_uris": {"android": "https://dc.lft.to/lastmile_qr_scan", "ios": "https://dc.lft.to/lastmile_qr_scan"}, "type": "electric_scooter", "lat": 38.90783716666667, "is_reserved": 0, "fusion_lat": 0.0}, {"bike_id": "4e9fe35517ffac743a1909dbff0a7367", "fusion_lon": 0.0, "lon": -77.03177383333333, "name": "4e9fe35517ffac743a1909dbff0a7367", "is_disabled": 0, "rental_uris": {"android": "https://dc.lft.to/lastmile_qr_scan", "ios": "https://dc.lft.to/lastmile_qr_scan"}, "type": "electric_scooter", "lat": 38.903500333333334, "is_reserved": 0, "fusion_lat": 0.0}, {"bike_id": "6584c9ffbb7349e2e69b0539328bda6e", "fusion_lon": 0.0, "lon": -76.98604066666667, "name": "6584c9ffbb7349e2e69b0539328bda6e", "is_disabled": 0, "rental_uris": {"android": "https://dc.lft.to/lastmile_qr_scan", "ios": "https://dc.lft.to/lastmile_qr_scan"}, "type": "electric_scooter", "lat": 38.87838, "is_reserved": 0, "fusion_lat": 0.0}, {"bike_id": "747f55a19f30d2611b884f462615db25", "fusion_lon": 0.0, "lon": -77.01181933333334, "name": "747f55a19f30d2611b884f462615db25", "is_disabled": 0, "rental_uris": {"android": "https://dc.lft.to/lastmile_qr_scan", "ios": "https://dc.lft.to/lastmile_qr_scan"}, "type": "electric_scooter", "lat": 38.90962233333333, "is_reserved": 0, "fusion_lat": 0.0}, {"bike_id": "ea3847fa323e18cad39ca5470c5ad3cb", "fusion_lon": 0.0, "lon": -77.00117033333333, "name": "ea3847fa323e18cad39ca5470c5ad3cb", "is_disabled": 0, "rental_uris": {"android": "https://dc.lft.to/lastmile_qr_scan", "ios": "https://dc.lft.to/lastmile_qr_scan"}, "type": "electric_scooter", "lat": 38.90561616666667, "is_reserved": 0, "fusion_lat": 0.0}, {"bike_id": "7f2a6b198a7421d418dd6c469234aaf8", "fusion_lon": 0.0, "lon": -76.99809716666667, "name": "7f2a6b198a7421d418dd6c469234aaf8", "is_disabled": 0, "rental_uris": {"android": "https://dc.lft.to/lastmile_qr_scan", "ios": "https://dc.lft.to/lastmile_qr_scan"}, "type": "electric_bike", "lat": 38.9106595, "is_reserved": 0, "fusion_lat": 0.0}, {"bike_id": "72c0a01d958664c824b0e00d160742b5", "fusion_lon": 0.0, "lon": -76.999719, "name": "72c0a01d958664c824b0e00d160742b5", "is_disabled": 0, "rental_uris": {"android": "https://dc.lft.to/lastmile_qr_scan", "ios": "https://dc.lft.to/lastmile_qr_scan"}, "type": "electric_scooter", "lat": 38.92448566666667, "is_reserved": 0, "fusion_lat": 0.0}, {"bike_id": "fb0f8a74b5624395cae7f465b4aa9730", "fusion_lon": 0.0, "lon": -76.99536916666666, "name": "fb0f8a74b5624395cae7f465b4aa9730", "is_disabled": 0, "rental_uris": {"android": "https://dc.lft.to/lastmile_qr_scan", "ios": "https://dc.lft.to/lastmile_qr_scan"}, "type": "electric_bike", "lat": 38.90025133333333, "is_reserved": 0, "fusion_lat": 0.0}, {"bike_id": "213ea9de2236efb58087c12f1b2f7bf7", "fusion_lon": 0.0, "lon": -77.0220615, "name": "213ea9de2236efb58087c12f1b2f7bf7", "is_disabled": 0, "rental_uris": {"android": "https://dc.lft.to/lastmile_qr_scan", "ios": "https://dc.lft.to/lastmile_qr_scan"}, "type": "electric_scooter", "lat": 38.878913, "is_reserved": 0, "fusion_lat": 0.0}, {"bike_id": "f51f570d30e29fc88ee286625dc92548", "fusion_lon": 0.0, "lon": -77.03691583333334, "name": "f51f570d30e29fc88ee286625dc92548", "is_disabled": 0, "rental_uris": {"android": "https://dc.lft.to/lastmile_qr_scan", "ios": "https://dc.lft.to/lastmile_qr_scan"}, "type": "electric_scooter", "lat": 38.916753166666666, "is_reserved": 0, "fusion_lat": 0.0}, {"bike_id": "7daa1922a737e5a9a9fade2ea75f47b6", "fusion_lon": 0.0, "lon": -77.0564875, "name": "7daa1922a737e5a9a9fade2ea75f47b6", "is_disabled": 0, "rental_uris": {"android": "https://dc.lft.to/lastmile_qr_scan", "ios": "https://dc.lft.to/lastmile_qr_scan"}, "type": "electric_scooter", "lat": 38.905389, "is_reserved": 0, "fusion_lat": 0.0}, {"bike_id": "5b88994cb60ffbc5770c106599d812dc", "fusion_lon": 0.0, "lon": -77.0289365, "name": "5b88994cb60ffbc5770c106599d812dc", "is_disabled": 0, "rental_uris": {"android": "https://dc.lft.to/lastmile_qr_scan", "ios": "https://dc.lft.to/lastmile_qr_scan"}, "type": "electric_scooter", "lat": 38.91404883333333, "is_reserved": 0, "fusion_lat": 0.0}, {"bike_id": "e4585d0206ba6518e80a21288c280daa", "fusion_lon": 0.0, "lon": -77.0234805, "name": "e4585d0206ba6518e80a21288c280daa", "is_disabled": 0, "rental_uris": {"android": "https://dc.lft.to/lastmile_qr_scan", "ios": "https://dc.lft.to/lastmile_qr_scan"}, "type": "electric_scooter", "lat": 38.887555166666665, "is_reserved": 0, "fusion_lat": 0.0}, {"bike_id": "479f07b4a1f92bbcbc5c6b993e9f69e3", "fusion_lon": 0.0, "lon": -77.0277155, "name": "479f07b4a1f92bbcbc5c6b993e9f69e3", "is_disabled": 0, "rental_uris": {"android": "https://dc.lft.to/lastmile_qr_scan", "ios": "https://dc.lft.to/lastmile_qr_scan"}, "type": "electric_scooter", "lat": 38.917131499999996, "is_reserved": 0, "fusion_lat": 0.0}, {"bike_id": "bb89be5f4f589fdfc868f048c1bfc7a2", "fusion_lon": 0.0, "lon": -77.034946, "name": "bb89be5f4f589fdfc868f048c1bfc7a2", "is_disabled": 0, "rental_uris": {"android": "https://dc.lft.to/lastmile_qr_scan", "ios": "https://dc.lft.to/lastmile_qr_scan"}, "type": "electric_scooter", "lat": 38.92480116666667, "is_reserved": 0, "fusion_lat": 0.0}, {"bike_id": "c548aaa7aa56913cbae004881e8e5c08", "fusion_lon": 0.0, "lon": -77.03462483333334, "name": "c548aaa7aa56913cbae004881e8e5c08", "is_disabled": 0, "rental_uris": {"android": "https://dc.lft.to/lastmile_qr_scan", "ios": "https://dc.lft.to/lastmile_qr_scan"}, "type": "electric_scooter", "lat": 38.90562416666667, "is_reserved": 0, "fusion_lat": 0.0}, {"bike_id": "ccebed6c2840e32a0043db265c8cffd1", "fusion_lon": 0.0, "lon": -77.06698716666666, "name": "ccebed6c2840e32a0043db265c8cffd1", "is_disabled": 0, "rental_uris": {"android": "https://dc.lft.to/lastmile_qr_scan", "ios": "https://dc.lft.to/lastmile_qr_scan"}, "type": "electric_bike", "lat": 38.831812666666664, "is_reserved": 0, "fusion_lat": 0.0}, {"bike_id": "bd8a4f6b9493bf6f10187384d39fe0e6", "fusion_lon": 0.0, "lon": -77.05687116666667, "name": "bd8a4f6b9493bf6f10187384d39fe0e6", "is_disabled": 0, "rental_uris": {"android": "https://dc.lft.to/lastmile_qr_scan", "ios": "https://dc.lft.to/lastmile_qr_scan"}, "type": "electric_scooter", "lat": 38.905657833333336, "is_reserved": 0, "fusion_lat": 0.0}, {"bike_id": "1ac7ea50219c67ff561281a84d370e4e", "fusion_lon": 0.0, "lon": -77.02214866666667, "name": "1ac7ea50219c67ff561281a84d370e4e", "is_disabled": 0, "rental_uris": {"android": "https://dc.lft.to/lastmile_qr_scan", "ios": "https://dc.lft.to/lastmile_qr_scan"}, "type": "electric_scooter", "lat": 38.914229166666665, "is_reserved": 0, "fusion_lat": 0.0}, {"bike_id": "db7dde6af012744ec00cd8a619cd1d21", "fusion_lon": 0.0, "lon": -77.0401875, "name": "db7dde6af012744ec00cd8a619cd1d21", "is_disabled": 0, "rental_uris": {"android": "https://dc.lft.to/lastmile_qr_scan", "ios": "https://dc.lft.to/lastmile_qr_scan"}, "type": "electric_scooter", "lat": 38.92283033333333, "is_reserved": 0, "fusion_lat": 0.0}, {"bike_id": "3958de47f3348628d8776637a235aed2", "fusion_lon": 0.0, "lon": -77.00245483333333, "name": "3958de47f3348628d8776637a235aed2", "is_disabled": 0, "rental_uris": {"android": "https://dc.lft.to/lastmile_qr_scan", "ios": "https://dc.lft.to/lastmile_qr_scan"}, "type": "electric_scooter", "lat": 38.908880333333336, "is_reserved": 0, "fusion_lat": 0.0}, {"bike_id": "de08840e6905230168ea09f7b9cab8bd", "fusion_lon": 0.0, "lon": -77.03175016666667, "name": "de08840e6905230168ea09f7b9cab8bd", "is_disabled": 0, "rental_uris": {"android": "https://dc.lft.to/lastmile_qr_scan", "ios": "https://dc.lft.to/lastmile_qr_scan"}, "type": "electric_scooter", "lat": 38.909629333333335, "is_reserved": 0, "fusion_lat": 0.0}, {"bike_id": "4ae6952e30ebee0b57eb1d919bb9fa3f", "fusion_lon": 0.0, "lon": -76.98002066666666, "name": "4ae6952e30ebee0b57eb1d919bb9fa3f", "is_disabled": 0, "rental_uris": {"android": "https://dc.lft.to/lastmile_qr_scan", "ios": "https://dc.lft.to/lastmile_qr_scan"}, "type": "electric_scooter", "lat": 38.85325316666667, "is_reserved": 0, "fusion_lat": 0.0}, {"bike_id": "8dd05176f82f99283105d837104d3723", "fusion_lon": 0.0, "lon": -76.94839433333334, "name": "8dd05176f82f99283105d837104d3723", "is_disabled": 0, "rental_uris": {"android": "https://dc.lft.to/lastmile_qr_scan", "ios": "https://dc.lft.to/lastmile_qr_scan"}, "type": "electric_scooter", "lat": 38.89587916666667, "is_reserved": 0, "fusion_lat": 0.0}, {"bike_id": "bc96a8f8deca4e89c053613892d2214d", "fusion_lon": 0.0, "lon": -76.99609366666667, "name": "bc96a8f8deca4e89c053613892d2214d", "is_disabled": 0, "rental_uris": {"android": "https://dc.lft.to/lastmile_qr_scan", "ios": "https://dc.lft.to/lastmile_qr_scan"}, "type": "electric_scooter", "lat": 38.9036445, "is_reserved": 0, "fusion_lat": 0.0}, {"bike_id": "be47e3d7b121e911df825a5665848416", "fusion_lon": 0.0, "lon": -77.04802116666667, "name": "be47e3d7b121e911df825a5665848416", "is_disabled": 0, "rental_uris": {"android": "https://dc.lft.to/lastmile_qr_scan", "ios": "https://dc.lft.to/lastmile_qr_scan"}, "type": "electric_scooter", "lat": 38.89222633333333, "is_reserved": 0, "fusion_lat": 0.0}, {"bike_id": "6acaa9a1ba3f856cc30c6993ae34a28f", "fusion_lon": 0.0, "lon": -77.03249316666667, "name": "6acaa9a1ba3f856cc30c6993ae34a28f", "is_disabled": 0, "rental_uris": {"android": "https://dc.lft.to/lastmile_qr_scan", "ios": "https://dc.lft.to/lastmile_qr_scan"}, "type": "electric_scooter", "lat": 38.92857, "is_reserved": 0, "fusion_lat": 0.0}, {"bike_id": "b7d9be085cff1c8c356054cbed88d018", "fusion_lon": 0.0, "lon": -77.0258915, "name": "b7d9be085cff1c8c356054cbed88d018", "is_disabled": 0, "rental_uris": {"android": "https://dc.lft.to/lastmile_qr_scan", "ios": "https://dc.lft.to/lastmile_qr_scan"}, "type": "electric_scooter", "lat": 38.90524883333333, "is_reserved": 0, "fusion_lat": 0.0}, {"bike_id": "c16157e9072d9be3b747c233df0baa46", "fusion_lon": 0.0, "lon": -77.02561133333333, "name": "c16157e9072d9be3b747c233df0baa46", "is_disabled": 0, "rental_uris": {"android": "https://dc.lft.to/lastmile_qr_scan", "ios": "https://dc.lft.to/lastmile_qr_scan"}, "type": "electric_scooter", "lat": 38.92539983333333, "is_reserved": 0, "fusion_lat": 0.0}, {"bike_id": "a4248380eb53304ae075e26f39bdf86d", "fusion_lon": 0.0, "lon": -77.018434, "name": "a4248380eb53304ae075e26f39bdf86d", "is_disabled": 0, "rental_uris": {"android": "https://dc.lft.to/lastmile_qr_scan", "ios": "https://dc.lft.to/lastmile_qr_scan"}, "type": "electric_scooter", "lat": 38.91529333333333, "is_reserved": 0, "fusion_lat": 0.0}, {"bike_id": "1a52a0249e04279ef020f5ac05f95ebc", "fusion_lon": 0.0, "lon": -76.98612416666667, "name": "1a52a0249e04279ef020f5ac05f95ebc", "is_disabled": 0, "rental_uris": {"android": "https://dc.lft.to/lastmile_qr_scan", "ios": "https://dc.lft.to/lastmile_qr_scan"}, "type": "electric_scooter", "lat": 38.93832366666667, "is_reserved": 0, "fusion_lat": 0.0}, {"bike_id": "0302c6b75bbff8f22c4e2de3d4ba73f1", "fusion_lon": 0.0, "lon": -77.0269175, "name": "0302c6b75bbff8f22c4e2de3d4ba73f1", "is_disabled": 0, "rental_uris": {"android": "https://dc.lft.to/lastmile_qr_scan", "ios": "https://dc.lft.to/lastmile_qr_scan"}, "type": "electric_scooter", "lat": 38.92399433333333, "is_reserved": 0, "fusion_lat": 0.0}, {"bike_id": "5bd66c186662c6a5d278d55f5d5afbb8", "fusion_lon": 0.0, "lon": -77.027231, "name": "5bd66c186662c6a5d278d55f5d5afbb8", "is_disabled": 0, "rental_uris": {"android": "https://dc.lft.to/lastmile_qr_scan", "ios": "https://dc.lft.to/lastmile_qr_scan"}, "type": "electric_scooter", "lat": 38.94956633333334, "is_reserved": 0, "fusion_lat": 0.0}, {"bike_id": "39189b2335f9313dbcb92f9f4e1e53b3", "fusion_lon": 0.0, "lon": -76.93613883333333, "name": "39189b2335f9313dbcb92f9f4e1e53b3", "is_disabled": 0, "rental_uris": {"android": "https://dc.lft.to/lastmile_qr_scan", "ios": "https://dc.lft.to/lastmile_qr_scan"}, "type": "electric_scooter", "lat": 38.8867095, "is_reserved": 0, "fusion_lat": 0.0}, {"bike_id": "3e597bc6f319531f1794a442bb42055f", "fusion_lon": 0.0, "lon": -76.99775866666667, "name": "3e597bc6f319531f1794a442bb42055f", "is_disabled": 0, "rental_uris": {"android": "https://dc.lft.to/lastmile_qr_scan", "ios": "https://dc.lft.to/lastmile_qr_scan"}, "type": "electric_scooter", "lat": 38.90913583333333, "is_reserved": 0, "fusion_lat": 0.0}, {"bike_id": "a0810c52bd063a1d1fc15e2c5cf116da", "fusion_lon": 0.0, "lon": -77.0122005, "name": "a0810c52bd063a1d1fc15e2c5cf116da", "is_disabled": 0, "rental_uris": {"android": "https://dc.lft.to/lastmile_qr_scan", "ios": "https://dc.lft.to/lastmile_qr_scan"}, "type": "electric_scooter", "lat": 38.915483, "is_reserved": 0, "fusion_lat": 0.0}, {"bike_id": "f60aeed5cf2628c016147718827dac2b", "fusion_lon": 0.0, "lon": -77.02510616666666, "name": "f60aeed5cf2628c016147718827dac2b", "is_disabled": 0, "rental_uris": {"android": "https://dc.lft.to/lastmile_qr_scan", "ios": "https://dc.lft.to/lastmile_qr_scan"}, "type": "electric_scooter", "lat": 38.915668, "is_reserved": 0, "fusion_lat": 0.0}, {"bike_id": "6f660daebc715c1ed0fdb903308504ff", "fusion_lon": 0.0, "lon": -77.0121985, "name": "6f660daebc715c1ed0fdb903308504ff", "is_disabled": 0, "rental_uris": {"android": "https://dc.lft.to/lastmile_qr_scan", "ios": "https://dc.lft.to/lastmile_qr_scan"}, "type": "electric_scooter", "lat": 38.915320666666666, "is_reserved": 0, "fusion_lat": 0.0}, {"bike_id": "e46c85a4cdb5568a0b0a4f8877ff0dd2", "fusion_lon": 0.0, "lon": -77.036412, "name": "e46c85a4cdb5568a0b0a4f8877ff0dd2", "is_disabled": 0, "rental_uris": {"android": "https://dc.lft.to/lastmile_qr_scan", "ios": "https://dc.lft.to/lastmile_qr_scan"}, "type": "electric_scooter", "lat": 38.9317575, "is_reserved": 0, "fusion_lat": 0.0}, {"bike_id": "1db668a586e3b58394e42a3385508e95", "fusion_lon": 0.0, "lon": -77.0269095, "name": "1db668a586e3b58394e42a3385508e95", "is_disabled": 0, "rental_uris": {"android": "https://dc.lft.to/lastmile_qr_scan", "ios": "https://dc.lft.to/lastmile_qr_scan"}, "type": "electric_scooter", "lat": 38.906725333333334, "is_reserved": 0, "fusion_lat": 0.0}, {"bike_id": "66c68f69812d49a2eee4d224c71d2777", "fusion_lon": 0.0, "lon": -77.003357, "name": "66c68f69812d49a2eee4d224c71d2777", "is_disabled": 0, "rental_uris": {"android": "https://dc.lft.to/lastmile_qr_scan", "ios": "https://dc.lft.to/lastmile_qr_scan"}, "type": "electric_scooter", "lat": 38.9026355, "is_reserved": 0, "fusion_lat": 0.0}, {"bike_id": "5b45d6c04adc7bfcf7d6b5b4d03e0ef7", "fusion_lon": 0.0, "lon": -77.04195616666667, "name": "5b45d6c04adc7bfcf7d6b5b4d03e0ef7", "is_disabled": 0, "rental_uris": {"android": "https://dc.lft.to/lastmile_qr_scan", "ios": "https://dc.lft.to/lastmile_qr_scan"}, "type": "electric_scooter", "lat": 38.9262345, "is_reserved": 0, "fusion_lat": 0.0}, {"bike_id": "ed6169a87b008620fa87cec95752f23c", "fusion_lon": 0.0, "lon": -76.98106983333334, "name": "ed6169a87b008620fa87cec95752f23c", "is_disabled": 0, "rental_uris": {"android": "https://dc.lft.to/lastmile_qr_scan", "ios": "https://dc.lft.to/lastmile_qr_scan"}, "type": "electric_bike", "lat": 38.914726, "is_reserved": 0, "fusion_lat": 0.0}, {"bike_id": "3702bf2ead47866ae4a820e14fe30ddc", "fusion_lon": 0.0, "lon": -77.02000733333334, "name": "3702bf2ead47866ae4a820e14fe30ddc", "is_disabled": 0, "rental_uris": {"android": "https://dc.lft.to/lastmile_qr_scan", "ios": "https://dc.lft.to/lastmile_qr_scan"}, "type": "electric_scooter", "lat": 38.913113833333334, "is_reserved": 0, "fusion_lat": 0.0}, {"bike_id": "3fe1ae7a01dd808fbdb1686dd14df17a", "fusion_lon": 0.0, "lon": -76.994087, "name": "3fe1ae7a01dd808fbdb1686dd14df17a", "is_disabled": 0, "rental_uris": {"android": "https://dc.lft.to/lastmile_qr_scan", "ios": "https://dc.lft.to/lastmile_qr_scan"}, "type": "electric_scooter", "lat": 38.877833833333334, "is_reserved": 0, "fusion_lat": 0.0}, {"bike_id": "589e48e9d70e9aee431947e5bb1eb598", "fusion_lon": 0.0, "lon": -77.02195016666667, "name": "589e48e9d70e9aee431947e5bb1eb598", "is_disabled": 0, "rental_uris": {"android": "https://dc.lft.to/lastmile_qr_scan", "ios": "https://dc.lft.to/lastmile_qr_scan"}, "type": "electric_scooter", "lat": 38.911424333333336, "is_reserved": 0, "fusion_lat": 0.0}, {"bike_id": "25374268cb4be889e0d0785506d6b12e", "fusion_lon": 0.0, "lon": -77.04077783333334, "name": "25374268cb4be889e0d0785506d6b12e", "is_disabled": 0, "rental_uris": {"android": "https://dc.lft.to/lastmile_qr_scan", "ios": "https://dc.lft.to/lastmile_qr_scan"}, "type": "electric_scooter", "lat": 38.917036833333334, "is_reserved": 0, "fusion_lat": 0.0}, {"bike_id": "470c9e653d4a764cc88e7f4e7bf89174", "fusion_lon": 0.0, "lon": -77.04532433333334, "name": "470c9e653d4a764cc88e7f4e7bf89174", "is_disabled": 0, "rental_uris": {"android": "https://dc.lft.to/lastmile_qr_scan", "ios": "https://dc.lft.to/lastmile_qr_scan"}, "type": "electric_bike", "lat": 38.90268433333333, "is_reserved": 0, "fusion_lat": 0.0}, {"bike_id": "539fc726263623d900758067c769c763", "fusion_lon": 0.0, "lon": -77.0541715, "name": "539fc726263623d900758067c769c763", "is_disabled": 0, "rental_uris": {"android": "https://dc.lft.to/lastmile_qr_scan", "ios": "https://dc.lft.to/lastmile_qr_scan"}, "type": "electric_scooter", "lat": 38.90246, "is_reserved": 0, "fusion_lat": 0.0}, {"bike_id": "1fcabb4001c0da19ce3d90e8f818fabe", "fusion_lon": 0.0, "lon": -77.03231666666667, "name": "1fcabb4001c0da19ce3d90e8f818fabe", "is_disabled": 0, "rental_uris": {"android": "https://dc.lft.to/lastmile_qr_scan", "ios": "https://dc.lft.to/lastmile_qr_scan"}, "type": "electric_scooter", "lat": 38.9140575, "is_reserved": 0, "fusion_lat": 0.0}, {"bike_id": "a6a0a29f2a7601fe9031e64a525fc29b", "fusion_lon": 0.0, "lon": -77.02401216666667, "name": "a6a0a29f2a7601fe9031e64a525fc29b", "is_disabled": 0, "rental_uris": {"android": "https://dc.lft.to/lastmile_qr_scan", "ios": "https://dc.lft.to/lastmile_qr_scan"}, "type": "electric_scooter", "lat": 38.897165666666666, "is_reserved": 0, "fusion_lat": 0.0}, {"bike_id": "db751dffef49fc8f58fcbbca474510cb", "fusion_lon": 0.0, "lon": -77.03107616666667, "name": "db751dffef49fc8f58fcbbca474510cb", "is_disabled": 0, "rental_uris": {"android": "https://dc.lft.to/lastmile_qr_scan", "ios": "https://dc.lft.to/lastmile_qr_scan"}, "type": "electric_scooter", "lat": 38.917225333333334, "is_reserved": 0, "fusion_lat": 0.0}, {"bike_id": "69b933a49109b759747928d70731909e", "fusion_lon": 0.0, "lon": -77.03330883333334, "name": "69b933a49109b759747928d70731909e", "is_disabled": 0, "rental_uris": {"android": "https://dc.lft.to/lastmile_qr_scan", "ios": "https://dc.lft.to/lastmile_qr_scan"}, "type": "electric_scooter", "lat": 38.898302, "is_reserved": 0, "fusion_lat": 0.0}, {"bike_id": "05508cc631060f15fe854d9e9fcf3fbc", "fusion_lon": 0.0, "lon": -76.91159, "name": "05508cc631060f15fe854d9e9fcf3fbc", "is_disabled": 0, "rental_uris": {"android": "https://dc.lft.to/lastmile_qr_scan", "ios": "https://dc.lft.to/lastmile_qr_scan"}, "type": "electric_scooter", "lat": 38.894262833333336, "is_reserved": 0, "fusion_lat": 0.0}, {"bike_id": "00249053c0f724ddef26bf5ead334cd9", "fusion_lon": 0.0, "lon": -77.032336, "name": "00249053c0f724ddef26bf5ead334cd9", "is_disabled": 0, "rental_uris": {"android": "https://dc.lft.to/lastmile_qr_scan", "ios": "https://dc.lft.to/lastmile_qr_scan"}, "type": "electric_scooter", "lat": 38.92768, "is_reserved": 0, "fusion_lat": 0.0}, {"bike_id": "4f8acfca8e70489447071038599b3b45", "fusion_lon": 0.0, "lon": -76.99943166666667, "name": "4f8acfca8e70489447071038599b3b45", "is_disabled": 0, "rental_uris": {"android": "https://dc.lft.to/lastmile_qr_scan", "ios": "https://dc.lft.to/lastmile_qr_scan"}, "type": "electric_scooter", "lat": 38.842964333333335, "is_reserved": 0, "fusion_lat": 0.0}, {"bike_id": "fbc11694577a61e2296307bbfe8bd467", "fusion_lon": 0.0, "lon": -77.03432433333333, "name": "fbc11694577a61e2296307bbfe8bd467", "is_disabled": 0, "rental_uris": {"android": "https://dc.lft.to/lastmile_qr_scan", "ios": "https://dc.lft.to/lastmile_qr_scan"}, "type": "electric_scooter", "lat": 38.904447166666664, "is_reserved": 0, "fusion_lat": 0.0}, {"bike_id": "8bd0220671fbe68a608a2f47474eac03", "fusion_lon": 0.0, "lon": -77.03260883333333, "name": "8bd0220671fbe68a608a2f47474eac03", "is_disabled": 0, "rental_uris": {"android": "https://dc.lft.to/lastmile_qr_scan", "ios": "https://dc.lft.to/lastmile_qr_scan"}, "type": "electric_scooter", "lat": 38.914072166666664, "is_reserved": 0, "fusion_lat": 0.0}, {"bike_id": "7ac76a6ba04ff699a8e76a23451480a2", "fusion_lon": 0.0, "lon": -77.0113505, "name": "7ac76a6ba04ff699a8e76a23451480a2", "is_disabled": 0, "rental_uris": {"android": "https://dc.lft.to/lastmile_qr_scan", "ios": "https://dc.lft.to/lastmile_qr_scan"}, "type": "electric_scooter", "lat": 38.885257333333335, "is_reserved": 0, "fusion_lat": 0.0}, {"bike_id": "c5418104d976576a2a042656245a83e3", "fusion_lon": 0.0, "lon": -77.043129, "name": "c5418104d976576a2a042656245a83e3", "is_disabled": 0, "rental_uris": {"android": "https://dc.lft.to/lastmile_qr_scan", "ios": "https://dc.lft.to/lastmile_qr_scan"}, "type": "electric_scooter", "lat": 38.881075333333335, "is_reserved": 0, "fusion_lat": 0.0}, {"bike_id": "2f7e8418266da3eb4ecdc85b9888eb35", "fusion_lon": 0.0, "lon": -77.021644, "name": "2f7e8418266da3eb4ecdc85b9888eb35", "is_disabled": 0, "rental_uris": {"android": "https://dc.lft.to/lastmile_qr_scan", "ios": "https://dc.lft.to/lastmile_qr_scan"}, "type": "electric_scooter", "lat": 38.942925333333335, "is_reserved": 0, "fusion_lat": 0.0}, {"bike_id": "6eff979be2e7e03f28b3e2fcb3981ebd", "fusion_lon": 0.0, "lon": -76.99362666666667, "name": "6eff979be2e7e03f28b3e2fcb3981ebd", "is_disabled": 0, "rental_uris": {"android": "https://dc.lft.to/lastmile_qr_scan", "ios": "https://dc.lft.to/lastmile_qr_scan"}, "type": "electric_scooter", "lat": 38.92401183333333, "is_reserved": 0, "fusion_lat": 0.0}, {"bike_id": "bb0ba2e4f1e0792ac0ff751fbf8dc459", "fusion_lon": 0.0, "lon": -77.02360583333333, "name": "bb0ba2e4f1e0792ac0ff751fbf8dc459", "is_disabled": 0, "rental_uris": {"android": "https://dc.lft.to/lastmile_qr_scan", "ios": "https://dc.lft.to/lastmile_qr_scan"}, "type": "electric_scooter", "lat": 38.884753, "is_reserved": 0, "fusion_lat": 0.0}, {"bike_id": "84308ee34a43f1e66ddc13bc248452ea", "fusion_lon": 0.0, "lon": -77.0658975, "name": "84308ee34a43f1e66ddc13bc248452ea", "is_disabled": 0, "rental_uris": {"android": "https://dc.lft.to/lastmile_qr_scan", "ios": "https://dc.lft.to/lastmile_qr_scan"}, "type": "electric_scooter", "lat": 38.903658166666666, "is_reserved": 0, "fusion_lat": 0.0}, {"bike_id": "69f92706a5354c8eae6dd8bef0719d67", "fusion_lon": 0.0, "lon": -76.97183883333334, "name": "69f92706a5354c8eae6dd8bef0719d67", "is_disabled": 0, "rental_uris": {"android": "https://dc.lft.to/lastmile_qr_scan", "ios": "https://dc.lft.to/lastmile_qr_scan"}, "type": "electric_bike", "lat": 38.917863833333335, "is_reserved": 0, "fusion_lat": 0.0}, {"bike_id": "8f74f82dab79af36775d95f9a941da05", "fusion_lon": 0.0, "lon": -77.0499825, "name": "8f74f82dab79af36775d95f9a941da05", "is_disabled": 0, "rental_uris": {"android": "https://dc.lft.to/lastmile_qr_scan", "ios": "https://dc.lft.to/lastmile_qr_scan"}, "type": "electric_scooter", "lat": 38.90539033333334, "is_reserved": 0, "fusion_lat": 0.0}, {"bike_id": "0063c10500f99018d3e92f85fe18059f", "fusion_lon": 0.0, "lon": -77.13139783333334, "name": "0063c10500f99018d3e92f85fe18059f", "is_disabled": 0, "rental_uris": {"android": "https://dc.lft.to/lastmile_qr_scan", "ios": "https://dc.lft.to/lastmile_qr_scan"}, "type": "electric_bike", "lat": 38.8617225, "is_reserved": 0, "fusion_lat": 0.0}, {"bike_id": "7b1f8b572588b72ad60ab75cfe30b70a", "fusion_lon": 0.0, "lon": -77.02488666666666, "name": "7b1f8b572588b72ad60ab75cfe30b70a", "is_disabled": 0, "rental_uris": {"android": "https://dc.lft.to/lastmile_qr_scan", "ios": "https://dc.lft.to/lastmile_qr_scan"}, "type": "electric_scooter", "lat": 38.9418345, "is_reserved": 0, "fusion_lat": 0.0}, {"bike_id": "08b786c5b361ba4ce786c5b0656c65a5", "fusion_lon": 0.0, "lon": -77.02027183333334, "name": "08b786c5b361ba4ce786c5b0656c65a5", "is_disabled": 0, "rental_uris": {"android": "https://dc.lft.to/lastmile_qr_scan", "ios": "https://dc.lft.to/lastmile_qr_scan"}, "type": "electric_scooter", "lat": 38.90153216666667, "is_reserved": 0, "fusion_lat": 0.0}, {"bike_id": "172743eb2a27da66922609e4e637025b", "fusion_lon": 0.0, "lon": -76.98818733333333, "name": "172743eb2a27da66922609e4e637025b", "is_disabled": 0, "rental_uris": {"android": "https://dc.lft.to/lastmile_qr_scan", "ios": "https://dc.lft.to/lastmile_qr_scan"}, "type": "electric_scooter", "lat": 38.900384833333334, "is_reserved": 0, "fusion_lat": 0.0}, {"bike_id": "6d5a02a8cbd114afa08006675a098b48", "fusion_lon": 0.0, "lon": -77.03475066666667, "name": "6d5a02a8cbd114afa08006675a098b48", "is_disabled": 0, "rental_uris": {"android": "https://dc.lft.to/lastmile_qr_scan", "ios": "https://dc.lft.to/lastmile_qr_scan"}, "type": "electric_scooter", "lat": 38.9171075, "is_reserved": 0, "fusion_lat": 0.0}, {"bike_id": "e364f1e3beee281c5b7c05bb9db59eed", "fusion_lon": 0.0, "lon": -77.02685233333334, "name": "e364f1e3beee281c5b7c05bb9db59eed", "is_disabled": 0, "rental_uris": {"android": "https://dc.lft.to/lastmile_qr_scan", "ios": "https://dc.lft.to/lastmile_qr_scan"}, "type": "electric_scooter", "lat": 38.923801166666664, "is_reserved": 0, "fusion_lat": 0.0}, {"bike_id": "3e5fc20f7734abcc0cca776c9ff52745", "fusion_lon": 0.0, "lon": -77.03097516666666, "name": "3e5fc20f7734abcc0cca776c9ff52745", "is_disabled": 0, "rental_uris": {"android": "https://dc.lft.to/lastmile_qr_scan", "ios": "https://dc.lft.to/lastmile_qr_scan"}, "type": "electric_scooter", "lat": 38.894621666666666, "is_reserved": 0, "fusion_lat": 0.0}, {"bike_id": "3731e05bed07900b08a21248fc14c1ee", "fusion_lon": 0.0, "lon": -77.05492733333334, "name": "3731e05bed07900b08a21248fc14c1ee", "is_disabled": 0, "rental_uris": {"android": "https://dc.lft.to/lastmile_qr_scan", "ios": "https://dc.lft.to/lastmile_qr_scan"}, "type": "electric_scooter", "lat": 38.93666183333333, "is_reserved": 0, "fusion_lat": 0.0}, {"bike_id": "c1fbea1b92520cb93dd011020605fe4a", "fusion_lon": 0.0, "lon": -77.02119566666667, "name": "c1fbea1b92520cb93dd011020605fe4a", "is_disabled": 0, "rental_uris": {"android": "https://dc.lft.to/lastmile_qr_scan", "ios": "https://dc.lft.to/lastmile_qr_scan"}, "type": "electric_scooter", "lat": 38.917380333333334, "is_reserved": 0, "fusion_lat": 0.0}, {"bike_id": "48e4d8cb8b7b4a2ce0926fb2fd5ddb72", "fusion_lon": 0.0, "lon": -77.117533, "name": "48e4d8cb8b7b4a2ce0926fb2fd5ddb72", "is_disabled": 0, "rental_uris": {"android": "https://dc.lft.to/lastmile_qr_scan", "ios": "https://dc.lft.to/lastmile_qr_scan"}, "type": "electric_bike", "lat": 39.049073666666665, "is_reserved": 0, "fusion_lat": 0.0}, {"bike_id": "842d0d66d9a81f3b922d00cdf4c16a5d", "fusion_lon": 0.0, "lon": -76.99219333333333, "name": "842d0d66d9a81f3b922d00cdf4c16a5d", "is_disabled": 0, "rental_uris": {"android": "https://dc.lft.to/lastmile_qr_scan", "ios": "https://dc.lft.to/lastmile_qr_scan"}, "type": "electric_bike", "lat": 38.89738916666667, "is_reserved": 0, "fusion_lat": 0.0}, {"bike_id": "29134704933ec1d6a344189da4864c7e", "fusion_lon": 0.0, "lon": -77.0441805, "name": "29134704933ec1d6a344189da4864c7e", "is_disabled": 0, "rental_uris": {"android": "https://dc.lft.to/lastmile_qr_scan", "ios": "https://dc.lft.to/lastmile_qr_scan"}, "type": "electric_bike", "lat": 39.0157055, "is_reserved": 0, "fusion_lat": 0.0}, {"bike_id": "2d2ef1d658e28a90f92e2295a0a7adc2", "fusion_lon": 0.0, "lon": -77.03213133333334, "name": "2d2ef1d658e28a90f92e2295a0a7adc2", "is_disabled": 0, "rental_uris": {"android": "https://dc.lft.to/lastmile_qr_scan", "ios": "https://dc.lft.to/lastmile_qr_scan"}, "type": "electric_scooter", "lat": 38.914021166666664, "is_reserved": 0, "fusion_lat": 0.0}, {"bike_id": "709e2f2bdeb40f45ffd666dbd24a7a3b", "fusion_lon": 0.0, "lon": -76.99872466666666, "name": "709e2f2bdeb40f45ffd666dbd24a7a3b", "is_disabled": 0, "rental_uris": {"android": "https://dc.lft.to/lastmile_qr_scan", "ios": "https://dc.lft.to/lastmile_qr_scan"}, "type": "electric_scooter", "lat": 38.900292, "is_reserved": 0, "fusion_lat": 0.0}, {"bike_id": "18a68c0d58f9f0e92e18242ab4289c8c", "fusion_lon": 0.0, "lon": -76.9837155, "name": "18a68c0d58f9f0e92e18242ab4289c8c", "is_disabled": 0, "rental_uris": {"android": "https://dc.lft.to/lastmile_qr_scan", "ios": "https://dc.lft.to/lastmile_qr_scan"}, "type": "electric_bike", "lat": 38.87834516666667, "is_reserved": 0, "fusion_lat": 0.0}, {"bike_id": "404a20e81e0a7ffeee71df44dd648c35", "fusion_lon": 0.0, "lon": -77.01294833333333, "name": "404a20e81e0a7ffeee71df44dd648c35", "is_disabled": 0, "rental_uris": {"android": "https://dc.lft.to/lastmile_qr_scan", "ios": "https://dc.lft.to/lastmile_qr_scan"}, "type": "electric_scooter", "lat": 38.881491833333335, "is_reserved": 0, "fusion_lat": 0.0}, {"bike_id": "527ba9b21ac25f88716ef5976113fd5e", "fusion_lon": 0.0, "lon": -77.02289066666667, "name": "527ba9b21ac25f88716ef5976113fd5e", "is_disabled": 0, "rental_uris": {"android": "https://dc.lft.to/lastmile_qr_scan", "ios": "https://dc.lft.to/lastmile_qr_scan"}, "type": "electric_scooter", "lat": 38.90186766666667, "is_reserved": 0, "fusion_lat": 0.0}, {"bike_id": "d65a852eb0896ba5f4a43761bcc5ebda", "fusion_lon": 0.0, "lon": -77.187376, "name": "d65a852eb0896ba5f4a43761bcc5ebda", "is_disabled": 0, "rental_uris": {"android": "https://dc.lft.to/lastmile_qr_scan", "ios": "https://dc.lft.to/lastmile_qr_scan"}, "type": "electric_bike", "lat": 38.89356816666667, "is_reserved": 0, "fusion_lat": 0.0}, {"bike_id": "eebd91ec8c1f80a3514de9067c789493", "fusion_lon": 0.0, "lon": -77.02048016666667, "name": "eebd91ec8c1f80a3514de9067c789493", "is_disabled": 0, "rental_uris": {"android": "https://dc.lft.to/lastmile_qr_scan", "ios": "https://dc.lft.to/lastmile_qr_scan"}, "type": "electric_scooter", "lat": 38.915578833333335, "is_reserved": 0, "fusion_lat": 0.0}, {"bike_id": "94b234bc6bb6ca00a1cb51c98ad60950", "fusion_lon": 0.0, "lon": -77.03744016666667, "name": "94b234bc6bb6ca00a1cb51c98ad60950", "is_disabled": 0, "rental_uris": {"android": "https://dc.lft.to/lastmile_qr_scan", "ios": "https://dc.lft.to/lastmile_qr_scan"}, "type": "electric_scooter", "lat": 38.9066285, "is_reserved": 0, "fusion_lat": 0.0}, {"bike_id": "d72fe60c346095443954927d1792ce15", "fusion_lon": 0.0, "lon": -77.02410866666666, "name": "d72fe60c346095443954927d1792ce15", "is_disabled": 0, "rental_uris": {"android": "https://dc.lft.to/lastmile_qr_scan", "ios": "https://dc.lft.to/lastmile_qr_scan"}, "type": "electric_scooter", "lat": 38.91701416666667, "is_reserved": 0, "fusion_lat": 0.0}, {"bike_id": "e1e274c322c5ba9967235e57c89e4657", "fusion_lon": 0.0, "lon": -77.04365816666666, "name": "e1e274c322c5ba9967235e57c89e4657", "is_disabled": 0, "rental_uris": {"android": "https://dc.lft.to/lastmile_qr_scan", "ios": "https://dc.lft.to/lastmile_qr_scan"}, "type": "electric_scooter", "lat": 38.89225716666667, "is_reserved": 0, "fusion_lat": 0.0}, {"bike_id": "666d92ae2bc9efdb3c50eeab73cb02b1", "fusion_lon": 0.0, "lon": -77.04868283333333, "name": "666d92ae2bc9efdb3c50eeab73cb02b1", "is_disabled": 0, "rental_uris": {"android": "https://dc.lft.to/lastmile_qr_scan", "ios": "https://dc.lft.to/lastmile_qr_scan"}, "type": "electric_scooter", "lat": 38.90979866666667, "is_reserved": 0, "fusion_lat": 0.0}, {"bike_id": "678f127acb8bc23edb3b610d3ed7fe35", "fusion_lon": 0.0, "lon": -77.014147, "name": "678f127acb8bc23edb3b610d3ed7fe35", "is_disabled": 0, "rental_uris": {"android": "https://dc.lft.to/lastmile_qr_scan", "ios": "https://dc.lft.to/lastmile_qr_scan"}, "type": "electric_scooter", "lat": 38.88121533333333, "is_reserved": 0, "fusion_lat": 0.0}, {"bike_id": "2560a05fd948923f6a4aa03466896f69", "fusion_lon": 0.0, "lon": -77.02957583333334, "name": "2560a05fd948923f6a4aa03466896f69", "is_disabled": 0, "rental_uris": {"android": "https://dc.lft.to/lastmile_qr_scan", "ios": "https://dc.lft.to/lastmile_qr_scan"}, "type": "electric_scooter", "lat": 38.92326516666667, "is_reserved": 0, "fusion_lat": 0.0}, {"bike_id": "5ce347088d00dc0b3819e4b23d5e19d7", "fusion_lon": 0.0, "lon": -76.99025183333333, "name": "5ce347088d00dc0b3819e4b23d5e19d7", "is_disabled": 0, "rental_uris": {"android": "https://dc.lft.to/lastmile_qr_scan", "ios": "https://dc.lft.to/lastmile_qr_scan"}, "type": "electric_scooter", "lat": 38.89850466666667, "is_reserved": 0, "fusion_lat": 0.0}, {"bike_id": "95f460ef7444591608aa046f4e710827", "fusion_lon": 0.0, "lon": -77.03263433333333, "name": "95f460ef7444591608aa046f4e710827", "is_disabled": 0, "rental_uris": {"android": "https://dc.lft.to/lastmile_qr_scan", "ios": "https://dc.lft.to/lastmile_qr_scan"}, "type": "electric_scooter", "lat": 38.93244683333333, "is_reserved": 0, "fusion_lat": 0.0}, {"bike_id": "235107c1f5837cb531bb24e04e29b9e5", "fusion_lon": 0.0, "lon": -77.05855466666667, "name": "235107c1f5837cb531bb24e04e29b9e5", "is_disabled": 0, "rental_uris": {"android": "https://dc.lft.to/lastmile_qr_scan", "ios": "https://dc.lft.to/lastmile_qr_scan"}, "type": "electric_scooter", "lat": 38.936105833333336, "is_reserved": 0, "fusion_lat": 0.0}, {"bike_id": "4481abdc0d2cff7d6e33aec81a430630", "fusion_lon": 0.0, "lon": -77.03093833333334, "name": "4481abdc0d2cff7d6e33aec81a430630", "is_disabled": 0, "rental_uris": {"android": "https://dc.lft.to/lastmile_qr_scan", "ios": "https://dc.lft.to/lastmile_qr_scan"}, "type": "electric_scooter", "lat": 38.91915316666667, "is_reserved": 0, "fusion_lat": 0.0}, {"bike_id": "815b593916fd665aca94dde6977c0cb4", "fusion_lon": 0.0, "lon": -77.0296165, "name": "815b593916fd665aca94dde6977c0cb4", "is_disabled": 0, "rental_uris": {"android": "https://dc.lft.to/lastmile_qr_scan", "ios": "https://dc.lft.to/lastmile_qr_scan"}, "type": "electric_scooter", "lat": 38.923647833333334, "is_reserved": 0, "fusion_lat": 0.0}, {"bike_id": "f81a48f4e1fb3f12f7b8b6606b2097d0", "fusion_lon": 0.0, "lon": -77.00804966666666, "name": "f81a48f4e1fb3f12f7b8b6606b2097d0", "is_disabled": 0, "rental_uris": {"android": "https://dc.lft.to/lastmile_qr_scan", "ios": "https://dc.lft.to/lastmile_qr_scan"}, "type": "electric_bike", "lat": 38.94923716666667, "is_reserved": 0, "fusion_lat": 0.0}, {"bike_id": "87bd8b7c0bbb9e056b75b132e43ed863", "fusion_lon": 0.0, "lon": -77.03122983333333, "name": "87bd8b7c0bbb9e056b75b132e43ed863", "is_disabled": 0, "rental_uris": {"android": "https://dc.lft.to/lastmile_qr_scan", "ios": "https://dc.lft.to/lastmile_qr_scan"}, "type": "electric_scooter", "lat": 38.915608666666664, "is_reserved": 0, "fusion_lat": 0.0}, {"bike_id": "8ae034b7b5318aaada354ecf3c6d781b", "fusion_lon": 0.0, "lon": -77.04019283333334, "name": "8ae034b7b5318aaada354ecf3c6d781b", "is_disabled": 0, "rental_uris": {"android": "https://dc.lft.to/lastmile_qr_scan", "ios": "https://dc.lft.to/lastmile_qr_scan"}, "type": "electric_scooter", "lat": 38.92176083333333, "is_reserved": 0, "fusion_lat": 0.0}, {"bike_id": "646662299d851c082158543f03018312", "fusion_lon": 0.0, "lon": -77.04277533333334, "name": "646662299d851c082158543f03018312", "is_disabled": 0, "rental_uris": {"android": "https://dc.lft.to/lastmile_qr_scan", "ios": "https://dc.lft.to/lastmile_qr_scan"}, "type": "electric_scooter", "lat": 38.9141755, "is_reserved": 0, "fusion_lat": 0.0}, {"bike_id": "c762be157cf5952631579ee6d9a94426", "fusion_lon": 0.0, "lon": -77.05141733333333, "name": "c762be157cf5952631579ee6d9a94426", "is_disabled": 0, "rental_uris": {"android": "https://dc.lft.to/lastmile_qr_scan", "ios": "https://dc.lft.to/lastmile_qr_scan"}, "type": "electric_scooter", "lat": 38.90444266666667, "is_reserved": 0, "fusion_lat": 0.0}, {"bike_id": "8647044b80f07467d8f5c7a0d1c82d22", "fusion_lon": 0.0, "lon": -77.03650366666666, "name": "8647044b80f07467d8f5c7a0d1c82d22", "is_disabled": 0, "rental_uris": {"android": "https://dc.lft.to/lastmile_qr_scan", "ios": "https://dc.lft.to/lastmile_qr_scan"}, "type": "electric_scooter", "lat": 38.9348665, "is_reserved": 0, "fusion_lat": 0.0}, {"bike_id": "7e24dbff2f8d513ae9a367c71c3c9036", "fusion_lon": 0.0, "lon": -77.0292285, "name": "7e24dbff2f8d513ae9a367c71c3c9036", "is_disabled": 0, "rental_uris": {"android": "https://dc.lft.to/lastmile_qr_scan", "ios": "https://dc.lft.to/lastmile_qr_scan"}, "type": "electric_scooter", "lat": 38.93324466666667, "is_reserved": 0, "fusion_lat": 0.0}, {"bike_id": "52f6b44c4e053752ba951d44bc04a5a5", "fusion_lon": 0.0, "lon": -77.0316875, "name": "52f6b44c4e053752ba951d44bc04a5a5", "is_disabled": 0, "rental_uris": {"android": "https://dc.lft.to/lastmile_qr_scan", "ios": "https://dc.lft.to/lastmile_qr_scan"}, "type": "electric_scooter", "lat": 38.9210745, "is_reserved": 0, "fusion_lat": 0.0}, {"bike_id": "fe34ab4b32a8680a4526890d67ccede9", "fusion_lon": 0.0, "lon": -77.03284783333334, "name": "fe34ab4b32a8680a4526890d67ccede9", "is_disabled": 0, "rental_uris": {"android": "https://dc.lft.to/lastmile_qr_scan", "ios": "https://dc.lft.to/lastmile_qr_scan"}, "type": "electric_scooter", "lat": 38.95645666666667, "is_reserved": 0, "fusion_lat": 0.0}, {"bike_id": "924035bd17e385759b0011c85561c90c", "fusion_lon": 0.0, "lon": -77.03708583333334, "name": "924035bd17e385759b0011c85561c90c", "is_disabled": 0, "rental_uris": {"android": "https://dc.lft.to/lastmile_qr_scan", "ios": "https://dc.lft.to/lastmile_qr_scan"}, "type": "electric_scooter", "lat": 38.9096935, "is_reserved": 0, "fusion_lat": 0.0}, {"bike_id": "d027c30aa9e01b30f454a95865e71acc", "fusion_lon": 0.0, "lon": -77.03644, "name": "d027c30aa9e01b30f454a95865e71acc", "is_disabled": 0, "rental_uris": {"android": "https://dc.lft.to/lastmile_qr_scan", "ios": "https://dc.lft.to/lastmile_qr_scan"}, "type": "electric_scooter", "lat": 38.913093833333335, "is_reserved": 0, "fusion_lat": 0.0}, {"bike_id": "0c7e433fdb5a95f39fb9dc5b1a0ca132", "fusion_lon": 0.0, "lon": -76.93159533333333, "name": "0c7e433fdb5a95f39fb9dc5b1a0ca132", "is_disabled": 0, "rental_uris": {"android": "https://dc.lft.to/lastmile_qr_scan", "ios": "https://dc.lft.to/lastmile_qr_scan"}, "type": "electric_scooter", "lat": 38.8987635, "is_reserved": 0, "fusion_lat": 0.0}, {"bike_id": "1818bbb13e4c16922cc3875ec813f5d4", "fusion_lon": 0.0, "lon": -77.0332815, "name": "1818bbb13e4c16922cc3875ec813f5d4", "is_disabled": 0, "rental_uris": {"android": "https://dc.lft.to/lastmile_qr_scan", "ios": "https://dc.lft.to/lastmile_qr_scan"}, "type": "electric_scooter", "lat": 38.92156666666666, "is_reserved": 0, "fusion_lat": 0.0}, {"bike_id": "a64ccc83a06a27a3bbd1c6188a365da5", "fusion_lon": 0.0, "lon": -77.04827233333333, "name": "a64ccc83a06a27a3bbd1c6188a365da5", "is_disabled": 0, "rental_uris": {"android": "https://dc.lft.to/lastmile_qr_scan", "ios": "https://dc.lft.to/lastmile_qr_scan"}, "type": "electric_scooter", "lat": 38.90726183333334, "is_reserved": 0, "fusion_lat": 0.0}, {"bike_id": "40e843615aa737c9c641a156f880fb31", "fusion_lon": 0.0, "lon": -77.03262583333333, "name": "40e843615aa737c9c641a156f880fb31", "is_disabled": 0, "rental_uris": {"android": "https://dc.lft.to/lastmile_qr_scan", "ios": "https://dc.lft.to/lastmile_qr_scan"}, "type": "electric_scooter", "lat": 38.93307133333333, "is_reserved": 0, "fusion_lat": 0.0}, {"bike_id": "7e8b74c522256cc1f9cd699f643c2fb2", "fusion_lon": 0.0, "lon": -77.05288616666667, "name": "7e8b74c522256cc1f9cd699f643c2fb2", "is_disabled": 0, "rental_uris": {"android": "https://dc.lft.to/lastmile_qr_scan", "ios": "https://dc.lft.to/lastmile_qr_scan"}, "type": "electric_scooter", "lat": 38.92735416666667, "is_reserved": 0, "fusion_lat": 0.0}, {"bike_id": "6950a30d94ecb02d886e5178f46def8e", "fusion_lon": 0.0, "lon": -77.00562216666667, "name": "6950a30d94ecb02d886e5178f46def8e", "is_disabled": 0, "rental_uris": {"android": "https://dc.lft.to/lastmile_qr_scan", "ios": "https://dc.lft.to/lastmile_qr_scan"}, "type": "electric_scooter", "lat": 38.90569766666667, "is_reserved": 0, "fusion_lat": 0.0}, {"bike_id": "ac9c626cfcfc5b29c4db52fbc2d93d9d", "fusion_lon": 0.0, "lon": -77.002969, "name": "ac9c626cfcfc5b29c4db52fbc2d93d9d", "is_disabled": 0, "rental_uris": {"android": "https://dc.lft.to/lastmile_qr_scan", "ios": "https://dc.lft.to/lastmile_qr_scan"}, "type": "electric_scooter", "lat": 38.9090215, "is_reserved": 0, "fusion_lat": 0.0}, {"bike_id": "85402593011485e658164e79ca5b4d83", "fusion_lon": 0.0, "lon": -77.0542825, "name": "85402593011485e658164e79ca5b4d83", "is_disabled": 0, "rental_uris": {"android": "https://dc.lft.to/lastmile_qr_scan", "ios": "https://dc.lft.to/lastmile_qr_scan"}, "type": "electric_scooter", "lat": 38.923407, "is_reserved": 0, "fusion_lat": 0.0}, {"bike_id": "17133d222e6d29610c14cbbc5c13e798", "fusion_lon": 0.0, "lon": -77.02286983333333, "name": "17133d222e6d29610c14cbbc5c13e798", "is_disabled": 0, "rental_uris": {"android": "https://dc.lft.to/lastmile_qr_scan", "ios": "https://dc.lft.to/lastmile_qr_scan"}, "type": "electric_scooter", "lat": 38.91565083333333, "is_reserved": 0, "fusion_lat": 0.0}, {"bike_id": "5ba0ac0252f28396c0624fb3ef6031cc", "fusion_lon": 0.0, "lon": -77.03800766666667, "name": "5ba0ac0252f28396c0624fb3ef6031cc", "is_disabled": 0, "rental_uris": {"android": "https://dc.lft.to/lastmile_qr_scan", "ios": "https://dc.lft.to/lastmile_qr_scan"}, "type": "electric_scooter", "lat": 38.921943166666665, "is_reserved": 0, "fusion_lat": 0.0}, {"bike_id": "e87adafde14c766e7c8d72cbf00b4ed4", "fusion_lon": 0.0, "lon": -77.05291133333333, "name": "e87adafde14c766e7c8d72cbf00b4ed4", "is_disabled": 0, "rental_uris": {"android": "https://dc.lft.to/lastmile_qr_scan", "ios": "https://dc.lft.to/lastmile_qr_scan"}, "type": "electric_scooter", "lat": 38.904232666666665, "is_reserved": 0, "fusion_lat": 0.0}, {"bike_id": "a5216974095fef3e8256b1edc022b275", "fusion_lon": 0.0, "lon": -77.05259233333334, "name": "a5216974095fef3e8256b1edc022b275", "is_disabled": 0, "rental_uris": {"android": "https://dc.lft.to/lastmile_qr_scan", "ios": "https://dc.lft.to/lastmile_qr_scan"}, "type": "electric_scooter", "lat": 38.8997225, "is_reserved": 0, "fusion_lat": 0.0}, {"bike_id": "b7bacf8c2cd4717166f3c9d221e85a89", "fusion_lon": 0.0, "lon": -77.0097975, "name": "b7bacf8c2cd4717166f3c9d221e85a89", "is_disabled": 0, "rental_uris": {"android": "https://dc.lft.to/lastmile_qr_scan", "ios": "https://dc.lft.to/lastmile_qr_scan"}, "type": "electric_scooter", "lat": 38.915608166666665, "is_reserved": 0, "fusion_lat": 0.0}, {"bike_id": "97f49182a41aabbed51e85461721f3d8", "fusion_lon": 0.0, "lon": -77.03832483333333, "name": "97f49182a41aabbed51e85461721f3d8", "is_disabled": 0, "rental_uris": {"android": "https://dc.lft.to/lastmile_qr_scan", "ios": "https://dc.lft.to/lastmile_qr_scan"}, "type": "electric_scooter", "lat": 38.90967333333333, "is_reserved": 0, "fusion_lat": 0.0}, {"bike_id": "6702e23da801e6843b5914d85b35c6f0", "fusion_lon": 0.0, "lon": -77.03481466666666, "name": "6702e23da801e6843b5914d85b35c6f0", "is_disabled": 0, "rental_uris": {"android": "https://dc.lft.to/lastmile_qr_scan", "ios": "https://dc.lft.to/lastmile_qr_scan"}, "type": "electric_scooter", "lat": 38.9327405, "is_reserved": 0, "fusion_lat": 0.0}, {"bike_id": "9f738ac7fa29c7538601dc23e9a7e1f1", "fusion_lon": 0.0, "lon": -77.036582, "name": "9f738ac7fa29c7538601dc23e9a7e1f1", "is_disabled": 0, "rental_uris": {"android": "https://dc.lft.to/lastmile_qr_scan", "ios": "https://dc.lft.to/lastmile_qr_scan"}, "type": "electric_scooter", "lat": 38.920929, "is_reserved": 0, "fusion_lat": 0.0}, {"bike_id": "a336c284e66d22e324b4511073c0c5c8", "fusion_lon": 0.0, "lon": -77.01623466666666, "name": "a336c284e66d22e324b4511073c0c5c8", "is_disabled": 0, "rental_uris": {"android": "https://dc.lft.to/lastmile_qr_scan", "ios": "https://dc.lft.to/lastmile_qr_scan"}, "type": "electric_scooter", "lat": 38.90255583333333, "is_reserved": 0, "fusion_lat": 0.0}, {"bike_id": "a1d22835e56f4619a5d060531f45f38e", "fusion_lon": 0.0, "lon": -77.061892, "name": "a1d22835e56f4619a5d060531f45f38e", "is_disabled": 0, "rental_uris": {"android": "https://dc.lft.to/lastmile_qr_scan", "ios": "https://dc.lft.to/lastmile_qr_scan"}, "type": "electric_scooter", "lat": 38.944494666666664, "is_reserved": 0, "fusion_lat": 0.0}, {"bike_id": "868df7c8b0fb4773e6f09cf826ad75ea", "fusion_lon": 0.0, "lon": -77.0504815, "name": "868df7c8b0fb4773e6f09cf826ad75ea", "is_disabled": 0, "rental_uris": {"android": "https://dc.lft.to/lastmile_qr_scan", "ios": "https://dc.lft.to/lastmile_qr_scan"}, "type": "electric_scooter", "lat": 38.92346466666667, "is_reserved": 0, "fusion_lat": 0.0}, {"bike_id": "c20c6b76d06a1ad83725ba6472be193d", "fusion_lon": 0.0, "lon": -77.0455145, "name": "c20c6b76d06a1ad83725ba6472be193d", "is_disabled": 0, "rental_uris": {"android": "https://dc.lft.to/lastmile_qr_scan", "ios": "https://dc.lft.to/lastmile_qr_scan"}, "type": "electric_scooter", "lat": 38.924221833333334, "is_reserved": 0, "fusion_lat": 0.0}, {"bike_id": "e96523d0749c2780eb1a3fcc3af736d0", "fusion_lon": 0.0, "lon": -77.0269675, "name": "e96523d0749c2780eb1a3fcc3af736d0", "is_disabled": 0, "rental_uris": {"android": "https://dc.lft.to/lastmile_qr_scan", "ios": "https://dc.lft.to/lastmile_qr_scan"}, "type": "electric_scooter", "lat": 38.918048, "is_reserved": 0, "fusion_lat": 0.0}, {"bike_id": "4ad7dd33779b8696e71738cab69644d2", "fusion_lon": 0.0, "lon": -76.99946716666666, "name": "4ad7dd33779b8696e71738cab69644d2", "is_disabled": 0, "rental_uris": {"android": "https://dc.lft.to/lastmile_qr_scan", "ios": "https://dc.lft.to/lastmile_qr_scan"}, "type": "electric_scooter", "lat": 38.8429375, "is_reserved": 0, "fusion_lat": 0.0}, {"bike_id": "4c4775c9b728a4e0ef8c806051070622", "fusion_lon": 0.0, "lon": -77.03901966666666, "name": "4c4775c9b728a4e0ef8c806051070622", "is_disabled": 0, "rental_uris": {"android": "https://dc.lft.to/lastmile_qr_scan", "ios": "https://dc.lft.to/lastmile_qr_scan"}, "type": "electric_scooter", "lat": 38.915466, "is_reserved": 0, "fusion_lat": 0.0}, {"bike_id": "9b80734768945dad7188b5ed07a7b566", "fusion_lon": 0.0, "lon": -76.98400933333333, "name": "9b80734768945dad7188b5ed07a7b566", "is_disabled": 0, "rental_uris": {"android": "https://dc.lft.to/lastmile_qr_scan", "ios": "https://dc.lft.to/lastmile_qr_scan"}, "type": "electric_scooter", "lat": 38.866988166666665, "is_reserved": 0, "fusion_lat": 0.0}, {"bike_id": "7874d4e967cbfcd14a865882a5bda088", "fusion_lon": 0.0, "lon": -77.03373283333333, "name": "7874d4e967cbfcd14a865882a5bda088", "is_disabled": 0, "rental_uris": {"android": "https://dc.lft.to/lastmile_qr_scan", "ios": "https://dc.lft.to/lastmile_qr_scan"}, "type": "electric_scooter", "lat": 38.9223355, "is_reserved": 0, "fusion_lat": 0.0}, {"bike_id": "71493b6f6cebb4c1c5431f34e24590d3", "fusion_lon": 0.0, "lon": -77.034804, "name": "71493b6f6cebb4c1c5431f34e24590d3", "is_disabled": 0, "rental_uris": {"android": "https://dc.lft.to/lastmile_qr_scan", "ios": "https://dc.lft.to/lastmile_qr_scan"}, "type": "electric_scooter", "lat": 38.92483633333333, "is_reserved": 0, "fusion_lat": 0.0}, {"bike_id": "b8a7313986fa4f5b4359cf375cd74026", "fusion_lon": 0.0, "lon": -76.93735466666666, "name": "b8a7313986fa4f5b4359cf375cd74026", "is_disabled": 0, "rental_uris": {"android": "https://dc.lft.to/lastmile_qr_scan", "ios": "https://dc.lft.to/lastmile_qr_scan"}, "type": "electric_scooter", "lat": 38.89015966666667, "is_reserved": 0, "fusion_lat": 0.0}, {"bike_id": "7929011f826d2643eda61839c88f1c66", "fusion_lon": 0.0, "lon": -77.02177583333334, "name": "7929011f826d2643eda61839c88f1c66", "is_disabled": 0, "rental_uris": {"android": "https://dc.lft.to/lastmile_qr_scan", "ios": "https://dc.lft.to/lastmile_qr_scan"}, "type": "electric_scooter", "lat": 38.918986, "is_reserved": 0, "fusion_lat": 0.0}, {"bike_id": "d86808e01b359dd5fdcba9e76ab19809", "fusion_lon": 0.0, "lon": -77.02141833333333, "name": "d86808e01b359dd5fdcba9e76ab19809", "is_disabled": 0, "rental_uris": {"android": "https://dc.lft.to/lastmile_qr_scan", "ios": "https://dc.lft.to/lastmile_qr_scan"}, "type": "electric_scooter", "lat": 38.89950666666667, "is_reserved": 0, "fusion_lat": 0.0}, {"bike_id": "4f305ffd3137368fdc9bb3e794e26fd3", "fusion_lon": 0.0, "lon": -77.025284, "name": "4f305ffd3137368fdc9bb3e794e26fd3", "is_disabled": 0, "rental_uris": {"android": "https://dc.lft.to/lastmile_qr_scan", "ios": "https://dc.lft.to/lastmile_qr_scan"}, "type": "electric_scooter", "lat": 38.92487966666667, "is_reserved": 0, "fusion_lat": 0.0}, {"bike_id": "c964535a40385f37659f3c2db777395f", "fusion_lon": 0.0, "lon": -77.02574566666667, "name": "c964535a40385f37659f3c2db777395f", "is_disabled": 0, "rental_uris": {"android": "https://dc.lft.to/lastmile_qr_scan", "ios": "https://dc.lft.to/lastmile_qr_scan"}, "type": "electric_scooter", "lat": 38.92704233333333, "is_reserved": 0, "fusion_lat": 0.0}, {"bike_id": "e1d2ea2faa669fe423fc5db334172233", "fusion_lon": 0.0, "lon": -77.00187316666667, "name": "e1d2ea2faa669fe423fc5db334172233", "is_disabled": 0, "rental_uris": {"android": "https://dc.lft.to/lastmile_qr_scan", "ios": "https://dc.lft.to/lastmile_qr_scan"}, "type": "electric_scooter", "lat": 38.900407666666666, "is_reserved": 0, "fusion_lat": 0.0}, {"bike_id": "13ce4d4a312aeb274e747088a176378f", "fusion_lon": 0.0, "lon": -77.04921866666666, "name": "13ce4d4a312aeb274e747088a176378f", "is_disabled": 0, "rental_uris": {"android": "https://dc.lft.to/lastmile_qr_scan", "ios": "https://dc.lft.to/lastmile_qr_scan"}, "type": "electric_scooter", "lat": 38.90072383333333, "is_reserved": 0, "fusion_lat": 0.0}, {"bike_id": "724fe75393c94d2a6036589b994445c9", "fusion_lon": 0.0, "lon": -77.04452783333333, "name": "724fe75393c94d2a6036589b994445c9", "is_disabled": 0, "rental_uris": {"android": "https://dc.lft.to/lastmile_qr_scan", "ios": "https://dc.lft.to/lastmile_qr_scan"}, "type": "electric_scooter", "lat": 38.91854566666667, "is_reserved": 0, "fusion_lat": 0.0}, {"bike_id": "18cb247a10bd8b483c6cc45dd5a78764", "fusion_lon": 0.0, "lon": -77.043225, "name": "18cb247a10bd8b483c6cc45dd5a78764", "is_disabled": 0, "rental_uris": {"android": "https://dc.lft.to/lastmile_qr_scan", "ios": "https://dc.lft.to/lastmile_qr_scan"}, "type": "electric_scooter", "lat": 38.89222433333333, "is_reserved": 0, "fusion_lat": 0.0}, {"bike_id": "663a03266deef43794ceefab1ec4e1e0", "fusion_lon": 0.0, "lon": -77.017534, "name": "663a03266deef43794ceefab1ec4e1e0", "is_disabled": 0, "rental_uris": {"android": "https://dc.lft.to/lastmile_qr_scan", "ios": "https://dc.lft.to/lastmile_qr_scan"}, "type": "electric_scooter", "lat": 38.911080166666665, "is_reserved": 0, "fusion_lat": 0.0}, {"bike_id": "0fa394afe02795eb813351e96d5c9b99", "fusion_lon": 0.0, "lon": -76.98927133333333, "name": "0fa394afe02795eb813351e96d5c9b99", "is_disabled": 0, "rental_uris": {"android": "https://dc.lft.to/lastmile_qr_scan", "ios": "https://dc.lft.to/lastmile_qr_scan"}, "type": "electric_scooter", "lat": 38.84071333333333, "is_reserved": 0, "fusion_lat": 0.0}, {"bike_id": "a911e58fd2aabc4cb82938f512fc2ea5", "fusion_lon": 0.0, "lon": -77.03512783333333, "name": "a911e58fd2aabc4cb82938f512fc2ea5", "is_disabled": 0, "rental_uris": {"android": "https://dc.lft.to/lastmile_qr_scan", "ios": "https://dc.lft.to/lastmile_qr_scan"}, "type": "electric_scooter", "lat": 38.93595916666666, "is_reserved": 0, "fusion_lat": 0.0}, {"bike_id": "0074ef2d95586260abe617aafa0b5fc8", "fusion_lon": 0.0, "lon": -77.01680033333334, "name": "0074ef2d95586260abe617aafa0b5fc8", "is_disabled": 0, "rental_uris": {"android": "https://dc.lft.to/lastmile_qr_scan", "ios": "https://dc.lft.to/lastmile_qr_scan"}, "type": "electric_scooter", "lat": 38.9072725, "is_reserved": 0, "fusion_lat": 0.0}, {"bike_id": "4a11d2bc7e92593c1a5791ede15faa0d", "fusion_lon": 0.0, "lon": -76.98535916666667, "name": "4a11d2bc7e92593c1a5791ede15faa0d", "is_disabled": 0, "rental_uris": {"android": "https://dc.lft.to/lastmile_qr_scan", "ios": "https://dc.lft.to/lastmile_qr_scan"}, "type": "electric_scooter", "lat": 38.8665325, "is_reserved": 0, "fusion_lat": 0.0}, {"bike_id": "b92262e127c23ad56f8ec264ebd8d244", "fusion_lon": 0.0, "lon": -77.02568733333334, "name": "b92262e127c23ad56f8ec264ebd8d244", "is_disabled": 0, "rental_uris": {"android": "https://dc.lft.to/lastmile_qr_scan", "ios": "https://dc.lft.to/lastmile_qr_scan"}, "type": "electric_scooter", "lat": 38.89227733333333, "is_reserved": 0, "fusion_lat": 0.0}, {"bike_id": "8ccb8cd4fdbf53bfe27f60ffe5bd8645", "fusion_lon": 0.0, "lon": -77.024763, "name": "8ccb8cd4fdbf53bfe27f60ffe5bd8645", "is_disabled": 0, "rental_uris": {"android": "https://dc.lft.to/lastmile_qr_scan", "ios": "https://dc.lft.to/lastmile_qr_scan"}, "type": "electric_scooter", "lat": 38.919099333333335, "is_reserved": 0, "fusion_lat": 0.0}, {"bike_id": "560f03503b28b1666bdc2c0ec14aba7f", "fusion_lon": 0.0, "lon": -77.026734, "name": "560f03503b28b1666bdc2c0ec14aba7f", "is_disabled": 0, "rental_uris": {"android": "https://dc.lft.to/lastmile_qr_scan", "ios": "https://dc.lft.to/lastmile_qr_scan"}, "type": "electric_scooter", "lat": 38.8982345, "is_reserved": 0, "fusion_lat": 0.0}, {"bike_id": "b10190ea6198cbb8524facbc4472d0dc", "fusion_lon": 0.0, "lon": -77.04876633333333, "name": "b10190ea6198cbb8524facbc4472d0dc", "is_disabled": 0, "rental_uris": {"android": "https://dc.lft.to/lastmile_qr_scan", "ios": "https://dc.lft.to/lastmile_qr_scan"}, "type": "electric_scooter", "lat": 38.90979216666667, "is_reserved": 0, "fusion_lat": 0.0}, {"bike_id": "de1c0935e0493460f9212cd980c770c7", "fusion_lon": 0.0, "lon": -77.0271895, "name": "de1c0935e0493460f9212cd980c770c7", "is_disabled": 0, "rental_uris": {"android": "https://dc.lft.to/lastmile_qr_scan", "ios": "https://dc.lft.to/lastmile_qr_scan"}, "type": "electric_scooter", "lat": 38.94958466666667, "is_reserved": 0, "fusion_lat": 0.0}, {"bike_id": "b64a55abd7f0d2ff4b35d8dc273b8a4e", "fusion_lon": 0.0, "lon": -77.00200583333333, "name": "b64a55abd7f0d2ff4b35d8dc273b8a4e", "is_disabled": 0, "rental_uris": {"android": "https://dc.lft.to/lastmile_qr_scan", "ios": "https://dc.lft.to/lastmile_qr_scan"}, "type": "electric_scooter", "lat": 38.902481333333334, "is_reserved": 0, "fusion_lat": 0.0}, {"bike_id": "a85cd07fb94cb86643b78c67ae8f07ba", "fusion_lon": 0.0, "lon": -77.0159955, "name": "a85cd07fb94cb86643b78c67ae8f07ba", "is_disabled": 0, "rental_uris": {"android": "https://dc.lft.to/lastmile_qr_scan", "ios": "https://dc.lft.to/lastmile_qr_scan"}, "type": "electric_scooter", "lat": 38.920502166666665, "is_reserved": 0, "fusion_lat": 0.0}, {"bike_id": "8c843f2c4f14224987a21a35ca7cac4b", "fusion_lon": 0.0, "lon": -76.9318015, "name": "8c843f2c4f14224987a21a35ca7cac4b", "is_disabled": 0, "rental_uris": {"android": "https://dc.lft.to/lastmile_qr_scan", "ios": "https://dc.lft.to/lastmile_qr_scan"}, "type": "electric_scooter", "lat": 38.898789666666666, "is_reserved": 0, "fusion_lat": 0.0}, {"bike_id": "779f034f20782dd7a3df95246252bea5", "fusion_lon": 0.0, "lon": -77.10126316666667, "name": "779f034f20782dd7a3df95246252bea5", "is_disabled": 0, "rental_uris": {"android": "https://dc.lft.to/lastmile_qr_scan", "ios": "https://dc.lft.to/lastmile_qr_scan"}, "type": "electric_bike", "lat": 38.85209033333334, "is_reserved": 0, "fusion_lat": 0.0}, {"bike_id": "ca4707ad5020c7a85de0c8d4c5ba7747", "fusion_lon": 0.0, "lon": -77.00691516666667, "name": "ca4707ad5020c7a85de0c8d4c5ba7747", "is_disabled": 0, "rental_uris": {"android": "https://dc.lft.to/lastmile_qr_scan", "ios": "https://dc.lft.to/lastmile_qr_scan"}, "type": "electric_scooter", "lat": 38.8983865, "is_reserved": 0, "fusion_lat": 0.0}, {"bike_id": "18a54accfd0464af9d1380a2c2190e3b", "fusion_lon": 0.0, "lon": -77.03464983333333, "name": "18a54accfd0464af9d1380a2c2190e3b", "is_disabled": 0, "rental_uris": {"android": "https://dc.lft.to/lastmile_qr_scan", "ios": "https://dc.lft.to/lastmile_qr_scan"}, "type": "electric_scooter", "lat": 38.90868866666667, "is_reserved": 0, "fusion_lat": 0.0}, {"bike_id": "bbb6e1ba8f8faacb977f626f87c5857b", "fusion_lon": 0.0, "lon": -77.02149216666666, "name": "bbb6e1ba8f8faacb977f626f87c5857b", "is_disabled": 0, "rental_uris": {"android": "https://dc.lft.to/lastmile_qr_scan", "ios": "https://dc.lft.to/lastmile_qr_scan"}, "type": "electric_scooter", "lat": 38.92610066666667, "is_reserved": 0, "fusion_lat": 0.0}, {"bike_id": "d45980dc52fce126f1dafd36e6f1756a", "fusion_lon": 0.0, "lon": -77.02368116666666, "name": "d45980dc52fce126f1dafd36e6f1756a", "is_disabled": 0, "rental_uris": {"android": "https://dc.lft.to/lastmile_qr_scan", "ios": "https://dc.lft.to/lastmile_qr_scan"}, "type": "electric_scooter", "lat": 38.8921975, "is_reserved": 0, "fusion_lat": 0.0}, {"bike_id": "84a111c03848a12dcc8be50693ce762e", "fusion_lon": 0.0, "lon": -77.00937083333334, "name": "84a111c03848a12dcc8be50693ce762e", "is_disabled": 0, "rental_uris": {"android": "https://dc.lft.to/lastmile_qr_scan", "ios": "https://dc.lft.to/lastmile_qr_scan"}, "type": "electric_scooter", "lat": 38.91812566666667, "is_reserved": 0, "fusion_lat": 0.0}, {"bike_id": "646fac1061bda854f9f1fd13995254f9", "fusion_lon": 0.0, "lon": -76.96542916666667, "name": "646fac1061bda854f9f1fd13995254f9", "is_disabled": 0, "rental_uris": {"android": "https://dc.lft.to/lastmile_qr_scan", "ios": "https://dc.lft.to/lastmile_qr_scan"}, "type": "electric_scooter", "lat": 38.91853066666667, "is_reserved": 0, "fusion_lat": 0.0}, {"bike_id": "3f0fd3af95240527bf5a9f9388f6da16", "fusion_lon": 0.0, "lon": -77.029064, "name": "3f0fd3af95240527bf5a9f9388f6da16", "is_disabled": 0, "rental_uris": {"android": "https://dc.lft.to/lastmile_qr_scan", "ios": "https://dc.lft.to/lastmile_qr_scan"}, "type": "electric_scooter", "lat": 38.92571083333333, "is_reserved": 0, "fusion_lat": 0.0}, {"bike_id": "fc69a7d60b9fe472a25c5caea40be1e1", "fusion_lon": 0.0, "lon": -77.04051616666666, "name": "fc69a7d60b9fe472a25c5caea40be1e1", "is_disabled": 0, "rental_uris": {"android": "https://dc.lft.to/lastmile_qr_scan", "ios": "https://dc.lft.to/lastmile_qr_scan"}, "type": "electric_scooter", "lat": 38.905060666666664, "is_reserved": 0, "fusion_lat": 0.0}, {"bike_id": "37d2c1d7884af37e2b389a13851ebd40", "fusion_lon": 0.0, "lon": -77.03203466666666, "name": "37d2c1d7884af37e2b389a13851ebd40", "is_disabled": 0, "rental_uris": {"android": "https://dc.lft.to/lastmile_qr_scan", "ios": "https://dc.lft.to/lastmile_qr_scan"}, "type": "electric_scooter", "lat": 38.9155875, "is_reserved": 0, "fusion_lat": 0.0}, {"bike_id": "5a7135b68ab120f0f2c01da844bbda16", "fusion_lon": 0.0, "lon": -77.00066433333333, "name": "5a7135b68ab120f0f2c01da844bbda16", "is_disabled": 0, "rental_uris": {"android": "https://dc.lft.to/lastmile_qr_scan", "ios": "https://dc.lft.to/lastmile_qr_scan"}, "type": "electric_scooter", "lat": 38.9255265, "is_reserved": 0, "fusion_lat": 0.0}, {"bike_id": "3539e3493017c1cb898fdbdd422f757d", "fusion_lon": 0.0, "lon": -77.0230515, "name": "3539e3493017c1cb898fdbdd422f757d", "is_disabled": 0, "rental_uris": {"android": "https://dc.lft.to/lastmile_qr_scan", "ios": "https://dc.lft.to/lastmile_qr_scan"}, "type": "electric_scooter", "lat": 38.90966066666667, "is_reserved": 0, "fusion_lat": 0.0}, {"bike_id": "3ed7a3fc2c2f082e07c86461c79b034d", "fusion_lon": 0.0, "lon": -77.11849616666667, "name": "3ed7a3fc2c2f082e07c86461c79b034d", "is_disabled": 0, "rental_uris": {"android": "https://dc.lft.to/lastmile_qr_scan", "ios": "https://dc.lft.to/lastmile_qr_scan"}, "type": "electric_bike", "lat": 38.87732783333333, "is_reserved": 0, "fusion_lat": 0.0}, {"bike_id": "8cbd2b030dfc15957f9243d395173cd6", "fusion_lon": 0.0, "lon": -77.02208433333334, "name": "8cbd2b030dfc15957f9243d395173cd6", "is_disabled": 0, "rental_uris": {"android": "https://dc.lft.to/lastmile_qr_scan", "ios": "https://dc.lft.to/lastmile_qr_scan"}, "type": "electric_scooter", "lat": 38.87889766666667, "is_reserved": 0, "fusion_lat": 0.0}, {"bike_id": "e6107ffce70840ebdfa8d31778d720f9", "fusion_lon": 0.0, "lon": -76.93539866666667, "name": "e6107ffce70840ebdfa8d31778d720f9", "is_disabled": 0, "rental_uris": {"android": "https://dc.lft.to/lastmile_qr_scan", "ios": "https://dc.lft.to/lastmile_qr_scan"}, "type": "electric_bike", "lat": 38.951841333333334, "is_reserved": 0, "fusion_lat": 0.0}, {"bike_id": "687d4ad8adeb385e90794247ac998652", "fusion_lon": 0.0, "lon": -77.039607, "name": "687d4ad8adeb385e90794247ac998652", "is_disabled": 0, "rental_uris": {"android": "https://dc.lft.to/lastmile_qr_scan", "ios": "https://dc.lft.to/lastmile_qr_scan"}, "type": "electric_scooter", "lat": 38.906039, "is_reserved": 0, "fusion_lat": 0.0}, {"bike_id": "09afcd473c40e394d23af690c084f657", "fusion_lon": 0.0, "lon": -77.00596, "name": "09afcd473c40e394d23af690c084f657", "is_disabled": 0, "rental_uris": {"android": "https://dc.lft.to/lastmile_qr_scan", "ios": "https://dc.lft.to/lastmile_qr_scan"}, "type": "electric_scooter", "lat": 38.90571, "is_reserved": 0, "fusion_lat": 0.0}, {"bike_id": "54ed85e4b7a8a8a6e8a278a474b83708", "fusion_lon": 0.0, "lon": -76.9975845, "name": "54ed85e4b7a8a8a6e8a278a474b83708", "is_disabled": 0, "rental_uris": {"android": "https://dc.lft.to/lastmile_qr_scan", "ios": "https://dc.lft.to/lastmile_qr_scan"}, "type": "electric_scooter", "lat": 38.88767966666666, "is_reserved": 0, "fusion_lat": 0.0}, {"bike_id": "e0292e9e4a1f20d5b3ba3882761c2e90", "fusion_lon": 0.0, "lon": -77.03709566666667, "name": "e0292e9e4a1f20d5b3ba3882761c2e90", "is_disabled": 0, "rental_uris": {"android": "https://dc.lft.to/lastmile_qr_scan", "ios": "https://dc.lft.to/lastmile_qr_scan"}, "type": "electric_scooter", "lat": 38.918129666666665, "is_reserved": 0, "fusion_lat": 0.0}, {"bike_id": "23a90821694d9bfbb8ab9237bb8bb6f6", "fusion_lon": 0.0, "lon": -76.98712566666667, "name": "23a90821694d9bfbb8ab9237bb8bb6f6", "is_disabled": 0, "rental_uris": {"android": "https://dc.lft.to/lastmile_qr_scan", "ios": "https://dc.lft.to/lastmile_qr_scan"}, "type": "electric_scooter", "lat": 38.867004333333334, "is_reserved": 0, "fusion_lat": 0.0}, {"bike_id": "bf08819595ddb3894a7b9be8eadc284b", "fusion_lon": 0.0, "lon": -76.99871816666666, "name": "bf08819595ddb3894a7b9be8eadc284b", "is_disabled": 0, "rental_uris": {"android": "https://dc.lft.to/lastmile_qr_scan", "ios": "https://dc.lft.to/lastmile_qr_scan"}, "type": "electric_scooter", "lat": 38.900328333333334, "is_reserved": 0, "fusion_lat": 0.0}, {"bike_id": "5314e4ac50ccf0b52e5801bb5259c04a", "fusion_lon": 0.0, "lon": -77.03256166666667, "name": "5314e4ac50ccf0b52e5801bb5259c04a", "is_disabled": 0, "rental_uris": {"android": "https://dc.lft.to/lastmile_qr_scan", "ios": "https://dc.lft.to/lastmile_qr_scan"}, "type": "electric_scooter", "lat": 38.92356683333333, "is_reserved": 0, "fusion_lat": 0.0}, {"bike_id": "df436dc082cd686144145a5e6ff940e2", "fusion_lon": 0.0, "lon": -77.02762383333334, "name": "df436dc082cd686144145a5e6ff940e2", "is_disabled": 0, "rental_uris": {"android": "https://dc.lft.to/lastmile_qr_scan", "ios": "https://dc.lft.to/lastmile_qr_scan"}, "type": "electric_scooter", "lat": 38.90730933333333, "is_reserved": 0, "fusion_lat": 0.0}, {"bike_id": "33858caf7a41d99dea36beae50225deb", "fusion_lon": 0.0, "lon": -77.03978583333334, "name": "33858caf7a41d99dea36beae50225deb", "is_disabled": 0, "rental_uris": {"android": "https://dc.lft.to/lastmile_qr_scan", "ios": "https://dc.lft.to/lastmile_qr_scan"}, "type": "electric_scooter", "lat": 38.90278816666667, "is_reserved": 0, "fusion_lat": 0.0}, {"bike_id": "ca89b28e11e3edc8688e210593e3faf9", "fusion_lon": 0.0, "lon": -77.058561, "name": "ca89b28e11e3edc8688e210593e3faf9", "is_disabled": 0, "rental_uris": {"android": "https://dc.lft.to/lastmile_qr_scan", "ios": "https://dc.lft.to/lastmile_qr_scan"}, "type": "electric_scooter", "lat": 38.935877833333336, "is_reserved": 0, "fusion_lat": 0.0}, {"bike_id": "d89a20bfd9f1132da130dfcfc351ad53", "fusion_lon": 0.0, "lon": -77.023864, "name": "d89a20bfd9f1132da130dfcfc351ad53", "is_disabled": 0, "rental_uris": {"android": "https://dc.lft.to/lastmile_qr_scan", "ios": "https://dc.lft.to/lastmile_qr_scan"}, "type": "electric_scooter", "lat": 38.901972, "is_reserved": 0, "fusion_lat": 0.0}, {"bike_id": "ec0c3e6a9f532d9e45f6ee2a7b68148d", "fusion_lon": 0.0, "lon": -76.93344366666666, "name": "ec0c3e6a9f532d9e45f6ee2a7b68148d", "is_disabled": 0, "rental_uris": {"android": "https://dc.lft.to/lastmile_qr_scan", "ios": "https://dc.lft.to/lastmile_qr_scan"}, "type": "electric_scooter", "lat": 38.899141, "is_reserved": 0, "fusion_lat": 0.0}, {"bike_id": "d6307642f1b6ca9d995d5a70e71f8322", "fusion_lon": 0.0, "lon": -77.01734866666666, "name": "d6307642f1b6ca9d995d5a70e71f8322", "is_disabled": 0, "rental_uris": {"android": "https://dc.lft.to/lastmile_qr_scan", "ios": "https://dc.lft.to/lastmile_qr_scan"}, "type": "electric_scooter", "lat": 38.87278583333333, "is_reserved": 0, "fusion_lat": 0.0}, {"bike_id": "eb984ff57c04a126b6deefdac306a2db", "fusion_lon": 0.0, "lon": -77.02694683333333, "name": "eb984ff57c04a126b6deefdac306a2db", "is_disabled": 0, "rental_uris": {"android": "https://dc.lft.to/lastmile_qr_scan", "ios": "https://dc.lft.to/lastmile_qr_scan"}, "type": "electric_scooter", "lat": 38.911233333333335, "is_reserved": 0, "fusion_lat": 0.0}, {"bike_id": "9f20e5f2f323157ef2dc635989182321", "fusion_lon": 0.0, "lon": -77.04921316666666, "name": "9f20e5f2f323157ef2dc635989182321", "is_disabled": 0, "rental_uris": {"android": "https://dc.lft.to/lastmile_qr_scan", "ios": "https://dc.lft.to/lastmile_qr_scan"}, "type": "electric_bike", "lat": 38.813453833333334, "is_reserved": 0, "fusion_lat": 0.0}, {"bike_id": "bd415f10f26491cc3a1d2a136eec30e5", "fusion_lon": 0.0, "lon": -77.0349075, "name": "bd415f10f26491cc3a1d2a136eec30e5", "is_disabled": 0, "rental_uris": {"android": "https://dc.lft.to/lastmile_qr_scan", "ios": "https://dc.lft.to/lastmile_qr_scan"}, "type": "electric_scooter", "lat": 38.9169315, "is_reserved": 0, "fusion_lat": 0.0}, {"bike_id": "c8d9aabf6b1d2612cffd0f5e36819dec", "fusion_lon": 0.0, "lon": -77.04400716666666, "name": "c8d9aabf6b1d2612cffd0f5e36819dec", "is_disabled": 0, "rental_uris": {"android": "https://dc.lft.to/lastmile_qr_scan", "ios": "https://dc.lft.to/lastmile_qr_scan"}, "type": "electric_scooter", "lat": 38.91271, "is_reserved": 0, "fusion_lat": 0.0}, {"bike_id": "e94878163162fcc33adcdb8ee722b96d", "fusion_lon": 0.0, "lon": -77.025482, "name": "e94878163162fcc33adcdb8ee722b96d", "is_disabled": 0, "rental_uris": {"android": "https://dc.lft.to/lastmile_qr_scan", "ios": "https://dc.lft.to/lastmile_qr_scan"}, "type": "electric_scooter", "lat": 38.8806655, "is_reserved": 0, "fusion_lat": 0.0}, {"bike_id": "c28616ac600cc59daec8f1c1750fe359", "fusion_lon": 0.0, "lon": -77.01749666666667, "name": "c28616ac600cc59daec8f1c1750fe359", "is_disabled": 0, "rental_uris": {"android": "https://dc.lft.to/lastmile_qr_scan", "ios": "https://dc.lft.to/lastmile_qr_scan"}, "type": "electric_scooter", "lat": 38.875010333333336, "is_reserved": 0, "fusion_lat": 0.0}, {"bike_id": "082601d082da05ac44c6095e73798180", "fusion_lon": 0.0, "lon": -77.04568783333333, "name": "082601d082da05ac44c6095e73798180", "is_disabled": 0, "rental_uris": {"android": "https://dc.lft.to/lastmile_qr_scan", "ios": "https://dc.lft.to/lastmile_qr_scan"}, "type": "electric_bike", "lat": 38.924209, "is_reserved": 0, "fusion_lat": 0.0},