{"data": {"bikes": [{"bike_id": "4dd963a439ae3fe5d8213de703e0d0f9", "type": "electric_bike", "is_disabled": 0, "lat": 38.90537883333333, "rental_uris": {"ios": "https://dc.lft.to/lastmile_qr_scan", "android": "https://dc.lft.to/lastmile_qr_scan"}, "is_reserved": 0, "fusion_lon": 0.0, "fusion_lat": 0.0, "lon": -77.059088, "name": "4dd963a439ae3fe5d8213de703e0d0f9"}, {"bike_id": "7c03ab28f6eb4ffe3b401d8ed9845f9e", "type": "electric_scooter", "is_disabled": 0, "lat": 38.898388833333335, "rental_uris": {"ios": "https://dc.lft.to/lastmile_qr_scan", "android": "https://dc.lft.to/lastmile_qr_scan"}, "is_reserved": 0, "fusion_lon": 0.0, "fusion_lat": 0.0, "lon": -76.94632883333334, "name": "7c03ab28f6eb4ffe3b401d8ed9845f9e"}, {"bike_id": "7333f84373f7d13073e6cd7dac359eef", "type": "electric_bike", "is_disabled": 0, "lat": 38.8615495, "rental_uris": {"ios": "https://dc.lft.to/lastmile_qr_scan", "android": "https://dc.lft.to/lastmile_qr_scan"}, "is_reserved": 0, "fusion_lon": 0.0, "fusion_lat": 0.0, "lon": -77.0914255, "name": "7333f84373f7d13073e6cd7dac359eef"}, {"bike_id": "547d7948de1fde9ba3e1aa854ec3a446", "type": "electric_bike", "is_disabled": 0, "lat": 38.92966583333333, "rental_uris": {"ios": "https://dc.lft.to/lastmile_qr_scan", "android": "https://dc.lft.to/lastmile_qr_scan"}, "is_reserved": 0, "fusion_lon": 0.0, "fusion_lat": 0.0, "lon": -77.185662, "name": "547d7948de1fde9ba3e1aa854ec3a446"}, {"bike_id": "9476a0b191a955ac5c88794aa1646114", "type": "electric_scooter", "is_disabled": 0, "lat": 38.91210783333333, "rental_uris": {"ios": "https://dc.lft.to/lastmile_qr_scan", "android": "https://dc.lft.to/lastmile_qr_scan"}, "is_reserved": 0, "fusion_lon": 0.0, "fusion_lat": 0.0, "lon": -77.03194583333334, "name": "9476a0b191a955ac5c88794aa1646114"}, {"bike_id": "ce5850ba052cd4babf33c503680737b4", "type": "electric_scooter", "is_disabled": 0, "lat": 38.9363335, "rental_uris": {"ios": "https://dc.lft.to/lastmile_qr_scan", "android": "https://dc.lft.to/lastmile_qr_scan"}, "is_reserved": 0, "fusion_lon": 0.0, "fusion_lat": 0.0, "lon": -77.05883, "name": "ce5850ba052cd4babf33c503680737b4"}, {"bike_id": "98cfcfb636ae694615bebaa7b4ba0235", "type": "electric_scooter", "is_disabled": 0, "lat": 38.92798466666667, "rental_uris": {"ios": "https://dc.lft.to/lastmile_qr_scan", "android": "https://dc.lft.to/lastmile_qr_scan"}, "is_reserved": 0, "fusion_lon": 0.0, "fusion_lat": 0.0, "lon": -77.02130883333334, "name": "98cfcfb636ae694615bebaa7b4ba0235"}, {"bike_id": "12cf1633ab4d63010ebbb8462fe7e61d", "type": "electric_scooter", "is_disabled": 0, "lat": 38.902745333333336, "rental_uris": {"ios": "https://dc.lft.to/lastmile_qr_scan", "android": "https://dc.lft.to/lastmile_qr_scan"}, "is_reserved": 0, "fusion_lon": 0.0, "fusion_lat": 0.0, "lon": -77.05793116666666, "name": "12cf1633ab4d63010ebbb8462fe7e61d"}, {"bike_id": "df4fa992dcc4b68fcb4ec1cda5e5e05e", "type": "electric_scooter", "is_disabled": 0, "lat": 38.911093666666666, "rental_uris": {"ios": "https://dc.lft.to/lastmile_qr_scan", "android": "https://dc.lft.to/lastmile_qr_scan"}, "is_reserved": 0, "fusion_lon": 0.0, "fusion_lat": 0.0, "lon": -77.01158916666667, "name": "df4fa992dcc4b68fcb4ec1cda5e5e05e"}, {"bike_id": "a11514cd09f9d4f6f4c2cb91450359ee", "type": "electric_scooter", "is_disabled": 0, "lat": 38.932473, "rental_uris": {"ios": "https://dc.lft.to/lastmile_qr_scan", "android": "https://dc.lft.to/lastmile_qr_scan"}, "is_reserved": 0, "fusion_lon": 0.0, "fusion_lat": 0.0, "lon": -77.020052, "name": "a11514cd09f9d4f6f4c2cb91450359ee"}, {"bike_id": "e59c74252b6ab904fa085260b10f9a6f", "type": "electric_scooter", "is_disabled": 0, "lat": 38.870669666666664, "rental_uris": {"ios": "https://dc.lft.to/lastmile_qr_scan", "android": "https://dc.lft.to/lastmile_qr_scan"}, "is_reserved": 0, "fusion_lon": 0.0, "fusion_lat": 0.0, "lon": -76.981249, "name": "e59c74252b6ab904fa085260b10f9a6f"}, {"bike_id": "65eabe18e4c13a664c89f18e7a6c81d0", "type": "electric_scooter", "is_disabled": 0, "lat": 38.9163135, "rental_uris": {"ios": "https://dc.lft.to/lastmile_qr_scan", "android": "https://dc.lft.to/lastmile_qr_scan"}, "is_reserved": 0, "fusion_lon": 0.0, "fusion_lat": 0.0, "lon": -77.01430166666667, "name": "65eabe18e4c13a664c89f18e7a6c81d0"}, {"bike_id": "9fc0fbc58df5f4255fa510043d9145e9", "type": "electric_scooter", "is_disabled": 0, "lat": 38.92712516666667, "rental_uris": {"ios": "https://dc.lft.to/lastmile_qr_scan", "android": "https://dc.lft.to/lastmile_qr_scan"}, "is_reserved": 0, "fusion_lon": 0.0, "fusion_lat": 0.0, "lon": -77.0208365, "name": "9fc0fbc58df5f4255fa510043d9145e9"}, {"bike_id": "3c679bbbe89910c4daaae476c1f69438", "type": "electric_scooter", "is_disabled": 0, "lat": 38.906975333333335, "rental_uris": {"ios": "https://dc.lft.to/lastmile_qr_scan", "android": "https://dc.lft.to/lastmile_qr_scan"}, "is_reserved": 0, "fusion_lon": 0.0, "fusion_lat": 0.0, "lon": -76.987298, "name": "3c679bbbe89910c4daaae476c1f69438"}, {"bike_id": "558595d4a7213b8a21e9ed0063bdfa1e", "type": "electric_scooter", "is_disabled": 0, "lat": 38.9073215, "rental_uris": {"ios": "https://dc.lft.to/lastmile_qr_scan", "android": "https://dc.lft.to/lastmile_qr_scan"}, "is_reserved": 0, "fusion_lon": 0.0, "fusion_lat": 0.0, "lon": -77.04337683333334, "name": "558595d4a7213b8a21e9ed0063bdfa1e"}, {"bike_id": "7f86e049ede4bdde31c2fc664c20e6b6", "type": "electric_scooter", "is_disabled": 0, "lat": 38.92356216666667, "rental_uris": {"ios": "https://dc.lft.to/lastmile_qr_scan", "android": "https://dc.lft.to/lastmile_qr_scan"}, "is_reserved": 0, "fusion_lon": 0.0, "fusion_lat": 0.0, "lon": -77.076377, "name": "7f86e049ede4bdde31c2fc664c20e6b6"}, {"bike_id": "67475f7629e29060b0c5c9ae9a44c63b", "type": "electric_scooter", "is_disabled": 0, "lat": 38.9167855, "rental_uris": {"ios": "https://dc.lft.to/lastmile_qr_scan", "android": "https://dc.lft.to/lastmile_qr_scan"}, "is_reserved": 0, "fusion_lon": 0.0, "fusion_lat": 0.0, "lon": -77.02969883333333, "name": "67475f7629e29060b0c5c9ae9a44c63b"}, {"bike_id": "64d5b7fe27a2188024c708399b3749b1", "type": "electric_scooter", "is_disabled": 0, "lat": 38.91977083333333, "rental_uris": {"ios": "https://dc.lft.to/lastmile_qr_scan", "android": "https://dc.lft.to/lastmile_qr_scan"}, "is_reserved": 0, "fusion_lon": 0.0, "fusion_lat": 0.0, "lon": -77.0396615, "name": "64d5b7fe27a2188024c708399b3749b1"}, {"bike_id": "dee4b18f37601ef6d641f1edb8b5e627", "type": "electric_scooter", "is_disabled": 0, "lat": 38.91419533333333, "rental_uris": {"ios": "https://dc.lft.to/lastmile_qr_scan", "android": "https://dc.lft.to/lastmile_qr_scan"}, "is_reserved": 0, "fusion_lon": 0.0, "fusion_lat": 0.0, "lon": -77.031809, "name": "dee4b18f37601ef6d641f1edb8b5e627"}, {"bike_id": "3d4a29bf8c60c143fd39c522d045c92c", "type": "electric_scooter", "is_disabled": 0, "lat": 38.921923166666666, "rental_uris": {"ios": "https://dc.lft.to/lastmile_qr_scan", "android": "https://dc.lft.to/lastmile_qr_scan"}, "is_reserved": 0, "fusion_lon": 0.0, "fusion_lat": 0.0, "lon": -77.04693983333334, "name": "3d4a29bf8c60c143fd39c522d045c92c"}, {"bike_id": "0968e0d26cdbfa15500a43b54cbc66a3", "type": "electric_scooter", "is_disabled": 0, "lat": 38.85459066666667, "rental_uris": {"ios": "https://dc.lft.to/lastmile_qr_scan", "android": "https://dc.lft.to/lastmile_qr_scan"}, "is_reserved": 0, "fusion_lon": 0.0, "fusion_lat": 0.0, "lon": -76.97233016666667, "name": "0968e0d26cdbfa15500a43b54cbc66a3"}, {"bike_id": "833112d6bba6c412ee443a5dbc7c7652", "type": "electric_scooter", "is_disabled": 0, "lat": 38.92050833333333, "rental_uris": {"ios": "https://dc.lft.to/lastmile_qr_scan", "android": "https://dc.lft.to/lastmile_qr_scan"}, "is_reserved": 0, "fusion_lon": 0.0, "fusion_lat": 0.0, "lon": -76.998871, "name": "833112d6bba6c412ee443a5dbc7c7652"}, {"bike_id": "4703ebe50dbd40820ab96c08e2ce6382", "type": "electric_scooter", "is_disabled": 0, "lat": 38.92324516666667, "rental_uris": {"ios": "https://dc.lft.to/lastmile_qr_scan", "android": "https://dc.lft.to/lastmile_qr_scan"}, "is_reserved": 0, "fusion_lon": 0.0, "fusion_lat": 0.0, "lon": -77.02963116666666, "name": "4703ebe50dbd40820ab96c08e2ce6382"}, {"bike_id": "6a23171835046c9f8419d6fd82d93ec8", "type": "electric_scooter", "is_disabled": 0, "lat": 38.9215495, "rental_uris": {"ios": "https://dc.lft.to/lastmile_qr_scan", "android": "https://dc.lft.to/lastmile_qr_scan"}, "is_reserved": 0, "fusion_lon": 0.0, "fusion_lat": 0.0, "lon": -77.0343855, "name": "6a23171835046c9f8419d6fd82d93ec8"}, {"bike_id": "77a2eefe988b44019b7d3a89a67efecb", "type": "electric_bike", "is_disabled": 0, "lat": 38.96957233333333, "rental_uris": {"ios": "https://dc.lft.to/lastmile_qr_scan", "android": "https://dc.lft.to/lastmile_qr_scan"}, "is_reserved": 0, "fusion_lon": 0.0, "fusion_lat": 0.0, "lon": -76.957472, "name": "77a2eefe988b44019b7d3a89a67efecb"}, {"bike_id": "588661bd9a40203a39c20603439722bb", "type": "electric_scooter", "is_disabled": 0, "lat": 38.883005833333335, "rental_uris": {"ios": "https://dc.lft.to/lastmile_qr_scan", "android": "https://dc.lft.to/lastmile_qr_scan"}, "is_reserved": 0, "fusion_lon": 0.0, "fusion_lat": 0.0, "lon": -76.94854416666666, "name": "588661bd9a40203a39c20603439722bb"}, {"bike_id": "2af28a1b4d058b6452b408dc6b447849", "type": "electric_scooter", "is_disabled": 0, "lat": 38.924642, "rental_uris": {"ios": "https://dc.lft.to/lastmile_qr_scan", "android": "https://dc.lft.to/lastmile_qr_scan"}, "is_reserved": 0, "fusion_lon": 0.0, "fusion_lat": 0.0, "lon": -77.02832766666667, "name": "2af28a1b4d058b6452b408dc6b447849"}, {"bike_id": "d53e4a4df494020a7a14184e1a8cdb1c", "type": "electric_scooter", "is_disabled": 0, "lat": 38.955768166666665, "rental_uris": {"ios": "https://dc.lft.to/lastmile_qr_scan", "android": "https://dc.lft.to/lastmile_qr_scan"}, "is_reserved": 0, "fusion_lon": 0.0, "fusion_lat": 0.0, "lon": -77.08041866666667, "name": "d53e4a4df494020a7a14184e1a8cdb1c"}, {"bike_id": "173f4328264227cd5e743629373170ff", "type": "electric_scooter", "is_disabled": 0, "lat": 38.9283385, "rental_uris": {"ios": "https://dc.lft.to/lastmile_qr_scan", "android": "https://dc.lft.to/lastmile_qr_scan"}, "is_reserved": 0, "fusion_lon": 0.0, "fusion_lat": 0.0, "lon": -77.05514483333333, "name": "173f4328264227cd5e743629373170ff"}, {"bike_id": "2fa294ba354ef7e0bf4633d11839fc08", "type": "electric_scooter", "is_disabled": 0, "lat": 38.878636166666666, "rental_uris": {"ios": "https://dc.lft.to/lastmile_qr_scan", "android": "https://dc.lft.to/lastmile_qr_scan"}, "is_reserved": 0, "fusion_lon": 0.0, "fusion_lat": 0.0, "lon": -77.008636, "name": "2fa294ba354ef7e0bf4633d11839fc08"}, {"bike_id": "5f5582d7cfde688f30ede366c715dff6", "type": "electric_scooter", "is_disabled": 0, "lat": 38.98433266666667, "rental_uris": {"ios": "https://dc.lft.to/lastmile_qr_scan", "android": "https://dc.lft.to/lastmile_qr_scan"}, "is_reserved": 0, "fusion_lon": 0.0, "fusion_lat": 0.0, "lon": -77.02673216666666, "name": "5f5582d7cfde688f30ede366c715dff6"}, {"bike_id": "3e010b6c3ab829845f069ea895522ffe", "type": "electric_scooter", "is_disabled": 0, "lat": 38.92800183333333, "rental_uris": {"ios": "https://dc.lft.to/lastmile_qr_scan", "android": "https://dc.lft.to/lastmile_qr_scan"}, "is_reserved": 0, "fusion_lon": 0.0, "fusion_lat": 0.0, "lon": -77.0239125, "name": "3e010b6c3ab829845f069ea895522ffe"}, {"bike_id": "efedc4d223afd1590005ee4335d3ab34", "type": "electric_bike", "is_disabled": 0, "lat": 38.956380333333335, "rental_uris": {"ios": "https://dc.lft.to/lastmile_qr_scan", "android": "https://dc.lft.to/lastmile_qr_scan"}, "is_reserved": 0, "fusion_lon": 0.0, "fusion_lat": 0.0, "lon": -76.93879716666666, "name": "efedc4d223afd1590005ee4335d3ab34"}, {"bike_id": "1c556fe99a650762289dbc5b46feb1ac", "type": "electric_scooter", "is_disabled": 0, "lat": 38.9223865, "rental_uris": {"ios": "https://dc.lft.to/lastmile_qr_scan", "android": "https://dc.lft.to/lastmile_qr_scan"}, "is_reserved": 0, "fusion_lon": 0.0, "fusion_lat": 0.0, "lon": -77.0196715, "name": "1c556fe99a650762289dbc5b46feb1ac"}, {"bike_id": "2877644b93dd35a2a6c2517d875553d1", "type": "electric_bike", "is_disabled": 0, "lat": 38.80972583333333, "rental_uris": {"ios": "https://dc.lft.to/lastmile_qr_scan", "android": "https://dc.lft.to/lastmile_qr_scan"}, "is_reserved": 0, "fusion_lon": 0.0, "fusion_lat": 0.0, "lon": -77.086278, "name": "2877644b93dd35a2a6c2517d875553d1"}, {"bike_id": "186820d51262c0b42aa15ce9924939f5", "type": "electric_scooter", "is_disabled": 0, "lat": 38.881581833333335, "rental_uris": {"ios": "https://dc.lft.to/lastmile_qr_scan", "android": "https://dc.lft.to/lastmile_qr_scan"}, "is_reserved": 0, "fusion_lon": 0.0, "fusion_lat": 0.0, "lon": -77.02765666666667, "name": "186820d51262c0b42aa15ce9924939f5"}, {"bike_id": "b169940014ef15481679e11f918a475c", "type": "electric_scooter", "is_disabled": 0, "lat": 38.86374583333333, "rental_uris": {"ios": "https://dc.lft.to/lastmile_qr_scan", "android": "https://dc.lft.to/lastmile_qr_scan"}, "is_reserved": 0, "fusion_lon": 0.0, "fusion_lat": 0.0, "lon": -76.99061183333333, "name": "b169940014ef15481679e11f918a475c"}, {"bike_id": "6af774d17810685d05c07accfe191447", "type": "electric_scooter", "is_disabled": 0, "lat": 38.92862216666666, "rental_uris": {"ios": "https://dc.lft.to/lastmile_qr_scan", "android": "https://dc.lft.to/lastmile_qr_scan"}, "is_reserved": 0, "fusion_lon": 0.0, "fusion_lat": 0.0, "lon": -77.03713866666666, "name": "6af774d17810685d05c07accfe191447"}, {"bike_id": "c252f0408ff0517196e8cc934b3b6ee9", "type": "electric_scooter", "is_disabled": 0, "lat": 38.90328933333333, "rental_uris": {"ios": "https://dc.lft.to/lastmile_qr_scan", "android": "https://dc.lft.to/lastmile_qr_scan"}, "is_reserved": 0, "fusion_lon": 0.0, "fusion_lat": 0.0, "lon": -76.9913315, "name": "c252f0408ff0517196e8cc934b3b6ee9"}, {"bike_id": "7d2ad064905894cbcdfcf76040455422", "type": "electric_scooter", "is_disabled": 0, "lat": 38.9176995, "rental_uris": {"ios": "https://dc.lft.to/lastmile_qr_scan", "android": "https://dc.lft.to/lastmile_qr_scan"}, "is_reserved": 0, "fusion_lon": 0.0, "fusion_lat": 0.0, "lon": -77.0476735, "name": "7d2ad064905894cbcdfcf76040455422"}, {"bike_id": "f2b0579747cb44fe47d4398f1e41a6c9", "type": "electric_scooter", "is_disabled": 0, "lat": 38.900131333333334, "rental_uris": {"ios": "https://dc.lft.to/lastmile_qr_scan", "android": "https://dc.lft.to/lastmile_qr_scan"}, "is_reserved": 0, "fusion_lon": 0.0, "fusion_lat": 0.0, "lon": -77.00198233333333, "name": "f2b0579747cb44fe47d4398f1e41a6c9"}, {"bike_id": "e4e6e1f318fc68bc932b52e2272c1b86", "type": "electric_scooter", "is_disabled": 0, "lat": 38.897045166666665, "rental_uris": {"ios": "https://dc.lft.to/lastmile_qr_scan", "android": "https://dc.lft.to/lastmile_qr_scan"}, "is_reserved": 0, "fusion_lon": 0.0, "fusion_lat": 0.0, "lon": -77.02285416666666, "name": "e4e6e1f318fc68bc932b52e2272c1b86"}, {"bike_id": "5d3b20f2b9f4734f8470d37afab7a213", "type": "electric_scooter", "is_disabled": 0, "lat": 38.95476, "rental_uris": {"ios": "https://dc.lft.to/lastmile_qr_scan", "android": "https://dc.lft.to/lastmile_qr_scan"}, "is_reserved": 0, "fusion_lon": 0.0, "fusion_lat": 0.0, "lon": -77.09252383333333, "name": "5d3b20f2b9f4734f8470d37afab7a213"}, {"bike_id": "40d07f9e72962cf361357cfea8ee0e13", "type": "electric_scooter", "is_disabled": 0, "lat": 38.934227666666665, "rental_uris": {"ios": "https://dc.lft.to/lastmile_qr_scan", "android": "https://dc.lft.to/lastmile_qr_scan"}, "is_reserved": 0, "fusion_lon": 0.0, "fusion_lat": 0.0, "lon": -77.03916100000001, "name": "40d07f9e72962cf361357cfea8ee0e13"}, {"bike_id": "b5e21c7bdea567dc2eff85f09156d0ec", "type": "electric_scooter", "is_disabled": 0, "lat": 38.905312, "rental_uris": {"ios": "https://dc.lft.to/lastmile_qr_scan", "android": "https://dc.lft.to/lastmile_qr_scan"}, "is_reserved": 0, "fusion_lon": 0.0, "fusion_lat": 0.0, "lon": -76.99636933333333, "name": "b5e21c7bdea567dc2eff85f09156d0ec"}, {"bike_id": "763acf0979c5ee41ff2e5d59450d30c9", "type": "electric_scooter", "is_disabled": 0, "lat": 38.9017245, "rental_uris": {"ios": "https://dc.lft.to/lastmile_qr_scan", "android": "https://dc.lft.to/lastmile_qr_scan"}, "is_reserved": 0, "fusion_lon": 0.0, "fusion_lat": 0.0, "lon": -76.98451766666666, "name": "763acf0979c5ee41ff2e5d59450d30c9"}, {"bike_id": "28db5dc5c81a2815caffafd92daa5c35", "type": "electric_scooter", "is_disabled": 0, "lat": 38.942887999999996, "rental_uris": {"ios": "https://dc.lft.to/lastmile_qr_scan", "android": "https://dc.lft.to/lastmile_qr_scan"}, "is_reserved": 0, "fusion_lon": 0.0, "fusion_lat": 0.0, "lon": -77.02174383333333, "name": "28db5dc5c81a2815caffafd92daa5c35"}, {"bike_id": "f7080ef22c8b65c4eba49b2cb90f965f", "type": "electric_scooter", "is_disabled": 0, "lat": 38.907815166666666, "rental_uris": {"ios": "https://dc.lft.to/lastmile_qr_scan", "android": "https://dc.lft.to/lastmile_qr_scan"}, "is_reserved": 0, "fusion_lon": 0.0, "fusion_lat": 0.0, "lon": -77.044969, "name": "f7080ef22c8b65c4eba49b2cb90f965f"}, {"bike_id": "36f620acb8e07189c7779d3b115b405d", "type": "electric_scooter", "is_disabled": 0, "lat": 38.948393, "rental_uris": {"ios": "https://dc.lft.to/lastmile_qr_scan", "android": "https://dc.lft.to/lastmile_qr_scan"}, "is_reserved": 0, "fusion_lon": 0.0, "fusion_lat": 0.0, "lon": -77.02541616666667, "name": "36f620acb8e07189c7779d3b115b405d"}, {"bike_id": "f349d7b45417bca51eee7872a0dc7bcf", "type": "electric_bike", "is_disabled": 0, "lat": 38.854214, "rental_uris": {"ios": "https://dc.lft.to/lastmile_qr_scan", "android": "https://dc.lft.to/lastmile_qr_scan"}, "is_reserved": 0, "fusion_lon": 0.0, "fusion_lat": 0.0, "lon": -77.12076183333333, "name": "f349d7b45417bca51eee7872a0dc7bcf"}, {"bike_id": "11be59263ce565cb101d4bea59a60a89", "type": "electric_scooter", "is_disabled": 0, "lat": 38.9042265, "rental_uris": {"ios": "https://dc.lft.to/lastmile_qr_scan", "android": "https://dc.lft.to/lastmile_qr_scan"}, "is_reserved": 0, "fusion_lon": 0.0, "fusion_lat": 0.0, "lon": -76.97376883333334, "name": "11be59263ce565cb101d4bea59a60a89"}, {"bike_id": "f596a07324cec5df72fbab915ea2b227", "type": "electric_scooter", "is_disabled": 0, "lat": 38.92448616666667, "rental_uris": {"ios": "https://dc.lft.to/lastmile_qr_scan", "android": "https://dc.lft.to/lastmile_qr_scan"}, "is_reserved": 0, "fusion_lon": 0.0, "fusion_lat": 0.0, "lon": -77.02412833333334, "name": "f596a07324cec5df72fbab915ea2b227"}, {"bike_id": "5639dccea215d50849440d8f99b3479f", "type": "electric_scooter", "is_disabled": 0, "lat": 38.9075505, "rental_uris": {"ios": "https://dc.lft.to/lastmile_qr_scan", "android": "https://dc.lft.to/lastmile_qr_scan"}, "is_reserved": 0, "fusion_lon": 0.0, "fusion_lat": 0.0, "lon": -77.00224466666667, "name": "5639dccea215d50849440d8f99b3479f"}, {"bike_id": "6bdb731d0a997426944b03375f814e5f", "type": "electric_scooter", "is_disabled": 0, "lat": 38.86569816666667, "rental_uris": {"ios": "https://dc.lft.to/lastmile_qr_scan", "android": "https://dc.lft.to/lastmile_qr_scan"}, "is_reserved": 0, "fusion_lon": 0.0, "fusion_lat": 0.0, "lon": -76.98220583333334, "name": "6bdb731d0a997426944b03375f814e5f"}, {"bike_id": "c75ae72f3464b9ce28ee9635fbb79696", "type": "electric_scooter", "is_disabled": 0, "lat": 38.93338083333333, "rental_uris": {"ios": "https://dc.lft.to/lastmile_qr_scan", "android": "https://dc.lft.to/lastmile_qr_scan"}, "is_reserved": 0, "fusion_lon": 0.0, "fusion_lat": 0.0, "lon": -77.039852, "name": "c75ae72f3464b9ce28ee9635fbb79696"}, {"bike_id": "2be1b50bc8968051f59548b54a4aa4d8", "type": "electric_scooter", "is_disabled": 0, "lat": 38.92952566666666, "rental_uris": {"ios": "https://dc.lft.to/lastmile_qr_scan", "android": "https://dc.lft.to/lastmile_qr_scan"}, "is_reserved": 0, "fusion_lon": 0.0, "fusion_lat": 0.0, "lon": -77.01844983333334, "name": "2be1b50bc8968051f59548b54a4aa4d8"}, {"bike_id": "a7d724ab007614aa632d52b2a4f7b2bf", "type": "electric_scooter", "is_disabled": 0, "lat": 38.887449333333336, "rental_uris": {"ios": "https://dc.lft.to/lastmile_qr_scan", "android": "https://dc.lft.to/lastmile_qr_scan"}, "is_reserved": 0, "fusion_lon": 0.0, "fusion_lat": 0.0, "lon": -76.99630916666666, "name": "a7d724ab007614aa632d52b2a4f7b2bf"}, {"bike_id": "b030e2068ffcbd3daebd42127ab9554d", "type": "electric_scooter", "is_disabled": 0, "lat": 38.88880733333333, "rental_uris": {"ios": "https://dc.lft.to/lastmile_qr_scan", "android": "https://dc.lft.to/lastmile_qr_scan"}, "is_reserved": 0, "fusion_lon": 0.0, "fusion_lat": 0.0, "lon": -76.99043383333333, "name": "b030e2068ffcbd3daebd42127ab9554d"}, {"bike_id": "a0bd3789c47ec2b2b763cd6c53e7615b", "type": "electric_scooter", "is_disabled": 0, "lat": 38.92219933333333, "rental_uris": {"ios": "https://dc.lft.to/lastmile_qr_scan", "android": "https://dc.lft.to/lastmile_qr_scan"}, "is_reserved": 0, "fusion_lon": 0.0, "fusion_lat": 0.0, "lon": -77.0237565, "name": "a0bd3789c47ec2b2b763cd6c53e7615b"}, {"bike_id": "99ca12d4d7572a6d3686cb0089640c60", "type": "electric_scooter", "is_disabled": 0, "lat": 38.90723083333334, "rental_uris": {"ios": "https://dc.lft.to/lastmile_qr_scan", "android": "https://dc.lft.to/lastmile_qr_scan"}, "is_reserved": 0, "fusion_lon": 0.0, "fusion_lat": 0.0, "lon": -77.0225695, "name": "99ca12d4d7572a6d3686cb0089640c60"}, {"bike_id": "d3198f45e0a4f21376957adc60f38876", "type": "electric_scooter", "is_disabled": 0, "lat": 38.9113675, "rental_uris": {"ios": "https://dc.lft.to/lastmile_qr_scan", "android": "https://dc.lft.to/lastmile_qr_scan"}, "is_reserved": 0, "fusion_lon": 0.0, "fusion_lat": 0.0, "lon": -77.02201083333334, "name": "d3198f45e0a4f21376957adc60f38876"}, {"bike_id": "d44a1501a233dc049e3c899d1657ccf4", "type": "electric_scooter", "is_disabled": 0, "lat": 38.843148, "rental_uris": {"ios": "https://dc.lft.to/lastmile_qr_scan", "android": "https://dc.lft.to/lastmile_qr_scan"}, "is_reserved": 0, "fusion_lon": 0.0, "fusion_lat": 0.0, "lon": -76.99923333333334, "name": "d44a1501a233dc049e3c899d1657ccf4"}, {"bike_id": "7b2171850ea21b61ddf820fc81fb9192", "type": "electric_scooter", "is_disabled": 0, "lat": 38.90844583333333, "rental_uris": {"ios": "https://dc.lft.to/lastmile_qr_scan", "android": "https://dc.lft.to/lastmile_qr_scan"}, "is_reserved": 0, "fusion_lon": 0.0, "fusion_lat": 0.0, "lon": -77.02714016666667, "name": "7b2171850ea21b61ddf820fc81fb9192"}, {"bike_id": "73fef7e2edb93c95f061832f078a1222", "type": "electric_scooter", "is_disabled": 0, "lat": 38.923141, "rental_uris": {"ios": "https://dc.lft.to/lastmile_qr_scan", "android": "https://dc.lft.to/lastmile_qr_scan"}, "is_reserved": 0, "fusion_lon": 0.0, "fusion_lat": 0.0, "lon": -77.04638316666667, "name": "73fef7e2edb93c95f061832f078a1222"}, {"bike_id": "f99c159cfa8bd783fd12e286e0e611bc", "type": "electric_scooter", "is_disabled": 0, "lat": 38.91395966666666, "rental_uris": {"ios": "https://dc.lft.to/lastmile_qr_scan", "android": "https://dc.lft.to/lastmile_qr_scan"}, "is_reserved": 0, "fusion_lon": 0.0, "fusion_lat": 0.0, "lon": -77.01793183333334, "name": "f99c159cfa8bd783fd12e286e0e611bc"}, {"bike_id": "1fa7d773d649409cce0fb82ee13fcb2c", "type": "electric_scooter", "is_disabled": 0, "lat": 38.89540733333333, "rental_uris": {"ios": "https://dc.lft.to/lastmile_qr_scan", "android": "https://dc.lft.to/lastmile_qr_scan"}, "is_reserved": 0, "fusion_lon": 0.0, "fusion_lat": 0.0, "lon": -76.9886295, "name": "1fa7d773d649409cce0fb82ee13fcb2c"}, {"bike_id": "dc963426b1ac4b2c67d534b7599bdd21", "type": "electric_scooter", "is_disabled": 0, "lat": 38.91109816666667, "rental_uris": {"ios": "https://dc.lft.to/lastmile_qr_scan", "android": "https://dc.lft.to/lastmile_qr_scan"}, "is_reserved": 0, "fusion_lon": 0.0, "fusion_lat": 0.0, "lon": -77.0489765, "name": "dc963426b1ac4b2c67d534b7599bdd21"}, {"bike_id": "407880eedc9aea992915d9bd4376108f", "type": "electric_scooter", "is_disabled": 0, "lat": 38.902630333333335, "rental_uris": {"ios": "https://dc.lft.to/lastmile_qr_scan", "android": "https://dc.lft.to/lastmile_qr_scan"}, "is_reserved": 0, "fusion_lon": 0.0, "fusion_lat": 0.0, "lon": -77.00253116666667, "name": "407880eedc9aea992915d9bd4376108f"}, {"bike_id": "e35f0b69b0aa89685174eff10b58536d", "type": "electric_scooter", "is_disabled": 0, "lat": 38.9024675, "rental_uris": {"ios": "https://dc.lft.to/lastmile_qr_scan", "android": "https://dc.lft.to/lastmile_qr_scan"}, "is_reserved": 0, "fusion_lon": 0.0, "fusion_lat": 0.0, "lon": -77.0471545, "name": "e35f0b69b0aa89685174eff10b58536d"}, {"bike_id": "c0c6b316c412bb193d9cc5808a5c60ae", "type": "electric_scooter", "is_disabled": 0, "lat": 38.84535533333333, "rental_uris": {"ios": "https://dc.lft.to/lastmile_qr_scan", "android": "https://dc.lft.to/lastmile_qr_scan"}, "is_reserved": 0, "fusion_lon": 0.0, "fusion_lat": 0.0, "lon": -76.985503, "name": "c0c6b316c412bb193d9cc5808a5c60ae"}, {"bike_id": "52e8ab6ace5d2ae9e3cdc11db62b37d2", "type": "electric_scooter", "is_disabled": 0, "lat": 38.90790416666667, "rental_uris": {"ios": "https://dc.lft.to/lastmile_qr_scan", "android": "https://dc.lft.to/lastmile_qr_scan"}, "is_reserved": 0, "fusion_lon": 0.0, "fusion_lat": 0.0, "lon": -77.03865666666667, "name": "52e8ab6ace5d2ae9e3cdc11db62b37d2"}, {"bike_id": "e7f4c005ee99d1b520ef4131e5b223da", "type": "electric_bike", "is_disabled": 0, "lat": 38.86512833333333, "rental_uris": {"ios": "https://dc.lft.to/lastmile_qr_scan", "android": "https://dc.lft.to/lastmile_qr_scan"}, "is_reserved": 0, "fusion_lon": 0.0, "fusion_lat": 0.0, "lon": -76.97343433333333, "name": "e7f4c005ee99d1b520ef4131e5b223da"}, {"bike_id": "38d342f93999d283f01982c64420cb3b", "type": "electric_scooter", "is_disabled": 0, "lat": 38.938676, "rental_uris": {"ios": "https://dc.lft.to/lastmile_qr_scan", "android": "https://dc.lft.to/lastmile_qr_scan"}, "is_reserved": 0, "fusion_lon": 0.0, "fusion_lat": 0.0, "lon": -77.07790433333334, "name": "38d342f93999d283f01982c64420cb3b"}, {"bike_id": "f19e622a4335d4298f4a86cb82e61273", "type": "electric_scooter", "is_disabled": 0, "lat": 38.9178695, "rental_uris": {"ios": "https://dc.lft.to/lastmile_qr_scan", "android": "https://dc.lft.to/lastmile_qr_scan"}, "is_reserved": 0, "fusion_lon": 0.0, "fusion_lat": 0.0, "lon": -77.03646083333334, "name": "f19e622a4335d4298f4a86cb82e61273"}, {"bike_id": "b45b750eec60f521d3ae2f5584276c69", "type": "electric_scooter", "is_disabled": 0, "lat": 38.88998466666666, "rental_uris": {"ios": "https://dc.lft.to/lastmile_qr_scan", "android": "https://dc.lft.to/lastmile_qr_scan"}, "is_reserved": 0, "fusion_lon": 0.0, "fusion_lat": 0.0, "lon": -77.04903533333334, "name": "b45b750eec60f521d3ae2f5584276c69"}, {"bike_id": "a60fcf08e739f5beebd3d1bd232d3b7a", "type": "electric_scooter", "is_disabled": 0, "lat": 38.94903016666667, "rental_uris": {"ios": "https://dc.lft.to/lastmile_qr_scan", "android": "https://dc.lft.to/lastmile_qr_scan"}, "is_reserved": 0, "fusion_lon": 0.0, "fusion_lat": 0.0, "lon": -77.02075816666667, "name": "a60fcf08e739f5beebd3d1bd232d3b7a"}, {"bike_id": "1e65ad3e9e4cae46ce9a2e0ce27147fc", "type": "electric_scooter", "is_disabled": 0, "lat": 38.92235483333333, "rental_uris": {"ios": "https://dc.lft.to/lastmile_qr_scan", "android": "https://dc.lft.to/lastmile_qr_scan"}, "is_reserved": 0, "fusion_lon": 0.0, "fusion_lat": 0.0, "lon": -77.03519283333333, "name": "1e65ad3e9e4cae46ce9a2e0ce27147fc"}, {"bike_id": "3da0c72002c55e2efb770b24b6cd8af5", "type": "electric_scooter", "is_disabled": 0, "lat": 38.91552216666667, "rental_uris": {"ios": "https://dc.lft.to/lastmile_qr_scan", "android": "https://dc.lft.to/lastmile_qr_scan"}, "is_reserved": 0, "fusion_lon": 0.0, "fusion_lat": 0.0, "lon": -77.02642133333333, "name": "3da0c72002c55e2efb770b24b6cd8af5"}, {"bike_id": "135e3d0a47c34bbdb4d2e36043ec577d", "type": "electric_scooter", "is_disabled": 0, "lat": 38.84431083333333, "rental_uris": {"ios": "https://dc.lft.to/lastmile_qr_scan", "android": "https://dc.lft.to/lastmile_qr_scan"}, "is_reserved": 0, "fusion_lon": 0.0, "fusion_lat": 0.0, "lon": -76.99862716666667, "name": "135e3d0a47c34bbdb4d2e36043ec577d"}, {"bike_id": "f76a747da93fc82570e3d50f8e46f22b", "type": "electric_scooter", "is_disabled": 0, "lat": 38.912695666666664, "rental_uris": {"ios": "https://dc.lft.to/lastmile_qr_scan", "android": "https://dc.lft.to/lastmile_qr_scan"}, "is_reserved": 0, "fusion_lon": 0.0, "fusion_lat": 0.0, "lon": -77.03022833333333, "name": "f76a747da93fc82570e3d50f8e46f22b"}, {"bike_id": "db38dbe36fd843b5f31a69e2a367c2d1", "type": "electric_scooter", "is_disabled": 0, "lat": 38.92861, "rental_uris": {"ios": "https://dc.lft.to/lastmile_qr_scan", "android": "https://dc.lft.to/lastmile_qr_scan"}, "is_reserved": 0, "fusion_lon": 0.0, "fusion_lat": 0.0, "lon": -77.03716383333334, "name": "db38dbe36fd843b5f31a69e2a367c2d1"}, {"bike_id": "34b4cef20b86d080b427323a1f2dfcce", "type": "electric_scooter", "is_disabled": 0, "lat": 38.91268983333333, "rental_uris": {"ios": "https://dc.lft.to/lastmile_qr_scan", "android": "https://dc.lft.to/lastmile_qr_scan"}, "is_reserved": 0, "fusion_lon": 0.0, "fusion_lat": 0.0, "lon": -77.02209116666667, "name": "34b4cef20b86d080b427323a1f2dfcce"}, {"bike_id": "2bbc42b6abc91b886ae2c32169030994", "type": "electric_scooter", "is_disabled": 0, "lat": 38.912698166666665, "rental_uris": {"ios": "https://dc.lft.to/lastmile_qr_scan", "android": "https://dc.lft.to/lastmile_qr_scan"}, "is_reserved": 0, "fusion_lon": 0.0, "fusion_lat": 0.0, "lon": -77.022063, "name": "2bbc42b6abc91b886ae2c32169030994"}, {"bike_id": "8fb1192cf6eb9b7897de9af1dcc5ef2c", "type": "electric_scooter", "is_disabled": 0, "lat": 38.91819866666667, "rental_uris": {"ios": "https://dc.lft.to/lastmile_qr_scan", "android": "https://dc.lft.to/lastmile_qr_scan"}, "is_reserved": 0, "fusion_lon": 0.0, "fusion_lat": 0.0, "lon": -77.00257533333334, "name": "8fb1192cf6eb9b7897de9af1dcc5ef2c"}, {"bike_id": "660e316bd8cec2fc71aa00957b804e05", "type": "electric_scooter", "is_disabled": 0, "lat": 38.921907166666664, "rental_uris": {"ios": "https://dc.lft.to/lastmile_qr_scan", "android": "https://dc.lft.to/lastmile_qr_scan"}, "is_reserved": 0, "fusion_lon": 0.0, "fusion_lat": 0.0, "lon": -77.0380315, "name": "660e316bd8cec2fc71aa00957b804e05"}, {"bike_id": "ee0c98d245aecf7be38545ade3c26bb0", "type": "electric_scooter", "is_disabled": 0, "lat": 38.919944, "rental_uris": {"ios": "https://dc.lft.to/lastmile_qr_scan", "android": "https://dc.lft.to/lastmile_qr_scan"}, "is_reserved": 0, "fusion_lon": 0.0, "fusion_lat": 0.0, "lon": -77.03966983333333, "name": "ee0c98d245aecf7be38545ade3c26bb0"}, {"bike_id": "eeb1310f065e5cc1b81950d8a4586074", "type": "electric_scooter", "is_disabled": 0, "lat": 38.91422166666667, "rental_uris": {"ios": "https://dc.lft.to/lastmile_qr_scan", "android": "https://dc.lft.to/lastmile_qr_scan"}, "is_reserved": 0, "fusion_lon": 0.0, "fusion_lat": 0.0, "lon": -77.02302966666667, "name": "eeb1310f065e5cc1b81950d8a4586074"}, {"bike_id": "be5459e70814a89e1b21c7d62417abe4", "type": "electric_scooter", "is_disabled": 0, "lat": 38.91789083333333, "rental_uris": {"ios": "https://dc.lft.to/lastmile_qr_scan", "android": "https://dc.lft.to/lastmile_qr_scan"}, "is_reserved": 0, "fusion_lon": 0.0, "fusion_lat": 0.0, "lon": -77.02325016666667, "name": "be5459e70814a89e1b21c7d62417abe4"}, {"bike_id": "58d1183faf5472fd528353c49d5dbb1a", "type": "electric_scooter", "is_disabled": 0, "lat": 38.9176415, "rental_uris": {"ios": "https://dc.lft.to/lastmile_qr_scan", "android": "https://dc.lft.to/lastmile_qr_scan"}, "is_reserved": 0, "fusion_lon": 0.0, "fusion_lat": 0.0, "lon": -77.04770066666667, "name": "58d1183faf5472fd528353c49d5dbb1a"}, {"bike_id": "43d92f7a302c071c6b38ad3e5745c0b9", "type": "electric_bike", "is_disabled": 0, "lat": 38.862628, "rental_uris": {"ios": "https://dc.lft.to/lastmile_qr_scan", "android": "https://dc.lft.to/lastmile_qr_scan"}, "is_reserved": 0, "fusion_lon": 0.0, "fusion_lat": 0.0, "lon": -76.983505, "name": "43d92f7a302c071c6b38ad3e5745c0b9"}, {"bike_id": "d5ac1285c900eb25e7dfbc36732db89c", "type": "electric_scooter", "is_disabled": 0, "lat": 38.917026, "rental_uris": {"ios": "https://dc.lft.to/lastmile_qr_scan", "android": "https://dc.lft.to/lastmile_qr_scan"}, "is_reserved": 0, "fusion_lon": 0.0, "fusion_lat": 0.0, "lon": -77.023447, "name": "d5ac1285c900eb25e7dfbc36732db89c"}, {"bike_id": "f2726c6b9d9218c11a062ee1b0ddbc5e", "type": "electric_scooter", "is_disabled": 0, "lat": 38.913497166666666, "rental_uris": {"ios": "https://dc.lft.to/lastmile_qr_scan", "android": "https://dc.lft.to/lastmile_qr_scan"}, "is_reserved": 0, "fusion_lon": 0.0, "fusion_lat": 0.0, "lon": -77.02568816666667, "name": "f2726c6b9d9218c11a062ee1b0ddbc5e"}, {"bike_id": "5c270dc258dd636f60011e534ad2ee56", "type": "electric_scooter", "is_disabled": 0, "lat": 38.924739333333335, "rental_uris": {"ios": "https://dc.lft.to/lastmile_qr_scan", "android": "https://dc.lft.to/lastmile_qr_scan"}, "is_reserved": 0, "fusion_lon": 0.0, "fusion_lat": 0.0, "lon": -77.02633566666667, "name": "5c270dc258dd636f60011e534ad2ee56"}, {"bike_id": "04bb554bd659ffcb09249cb7e917d640", "type": "electric_scooter", "is_disabled": 0, "lat": 38.92110533333334, "rental_uris": {"ios": "https://dc.lft.to/lastmile_qr_scan", "android": "https://dc.lft.to/lastmile_qr_scan"}, "is_reserved": 0, "fusion_lon": 0.0, "fusion_lat": 0.0, "lon": -77.04388566666667, "name": "04bb554bd659ffcb09249cb7e917d640"}, {"bike_id": "6e57ce6754f0d208cece5deb09254fc7", "type": "electric_scooter", "is_disabled": 0, "lat": 38.90865866666667, "rental_uris": {"ios": "https://dc.lft.to/lastmile_qr_scan", "android": "https://dc.lft.to/lastmile_qr_scan"}, "is_reserved": 0, "fusion_lon": 0.0, "fusion_lat": 0.0, "lon": -77.002865, "name": "6e57ce6754f0d208cece5deb09254fc7"}, {"bike_id": "eb505729aff57d443df6873a16c096cf", "type": "electric_scooter", "is_disabled": 0, "lat": 38.93729616666667, "rental_uris": {"ios": "https://dc.lft.to/lastmile_qr_scan", "android": "https://dc.lft.to/lastmile_qr_scan"}, "is_reserved": 0, "fusion_lon": 0.0, "fusion_lat": 0.0, "lon": -77.02438366666667, "name": "eb505729aff57d443df6873a16c096cf"}, {"bike_id": "23da3ca6e1de66d1f38d17aa1f1e934e", "type": "electric_scooter", "is_disabled": 0, "lat": 38.913977833333334, "rental_uris": {"ios": "https://dc.lft.to/lastmile_qr_scan", "android": "https://dc.lft.to/lastmile_qr_scan"}, "is_reserved": 0, "fusion_lon": 0.0, "fusion_lat": 0.0, "lon": -77.01795633333333, "name": "23da3ca6e1de66d1f38d17aa1f1e934e"}, {"bike_id": "43f24fed029b50ed82c9e2e9251fa3c9", "type": "electric_scooter", "is_disabled": 0, "lat": 38.911037, "rental_uris": {"ios": "https://dc.lft.to/lastmile_qr_scan", "android": "https://dc.lft.to/lastmile_qr_scan"}, "is_reserved": 0, "fusion_lon": 0.0, "fusion_lat": 0.0, "lon": -77.01147133333333, "name": "43f24fed029b50ed82c9e2e9251fa3c9"}, {"bike_id": "78d65a3bf1648465dbe1452af26eb244", "type": "electric_scooter", "is_disabled": 0, "lat": 38.84437766666667, "rental_uris": {"ios": "https://dc.lft.to/lastmile_qr_scan", "android": "https://dc.lft.to/lastmile_qr_scan"}, "is_reserved": 0, "fusion_lon": 0.0, "fusion_lat": 0.0, "lon": -76.99869133333334, "name": "78d65a3bf1648465dbe1452af26eb244"}, {"bike_id": "3db23bdbe78cd8bc99d2fb13e44713bf", "type": "electric_scooter", "is_disabled": 0, "lat": 38.9339775, "rental_uris": {"ios": "https://dc.lft.to/lastmile_qr_scan", "android": "https://dc.lft.to/lastmile_qr_scan"}, "is_reserved": 0, "fusion_lon": 0.0, "fusion_lat": 0.0, "lon": -77.03520816666666, "name": "3db23bdbe78cd8bc99d2fb13e44713bf"}, {"bike_id": "62bfbee25ba46f8782a85a4cf5b829c3", "type": "electric_scooter", "is_disabled": 0, "lat": 38.908325166666664, "rental_uris": {"ios": "https://dc.lft.to/lastmile_qr_scan", "android": "https://dc.lft.to/lastmile_qr_scan"}, "is_reserved": 0, "fusion_lon": 0.0, "fusion_lat": 0.0, "lon": -77.01975233333333, "name": "62bfbee25ba46f8782a85a4cf5b829c3"}, {"bike_id": "99124138cee661337b6d051c37ec4ebc", "type": "electric_scooter", "is_disabled": 0, "lat": 38.907069166666666, "rental_uris": {"ios": "https://dc.lft.to/lastmile_qr_scan", "android": "https://dc.lft.to/lastmile_qr_scan"}, "is_reserved": 0, "fusion_lon": 0.0, "fusion_lat": 0.0, "lon": -77.04178083333333, "name": "99124138cee661337b6d051c37ec4ebc"}, {"bike_id": "ec75821e45317681b9c28a311cb65c08", "type": "electric_scooter", "is_disabled": 0, "lat": 38.917238833333336, "rental_uris": {"ios": "https://dc.lft.to/lastmile_qr_scan", "android": "https://dc.lft.to/lastmile_qr_scan"}, "is_reserved": 0, "fusion_lon": 0.0, "fusion_lat": 0.0, "lon": -77.03660483333333, "name": "ec75821e45317681b9c28a311cb65c08"}, {"bike_id": "17b60a3cea1ab604e2f4ea9f5237278e", "type": "electric_scooter", "is_disabled": 0, "lat": 38.938469166666664, "rental_uris": {"ios": "https://dc.lft.to/lastmile_qr_scan", "android": "https://dc.lft.to/lastmile_qr_scan"}, "is_reserved": 0, "fusion_lon": 0.0, "fusion_lat": 0.0, "lon": -77.07231116666667, "name": "17b60a3cea1ab604e2f4ea9f5237278e"}, {"bike_id": "afe3fcb6efa972bd9dc2cfb5208f399c", "type": "electric_scooter", "is_disabled": 0, "lat": 38.90977566666667, "rental_uris": {"ios": "https://dc.lft.to/lastmile_qr_scan", "android": "https://dc.lft.to/lastmile_qr_scan"}, "is_reserved": 0, "fusion_lon": 0.0, "fusion_lat": 0.0, "lon": -77.0150905, "name": "afe3fcb6efa972bd9dc2cfb5208f399c"}, {"bike_id": "3287696c0bbe0270aedad137234bbb3f", "type": "electric_scooter", "is_disabled": 0, "lat": 38.92490883333333, "rental_uris": {"ios": "https://dc.lft.to/lastmile_qr_scan", "android": "https://dc.lft.to/lastmile_qr_scan"}, "is_reserved": 0, "fusion_lon": 0.0, "fusion_lat": 0.0, "lon": -77.05207083333333, "name": "3287696c0bbe0270aedad137234bbb3f"}, {"bike_id": "6c81da0e9a46a3417bcd7014f125403e", "type": "electric_scooter", "is_disabled": 0, "lat": 38.94414783333333, "rental_uris": {"ios": "https://dc.lft.to/lastmile_qr_scan", "android": "https://dc.lft.to/lastmile_qr_scan"}, "is_reserved": 0, "fusion_lon": 0.0, "fusion_lat": 0.0, "lon": -77.007429, "name": "6c81da0e9a46a3417bcd7014f125403e"}, {"bike_id": "e76f35c3cb02fb4b9b2a83aedefdf4af", "type": "electric_scooter", "is_disabled": 0, "lat": 38.90948683333333, "rental_uris": {"ios": "https://dc.lft.to/lastmile_qr_scan", "android": "https://dc.lft.to/lastmile_qr_scan"}, "is_reserved": 0, "fusion_lon": 0.0, "fusion_lat": 0.0, "lon": -77.055681, "name": "e76f35c3cb02fb4b9b2a83aedefdf4af"}, {"bike_id": "40e3de616c5d98bb196db098be0ec90e", "type": "electric_scooter", "is_disabled": 0, "lat": 38.908836, "rental_uris": {"ios": "https://dc.lft.to/lastmile_qr_scan", "android": "https://dc.lft.to/lastmile_qr_scan"}, "is_reserved": 0, "fusion_lon": 0.0, "fusion_lat": 0.0, "lon": -77.02357533333333, "name": "40e3de616c5d98bb196db098be0ec90e"}, {"bike_id": "68f12ad56a0867644bb6c0c146a2628b", "type": "electric_scooter", "is_disabled": 0, "lat": 38.91777883333334, "rental_uris": {"ios": "https://dc.lft.to/lastmile_qr_scan", "android": "https://dc.lft.to/lastmile_qr_scan"}, "is_reserved": 0, "fusion_lon": 0.0, "fusion_lat": 0.0, "lon": -77.04565633333333, "name": "68f12ad56a0867644bb6c0c146a2628b"}, {"bike_id": "777097df93bcb1d4d4f4de8e5864fecc", "type": "electric_scooter", "is_disabled": 0, "lat": 38.86685266666667, "rental_uris": {"ios": "https://dc.lft.to/lastmile_qr_scan", "android": "https://dc.lft.to/lastmile_qr_scan"}, "is_reserved": 0, "fusion_lon": 0.0, "fusion_lat": 0.0, "lon": -76.98575616666666, "name": "777097df93bcb1d4d4f4de8e5864fecc"}, {"bike_id": "34c867c9697142cdc6e8ea7e5fb4f8eb", "type": "electric_scooter", "is_disabled": 0, "lat": 38.907648, "rental_uris": {"ios": "https://dc.lft.to/lastmile_qr_scan", "android": "https://dc.lft.to/lastmile_qr_scan"}, "is_reserved": 0, "fusion_lon": 0.0, "fusion_lat": 0.0, "lon": -77.00351616666667, "name": "34c867c9697142cdc6e8ea7e5fb4f8eb"}, {"bike_id": "23a19b08e1a3c7b5ded94d157c3bdd0c", "type": "electric_scooter", "is_disabled": 0, "lat": 38.86682783333333, "rental_uris": {"ios": "https://dc.lft.to/lastmile_qr_scan", "android": "https://dc.lft.to/lastmile_qr_scan"}, "is_reserved": 0, "fusion_lon": 0.0, "fusion_lat": 0.0, "lon": -76.98590016666667, "name": "23a19b08e1a3c7b5ded94d157c3bdd0c"}, {"bike_id": "8730d393e53401d6dd6937583e42a9de", "type": "electric_scooter", "is_disabled": 0, "lat": 38.921909666666664, "rental_uris": {"ios": "https://dc.lft.to/lastmile_qr_scan", "android": "https://dc.lft.to/lastmile_qr_scan"}, "is_reserved": 0, "fusion_lon": 0.0, "fusion_lat": 0.0, "lon": -77.03783933333334, "name": "8730d393e53401d6dd6937583e42a9de"}, {"bike_id": "6018b018a4562c7c4a4e43c93c377b34", "type": "electric_scooter", "is_disabled": 0, "lat": 38.94226583333333, "rental_uris": {"ios": "https://dc.lft.to/lastmile_qr_scan", "android": "https://dc.lft.to/lastmile_qr_scan"}, "is_reserved": 0, "fusion_lon": 0.0, "fusion_lat": 0.0, "lon": -77.01439916666666, "name": "6018b018a4562c7c4a4e43c93c377b34"}, {"bike_id": "6dc8da5e1cdee00e9cb54071e085b41c", "type": "electric_scooter", "is_disabled": 0, "lat": 38.9049215, "rental_uris": {"ios": "https://dc.lft.to/lastmile_qr_scan", "android": "https://dc.lft.to/lastmile_qr_scan"}, "is_reserved": 0, "fusion_lon": 0.0, "fusion_lat": 0.0, "lon": -77.01989633333334, "name": "6dc8da5e1cdee00e9cb54071e085b41c"}, {"bike_id": "e23072f0cb87a931986be570f3fdea13", "type": "electric_scooter", "is_disabled": 0, "lat": 38.93373733333333, "rental_uris": {"ios": "https://dc.lft.to/lastmile_qr_scan", "android": "https://dc.lft.to/lastmile_qr_scan"}, "is_reserved": 0, "fusion_lon": 0.0, "fusion_lat": 0.0, "lon": -77.05737233333333, "name": "e23072f0cb87a931986be570f3fdea13"}, {"bike_id": "c66cbdd5520e16d0022ef4605fb266b4", "type": "electric_scooter", "is_disabled": 0, "lat": 38.93352616666667, "rental_uris": {"ios": "https://dc.lft.to/lastmile_qr_scan", "android": "https://dc.lft.to/lastmile_qr_scan"}, "is_reserved": 0, "fusion_lon": 0.0, "fusion_lat": 0.0, "lon": -76.99260233333334, "name": "c66cbdd5520e16d0022ef4605fb266b4"}, {"bike_id": "886f6a618b8a3888375631fca00fa953", "type": "electric_scooter", "is_disabled": 0, "lat": 38.899085666666664, "rental_uris": {"ios": "https://dc.lft.to/lastmile_qr_scan", "android": "https://dc.lft.to/lastmile_qr_scan"}, "is_reserved": 0, "fusion_lon": 0.0, "fusion_lat": 0.0, "lon": -76.98177783333334, "name": "886f6a618b8a3888375631fca00fa953"}, {"bike_id": "6452797d4b98c643c41b45dabeb699a4", "type": "electric_scooter", "is_disabled": 0, "lat": 38.90047633333333, "rental_uris": {"ios": "https://dc.lft.to/lastmile_qr_scan", "android": "https://dc.lft.to/lastmile_qr_scan"}, "is_reserved": 0, "fusion_lon": 0.0, "fusion_lat": 0.0, "lon": -77.01835483333333, "name": "6452797d4b98c643c41b45dabeb699a4"}, {"bike_id": "493b21219a32810a57bf1c588db6a356", "type": "electric_scooter", "is_disabled": 0, "lat": 38.923466, "rental_uris": {"ios": "https://dc.lft.to/lastmile_qr_scan", "android": "https://dc.lft.to/lastmile_qr_scan"}, "is_reserved": 0, "fusion_lon": 0.0, "fusion_lat": 0.0, "lon": -77.03349933333334, "name": "493b21219a32810a57bf1c588db6a356"}, {"bike_id": "e95435d562a1326b2873a3fe7bdcce0b", "type": "electric_scooter", "is_disabled": 0, "lat": 38.902489, "rental_uris": {"ios": "https://dc.lft.to/lastmile_qr_scan", "android": "https://dc.lft.to/lastmile_qr_scan"}, "is_reserved": 0, "fusion_lon": 0.0, "fusion_lat": 0.0, "lon": -77.0163735, "name": "e95435d562a1326b2873a3fe7bdcce0b"}, {"bike_id": "a1e0082d1315d2787aed7cd2b8b479bb", "type": "electric_scooter", "is_disabled": 0, "lat": 38.93183666666667, "rental_uris": {"ios": "https://dc.lft.to/lastmile_qr_scan", "android": "https://dc.lft.to/lastmile_qr_scan"}, "is_reserved": 0, "fusion_lon": 0.0, "fusion_lat": 0.0, "lon": -77.02542366666667, "name": "a1e0082d1315d2787aed7cd2b8b479bb"}, {"bike_id": "32b0add25cf78030aa5ee3aff5882732", "type": "electric_scooter", "is_disabled": 0, "lat": 38.8947685, "rental_uris": {"ios": "https://dc.lft.to/lastmile_qr_scan", "android": "https://dc.lft.to/lastmile_qr_scan"}, "is_reserved": 0, "fusion_lon": 0.0, "fusion_lat": 0.0, "lon": -76.94860916666667, "name": "32b0add25cf78030aa5ee3aff5882732"}, {"bike_id": "fcac3196726094b28ee6d1d954a53477", "type": "electric_scooter", "is_disabled": 0, "lat": 38.9095355, "rental_uris": {"ios": "https://dc.lft.to/lastmile_qr_scan", "android": "https://dc.lft.to/lastmile_qr_scan"}, "is_reserved": 0, "fusion_lon": 0.0, "fusion_lat": 0.0, "lon": -77.02717616666666, "name": "fcac3196726094b28ee6d1d954a53477"}, {"bike_id": "2d31e24eee2c4c562675f468c4097171", "type": "electric_scooter", "is_disabled": 0, "lat": 38.907339666666665, "rental_uris": {"ios": "https://dc.lft.to/lastmile_qr_scan", "android": "https://dc.lft.to/lastmile_qr_scan"}, "is_reserved": 0, "fusion_lon": 0.0, "fusion_lat": 0.0, "lon": -77.00939733333334, "name": "2d31e24eee2c4c562675f468c4097171"}, {"bike_id": "1baeda633a19116fcc4013baf897504a", "type": "electric_scooter", "is_disabled": 0, "lat": 38.89618566666667, "rental_uris": {"ios": "https://dc.lft.to/lastmile_qr_scan", "android": "https://dc.lft.to/lastmile_qr_scan"}, "is_reserved": 0, "fusion_lon": 0.0, "fusion_lat": 0.0, "lon": -76.985748, "name": "1baeda633a19116fcc4013baf897504a"}, {"bike_id": "b08f8f4013059ac2e1d842e92b554caf", "type": "electric_scooter", "is_disabled": 0, "lat": 38.90773183333334, "rental_uris": {"ios": "https://dc.lft.to/lastmile_qr_scan", "android": "https://dc.lft.to/lastmile_qr_scan"}, "is_reserved": 0, "fusion_lon": 0.0, "fusion_lat": 0.0, "lon": -77.071499, "name": "b08f8f4013059ac2e1d842e92b554caf"}, {"bike_id": "b4cc4f5937be1859d7d76c47bd7dde5f", "type": "electric_scooter", "is_disabled": 0, "lat": 38.909187333333335, "rental_uris": {"ios": "https://dc.lft.to/lastmile_qr_scan", "android": "https://dc.lft.to/lastmile_qr_scan"}, "is_reserved": 0, "fusion_lon": 0.0, "fusion_lat": 0.0, "lon": -77.01526883333334, "name": "b4cc4f5937be1859d7d76c47bd7dde5f"}, {"bike_id": "69a3fd5dadeec0273ced9ac06e41f16c", "type": "electric_scooter", "is_disabled": 0, "lat": 38.9119465, "rental_uris": {"ios": "https://dc.lft.to/lastmile_qr_scan", "android": "https://dc.lft.to/lastmile_qr_scan"}, "is_reserved": 0, "fusion_lon": 0.0, "fusion_lat": 0.0, "lon": -77.040439, "name": "69a3fd5dadeec0273ced9ac06e41f16c"}, {"bike_id": "193f0c19cf1f1caa38233a7dfc00bdd2", "type": "electric_scooter", "is_disabled": 0, "lat": 38.907304333333336, "rental_uris": {"ios": "https://dc.lft.to/lastmile_qr_scan", "android": "https://dc.lft.to/lastmile_qr_scan"}, "is_reserved": 0, "fusion_lon": 0.0, "fusion_lat": 0.0, "lon": -77.03196483333333, "name": "193f0c19cf1f1caa38233a7dfc00bdd2"}, {"bike_id": "1a61ad81ab7db41a3635e349ac1666f6", "type": "electric_scooter", "is_disabled": 0, "lat": 38.925318833333336, "rental_uris": {"ios": "https://dc.lft.to/lastmile_qr_scan", "android": "https://dc.lft.to/lastmile_qr_scan"}, "is_reserved": 0, "fusion_lon": 0.0, "fusion_lat": 0.0, "lon": -77.042826, "name": "1a61ad81ab7db41a3635e349ac1666f6"}, {"bike_id": "9e499fb361472e9c6e1df499fb79266a", "type": "electric_bike", "is_disabled": 0, "lat": 38.87555483333333, "rental_uris": {"ios": "https://dc.lft.to/lastmile_qr_scan", "android": "https://dc.lft.to/lastmile_qr_scan"}, "is_reserved": 0, "fusion_lon": 0.0, "fusion_lat": 0.0, "lon": -76.96502616666666, "name": "9e499fb361472e9c6e1df499fb79266a"}, {"bike_id": "93b833d0dc98f4922e7a6062dfd5cdde", "type": "electric_scooter", "is_disabled": 0, "lat": 38.9192875, "rental_uris": {"ios": "https://dc.lft.to/lastmile_qr_scan", "android": "https://dc.lft.to/lastmile_qr_scan"}, "is_reserved": 0, "fusion_lon": 0.0, "fusion_lat": 0.0, "lon": -77.044983, "name": "93b833d0dc98f4922e7a6062dfd5cdde"}, {"bike_id": "2a27799290ad603682f5c3b39534483c", "type": "electric_scooter", "is_disabled": 0, "lat": 38.89839333333333, "rental_uris": {"ios": "https://dc.lft.to/lastmile_qr_scan", "android": "https://dc.lft.to/lastmile_qr_scan"}, "is_reserved": 0, "fusion_lon": 0.0, "fusion_lat": 0.0, "lon": -76.9463205, "name": "2a27799290ad603682f5c3b39534483c"}, {"bike_id": "0c32f6572de6efc40437803020235c81", "type": "electric_scooter", "is_disabled": 0, "lat": 38.902696666666664, "rental_uris": {"ios": "https://dc.lft.to/lastmile_qr_scan", "android": "https://dc.lft.to/lastmile_qr_scan"}, "is_reserved": 0, "fusion_lon": 0.0, "fusion_lat": 0.0, "lon": -77.05482766666667, "name": "0c32f6572de6efc40437803020235c81"}, {"bike_id": "434552ce02457b60e6107d62ab314706", "type": "electric_scooter", "is_disabled": 0, "lat": 38.90733266666667, "rental_uris": {"ios": "https://dc.lft.to/lastmile_qr_scan", "android": "https://dc.lft.to/lastmile_qr_scan"}, "is_reserved": 0, "fusion_lon": 0.0, "fusion_lat": 0.0, "lon": -77.04334883333334, "name": "434552ce02457b60e6107d62ab314706"}, {"bike_id": "eaaa63aae4168e897202aa9658aa97fc", "type": "electric_bike", "is_disabled": 0, "lat": 38.8729965, "rental_uris": {"ios": "https://dc.lft.to/lastmile_qr_scan", "android": "https://dc.lft.to/lastmile_qr_scan"}, "is_reserved": 0, "fusion_lon": 0.0, "fusion_lat": 0.0, "lon": -77.1391695, "name": "eaaa63aae4168e897202aa9658aa97fc"}, {"bike_id": "a31e42209a624f7999f8aaee7287e6e4", "type": "electric_scooter", "is_disabled": 0, "lat": 38.928608, "rental_uris": {"ios": "https://dc.lft.to/lastmile_qr_scan", "android": "https://dc.lft.to/lastmile_qr_scan"}, "is_reserved": 0, "fusion_lon": 0.0, "fusion_lat": 0.0, "lon": -77.03425783333333, "name": "a31e42209a624f7999f8aaee7287e6e4"}, {"bike_id": "0e6301385889b5ea1e7368150cb2936e", "type": "electric_scooter", "is_disabled": 0, "lat": 38.93355366666667, "rental_uris": {"ios": "https://dc.lft.to/lastmile_qr_scan", "android": "https://dc.lft.to/lastmile_qr_scan"}, "is_reserved": 0, "fusion_lon": 0.0, "fusion_lat": 0.0, "lon": -77.06205566666667, "name": "0e6301385889b5ea1e7368150cb2936e"}, {"bike_id": "b16f3008efef6ebedc13488f9c3ee091", "type": "electric_scooter", "is_disabled": 0, "lat": 38.924289333333334, "rental_uris": {"ios": "https://dc.lft.to/lastmile_qr_scan", "android": "https://dc.lft.to/lastmile_qr_scan"}, "is_reserved": 0, "fusion_lon": 0.0, "fusion_lat": 0.0, "lon": -77.0424675, "name": "b16f3008efef6ebedc13488f9c3ee091"}, {"bike_id": "d20f030f510ccbe6e2b1399e8eb1ffae", "type": "electric_scooter", "is_disabled": 0, "lat": 38.9113935, "rental_uris": {"ios": "https://dc.lft.to/lastmile_qr_scan", "android": "https://dc.lft.to/lastmile_qr_scan"}, "is_reserved": 0, "fusion_lon": 0.0, "fusion_lat": 0.0, "lon": -76.99012816666666, "name": "d20f030f510ccbe6e2b1399e8eb1ffae"}, {"bike_id": "603bf6bc533deb4340c21531c71d7c0e", "type": "electric_scooter", "is_disabled": 0, "lat": 38.95315983333333, "rental_uris": {"ios": "https://dc.lft.to/lastmile_qr_scan", "android": "https://dc.lft.to/lastmile_qr_scan"}, "is_reserved": 0, "fusion_lon": 0.0, "fusion_lat": 0.0, "lon": -77.06981233333333, "name": "603bf6bc533deb4340c21531c71d7c0e"}, {"bike_id": "adf1780644778b142de75a59ee5bb2ac", "type": "electric_scooter", "is_disabled": 0, "lat": 38.895323166666664, "rental_uris": {"ios": "https://dc.lft.to/lastmile_qr_scan", "android": "https://dc.lft.to/lastmile_qr_scan"}, "is_reserved": 0, "fusion_lon": 0.0, "fusion_lat": 0.0, "lon": -77.01128633333333, "name": "adf1780644778b142de75a59ee5bb2ac"}, {"bike_id": "32270cc83202cca3df4d6c3b1f90b0b8", "type": "electric_scooter", "is_disabled": 0, "lat": 38.9359725, "rental_uris": {"ios": "https://dc.lft.to/lastmile_qr_scan", "android": "https://dc.lft.to/lastmile_qr_scan"}, "is_reserved": 0, "fusion_lon": 0.0, "fusion_lat": 0.0, "lon": -77.0380685, "name": "32270cc83202cca3df4d6c3b1f90b0b8"}, {"bike_id": "aaac01cc24a01babcaec92637fd03642", "type": "electric_scooter", "is_disabled": 0, "lat": 38.93864283333333, "rental_uris": {"ios": "https://dc.lft.to/lastmile_qr_scan", "android": "https://dc.lft.to/lastmile_qr_scan"}, "is_reserved": 0, "fusion_lon": 0.0, "fusion_lat": 0.0, "lon": -77.02704316666667, "name": "aaac01cc24a01babcaec92637fd03642"}, {"bike_id": "4f1704c2aefd9679c86b7589eb7fc2f1", "type": "electric_scooter", "is_disabled": 0, "lat": 38.902462666666665, "rental_uris": {"ios": "https://dc.lft.to/lastmile_qr_scan", "android": "https://dc.lft.to/lastmile_qr_scan"}, "is_reserved": 0, "fusion_lon": 0.0, "fusion_lat": 0.0, "lon": -77.02657966666666, "name": "4f1704c2aefd9679c86b7589eb7fc2f1"}, {"bike_id": "6d3ceaec7ef14245ea54dafbc435942a", "type": "electric_scooter", "is_disabled": 0, "lat": 38.86625866666667, "rental_uris": {"ios": "https://dc.lft.to/lastmile_qr_scan", "android": "https://dc.lft.to/lastmile_qr_scan"}, "is_reserved": 0, "fusion_lon": 0.0, "fusion_lat": 0.0, "lon": -76.98716516666667, "name": "6d3ceaec7ef14245ea54dafbc435942a"}, {"bike_id": "fe9cb225d8587b4b270c088c1192d0cb", "type": "electric_scooter", "is_disabled": 0, "lat": 38.894856, "rental_uris": {"ios": "https://dc.lft.to/lastmile_qr_scan", "android": "https://dc.lft.to/lastmile_qr_scan"}, "is_reserved": 0, "fusion_lon": 0.0, "fusion_lat": 0.0, "lon": -76.98782833333334, "name": "fe9cb225d8587b4b270c088c1192d0cb"}, {"bike_id": "4b8834a1c3fba6d0172febe30c7227a5", "type": "electric_scooter", "is_disabled": 0, "lat": 38.87069133333333, "rental_uris": {"ios": "https://dc.lft.to/lastmile_qr_scan", "android": "https://dc.lft.to/lastmile_qr_scan"}, "is_reserved": 0, "fusion_lon": 0.0, "fusion_lat": 0.0, "lon": -76.98127483333333, "name": "4b8834a1c3fba6d0172febe30c7227a5"}, {"bike_id": "9140f3fe814e376a53655f88b4025371", "type": "electric_scooter", "is_disabled": 0, "lat": 38.93977366666667, "rental_uris": {"ios": "https://dc.lft.to/lastmile_qr_scan", "android": "https://dc.lft.to/lastmile_qr_scan"}, "is_reserved": 0, "fusion_lon": 0.0, "fusion_lat": 0.0, "lon": -77.02871666666667, "name": "9140f3fe814e376a53655f88b4025371"}, {"bike_id": "2a85de0d9d4b6ff6a763bc5dcb259dc6", "type": "electric_bike", "is_disabled": 0, "lat": 38.8075385, "rental_uris": {"ios": "https://dc.lft.to/lastmile_qr_scan", "android": "https://dc.lft.to/lastmile_qr_scan"}, "is_reserved": 0, "fusion_lon": 0.0, "fusion_lat": 0.0, "lon": -77.09453133333334, "name": "2a85de0d9d4b6ff6a763bc5dcb259dc6"}, {"bike_id": "3762ea9bcdf5762839377bf1f1abd346", "type": "electric_scooter", "is_disabled": 0, "lat": 38.892974333333335, "rental_uris": {"ios": "https://dc.lft.to/lastmile_qr_scan", "android": "https://dc.lft.to/lastmile_qr_scan"}, "is_reserved": 0, "fusion_lon": 0.0, "fusion_lat": 0.0, "lon": -77.02022233333334, "name": "3762ea9bcdf5762839377bf1f1abd346"}, {"bike_id": "d67472dcf5fb7f952c0ab2bbdbb936ee", "type": "electric_bike", "is_disabled": 0, "lat": 38.86479766666667, "rental_uris": {"ios": "https://dc.lft.to/lastmile_qr_scan", "android": "https://dc.lft.to/lastmile_qr_scan"}, "is_reserved": 0, "fusion_lon": 0.0, "fusion_lat": 0.0, "lon": -76.97747416666667, "name": "d67472dcf5fb7f952c0ab2bbdbb936ee"}, {"bike_id": "6971bc54b69ba100c8866ddd08eb2130", "type": "electric_scooter", "is_disabled": 0, "lat": 38.91723866666667, "rental_uris": {"ios": "https://dc.lft.to/lastmile_qr_scan", "android": "https://dc.lft.to/lastmile_qr_scan"}, "is_reserved": 0, "fusion_lon": 0.0, "fusion_lat": 0.0, "lon": -77.00817033333334, "name": "6971bc54b69ba100c8866ddd08eb2130"}, {"bike_id": "b6519c665fe409244020b036258f514c", "type": "electric_scooter", "is_disabled": 0, "lat": 38.938969666666665, "rental_uris": {"ios": "https://dc.lft.to/lastmile_qr_scan", "android": "https://dc.lft.to/lastmile_qr_scan"}, "is_reserved": 0, "fusion_lon": 0.0, "fusion_lat": 0.0, "lon": -77.03304116666666, "name": "b6519c665fe409244020b036258f514c"}, {"bike_id": "83e86ff884616e7c73b0e8b458552d0f", "type": "electric_scooter", "is_disabled": 0, "lat": 38.91413133333333, "rental_uris": {"ios": "https://dc.lft.to/lastmile_qr_scan", "android": "https://dc.lft.to/lastmile_qr_scan"}, "is_reserved": 0, "fusion_lon": 0.0, "fusion_lat": 0.0, "lon": -77.0395815, "name": "83e86ff884616e7c73b0e8b458552d0f"}, {"bike_id": "3f37262dc33605633d1473ba7ffacccb", "type": "electric_scooter", "is_disabled": 0, "lat": 38.923258, "rental_uris": {"ios": "https://dc.lft.to/lastmile_qr_scan", "android": "https://dc.lft.to/lastmile_qr_scan"}, "is_reserved": 0, "fusion_lon": 0.0, "fusion_lat": 0.0, "lon": -77.00057966666667, "name": "3f37262dc33605633d1473ba7ffacccb"}, {"bike_id": "a0deb08ffd1d7569a40f56411c625645", "type": "electric_bike", "is_disabled": 0, "lat": 38.9596035, "rental_uris": {"ios": "https://dc.lft.to/lastmile_qr_scan", "android": "https://dc.lft.to/lastmile_qr_scan"}, "is_reserved": 0, "fusion_lon": 0.0, "fusion_lat": 0.0, "lon": -76.98155416666667, "name": "a0deb08ffd1d7569a40f56411c625645"}, {"bike_id": "905e0c9e8e2125e5624897828ca0f764", "type": "electric_scooter", "is_disabled": 0, "lat": 38.94197583333333, "rental_uris": {"ios": "https://dc.lft.to/lastmile_qr_scan", "android": "https://dc.lft.to/lastmile_qr_scan"}, "is_reserved": 0, "fusion_lon": 0.0, "fusion_lat": 0.0, "lon": -77.02546383333333, "name": "905e0c9e8e2125e5624897828ca0f764"}, {"bike_id": "15d963cd8aee5e9825cf1c47b0a7d220", "type": "electric_scooter", "is_disabled": 0, "lat": 38.8580915, "rental_uris": {"ios": "https://dc.lft.to/lastmile_qr_scan", "android": "https://dc.lft.to/lastmile_qr_scan"}, "is_reserved": 0, "fusion_lon": 0.0, "fusion_lat": 0.0, "lon": -76.989255, "name": "15d963cd8aee5e9825cf1c47b0a7d220"}, {"bike_id": "2ff631bf6dba7c1c0136a86439774ee0", "type": "electric_scooter", "is_disabled": 0, "lat": 38.92480916666667, "rental_uris": {"ios": "https://dc.lft.to/lastmile_qr_scan", "android": "https://dc.lft.to/lastmile_qr_scan"}, "is_reserved": 0, "fusion_lon": 0.0, "fusion_lat": 0.0, "lon": -77.02966783333333, "name": "2ff631bf6dba7c1c0136a86439774ee0"}, {"bike_id": "f70233f2d1e55d5d1b36235c4f66658d", "type": "electric_scooter", "is_disabled": 0, "lat": 38.91710366666667, "rental_uris": {"ios": "https://dc.lft.to/lastmile_qr_scan", "android": "https://dc.lft.to/lastmile_qr_scan"}, "is_reserved": 0, "fusion_lon": 0.0, "fusion_lat": 0.0, "lon": -77.02892016666667, "name": "f70233f2d1e55d5d1b36235c4f66658d"}, {"bike_id": "ea2f36017f6cec4c7968008246fe722e", "type": "electric_scooter", "is_disabled": 0, "lat": 38.899714833333334, "rental_uris": {"ios": "https://dc.lft.to/lastmile_qr_scan", "android": "https://dc.lft.to/lastmile_qr_scan"}, "is_reserved": 0, "fusion_lon": 0.0, "fusion_lat": 0.0, "lon": -76.98301766666667, "name": "ea2f36017f6cec4c7968008246fe722e"}, {"bike_id": "039c521cddfbe2744caec634499282ad", "type": "electric_scooter", "is_disabled": 0, "lat": 38.90789633333333, "rental_uris": {"ios": "https://dc.lft.to/lastmile_qr_scan", "android": "https://dc.lft.to/lastmile_qr_scan"}, "is_reserved": 0, "fusion_lon": 0.0, "fusion_lat": 0.0, "lon": -76.994279, "name": "039c521cddfbe2744caec634499282ad"}, {"bike_id": "07e103afca7ea1b3276e4c68c63e736b", "type": "electric_scooter", "is_disabled": 0, "lat": 38.9049725, "rental_uris": {"ios": "https://dc.lft.to/lastmile_qr_scan", "android": "https://dc.lft.to/lastmile_qr_scan"}, "is_reserved": 0, "fusion_lon": 0.0, "fusion_lat": 0.0, "lon": -77.04335766666667, "name": "07e103afca7ea1b3276e4c68c63e736b"}, {"bike_id": "8c187ab0893f72555ab4fac61d0aebce", "type": "electric_bike", "is_disabled": 0, "lat": 38.91002616666667, "rental_uris": {"ios": "https://dc.lft.to/lastmile_qr_scan", "android": "https://dc.lft.to/lastmile_qr_scan"}, "is_reserved": 0, "fusion_lon": 0.0, "fusion_lat": 0.0, "lon": -77.057148, "name": "8c187ab0893f72555ab4fac61d0aebce"}, {"bike_id": "24b8d8299aa86cb0558b3b1e8e4c3fd2", "type": "electric_scooter", "is_disabled": 0, "lat": 38.9361095, "rental_uris": {"ios": "https://dc.lft.to/lastmile_qr_scan", "android": "https://dc.lft.to/lastmile_qr_scan"}, "is_reserved": 0, "fusion_lon": 0.0, "fusion_lat": 0.0, "lon": -77.0379845, "name": "24b8d8299aa86cb0558b3b1e8e4c3fd2"}, {"bike_id": "e0f017922885f0262aab82555d357a8e", "type": "electric_bike", "is_disabled": 0, "lat": 38.951740666666666, "rental_uris": {"ios": "https://dc.lft.to/lastmile_qr_scan", "android": "https://dc.lft.to/lastmile_qr_scan"}, "is_reserved": 0, "fusion_lon": 0.0, "fusion_lat": 0.0, "lon": -76.977317, "name": "e0f017922885f0262aab82555d357a8e"}, {"bike_id": "ac9cfa28dc1d3c67bde99f0f3a966aa4", "type": "electric_scooter", "is_disabled": 0, "lat": 38.916581, "rental_uris": {"ios": "https://dc.lft.to/lastmile_qr_scan", "android": "https://dc.lft.to/lastmile_qr_scan"}, "is_reserved": 0, "fusion_lon": 0.0, "fusion_lat": 0.0, "lon": -76.97909266666667, "name": "ac9cfa28dc1d3c67bde99f0f3a966aa4"}, {"bike_id": "c49015cd95bc4216b8b3ca294d4dd135", "type": "electric_scooter", "is_disabled": 0, "lat": 38.90038916666666, "rental_uris": {"ios": "https://dc.lft.to/lastmile_qr_scan", "android": "https://dc.lft.to/lastmile_qr_scan"}, "is_reserved": 0, "fusion_lon": 0.0, "fusion_lat": 0.0, "lon": -77.017032, "name": "c49015cd95bc4216b8b3ca294d4dd135"}, {"bike_id": "4c0c25183d54d8610b8c6b601918442f", "type": "electric_bike", "is_disabled": 0, "lat": 38.9876895, "rental_uris": {"ios": "https://dc.lft.to/lastmile_qr_scan", "android": "https://dc.lft.to/lastmile_qr_scan"}, "is_reserved": 0, "fusion_lon": 0.0, "fusion_lat": 0.0, "lon": -77.140545, "name": "4c0c25183d54d8610b8c6b601918442f"}, {"bike_id": "c27834a267a606b610a4205bf9282d1e", "type": "electric_scooter", "is_disabled": 0, "lat": 38.94902166666667, "rental_uris": {"ios": "https://dc.lft.to/lastmile_qr_scan", "android": "https://dc.lft.to/lastmile_qr_scan"}, "is_reserved": 0, "fusion_lon": 0.0, "fusion_lat": 0.0, "lon": -77.020731, "name": "c27834a267a606b610a4205bf9282d1e"}, {"bike_id": "24c14081f5234e0cb478946c2c86c851", "type": "electric_scooter", "is_disabled": 0, "lat": 38.9248865, "rental_uris": {"ios": "https://dc.lft.to/lastmile_qr_scan", "android": "https://dc.lft.to/lastmile_qr_scan"}, "is_reserved": 0, "fusion_lon": 0.0, "fusion_lat": 0.0, "lon": -77.03177133333334, "name": "24c14081f5234e0cb478946c2c86c851"}, {"bike_id": "d7773986f056cc153d7a6fa7c75a7c96", "type": "electric_scooter", "is_disabled": 0, "lat": 38.9237345, "rental_uris": {"ios": "https://dc.lft.to/lastmile_qr_scan", "android": "https://dc.lft.to/lastmile_qr_scan"}, "is_reserved": 0, "fusion_lon": 0.0, "fusion_lat": 0.0, "lon": -77.0121925, "name": "d7773986f056cc153d7a6fa7c75a7c96"}, {"bike_id": "143ea7c1fad6b328de51b4bdb241bc14", "type": "electric_scooter", "is_disabled": 0, "lat": 38.9232565, "rental_uris": {"ios": "https://dc.lft.to/lastmile_qr_scan", "android": "https://dc.lft.to/lastmile_qr_scan"}, "is_reserved": 0, "fusion_lon": 0.0, "fusion_lat": 0.0, "lon": -77.008919, "name": "143ea7c1fad6b328de51b4bdb241bc14"}, {"bike_id": "d6dee8faafc145007ea96eaee43c267c", "type": "electric_scooter", "is_disabled": 0, "lat": 38.88778383333333, "rental_uris": {"ios": "https://dc.lft.to/lastmile_qr_scan", "android": "https://dc.lft.to/lastmile_qr_scan"}, "is_reserved": 0, "fusion_lon": 0.0, "fusion_lat": 0.0, "lon": -76.95522533333333, "name": "d6dee8faafc145007ea96eaee43c267c"}, {"bike_id": "b7ff4cd23f8151cff333bfad8f59cfdc", "type": "electric_scooter", "is_disabled": 0, "lat": 38.9206295, "rental_uris": {"ios": "https://dc.lft.to/lastmile_qr_scan", "android": "https://dc.lft.to/lastmile_qr_scan"}, "is_reserved": 0, "fusion_lon": 0.0, "fusion_lat": 0.0, "lon": -77.04250916666666, "name": "b7ff4cd23f8151cff333bfad8f59cfdc"}, {"bike_id": "c98c99a6ba1aa8d80dc758a06e78782a", "type": "electric_scooter", "is_disabled": 0, "lat": 38.92234466666667, "rental_uris": {"ios": "https://dc.lft.to/lastmile_qr_scan", "android": "https://dc.lft.to/lastmile_qr_scan"}, "is_reserved": 0, "fusion_lon": 0.0, "fusion_lat": 0.0, "lon": -77.03133466666667, "name": "c98c99a6ba1aa8d80dc758a06e78782a"}, {"bike_id": "7143a4660c4de95aacad446a9d71294e", "type": "electric_scooter", "is_disabled": 0, "lat": 38.90890983333333, "rental_uris": {"ios": "https://dc.lft.to/lastmile_qr_scan", "android": "https://dc.lft.to/lastmile_qr_scan"}, "is_reserved": 0, "fusion_lon": 0.0, "fusion_lat": 0.0, "lon": -77.02247133333333, "name": "7143a4660c4de95aacad446a9d71294e"}, {"bike_id": "1035b3172dbb4f863308d79a215b8da1", "type": "electric_scooter", "is_disabled": 0, "lat": 38.92884133333333, "rental_uris": {"ios": "https://dc.lft.to/lastmile_qr_scan", "android": "https://dc.lft.to/lastmile_qr_scan"}, "is_reserved": 0, "fusion_lon": 0.0, "fusion_lat": 0.0, "lon": -77.05445316666666, "name": "1035b3172dbb4f863308d79a215b8da1"}, {"bike_id": "be6a2e42c1f0018e3321238d5a714084", "type": "electric_scooter", "is_disabled": 0, "lat": 38.9079505, "rental_uris": {"ios": "https://dc.lft.to/lastmile_qr_scan", "android": "https://dc.lft.to/lastmile_qr_scan"}, "is_reserved": 0, "fusion_lon": 0.0, "fusion_lat": 0.0, "lon": -77.04812216666667, "name": "be6a2e42c1f0018e3321238d5a714084"}, {"bike_id": "b0a0b1d21f4453117f80520764a6e05b", "type": "electric_scooter", "is_disabled": 0, "lat": 38.902270333333334, "rental_uris": {"ios": "https://dc.lft.to/lastmile_qr_scan", "android": "https://dc.lft.to/lastmile_qr_scan"}, "is_reserved": 0, "fusion_lon": 0.0, "fusion_lat": 0.0, "lon": -77.0336695, "name": "b0a0b1d21f4453117f80520764a6e05b"}, {"bike_id": "492a3a775de5fcf57713585679b149a7", "type": "electric_scooter", "is_disabled": 0, "lat": 38.921035333333336, "rental_uris": {"ios": "https://dc.lft.to/lastmile_qr_scan", "android": "https://dc.lft.to/lastmile_qr_scan"}, "is_reserved": 0, "fusion_lon": 0.0, "fusion_lat": 0.0, "lon": -77.07188466666666, "name": "492a3a775de5fcf57713585679b149a7"}, {"bike_id": "eb6a7c0c853a2379d912a5b62617fb8a", "type": "electric_scooter", "is_disabled": 0, "lat": 38.88653166666667, "rental_uris": {"ios": "https://dc.lft.to/lastmile_qr_scan", "android": "https://dc.lft.to/lastmile_qr_scan"}, "is_reserved": 0, "fusion_lon": 0.0, "fusion_lat": 0.0, "lon": -77.02828533333333, "name": "eb6a7c0c853a2379d912a5b62617fb8a"}, {"bike_id": "050126e27de360298880618e89a16ec3", "type": "electric_bike", "is_disabled": 0, "lat": 38.931642333333336, "rental_uris": {"ios": "https://dc.lft.to/lastmile_qr_scan", "android": "https://dc.lft.to/lastmile_qr_scan"}, "is_reserved": 0, "fusion_lon": 0.0, "fusion_lat": 0.0, "lon": -77.07858083333333, "name": "050126e27de360298880618e89a16ec3"}, {"bike_id": "c7bb750f99b73b23c239dbb8bb0e4a6c", "type": "electric_scooter", "is_disabled": 0, "lat": 38.91804316666666, "rental_uris": {"ios": "https://dc.lft.to/lastmile_qr_scan", "android": "https://dc.lft.to/lastmile_qr_scan"}, "is_reserved": 0, "fusion_lon": 0.0, "fusion_lat": 0.0, "lon": -77.03447583333333, "name": "c7bb750f99b73b23c239dbb8bb0e4a6c"}, {"bike_id": "f8ea8e67f5af4c3f62c8081f333776da", "type": "electric_scooter", "is_disabled": 0, "lat": 38.896537333333335, "rental_uris": {"ios": "https://dc.lft.to/lastmile_qr_scan", "android": "https://dc.lft.to/lastmile_qr_scan"}, "is_reserved": 0, "fusion_lon": 0.0, "fusion_lat": 0.0, "lon": -77.07065816666666, "name": "f8ea8e67f5af4c3f62c8081f333776da"}, {"bike_id": "f7b8901fcd650457b75087d15c062f1f", "type": "electric_scooter", "is_disabled": 0, "lat": 38.92287533333333, "rental_uris": {"ios": "https://dc.lft.to/lastmile_qr_scan", "android": "https://dc.lft.to/lastmile_qr_scan"}, "is_reserved": 0, "fusion_lon": 0.0, "fusion_lat": 0.0, "lon": -77.04479733333334, "name": "f7b8901fcd650457b75087d15c062f1f"}, {"bike_id": "a57afd05d9bb907462ee3cc85fe2c6fc", "type": "electric_scooter", "is_disabled": 0, "lat": 38.866267666666666, "rental_uris": {"ios": "https://dc.lft.to/lastmile_qr_scan", "android": "https://dc.lft.to/lastmile_qr_scan"}, "is_reserved": 0, "fusion_lon": 0.0, "fusion_lat": 0.0, "lon": -76.98713566666666, "name": "a57afd05d9bb907462ee3cc85fe2c6fc"}, {"bike_id": "a5c003342cbe5ed5c0310195695117db", "type": "electric_scooter", "is_disabled": 0, "lat": 38.91343533333333, "rental_uris": {"ios": "https://dc.lft.to/lastmile_qr_scan", "android": "https://dc.lft.to/lastmile_qr_scan"}, "is_reserved": 0, "fusion_lon": 0.0, "fusion_lat": 0.0, "lon": -77.008948, "name": "a5c003342cbe5ed5c0310195695117db"}, {"bike_id": "9572c8f9ecc99c8e6b59148152c07e46", "type": "electric_scooter", "is_disabled": 0, "lat": 38.9156045, "rental_uris": {"ios": "https://dc.lft.to/lastmile_qr_scan", "android": "https://dc.lft.to/lastmile_qr_scan"}, "is_reserved": 0, "fusion_lon": 0.0, "fusion_lat": 0.0, "lon": -77.03129916666667, "name": "9572c8f9ecc99c8e6b59148152c07e46"}, {"bike_id": "ea06a68550f0d5d9a72ada04ff884413", "type": "electric_scooter", "is_disabled": 0, "lat": 38.902497, "rental_uris": {"ios": "https://dc.lft.to/lastmile_qr_scan", "android": "https://dc.lft.to/lastmile_qr_scan"}, "is_reserved": 0, "fusion_lon": 0.0, "fusion_lat": 0.0, "lon": -77.01855916666666, "name": "ea06a68550f0d5d9a72ada04ff884413"}, {"bike_id": "ff2cad30b9b3d3e111c115e9bd405cde", "type": "electric_scooter", "is_disabled": 0, "lat": 38.920413, "rental_uris": {"ios": "https://dc.lft.to/lastmile_qr_scan", "android": "https://dc.lft.to/lastmile_qr_scan"}, "is_reserved": 0, "fusion_lon": 0.0, "fusion_lat": 0.0, "lon": -77.03408133333333, "name": "ff2cad30b9b3d3e111c115e9bd405cde"}, {"bike_id": "f096a2db1f9887108792944e7f32e9f8", "type": "electric_scooter", "is_disabled": 0, "lat": 38.89734966666666, "rental_uris": {"ios": "https://dc.lft.to/lastmile_qr_scan", "android": "https://dc.lft.to/lastmile_qr_scan"}, "is_reserved": 0, "fusion_lon": 0.0, "fusion_lat": 0.0, "lon": -77.02496783333333, "name": "f096a2db1f9887108792944e7f32e9f8"}, {"bike_id": "cc1c8970fa3ce1ce3f3e8333cc2b25cc", "type": "electric_scooter", "is_disabled": 0, "lat": 38.907346, "rental_uris": {"ios": "https://dc.lft.to/lastmile_qr_scan", "android": "https://dc.lft.to/lastmile_qr_scan"}, "is_reserved": 0, "fusion_lon": 0.0, "fusion_lat": 0.0, "lon": -77.043405, "name": "cc1c8970fa3ce1ce3f3e8333cc2b25cc"}, {"bike_id": "6a0b44a885fab0ba9a99649bc584bdbd", "type": "electric_scooter", "is_disabled": 0, "lat": 38.923720833333334, "rental_uris": {"ios": "https://dc.lft.to/lastmile_qr_scan", "android": "https://dc.lft.to/lastmile_qr_scan"}, "is_reserved": 0, "fusion_lon": 0.0, "fusion_lat": 0.0, "lon": -77.0502845, "name": "6a0b44a885fab0ba9a99649bc584bdbd"}, {"bike_id": "174bb35837d51c9c0594ba78906eb5a4", "type": "electric_scooter", "is_disabled": 0, "lat": 38.90977266666667, "rental_uris": {"ios": "https://dc.lft.to/lastmile_qr_scan", "android": "https://dc.lft.to/lastmile_qr_scan"}, "is_reserved": 0, "fusion_lon": 0.0, "fusion_lat": 0.0, "lon": -77.04540083333333, "name": "174bb35837d51c9c0594ba78906eb5a4"}, {"bike_id": "899f50bb93419d8c8b2467ed3f8d3345", "type": "electric_scooter", "is_disabled": 0, "lat": 38.91148066666667, "rental_uris": {"ios": "https://dc.lft.to/lastmile_qr_scan", "android": "https://dc.lft.to/lastmile_qr_scan"}, "is_reserved": 0, "fusion_lon": 0.0, "fusion_lat": 0.0, "lon": -77.02952716666667, "name": "899f50bb93419d8c8b2467ed3f8d3345"}, {"bike_id": "bb357b87a93d8321e2b63a783c19c62b", "type": "electric_bike", "is_disabled": 0, "lat": 38.8315835, "rental_uris": {"ios": "https://dc.lft.to/lastmile_qr_scan", "android": "https://dc.lft.to/lastmile_qr_scan"}, "is_reserved": 0, "fusion_lon": 0.0, "fusion_lat": 0.0, "lon": -76.99548966666667, "name": "bb357b87a93d8321e2b63a783c19c62b"}, {"bike_id": "f9f3ef03fe97d8a911d8c1e985e46cb7", "type": "electric_scooter", "is_disabled": 0, "lat": 38.898488666666665, "rental_uris": {"ios": "https://dc.lft.to/lastmile_qr_scan", "android": "https://dc.lft.to/lastmile_qr_scan"}, "is_reserved": 0, "fusion_lon": 0.0, "fusion_lat": 0.0, "lon": -77.02222133333333, "name": "f9f3ef03fe97d8a911d8c1e985e46cb7"}, {"bike_id": "cd3a03c144546564cfcff48a30cb1a97", "type": "electric_scooter", "is_disabled": 0, "lat": 38.90072133333334, "rental_uris": {"ios": "https://dc.lft.to/lastmile_qr_scan", "android": "https://dc.lft.to/lastmile_qr_scan"}, "is_reserved": 0, "fusion_lon": 0.0, "fusion_lat": 0.0, "lon": -77.03087133333334, "name": "cd3a03c144546564cfcff48a30cb1a97"}, {"bike_id": "af4dfaea5a9bda35378f3a1013ef3d25", "type": "electric_bike", "is_disabled": 0, "lat": 39.054945, "rental_uris": {"ios": "https://dc.lft.to/lastmile_qr_scan", "android": "https://dc.lft.to/lastmile_qr_scan"}, "is_reserved": 0, "fusion_lon": 0.0, "fusion_lat": 0.0, "lon": -77.1179095, "name": "af4dfaea5a9bda35378f3a1013ef3d25"}, {"bike_id": "338b59096196dc41c9af052e9ce4fe1c", "type": "electric_scooter", "is_disabled": 0, "lat": 38.877478333333336, "rental_uris": {"ios": "https://dc.lft.to/lastmile_qr_scan", "android": "https://dc.lft.to/lastmile_qr_scan"}, "is_reserved": 0, "fusion_lon": 0.0, "fusion_lat": 0.0, "lon": -76.99723833333333, "name": "338b59096196dc41c9af052e9ce4fe1c"}, {"bike_id": "766c9f86594c6accb8e279fb465575bf", "type": "electric_scooter", "is_disabled": 0, "lat": 38.893467666666666, "rental_uris": {"ios": "https://dc.lft.to/lastmile_qr_scan", "android": "https://dc.lft.to/lastmile_qr_scan"}, "is_reserved": 0, "fusion_lon": 0.0, "fusion_lat": 0.0, "lon": -76.99270366666667, "name": "766c9f86594c6accb8e279fb465575bf"}, {"bike_id": "2dad2aa7afa1c4cda9581edd3a383a4a", "type": "electric_bike", "is_disabled": 0, "lat": 39.03731233333333, "rental_uris": {"ios": "https://dc.lft.to/lastmile_qr_scan", "android": "https://dc.lft.to/lastmile_qr_scan"}, "is_reserved": 0, "fusion_lon": 0.0, "fusion_lat": 0.0, "lon": -77.0547405, "name": "2dad2aa7afa1c4cda9581edd3a383a4a"}, {"bike_id": "ca87028c57f6913821a562a1950cc3f2", "type": "electric_scooter", "is_disabled": 0, "lat": 38.90967933333334, "rental_uris": {"ios": "https://dc.lft.to/lastmile_qr_scan", "android": "https://dc.lft.to/lastmile_qr_scan"}, "is_reserved": 0, "fusion_lon": 0.0, "fusion_lat": 0.0, "lon": -77.0322645, "name": "ca87028c57f6913821a562a1950cc3f2"}, {"bike_id": "8b479a9020aef0f82fe38ccb0eabf089", "type": "electric_scooter", "is_disabled": 0, "lat": 38.87652683333334, "rental_uris": {"ios": "https://dc.lft.to/lastmile_qr_scan", "android": "https://dc.lft.to/lastmile_qr_scan"}, "is_reserved": 0, "fusion_lon": 0.0, "fusion_lat": 0.0, "lon": -77.004203, "name": "8b479a9020aef0f82fe38ccb0eabf089"}, {"bike_id": "ffdfdc0abd6fd9bd37cdc8c93d60a1fc", "type": "electric_scooter", "is_disabled": 0, "lat": 38.91697583333333, "rental_uris": {"ios": "https://dc.lft.to/lastmile_qr_scan", "android": "https://dc.lft.to/lastmile_qr_scan"}, "is_reserved": 0, "fusion_lon": 0.0, "fusion_lat": 0.0, "lon": -77.023448, "name": "ffdfdc0abd6fd9bd37cdc8c93d60a1fc"}, {"bike_id": "7081d1da43419d37e8512ff197f4fadc", "type": "electric_bike", "is_disabled": 0, "lat": 38.919686, "rental_uris": {"ios": "https://dc.lft.to/lastmile_qr_scan", "android": "https://dc.lft.to/lastmile_qr_scan"}, "is_reserved": 0, "fusion_lon": 0.0, "fusion_lat": 0.0, "lon": -77.00361716666667, "name": "7081d1da43419d37e8512ff197f4fadc"}, {"bike_id": "cadc88cac740e00662cbbf99399d2967", "type": "electric_bike", "is_disabled": 0, "lat": 38.8812735, "rental_uris": {"ios": "https://dc.lft.to/lastmile_qr_scan", "android": "https://dc.lft.to/lastmile_qr_scan"}, "is_reserved": 0, "fusion_lon": 0.0, "fusion_lat": 0.0, "lon": -77.093516, "name": "cadc88cac740e00662cbbf99399d2967"}, {"bike_id": "a776f18933c8d5ded25d4f65cf7a8eff", "type": "electric_scooter", "is_disabled": 0, "lat": 38.957092333333335, "rental_uris": {"ios": "https://dc.lft.to/lastmile_qr_scan", "android": "https://dc.lft.to/lastmile_qr_scan"}, "is_reserved": 0, "fusion_lon": 0.0, "fusion_lat": 0.0, "lon": -77.077425, "name": "a776f18933c8d5ded25d4f65cf7a8eff"}, {"bike_id": "31d262a73f678b04ebb2de7389391919", "type": "electric_scooter", "is_disabled": 0, "lat": 38.90834866666667, "rental_uris": {"ios": "https://dc.lft.to/lastmile_qr_scan", "android": "https://dc.lft.to/lastmile_qr_scan"}, "is_reserved": 0, "fusion_lon": 0.0, "fusion_lat": 0.0, "lon": -77.0218775, "name": "31d262a73f678b04ebb2de7389391919"}, {"bike_id": "adc25dcd300119bd8e007ee05b315976", "type": "electric_bike", "is_disabled": 0, "lat": 38.908272333333336, "rental_uris": {"ios": "https://dc.lft.to/lastmile_qr_scan", "android": "https://dc.lft.to/lastmile_qr_scan"}, "is_reserved": 0, "fusion_lon": 0.0, "fusion_lat": 0.0, "lon": -76.9415815, "name": "adc25dcd300119bd8e007ee05b315976"}, {"bike_id": "59502c92567d4d2c553b98f209c5f02d", "type": "electric_scooter", "is_disabled": 0, "lat": 38.88987683333333, "rental_uris": {"ios": "https://dc.lft.to/lastmile_qr_scan", "android": "https://dc.lft.to/lastmile_qr_scan"}, "is_reserved": 0, "fusion_lon": 0.0, "fusion_lat": 0.0, "lon": -77.00121433333334, "name": "59502c92567d4d2c553b98f209c5f02d"}, {"bike_id": "a0c9f09f2b704ba715b88fd252efc37b", "type": "electric_scooter", "is_disabled": 0, "lat": 38.96605116666667, "rental_uris": {"ios": "https://dc.lft.to/lastmile_qr_scan", "android": "https://dc.lft.to/lastmile_qr_scan"}, "is_reserved": 0, "fusion_lon": 0.0, "fusion_lat": 0.0, "lon": -77.019787, "name": "a0c9f09f2b704ba715b88fd252efc37b"}, {"bike_id": "52d4a40b8587775f2df9d543d52f4399", "type": "electric_scooter", "is_disabled": 0, "lat": 38.919139, "rental_uris": {"ios": "https://dc.lft.to/lastmile_qr_scan", "android": "https://dc.lft.to/lastmile_qr_scan"}, "is_reserved": 0, "fusion_lon": 0.0, "fusion_lat": 0.0, "lon": -77.04471016666666, "name": "52d4a40b8587775f2df9d543d52f4399"}, {"bike_id": "fd0876f081b13a64edaa5a0f5bbc2e18", "type": "electric_scooter", "is_disabled": 0, "lat": 38.920551833333334, "rental_uris": {"ios": "https://dc.lft.to/lastmile_qr_scan", "android": "https://dc.lft.to/lastmile_qr_scan"}, "is_reserved": 0, "fusion_lon": 0.0, "fusion_lat": 0.0, "lon": -77.0346995, "name": "fd0876f081b13a64edaa5a0f5bbc2e18"}, {"bike_id": "f62dc3c0db35ca1ca5e095379b69bd31", "type": "electric_scooter", "is_disabled": 0, "lat": 38.91419833333333, "rental_uris": {"ios": "https://dc.lft.to/lastmile_qr_scan", "android": "https://dc.lft.to/lastmile_qr_scan"}, "is_reserved": 0, "fusion_lon": 0.0, "fusion_lat": 0.0, "lon": -77.02206083333333, "name": "f62dc3c0db35ca1ca5e095379b69bd31"}, {"bike_id": "279f2f8b0ad649f65688593ec03e317c", "type": "electric_scooter", "is_disabled": 0, "lat": 38.8966685, "rental_uris": {"ios": "https://dc.lft.to/lastmile_qr_scan", "android": "https://dc.lft.to/lastmile_qr_scan"}, "is_reserved": 0, "fusion_lon": 0.0, "fusion_lat": 0.0, "lon": -76.98814433333334, "name": "279f2f8b0ad649f65688593ec03e317c"}, {"bike_id": "6a257279b3ff0896ec5e1bdf054b4890", "type": "electric_scooter", "is_disabled": 0, "lat": 38.9105785, "rental_uris": {"ios": "https://dc.lft.to/lastmile_qr_scan", "android": "https://dc.lft.to/lastmile_qr_scan"}, "is_reserved": 0, "fusion_lon": 0.0, "fusion_lat": 0.0, "lon": -77.05288716666666, "name": "6a257279b3ff0896ec5e1bdf054b4890"}, {"bike_id": "73cac355374b0c493aeaff97367c5186", "type": "electric_scooter", "is_disabled": 0, "lat": 38.90973866666667, "rental_uris": {"ios": "https://dc.lft.to/lastmile_qr_scan", "android": "https://dc.lft.to/lastmile_qr_scan"}, "is_reserved": 0, "fusion_lon": 0.0, "fusion_lat": 0.0, "lon": -77.038653, "name": "73cac355374b0c493aeaff97367c5186"}, {"bike_id": "ea03afc13fb036799001fb78015919dc", "type": "electric_scooter", "is_disabled": 0, "lat": 38.90807816666667, "rental_uris": {"ios": "https://dc.lft.to/lastmile_qr_scan", "android": "https://dc.lft.to/lastmile_qr_scan"}, "is_reserved": 0, "fusion_lon": 0.0, "fusion_lat": 0.0, "lon": -77.0367395, "name": "ea03afc13fb036799001fb78015919dc"}, {"bike_id": "aa7489eaa998c867258bf32c6e3e1cb8", "type": "electric_scooter", "is_disabled": 0, "lat": 38.92410916666667, "rental_uris": {"ios": "https://dc.lft.to/lastmile_qr_scan", "android": "https://dc.lft.to/lastmile_qr_scan"}, "is_reserved": 0, "fusion_lon": 0.0, "fusion_lat": 0.0, "lon": -77.03638833333333, "name": "aa7489eaa998c867258bf32c6e3e1cb8"}, {"bike_id": "3e895b187b3c9923a58be11132164578", "type": "electric_scooter", "is_disabled": 0, "lat": 38.891934666666664, "rental_uris": {"ios": "https://dc.lft.to/lastmile_qr_scan", "android": "https://dc.lft.to/lastmile_qr_scan"}, "is_reserved": 0, "fusion_lon": 0.0, "fusion_lat": 0.0, "lon": -77.00234433333334, "name": "3e895b187b3c9923a58be11132164578"}, {"bike_id": "1c26455179f5c8cc28b48f1fcee77a40", "type": "electric_scooter", "is_disabled": 0, "lat": 38.917145166666664, "rental_uris": {"ios": "https://dc.lft.to/lastmile_qr_scan", "android": "https://dc.lft.to/lastmile_qr_scan"}, "is_reserved": 0, "fusion_lon": 0.0, "fusion_lat": 0.0, "lon": -77.04611566666667, "name": "1c26455179f5c8cc28b48f1fcee77a40"}, {"bike_id": "df5738cd74e719651c69f7e2eb47d37f", "type": "electric_scooter", "is_disabled": 0, "lat": 38.87786833333333, "rental_uris": {"ios": "https://dc.lft.to/lastmile_qr_scan", "android": "https://dc.lft.to/lastmile_qr_scan"}, "is_reserved": 0, "fusion_lon": 0.0, "fusion_lat": 0.0, "lon": -77.01733333333334, "name": "df5738cd74e719651c69f7e2eb47d37f"}, {"bike_id": "135ffd5404477e15a796fd13a9a9ea3c", "type": "electric_scooter", "is_disabled": 0, "lat": 38.920728833333335, "rental_uris": {"ios": "https://dc.lft.to/lastmile_qr_scan", "android": "https://dc.lft.to/lastmile_qr_scan"}, "is_reserved": 0, "fusion_lon": 0.0, "fusion_lat": 0.0, "lon": -77.02840816666667, "name": "135ffd5404477e15a796fd13a9a9ea3c"}, {"bike_id": "1d5155105ee76024836cf8e5911ff0b4", "type": "electric_scooter", "is_disabled": 0, "lat": 38.91635816666667, "rental_uris": {"ios": "https://dc.lft.to/lastmile_qr_scan", "android": "https://dc.lft.to/lastmile_qr_scan"}, "is_reserved": 0, "fusion_lon": 0.0, "fusion_lat": 0.0, "lon": -77.02551716666666, "name": "1d5155105ee76024836cf8e5911ff0b4"}, {"bike_id": "2dbaf7e155207b275d4a8650f3396b53", "type": "electric_scooter", "is_disabled": 0, "lat": 38.91629066666667, "rental_uris": {"ios": "https://dc.lft.to/lastmile_qr_scan", "android": "https://dc.lft.to/lastmile_qr_scan"}, "is_reserved": 0, "fusion_lon": 0.0, "fusion_lat": 0.0, "lon": -77.04010216666667, "name": "2dbaf7e155207b275d4a8650f3396b53"}, {"bike_id": "9999d9043d0e92a30f5f8467e6d431a3", "type": "electric_scooter", "is_disabled": 0, "lat": 38.920223166666666, "rental_uris": {"ios": "https://dc.lft.to/lastmile_qr_scan", "android": "https://dc.lft.to/lastmile_qr_scan"}, "is_reserved": 0, "fusion_lon": 0.0, "fusion_lat": 0.0, "lon": -77.01305566666667, "name": "9999d9043d0e92a30f5f8467e6d431a3"}, {"bike_id": "f79e601a1fe5a5fae37ede04212cd970", "type": "electric_scooter", "is_disabled": 0, "lat": 38.9156915, "rental_uris": {"ios": "https://dc.lft.to/lastmile_qr_scan", "android": "https://dc.lft.to/lastmile_qr_scan"}, "is_reserved": 0, "fusion_lon": 0.0, "fusion_lat": 0.0, "lon": -77.02419733333333, "name": "f79e601a1fe5a5fae37ede04212cd970"}, {"bike_id": "ee6d68ef64fe379e6bcb909fa9ba74b4", "type": "electric_scooter", "is_disabled": 0, "lat": 38.9317655, "rental_uris": {"ios": "https://dc.lft.to/lastmile_qr_scan", "android": "https://dc.lft.to/lastmile_qr_scan"}, "is_reserved": 0, "fusion_lon": 0.0, "fusion_lat": 0.0, "lon": -77.03172166666667, "name": "ee6d68ef64fe379e6bcb909fa9ba74b4"}, {"bike_id": "09f1e03d0255c2273af1cf4cd341f026", "type": "electric_scooter", "is_disabled": 0, "lat": 38.90100666666667, "rental_uris": {"ios": "https://dc.lft.to/lastmile_qr_scan", "android": "https://dc.lft.to/lastmile_qr_scan"}, "is_reserved": 0, "fusion_lon": 0.0, "fusion_lat": 0.0, "lon": -77.05014783333333, "name": "09f1e03d0255c2273af1cf4cd341f026"}, {"bike_id": "9a57d989311e7a604ea2679638369606", "type": "electric_scooter", "is_disabled": 0, "lat": 38.923645666666665, "rental_uris": {"ios": "https://dc.lft.to/lastmile_qr_scan", "android": "https://dc.lft.to/lastmile_qr_scan"}, "is_reserved": 0, "fusion_lon": 0.0, "fusion_lat": 0.0, "lon": -77.05044483333333, "name": "9a57d989311e7a604ea2679638369606"}, {"bike_id": "34ea973d32e570feb0defd73aa9b67d9", "type": "electric_scooter", "is_disabled": 0, "lat": 38.9057705, "rental_uris": {"ios": "https://dc.lft.to/lastmile_qr_scan", "android": "https://dc.lft.to/lastmile_qr_scan"}, "is_reserved": 0, "fusion_lon": 0.0, "fusion_lat": 0.0, "lon": -76.98433116666666, "name": "34ea973d32e570feb0defd73aa9b67d9"}, {"bike_id": "2344765a6c4b2f2545b663c78ac88f64", "type": "electric_bike", "is_disabled": 0, "lat": 38.87295783333333, "rental_uris": {"ios": "https://dc.lft.to/lastmile_qr_scan", "android": "https://dc.lft.to/lastmile_qr_scan"}, "is_reserved": 0, "fusion_lon": 0.0, "fusion_lat": 0.0, "lon": -77.13930033333334, "name": "2344765a6c4b2f2545b663c78ac88f64"}, {"bike_id": "f804248fd76640525177b3e754c5812b", "type": "electric_scooter", "is_disabled": 0, "lat": 38.94200683333333, "rental_uris": {"ios": "https://dc.lft.to/lastmile_qr_scan", "android": "https://dc.lft.to/lastmile_qr_scan"}, "is_reserved": 0, "fusion_lon": 0.0, "fusion_lat": 0.0, "lon": -77.01735583333334, "name": "f804248fd76640525177b3e754c5812b"}, {"bike_id": "3e9a5ae918b39bea6b166529ba81402d", "type": "electric_scooter", "is_disabled": 0, "lat": 38.939157, "rental_uris": {"ios": "https://dc.lft.to/lastmile_qr_scan", "android": "https://dc.lft.to/lastmile_qr_scan"}, "is_reserved": 0, "fusion_lon": 0.0, "fusion_lat": 0.0, "lon": -77.06055366666666, "name": "3e9a5ae918b39bea6b166529ba81402d"}, {"bike_id": "13c77ed99bb9fa97cc461b0fb9a35a60", "type": "electric_scooter", "is_disabled": 0, "lat": 38.91549166666667, "rental_uris": {"ios": "https://dc.lft.to/lastmile_qr_scan", "android": "https://dc.lft.to/lastmile_qr_scan"}, "is_reserved": 0, "fusion_lon": 0.0, "fusion_lat": 0.0, "lon": -77.0317145, "name": "13c77ed99bb9fa97cc461b0fb9a35a60"}, {"bike_id": "9531c3185309f8a5fc928ad738899d4c", "type": "electric_scooter", "is_disabled": 0, "lat": 38.88119416666667, "rental_uris": {"ios": "https://dc.lft.to/lastmile_qr_scan", "android": "https://dc.lft.to/lastmile_qr_scan"}, "is_reserved": 0, "fusion_lon": 0.0, "fusion_lat": 0.0, "lon": -77.016516, "name": "9531c3185309f8a5fc928ad738899d4c"}, {"bike_id": "9249a45ab92b1ab67eb3d39ef8fdd9bb", "type": "electric_scooter", "is_disabled": 0, "lat": 38.91696, "rental_uris": {"ios": "https://dc.lft.to/lastmile_qr_scan", "android": "https://dc.lft.to/lastmile_qr_scan"}, "is_reserved": 0, "fusion_lon": 0.0, "fusion_lat": 0.0, "lon": -77.02883133333333, "name": "9249a45ab92b1ab67eb3d39ef8fdd9bb"}, {"bike_id": "9caf9f8d848b0e1b6f3bf9d82047e827", "type": "electric_scooter", "is_disabled": 0, "lat": 38.88477233333333, "rental_uris": {"ios": "https://dc.lft.to/lastmile_qr_scan", "android": "https://dc.lft.to/lastmile_qr_scan"}, "is_reserved": 0, "fusion_lon": 0.0, "fusion_lat": 0.0, "lon": -76.9821695, "name": "9caf9f8d848b0e1b6f3bf9d82047e827"}, {"bike_id": "a054cc2ded1ab07e20b926b95fdc1ce3", "type": "electric_scooter", "is_disabled": 0, "lat": 38.9206415, "rental_uris": {"ios": "https://dc.lft.to/lastmile_qr_scan", "android": "https://dc.lft.to/lastmile_qr_scan"}, "is_reserved": 0, "fusion_lon": 0.0, "fusion_lat": 0.0, "lon": -77.02371833333333, "name": "a054cc2ded1ab07e20b926b95fdc1ce3"}, {"bike_id": "af7401fde7da5da253b3cf53f0abd8d1", "type": "electric_scooter", "is_disabled": 0, "lat": 38.88425766666667, "rental_uris": {"ios": "https://dc.lft.to/lastmile_qr_scan", "android": "https://dc.lft.to/lastmile_qr_scan"}, "is_reserved": 0, "fusion_lon": 0.0, "fusion_lat": 0.0, "lon": -76.95752416666667, "name": "af7401fde7da5da253b3cf53f0abd8d1"}, {"bike_id": "d16fce62a8f03d9e2308117b48855251", "type": "electric_scooter", "is_disabled": 0, "lat": 38.916822833333335, "rental_uris": {"ios": "https://dc.lft.to/lastmile_qr_scan", "android": "https://dc.lft.to/lastmile_qr_scan"}, "is_reserved": 0, "fusion_lon": 0.0, "fusion_lat": 0.0, "lon": -77.02973833333333, "name": "d16fce62a8f03d9e2308117b48855251"}, {"bike_id": "0454dfb3043765c292420c79d62ee54f", "type": "electric_scooter", "is_disabled": 0, "lat": 38.918287166666666, "rental_uris": {"ios": "https://dc.lft.to/lastmile_qr_scan", "android": "https://dc.lft.to/lastmile_qr_scan"}, "is_reserved": 0, "fusion_lon": 0.0, "fusion_lat": 0.0, "lon": -77.04519216666667, "name": "0454dfb3043765c292420c79d62ee54f"}, {"bike_id": "f053b3d827ca5c5b021f615df3509243", "type": "electric_scooter", "is_disabled": 0, "lat": 38.9105035, "rental_uris": {"ios": "https://dc.lft.to/lastmile_qr_scan", "android": "https://dc.lft.to/lastmile_qr_scan"}, "is_reserved": 0, "fusion_lon": 0.0, "fusion_lat": 0.0, "lon": -77.02189083333333, "name": "f053b3d827ca5c5b021f615df3509243"}, {"bike_id": "55388278d8c6267ee353bf10b617b551", "type": "electric_scooter", "is_disabled": 0, "lat": 38.91443183333333, "rental_uris": {"ios": "https://dc.lft.to/lastmile_qr_scan", "android": "https://dc.lft.to/lastmile_qr_scan"}, "is_reserved": 0, "fusion_lon": 0.0, "fusion_lat": 0.0, "lon": -77.02598433333333, "name": "55388278d8c6267ee353bf10b617b551"}, {"bike_id": "e8326798e93c70a7174af6edf681d7b0", "type": "electric_scooter", "is_disabled": 0, "lat": 38.8618045, "rental_uris": {"ios": "https://dc.lft.to/lastmile_qr_scan", "android": "https://dc.lft.to/lastmile_qr_scan"}, "is_reserved": 0, "fusion_lon": 0.0, "fusion_lat": 0.0, "lon": -77.08845216666667, "name": "e8326798e93c70a7174af6edf681d7b0"}, {"bike_id": "0788fcb3d9165b343fda5a804b9295b3", "type": "electric_scooter", "is_disabled": 0, "lat": 38.92484666666667, "rental_uris": {"ios": "https://dc.lft.to/lastmile_qr_scan", "android": "https://dc.lft.to/lastmile_qr_scan"}, "is_reserved": 0, "fusion_lon": 0.0, "fusion_lat": 0.0, "lon": -77.05214283333333, "name": "0788fcb3d9165b343fda5a804b9295b3"}, {"bike_id": "af59ae5d12ee0da387fa37fc1dbdeb3a", "type": "electric_scooter", "is_disabled": 0, "lat": 38.90263483333333, "rental_uris": {"ios": "https://dc.lft.to/lastmile_qr_scan", "android": "https://dc.lft.to/lastmile_qr_scan"}, "is_reserved": 0, "fusion_lon": 0.0, "fusion_lat": 0.0, "lon": -77.01762683333334, "name": "af59ae5d12ee0da387fa37fc1dbdeb3a"}, {"bike_id": "bab1fb89456d94e246076f2a5cffd917", "type": "electric_scooter", "is_disabled": 0, "lat": 38.937997833333334, "rental_uris": {"ios": "https://dc.lft.to/lastmile_qr_scan", "android": "https://dc.lft.to/lastmile_qr_scan"}, "is_reserved": 0, "fusion_lon": 0.0, "fusion_lat": 0.0, "lon": -77.024611, "name": "bab1fb89456d94e246076f2a5cffd917"}, {"bike_id": "44b326c937b454f12715b9e5700fd48d", "type": "electric_scooter", "is_disabled": 0, "lat": 38.928537, "rental_uris": {"ios": "https://dc.lft.to/lastmile_qr_scan", "android": "https://dc.lft.to/lastmile_qr_scan"}, "is_reserved": 0, "fusion_lon": 0.0, "fusion_lat": 0.0, "lon": -77.01409533333333, "name": "44b326c937b454f12715b9e5700fd48d"}, {"bike_id": "ceea40e7bfcaef8aaa6732fb39a03d3f", "type": "electric_scooter", "is_disabled": 0, "lat": 38.89224866666667, "rental_uris": {"ios": "https://dc.lft.to/lastmile_qr_scan", "android": "https://dc.lft.to/lastmile_qr_scan"}, "is_reserved": 0, "fusion_lon": 0.0, "fusion_lat": 0.0, "lon": -77.03978416666666, "name": "ceea40e7bfcaef8aaa6732fb39a03d3f"}, {"bike_id": "5771fb1a134afc41dc884edd5176587d", "type": "electric_scooter", "is_disabled": 0, "lat": 38.90145733333333, "rental_uris": {"ios": "https://dc.lft.to/lastmile_qr_scan", "android": "https://dc.lft.to/lastmile_qr_scan"}, "is_reserved": 0, "fusion_lon": 0.0, "fusion_lat": 0.0, "lon": -76.93086666666666, "name": "5771fb1a134afc41dc884edd5176587d"}, {"bike_id": "cb104d4242c24b7c3a4390858318e86a", "type": "electric_scooter", "is_disabled": 0, "lat": 38.90612183333333, "rental_uris": {"ios": "https://dc.lft.to/lastmile_qr_scan", "android": "https://dc.lft.to/lastmile_qr_scan"}, "is_reserved": 0, "fusion_lon": 0.0, "fusion_lat": 0.0, "lon": -77.04177316666667, "name": "cb104d4242c24b7c3a4390858318e86a"}, {"bike_id": "4920e0de7f001fc1bab176ba840a69d7", "type": "electric_scooter", "is_disabled": 0, "lat": 38.904096333333335, "rental_uris": {"ios": "https://dc.lft.to/lastmile_qr_scan", "android": "https://dc.lft.to/lastmile_qr_scan"}, "is_reserved": 0, "fusion_lon": 0.0, "fusion_lat": 0.0, "lon": -76.97332983333334, "name": "4920e0de7f001fc1bab176ba840a69d7"}, {"bike_id": "c4d010cedee925e89cb5d77515e9c8f0", "type": "electric_scooter", "is_disabled": 0, "lat": 38.899147666666664, "rental_uris": {"ios": "https://dc.lft.to/lastmile_qr_scan", "android": "https://dc.lft.to/lastmile_qr_scan"}, "is_reserved": 0, "fusion_lon": 0.0, "fusion_lat": 0.0, "lon": -76.93373883333334, "name": "c4d010cedee925e89cb5d77515e9c8f0"}, {"bike_id": "d90762c4ebfc4a5d8556a7974c63bf30", "type": "electric_scooter", "is_disabled": 0, "lat": 38.930371, "rental_uris": {"ios": "https://dc.lft.to/lastmile_qr_scan", "android": "https://dc.lft.to/lastmile_qr_scan"}, "is_reserved": 0, "fusion_lon": 0.0, "fusion_lat": 0.0, "lon": -77.03302416666666, "name": "d90762c4ebfc4a5d8556a7974c63bf30"}, {"bike_id": "02e03caa2a65e9c17d30e7951391f2bb", "type": "electric_scooter", "is_disabled": 0, "lat": 38.93460816666666, "rental_uris": {"ios": "https://dc.lft.to/lastmile_qr_scan", "android": "https://dc.lft.to/lastmile_qr_scan"}, "is_reserved": 0, "fusion_lon": 0.0, "fusion_lat": 0.0, "lon": -77.02244933333333, "name": "02e03caa2a65e9c17d30e7951391f2bb"}, {"bike_id": "27be612c562e3bca1a3fc8dcbb142716", "type": "electric_scooter", "is_disabled": 0, "lat": 38.92589383333333, "rental_uris": {"ios": "https://dc.lft.to/lastmile_qr_scan", "android": "https://dc.lft.to/lastmile_qr_scan"}, "is_reserved": 0, "fusion_lon": 0.0, "fusion_lat": 0.0, "lon": -77.0376035, "name": "27be612c562e3bca1a3fc8dcbb142716"}, {"bike_id": "b23481cb8768f474d0d2f2c53c052ae8", "type": "electric_scooter", "is_disabled": 0, "lat": 38.907997333333334, "rental_uris": {"ios": "https://dc.lft.to/lastmile_qr_scan", "android": "https://dc.lft.to/lastmile_qr_scan"}, "is_reserved": 0, "fusion_lon": 0.0, "fusion_lat": 0.0, "lon": -77.04355216666667, "name": "b23481cb8768f474d0d2f2c53c052ae8"}, {"bike_id": "d478960fa0225a2d5de73e9fc693c4d0", "type": "electric_scooter", "is_disabled": 0, "lat": 38.926056833333334, "rental_uris": {"ios": "https://dc.lft.to/lastmile_qr_scan", "android": "https://dc.lft.to/lastmile_qr_scan"}, "is_reserved": 0, "fusion_lon": 0.0, "fusion_lat": 0.0, "lon": -77.10238633333333, "name": "d478960fa0225a2d5de73e9fc693c4d0"}, {"bike_id": "8e35a7b1221a8f3ec515fc10ae125a0a", "type": "electric_scooter", "is_disabled": 0, "lat": 38.900722, "rental_uris": {"ios": "https://dc.lft.to/lastmile_qr_scan", "android": "https://dc.lft.to/lastmile_qr_scan"}, "is_reserved": 0, "fusion_lon": 0.0, "fusion_lat": 0.0, "lon": -77.05308916666667, "name": "8e35a7b1221a8f3ec515fc10ae125a0a"}, {"bike_id": "d12317d0837923d3a5d6226c9bc127c1", "type": "electric_scooter", "is_disabled": 0, "lat": 38.926658333333336, "rental_uris": {"ios": "https://dc.lft.to/lastmile_qr_scan", "android": "https://dc.lft.to/lastmile_qr_scan"}, "is_reserved": 0, "fusion_lon": 0.0, "fusion_lat": 0.0, "lon": -76.995371, "name": "d12317d0837923d3a5d6226c9bc127c1"}, {"bike_id": "4f2e91875a040190a441b0f4d6bb95d2", "type": "electric_scooter", "is_disabled": 0, "lat": 38.90130883333333, "rental_uris": {"ios": "https://dc.lft.to/lastmile_qr_scan", "android": "https://dc.lft.to/lastmile_qr_scan"}, "is_reserved": 0, "fusion_lon": 0.0, "fusion_lat": 0.0, "lon": -77.038517, "name": "4f2e91875a040190a441b0f4d6bb95d2"}, {"bike_id": "7caae5f2f3cdc2039fef675cfcdbc067", "type": "electric_scooter", "is_disabled": 0, "lat": 38.93178783333333, "rental_uris": {"ios": "https://dc.lft.to/lastmile_qr_scan", "android": "https://dc.lft.to/lastmile_qr_scan"}, "is_reserved": 0, "fusion_lon": 0.0, "fusion_lat": 0.0, "lon": -77.0285195, "name": "7caae5f2f3cdc2039fef675cfcdbc067"}, {"bike_id": "97373f351353726b3d1387970c2ccba3", "type": "electric_scooter", "is_disabled": 0, "lat": 38.862456333333334, "rental_uris": {"ios": "https://dc.lft.to/lastmile_qr_scan", "android": "https://dc.lft.to/lastmile_qr_scan"}, "is_reserved": 0, "fusion_lon": 0.0, "fusion_lat": 0.0, "lon": -76.99498416666667, "name": "97373f351353726b3d1387970c2ccba3"}, {"bike_id": "89ede684d14037d237e6e20a42e76b3e", "type": "electric_scooter", "is_disabled": 0, "lat": 38.923791333333334, "rental_uris": {"ios": "https://dc.lft.to/lastmile_qr_scan", "android": "https://dc.lft.to/lastmile_qr_scan"}, "is_reserved": 0, "fusion_lon": 0.0, "fusion_lat": 0.0, "lon": -77.03071766666666, "name": "89ede684d14037d237e6e20a42e76b3e"}, {"bike_id": "ec62dd4646cad59c0993ac884bf08f15", "type": "electric_scooter", "is_disabled": 0, "lat": 38.9561045, "rental_uris": {"ios": "https://dc.lft.to/lastmile_qr_scan", "android": "https://dc.lft.to/lastmile_qr_scan"}, "is_reserved": 0, "fusion_lon": 0.0, "fusion_lat": 0.0, "lon": -77.00090983333334, "name": "ec62dd4646cad59c0993ac884bf08f15"}, {"bike_id": "a40386d8d140c0c07803451d2cf65338", "type": "electric_scooter", "is_disabled": 0, "lat": 38.880647833333335, "rental_uris": {"ios": "https://dc.lft.to/lastmile_qr_scan", "android": "https://dc.lft.to/lastmile_qr_scan"}, "is_reserved": 0, "fusion_lon": 0.0, "fusion_lat": 0.0, "lon": -76.93213566666667, "name": "a40386d8d140c0c07803451d2cf65338"}, {"bike_id": "d9ec5d2560bb706376e6c201686c1fc5", "type": "electric_scooter", "is_disabled": 0, "lat": 38.915971, "rental_uris": {"ios": "https://dc.lft.to/lastmile_qr_scan", "android": "https://dc.lft.to/lastmile_qr_scan"}, "is_reserved": 0, "fusion_lon": 0.0, "fusion_lat": 0.0, "lon": -77.00197133333333, "name": "d9ec5d2560bb706376e6c201686c1fc5"}, {"bike_id": "022a1b3deeae0f973ecd5aa3099162bf", "type": "electric_scooter", "is_disabled": 0, "lat": 38.96440483333333, "rental_uris": {"ios": "https://dc.lft.to/lastmile_qr_scan", "android": "https://dc.lft.to/lastmile_qr_scan"}, "is_reserved": 0, "fusion_lon": 0.0, "fusion_lat": 0.0, "lon": -77.02062033333333, "name": "022a1b3deeae0f973ecd5aa3099162bf"}, {"bike_id": "b09072c111b0fdbcaec0a14edb2cf717", "type": "electric_scooter", "is_disabled": 0, "lat": 38.95218533333333, "rental_uris": {"ios": "https://dc.lft.to/lastmile_qr_scan", "android": "https://dc.lft.to/lastmile_qr_scan"}, "is_reserved": 0, "fusion_lon": 0.0, "fusion_lat": 0.0, "lon": -77.07073516666667, "name": "b09072c111b0fdbcaec0a14edb2cf717"}, {"bike_id": "2f6aefd7ab9a118cdff87622d0873b4e", "type": "electric_scooter", "is_disabled": 0, "lat": 38.923604833333336, "rental_uris": {"ios": "https://dc.lft.to/lastmile_qr_scan", "android": "https://dc.lft.to/lastmile_qr_scan"}, "is_reserved": 0, "fusion_lon": 0.0, "fusion_lat": 0.0, "lon": -77.0390715, "name": "2f6aefd7ab9a118cdff87622d0873b4e"}, {"bike_id": "4360a51540f3f32a98289de4c7adfee0", "type": "electric_scooter", "is_disabled": 0, "lat": 38.897832333333334, "rental_uris": {"ios": "https://dc.lft.to/lastmile_qr_scan", "android": "https://dc.lft.to/lastmile_qr_scan"}, "is_reserved": 0, "fusion_lon": 0.0, "fusion_lat": 0.0, "lon": -77.02209366666666, "name": "4360a51540f3f32a98289de4c7adfee0"}, {"bike_id": "57478eadb86c948b8d0bb36d3d172309", "type": "electric_scooter", "is_disabled": 0, "lat": 38.90180333333333, "rental_uris": {"ios": "https://dc.lft.to/lastmile_qr_scan", "android": "https://dc.lft.to/lastmile_qr_scan"}, "is_reserved": 0, "fusion_lon": 0.0, "fusion_lat": 0.0, "lon": -77.03935166666666, "name": "57478eadb86c948b8d0bb36d3d172309"}, {"bike_id": "303ca52a2b3775cd52a45e83ee94fad5", "type": "electric_scooter", "is_disabled": 0, "lat": 38.91746633333333, "rental_uris": {"ios": "https://dc.lft.to/lastmile_qr_scan", "android": "https://dc.lft.to/lastmile_qr_scan"}, "is_reserved": 0, "fusion_lon": 0.0, "fusion_lat": 0.0, "lon": -77.03178483333333, "name": "303ca52a2b3775cd52a45e83ee94fad5"}, {"bike_id": "16ce629b06656ab9a7293fc7b059d537", "type": "electric_scooter", "is_disabled": 0, "lat": 38.9038085, "rental_uris": {"ios": "https://dc.lft.to/lastmile_qr_scan", "android": "https://dc.lft.to/lastmile_qr_scan"}, "is_reserved": 0, "fusion_lon": 0.0, "fusion_lat": 0.0, "lon": -77.05339333333333, "name": "16ce629b06656ab9a7293fc7b059d537"}, {"bike_id": "667fef0efee9b16f9d146a664194fd99", "type": "electric_scooter", "is_disabled": 0, "lat": 38.91183733333333, "rental_uris": {"ios": "https://dc.lft.to/lastmile_qr_scan", "android": "https://dc.lft.to/lastmile_qr_scan"}, "is_reserved": 0, "fusion_lon": 0.0, "fusion_lat": 0.0, "lon": -77.010155, "name": "667fef0efee9b16f9d146a664194fd99"}, {"bike_id": "5547aa480546390819337f7cfeb67dfa", "type": "electric_scooter", "is_disabled": 0, "lat": 38.9286245, "rental_uris": {"ios": "https://dc.lft.to/lastmile_qr_scan", "android": "https://dc.lft.to/lastmile_qr_scan"}, "is_reserved": 0, "fusion_lon": 0.0, "fusion_lat": 0.0, "lon": -77.02174433333333, "name": "5547aa480546390819337f7cfeb67dfa"},