{"data": {"bikes": [{"lon": -77.04039616666667, "is_disabled": 0, "lat": 38.903567833333334, "fusion_lat": 0.0, "is_reserved": 0, "rental_uris": {"ios": "https://dc.lft.to/lastmile_qr_scan", "android": "https://dc.lft.to/lastmile_qr_scan"}, "fusion_lon": 0.0, "type": "electric_scooter", "bike_id": "622c300af6be2c8274ab6d7f976efcab", "name": "622c300af6be2c8274ab6d7f976efcab"}, {"lon": -77.00195583333333, "is_disabled": 0, "lat": 38.9003485, "fusion_lat": 0.0, "is_reserved": 0, "rental_uris": {"ios": "https://dc.lft.to/lastmile_qr_scan", "android": "https://dc.lft.to/lastmile_qr_scan"}, "fusion_lon": 0.0, "type": "electric_scooter", "bike_id": "d0115494a7510f67310def96551b5538", "name": "d0115494a7510f67310def96551b5538"}, {"lon": -77.01700633333333, "is_disabled": 0, "lat": 38.91382616666667, "fusion_lat": 0.0, "is_reserved": 0, "rental_uris": {"ios": "https://dc.lft.to/lastmile_qr_scan", "android": "https://dc.lft.to/lastmile_qr_scan"}, "fusion_lon": 0.0, "type": "electric_scooter", "bike_id": "c071421cbdb06f95fbd8eb8215ed7cb9", "name": "c071421cbdb06f95fbd8eb8215ed7cb9"}, {"lon": -76.93204233333333, "is_disabled": 0, "lat": 38.8967145, "fusion_lat": 0.0, "is_reserved": 0, "rental_uris": {"ios": "https://dc.lft.to/lastmile_qr_scan", "android": "https://dc.lft.to/lastmile_qr_scan"}, "fusion_lon": 0.0, "type": "electric_scooter", "bike_id": "b72bbbba7f728a050577b451ec789333", "name": "b72bbbba7f728a050577b451ec789333"}, {"lon": -77.0321035, "is_disabled": 0, "lat": 38.918585, "fusion_lat": 0.0, "is_reserved": 0, "rental_uris": {"ios": "https://dc.lft.to/lastmile_qr_scan", "android": "https://dc.lft.to/lastmile_qr_scan"}, "fusion_lon": 0.0, "type": "electric_scooter", "bike_id": "7865b28331c2f7a112d3cda96bcf10c6", "name": "7865b28331c2f7a112d3cda96bcf10c6"}, {"lon": -77.0194965, "is_disabled": 0, "lat": 38.92421383333333, "fusion_lat": 0.0, "is_reserved": 0, "rental_uris": {"ios": "https://dc.lft.to/lastmile_qr_scan", "android": "https://dc.lft.to/lastmile_qr_scan"}, "fusion_lon": 0.0, "type": "electric_scooter", "bike_id": "56b14a0910bf08f0e40607f64974a6d1", "name": "56b14a0910bf08f0e40607f64974a6d1"}, {"lon": -77.027922, "is_disabled": 0, "lat": 38.92971, "fusion_lat": 0.0, "is_reserved": 0, "rental_uris": {"ios": "https://dc.lft.to/lastmile_qr_scan", "android": "https://dc.lft.to/lastmile_qr_scan"}, "fusion_lon": 0.0, "type": "electric_scooter", "bike_id": "133e44ba0edeb5c26ec09f3abfec3134", "name": "133e44ba0edeb5c26ec09f3abfec3134"}, {"lon": -77.0176705, "is_disabled": 0, "lat": 38.92054566666667, "fusion_lat": 0.0, "is_reserved": 0, "rental_uris": {"ios": "https://dc.lft.to/lastmile_qr_scan", "android": "https://dc.lft.to/lastmile_qr_scan"}, "fusion_lon": 0.0, "type": "electric_scooter", "bike_id": "e414ae3c68d4076c553c9effe32a2a22", "name": "e414ae3c68d4076c553c9effe32a2a22"}, {"lon": -77.0416105, "is_disabled": 0, "lat": 38.90660166666667, "fusion_lat": 0.0, "is_reserved": 0, "rental_uris": {"ios": "https://dc.lft.to/lastmile_qr_scan", "android": "https://dc.lft.to/lastmile_qr_scan"}, "fusion_lon": 0.0, "type": "electric_scooter", "bike_id": "7e3c4e5ee371eecd360037c1462abffa", "name": "7e3c4e5ee371eecd360037c1462abffa"}, {"lon": -77.02709083333333, "is_disabled": 0, "lat": 38.900267, "fusion_lat": 0.0, "is_reserved": 0, "rental_uris": {"ios": "https://dc.lft.to/lastmile_qr_scan", "android": "https://dc.lft.to/lastmile_qr_scan"}, "fusion_lon": 0.0, "type": "electric_scooter", "bike_id": "ca6ef9153588651725220c2988a1186a", "name": "ca6ef9153588651725220c2988a1186a"}, {"lon": -77.02789566666667, "is_disabled": 0, "lat": 38.92972966666667, "fusion_lat": 0.0, "is_reserved": 0, "rental_uris": {"ios": "https://dc.lft.to/lastmile_qr_scan", "android": "https://dc.lft.to/lastmile_qr_scan"}, "fusion_lon": 0.0, "type": "electric_scooter", "bike_id": "7fc04ff7030009430a35b62b12077467", "name": "7fc04ff7030009430a35b62b12077467"}, {"lon": -77.03818316666667, "is_disabled": 0, "lat": 38.930975833333335, "fusion_lat": 0.0, "is_reserved": 0, "rental_uris": {"ios": "https://dc.lft.to/lastmile_qr_scan", "android": "https://dc.lft.to/lastmile_qr_scan"}, "fusion_lon": 0.0, "type": "electric_scooter", "bike_id": "a96a03ec806b3f699ccc6780cf801a68", "name": "a96a03ec806b3f699ccc6780cf801a68"}, {"lon": -77.05425283333334, "is_disabled": 0, "lat": 38.928461166666665, "fusion_lat": 0.0, "is_reserved": 0, "rental_uris": {"ios": "https://dc.lft.to/lastmile_qr_scan", "android": "https://dc.lft.to/lastmile_qr_scan"}, "fusion_lon": 0.0, "type": "electric_scooter", "bike_id": "9e216ef0bc702634e807b45fc4500e26", "name": "9e216ef0bc702634e807b45fc4500e26"}, {"lon": -77.02624033333333, "is_disabled": 0, "lat": 38.89608366666667, "fusion_lat": 0.0, "is_reserved": 0, "rental_uris": {"ios": "https://dc.lft.to/lastmile_qr_scan", "android": "https://dc.lft.to/lastmile_qr_scan"}, "fusion_lon": 0.0, "type": "electric_scooter", "bike_id": "4e7f6131e890ca499f7a413cf28c7c1a", "name": "4e7f6131e890ca499f7a413cf28c7c1a"}, {"lon": -77.044655, "is_disabled": 0, "lat": 38.923044166666664, "fusion_lat": 0.0, "is_reserved": 0, "rental_uris": {"ios": "https://dc.lft.to/lastmile_qr_scan", "android": "https://dc.lft.to/lastmile_qr_scan"}, "fusion_lon": 0.0, "type": "electric_scooter", "bike_id": "127b4eedb356748fb25fb90349cd2061", "name": "127b4eedb356748fb25fb90349cd2061"}, {"lon": -77.03490183333334, "is_disabled": 0, "lat": 38.906717, "fusion_lat": 0.0, "is_reserved": 0, "rental_uris": {"ios": "https://dc.lft.to/lastmile_qr_scan", "android": "https://dc.lft.to/lastmile_qr_scan"}, "fusion_lon": 0.0, "type": "electric_scooter", "bike_id": "8448cf12e3350a6318d2e8ef4dbeaaa4", "name": "8448cf12e3350a6318d2e8ef4dbeaaa4"}, {"lon": -77.04442333333333, "is_disabled": 0, "lat": 38.898406333333334, "fusion_lat": 0.0, "is_reserved": 0, "rental_uris": {"ios": "https://dc.lft.to/lastmile_qr_scan", "android": "https://dc.lft.to/lastmile_qr_scan"}, "fusion_lon": 0.0, "type": "electric_scooter", "bike_id": "cff81f0454febc38b09fae4d092728f9", "name": "cff81f0454febc38b09fae4d092728f9"}, {"lon": -76.99630533333334, "is_disabled": 0, "lat": 38.88716266666667, "fusion_lat": 0.0, "is_reserved": 0, "rental_uris": {"ios": "https://dc.lft.to/lastmile_qr_scan", "android": "https://dc.lft.to/lastmile_qr_scan"}, "fusion_lon": 0.0, "type": "electric_scooter", "bike_id": "a93dcc5bb100f1d8e833ff26e6a0e854", "name": "a93dcc5bb100f1d8e833ff26e6a0e854"}, {"lon": -77.03660483333333, "is_disabled": 0, "lat": 38.912452, "fusion_lat": 0.0, "is_reserved": 0, "rental_uris": {"ios": "https://dc.lft.to/lastmile_qr_scan", "android": "https://dc.lft.to/lastmile_qr_scan"}, "fusion_lon": 0.0, "type": "electric_scooter", "bike_id": "7aaebc2cfe872fc40efe0aa81b37e398", "name": "7aaebc2cfe872fc40efe0aa81b37e398"}, {"lon": -76.9883665, "is_disabled": 0, "lat": 38.896623166666664, "fusion_lat": 0.0, "is_reserved": 0, "rental_uris": {"ios": "https://dc.lft.to/lastmile_qr_scan", "android": "https://dc.lft.to/lastmile_qr_scan"}, "fusion_lon": 0.0, "type": "electric_scooter", "bike_id": "f3cf47a419a797a99742aa89ae4c2023", "name": "f3cf47a419a797a99742aa89ae4c2023"}, {"lon": -77.00339183333334, "is_disabled": 0, "lat": 38.89523833333333, "fusion_lat": 0.0, "is_reserved": 0, "rental_uris": {"ios": "https://dc.lft.to/lastmile_qr_scan", "android": "https://dc.lft.to/lastmile_qr_scan"}, "fusion_lon": 0.0, "type": "electric_scooter", "bike_id": "48a42dbda7cba965280e1ff3e0cd120e", "name": "48a42dbda7cba965280e1ff3e0cd120e"}, {"lon": -77.0217095, "is_disabled": 0, "lat": 38.942947333333336, "fusion_lat": 0.0, "is_reserved": 0, "rental_uris": {"ios": "https://dc.lft.to/lastmile_qr_scan", "android": "https://dc.lft.to/lastmile_qr_scan"}, "fusion_lon": 0.0, "type": "electric_scooter", "bike_id": "4744e881bbfe54a0a3a1e9e29f1c9da0", "name": "4744e881bbfe54a0a3a1e9e29f1c9da0"}, {"lon": -76.99216466666667, "is_disabled": 0, "lat": 38.94023816666667, "fusion_lat": 0.0, "is_reserved": 0, "rental_uris": {"ios": "https://dc.lft.to/lastmile_qr_scan", "android": "https://dc.lft.to/lastmile_qr_scan"}, "fusion_lon": 0.0, "type": "electric_bike", "bike_id": "e060f40138f4947ad2916bb20748d503", "name": "e060f40138f4947ad2916bb20748d503"}, {"lon": -77.02542633333333, "is_disabled": 0, "lat": 38.92403616666667, "fusion_lat": 0.0, "is_reserved": 0, "rental_uris": {"ios": "https://dc.lft.to/lastmile_qr_scan", "android": "https://dc.lft.to/lastmile_qr_scan"}, "fusion_lon": 0.0, "type": "electric_scooter", "bike_id": "eaf03f8ec4471c2bcb319b4233a1b661", "name": "eaf03f8ec4471c2bcb319b4233a1b661"}, {"lon": -77.04220316666667, "is_disabled": 0, "lat": 38.926239333333335, "fusion_lat": 0.0, "is_reserved": 0, "rental_uris": {"ios": "https://dc.lft.to/lastmile_qr_scan", "android": "https://dc.lft.to/lastmile_qr_scan"}, "fusion_lon": 0.0, "type": "electric_scooter", "bike_id": "9a2d2b7f30088a6b95951a172316d03b", "name": "9a2d2b7f30088a6b95951a172316d03b"}, {"lon": -77.08576616666667, "is_disabled": 0, "lat": 38.874210166666664, "fusion_lat": 0.0, "is_reserved": 0, "rental_uris": {"ios": "https://dc.lft.to/lastmile_qr_scan", "android": "https://dc.lft.to/lastmile_qr_scan"}, "fusion_lon": 0.0, "type": "electric_bike", "bike_id": "a5bb32538e0f214bad8d6824ecd45619", "name": "a5bb32538e0f214bad8d6824ecd45619"}, {"lon": -77.05226066666667, "is_disabled": 0, "lat": 38.925092, "fusion_lat": 0.0, "is_reserved": 0, "rental_uris": {"ios": "https://dc.lft.to/lastmile_qr_scan", "android": "https://dc.lft.to/lastmile_qr_scan"}, "fusion_lon": 0.0, "type": "electric_scooter", "bike_id": "7498812f14de46cf1d77473ff0e02582", "name": "7498812f14de46cf1d77473ff0e02582"}, {"lon": -77.023794, "is_disabled": 0, "lat": 38.9140355, "fusion_lat": 0.0, "is_reserved": 0, "rental_uris": {"ios": "https://dc.lft.to/lastmile_qr_scan", "android": "https://dc.lft.to/lastmile_qr_scan"}, "fusion_lon": 0.0, "type": "electric_scooter", "bike_id": "1b0bc9a7bed40b682cc4edbb6a0efe53", "name": "1b0bc9a7bed40b682cc4edbb6a0efe53"}, {"lon": -77.00039683333334, "is_disabled": 0, "lat": 38.87405533333333, "fusion_lat": 0.0, "is_reserved": 0, "rental_uris": {"ios": "https://dc.lft.to/lastmile_qr_scan", "android": "https://dc.lft.to/lastmile_qr_scan"}, "fusion_lon": 0.0, "type": "electric_scooter", "bike_id": "20819ae5ab90a4448e8b2208565a7d91", "name": "20819ae5ab90a4448e8b2208565a7d91"}, {"lon": -77.022815, "is_disabled": 0, "lat": 38.915660833333334, "fusion_lat": 0.0, "is_reserved": 0, "rental_uris": {"ios": "https://dc.lft.to/lastmile_qr_scan", "android": "https://dc.lft.to/lastmile_qr_scan"}, "fusion_lon": 0.0, "type": "electric_scooter", "bike_id": "cdfd193363a3e37bc273784b5a86bef3", "name": "cdfd193363a3e37bc273784b5a86bef3"}, {"lon": -77.03431033333334, "is_disabled": 0, "lat": 38.91915933333333, "fusion_lat": 0.0, "is_reserved": 0, "rental_uris": {"ios": "https://dc.lft.to/lastmile_qr_scan", "android": "https://dc.lft.to/lastmile_qr_scan"}, "fusion_lon": 0.0, "type": "electric_scooter", "bike_id": "3bf4ff59ec4ed306156ec00e9b948f93", "name": "3bf4ff59ec4ed306156ec00e9b948f93"}, {"lon": -77.0329725, "is_disabled": 0, "lat": 38.924595333333336, "fusion_lat": 0.0, "is_reserved": 0, "rental_uris": {"ios": "https://dc.lft.to/lastmile_qr_scan", "android": "https://dc.lft.to/lastmile_qr_scan"}, "fusion_lon": 0.0, "type": "electric_scooter", "bike_id": "510b6007a6f982b8e0557a93ca981e2c", "name": "510b6007a6f982b8e0557a93ca981e2c"}, {"lon": -77.03430566666667, "is_disabled": 0, "lat": 38.91917566666667, "fusion_lat": 0.0, "is_reserved": 0, "rental_uris": {"ios": "https://dc.lft.to/lastmile_qr_scan", "android": "https://dc.lft.to/lastmile_qr_scan"}, "fusion_lon": 0.0, "type": "electric_scooter", "bike_id": "84eaed4ca44651266c6dc44e902a9a34", "name": "84eaed4ca44651266c6dc44e902a9a34"}, {"lon": -77.0268995, "is_disabled": 0, "lat": 38.916568166666664, "fusion_lat": 0.0, "is_reserved": 0, "rental_uris": {"ios": "https://dc.lft.to/lastmile_qr_scan", "android": "https://dc.lft.to/lastmile_qr_scan"}, "fusion_lon": 0.0, "type": "electric_scooter", "bike_id": "d59418c7bdceb93b97ec8f08ed4c755e", "name": "d59418c7bdceb93b97ec8f08ed4c755e"}, {"lon": -77.03039533333333, "is_disabled": 0, "lat": 38.9071555, "fusion_lat": 0.0, "is_reserved": 0, "rental_uris": {"ios": "https://dc.lft.to/lastmile_qr_scan", "android": "https://dc.lft.to/lastmile_qr_scan"}, "fusion_lon": 0.0, "type": "electric_scooter", "bike_id": "e68f8267760618e63af3024a5cfdd03a", "name": "e68f8267760618e63af3024a5cfdd03a"}, {"lon": -77.0229835, "is_disabled": 0, "lat": 38.917269833333336, "fusion_lat": 0.0, "is_reserved": 0, "rental_uris": {"ios": "https://dc.lft.to/lastmile_qr_scan", "android": "https://dc.lft.to/lastmile_qr_scan"}, "fusion_lon": 0.0, "type": "electric_scooter", "bike_id": "14674c61cc1323da45a507bed0b8ded4", "name": "14674c61cc1323da45a507bed0b8ded4"}, {"lon": -77.01459133333333, "is_disabled": 0, "lat": 38.917626, "fusion_lat": 0.0, "is_reserved": 0, "rental_uris": {"ios": "https://dc.lft.to/lastmile_qr_scan", "android": "https://dc.lft.to/lastmile_qr_scan"}, "fusion_lon": 0.0, "type": "electric_scooter", "bike_id": "88086c212cd5b56a24883404043be11a", "name": "88086c212cd5b56a24883404043be11a"}, {"lon": -77.04999333333333, "is_disabled": 0, "lat": 38.892299, "fusion_lat": 0.0, "is_reserved": 0, "rental_uris": {"ios": "https://dc.lft.to/lastmile_qr_scan", "android": "https://dc.lft.to/lastmile_qr_scan"}, "fusion_lon": 0.0, "type": "electric_scooter", "bike_id": "53a1668f22e0cc463fe9ac30f5cbc8a6", "name": "53a1668f22e0cc463fe9ac30f5cbc8a6"}, {"lon": -77.01765566666667, "is_disabled": 0, "lat": 38.92048066666667, "fusion_lat": 0.0, "is_reserved": 0, "rental_uris": {"ios": "https://dc.lft.to/lastmile_qr_scan", "android": "https://dc.lft.to/lastmile_qr_scan"}, "fusion_lon": 0.0, "type": "electric_scooter", "bike_id": "d12de3660cfdb57cc880e24a3825cc0b", "name": "d12de3660cfdb57cc880e24a3825cc0b"}, {"lon": -77.028714, "is_disabled": 0, "lat": 38.99863, "fusion_lat": 0.0, "is_reserved": 0, "rental_uris": {"ios": "https://dc.lft.to/lastmile_qr_scan", "android": "https://dc.lft.to/lastmile_qr_scan"}, "fusion_lon": 0.0, "type": "electric_bike", "bike_id": "9e64555048e0970979ad4775bf8342fb", "name": "9e64555048e0970979ad4775bf8342fb"}, {"lon": -77.01878516666666, "is_disabled": 0, "lat": 38.91121066666667, "fusion_lat": 0.0, "is_reserved": 0, "rental_uris": {"ios": "https://dc.lft.to/lastmile_qr_scan", "android": "https://dc.lft.to/lastmile_qr_scan"}, "fusion_lon": 0.0, "type": "electric_scooter", "bike_id": "e4e804d1af598b623c852305598e735f", "name": "e4e804d1af598b623c852305598e735f"}, {"lon": -77.0476175, "is_disabled": 0, "lat": 38.9175725, "fusion_lat": 0.0, "is_reserved": 0, "rental_uris": {"ios": "https://dc.lft.to/lastmile_qr_scan", "android": "https://dc.lft.to/lastmile_qr_scan"}, "fusion_lon": 0.0, "type": "electric_scooter", "bike_id": "370577a18eda838e7f14c2896ba6f545", "name": "370577a18eda838e7f14c2896ba6f545"}, {"lon": -77.0236765, "is_disabled": 0, "lat": 38.915667, "fusion_lat": 0.0, "is_reserved": 0, "rental_uris": {"ios": "https://dc.lft.to/lastmile_qr_scan", "android": "https://dc.lft.to/lastmile_qr_scan"}, "fusion_lon": 0.0, "type": "electric_scooter", "bike_id": "393e0908c4f0b83c219fa6feb5425616", "name": "393e0908c4f0b83c219fa6feb5425616"}, {"lon": -77.00926233333334, "is_disabled": 0, "lat": 38.91804533333333, "fusion_lat": 0.0, "is_reserved": 0, "rental_uris": {"ios": "https://dc.lft.to/lastmile_qr_scan", "android": "https://dc.lft.to/lastmile_qr_scan"}, "fusion_lon": 0.0, "type": "electric_scooter", "bike_id": "d9d3ea0391843f203399c7e6f2ace614", "name": "d9d3ea0391843f203399c7e6f2ace614"}, {"lon": -77.035245, "is_disabled": 0, "lat": 38.922538833333334, "fusion_lat": 0.0, "is_reserved": 0, "rental_uris": {"ios": "https://dc.lft.to/lastmile_qr_scan", "android": "https://dc.lft.to/lastmile_qr_scan"}, "fusion_lon": 0.0, "type": "electric_scooter", "bike_id": "0fc213b535500fc3a14d07317868aede", "name": "0fc213b535500fc3a14d07317868aede"}, {"lon": -77.03510233333333, "is_disabled": 0, "lat": 38.92340216666667, "fusion_lat": 0.0, "is_reserved": 0, "rental_uris": {"ios": "https://dc.lft.to/lastmile_qr_scan", "android": "https://dc.lft.to/lastmile_qr_scan"}, "fusion_lon": 0.0, "type": "electric_scooter", "bike_id": "3edd091283bd93a97e1b6bdeaec87006", "name": "3edd091283bd93a97e1b6bdeaec87006"}, {"lon": -77.08628516666667, "is_disabled": 0, "lat": 38.80971666666667, "fusion_lat": 0.0, "is_reserved": 0, "rental_uris": {"ios": "https://dc.lft.to/lastmile_qr_scan", "android": "https://dc.lft.to/lastmile_qr_scan"}, "fusion_lon": 0.0, "type": "electric_bike", "bike_id": "8f73f1b1040fe314328f53a066e08bef", "name": "8f73f1b1040fe314328f53a066e08bef"}, {"lon": -77.03776616666667, "is_disabled": 0, "lat": 38.92231433333333, "fusion_lat": 0.0, "is_reserved": 0, "rental_uris": {"ios": "https://dc.lft.to/lastmile_qr_scan", "android": "https://dc.lft.to/lastmile_qr_scan"}, "fusion_lon": 0.0, "type": "electric_scooter", "bike_id": "3dc43c7f64d5b7a118ab8cc2400034f5", "name": "3dc43c7f64d5b7a118ab8cc2400034f5"}, {"lon": -77.058845, "is_disabled": 0, "lat": 38.9363855, "fusion_lat": 0.0, "is_reserved": 0, "rental_uris": {"ios": "https://dc.lft.to/lastmile_qr_scan", "android": "https://dc.lft.to/lastmile_qr_scan"}, "fusion_lon": 0.0, "type": "electric_scooter", "bike_id": "d9d4ec74646ceccbd473b9aa6c4f09f3", "name": "d9d4ec74646ceccbd473b9aa6c4f09f3"}, {"lon": -76.98094366666666, "is_disabled": 0, "lat": 38.9535855, "fusion_lat": 0.0, "is_reserved": 0, "rental_uris": {"ios": "https://dc.lft.to/lastmile_qr_scan", "android": "https://dc.lft.to/lastmile_qr_scan"}, "fusion_lon": 0.0, "type": "electric_bike", "bike_id": "aa711e27bb3bb8c48cc2706475b58457", "name": "aa711e27bb3bb8c48cc2706475b58457"}, {"lon": -77.02818416666666, "is_disabled": 0, "lat": 38.88661533333333, "fusion_lat": 0.0, "is_reserved": 0, "rental_uris": {"ios": "https://dc.lft.to/lastmile_qr_scan", "android": "https://dc.lft.to/lastmile_qr_scan"}, "fusion_lon": 0.0, "type": "electric_scooter", "bike_id": "8ff41a001386dee67cc86abf029b8740", "name": "8ff41a001386dee67cc86abf029b8740"}, {"lon": -76.98510633333333, "is_disabled": 0, "lat": 38.86059733333333, "fusion_lat": 0.0, "is_reserved": 0, "rental_uris": {"ios": "https://dc.lft.to/lastmile_qr_scan", "android": "https://dc.lft.to/lastmile_qr_scan"}, "fusion_lon": 0.0, "type": "electric_scooter", "bike_id": "92d6f033c51c8bbcadc5aeed995d38cd", "name": "92d6f033c51c8bbcadc5aeed995d38cd"}, {"lon": -77.0057675, "is_disabled": 0, "lat": 38.905545000000004, "fusion_lat": 0.0, "is_reserved": 0, "rental_uris": {"ios": "https://dc.lft.to/lastmile_qr_scan", "android": "https://dc.lft.to/lastmile_qr_scan"}, "fusion_lon": 0.0, "type": "electric_scooter", "bike_id": "99264edebbe1ac197543a9aafdd07513", "name": "99264edebbe1ac197543a9aafdd07513"}, {"lon": -77.0248685, "is_disabled": 0, "lat": 38.941879166666666, "fusion_lat": 0.0, "is_reserved": 0, "rental_uris": {"ios": "https://dc.lft.to/lastmile_qr_scan", "android": "https://dc.lft.to/lastmile_qr_scan"}, "fusion_lon": 0.0, "type": "electric_scooter", "bike_id": "782aca1aee7c27be21324ef70bf20604", "name": "782aca1aee7c27be21324ef70bf20604"}, {"lon": -77.003492, "is_disabled": 0, "lat": 38.876996, "fusion_lat": 0.0, "is_reserved": 0, "rental_uris": {"ios": "https://dc.lft.to/lastmile_qr_scan", "android": "https://dc.lft.to/lastmile_qr_scan"}, "fusion_lon": 0.0, "type": "electric_scooter", "bike_id": "ece1e13a16e3a9d08721eed7b9718f5e", "name": "ece1e13a16e3a9d08721eed7b9718f5e"}, {"lon": -77.04036816666667, "is_disabled": 0, "lat": 38.903688, "fusion_lat": 0.0, "is_reserved": 0, "rental_uris": {"ios": "https://dc.lft.to/lastmile_qr_scan", "android": "https://dc.lft.to/lastmile_qr_scan"}, "fusion_lon": 0.0, "type": "electric_scooter", "bike_id": "2bde9b0e433079acc72e2ca6f629af72", "name": "2bde9b0e433079acc72e2ca6f629af72"}, {"lon": -77.023069, "is_disabled": 0, "lat": 38.917833, "fusion_lat": 0.0, "is_reserved": 0, "rental_uris": {"ios": "https://dc.lft.to/lastmile_qr_scan", "android": "https://dc.lft.to/lastmile_qr_scan"}, "fusion_lon": 0.0, "type": "electric_scooter", "bike_id": "1a3e289b211305820fbd3d5335c86423", "name": "1a3e289b211305820fbd3d5335c86423"}, {"lon": -77.027057, "is_disabled": 0, "lat": 38.908565333333335, "fusion_lat": 0.0, "is_reserved": 0, "rental_uris": {"ios": "https://dc.lft.to/lastmile_qr_scan", "android": "https://dc.lft.to/lastmile_qr_scan"}, "fusion_lon": 0.0, "type": "electric_scooter", "bike_id": "9468b32ad5cc0d1785cf0456f7f23993", "name": "9468b32ad5cc0d1785cf0456f7f23993"}, {"lon": -77.0366275, "is_disabled": 0, "lat": 38.92261583333333, "fusion_lat": 0.0, "is_reserved": 0, "rental_uris": {"ios": "https://dc.lft.to/lastmile_qr_scan", "android": "https://dc.lft.to/lastmile_qr_scan"}, "fusion_lon": 0.0, "type": "electric_scooter", "bike_id": "490bc48f82e605b1d0166f39f2821043", "name": "490bc48f82e605b1d0166f39f2821043"}, {"lon": -77.02309483333333, "is_disabled": 0, "lat": 38.90956766666667, "fusion_lat": 0.0, "is_reserved": 0, "rental_uris": {"ios": "https://dc.lft.to/lastmile_qr_scan", "android": "https://dc.lft.to/lastmile_qr_scan"}, "fusion_lon": 0.0, "type": "electric_scooter", "bike_id": "4b093153236b945f1fc51098ce78869f", "name": "4b093153236b945f1fc51098ce78869f"}, {"lon": -77.020088, "is_disabled": 0, "lat": 38.91404416666666, "fusion_lat": 0.0, "is_reserved": 0, "rental_uris": {"ios": "https://dc.lft.to/lastmile_qr_scan", "android": "https://dc.lft.to/lastmile_qr_scan"}, "fusion_lon": 0.0, "type": "electric_scooter", "bike_id": "eae48219e625c906eccb9e3faa2ad38d", "name": "eae48219e625c906eccb9e3faa2ad38d"}, {"lon": -77.05722166666666, "is_disabled": 0, "lat": 38.904863666666664, "fusion_lat": 0.0, "is_reserved": 0, "rental_uris": {"ios": "https://dc.lft.to/lastmile_qr_scan", "android": "https://dc.lft.to/lastmile_qr_scan"}, "fusion_lon": 0.0, "type": "electric_scooter", "bike_id": "999a2628723262493fd040d5e4d8be81", "name": "999a2628723262493fd040d5e4d8be81"}, {"lon": -76.98189116666667, "is_disabled": 0, "lat": 38.862073, "fusion_lat": 0.0, "is_reserved": 0, "rental_uris": {"ios": "https://dc.lft.to/lastmile_qr_scan", "android": "https://dc.lft.to/lastmile_qr_scan"}, "fusion_lon": 0.0, "type": "electric_scooter", "bike_id": "9ea917c73689de1ebf36c7f53b4c5e6e", "name": "9ea917c73689de1ebf36c7f53b4c5e6e"}, {"lon": -77.04169633333333, "is_disabled": 0, "lat": 38.911326833333334, "fusion_lat": 0.0, "is_reserved": 0, "rental_uris": {"ios": "https://dc.lft.to/lastmile_qr_scan", "android": "https://dc.lft.to/lastmile_qr_scan"}, "fusion_lon": 0.0, "type": "electric_scooter", "bike_id": "f57410f1507bd3904f0cd2e279d16bb5", "name": "f57410f1507bd3904f0cd2e279d16bb5"}, {"lon": -77.0233735, "is_disabled": 0, "lat": 38.89615833333333, "fusion_lat": 0.0, "is_reserved": 0, "rental_uris": {"ios": "https://dc.lft.to/lastmile_qr_scan", "android": "https://dc.lft.to/lastmile_qr_scan"}, "fusion_lon": 0.0, "type": "electric_scooter", "bike_id": "d0eba91d9ff50536c41de0a64af22196", "name": "d0eba91d9ff50536c41de0a64af22196"}, {"lon": -77.01216016666666, "is_disabled": 0, "lat": 38.89849566666667, "fusion_lat": 0.0, "is_reserved": 0, "rental_uris": {"ios": "https://dc.lft.to/lastmile_qr_scan", "android": "https://dc.lft.to/lastmile_qr_scan"}, "fusion_lon": 0.0, "type": "electric_scooter", "bike_id": "102a1aa6623a4a454445d3354c80439c", "name": "102a1aa6623a4a454445d3354c80439c"}, {"lon": -77.02252583333333, "is_disabled": 0, "lat": 38.96677833333333, "fusion_lat": 0.0, "is_reserved": 0, "rental_uris": {"ios": "https://dc.lft.to/lastmile_qr_scan", "android": "https://dc.lft.to/lastmile_qr_scan"}, "fusion_lon": 0.0, "type": "electric_bike", "bike_id": "ad7dfa87a5e82ea950f9e9c82ce2c984", "name": "ad7dfa87a5e82ea950f9e9c82ce2c984"}, {"lon": -76.98377116666667, "is_disabled": 0, "lat": 38.8794515, "fusion_lat": 0.0, "is_reserved": 0, "rental_uris": {"ios": "https://dc.lft.to/lastmile_qr_scan", "android": "https://dc.lft.to/lastmile_qr_scan"}, "fusion_lon": 0.0, "type": "electric_scooter", "bike_id": "b0f7524d97570e20231e7c4d041d7f25", "name": "b0f7524d97570e20231e7c4d041d7f25"}, {"lon": -77.03468233333334, "is_disabled": 0, "lat": 38.884861, "fusion_lat": 0.0, "is_reserved": 0, "rental_uris": {"ios": "https://dc.lft.to/lastmile_qr_scan", "android": "https://dc.lft.to/lastmile_qr_scan"}, "fusion_lon": 0.0, "type": "electric_scooter", "bike_id": "65cbbfb6d39acef5b8e7e58ea7cabd8e", "name": "65cbbfb6d39acef5b8e7e58ea7cabd8e"}, {"lon": -77.01746566666667, "is_disabled": 0, "lat": 38.902742333333336, "fusion_lat": 0.0, "is_reserved": 0, "rental_uris": {"ios": "https://dc.lft.to/lastmile_qr_scan", "android": "https://dc.lft.to/lastmile_qr_scan"}, "fusion_lon": 0.0, "type": "electric_scooter", "bike_id": "f22ab84ac5643793e0b8fb2266328888", "name": "f22ab84ac5643793e0b8fb2266328888"}, {"lon": -77.02559216666667, "is_disabled": 0, "lat": 38.9095915, "fusion_lat": 0.0, "is_reserved": 0, "rental_uris": {"ios": "https://dc.lft.to/lastmile_qr_scan", "android": "https://dc.lft.to/lastmile_qr_scan"}, "fusion_lon": 0.0, "type": "electric_scooter", "bike_id": "52f06acb90d4c65cf70875bf139c8a0a", "name": "52f06acb90d4c65cf70875bf139c8a0a"}, {"lon": -77.05657916666667, "is_disabled": 0, "lat": 38.90607683333333, "fusion_lat": 0.0, "is_reserved": 0, "rental_uris": {"ios": "https://dc.lft.to/lastmile_qr_scan", "android": "https://dc.lft.to/lastmile_qr_scan"}, "fusion_lon": 0.0, "type": "electric_scooter", "bike_id": "04d2eb9104f0d4986aee45e949edcc2b", "name": "04d2eb9104f0d4986aee45e949edcc2b"}, {"lon": -77.0571885, "is_disabled": 0, "lat": 38.93370916666667, "fusion_lat": 0.0, "is_reserved": 0, "rental_uris": {"ios": "https://dc.lft.to/lastmile_qr_scan", "android": "https://dc.lft.to/lastmile_qr_scan"}, "fusion_lon": 0.0, "type": "electric_scooter", "bike_id": "c10148bad715236ed672be480d846a24", "name": "c10148bad715236ed672be480d846a24"}, {"lon": -76.97879766666667, "is_disabled": 0, "lat": 38.901934, "fusion_lat": 0.0, "is_reserved": 0, "rental_uris": {"ios": "https://dc.lft.to/lastmile_qr_scan", "android": "https://dc.lft.to/lastmile_qr_scan"}, "fusion_lon": 0.0, "type": "electric_scooter", "bike_id": "6ea071f94f3f01065dd545c9e020163d", "name": "6ea071f94f3f01065dd545c9e020163d"}, {"lon": -77.03829866666666, "is_disabled": 0, "lat": 38.91112066666667, "fusion_lat": 0.0, "is_reserved": 0, "rental_uris": {"ios": "https://dc.lft.to/lastmile_qr_scan", "android": "https://dc.lft.to/lastmile_qr_scan"}, "fusion_lon": 0.0, "type": "electric_scooter", "bike_id": "d9ff5eb14cbfda72f06e2814f07916df", "name": "d9ff5eb14cbfda72f06e2814f07916df"}, {"lon": -77.00841316666667, "is_disabled": 0, "lat": 38.922354166666665, "fusion_lat": 0.0, "is_reserved": 0, "rental_uris": {"ios": "https://dc.lft.to/lastmile_qr_scan", "android": "https://dc.lft.to/lastmile_qr_scan"}, "fusion_lon": 0.0, "type": "electric_scooter", "bike_id": "1beda65524cf80ba4ef208b866efa33f", "name": "1beda65524cf80ba4ef208b866efa33f"}, {"lon": -76.978531, "is_disabled": 0, "lat": 38.8447105, "fusion_lat": 0.0, "is_reserved": 0, "rental_uris": {"ios": "https://dc.lft.to/lastmile_qr_scan", "android": "https://dc.lft.to/lastmile_qr_scan"}, "fusion_lon": 0.0, "type": "electric_bike", "bike_id": "821690c53272de377e94d28010aa5376", "name": "821690c53272de377e94d28010aa5376"}, {"lon": -77.00580366666667, "is_disabled": 0, "lat": 38.87653316666667, "fusion_lat": 0.0, "is_reserved": 0, "rental_uris": {"ios": "https://dc.lft.to/lastmile_qr_scan", "android": "https://dc.lft.to/lastmile_qr_scan"}, "fusion_lon": 0.0, "type": "electric_scooter", "bike_id": "0714721d2a46c5bcd07dbbf479a1f2fd", "name": "0714721d2a46c5bcd07dbbf479a1f2fd"}, {"lon": -77.024971, "is_disabled": 0, "lat": 38.918062666666664, "fusion_lat": 0.0, "is_reserved": 0, "rental_uris": {"ios": "https://dc.lft.to/lastmile_qr_scan", "android": "https://dc.lft.to/lastmile_qr_scan"}, "fusion_lon": 0.0, "type": "electric_scooter", "bike_id": "54fdc78e2c1fccebb72f853e644e3834", "name": "54fdc78e2c1fccebb72f853e644e3834"}, {"lon": -77.04764916666667, "is_disabled": 0, "lat": 38.91770533333333, "fusion_lat": 0.0, "is_reserved": 0, "rental_uris": {"ios": "https://dc.lft.to/lastmile_qr_scan", "android": "https://dc.lft.to/lastmile_qr_scan"}, "fusion_lon": 0.0, "type": "electric_scooter", "bike_id": "4fc553f1fbec52371441023fbcf2b1b8", "name": "4fc553f1fbec52371441023fbcf2b1b8"}, {"lon": -77.04677916666667, "is_disabled": 0, "lat": 38.915639, "fusion_lat": 0.0, "is_reserved": 0, "rental_uris": {"ios": "https://dc.lft.to/lastmile_qr_scan", "android": "https://dc.lft.to/lastmile_qr_scan"}, "fusion_lon": 0.0, "type": "electric_bike", "bike_id": "438d49e65e7de014af1ac63959c5d04f", "name": "438d49e65e7de014af1ac63959c5d04f"}, {"lon": -77.01432816666667, "is_disabled": 0, "lat": 38.91317333333333, "fusion_lat": 0.0, "is_reserved": 0, "rental_uris": {"ios": "https://dc.lft.to/lastmile_qr_scan", "android": "https://dc.lft.to/lastmile_qr_scan"}, "fusion_lon": 0.0, "type": "electric_scooter", "bike_id": "c898c95fb6ba907e7b491852a5f09b12", "name": "c898c95fb6ba907e7b491852a5f09b12"}, {"lon": -77.0257325, "is_disabled": 0, "lat": 38.92688616666667, "fusion_lat": 0.0, "is_reserved": 0, "rental_uris": {"ios": "https://dc.lft.to/lastmile_qr_scan", "android": "https://dc.lft.to/lastmile_qr_scan"}, "fusion_lon": 0.0, "type": "electric_bike", "bike_id": "aa8b3e9968ac226f2f078107c3d7caff", "name": "aa8b3e9968ac226f2f078107c3d7caff"}, {"lon": -76.98708466666666, "is_disabled": 0, "lat": 38.86702583333334, "fusion_lat": 0.0, "is_reserved": 0, "rental_uris": {"ios": "https://dc.lft.to/lastmile_qr_scan", "android": "https://dc.lft.to/lastmile_qr_scan"}, "fusion_lon": 0.0, "type": "electric_scooter", "bike_id": "bf676b846625e04e167a82def6b58099", "name": "bf676b846625e04e167a82def6b58099"}, {"lon": -77.04085916666666, "is_disabled": 0, "lat": 38.9202885, "fusion_lat": 0.0, "is_reserved": 0, "rental_uris": {"ios": "https://dc.lft.to/lastmile_qr_scan", "android": "https://dc.lft.to/lastmile_qr_scan"}, "fusion_lon": 0.0, "type": "electric_scooter", "bike_id": "99fe27f1c2d4bb56e3031f2dfc4bd965", "name": "99fe27f1c2d4bb56e3031f2dfc4bd965"}, {"lon": -77.131004, "is_disabled": 0, "lat": 39.024360333333334, "fusion_lat": 0.0, "is_reserved": 0, "rental_uris": {"ios": "https://dc.lft.to/lastmile_qr_scan", "android": "https://dc.lft.to/lastmile_qr_scan"}, "fusion_lon": 0.0, "type": "electric_bike", "bike_id": "4aa79f1bc74b85b3f0fe6a1fbcd51333", "name": "4aa79f1bc74b85b3f0fe6a1fbcd51333"}, {"lon": -77.04153116666667, "is_disabled": 0, "lat": 38.916007, "fusion_lat": 0.0, "is_reserved": 0, "rental_uris": {"ios": "https://dc.lft.to/lastmile_qr_scan", "android": "https://dc.lft.to/lastmile_qr_scan"}, "fusion_lon": 0.0, "type": "electric_scooter", "bike_id": "523607f201a4a3abd15676b44ace4f69", "name": "523607f201a4a3abd15676b44ace4f69"}, {"lon": -77.04452866666666, "is_disabled": 0, "lat": 38.8959175, "fusion_lat": 0.0, "is_reserved": 0, "rental_uris": {"ios": "https://dc.lft.to/lastmile_qr_scan", "android": "https://dc.lft.to/lastmile_qr_scan"}, "fusion_lon": 0.0, "type": "electric_scooter", "bike_id": "97def686c6f50f194cb28abd2b47ec93", "name": "97def686c6f50f194cb28abd2b47ec93"}, {"lon": -77.03240166666667, "is_disabled": 0, "lat": 38.92174966666666, "fusion_lat": 0.0, "is_reserved": 0, "rental_uris": {"ios": "https://dc.lft.to/lastmile_qr_scan", "android": "https://dc.lft.to/lastmile_qr_scan"}, "fusion_lon": 0.0, "type": "electric_scooter", "bike_id": "0ab087adf84c68c966c49046a503e7cd", "name": "0ab087adf84c68c966c49046a503e7cd"}, {"lon": -77.043342, "is_disabled": 0, "lat": 38.9222065, "fusion_lat": 0.0, "is_reserved": 0, "rental_uris": {"ios": "https://dc.lft.to/lastmile_qr_scan", "android": "https://dc.lft.to/lastmile_qr_scan"}, "fusion_lon": 0.0, "type": "electric_scooter", "bike_id": "83de3ea2a27317539ed25b932b11ac67", "name": "83de3ea2a27317539ed25b932b11ac67"}, {"lon": -77.02819783333334, "is_disabled": 0, "lat": 38.917139, "fusion_lat": 0.0, "is_reserved": 0, "rental_uris": {"ios": "https://dc.lft.to/lastmile_qr_scan", "android": "https://dc.lft.to/lastmile_qr_scan"}, "fusion_lon": 0.0, "type": "electric_scooter", "bike_id": "8e388b4b612326ae6e0cf128b208908e", "name": "8e388b4b612326ae6e0cf128b208908e"}, {"lon": -77.04865133333334, "is_disabled": 0, "lat": 38.90448133333334, "fusion_lat": 0.0, "is_reserved": 0, "rental_uris": {"ios": "https://dc.lft.to/lastmile_qr_scan", "android": "https://dc.lft.to/lastmile_qr_scan"}, "fusion_lon": 0.0, "type": "electric_scooter", "bike_id": "1c7321b45ff80a49bcb1158074df6494", "name": "1c7321b45ff80a49bcb1158074df6494"}, {"lon": -77.04515283333333, "is_disabled": 0, "lat": 38.92318483333333, "fusion_lat": 0.0, "is_reserved": 0, "rental_uris": {"ios": "https://dc.lft.to/lastmile_qr_scan", "android": "https://dc.lft.to/lastmile_qr_scan"}, "fusion_lon": 0.0, "type": "electric_scooter", "bike_id": "6ee4d38e842f9cc7ac473dce47f596a3", "name": "6ee4d38e842f9cc7ac473dce47f596a3"}, {"lon": -77.011315, "is_disabled": 0, "lat": 38.9064105, "fusion_lat": 0.0, "is_reserved": 0, "rental_uris": {"ios": "https://dc.lft.to/lastmile_qr_scan", "android": "https://dc.lft.to/lastmile_qr_scan"}, "fusion_lon": 0.0, "type": "electric_scooter", "bike_id": "3e81dc9ac0794d79d87fc2d6f6b96c74", "name": "3e81dc9ac0794d79d87fc2d6f6b96c74"}, {"lon": -77.04354933333333, "is_disabled": 0, "lat": 38.91470433333333, "fusion_lat": 0.0, "is_reserved": 0, "rental_uris": {"ios": "https://dc.lft.to/lastmile_qr_scan", "android": "https://dc.lft.to/lastmile_qr_scan"}, "fusion_lon": 0.0, "type": "electric_scooter", "bike_id": "639441a0f5ba2a44daef1bab142598c4", "name": "639441a0f5ba2a44daef1bab142598c4"}, {"lon": -77.02713166666666, "is_disabled": 0, "lat": 38.90098733333333, "fusion_lat": 0.0, "is_reserved": 0, "rental_uris": {"ios": "https://dc.lft.to/lastmile_qr_scan", "android": "https://dc.lft.to/lastmile_qr_scan"}, "fusion_lon": 0.0, "type": "electric_scooter", "bike_id": "d8ef6bee3af55041f3b22efe319b8305", "name": "d8ef6bee3af55041f3b22efe319b8305"}, {"lon": -76.97788466666667, "is_disabled": 0, "lat": 38.90566366666667, "fusion_lat": 0.0, "is_reserved": 0, "rental_uris": {"ios": "https://dc.lft.to/lastmile_qr_scan", "android": "https://dc.lft.to/lastmile_qr_scan"}, "fusion_lon": 0.0, "type": "electric_scooter", "bike_id": "b3344c256c1c1d597c76cdd1b2d422c8", "name": "b3344c256c1c1d597c76cdd1b2d422c8"}, {"lon": -77.0273435, "is_disabled": 0, "lat": 38.93208333333333, "fusion_lat": 0.0, "is_reserved": 0, "rental_uris": {"ios": "https://dc.lft.to/lastmile_qr_scan", "android": "https://dc.lft.to/lastmile_qr_scan"}, "fusion_lon": 0.0, "type": "electric_scooter", "bike_id": "b9c7b8ba5988176f3234b2573ec2e751", "name": "b9c7b8ba5988176f3234b2573ec2e751"}, {"lon": -77.019494, "is_disabled": 0, "lat": 38.924178, "fusion_lat": 0.0, "is_reserved": 0, "rental_uris": {"ios": "https://dc.lft.to/lastmile_qr_scan", "android": "https://dc.lft.to/lastmile_qr_scan"}, "fusion_lon": 0.0, "type": "electric_scooter", "bike_id": "839729885b4ed9d6bd844823b64b8b24", "name": "839729885b4ed9d6bd844823b64b8b24"}, {"lon": -76.9566715, "is_disabled": 0, "lat": 38.88470733333333, "fusion_lat": 0.0, "is_reserved": 0, "rental_uris": {"ios": "https://dc.lft.to/lastmile_qr_scan", "android": "https://dc.lft.to/lastmile_qr_scan"}, "fusion_lon": 0.0, "type": "electric_bike", "bike_id": "3c76d19e9d9dbbbd3ab77b790d51c9fe", "name": "3c76d19e9d9dbbbd3ab77b790d51c9fe"}, {"lon": -76.98680416666667, "is_disabled": 0, "lat": 38.877575, "fusion_lat": 0.0, "is_reserved": 0, "rental_uris": {"ios": "https://dc.lft.to/lastmile_qr_scan", "android": "https://dc.lft.to/lastmile_qr_scan"}, "fusion_lon": 0.0, "type": "electric_scooter", "bike_id": "cff527ccdf6c509b8285c7341f6a8230", "name": "cff527ccdf6c509b8285c7341f6a8230"}, {"lon": -77.03402966666667, "is_disabled": 0, "lat": 38.9095865, "fusion_lat": 0.0, "is_reserved": 0, "rental_uris": {"ios": "https://dc.lft.to/lastmile_qr_scan", "android": "https://dc.lft.to/lastmile_qr_scan"}, "fusion_lon": 0.0, "type": "electric_scooter", "bike_id": "16f21f895caa44976428e6c43b16ce64", "name": "16f21f895caa44976428e6c43b16ce64"}, {"lon": -77.01207366666667, "is_disabled": 0, "lat": 38.90613483333333, "fusion_lat": 0.0, "is_reserved": 0, "rental_uris": {"ios": "https://dc.lft.to/lastmile_qr_scan", "android": "https://dc.lft.to/lastmile_qr_scan"}, "fusion_lon": 0.0, "type": "electric_scooter", "bike_id": "bf1faba40c275f94a6fb3564d259ec79", "name": "bf1faba40c275f94a6fb3564d259ec79"}, {"lon": -76.94625883333333, "is_disabled": 0, "lat": 38.8324685, "fusion_lat": 0.0, "is_reserved": 0, "rental_uris": {"ios": "https://dc.lft.to/lastmile_qr_scan", "android": "https://dc.lft.to/lastmile_qr_scan"}, "fusion_lon": 0.0, "type": "electric_bike", "bike_id": "d79c2f2aa7b4b97675c0728bd876a240", "name": "d79c2f2aa7b4b97675c0728bd876a240"}, {"lon": -77.02768016666667, "is_disabled": 0, "lat": 38.928641666666664, "fusion_lat": 0.0, "is_reserved": 0, "rental_uris": {"ios": "https://dc.lft.to/lastmile_qr_scan", "android": "https://dc.lft.to/lastmile_qr_scan"}, "fusion_lon": 0.0, "type": "electric_scooter", "bike_id": "ce4bf446b67c37e6db17a4daf5bfd7ec", "name": "ce4bf446b67c37e6db17a4daf5bfd7ec"}, {"lon": -77.03367283333333, "is_disabled": 0, "lat": 38.92156383333333, "fusion_lat": 0.0, "is_reserved": 0, "rental_uris": {"ios": "https://dc.lft.to/lastmile_qr_scan", "android": "https://dc.lft.to/lastmile_qr_scan"}, "fusion_lon": 0.0, "type": "electric_scooter", "bike_id": "948528f5eef852b3387e176eb22fb771", "name": "948528f5eef852b3387e176eb22fb771"}, {"lon": -77.032879, "is_disabled": 0, "lat": 38.9283985, "fusion_lat": 0.0, "is_reserved": 0, "rental_uris": {"ios": "https://dc.lft.to/lastmile_qr_scan", "android": "https://dc.lft.to/lastmile_qr_scan"}, "fusion_lon": 0.0, "type": "electric_scooter", "bike_id": "6cdcfec513f0b044fb4c444edefef2ce", "name": "6cdcfec513f0b044fb4c444edefef2ce"}, {"lon": -77.02408266666667, "is_disabled": 0, "lat": 38.914268166666666, "fusion_lat": 0.0, "is_reserved": 0, "rental_uris": {"ios": "https://dc.lft.to/lastmile_qr_scan", "android": "https://dc.lft.to/lastmile_qr_scan"}, "fusion_lon": 0.0, "type": "electric_scooter", "bike_id": "86cabd7ccb2972cb9dce5ea1e1b6585f", "name": "86cabd7ccb2972cb9dce5ea1e1b6585f"}, {"lon": -77.04314766666667, "is_disabled": 0, "lat": 39.03427383333333, "fusion_lat": 0.0, "is_reserved": 0, "rental_uris": {"ios": "https://dc.lft.to/lastmile_qr_scan", "android": "https://dc.lft.to/lastmile_qr_scan"}, "fusion_lon": 0.0, "type": "electric_bike", "bike_id": "be17eec4b2bb6cea67a3a325faa27b5b", "name": "be17eec4b2bb6cea67a3a325faa27b5b"}, {"lon": -76.99631766666667, "is_disabled": 0, "lat": 38.88441983333333, "fusion_lat": 0.0, "is_reserved": 0, "rental_uris": {"ios": "https://dc.lft.to/lastmile_qr_scan", "android": "https://dc.lft.to/lastmile_qr_scan"}, "fusion_lon": 0.0, "type": "electric_scooter", "bike_id": "e60d205d39be08fcf63b56e7a958907c", "name": "e60d205d39be08fcf63b56e7a958907c"}, {"lon": -76.93025933333334, "is_disabled": 0, "lat": 38.8957095, "fusion_lat": 0.0, "is_reserved": 0, "rental_uris": {"ios": "https://dc.lft.to/lastmile_qr_scan", "android": "https://dc.lft.to/lastmile_qr_scan"}, "fusion_lon": 0.0, "type": "electric_scooter", "bike_id": "4c94dcc1d139a35f542965f54a9459fb", "name": "4c94dcc1d139a35f542965f54a9459fb"}, {"lon": -77.02094016666666, "is_disabled": 0, "lat": 38.92705433333333, "fusion_lat": 0.0, "is_reserved": 0, "rental_uris": {"ios": "https://dc.lft.to/lastmile_qr_scan", "android": "https://dc.lft.to/lastmile_qr_scan"}, "fusion_lon": 0.0, "type": "electric_scooter", "bike_id": "1dac3729d7dd5a70f87808d9b273b2d9", "name": "1dac3729d7dd5a70f87808d9b273b2d9"}, {"lon": -77.03531666666667, "is_disabled": 0, "lat": 38.92234233333333, "fusion_lat": 0.0, "is_reserved": 0, "rental_uris": {"ios": "https://dc.lft.to/lastmile_qr_scan", "android": "https://dc.lft.to/lastmile_qr_scan"}, "fusion_lon": 0.0, "type": "electric_scooter", "bike_id": "bc6dcb42dfb0b4a3b0de774cf95b3c4f", "name": "bc6dcb42dfb0b4a3b0de774cf95b3c4f"}, {"lon": -77.04169866666666, "is_disabled": 0, "lat": 38.911295333333335, "fusion_lat": 0.0, "is_reserved": 0, "rental_uris": {"ios": "https://dc.lft.to/lastmile_qr_scan", "android": "https://dc.lft.to/lastmile_qr_scan"}, "fusion_lon": 0.0, "type": "electric_scooter", "bike_id": "12f2637284a2d0d4ebc0bb8942f151dc", "name": "12f2637284a2d0d4ebc0bb8942f151dc"}, {"lon": -77.02210533333333, "is_disabled": 0, "lat": 38.915521166666664, "fusion_lat": 0.0, "is_reserved": 0, "rental_uris": {"ios": "https://dc.lft.to/lastmile_qr_scan", "android": "https://dc.lft.to/lastmile_qr_scan"}, "fusion_lon": 0.0, "type": "electric_scooter", "bike_id": "65f9ff914aca665d7ea1e0f4b39052f4", "name": "65f9ff914aca665d7ea1e0f4b39052f4"}, {"lon": -76.97862166666667, "is_disabled": 0, "lat": 38.86745333333333, "fusion_lat": 0.0, "is_reserved": 0, "rental_uris": {"ios": "https://dc.lft.to/lastmile_qr_scan", "android": "https://dc.lft.to/lastmile_qr_scan"}, "fusion_lon": 0.0, "type": "electric_scooter", "bike_id": "3d9b2e8a9fc16d1d7fd9959b1fd67dbd", "name": "3d9b2e8a9fc16d1d7fd9959b1fd67dbd"}, {"lon": -77.03943266666667, "is_disabled": 0, "lat": 38.91412116666667, "fusion_lat": 0.0, "is_reserved": 0, "rental_uris": {"ios": "https://dc.lft.to/lastmile_qr_scan", "android": "https://dc.lft.to/lastmile_qr_scan"}, "fusion_lon": 0.0, "type": "electric_scooter", "bike_id": "6a456f49aa0ed5e6fe20efccda828c62", "name": "6a456f49aa0ed5e6fe20efccda828c62"}, {"lon": -77.02687233333333, "is_disabled": 0, "lat": 38.908529333333334, "fusion_lat": 0.0, "is_reserved": 0, "rental_uris": {"ios": "https://dc.lft.to/lastmile_qr_scan", "android": "https://dc.lft.to/lastmile_qr_scan"}, "fusion_lon": 0.0, "type": "electric_scooter", "bike_id": "438021484cf152cc076b6df9de1802b5", "name": "438021484cf152cc076b6df9de1802b5"}, {"lon": -76.98084733333333, "is_disabled": 0, "lat": 38.92631266666667, "fusion_lat": 0.0, "is_reserved": 0, "rental_uris": {"ios": "https://dc.lft.to/lastmile_qr_scan", "android": "https://dc.lft.to/lastmile_qr_scan"}, "fusion_lon": 0.0, "type": "electric_scooter", "bike_id": "32f64ccbbbca8ab166f46b7c2a7a9abb", "name": "32f64ccbbbca8ab166f46b7c2a7a9abb"}, {"lon": -77.0363585, "is_disabled": 0, "lat": 38.918750333333335, "fusion_lat": 0.0, "is_reserved": 0, "rental_uris": {"ios": "https://dc.lft.to/lastmile_qr_scan", "android": "https://dc.lft.to/lastmile_qr_scan"}, "fusion_lon": 0.0, "type": "electric_scooter", "bike_id": "f767b372efdc144cd717839779f7b2b6", "name": "f767b372efdc144cd717839779f7b2b6"}, {"lon": -76.99069866666666, "is_disabled": 0, "lat": 38.898174166666664, "fusion_lat": 0.0, "is_reserved": 0, "rental_uris": {"ios": "https://dc.lft.to/lastmile_qr_scan", "android": "https://dc.lft.to/lastmile_qr_scan"}, "fusion_lon": 0.0, "type": "electric_bike", "bike_id": "abe7cb339fc1e511e42c4d3f3d2fe3d1", "name": "abe7cb339fc1e511e42c4d3f3d2fe3d1"}, {"lon": -77.032814, "is_disabled": 0, "lat": 38.92816416666667, "fusion_lat": 0.0, "is_reserved": 0, "rental_uris": {"ios": "https://dc.lft.to/lastmile_qr_scan", "android": "https://dc.lft.to/lastmile_qr_scan"}, "fusion_lon": 0.0, "type": "electric_scooter", "bike_id": "88829b004c1996237fd4579e37964908", "name": "88829b004c1996237fd4579e37964908"}, {"lon": -77.00113883333333, "is_disabled": 0, "lat": 38.8737115, "fusion_lat": 0.0, "is_reserved": 0, "rental_uris": {"ios": "https://dc.lft.to/lastmile_qr_scan", "android": "https://dc.lft.to/lastmile_qr_scan"}, "fusion_lon": 0.0, "type": "electric_scooter", "bike_id": "7e9ad703edbaad6d603efc40355fd32d", "name": "7e9ad703edbaad6d603efc40355fd32d"}, {"lon": -77.01224033333334, "is_disabled": 0, "lat": 38.923988333333334, "fusion_lat": 0.0, "is_reserved": 0, "rental_uris": {"ios": "https://dc.lft.to/lastmile_qr_scan", "android": "https://dc.lft.to/lastmile_qr_scan"}, "fusion_lon": 0.0, "type": "electric_scooter", "bike_id": "bb2ac87312ca0767a891f3e0e6936fe1", "name": "bb2ac87312ca0767a891f3e0e6936fe1"}, {"lon": -77.03324083333334, "is_disabled": 0, "lat": 38.921526, "fusion_lat": 0.0, "is_reserved": 0, "rental_uris": {"ios": "https://dc.lft.to/lastmile_qr_scan", "android": "https://dc.lft.to/lastmile_qr_scan"}, "fusion_lon": 0.0, "type": "electric_scooter", "bike_id": "dad46af46ffd3fdfbf12e3b337f14d9b", "name": "dad46af46ffd3fdfbf12e3b337f14d9b"}, {"lon": -77.02897166666666, "is_disabled": 0, "lat": 38.90436366666667, "fusion_lat": 0.0, "is_reserved": 0, "rental_uris": {"ios": "https://dc.lft.to/lastmile_qr_scan", "android": "https://dc.lft.to/lastmile_qr_scan"}, "fusion_lon": 0.0, "type": "electric_scooter", "bike_id": "1e8215017c7deb0686205a0d94cc465b", "name": "1e8215017c7deb0686205a0d94cc465b"}, {"lon": -77.04375783333333, "is_disabled": 0, "lat": 38.92136133333333, "fusion_lat": 0.0, "is_reserved": 0, "rental_uris": {"ios": "https://dc.lft.to/lastmile_qr_scan", "android": "https://dc.lft.to/lastmile_qr_scan"}, "fusion_lon": 0.0, "type": "electric_scooter", "bike_id": "57775ed50817ee5c3fd25385e3a89c81", "name": "57775ed50817ee5c3fd25385e3a89c81"}, {"lon": -77.04173383333334, "is_disabled": 0, "lat": 38.917697833333335, "fusion_lat": 0.0, "is_reserved": 0, "rental_uris": {"ios": "https://dc.lft.to/lastmile_qr_scan", "android": "https://dc.lft.to/lastmile_qr_scan"}, "fusion_lon": 0.0, "type": "electric_scooter", "bike_id": "89023512842fb9523ee8723f6ec40f7d", "name": "89023512842fb9523ee8723f6ec40f7d"}, {"lon": -77.05334283333333, "is_disabled": 0, "lat": 39.040831833333336, "fusion_lat": 0.0, "is_reserved": 0, "rental_uris": {"ios": "https://dc.lft.to/lastmile_qr_scan", "android": "https://dc.lft.to/lastmile_qr_scan"}, "fusion_lon": 0.0, "type": "electric_bike", "bike_id": "55748551496d67f37fa9322612d2d25e", "name": "55748551496d67f37fa9322612d2d25e"}, {"lon": -77.0409855, "is_disabled": 0, "lat": 38.917696, "fusion_lat": 0.0, "is_reserved": 0, "rental_uris": {"ios": "https://dc.lft.to/lastmile_qr_scan", "android": "https://dc.lft.to/lastmile_qr_scan"}, "fusion_lon": 0.0, "type": "electric_scooter", "bike_id": "5ccca70fc2fde33e022581d4fc36bec8", "name": "5ccca70fc2fde33e022581d4fc36bec8"}, {"lon": -77.00069433333333, "is_disabled": 0, "lat": 38.873774166666664, "fusion_lat": 0.0, "is_reserved": 0, "rental_uris": {"ios": "https://dc.lft.to/lastmile_qr_scan", "android": "https://dc.lft.to/lastmile_qr_scan"}, "fusion_lon": 0.0, "type": "electric_scooter", "bike_id": "36315964644cc5ae214fb5856fc71834", "name": "36315964644cc5ae214fb5856fc71834"}, {"lon": -77.03288883333333, "is_disabled": 0, "lat": 38.93508883333333, "fusion_lat": 0.0, "is_reserved": 0, "rental_uris": {"ios": "https://dc.lft.to/lastmile_qr_scan", "android": "https://dc.lft.to/lastmile_qr_scan"}, "fusion_lon": 0.0, "type": "electric_scooter", "bike_id": "ab07fff5b89138d7b58f343938e5b904", "name": "ab07fff5b89138d7b58f343938e5b904"}, {"lon": -77.0245175, "is_disabled": 0, "lat": 38.93859283333333, "fusion_lat": 0.0, "is_reserved": 0, "rental_uris": {"ios": "https://dc.lft.to/lastmile_qr_scan", "android": "https://dc.lft.to/lastmile_qr_scan"}, "fusion_lon": 0.0, "type": "electric_scooter", "bike_id": "5dc39d3ec79a6a6352f47d26ad74edf2", "name": "5dc39d3ec79a6a6352f47d26ad74edf2"}, {"lon": -77.05170883333334, "is_disabled": 0, "lat": 38.90532833333333, "fusion_lat": 0.0, "is_reserved": 0, "rental_uris": {"ios": "https://dc.lft.to/lastmile_qr_scan", "android": "https://dc.lft.to/lastmile_qr_scan"}, "fusion_lon": 0.0, "type": "electric_scooter", "bike_id": "42f446f035c766bf390515e6e57d7595", "name": "42f446f035c766bf390515e6e57d7595"}, {"lon": -77.026502, "is_disabled": 0, "lat": 38.90264716666667, "fusion_lat": 0.0, "is_reserved": 0, "rental_uris": {"ios": "https://dc.lft.to/lastmile_qr_scan", "android": "https://dc.lft.to/lastmile_qr_scan"}, "fusion_lon": 0.0, "type": "electric_scooter", "bike_id": "1ead0ba4430aa31f18c73aa518afa433", "name": "1ead0ba4430aa31f18c73aa518afa433"}, {"lon": -77.014917, "is_disabled": 0, "lat": 38.89217283333333, "fusion_lat": 0.0, "is_reserved": 0, "rental_uris": {"ios": "https://dc.lft.to/lastmile_qr_scan", "android": "https://dc.lft.to/lastmile_qr_scan"}, "fusion_lon": 0.0, "type": "electric_scooter", "bike_id": "fa1c4ee267069eaf61acad7c6a4b5ee2", "name": "fa1c4ee267069eaf61acad7c6a4b5ee2"}, {"lon": -77.02507183333333, "is_disabled": 0, "lat": 38.91931316666667, "fusion_lat": 0.0, "is_reserved": 0, "rental_uris": {"ios": "https://dc.lft.to/lastmile_qr_scan", "android": "https://dc.lft.to/lastmile_qr_scan"}, "fusion_lon": 0.0, "type": "electric_scooter", "bike_id": "79351826ab12c5f2bce1cea8a8904679", "name": "79351826ab12c5f2bce1cea8a8904679"}, {"lon": -77.03301316666666, "is_disabled": 0, "lat": 38.9288415, "fusion_lat": 0.0, "is_reserved": 0, "rental_uris": {"ios": "https://dc.lft.to/lastmile_qr_scan", "android": "https://dc.lft.to/lastmile_qr_scan"}, "fusion_lon": 0.0, "type": "electric_scooter", "bike_id": "fcf684f9dd464c207d9d6efb1da94c9e", "name": "fcf684f9dd464c207d9d6efb1da94c9e"}, {"lon": -76.95096183333334, "is_disabled": 0, "lat": 38.88447383333333, "fusion_lat": 0.0, "is_reserved": 0, "rental_uris": {"ios": "https://dc.lft.to/lastmile_qr_scan", "android": "https://dc.lft.to/lastmile_qr_scan"}, "fusion_lon": 0.0, "type": "electric_scooter", "bike_id": "a1f7ab63a2cef3f2d2b43d39aeac3acf", "name": "a1f7ab63a2cef3f2d2b43d39aeac3acf"}, {"lon": -76.97711866666667, "is_disabled": 0, "lat": 38.8920975, "fusion_lat": 0.0, "is_reserved": 0, "rental_uris": {"ios": "https://dc.lft.to/lastmile_qr_scan", "android": "https://dc.lft.to/lastmile_qr_scan"}, "fusion_lon": 0.0, "type": "electric_bike", "bike_id": "bf36286af3df75c062691b213f868148", "name": "bf36286af3df75c062691b213f868148"}, {"lon": -77.00132433333333, "is_disabled": 0, "lat": 38.892746833333334, "fusion_lat": 0.0, "is_reserved": 0, "rental_uris": {"ios": "https://dc.lft.to/lastmile_qr_scan", "android": "https://dc.lft.to/lastmile_qr_scan"}, "fusion_lon": 0.0, "type": "electric_scooter", "bike_id": "2f125661a9b2958ae4ff75d8f861b89f", "name": "2f125661a9b2958ae4ff75d8f861b89f"}, {"lon": -77.01224816666667, "is_disabled": 0, "lat": 38.90095683333333, "fusion_lat": 0.0, "is_reserved": 0, "rental_uris": {"ios": "https://dc.lft.to/lastmile_qr_scan", "android": "https://dc.lft.to/lastmile_qr_scan"}, "fusion_lon": 0.0, "type": "electric_scooter", "bike_id": "7d8852b8400840cbb68a8b63daac9a75", "name": "7d8852b8400840cbb68a8b63daac9a75"}, {"lon": -77.02313116666667, "is_disabled": 0, "lat": 38.91780883333333, "fusion_lat": 0.0, "is_reserved": 0, "rental_uris": {"ios": "https://dc.lft.to/lastmile_qr_scan", "android": "https://dc.lft.to/lastmile_qr_scan"}, "fusion_lon": 0.0, "type": "electric_scooter", "bike_id": "2b37430129447d29d195e9cab928212a", "name": "2b37430129447d29d195e9cab928212a"}, {"lon": -76.96057133333333, "is_disabled": 0, "lat": 38.88406883333333, "fusion_lat": 0.0, "is_reserved": 0, "rental_uris": {"ios": "https://dc.lft.to/lastmile_qr_scan", "android": "https://dc.lft.to/lastmile_qr_scan"}, "fusion_lon": 0.0, "type": "electric_bike", "bike_id": "dbb143411fe99de1564ae6b794b3f3e2", "name": "dbb143411fe99de1564ae6b794b3f3e2"}, {"lon": -77.0259775, "is_disabled": 0, "lat": 38.92385866666667, "fusion_lat": 0.0, "is_reserved": 0, "rental_uris": {"ios": "https://dc.lft.to/lastmile_qr_scan", "android": "https://dc.lft.to/lastmile_qr_scan"}, "fusion_lon": 0.0, "type": "electric_scooter", "bike_id": "f21439f77c7cd4f687a10b66b96ad9df", "name": "f21439f77c7cd4f687a10b66b96ad9df"}, {"lon": -77.03843516666667, "is_disabled": 0, "lat": 38.915606833333335, "fusion_lat": 0.0, "is_reserved": 0, "rental_uris": {"ios": "https://dc.lft.to/lastmile_qr_scan", "android": "https://dc.lft.to/lastmile_qr_scan"}, "fusion_lon": 0.0, "type": "electric_scooter", "bike_id": "6408e60783de9de09aa20a13d9406653", "name": "6408e60783de9de09aa20a13d9406653"}, {"lon": -77.0251125, "is_disabled": 0, "lat": 38.919192333333335, "fusion_lat": 0.0, "is_reserved": 0, "rental_uris": {"ios": "https://dc.lft.to/lastmile_qr_scan", "android": "https://dc.lft.to/lastmile_qr_scan"}, "fusion_lon": 0.0, "type": "electric_scooter", "bike_id": "1e2bbd974c78853448b48399ca38a804", "name": "1e2bbd974c78853448b48399ca38a804"}, {"lon": -77.00678366666666, "is_disabled": 0, "lat": 38.900150333333336, "fusion_lat": 0.0, "is_reserved": 0, "rental_uris": {"ios": "https://dc.lft.to/lastmile_qr_scan", "android": "https://dc.lft.to/lastmile_qr_scan"}, "fusion_lon": 0.0, "type": "electric_scooter", "bike_id": "f832503309ea469d50d81e970f7addc0", "name": "f832503309ea469d50d81e970f7addc0"}, {"lon": -77.0110755, "is_disabled": 0, "lat": 38.9096875, "fusion_lat": 0.0, "is_reserved": 0, "rental_uris": {"ios": "https://dc.lft.to/lastmile_qr_scan", "android": "https://dc.lft.to/lastmile_qr_scan"}, "fusion_lon": 0.0, "type": "electric_scooter", "bike_id": "7e5cd188ec7fb29fef90755c4f596920", "name": "7e5cd188ec7fb29fef90755c4f596920"}, {"lon": -77.0378185, "is_disabled": 0, "lat": 38.92465283333333, "fusion_lat": 0.0, "is_reserved": 0, "rental_uris": {"ios": "https://dc.lft.to/lastmile_qr_scan", "android": "https://dc.lft.to/lastmile_qr_scan"}, "fusion_lon": 0.0, "type": "electric_scooter", "bike_id": "39d259a2a9d4359df6bf0552c392baf1", "name": "39d259a2a9d4359df6bf0552c392baf1"}, {"lon": -77.00258883333333, "is_disabled": 0, "lat": 38.87493383333333, "fusion_lat": 0.0, "is_reserved": 0, "rental_uris": {"ios": "https://dc.lft.to/lastmile_qr_scan", "android": "https://dc.lft.to/lastmile_qr_scan"}, "fusion_lon": 0.0, "type": "electric_scooter", "bike_id": "17d173040d875747d0266044c8ae8358", "name": "17d173040d875747d0266044c8ae8358"}, {"lon": -77.0371935, "is_disabled": 0, "lat": 38.9286055, "fusion_lat": 0.0, "is_reserved": 0, "rental_uris": {"ios": "https://dc.lft.to/lastmile_qr_scan", "android": "https://dc.lft.to/lastmile_qr_scan"}, "fusion_lon": 0.0, "type": "electric_scooter", "bike_id": "288fa8ee8d7645ec157d61abc2373eb6", "name": "288fa8ee8d7645ec157d61abc2373eb6"}, {"lon": -77.024116, "is_disabled": 0, "lat": 38.9190695, "fusion_lat": 0.0, "is_reserved": 0, "rental_uris": {"ios": "https://dc.lft.to/lastmile_qr_scan", "android": "https://dc.lft.to/lastmile_qr_scan"}, "fusion_lon": 0.0, "type": "electric_scooter", "bike_id": "d66ecf5ac6fe94185671410d032be42a", "name": "d66ecf5ac6fe94185671410d032be42a"}, {"lon": -77.00918616666667, "is_disabled": 0, "lat": 38.901006333333335, "fusion_lat": 0.0, "is_reserved": 0, "rental_uris": {"ios": "https://dc.lft.to/lastmile_qr_scan", "android": "https://dc.lft.to/lastmile_qr_scan"}, "fusion_lon": 0.0, "type": "electric_scooter", "bike_id": "8e311581d7a99a7985603a1b25c254e7", "name": "8e311581d7a99a7985603a1b25c254e7"}, {"lon": -77.02621066666667, "is_disabled": 0, "lat": 38.928236, "fusion_lat": 0.0, "is_reserved": 0, "rental_uris": {"ios": "https://dc.lft.to/lastmile_qr_scan", "android": "https://dc.lft.to/lastmile_qr_scan"}, "fusion_lon": 0.0, "type": "electric_scooter", "bike_id": "57e158ac628c73af4f80e26c91a756a5", "name": "57e158ac628c73af4f80e26c91a756a5"}, {"lon": -77.03537333333334, "is_disabled": 0, "lat": 38.91847283333333, "fusion_lat": 0.0, "is_reserved": 0, "rental_uris": {"ios": "https://dc.lft.to/lastmile_qr_scan", "android": "https://dc.lft.to/lastmile_qr_scan"}, "fusion_lon": 0.0, "type": "electric_scooter", "bike_id": "109561132b38202e7e64bcd74d4c1039", "name": "109561132b38202e7e64bcd74d4c1039"}, {"lon": -77.05014316666667, "is_disabled": 0, "lat": 38.900608, "fusion_lat": 0.0, "is_reserved": 0, "rental_uris": {"ios": "https://dc.lft.to/lastmile_qr_scan", "android": "https://dc.lft.to/lastmile_qr_scan"}, "fusion_lon": 0.0, "type": "electric_scooter", "bike_id": "615502940f9b2af14e8fead1fc208d93", "name": "615502940f9b2af14e8fead1fc208d93"}, {"lon": -76.9994525, "is_disabled": 0, "lat": 38.9187345, "fusion_lat": 0.0, "is_reserved": 0, "rental_uris": {"ios": "https://dc.lft.to/lastmile_qr_scan", "android": "https://dc.lft.to/lastmile_qr_scan"}, "fusion_lon": 0.0, "type": "electric_scooter", "bike_id": "42ae6f3234ddc1de34a9182125dfc782", "name": "42ae6f3234ddc1de34a9182125dfc782"}, {"lon": -77.0305295, "is_disabled": 0, "lat": 38.929750166666665, "fusion_lat": 0.0, "is_reserved": 0, "rental_uris": {"ios": "https://dc.lft.to/lastmile_qr_scan", "android": "https://dc.lft.to/lastmile_qr_scan"}, "fusion_lon": 0.0, "type": "electric_bike", "bike_id": "22026b7448e95eecda0681d737145207", "name": "22026b7448e95eecda0681d737145207"}, {"lon": -77.0343135, "is_disabled": 0, "lat": 38.91919466666667, "fusion_lat": 0.0, "is_reserved": 0, "rental_uris": {"ios": "https://dc.lft.to/lastmile_qr_scan", "android": "https://dc.lft.to/lastmile_qr_scan"}, "fusion_lon": 0.0, "type": "electric_scooter", "bike_id": "8662d1a56cb4645f98aab97a54a63e3d", "name": "8662d1a56cb4645f98aab97a54a63e3d"}, {"lon": -77.01330716666666, "is_disabled": 0, "lat": 38.926232, "fusion_lat": 0.0, "is_reserved": 0, "rental_uris": {"ios": "https://dc.lft.to/lastmile_qr_scan", "android": "https://dc.lft.to/lastmile_qr_scan"}, "fusion_lon": 0.0, "type": "electric_scooter", "bike_id": "3f90fa6f09d639dc5a6078c9733738d5", "name": "3f90fa6f09d639dc5a6078c9733738d5"}, {"lon": -77.02231866666666, "is_disabled": 0, "lat": 38.891964, "fusion_lat": 0.0, "is_reserved": 0, "rental_uris": {"ios": "https://dc.lft.to/lastmile_qr_scan", "android": "https://dc.lft.to/lastmile_qr_scan"}, "fusion_lon": 0.0, "type": "electric_scooter", "bike_id": "be3253dd738a8cc04e34e3f682b152d3", "name": "be3253dd738a8cc04e34e3f682b152d3"}, {"lon": -77.037694, "is_disabled": 0, "lat": 38.918820833333335, "fusion_lat": 0.0, "is_reserved": 0, "rental_uris": {"ios": "https://dc.lft.to/lastmile_qr_scan", "android": "https://dc.lft.to/lastmile_qr_scan"}, "fusion_lon": 0.0, "type": "electric_scooter", "bike_id": "3fa29ac0893f5df0275a5083190e665c", "name": "3fa29ac0893f5df0275a5083190e665c"}, {"lon": -77.027349, "is_disabled": 0, "lat": 38.90145066666667, "fusion_lat": 0.0, "is_reserved": 0, "rental_uris": {"ios": "https://dc.lft.to/lastmile_qr_scan", "android": "https://dc.lft.to/lastmile_qr_scan"}, "fusion_lon": 0.0, "type": "electric_scooter", "bike_id": "cecef97aee8dbdcc8f0c6d53e89b13c7", "name": "cecef97aee8dbdcc8f0c6d53e89b13c7"}, {"lon": -77.026912, "is_disabled": 0, "lat": 38.908728333333336, "fusion_lat": 0.0, "is_reserved": 0, "rental_uris": {"ios": "https://dc.lft.to/lastmile_qr_scan", "android": "https://dc.lft.to/lastmile_qr_scan"}, "fusion_lon": 0.0, "type": "electric_scooter", "bike_id": "26182f6a2b4966e1f703d8e0f13a89ca", "name": "26182f6a2b4966e1f703d8e0f13a89ca"}, {"lon": -77.01347733333333, "is_disabled": 0, "lat": 38.919119333333335, "fusion_lat": 0.0, "is_reserved": 0, "rental_uris": {"ios": "https://dc.lft.to/lastmile_qr_scan", "android": "https://dc.lft.to/lastmile_qr_scan"}, "fusion_lon": 0.0, "type": "electric_scooter", "bike_id": "3301470ab51d779cf53e92349c03de88", "name": "3301470ab51d779cf53e92349c03de88"}, {"lon": -77.00573416666667, "is_disabled": 0, "lat": 38.905402333333335, "fusion_lat": 0.0, "is_reserved": 0, "rental_uris": {"ios": "https://dc.lft.to/lastmile_qr_scan", "android": "https://dc.lft.to/lastmile_qr_scan"}, "fusion_lon": 0.0, "type": "electric_scooter", "bike_id": "c38e8be3cb7e34e194828e65b9257764", "name": "c38e8be3cb7e34e194828e65b9257764"}, {"lon": -77.01224666666667, "is_disabled": 0, "lat": 38.914256, "fusion_lat": 0.0, "is_reserved": 0, "rental_uris": {"ios": "https://dc.lft.to/lastmile_qr_scan", "android": "https://dc.lft.to/lastmile_qr_scan"}, "fusion_lon": 0.0, "type": "electric_scooter", "bike_id": "a41201976881bae1120ca66f29e09dcc", "name": "a41201976881bae1120ca66f29e09dcc"}, {"lon": -76.97879566666667, "is_disabled": 0, "lat": 38.9019105, "fusion_lat": 0.0, "is_reserved": 0, "rental_uris": {"ios": "https://dc.lft.to/lastmile_qr_scan", "android": "https://dc.lft.to/lastmile_qr_scan"}, "fusion_lon": 0.0, "type": "electric_scooter", "bike_id": "e5e5aeea7e1ffe78db2fbdcd2a1edb81", "name": "e5e5aeea7e1ffe78db2fbdcd2a1edb81"}, {"lon": -77.04593233333334, "is_disabled": 0, "lat": 38.91937683333333, "fusion_lat": 0.0, "is_reserved": 0, "rental_uris": {"ios": "https://dc.lft.to/lastmile_qr_scan", "android": "https://dc.lft.to/lastmile_qr_scan"}, "fusion_lon": 0.0, "type": "electric_scooter", "bike_id": "60b87520864336e037e3cca7322683d9", "name": "60b87520864336e037e3cca7322683d9"}, {"lon": -77.01776066666666, "is_disabled": 0, "lat": 38.904034833333334, "fusion_lat": 0.0, "is_reserved": 0, "rental_uris": {"ios": "https://dc.lft.to/lastmile_qr_scan", "android": "https://dc.lft.to/lastmile_qr_scan"}, "fusion_lon": 0.0, "type": "electric_scooter", "bike_id": "b0547b3d26b38bb899e34064cdadd754", "name": "b0547b3d26b38bb899e34064cdadd754"}, {"lon": -76.98577566666667, "is_disabled": 0, "lat": 38.86685133333334, "fusion_lat": 0.0, "is_reserved": 0, "rental_uris": {"ios": "https://dc.lft.to/lastmile_qr_scan", "android": "https://dc.lft.to/lastmile_qr_scan"}, "fusion_lon": 0.0, "type": "electric_scooter", "bike_id": "9a5ce820ecc03139b1afc991539225eb", "name": "9a5ce820ecc03139b1afc991539225eb"}, {"lon": -77.024448, "is_disabled": 0, "lat": 38.9188835, "fusion_lat": 0.0, "is_reserved": 0, "rental_uris": {"ios": "https://dc.lft.to/lastmile_qr_scan", "android": "https://dc.lft.to/lastmile_qr_scan"}, "fusion_lon": 0.0, "type": "electric_scooter", "bike_id": "9e619111e818a38581776b582c268bef", "name": "9e619111e818a38581776b582c268bef"}, {"lon": -77.00333216666667, "is_disabled": 0, "lat": 38.91953383333333, "fusion_lat": 0.0, "is_reserved": 0, "rental_uris": {"ios": "https://dc.lft.to/lastmile_qr_scan", "android": "https://dc.lft.to/lastmile_qr_scan"}, "fusion_lon": 0.0, "type": "electric_scooter", "bike_id": "3ec20da428355f8b557dcc8dda0ba11c", "name": "3ec20da428355f8b557dcc8dda0ba11c"}, {"lon": -77.0567935, "is_disabled": 0, "lat": 38.923406166666666, "fusion_lat": 0.0, "is_reserved": 0, "rental_uris": {"ios": "https://dc.lft.to/lastmile_qr_scan", "android": "https://dc.lft.to/lastmile_qr_scan"}, "fusion_lon": 0.0, "type": "electric_scooter", "bike_id": "765b6d67ddfcd6af9ad584fa820639d7", "name": "765b6d67ddfcd6af9ad584fa820639d7"}, {"lon": -76.96983166666666, "is_disabled": 0, "lat": 38.878647666666666, "fusion_lat": 0.0, "is_reserved": 0, "rental_uris": {"ios": "https://dc.lft.to/lastmile_qr_scan", "android": "https://dc.lft.to/lastmile_qr_scan"}, "fusion_lon": 0.0, "type": "electric_scooter", "bike_id": "a6b8754160312f1a9916cfa011745e09", "name": "a6b8754160312f1a9916cfa011745e09"}, {"lon": -77.02708583333333, "is_disabled": 0, "lat": 38.908558666666664, "fusion_lat": 0.0, "is_reserved": 0, "rental_uris": {"ios": "https://dc.lft.to/lastmile_qr_scan", "android": "https://dc.lft.to/lastmile_qr_scan"}, "fusion_lon": 0.0, "type": "electric_scooter", "bike_id": "2a79b35a63997bde6e2c9027845231fd", "name": "2a79b35a63997bde6e2c9027845231fd"}, {"lon": -77.01533016666667, "is_disabled": 0, "lat": 38.95028666666666, "fusion_lat": 0.0, "is_reserved": 0, "rental_uris": {"ios": "https://dc.lft.to/lastmile_qr_scan", "android": "https://dc.lft.to/lastmile_qr_scan"}, "fusion_lon": 0.0, "type": "electric_bike", "bike_id": "6de93d16de2bb202816595141e1a43f7", "name": "6de93d16de2bb202816595141e1a43f7"}, {"lon": -77.01200966666667, "is_disabled": 0, "lat": 38.915611, "fusion_lat": 0.0, "is_reserved": 0, "rental_uris": {"ios": "https://dc.lft.to/lastmile_qr_scan", "android": "https://dc.lft.to/lastmile_qr_scan"}, "fusion_lon": 0.0, "type": "electric_scooter", "bike_id": "32d519a7a633577266d5565480d91c7a", "name": "32d519a7a633577266d5565480d91c7a"}, {"lon": -76.980168, "is_disabled": 0, "lat": 38.85317333333333, "fusion_lat": 0.0, "is_reserved": 0, "rental_uris": {"ios": "https://dc.lft.to/lastmile_qr_scan", "android": "https://dc.lft.to/lastmile_qr_scan"}, "fusion_lon": 0.0, "type": "electric_scooter", "bike_id": "36b21b2cc8998753741ad6dccd17fd24", "name": "36b21b2cc8998753741ad6dccd17fd24"}, {"lon": -76.96905633333333, "is_disabled": 0, "lat": 38.8742095, "fusion_lat": 0.0, "is_reserved": 0, "rental_uris": {"ios": "https://dc.lft.to/lastmile_qr_scan", "android": "https://dc.lft.to/lastmile_qr_scan"}, "fusion_lon": 0.0, "type": "electric_scooter", "bike_id": "898ae1e28b8ee8033843be4fe34c2943", "name": "898ae1e28b8ee8033843be4fe34c2943"}, {"lon": -77.0376455, "is_disabled": 0, "lat": 38.912649, "fusion_lat": 0.0, "is_reserved": 0, "rental_uris": {"ios": "https://dc.lft.to/lastmile_qr_scan", "android": "https://dc.lft.to/lastmile_qr_scan"}, "fusion_lon": 0.0, "type": "electric_scooter", "bike_id": "334973b480a2afc6170938b2c64a12e9", "name": "334973b480a2afc6170938b2c64a12e9"}, {"lon": -76.99558133333333, "is_disabled": 0, "lat": 38.9398905, "fusion_lat": 0.0, "is_reserved": 0, "rental_uris": {"ios": "https://dc.lft.to/lastmile_qr_scan", "android": "https://dc.lft.to/lastmile_qr_scan"}, "fusion_lon": 0.0, "type": "electric_bike", "bike_id": "eed8719b38d95b745053640d8a5f6706", "name": "eed8719b38d95b745053640d8a5f6706"}, {"lon": -77.03524066666667, "is_disabled": 0, "lat": 38.90679183333334, "fusion_lat": 0.0, "is_reserved": 0, "rental_uris": {"ios": "https://dc.lft.to/lastmile_qr_scan", "android": "https://dc.lft.to/lastmile_qr_scan"}, "fusion_lon": 0.0, "type": "electric_scooter", "bike_id": "3ea0195d4c60f47ab3b4a94fbe89fa80", "name": "3ea0195d4c60f47ab3b4a94fbe89fa80"}, {"lon": -76.94256616666667, "is_disabled": 0, "lat": 38.8984385, "fusion_lat": 0.0, "is_reserved": 0, "rental_uris": {"ios": "https://dc.lft.to/lastmile_qr_scan", "android": "https://dc.lft.to/lastmile_qr_scan"}, "fusion_lon": 0.0, "type": "electric_scooter", "bike_id": "36d32f4027349309a96aa3e44c7c4cc7", "name": "36d32f4027349309a96aa3e44c7c4cc7"}, {"lon": -76.92679366666667, "is_disabled": 0, "lat": 38.8884835, "fusion_lat": 0.0, "is_reserved": 0, "rental_uris": {"ios": "https://dc.lft.to/lastmile_qr_scan", "android": "https://dc.lft.to/lastmile_qr_scan"}, "fusion_lon": 0.0, "type": "electric_scooter", "bike_id": "5fe9b2f2d1f4c4d8e6676a76c66429ff", "name": "5fe9b2f2d1f4c4d8e6676a76c66429ff"}, {"lon": -77.01969566666666, "is_disabled": 0, "lat": 38.884050333333334, "fusion_lat": 0.0, "is_reserved": 0, "rental_uris": {"ios": "https://dc.lft.to/lastmile_qr_scan", "android": "https://dc.lft.to/lastmile_qr_scan"}, "fusion_lon": 0.0, "type": "electric_scooter", "bike_id": "f2529378b59517255a6e9ca10eca4945", "name": "f2529378b59517255a6e9ca10eca4945"}, {"lon": -76.98420366666667, "is_disabled": 0, "lat": 38.913856, "fusion_lat": 0.0, "is_reserved": 0, "rental_uris": {"ios": "https://dc.lft.to/lastmile_qr_scan", "android": "https://dc.lft.to/lastmile_qr_scan"}, "fusion_lon": 0.0, "type": "electric_scooter", "bike_id": "1074e112de849cf82a697c286e7b1068", "name": "1074e112de849cf82a697c286e7b1068"}, {"lon": -76.93366933333333, "is_disabled": 0, "lat": 38.899148, "fusion_lat": 0.0, "is_reserved": 0, "rental_uris": {"ios": "https://dc.lft.to/lastmile_qr_scan", "android": "https://dc.lft.to/lastmile_qr_scan"}, "fusion_lon": 0.0, "type": "electric_scooter", "bike_id": "96c0a97b3dc737ac6900057656b8d46b", "name": "96c0a97b3dc737ac6900057656b8d46b"}, {"lon": -77.043691, "is_disabled": 0, "lat": 38.89221533333333, "fusion_lat": 0.0, "is_reserved": 0, "rental_uris": {"ios": "https://dc.lft.to/lastmile_qr_scan", "android": "https://dc.lft.to/lastmile_qr_scan"}, "fusion_lon": 0.0, "type": "electric_scooter", "bike_id": "940581516ddb81c97e252b4fdd1437cb", "name": "940581516ddb81c97e252b4fdd1437cb"}, {"lon": -77.02439583333333, "is_disabled": 0, "lat": 38.9184115, "fusion_lat": 0.0, "is_reserved": 0, "rental_uris": {"ios": "https://dc.lft.to/lastmile_qr_scan", "android": "https://dc.lft.to/lastmile_qr_scan"}, "fusion_lon": 0.0, "type": "electric_scooter", "bike_id": "60ef7cf8c5ca9881b95cbd4431f1972d", "name": "60ef7cf8c5ca9881b95cbd4431f1972d"}, {"lon": -77.0397435, "is_disabled": 0, "lat": 38.90340916666667, "fusion_lat": 0.0, "is_reserved": 0, "rental_uris": {"ios": "https://dc.lft.to/lastmile_qr_scan", "android": "https://dc.lft.to/lastmile_qr_scan"}, "fusion_lon": 0.0, "type": "electric_scooter", "bike_id": "e8c6024c1f4df0341891bc2bd489f16c", "name": "e8c6024c1f4df0341891bc2bd489f16c"}, {"lon": -77.01612116666666, "is_disabled": 0, "lat": 38.90378366666667, "fusion_lat": 0.0, "is_reserved": 0, "rental_uris": {"ios": "https://dc.lft.to/lastmile_qr_scan", "android": "https://dc.lft.to/lastmile_qr_scan"}, "fusion_lon": 0.0, "type": "electric_scooter", "bike_id": "cc9392e44ff2dfeacec711f211713f8d", "name": "cc9392e44ff2dfeacec711f211713f8d"}, {"lon": -77.04855233333333, "is_disabled": 0, "lat": 38.906526166666666, "fusion_lat": 0.0, "is_reserved": 0, "rental_uris": {"ios": "https://dc.lft.to/lastmile_qr_scan", "android": "https://dc.lft.to/lastmile_qr_scan"}, "fusion_lon": 0.0, "type": "electric_scooter", "bike_id": "8fd1baef9c5b586d3730f90ad2fde59a", "name": "8fd1baef9c5b586d3730f90ad2fde59a"}, {"lon": -77.03199266666667, "is_disabled": 0, "lat": 38.892341333333334, "fusion_lat": 0.0, "is_reserved": 0, "rental_uris": {"ios": "https://dc.lft.to/lastmile_qr_scan", "android": "https://dc.lft.to/lastmile_qr_scan"}, "fusion_lon": 0.0, "type": "electric_scooter", "bike_id": "71db0ce50f39c4aa63b2971059d77f77", "name": "71db0ce50f39c4aa63b2971059d77f77"}, {"lon": -76.98854466666667, "is_disabled": 0, "lat": 38.8443585, "fusion_lat": 0.0, "is_reserved": 0, "rental_uris": {"ios": "https://dc.lft.to/lastmile_qr_scan", "android": "https://dc.lft.to/lastmile_qr_scan"}, "fusion_lon": 0.0, "type": "electric_scooter", "bike_id": "39cb23c23608221ffaec80111bffb4b0", "name": "39cb23c23608221ffaec80111bffb4b0"}, {"lon": -76.9398815, "is_disabled": 0, "lat": 38.89306116666667, "fusion_lat": 0.0, "is_reserved": 0, "rental_uris": {"ios": "https://dc.lft.to/lastmile_qr_scan", "android": "https://dc.lft.to/lastmile_qr_scan"}, "fusion_lon": 0.0, "type": "electric_scooter", "bike_id": "24b4b927b7304b16fd17cd0e9a25cc01", "name": "24b4b927b7304b16fd17cd0e9a25cc01"}, {"lon": -77.02658866666667, "is_disabled": 0, "lat": 38.91698616666667, "fusion_lat": 0.0, "is_reserved": 0, "rental_uris": {"ios": "https://dc.lft.to/lastmile_qr_scan", "android": "https://dc.lft.to/lastmile_qr_scan"}, "fusion_lon": 0.0, "type": "electric_scooter", "bike_id": "366e3a77e5fe19a255510eb6bbb0f93f", "name": "366e3a77e5fe19a255510eb6bbb0f93f"}, {"lon": -77.04875116666666, "is_disabled": 0, "lat": 38.906679, "fusion_lat": 0.0, "is_reserved": 0, "rental_uris": {"ios": "https://dc.lft.to/lastmile_qr_scan", "android": "https://dc.lft.to/lastmile_qr_scan"}, "fusion_lon": 0.0, "type": "electric_scooter", "bike_id": "4d2413fba1681bb0acecb2a852a45441", "name": "4d2413fba1681bb0acecb2a852a45441"}, {"lon": -77.041969, "is_disabled": 0, "lat": 38.926134833333336, "fusion_lat": 0.0, "is_reserved": 0, "rental_uris": {"ios": "https://dc.lft.to/lastmile_qr_scan", "android": "https://dc.lft.to/lastmile_qr_scan"}, "fusion_lon": 0.0, "type": "electric_scooter", "bike_id": "c325f87b02d67b9446e5b4c3c90607d2", "name": "c325f87b02d67b9446e5b4c3c90607d2"}, {"lon": -76.99491116666667, "is_disabled": 0, "lat": 38.86248033333333, "fusion_lat": 0.0, "is_reserved": 0, "rental_uris": {"ios": "https://dc.lft.to/lastmile_qr_scan", "android": "https://dc.lft.to/lastmile_qr_scan"}, "fusion_lon": 0.0, "type": "electric_scooter", "bike_id": "016c94573b60e61b62eb8dfc94378125", "name": "016c94573b60e61b62eb8dfc94378125"}, {"lon": -77.04306066666666, "is_disabled": 0, "lat": 38.90653866666667, "fusion_lat": 0.0, "is_reserved": 0, "rental_uris": {"ios": "https://dc.lft.to/lastmile_qr_scan", "android": "https://dc.lft.to/lastmile_qr_scan"}, "fusion_lon": 0.0, "type": "electric_scooter", "bike_id": "db61a1654155fefcbcf8151838e63e14", "name": "db61a1654155fefcbcf8151838e63e14"}, {"lon": -76.95190083333334, "is_disabled": 0, "lat": 38.89133566666667, "fusion_lat": 0.0, "is_reserved": 0, "rental_uris": {"ios": "https://dc.lft.to/lastmile_qr_scan", "android": "https://dc.lft.to/lastmile_qr_scan"}, "fusion_lon": 0.0, "type": "electric_scooter", "bike_id": "be104931c2039a4cedf2c50c96490379", "name": "be104931c2039a4cedf2c50c96490379"}, {"lon": -77.02400933333334, "is_disabled": 0, "lat": 38.91140383333333, "fusion_lat": 0.0, "is_reserved": 0, "rental_uris": {"ios": "https://dc.lft.to/lastmile_qr_scan", "android": "https://dc.lft.to/lastmile_qr_scan"}, "fusion_lon": 0.0, "type": "electric_scooter", "bike_id": "1973cb4e9730b3ffbdab71d508722478", "name": "1973cb4e9730b3ffbdab71d508722478"}, {"lon": -77.0414195, "is_disabled": 0, "lat": 38.91685866666667, "fusion_lat": 0.0, "is_reserved": 0, "rental_uris": {"ios": "https://dc.lft.to/lastmile_qr_scan", "android": "https://dc.lft.to/lastmile_qr_scan"}, "fusion_lon": 0.0, "type": "electric_scooter", "bike_id": "6651f042210f01ca4441f94e11856bbd", "name": "6651f042210f01ca4441f94e11856bbd"}, {"lon": -77.02534633333333, "is_disabled": 0, "lat": 38.920825, "fusion_lat": 0.0, "is_reserved": 0, "rental_uris": {"ios": "https://dc.lft.to/lastmile_qr_scan", "android": "https://dc.lft.to/lastmile_qr_scan"}, "fusion_lon": 0.0, "type": "electric_scooter", "bike_id": "a780c9090a82a81074f4ae47a1121184", "name": "a780c9090a82a81074f4ae47a1121184"}, {"lon": -77.01895016666667, "is_disabled": 0, "lat": 38.93985083333333, "fusion_lat": 0.0, "is_reserved": 0, "rental_uris": {"ios": "https://dc.lft.to/lastmile_qr_scan", "android": "https://dc.lft.to/lastmile_qr_scan"}, "fusion_lon": 0.0, "type": "electric_scooter", "bike_id": "8a462da9d6cbe41cd311420dc0c575ed", "name": "8a462da9d6cbe41cd311420dc0c575ed"}, {"lon": -77.00689916666667, "is_disabled": 0, "lat": 38.8791965, "fusion_lat": 0.0, "is_reserved": 0, "rental_uris": {"ios": "https://dc.lft.to/lastmile_qr_scan", "android": "https://dc.lft.to/lastmile_qr_scan"}, "fusion_lon": 0.0, "type": "electric_scooter", "bike_id": "1e88f97b7932f6126c707d837b73e6dc", "name": "1e88f97b7932f6126c707d837b73e6dc"}, {"lon": -77.00051316666666, "is_disabled": 0, "lat": 38.90042483333333, "fusion_lat": 0.0, "is_reserved": 0, "rental_uris": {"ios": "https://dc.lft.to/lastmile_qr_scan", "android": "https://dc.lft.to/lastmile_qr_scan"}, "fusion_lon": 0.0, "type": "electric_scooter", "bike_id": "6f7e99fc50a0942a9034f868a89b0566", "name": "6f7e99fc50a0942a9034f868a89b0566"}, {"lon": -76.98234133333334, "is_disabled": 0, "lat": 38.90888833333333, "fusion_lat": 0.0, "is_reserved": 0, "rental_uris": {"ios": "https://dc.lft.to/lastmile_qr_scan", "android": "https://dc.lft.to/lastmile_qr_scan"}, "fusion_lon": 0.0, "type": "electric_scooter", "bike_id": "ef0351d49a87bb5bb7c6285080d33514", "name": "ef0351d49a87bb5bb7c6285080d33514"}, {"lon": -77.044517, "is_disabled": 0, "lat": 38.8973375, "fusion_lat": 0.0, "is_reserved": 0, "rental_uris": {"ios": "https://dc.lft.to/lastmile_qr_scan", "android": "https://dc.lft.to/lastmile_qr_scan"}, "fusion_lon": 0.0, "type": "electric_scooter", "bike_id": "7d9d53d6d7f064ac1795f2ded9c9e110", "name": "7d9d53d6d7f064ac1795f2ded9c9e110"}, {"lon": -77.007303, "is_disabled": 0, "lat": 38.903656, "fusion_lat": 0.0, "is_reserved": 0, "rental_uris": {"ios": "https://dc.lft.to/lastmile_qr_scan", "android": "https://dc.lft.to/lastmile_qr_scan"}, "fusion_lon": 0.0, "type": "electric_scooter", "bike_id": "0e45ff41b9ed0cd22745e43cbafd405a", "name": "0e45ff41b9ed0cd22745e43cbafd405a"}, {"lon": -77.0401605, "is_disabled": 0, "lat": 38.92240683333333, "fusion_lat": 0.0, "is_reserved": 0, "rental_uris": {"ios": "https://dc.lft.to/lastmile_qr_scan", "android": "https://dc.lft.to/lastmile_qr_scan"}, "fusion_lon": 0.0, "type": "electric_scooter", "bike_id": "20814bf0dc67bf40f354c446a900d9a2", "name": "20814bf0dc67bf40f354c446a900d9a2"}, {"lon": -77.0508665, "is_disabled": 0, "lat": 38.92342216666667, "fusion_lat": 0.0, "is_reserved": 0, "rental_uris": {"ios": "https://dc.lft.to/lastmile_qr_scan", "android": "https://dc.lft.to/lastmile_qr_scan"}, "fusion_lon": 0.0, "type": "electric_scooter", "bike_id": "d7cfe91e3b66f7807d5115b68929185b", "name": "d7cfe91e3b66f7807d5115b68929185b"}, {"lon": -77.00623316666666, "is_disabled": 0, "lat": 38.871743, "fusion_lat": 0.0, "is_reserved": 0, "rental_uris": {"ios": "https://dc.lft.to/lastmile_qr_scan", "android": "https://dc.lft.to/lastmile_qr_scan"}, "fusion_lon": 0.0, "type": "electric_scooter", "bike_id": "82f7d4deb896237ca7b6a57bdf596bb2", "name": "82f7d4deb896237ca7b6a57bdf596bb2"}, {"lon": -77.03380833333334, "is_disabled": 0, "lat": 38.921363166666666, "fusion_lat": 0.0, "is_reserved": 0, "rental_uris": {"ios": "https://dc.lft.to/lastmile_qr_scan", "android": "https://dc.lft.to/lastmile_qr_scan"}, "fusion_lon": 0.0, "type": "electric_scooter", "bike_id": "11d01efc730c01dc928754196b904591", "name": "11d01efc730c01dc928754196b904591"}, {"lon": -77.0376685, "is_disabled": 0, "lat": 38.9231755, "fusion_lat": 0.0, "is_reserved": 0, "rental_uris": {"ios": "https://dc.lft.to/lastmile_qr_scan", "android": "https://dc.lft.to/lastmile_qr_scan"}, "fusion_lon": 0.0, "type": "electric_scooter", "bike_id": "669917a9a7067fb6fbba9ef99720b860", "name": "669917a9a7067fb6fbba9ef99720b860"}, {"lon": -77.02409066666667, "is_disabled": 0, "lat": 38.91400733333333, "fusion_lat": 0.0, "is_reserved": 0, "rental_uris": {"ios": "https://dc.lft.to/lastmile_qr_scan", "android": "https://dc.lft.to/lastmile_qr_scan"}, "fusion_lon": 0.0, "type": "electric_scooter", "bike_id": "9fe4ff361901911e3a8dc3802e5475e2", "name": "9fe4ff361901911e3a8dc3802e5475e2"}, {"lon": -77.02385333333334, "is_disabled": 0, "lat": 38.89860766666666, "fusion_lat": 0.0, "is_reserved": 0, "rental_uris": {"ios": "https://dc.lft.to/lastmile_qr_scan", "android": "https://dc.lft.to/lastmile_qr_scan"}, "fusion_lon": 0.0, "type": "electric_scooter", "bike_id": "d8a403f323e4d3210c06f94a14479240", "name": "d8a403f323e4d3210c06f94a14479240"}, {"lon": -77.0276475, "is_disabled": 0, "lat": 38.9169045, "fusion_lat": 0.0, "is_reserved": 0, "rental_uris": {"ios": "https://dc.lft.to/lastmile_qr_scan", "android": "https://dc.lft.to/lastmile_qr_scan"}, "fusion_lon": 0.0, "type": "electric_scooter", "bike_id": "c43167ffd4d8a32dc4d1ebc9b986f1ae", "name": "c43167ffd4d8a32dc4d1ebc9b986f1ae"}, {"lon": -77.019489, "is_disabled": 0, "lat": 38.924193333333335, "fusion_lat": 0.0, "is_reserved": 0, "rental_uris": {"ios": "https://dc.lft.to/lastmile_qr_scan", "android": "https://dc.lft.to/lastmile_qr_scan"}, "fusion_lon": 0.0, "type": "electric_scooter", "bike_id": "6b0c271b80f5ce5d06758aec21a26787", "name": "6b0c271b80f5ce5d06758aec21a26787"}, {"lon": -77.013889, "is_disabled": 0, "lat": 38.9191445, "fusion_lat": 0.0, "is_reserved": 0, "rental_uris": {"ios": "https://dc.lft.to/lastmile_qr_scan", "android": "https://dc.lft.to/lastmile_qr_scan"}, "fusion_lon": 0.0, "type": "electric_scooter", "bike_id": "14bb15291e19c34115e6e7135de38187", "name": "14bb15291e19c34115e6e7135de38187"}, {"lon": -77.0362585, "is_disabled": 0, "lat": 38.931567666666666, "fusion_lat": 0.0, "is_reserved": 0, "rental_uris": {"ios": "https://dc.lft.to/lastmile_qr_scan", "android": "https://dc.lft.to/lastmile_qr_scan"}, "fusion_lon": 0.0, "type": "electric_scooter", "bike_id": "aebb96adbffcad0e4b8f0dcbdb0639c2", "name": "aebb96adbffcad0e4b8f0dcbdb0639c2"}, {"lon": -77.0301345, "is_disabled": 0, "lat": 38.897471833333334, "fusion_lat": 0.0, "is_reserved": 0, "rental_uris": {"ios": "https://dc.lft.to/lastmile_qr_scan", "android": "https://dc.lft.to/lastmile_qr_scan"}, "fusion_lon": 0.0, "type": "electric_scooter", "bike_id": "a2ee9651910b7e65316505dde3324de6", "name": "a2ee9651910b7e65316505dde3324de6"}, {"lon": -77.04292466666666, "is_disabled": 0, "lat": 38.830972833333334, "fusion_lat": 0.0, "is_reserved": 0, "rental_uris": {"ios": "https://dc.lft.to/lastmile_qr_scan", "android": "https://dc.lft.to/lastmile_qr_scan"}, "fusion_lon": 0.0, "type": "electric_bike", "bike_id": "e26a4d46a06ea10436d61e888f0c6299", "name": "e26a4d46a06ea10436d61e888f0c6299"}, {"lon": -77.02376966666667, "is_disabled": 0, "lat": 38.89198116666667, "fusion_lat": 0.0, "is_reserved": 0, "rental_uris": {"ios": "https://dc.lft.to/lastmile_qr_scan", "android": "https://dc.lft.to/lastmile_qr_scan"}, "fusion_lon": 0.0, "type": "electric_scooter", "bike_id": "c27f3015ec640c5163a8173bc3c95fde", "name": "c27f3015ec640c5163a8173bc3c95fde"}, {"lon": -77.0348925, "is_disabled": 0, "lat": 38.92349166666666, "fusion_lat": 0.0, "is_reserved": 0, "rental_uris": {"ios": "https://dc.lft.to/lastmile_qr_scan", "android": "https://dc.lft.to/lastmile_qr_scan"}, "fusion_lon": 0.0, "type": "electric_scooter", "bike_id": "1d718a0ea098babfda6b9e62c2b93f74", "name": "1d718a0ea098babfda6b9e62c2b93f74"}, {"lon": -76.94823316666667, "is_disabled": 0, "lat": 38.88410833333333, "fusion_lat": 0.0, "is_reserved": 0, "rental_uris": {"ios": "https://dc.lft.to/lastmile_qr_scan", "android": "https://dc.lft.to/lastmile_qr_scan"}, "fusion_lon": 0.0, "type": "electric_scooter", "bike_id": "c55d45e38a70521c9c1a496aa798680b", "name": "c55d45e38a70521c9c1a496aa798680b"}, {"lon": -77.02196933333333, "is_disabled": 0, "lat": 38.911303333333336, "fusion_lat": 0.0, "is_reserved": 0, "rental_uris": {"ios": "https://dc.lft.to/lastmile_qr_scan", "android": "https://dc.lft.to/lastmile_qr_scan"}, "fusion_lon": 0.0, "type": "electric_scooter", "bike_id": "56de67d2c4470835bed54a8c5400b279", "name": "56de67d2c4470835bed54a8c5400b279"}, {"lon": -77.05741883333333, "is_disabled": 0, "lat": 38.933975333333336, "fusion_lat": 0.0, "is_reserved": 0, "rental_uris": {"ios": "https://dc.lft.to/lastmile_qr_scan", "android": "https://dc.lft.to/lastmile_qr_scan"}, "fusion_lon": 0.0, "type": "electric_scooter", "bike_id": "196061c97f68c662dadaeb22775023c3", "name": "196061c97f68c662dadaeb22775023c3"}, {"lon": -77.02844183333333, "is_disabled": 0, "lat": 38.89364233333333, "fusion_lat": 0.0, "is_reserved": 0, "rental_uris": {"ios": "https://dc.lft.to/lastmile_qr_scan", "android": "https://dc.lft.to/lastmile_qr_scan"}, "fusion_lon": 0.0, "type": "electric_scooter", "bike_id": "ac7ed035305442a9b6c2342b2eaff1e5", "name": "ac7ed035305442a9b6c2342b2eaff1e5"}, {"lon": -77.0265035, "is_disabled": 0, "lat": 38.8964805, "fusion_lat": 0.0, "is_reserved": 0, "rental_uris": {"ios": "https://dc.lft.to/lastmile_qr_scan", "android": "https://dc.lft.to/lastmile_qr_scan"}, "fusion_lon": 0.0, "type": "electric_scooter", "bike_id": "8dcc164d6e4e4b7d9ed3edbb8457de94", "name": "8dcc164d6e4e4b7d9ed3edbb8457de94"}, {"lon": -77.04311333333334, "is_disabled": 0, "lat": 38.908121333333334, "fusion_lat": 0.0, "is_reserved": 0, "rental_uris": {"ios": "https://dc.lft.to/lastmile_qr_scan", "android": "https://dc.lft.to/lastmile_qr_scan"}, "fusion_lon": 0.0, "type": "electric_scooter", "bike_id": "d7a565639bbfa2bd5c8dacd8d96acee9", "name": "d7a565639bbfa2bd5c8dacd8d96acee9"}, {"lon": -77.0185015, "is_disabled": 0, "lat": 38.90969066666667, "fusion_lat": 0.0, "is_reserved": 0, "rental_uris": {"ios": "https://dc.lft.to/lastmile_qr_scan", "android": "https://dc.lft.to/lastmile_qr_scan"}, "fusion_lon": 0.0, "type": "electric_scooter", "bike_id": "5cf9ce7f2d8421fa415884dc5fcaec9f", "name": "5cf9ce7f2d8421fa415884dc5fcaec9f"}, {"lon": -76.9887905, "is_disabled": 0, "lat": 38.86657733333333, "fusion_lat": 0.0, "is_reserved": 0, "rental_uris": {"ios": "https://dc.lft.to/lastmile_qr_scan", "android": "https://dc.lft.to/lastmile_qr_scan"}, "fusion_lon": 0.0, "type": "electric_scooter", "bike_id": "f82b45b46210cd82be90197c0a9f7d02", "name": "f82b45b46210cd82be90197c0a9f7d02"}, {"lon": -77.22889983333333, "is_disabled": 0, "lat": 38.90955783333333, "fusion_lat": 0.0, "is_reserved": 0, "rental_uris": {"ios": "https://dc.lft.to/lastmile_qr_scan", "android": "https://dc.lft.to/lastmile_qr_scan"}, "fusion_lon": 0.0, "type": "electric_bike", "bike_id": "2b80d27d79c3b2d99e226e13887a2f0a", "name": "2b80d27d79c3b2d99e226e13887a2f0a"}, {"lon": -77.0231145, "is_disabled": 0, "lat": 38.91789133333333, "fusion_lat": 0.0, "is_reserved": 0, "rental_uris": {"ios": "https://dc.lft.to/lastmile_qr_scan", "android": "https://dc.lft.to/lastmile_qr_scan"}, "fusion_lon": 0.0, "type": "electric_scooter", "bike_id": "4ce1c85548f80e1aed95b45f21f80e1a", "name": "4ce1c85548f80e1aed95b45f21f80e1a"}, {"lon": -76.98178066666667, "is_disabled": 0, "lat": 38.869653166666666, "fusion_lat": 0.0, "is_reserved": 0, "rental_uris": {"ios": "https://dc.lft.to/lastmile_qr_scan", "android": "https://dc.lft.to/lastmile_qr_scan"}, "fusion_lon": 0.0, "type": "electric_scooter", "bike_id": "536c64e9402b19382962a8bc70fe0b07", "name": "536c64e9402b19382962a8bc70fe0b07"}, {"lon": -77.0747055, "is_disabled": 0, "lat": 38.919135833333335, "fusion_lat": 0.0, "is_reserved": 0, "rental_uris": {"ios": "https://dc.lft.to/lastmile_qr_scan", "android": "https://dc.lft.to/lastmile_qr_scan"}, "fusion_lon": 0.0, "type": "electric_scooter", "bike_id": "f79c729f9632455880b2790c04eba541", "name": "f79c729f9632455880b2790c04eba541"}, {"lon": -76.97832316666667, "is_disabled": 0, "lat": 38.8984775, "fusion_lat": 0.0, "is_reserved": 0, "rental_uris": {"ios": "https://dc.lft.to/lastmile_qr_scan", "android": "https://dc.lft.to/lastmile_qr_scan"}, "fusion_lon": 0.0, "type": "electric_scooter", "bike_id": "5435e6985bac0547e1d3dcd3c0b43099", "name": "5435e6985bac0547e1d3dcd3c0b43099"}, {"lon": -77.03933583333334, "is_disabled": 0, "lat": 38.898615, "fusion_lat": 0.0, "is_reserved": 0, "rental_uris": {"ios": "https://dc.lft.to/lastmile_qr_scan", "android": "https://dc.lft.to/lastmile_qr_scan"}, "fusion_lon": 0.0, "type": "electric_scooter", "bike_id": "d317617508481e137d5a20d435d54222", "name": "d317617508481e137d5a20d435d54222"}, {"lon": -77.04116083333334, "is_disabled": 0, "lat": 38.910377, "fusion_lat": 0.0, "is_reserved": 0, "rental_uris": {"ios": "https://dc.lft.to/lastmile_qr_scan", "android": "https://dc.lft.to/lastmile_qr_scan"}, "fusion_lon": 0.0, "type": "electric_scooter", "bike_id": "0b22ac2c0bc261b5da9e86abdbd4f3be", "name": "0b22ac2c0bc261b5da9e86abdbd4f3be"}, {"lon": -77.0342695, "is_disabled": 0, "lat": 38.928493333333336, "fusion_lat": 0.0, "is_reserved": 0, "rental_uris": {"ios": "https://dc.lft.to/lastmile_qr_scan", "android": "https://dc.lft.to/lastmile_qr_scan"}, "fusion_lon": 0.0, "type": "electric_scooter", "bike_id": "2d520bbfd4652ef22a23136e88c9b06f", "name": "2d520bbfd4652ef22a23136e88c9b06f"}, {"lon": -77.2325565, "is_disabled": 0, "lat": 38.872577166666666, "fusion_lat": 0.0, "is_reserved": 0, "rental_uris": {"ios": "https://dc.lft.to/lastmile_qr_scan", "android": "https://dc.lft.to/lastmile_qr_scan"}, "fusion_lon": 0.0, "type": "electric_bike", "bike_id": "11a2f1632449afa73778945b274a84dd", "name": "11a2f1632449afa73778945b274a84dd"}, {"lon": -77.0078395, "is_disabled": 0, "lat": 38.87913533333333, "fusion_lat": 0.0, "is_reserved": 0, "rental_uris": {"ios": "https://dc.lft.to/lastmile_qr_scan", "android": "https://dc.lft.to/lastmile_qr_scan"}, "fusion_lon": 0.0, "type": "electric_scooter", "bike_id": "d874d6cb39e29ce867f206cf9d975b62", "name": "d874d6cb39e29ce867f206cf9d975b62"}, {"lon": -77.024552, "is_disabled": 0, "lat": 38.938629666666664, "fusion_lat": 0.0, "is_reserved": 0, "rental_uris": {"ios": "https://dc.lft.to/lastmile_qr_scan", "android": "https://dc.lft.to/lastmile_qr_scan"}, "fusion_lon": 0.0, "type": "electric_scooter", "bike_id": "a12f5e52e330a535a3fc297947830f52", "name": "a12f5e52e330a535a3fc297947830f52"}, {"lon": -77.03641366666666, "is_disabled": 0, "lat": 38.917978, "fusion_lat": 0.0, "is_reserved": 0, "rental_uris": {"ios": "https://dc.lft.to/lastmile_qr_scan", "android": "https://dc.lft.to/lastmile_qr_scan"}, "fusion_lon": 0.0, "type": "electric_scooter", "bike_id": "6fce72b6365dc65a165fd08f3d4e68aa", "name": "6fce72b6365dc65a165fd08f3d4e68aa"}, {"lon": -77.02781183333333, "is_disabled": 0, "lat": 38.927742, "fusion_lat": 0.0, "is_reserved": 0, "rental_uris": {"ios": "https://dc.lft.to/lastmile_qr_scan", "android": "https://dc.lft.to/lastmile_qr_scan"}, "fusion_lon": 0.0, "type": "electric_scooter", "bike_id": "4dfed2ddfede8c4bccf1125946c58a49", "name": "4dfed2ddfede8c4bccf1125946c58a49"}, {"lon": -77.01147566666667, "is_disabled": 0, "lat": 38.896299166666665, "fusion_lat": 0.0, "is_reserved": 0, "rental_uris": {"ios": "https://dc.lft.to/lastmile_qr_scan", "android": "https://dc.lft.to/lastmile_qr_scan"}, "fusion_lon": 0.0, "type": "electric_scooter", "bike_id": "cb0d9211472fa9c6d4b3bb819ee4c5b9", "name": "cb0d9211472fa9c6d4b3bb819ee4c5b9"}, {"lon": -77.03497783333333, "is_disabled": 0, "lat": 38.92334433333333, "fusion_lat": 0.0, "is_reserved": 0, "rental_uris": {"ios": "https://dc.lft.to/lastmile_qr_scan", "android": "https://dc.lft.to/lastmile_qr_scan"}, "fusion_lon": 0.0, "type": "electric_scooter", "bike_id": "139760198dcb100ec47d82b6d8ba213a", "name": "139760198dcb100ec47d82b6d8ba213a"}, {"lon": -76.98709233333334, "is_disabled": 0, "lat": 38.86705966666667, "fusion_lat": 0.0, "is_reserved": 0, "rental_uris": {"ios": "https://dc.lft.to/lastmile_qr_scan", "android": "https://dc.lft.to/lastmile_qr_scan"}, "fusion_lon": 0.0, "type": "electric_scooter", "bike_id": "3826791e6f1f9189769879d741bd9669", "name": "3826791e6f1f9189769879d741bd9669"}, {"lon": -76.97030266666667, "is_disabled": 0, "lat": 38.87361033333333, "fusion_lat": 0.0, "is_reserved": 0, "rental_uris": {"ios": "https://dc.lft.to/lastmile_qr_scan", "android": "https://dc.lft.to/lastmile_qr_scan"}, "fusion_lon": 0.0, "type": "electric_scooter", "bike_id": "67a9b3e018affa8a2db840bde54cd7c7", "name": "67a9b3e018affa8a2db840bde54cd7c7"}, {"lon": -77.02296133333333, "is_disabled": 0, "lat": 38.89492516666667, "fusion_lat": 0.0, "is_reserved": 0, "rental_uris": {"ios": "https://dc.lft.to/lastmile_qr_scan", "android": "https://dc.lft.to/lastmile_qr_scan"}, "fusion_lon": 0.0, "type": "electric_scooter", "bike_id": "16848a02c8076d7d63d45337bd911b72", "name": "16848a02c8076d7d63d45337bd911b72"}, {"lon": -77.020577, "is_disabled": 0, "lat": 38.933410333333335, "fusion_lat": 0.0, "is_reserved": 0, "rental_uris": {"ios": "https://dc.lft.to/lastmile_qr_scan", "android": "https://dc.lft.to/lastmile_qr_scan"}, "fusion_lon": 0.0, "type": "electric_scooter", "bike_id": "65de6de2763f249d13599c970849f178", "name": "65de6de2763f249d13599c970849f178"}, {"lon": -77.04164316666666, "is_disabled": 0, "lat": 38.90150883333333, "fusion_lat": 0.0, "is_reserved": 0, "rental_uris": {"ios": "https://dc.lft.to/lastmile_qr_scan", "android": "https://dc.lft.to/lastmile_qr_scan"}, "fusion_lon": 0.0, "type": "electric_scooter", "bike_id": "2cf3d00f85def172ad5bd3a03d645089", "name": "2cf3d00f85def172ad5bd3a03d645089"}, {"lon": -77.0269265, "is_disabled": 0, "lat": 38.90864416666667, "fusion_lat": 0.0, "is_reserved": 0, "rental_uris": {"ios": "https://dc.lft.to/lastmile_qr_scan", "android": "https://dc.lft.to/lastmile_qr_scan"}, "fusion_lon": 0.0, "type": "electric_scooter", "bike_id": "20a9a3d54aacfb0d524a550157e9b12f", "name": "20a9a3d54aacfb0d524a550157e9b12f"}, {"lon": -77.01532333333333, "is_disabled": 0, "lat": 38.88739183333333, "fusion_lat": 0.0, "is_reserved": 0, "rental_uris": {"ios": "https://dc.lft.to/lastmile_qr_scan", "android": "https://dc.lft.to/lastmile_qr_scan"}, "fusion_lon": 0.0, "type": "electric_scooter", "bike_id": "473b773afce38585c99f34ca1ed7bd07", "name": "473b773afce38585c99f34ca1ed7bd07"}, {"lon": -77.0240955, "is_disabled": 0, "lat": 38.91399966666667, "fusion_lat": 0.0, "is_reserved": 0, "rental_uris": {"ios": "https://dc.lft.to/lastmile_qr_scan", "android": "https://dc.lft.to/lastmile_qr_scan"}, "fusion_lon": 0.0, "type": "electric_scooter", "bike_id": "8273a058ff8a06899ebd02c2151943ae", "name": "8273a058ff8a06899ebd02c2151943ae"}, {"lon": -76.95783533333334, "is_disabled": 0, "lat": 38.868757, "fusion_lat": 0.0, "is_reserved": 0, "rental_uris": {"ios": "https://dc.lft.to/lastmile_qr_scan", "android": "https://dc.lft.to/lastmile_qr_scan"}, "fusion_lon": 0.0, "type": "electric_bike", "bike_id": "ac2e7a241ff613d1493236b57658ac82", "name": "ac2e7a241ff613d1493236b57658ac82"}, {"lon": -77.01975833333333, "is_disabled": 0, "lat": 38.935726833333334, "fusion_lat": 0.0, "is_reserved": 0, "rental_uris": {"ios": "https://dc.lft.to/lastmile_qr_scan", "android": "https://dc.lft.to/lastmile_qr_scan"}, "fusion_lon": 0.0, "type": "electric_scooter", "bike_id": "b27d9deaa876d1ac458f54a5e427d46a", "name": "b27d9deaa876d1ac458f54a5e427d46a"}, {"lon": -77.044866, "is_disabled": 0, "lat": 38.9151355, "fusion_lat": 0.0, "is_reserved": 0, "rental_uris": {"ios": "https://dc.lft.to/lastmile_qr_scan", "android": "https://dc.lft.to/lastmile_qr_scan"}, "fusion_lon": 0.0, "type": "electric_scooter", "bike_id": "52410d748d983a32dcf754f3b10b5a55", "name": "52410d748d983a32dcf754f3b10b5a55"}, {"lon": -77.00484166666666, "is_disabled": 0, "lat": 38.874632, "fusion_lat": 0.0, "is_reserved": 0, "rental_uris": {"ios": "https://dc.lft.to/lastmile_qr_scan", "android": "https://dc.lft.to/lastmile_qr_scan"}, "fusion_lon": 0.0, "type": "electric_scooter", "bike_id": "d0dfb3712d28c5ca88ea027899bffd6c", "name": "d0dfb3712d28c5ca88ea027899bffd6c"}, {"lon": -76.96534733333333, "is_disabled": 0, "lat": 38.9184515, "fusion_lat": 0.0, "is_reserved": 0, "rental_uris": {"ios": "https://dc.lft.to/lastmile_qr_scan", "android": "https://dc.lft.to/lastmile_qr_scan"}, "fusion_lon": 0.0, "type": "electric_scooter", "bike_id": "469b7c55ea79027a4d8906bdb5291953", "name": "469b7c55ea79027a4d8906bdb5291953"}, {"lon": -77.08066783333334, "is_disabled": 0, "lat": 39.052549166666665, "fusion_lat": 0.0, "is_reserved": 0, "rental_uris": {"ios": "https://dc.lft.to/lastmile_qr_scan", "android": "https://dc.lft.to/lastmile_qr_scan"}, "fusion_lon": 0.0, "type": "electric_bike", "bike_id": "bd80521062baacc2e5cbf2b787f092a6", "name": "bd80521062baacc2e5cbf2b787f092a6"}, {"lon": -77.06301916666666, "is_disabled": 0, "lat": 38.905844, "fusion_lat": 0.0, "is_reserved": 0, "rental_uris": {"ios": "https://dc.lft.to/lastmile_qr_scan", "android": "https://dc.lft.to/lastmile_qr_scan"}, "fusion_lon": 0.0, "type": "electric_scooter", "bike_id": "1b65b53e98e8edd60c07a4c2fda0d0a3", "name": "1b65b53e98e8edd60c07a4c2fda0d0a3"}, {"lon": -77.049565, "is_disabled": 0, "lat": 38.89828416666667, "fusion_lat": 0.0, "is_reserved": 0, "rental_uris": {"ios": "https://dc.lft.to/lastmile_qr_scan", "android": "https://dc.lft.to/lastmile_qr_scan"}, "fusion_lon": 0.0, "type": "electric_scooter", "bike_id": "2e2d1fbc24391fefda4fda2bad8cb98c", "name": "2e2d1fbc24391fefda4fda2bad8cb98c"}, {"lon": -77.04944366666666, "is_disabled": 0, "lat": 38.91821016666667, "fusion_lat": 0.0, "is_reserved": 0, "rental_uris": {"ios": "https://dc.lft.to/lastmile_qr_scan", "android": "https://dc.lft.to/lastmile_qr_scan"}, "fusion_lon": 0.0, "type": "electric_scooter", "bike_id": "9a386684ea8f294c17f312729ea9d5dc", "name": "9a386684ea8f294c17f312729ea9d5dc"}, {"lon": -77.0217525, "is_disabled": 0, "lat": 38.91109566666667, "fusion_lat": 0.0, "is_reserved": 0, "rental_uris": {"ios": "https://dc.lft.to/lastmile_qr_scan", "android": "https://dc.lft.to/lastmile_qr_scan"}, "fusion_lon": 0.0, "type": "electric_scooter", "bike_id": "f87a68cde911fda2e478c0a5a5d24156", "name": "f87a68cde911fda2e478c0a5a5d24156"}, {"lon": -77.03670083333333, "is_disabled": 0, "lat": 38.92254916666667, "fusion_lat": 0.0, "is_reserved": 0, "rental_uris": {"ios": "https://dc.lft.to/lastmile_qr_scan", "android": "https://dc.lft.to/lastmile_qr_scan"}, "fusion_lon": 0.0, "type": "electric_scooter", "bike_id": "43644a3586b0c3a4d5a7374f0c6e9db5", "name": "43644a3586b0c3a4d5a7374f0c6e9db5"}, {"lon": -77.02951683333333, "is_disabled": 0, "lat": 38.91771133333334, "fusion_lat": 0.0, "is_reserved": 0, "rental_uris": {"ios": "https://dc.lft.to/lastmile_qr_scan", "android": "https://dc.lft.to/lastmile_qr_scan"}, "fusion_lon": 0.0, "type": "electric_scooter", "bike_id": "7666dde45e688e9471966d72a8c01527", "name": "7666dde45e688e9471966d72a8c01527"}, {"lon": -77.023846, "is_disabled": 0, "lat": 38.929132833333334, "fusion_lat": 0.0, "is_reserved": 0, "rental_uris": {"ios": "https://dc.lft.to/lastmile_qr_scan", "android": "https://dc.lft.to/lastmile_qr_scan"}, "fusion_lon": 0.0, "type": "electric_bike", "bike_id": "9c92f0fc25ea2691e0637b1df150ffb7", "name": "9c92f0fc25ea2691e0637b1df150ffb7"}, {"lon": -77.03827383333334, "is_disabled": 0, "lat": 38.912690166666664, "fusion_lat": 0.0, "is_reserved": 0, "rental_uris": {"ios": "https://dc.lft.to/lastmile_qr_scan", "android": "https://dc.lft.to/lastmile_qr_scan"}, "fusion_lon": 0.0, "type": "electric_scooter", "bike_id": "1079394be74bfa0698f70d526151db60", "name": "1079394be74bfa0698f70d526151db60"}, {"lon": -77.0177385, "is_disabled": 0, "lat": 38.8871285, "fusion_lat": 0.0, "is_reserved": 0, "rental_uris": {"ios": "https://dc.lft.to/lastmile_qr_scan", "android": "https://dc.lft.to/lastmile_qr_scan"}, "fusion_lon": 0.0, "type": "electric_scooter", "bike_id": "c9a532c500af21abcf5c328f8f60e46e", "name": "c9a532c500af21abcf5c328f8f60e46e"}, {"lon": -77.0197985, "is_disabled": 0, "lat": 38.880355, "fusion_lat": 0.0, "is_reserved": 0, "rental_uris": {"ios": "https://dc.lft.to/lastmile_qr_scan", "android": "https://dc.lft.to/lastmile_qr_scan"}, "fusion_lon": 0.0, "type": "electric_scooter", "bike_id": "a72abb719611ac74f2fceb843f98c7d1", "name": "a72abb719611ac74f2fceb843f98c7d1"}, {"lon": -77.00579716666667, "is_disabled": 0, "lat": 38.885397833333336, "fusion_lat": 0.0, "is_reserved": 0, "rental_uris": {"ios": "https://dc.lft.to/lastmile_qr_scan", "android": "https://dc.lft.to/lastmile_qr_scan"}, "fusion_lon": 0.0, "type": "electric_scooter", "bike_id": "7bfc51944b284a89cca1ff352aeb1eba", "name": "7bfc51944b284a89cca1ff352aeb1eba"}, {"lon": -77.03620266666667, "is_disabled": 0, "lat": 38.937402166666665, "fusion_lat": 0.0, "is_reserved": 0, "rental_uris": {"ios": "https://dc.lft.to/lastmile_qr_scan", "android": "https://dc.lft.to/lastmile_qr_scan"}, "fusion_lon": 0.0, "type": "electric_scooter", "bike_id": "3a090ef0dfc64d914a4087d292b1f0e2", "name": "3a090ef0dfc64d914a4087d292b1f0e2"}, {"lon": -77.02119083333334, "is_disabled": 0, "lat": 38.9141905, "fusion_lat": 0.0, "is_reserved": 0, "rental_uris": {"ios": "https://dc.lft.to/lastmile_qr_scan", "android": "https://dc.lft.to/lastmile_qr_scan"}, "fusion_lon": 0.0, "type": "electric_scooter", "bike_id": "d6cb5673b4386a34fc30f2e77dd242b0", "name": "d6cb5673b4386a34fc30f2e77dd242b0"}, {"lon": -76.99709983333334, "is_disabled": 0, "lat": 38.908209166666666, "fusion_lat": 0.0, "is_reserved": 0, "rental_uris": {"ios": "https://dc.lft.to/lastmile_qr_scan", "android": "https://dc.lft.to/lastmile_qr_scan"}, "fusion_lon": 0.0, "type": "electric_scooter", "bike_id": "80d6c06f440c595e34d2db580a24839a", "name": "80d6c06f440c595e34d2db580a24839a"}, {"lon": -77.01928216666667, "is_disabled": 0, "lat": 38.904584, "fusion_lat": 0.0, "is_reserved": 0, "rental_uris": {"ios": "https://dc.lft.to/lastmile_qr_scan", "android": "https://dc.lft.to/lastmile_qr_scan"}, "fusion_lon": 0.0, "type": "electric_scooter", "bike_id": "30d56299cca28c6d576a1ba171f783d6", "name": "30d56299cca28c6d576a1ba171f783d6"}, {"lon": -77.04872266666666, "is_disabled": 0, "lat": 38.903119833333335, "fusion_lat": 0.0, "is_reserved": 0, "rental_uris": {"ios": "https://dc.lft.to/lastmile_qr_scan", "android": "https://dc.lft.to/lastmile_qr_scan"}, "fusion_lon": 0.0, "type": "electric_scooter", "bike_id": "083bd4f12c86f21ea8ac5207a0616b8d", "name": "083bd4f12c86f21ea8ac5207a0616b8d"}, {"lon": -76.99028216666666, "is_disabled": 0, "lat": 38.928708666666665, "fusion_lat": 0.0, "is_reserved": 0, "rental_uris": {"ios": "https://dc.lft.to/lastmile_qr_scan", "android": "https://dc.lft.to/lastmile_qr_scan"}, "fusion_lon": 0.0, "type": "electric_scooter", "bike_id": "08387317f146d8cc0d3cb80d0aad7470", "name": "08387317f146d8cc0d3cb80d0aad7470"}, {"lon": -77.01203983333333, "is_disabled": 0, "lat": 38.91717233333333, "fusion_lat": 0.0, "is_reserved": 0, "rental_uris": {"ios": "https://dc.lft.to/lastmile_qr_scan", "android": "https://dc.lft.to/lastmile_qr_scan"}, "fusion_lon": 0.0, "type": "electric_scooter", "bike_id": "d637bc97bcba744dfc346bc5e35f4d94", "name": "d637bc97bcba744dfc346bc5e35f4d94"},