{"data": {"bikes": [{"type": "electric_scooter", "fusion_lon": 0.0, "bike_id": "b5f33f0a5f8c257e6f9b12a795a1b51d", "is_disabled": 0, "lat": 38.92238183333333, "rental_uris": {"ios": "https://dc.lft.to/lastmile_qr_scan", "android": "https://dc.lft.to/lastmile_qr_scan"}, "is_reserved": 0, "lon": -77.04495633333333, "fusion_lat": 0.0, "name": "b5f33f0a5f8c257e6f9b12a795a1b51d"}, {"type": "electric_scooter", "fusion_lon": 0.0, "bike_id": "5ac9e5b20c69cb5193ae3582cd623df0", "is_disabled": 0, "lat": 38.89282266666667, "rental_uris": {"ios": "https://dc.lft.to/lastmile_qr_scan", "android": "https://dc.lft.to/lastmile_qr_scan"}, "is_reserved": 0, "lon": -77.04673583333333, "fusion_lat": 0.0, "name": "5ac9e5b20c69cb5193ae3582cd623df0"}, {"type": "electric_scooter", "fusion_lon": 0.0, "bike_id": "0c1e1734eb140563ed9df471175e385a", "is_disabled": 0, "lat": 38.924457, "rental_uris": {"ios": "https://dc.lft.to/lastmile_qr_scan", "android": "https://dc.lft.to/lastmile_qr_scan"}, "is_reserved": 0, "lon": -76.99061766666667, "fusion_lat": 0.0, "name": "0c1e1734eb140563ed9df471175e385a"}, {"type": "electric_scooter", "fusion_lon": 0.0, "bike_id": "f24bb626b677b1a46f26bbdf1612a13a", "is_disabled": 0, "lat": 38.937813, "rental_uris": {"ios": "https://dc.lft.to/lastmile_qr_scan", "android": "https://dc.lft.to/lastmile_qr_scan"}, "is_reserved": 0, "lon": -77.0245765, "fusion_lat": 0.0, "name": "f24bb626b677b1a46f26bbdf1612a13a"}, {"type": "electric_scooter", "fusion_lon": 0.0, "bike_id": "0819ff55c4ce51c98d611cca497eb073", "is_disabled": 0, "lat": 38.91418316666667, "rental_uris": {"ios": "https://dc.lft.to/lastmile_qr_scan", "android": "https://dc.lft.to/lastmile_qr_scan"}, "is_reserved": 0, "lon": -77.03906833333333, "fusion_lat": 0.0, "name": "0819ff55c4ce51c98d611cca497eb073"}, {"type": "electric_scooter", "fusion_lon": 0.0, "bike_id": "f4ac9802985ae8d7d4044ed7ff6b8804", "is_disabled": 0, "lat": 38.918804333333334, "rental_uris": {"ios": "https://dc.lft.to/lastmile_qr_scan", "android": "https://dc.lft.to/lastmile_qr_scan"}, "is_reserved": 0, "lon": -77.04181383333334, "fusion_lat": 0.0, "name": "f4ac9802985ae8d7d4044ed7ff6b8804"}, {"type": "electric_scooter", "fusion_lon": 0.0, "bike_id": "7be3857f32f53eb756a98a51479ea18b", "is_disabled": 0, "lat": 38.90467816666666, "rental_uris": {"ios": "https://dc.lft.to/lastmile_qr_scan", "android": "https://dc.lft.to/lastmile_qr_scan"}, "is_reserved": 0, "lon": -77.0465435, "fusion_lat": 0.0, "name": "7be3857f32f53eb756a98a51479ea18b"}, {"type": "electric_scooter", "fusion_lon": 0.0, "bike_id": "b34bd2877188aa1429579310b0ec0697", "is_disabled": 0, "lat": 38.9243085, "rental_uris": {"ios": "https://dc.lft.to/lastmile_qr_scan", "android": "https://dc.lft.to/lastmile_qr_scan"}, "is_reserved": 0, "lon": -77.04246716666667, "fusion_lat": 0.0, "name": "b34bd2877188aa1429579310b0ec0697"}, {"type": "electric_scooter", "fusion_lon": 0.0, "bike_id": "f540b31f6f028a94a426dd6b2a826b6c", "is_disabled": 0, "lat": 38.907731, "rental_uris": {"ios": "https://dc.lft.to/lastmile_qr_scan", "android": "https://dc.lft.to/lastmile_qr_scan"}, "is_reserved": 0, "lon": -77.037692, "fusion_lat": 0.0, "name": "f540b31f6f028a94a426dd6b2a826b6c"}, {"type": "electric_scooter", "fusion_lon": 0.0, "bike_id": "96475750b285b523ae190d5050b24cd4", "is_disabled": 0, "lat": 38.90134116666667, "rental_uris": {"ios": "https://dc.lft.to/lastmile_qr_scan", "android": "https://dc.lft.to/lastmile_qr_scan"}, "is_reserved": 0, "lon": -77.0229515, "fusion_lat": 0.0, "name": "96475750b285b523ae190d5050b24cd4"}, {"type": "electric_bike", "fusion_lon": 0.0, "bike_id": "b9404a98eb6c4a2e91dfae439f5a4536", "is_disabled": 0, "lat": 38.9440825, "rental_uris": {"ios": "https://dc.lft.to/lastmile_qr_scan", "android": "https://dc.lft.to/lastmile_qr_scan"}, "is_reserved": 0, "lon": -77.05517366666666, "fusion_lat": 0.0, "name": "b9404a98eb6c4a2e91dfae439f5a4536"}, {"type": "electric_scooter", "fusion_lon": 0.0, "bike_id": "1b6107ee77828596bc954f2d892c2b0a", "is_disabled": 0, "lat": 38.95414366666667, "rental_uris": {"ios": "https://dc.lft.to/lastmile_qr_scan", "android": "https://dc.lft.to/lastmile_qr_scan"}, "is_reserved": 0, "lon": -77.01365216666666, "fusion_lat": 0.0, "name": "1b6107ee77828596bc954f2d892c2b0a"}, {"type": "electric_scooter", "fusion_lon": 0.0, "bike_id": "e561906058a8af5e2d34f52722b969f5", "is_disabled": 0, "lat": 38.93400166666667, "rental_uris": {"ios": "https://dc.lft.to/lastmile_qr_scan", "android": "https://dc.lft.to/lastmile_qr_scan"}, "is_reserved": 0, "lon": -77.05740683333333, "fusion_lat": 0.0, "name": "e561906058a8af5e2d34f52722b969f5"}, {"type": "electric_scooter", "fusion_lon": 0.0, "bike_id": "fd2c66557ea2ce69105f4958259ba389", "is_disabled": 0, "lat": 38.918710833333336, "rental_uris": {"ios": "https://dc.lft.to/lastmile_qr_scan", "android": "https://dc.lft.to/lastmile_qr_scan"}, "is_reserved": 0, "lon": -77.03602516666666, "fusion_lat": 0.0, "name": "fd2c66557ea2ce69105f4958259ba389"}, {"type": "electric_scooter", "fusion_lon": 0.0, "bike_id": "0348824e8271431097ae84b80cee9f68", "is_disabled": 0, "lat": 38.86267133333333, "rental_uris": {"ios": "https://dc.lft.to/lastmile_qr_scan", "android": "https://dc.lft.to/lastmile_qr_scan"}, "is_reserved": 0, "lon": -76.99530733333333, "fusion_lat": 0.0, "name": "0348824e8271431097ae84b80cee9f68"}, {"type": "electric_scooter", "fusion_lon": 0.0, "bike_id": "2283d7f71a2940dcc381d365fc83a4b3", "is_disabled": 0, "lat": 38.916832166666666, "rental_uris": {"ios": "https://dc.lft.to/lastmile_qr_scan", "android": "https://dc.lft.to/lastmile_qr_scan"}, "is_reserved": 0, "lon": -77.02528516666666, "fusion_lat": 0.0, "name": "2283d7f71a2940dcc381d365fc83a4b3"}, {"type": "electric_scooter", "fusion_lon": 0.0, "bike_id": "7c58d3a85147d9790144f4704c29a0d5", "is_disabled": 0, "lat": 38.896081333333335, "rental_uris": {"ios": "https://dc.lft.to/lastmile_qr_scan", "android": "https://dc.lft.to/lastmile_qr_scan"}, "is_reserved": 0, "lon": -76.9988685, "fusion_lat": 0.0, "name": "7c58d3a85147d9790144f4704c29a0d5"}, {"type": "electric_scooter", "fusion_lon": 0.0, "bike_id": "1e8c8bfb932486b51c6548ebe4531fab", "is_disabled": 0, "lat": 38.913637333333334, "rental_uris": {"ios": "https://dc.lft.to/lastmile_qr_scan", "android": "https://dc.lft.to/lastmile_qr_scan"}, "is_reserved": 0, "lon": -77.02258433333333, "fusion_lat": 0.0, "name": "1e8c8bfb932486b51c6548ebe4531fab"}, {"type": "electric_scooter", "fusion_lon": 0.0, "bike_id": "ec1c242adb485dd249fa428695f687a3", "is_disabled": 0, "lat": 38.91801566666667, "rental_uris": {"ios": "https://dc.lft.to/lastmile_qr_scan", "android": "https://dc.lft.to/lastmile_qr_scan"}, "is_reserved": 0, "lon": -77.03172416666666, "fusion_lat": 0.0, "name": "ec1c242adb485dd249fa428695f687a3"}, {"type": "electric_scooter", "fusion_lon": 0.0, "bike_id": "0a909a1a876661cb9c277656f55d7c94", "is_disabled": 0, "lat": 38.91644016666667, "rental_uris": {"ios": "https://dc.lft.to/lastmile_qr_scan", "android": "https://dc.lft.to/lastmile_qr_scan"}, "is_reserved": 0, "lon": -77.022755, "fusion_lat": 0.0, "name": "0a909a1a876661cb9c277656f55d7c94"}, {"type": "electric_scooter", "fusion_lon": 0.0, "bike_id": "c6cd6be15623f23450a1422db418298e", "is_disabled": 0, "lat": 38.87467, "rental_uris": {"ios": "https://dc.lft.to/lastmile_qr_scan", "android": "https://dc.lft.to/lastmile_qr_scan"}, "is_reserved": 0, "lon": -77.005575, "fusion_lat": 0.0, "name": "c6cd6be15623f23450a1422db418298e"}, {"type": "electric_scooter", "fusion_lon": 0.0, "bike_id": "ccf9f9171a85b054dfe4b3cb012db1b4", "is_disabled": 0, "lat": 38.9660865, "rental_uris": {"ios": "https://dc.lft.to/lastmile_qr_scan", "android": "https://dc.lft.to/lastmile_qr_scan"}, "is_reserved": 0, "lon": -77.027478, "fusion_lat": 0.0, "name": "ccf9f9171a85b054dfe4b3cb012db1b4"}, {"type": "electric_scooter", "fusion_lon": 0.0, "bike_id": "59485c2099f44ee50c8e589345dcc118", "is_disabled": 0, "lat": 38.911079666666666, "rental_uris": {"ios": "https://dc.lft.to/lastmile_qr_scan", "android": "https://dc.lft.to/lastmile_qr_scan"}, "is_reserved": 0, "lon": -77.01159083333333, "fusion_lat": 0.0, "name": "59485c2099f44ee50c8e589345dcc118"}, {"type": "electric_scooter", "fusion_lon": 0.0, "bike_id": "e6e9485829de2060e6f3d7f9db7cb71b", "is_disabled": 0, "lat": 38.939476666666664, "rental_uris": {"ios": "https://dc.lft.to/lastmile_qr_scan", "android": "https://dc.lft.to/lastmile_qr_scan"}, "is_reserved": 0, "lon": -77.07525, "fusion_lat": 0.0, "name": "e6e9485829de2060e6f3d7f9db7cb71b"}, {"type": "electric_scooter", "fusion_lon": 0.0, "bike_id": "a13bf69b4740c25c35967380045301c7", "is_disabled": 0, "lat": 38.892190166666666, "rental_uris": {"ios": "https://dc.lft.to/lastmile_qr_scan", "android": "https://dc.lft.to/lastmile_qr_scan"}, "is_reserved": 0, "lon": -77.013528, "fusion_lat": 0.0, "name": "a13bf69b4740c25c35967380045301c7"}, {"type": "electric_scooter", "fusion_lon": 0.0, "bike_id": "4e9f71f8f608eda62edeb946ee249587", "is_disabled": 0, "lat": 38.8653485, "rental_uris": {"ios": "https://dc.lft.to/lastmile_qr_scan", "android": "https://dc.lft.to/lastmile_qr_scan"}, "is_reserved": 0, "lon": -76.98708616666667, "fusion_lat": 0.0, "name": "4e9f71f8f608eda62edeb946ee249587"}, {"type": "electric_scooter", "fusion_lon": 0.0, "bike_id": "71c48d9a92ab95767e68166cd2ede641", "is_disabled": 0, "lat": 38.9233545, "rental_uris": {"ios": "https://dc.lft.to/lastmile_qr_scan", "android": "https://dc.lft.to/lastmile_qr_scan"}, "is_reserved": 0, "lon": -77.0204775, "fusion_lat": 0.0, "name": "71c48d9a92ab95767e68166cd2ede641"}, {"type": "electric_scooter", "fusion_lon": 0.0, "bike_id": "e5b841bc086b931888e6c45bb4cd1d5d", "is_disabled": 0, "lat": 38.92652566666667, "rental_uris": {"ios": "https://dc.lft.to/lastmile_qr_scan", "android": "https://dc.lft.to/lastmile_qr_scan"}, "is_reserved": 0, "lon": -77.03722766666667, "fusion_lat": 0.0, "name": "e5b841bc086b931888e6c45bb4cd1d5d"}, {"type": "electric_scooter", "fusion_lon": 0.0, "bike_id": "70bed6a16e53a7e72a1452638e8909a4", "is_disabled": 0, "lat": 38.91709066666667, "rental_uris": {"ios": "https://dc.lft.to/lastmile_qr_scan", "android": "https://dc.lft.to/lastmile_qr_scan"}, "is_reserved": 0, "lon": -77.03869833333333, "fusion_lat": 0.0, "name": "70bed6a16e53a7e72a1452638e8909a4"}, {"type": "electric_scooter", "fusion_lon": 0.0, "bike_id": "923ae9e96c713a90cdef602928a6f765", "is_disabled": 0, "lat": 38.90308533333334, "rental_uris": {"ios": "https://dc.lft.to/lastmile_qr_scan", "android": "https://dc.lft.to/lastmile_qr_scan"}, "is_reserved": 0, "lon": -76.97802833333333, "fusion_lat": 0.0, "name": "923ae9e96c713a90cdef602928a6f765"}, {"type": "electric_scooter", "fusion_lon": 0.0, "bike_id": "0de562bf9615ef269d404731b0c58ae5", "is_disabled": 0, "lat": 38.926461333333336, "rental_uris": {"ios": "https://dc.lft.to/lastmile_qr_scan", "android": "https://dc.lft.to/lastmile_qr_scan"}, "is_reserved": 0, "lon": -77.05335133333334, "fusion_lat": 0.0, "name": "0de562bf9615ef269d404731b0c58ae5"}, {"type": "electric_scooter", "fusion_lon": 0.0, "bike_id": "9ec5f3054c177d5a0e4a1d4548e11cf2", "is_disabled": 0, "lat": 38.92388966666667, "rental_uris": {"ios": "https://dc.lft.to/lastmile_qr_scan", "android": "https://dc.lft.to/lastmile_qr_scan"}, "is_reserved": 0, "lon": -77.0366295, "fusion_lat": 0.0, "name": "9ec5f3054c177d5a0e4a1d4548e11cf2"}, {"type": "electric_scooter", "fusion_lon": 0.0, "bike_id": "fcb15ba53b7cb8e994b78e89bf4bfde3", "is_disabled": 0, "lat": 38.87457883333333, "rental_uris": {"ios": "https://dc.lft.to/lastmile_qr_scan", "android": "https://dc.lft.to/lastmile_qr_scan"}, "is_reserved": 0, "lon": -77.00571133333334, "fusion_lat": 0.0, "name": "fcb15ba53b7cb8e994b78e89bf4bfde3"}, {"type": "electric_scooter", "fusion_lon": 0.0, "bike_id": "95c8f521f006c21e8d02c59546952b88", "is_disabled": 0, "lat": 38.8922155, "rental_uris": {"ios": "https://dc.lft.to/lastmile_qr_scan", "android": "https://dc.lft.to/lastmile_qr_scan"}, "is_reserved": 0, "lon": -77.04473883333333, "fusion_lat": 0.0, "name": "95c8f521f006c21e8d02c59546952b88"}, {"type": "electric_scooter", "fusion_lon": 0.0, "bike_id": "d34b7b3a8d4571be1812b1eb90a1469e", "is_disabled": 0, "lat": 38.89977283333333, "rental_uris": {"ios": "https://dc.lft.to/lastmile_qr_scan", "android": "https://dc.lft.to/lastmile_qr_scan"}, "is_reserved": 0, "lon": -77.0199865, "fusion_lat": 0.0, "name": "d34b7b3a8d4571be1812b1eb90a1469e"}, {"type": "electric_scooter", "fusion_lon": 0.0, "bike_id": "d5b472d2d82ef1237a7ce10f33a2e374", "is_disabled": 0, "lat": 38.89234533333333, "rental_uris": {"ios": "https://dc.lft.to/lastmile_qr_scan", "android": "https://dc.lft.to/lastmile_qr_scan"}, "is_reserved": 0, "lon": -77.04162416666667, "fusion_lat": 0.0, "name": "d5b472d2d82ef1237a7ce10f33a2e374"}, {"type": "electric_scooter", "fusion_lon": 0.0, "bike_id": "874495e493a525b14ae12319ac45c3ff", "is_disabled": 0, "lat": 38.9529805, "rental_uris": {"ios": "https://dc.lft.to/lastmile_qr_scan", "android": "https://dc.lft.to/lastmile_qr_scan"}, "is_reserved": 0, "lon": -77.06983916666667, "fusion_lat": 0.0, "name": "874495e493a525b14ae12319ac45c3ff"}, {"type": "electric_scooter", "fusion_lon": 0.0, "bike_id": "dcb71417fde45d0f83636612dad88b39", "is_disabled": 0, "lat": 38.909804, "rental_uris": {"ios": "https://dc.lft.to/lastmile_qr_scan", "android": "https://dc.lft.to/lastmile_qr_scan"}, "is_reserved": 0, "lon": -77.03441266666667, "fusion_lat": 0.0, "name": "dcb71417fde45d0f83636612dad88b39"}, {"type": "electric_bike", "fusion_lon": 0.0, "bike_id": "e3d34a6a1cc943a992db135a0cc7516f", "is_disabled": 0, "lat": 38.892466, "rental_uris": {"ios": "https://dc.lft.to/lastmile_qr_scan", "android": "https://dc.lft.to/lastmile_qr_scan"}, "is_reserved": 0, "lon": -76.98546833333333, "fusion_lat": 0.0, "name": "e3d34a6a1cc943a992db135a0cc7516f"}, {"type": "electric_scooter", "fusion_lon": 0.0, "bike_id": "749c6f6dadcc23dba6edf668098b072d", "is_disabled": 0, "lat": 38.89554416666667, "rental_uris": {"ios": "https://dc.lft.to/lastmile_qr_scan", "android": "https://dc.lft.to/lastmile_qr_scan"}, "is_reserved": 0, "lon": -76.94878283333334, "fusion_lat": 0.0, "name": "749c6f6dadcc23dba6edf668098b072d"}, {"type": "electric_scooter", "fusion_lon": 0.0, "bike_id": "c3599efd719529c9374f5772c2dbbbb8", "is_disabled": 0, "lat": 38.93560566666667, "rental_uris": {"ios": "https://dc.lft.to/lastmile_qr_scan", "android": "https://dc.lft.to/lastmile_qr_scan"}, "is_reserved": 0, "lon": -77.063762, "fusion_lat": 0.0, "name": "c3599efd719529c9374f5772c2dbbbb8"}, {"type": "electric_bike", "fusion_lon": 0.0, "bike_id": "69f23a15743dd1fb2f7f3ee8493c1101", "is_disabled": 0, "lat": 38.81911483333333, "rental_uris": {"ios": "https://dc.lft.to/lastmile_qr_scan", "android": "https://dc.lft.to/lastmile_qr_scan"}, "is_reserved": 0, "lon": -77.12655, "fusion_lat": 0.0, "name": "69f23a15743dd1fb2f7f3ee8493c1101"}, {"type": "electric_scooter", "fusion_lon": 0.0, "bike_id": "d01369268b7f4f22804aeab054fd4dc3", "is_disabled": 0, "lat": 38.90179, "rental_uris": {"ios": "https://dc.lft.to/lastmile_qr_scan", "android": "https://dc.lft.to/lastmile_qr_scan"}, "is_reserved": 0, "lon": -76.92830066666667, "fusion_lat": 0.0, "name": "d01369268b7f4f22804aeab054fd4dc3"}, {"type": "electric_scooter", "fusion_lon": 0.0, "bike_id": "a46223e2cd37614afe7f43090a19e4c9", "is_disabled": 0, "lat": 38.914147666666665, "rental_uris": {"ios": "https://dc.lft.to/lastmile_qr_scan", "android": "https://dc.lft.to/lastmile_qr_scan"}, "is_reserved": 0, "lon": -77.04149083333333, "fusion_lat": 0.0, "name": "a46223e2cd37614afe7f43090a19e4c9"}, {"type": "electric_scooter", "fusion_lon": 0.0, "bike_id": "bf61a6bb94d760148f5bfb3c9793508a", "is_disabled": 0, "lat": 38.904042833333335, "rental_uris": {"ios": "https://dc.lft.to/lastmile_qr_scan", "android": "https://dc.lft.to/lastmile_qr_scan"}, "is_reserved": 0, "lon": -77.040431, "fusion_lat": 0.0, "name": "bf61a6bb94d760148f5bfb3c9793508a"}, {"type": "electric_scooter", "fusion_lon": 0.0, "bike_id": "a134de0aeb843c488ab66cae41b62669", "is_disabled": 0, "lat": 38.908880333333336, "rental_uris": {"ios": "https://dc.lft.to/lastmile_qr_scan", "android": "https://dc.lft.to/lastmile_qr_scan"}, "is_reserved": 0, "lon": -77.04496716666667, "fusion_lat": 0.0, "name": "a134de0aeb843c488ab66cae41b62669"}, {"type": "electric_scooter", "fusion_lon": 0.0, "bike_id": "fa88bb32678c0421e8f113740cb130f1", "is_disabled": 0, "lat": 38.8923555, "rental_uris": {"ios": "https://dc.lft.to/lastmile_qr_scan", "android": "https://dc.lft.to/lastmile_qr_scan"}, "is_reserved": 0, "lon": -77.0321605, "fusion_lat": 0.0, "name": "fa88bb32678c0421e8f113740cb130f1"}, {"type": "electric_scooter", "fusion_lon": 0.0, "bike_id": "961062820939d7956a01e61b4ce45595", "is_disabled": 0, "lat": 38.886538333333334, "rental_uris": {"ios": "https://dc.lft.to/lastmile_qr_scan", "android": "https://dc.lft.to/lastmile_qr_scan"}, "is_reserved": 0, "lon": -77.028429, "fusion_lat": 0.0, "name": "961062820939d7956a01e61b4ce45595"}, {"type": "electric_scooter", "fusion_lon": 0.0, "bike_id": "51d5dae0283adcd6e2afc3b231e4efa0", "is_disabled": 0, "lat": 38.90383383333333, "rental_uris": {"ios": "https://dc.lft.to/lastmile_qr_scan", "android": "https://dc.lft.to/lastmile_qr_scan"}, "is_reserved": 0, "lon": -77.01790766666667, "fusion_lat": 0.0, "name": "51d5dae0283adcd6e2afc3b231e4efa0"}, {"type": "electric_scooter", "fusion_lon": 0.0, "bike_id": "a0da08bb4d59e12a8d45b256895eccdf", "is_disabled": 0, "lat": 38.92655516666667, "rental_uris": {"ios": "https://dc.lft.to/lastmile_qr_scan", "android": "https://dc.lft.to/lastmile_qr_scan"}, "is_reserved": 0, "lon": -77.024349, "fusion_lat": 0.0, "name": "a0da08bb4d59e12a8d45b256895eccdf"}, {"type": "electric_scooter", "fusion_lon": 0.0, "bike_id": "51c2c4e217973f549c8a47420b3b298b", "is_disabled": 0, "lat": 38.914152333333334, "rental_uris": {"ios": "https://dc.lft.to/lastmile_qr_scan", "android": "https://dc.lft.to/lastmile_qr_scan"}, "is_reserved": 0, "lon": -77.01077583333333, "fusion_lat": 0.0, "name": "51c2c4e217973f549c8a47420b3b298b"}, {"type": "electric_scooter", "fusion_lon": 0.0, "bike_id": "a7ede7dcb4e338bb411d746e1587d7d7", "is_disabled": 0, "lat": 38.90485833333334, "rental_uris": {"ios": "https://dc.lft.to/lastmile_qr_scan", "android": "https://dc.lft.to/lastmile_qr_scan"}, "is_reserved": 0, "lon": -77.05330816666667, "fusion_lat": 0.0, "name": "a7ede7dcb4e338bb411d746e1587d7d7"}, {"type": "electric_scooter", "fusion_lon": 0.0, "bike_id": "b5cd3d4a5f312a1b7362ca8c289145aa", "is_disabled": 0, "lat": 38.8922885, "rental_uris": {"ios": "https://dc.lft.to/lastmile_qr_scan", "android": "https://dc.lft.to/lastmile_qr_scan"}, "is_reserved": 0, "lon": -77.04658633333334, "fusion_lat": 0.0, "name": "b5cd3d4a5f312a1b7362ca8c289145aa"}, {"type": "electric_scooter", "fusion_lon": 0.0, "bike_id": "c0a0bf12f244802a2f2f7b0cb2bb5a23", "is_disabled": 0, "lat": 38.90482383333333, "rental_uris": {"ios": "https://dc.lft.to/lastmile_qr_scan", "android": "https://dc.lft.to/lastmile_qr_scan"}, "is_reserved": 0, "lon": -77.027205, "fusion_lat": 0.0, "name": "c0a0bf12f244802a2f2f7b0cb2bb5a23"}, {"type": "electric_scooter", "fusion_lon": 0.0, "bike_id": "d380eab3d922e353a864af064e1afc0d", "is_disabled": 0, "lat": 38.919556, "rental_uris": {"ios": "https://dc.lft.to/lastmile_qr_scan", "android": "https://dc.lft.to/lastmile_qr_scan"}, "is_reserved": 0, "lon": -77.02593566666667, "fusion_lat": 0.0, "name": "d380eab3d922e353a864af064e1afc0d"}, {"type": "electric_bike", "fusion_lon": 0.0, "bike_id": "b91237edf7a18145bc0cf6bffe63ff7c", "is_disabled": 0, "lat": 38.835854499999996, "rental_uris": {"ios": "https://dc.lft.to/lastmile_qr_scan", "android": "https://dc.lft.to/lastmile_qr_scan"}, "is_reserved": 0, "lon": -77.0013885, "fusion_lat": 0.0, "name": "b91237edf7a18145bc0cf6bffe63ff7c"}, {"type": "electric_scooter", "fusion_lon": 0.0, "bike_id": "a772ee4e8b1cab52746a540c68c246d9", "is_disabled": 0, "lat": 38.9293455, "rental_uris": {"ios": "https://dc.lft.to/lastmile_qr_scan", "android": "https://dc.lft.to/lastmile_qr_scan"}, "is_reserved": 0, "lon": -77.01640316666666, "fusion_lat": 0.0, "name": "a772ee4e8b1cab52746a540c68c246d9"}, {"type": "electric_scooter", "fusion_lon": 0.0, "bike_id": "11b71e442514adde741eb9cb2ab3c114", "is_disabled": 0, "lat": 38.91494483333334, "rental_uris": {"ios": "https://dc.lft.to/lastmile_qr_scan", "android": "https://dc.lft.to/lastmile_qr_scan"}, "is_reserved": 0, "lon": -77.01225866666667, "fusion_lat": 0.0, "name": "11b71e442514adde741eb9cb2ab3c114"}, {"type": "electric_bike", "fusion_lon": 0.0, "bike_id": "1bf3901ddfe253c4a76a6f157f6c43f1", "is_disabled": 0, "lat": 38.95709016666667, "rental_uris": {"ios": "https://dc.lft.to/lastmile_qr_scan", "android": "https://dc.lft.to/lastmile_qr_scan"}, "is_reserved": 0, "lon": -77.00282383333334, "fusion_lat": 0.0, "name": "1bf3901ddfe253c4a76a6f157f6c43f1"}, {"type": "electric_scooter", "fusion_lon": 0.0, "bike_id": "a3a1c5b38365b14dc4720ff5f6d06b14", "is_disabled": 0, "lat": 38.90602583333333, "rental_uris": {"ios": "https://dc.lft.to/lastmile_qr_scan", "android": "https://dc.lft.to/lastmile_qr_scan"}, "is_reserved": 0, "lon": -77.04342316666667, "fusion_lat": 0.0, "name": "a3a1c5b38365b14dc4720ff5f6d06b14"}, {"type": "electric_scooter", "fusion_lon": 0.0, "bike_id": "b8102f2dd05019475423414f158f4538", "is_disabled": 0, "lat": 38.9071275, "rental_uris": {"ios": "https://dc.lft.to/lastmile_qr_scan", "android": "https://dc.lft.to/lastmile_qr_scan"}, "is_reserved": 0, "lon": -77.04969033333333, "fusion_lat": 0.0, "name": "b8102f2dd05019475423414f158f4538"}, {"type": "electric_scooter", "fusion_lon": 0.0, "bike_id": "e7142502ac508110c86d2ae8e166b9eb", "is_disabled": 0, "lat": 38.905570833333336, "rental_uris": {"ios": "https://dc.lft.to/lastmile_qr_scan", "android": "https://dc.lft.to/lastmile_qr_scan"}, "is_reserved": 0, "lon": -77.04750683333333, "fusion_lat": 0.0, "name": "e7142502ac508110c86d2ae8e166b9eb"}, {"type": "electric_scooter", "fusion_lon": 0.0, "bike_id": "0bd5e5e8b89469e52044cffe4315f256", "is_disabled": 0, "lat": 38.90513216666667, "rental_uris": {"ios": "https://dc.lft.to/lastmile_qr_scan", "android": "https://dc.lft.to/lastmile_qr_scan"}, "is_reserved": 0, "lon": -76.99184033333333, "fusion_lat": 0.0, "name": "0bd5e5e8b89469e52044cffe4315f256"}, {"type": "electric_bike", "fusion_lon": 0.0, "bike_id": "e30ff27d6beac69129470d8f9d46c00b", "is_disabled": 0, "lat": 38.9447445, "rental_uris": {"ios": "https://dc.lft.to/lastmile_qr_scan", "android": "https://dc.lft.to/lastmile_qr_scan"}, "is_reserved": 0, "lon": -76.9869, "fusion_lat": 0.0, "name": "e30ff27d6beac69129470d8f9d46c00b"}, {"type": "electric_scooter", "fusion_lon": 0.0, "bike_id": "61aa2e55adea8c4ab595181e91dce205", "is_disabled": 0, "lat": 38.886539666666664, "rental_uris": {"ios": "https://dc.lft.to/lastmile_qr_scan", "android": "https://dc.lft.to/lastmile_qr_scan"}, "is_reserved": 0, "lon": -77.028538, "fusion_lat": 0.0, "name": "61aa2e55adea8c4ab595181e91dce205"}, {"type": "electric_scooter", "fusion_lon": 0.0, "bike_id": "493c570ab0c9dc273fe189022684f623", "is_disabled": 0, "lat": 38.897468833333335, "rental_uris": {"ios": "https://dc.lft.to/lastmile_qr_scan", "android": "https://dc.lft.to/lastmile_qr_scan"}, "is_reserved": 0, "lon": -77.04351183333333, "fusion_lat": 0.0, "name": "493c570ab0c9dc273fe189022684f623"}, {"type": "electric_bike", "fusion_lon": 0.0, "bike_id": "87112977e48153530dccfd8b56165aa2", "is_disabled": 0, "lat": 38.84284616666667, "rental_uris": {"ios": "https://dc.lft.to/lastmile_qr_scan", "android": "https://dc.lft.to/lastmile_qr_scan"}, "is_reserved": 0, "lon": -77.075296, "fusion_lat": 0.0, "name": "87112977e48153530dccfd8b56165aa2"}, {"type": "electric_scooter", "fusion_lon": 0.0, "bike_id": "a55c9f8a8fb981f61c8ce417fafb7b8a", "is_disabled": 0, "lat": 38.92388416666667, "rental_uris": {"ios": "https://dc.lft.to/lastmile_qr_scan", "android": "https://dc.lft.to/lastmile_qr_scan"}, "is_reserved": 0, "lon": -77.03664616666667, "fusion_lat": 0.0, "name": "a55c9f8a8fb981f61c8ce417fafb7b8a"}, {"type": "electric_bike", "fusion_lon": 0.0, "bike_id": "ef55d6f43e619e393fc1c4cb1419dc4a", "is_disabled": 0, "lat": 38.94263483333334, "rental_uris": {"ios": "https://dc.lft.to/lastmile_qr_scan", "android": "https://dc.lft.to/lastmile_qr_scan"}, "is_reserved": 0, "lon": -77.02840466666666, "fusion_lat": 0.0, "name": "ef55d6f43e619e393fc1c4cb1419dc4a"}, {"type": "electric_scooter", "fusion_lon": 0.0, "bike_id": "772a5fba06f9eecb0737837d335a4fc2", "is_disabled": 0, "lat": 38.88343233333333, "rental_uris": {"ios": "https://dc.lft.to/lastmile_qr_scan", "android": "https://dc.lft.to/lastmile_qr_scan"}, "is_reserved": 0, "lon": -77.00648416666667, "fusion_lat": 0.0, "name": "772a5fba06f9eecb0737837d335a4fc2"}, {"type": "electric_scooter", "fusion_lon": 0.0, "bike_id": "3fb5f78d681e329248ba9b540e73b4ff", "is_disabled": 0, "lat": 38.9013595, "rental_uris": {"ios": "https://dc.lft.to/lastmile_qr_scan", "android": "https://dc.lft.to/lastmile_qr_scan"}, "is_reserved": 0, "lon": -76.945664, "fusion_lat": 0.0, "name": "3fb5f78d681e329248ba9b540e73b4ff"}, {"type": "electric_scooter", "fusion_lon": 0.0, "bike_id": "73e8de6fb7ffc042f812e0833e31cce3", "is_disabled": 0, "lat": 38.902739, "rental_uris": {"ios": "https://dc.lft.to/lastmile_qr_scan", "android": "https://dc.lft.to/lastmile_qr_scan"}, "is_reserved": 0, "lon": -77.0386995, "fusion_lat": 0.0, "name": "73e8de6fb7ffc042f812e0833e31cce3"}, {"type": "electric_scooter", "fusion_lon": 0.0, "bike_id": "fe8fdf231d2e97ced9bcd4961ed9ba1a", "is_disabled": 0, "lat": 38.90800566666667, "rental_uris": {"ios": "https://dc.lft.to/lastmile_qr_scan", "android": "https://dc.lft.to/lastmile_qr_scan"}, "is_reserved": 0, "lon": -77.04226716666666, "fusion_lat": 0.0, "name": "fe8fdf231d2e97ced9bcd4961ed9ba1a"}, {"type": "electric_scooter", "fusion_lon": 0.0, "bike_id": "5660b4aaffa1264414b9bb25acbab397", "is_disabled": 0, "lat": 38.87576766666667, "rental_uris": {"ios": "https://dc.lft.to/lastmile_qr_scan", "android": "https://dc.lft.to/lastmile_qr_scan"}, "is_reserved": 0, "lon": -77.00606083333334, "fusion_lat": 0.0, "name": "5660b4aaffa1264414b9bb25acbab397"}, {"type": "electric_scooter", "fusion_lon": 0.0, "bike_id": "24d7b130715734860386b3face616632", "is_disabled": 0, "lat": 38.932779833333335, "rental_uris": {"ios": "https://dc.lft.to/lastmile_qr_scan", "android": "https://dc.lft.to/lastmile_qr_scan"}, "is_reserved": 0, "lon": -77.037021, "fusion_lat": 0.0, "name": "24d7b130715734860386b3face616632"}, {"type": "electric_bike", "fusion_lon": 0.0, "bike_id": "425e24e83081f22f7159d54d83bc40f3", "is_disabled": 0, "lat": 38.842709666666664, "rental_uris": {"ios": "https://dc.lft.to/lastmile_qr_scan", "android": "https://dc.lft.to/lastmile_qr_scan"}, "is_reserved": 0, "lon": -76.9882235, "fusion_lat": 0.0, "name": "425e24e83081f22f7159d54d83bc40f3"}, {"type": "electric_scooter", "fusion_lon": 0.0, "bike_id": "20b029b8ac660c4135eeab281e393b65", "is_disabled": 0, "lat": 38.887673, "rental_uris": {"ios": "https://dc.lft.to/lastmile_qr_scan", "android": "https://dc.lft.to/lastmile_qr_scan"}, "is_reserved": 0, "lon": -77.02845016666667, "fusion_lat": 0.0, "name": "20b029b8ac660c4135eeab281e393b65"}, {"type": "electric_bike", "fusion_lon": 0.0, "bike_id": "84e1015955c117242ccfb588ebb010fc", "is_disabled": 0, "lat": 38.92036916666667, "rental_uris": {"ios": "https://dc.lft.to/lastmile_qr_scan", "android": "https://dc.lft.to/lastmile_qr_scan"}, "is_reserved": 0, "lon": -77.03194266666667, "fusion_lat": 0.0, "name": "84e1015955c117242ccfb588ebb010fc"}, {"type": "electric_scooter", "fusion_lon": 0.0, "bike_id": "e75eae039a7403f967adeccb809354c6", "is_disabled": 0, "lat": 38.91762933333333, "rental_uris": {"ios": "https://dc.lft.to/lastmile_qr_scan", "android": "https://dc.lft.to/lastmile_qr_scan"}, "is_reserved": 0, "lon": -77.02280366666666, "fusion_lat": 0.0, "name": "e75eae039a7403f967adeccb809354c6"}, {"type": "electric_scooter", "fusion_lon": 0.0, "bike_id": "22c690fe7adf90a76af798b18e9fb8d6", "is_disabled": 0, "lat": 38.924738833333336, "rental_uris": {"ios": "https://dc.lft.to/lastmile_qr_scan", "android": "https://dc.lft.to/lastmile_qr_scan"}, "is_reserved": 0, "lon": -77.022167, "fusion_lat": 0.0, "name": "22c690fe7adf90a76af798b18e9fb8d6"}, {"type": "electric_scooter", "fusion_lon": 0.0, "bike_id": "10ba4058c14f49019cb9241ace3f8d15", "is_disabled": 0, "lat": 38.93271416666666, "rental_uris": {"ios": "https://dc.lft.to/lastmile_qr_scan", "android": "https://dc.lft.to/lastmile_qr_scan"}, "is_reserved": 0, "lon": -76.979537, "fusion_lat": 0.0, "name": "10ba4058c14f49019cb9241ace3f8d15"}, {"type": "electric_scooter", "fusion_lon": 0.0, "bike_id": "28c29894386304af80fdf8e5c72c6488", "is_disabled": 0, "lat": 38.89492, "rental_uris": {"ios": "https://dc.lft.to/lastmile_qr_scan", "android": "https://dc.lft.to/lastmile_qr_scan"}, "is_reserved": 0, "lon": -77.00293766666667, "fusion_lat": 0.0, "name": "28c29894386304af80fdf8e5c72c6488"}, {"type": "electric_scooter", "fusion_lon": 0.0, "bike_id": "306da27e51af90cd7f9acc1c18cab929", "is_disabled": 0, "lat": 38.892231, "rental_uris": {"ios": "https://dc.lft.to/lastmile_qr_scan", "android": "https://dc.lft.to/lastmile_qr_scan"}, "is_reserved": 0, "lon": -77.04198666666667, "fusion_lat": 0.0, "name": "306da27e51af90cd7f9acc1c18cab929"}, {"type": "electric_scooter", "fusion_lon": 0.0, "bike_id": "c0938027400cda6cebccdb9e772a854b", "is_disabled": 0, "lat": 38.918348333333334, "rental_uris": {"ios": "https://dc.lft.to/lastmile_qr_scan", "android": "https://dc.lft.to/lastmile_qr_scan"}, "is_reserved": 0, "lon": -77.0418365, "fusion_lat": 0.0, "name": "c0938027400cda6cebccdb9e772a854b"}, {"type": "electric_scooter", "fusion_lon": 0.0, "bike_id": "0ca84c4487784300e707bb9871f70bcb", "is_disabled": 0, "lat": 38.8904435, "rental_uris": {"ios": "https://dc.lft.to/lastmile_qr_scan", "android": "https://dc.lft.to/lastmile_qr_scan"}, "is_reserved": 0, "lon": -76.9375405, "fusion_lat": 0.0, "name": "0ca84c4487784300e707bb9871f70bcb"}, {"type": "electric_scooter", "fusion_lon": 0.0, "bike_id": "c57895f020bf9517422af7bfbfa605bc", "is_disabled": 0, "lat": 38.9111975, "rental_uris": {"ios": "https://dc.lft.to/lastmile_qr_scan", "android": "https://dc.lft.to/lastmile_qr_scan"}, "is_reserved": 0, "lon": -77.04545633333333, "fusion_lat": 0.0, "name": "c57895f020bf9517422af7bfbfa605bc"}, {"type": "electric_scooter", "fusion_lon": 0.0, "bike_id": "b3751f940123c39f6200c6a451800663", "is_disabled": 0, "lat": 38.904864, "rental_uris": {"ios": "https://dc.lft.to/lastmile_qr_scan", "android": "https://dc.lft.to/lastmile_qr_scan"}, "is_reserved": 0, "lon": -77.03466166666666, "fusion_lat": 0.0, "name": "b3751f940123c39f6200c6a451800663"}, {"type": "electric_scooter", "fusion_lon": 0.0, "bike_id": "9723d3648c818537004a6dc58d1cbdd7", "is_disabled": 0, "lat": 38.898487833333334, "rental_uris": {"ios": "https://dc.lft.to/lastmile_qr_scan", "android": "https://dc.lft.to/lastmile_qr_scan"}, "is_reserved": 0, "lon": -77.00741483333333, "fusion_lat": 0.0, "name": "9723d3648c818537004a6dc58d1cbdd7"}, {"type": "electric_scooter", "fusion_lon": 0.0, "bike_id": "76a2e8cc36e2db0e8883354f664eea6e", "is_disabled": 0, "lat": 38.898451333333334, "rental_uris": {"ios": "https://dc.lft.to/lastmile_qr_scan", "android": "https://dc.lft.to/lastmile_qr_scan"}, "is_reserved": 0, "lon": -76.94259883333334, "fusion_lat": 0.0, "name": "76a2e8cc36e2db0e8883354f664eea6e"}, {"type": "electric_scooter", "fusion_lon": 0.0, "bike_id": "b7d8bf5b7080ef32dc085a2c36d3a53c", "is_disabled": 0, "lat": 38.9215115, "rental_uris": {"ios": "https://dc.lft.to/lastmile_qr_scan", "android": "https://dc.lft.to/lastmile_qr_scan"}, "is_reserved": 0, "lon": -77.0329475, "fusion_lat": 0.0, "name": "b7d8bf5b7080ef32dc085a2c36d3a53c"}, {"type": "electric_scooter", "fusion_lon": 0.0, "bike_id": "931f2ba4f133d253ab59c0c2ddebe487", "is_disabled": 0, "lat": 38.900243833333334, "rental_uris": {"ios": "https://dc.lft.to/lastmile_qr_scan", "android": "https://dc.lft.to/lastmile_qr_scan"}, "is_reserved": 0, "lon": -76.99856966666667, "fusion_lat": 0.0, "name": "931f2ba4f133d253ab59c0c2ddebe487"}, {"type": "electric_scooter", "fusion_lon": 0.0, "bike_id": "301a261223a39cc334df88403d33fc69", "is_disabled": 0, "lat": 38.92813616666667, "rental_uris": {"ios": "https://dc.lft.to/lastmile_qr_scan", "android": "https://dc.lft.to/lastmile_qr_scan"}, "is_reserved": 0, "lon": -77.04332283333333, "fusion_lat": 0.0, "name": "301a261223a39cc334df88403d33fc69"}, {"type": "electric_scooter", "fusion_lon": 0.0, "bike_id": "0ce22065c878b86095265dc3ec30ee04", "is_disabled": 0, "lat": 38.88177016666667, "rental_uris": {"ios": "https://dc.lft.to/lastmile_qr_scan", "android": "https://dc.lft.to/lastmile_qr_scan"}, "is_reserved": 0, "lon": -76.99262166666666, "fusion_lat": 0.0, "name": "0ce22065c878b86095265dc3ec30ee04"}, {"type": "electric_scooter", "fusion_lon": 0.0, "bike_id": "15d00c6ae3622a928d9a29c1e9210ce1", "is_disabled": 0, "lat": 38.9043335, "rental_uris": {"ios": "https://dc.lft.to/lastmile_qr_scan", "android": "https://dc.lft.to/lastmile_qr_scan"}, "is_reserved": 0, "lon": -77.0258975, "fusion_lat": 0.0, "name": "15d00c6ae3622a928d9a29c1e9210ce1"}, {"type": "electric_scooter", "fusion_lon": 0.0, "bike_id": "f4f380f20775df9307b8b02db62f5189", "is_disabled": 0, "lat": 38.915652, "rental_uris": {"ios": "https://dc.lft.to/lastmile_qr_scan", "android": "https://dc.lft.to/lastmile_qr_scan"}, "is_reserved": 0, "lon": -77.03225616666667, "fusion_lat": 0.0, "name": "f4f380f20775df9307b8b02db62f5189"}, {"type": "electric_bike", "fusion_lon": 0.0, "bike_id": "672644ddd3c2b1c3abdcad352dfe34ce", "is_disabled": 0, "lat": 38.858653833333335, "rental_uris": {"ios": "https://dc.lft.to/lastmile_qr_scan", "android": "https://dc.lft.to/lastmile_qr_scan"}, "is_reserved": 0, "lon": -77.09558383333334, "fusion_lat": 0.0, "name": "672644ddd3c2b1c3abdcad352dfe34ce"}, {"type": "electric_scooter", "fusion_lon": 0.0, "bike_id": "4f5c70e4b0e9237c457181c9df1e3e46", "is_disabled": 0, "lat": 38.903157, "rental_uris": {"ios": "https://dc.lft.to/lastmile_qr_scan", "android": "https://dc.lft.to/lastmile_qr_scan"}, "is_reserved": 0, "lon": -77.024544, "fusion_lat": 0.0, "name": "4f5c70e4b0e9237c457181c9df1e3e46"}, {"type": "electric_scooter", "fusion_lon": 0.0, "bike_id": "4d27177faf97f9e95e8bb8eed42499fe", "is_disabled": 0, "lat": 38.925111333333334, "rental_uris": {"ios": "https://dc.lft.to/lastmile_qr_scan", "android": "https://dc.lft.to/lastmile_qr_scan"}, "is_reserved": 0, "lon": -77.02255966666667, "fusion_lat": 0.0, "name": "4d27177faf97f9e95e8bb8eed42499fe"}, {"type": "electric_scooter", "fusion_lon": 0.0, "bike_id": "e5996c6c1cf8d99462757b2939ae05fe", "is_disabled": 0, "lat": 38.887165333333336, "rental_uris": {"ios": "https://dc.lft.to/lastmile_qr_scan", "android": "https://dc.lft.to/lastmile_qr_scan"}, "is_reserved": 0, "lon": -77.02210083333334, "fusion_lat": 0.0, "name": "e5996c6c1cf8d99462757b2939ae05fe"}, {"type": "electric_scooter", "fusion_lon": 0.0, "bike_id": "f5816b084ca7bba81bcc6117b3b6b2bf", "is_disabled": 0, "lat": 38.9084495, "rental_uris": {"ios": "https://dc.lft.to/lastmile_qr_scan", "android": "https://dc.lft.to/lastmile_qr_scan"}, "is_reserved": 0, "lon": -77.038587, "fusion_lat": 0.0, "name": "f5816b084ca7bba81bcc6117b3b6b2bf"}, {"type": "electric_scooter", "fusion_lon": 0.0, "bike_id": "90fb023d9bfe6eee667f294362cc0192", "is_disabled": 0, "lat": 38.906495, "rental_uris": {"ios": "https://dc.lft.to/lastmile_qr_scan", "android": "https://dc.lft.to/lastmile_qr_scan"}, "is_reserved": 0, "lon": -76.98379033333333, "fusion_lat": 0.0, "name": "90fb023d9bfe6eee667f294362cc0192"}, {"type": "electric_scooter", "fusion_lon": 0.0, "bike_id": "d55b7e91ce71dcbf09a073320c3aed91", "is_disabled": 0, "lat": 38.92874333333334, "rental_uris": {"ios": "https://dc.lft.to/lastmile_qr_scan", "android": "https://dc.lft.to/lastmile_qr_scan"}, "is_reserved": 0, "lon": -77.031024, "fusion_lat": 0.0, "name": "d55b7e91ce71dcbf09a073320c3aed91"}, {"type": "electric_scooter", "fusion_lon": 0.0, "bike_id": "c9636adb9a71b6cf84dfaf0c4610c264", "is_disabled": 0, "lat": 38.89591566666667, "rental_uris": {"ios": "https://dc.lft.to/lastmile_qr_scan", "android": "https://dc.lft.to/lastmile_qr_scan"}, "is_reserved": 0, "lon": -77.0475305, "fusion_lat": 0.0, "name": "c9636adb9a71b6cf84dfaf0c4610c264"}, {"type": "electric_scooter", "fusion_lon": 0.0, "bike_id": "84999ad770bb77e7719b78bbca697173", "is_disabled": 0, "lat": 38.89174783333333, "rental_uris": {"ios": "https://dc.lft.to/lastmile_qr_scan", "android": "https://dc.lft.to/lastmile_qr_scan"}, "is_reserved": 0, "lon": -76.92664566666667, "fusion_lat": 0.0, "name": "84999ad770bb77e7719b78bbca697173"}, {"type": "electric_scooter", "fusion_lon": 0.0, "bike_id": "5913301d132ac8076cf2e28064f7bdf5", "is_disabled": 0, "lat": 38.89218366666667, "rental_uris": {"ios": "https://dc.lft.to/lastmile_qr_scan", "android": "https://dc.lft.to/lastmile_qr_scan"}, "is_reserved": 0, "lon": -77.03340333333334, "fusion_lat": 0.0, "name": "5913301d132ac8076cf2e28064f7bdf5"}, {"type": "electric_scooter", "fusion_lon": 0.0, "bike_id": "1e020f2d4cc1edf2b182ce560ae5c5c9", "is_disabled": 0, "lat": 38.91198983333334, "rental_uris": {"ios": "https://dc.lft.to/lastmile_qr_scan", "android": "https://dc.lft.to/lastmile_qr_scan"}, "is_reserved": 0, "lon": -76.98775333333333, "fusion_lat": 0.0, "name": "1e020f2d4cc1edf2b182ce560ae5c5c9"}, {"type": "electric_bike", "fusion_lon": 0.0, "bike_id": "f344d91f2a2bda207ccbd1c9037e5a6b", "is_disabled": 0, "lat": 38.819892333333335, "rental_uris": {"ios": "https://dc.lft.to/lastmile_qr_scan", "android": "https://dc.lft.to/lastmile_qr_scan"}, "is_reserved": 0, "lon": -76.99804283333333, "fusion_lat": 0.0, "name": "f344d91f2a2bda207ccbd1c9037e5a6b"}, {"type": "electric_scooter", "fusion_lon": 0.0, "bike_id": "47764a1c519087e23bced6e03454463c", "is_disabled": 0, "lat": 38.92447533333333, "rental_uris": {"ios": "https://dc.lft.to/lastmile_qr_scan", "android": "https://dc.lft.to/lastmile_qr_scan"}, "is_reserved": 0, "lon": -76.98987833333334, "fusion_lat": 0.0, "name": "47764a1c519087e23bced6e03454463c"}, {"type": "electric_scooter", "fusion_lon": 0.0, "bike_id": "0daf5cd7b174e5a7190250f1f38ab845", "is_disabled": 0, "lat": 38.871744166666666, "rental_uris": {"ios": "https://dc.lft.to/lastmile_qr_scan", "android": "https://dc.lft.to/lastmile_qr_scan"}, "is_reserved": 0, "lon": -77.00582033333333, "fusion_lat": 0.0, "name": "0daf5cd7b174e5a7190250f1f38ab845"}, {"type": "electric_scooter", "fusion_lon": 0.0, "bike_id": "8425e4232764dc61781f9c3557fd30bb", "is_disabled": 0, "lat": 38.902242666666666, "rental_uris": {"ios": "https://dc.lft.to/lastmile_qr_scan", "android": "https://dc.lft.to/lastmile_qr_scan"}, "is_reserved": 0, "lon": -77.03772266666667, "fusion_lat": 0.0, "name": "8425e4232764dc61781f9c3557fd30bb"}, {"type": "electric_bike", "fusion_lon": 0.0, "bike_id": "b193b24fee0e4370f659512e5eb45131", "is_disabled": 0, "lat": 38.90386683333333, "rental_uris": {"ios": "https://dc.lft.to/lastmile_qr_scan", "android": "https://dc.lft.to/lastmile_qr_scan"}, "is_reserved": 0, "lon": -77.017925, "fusion_lat": 0.0, "name": "b193b24fee0e4370f659512e5eb45131"}, {"type": "electric_scooter", "fusion_lon": 0.0, "bike_id": "d741f79846891457a2b87318cdf0f14f", "is_disabled": 0, "lat": 38.91856283333333, "rental_uris": {"ios": "https://dc.lft.to/lastmile_qr_scan", "android": "https://dc.lft.to/lastmile_qr_scan"}, "is_reserved": 0, "lon": -77.089982, "fusion_lat": 0.0, "name": "d741f79846891457a2b87318cdf0f14f"}, {"type": "electric_scooter", "fusion_lon": 0.0, "bike_id": "a647bbe37e8c2dd1319d34987d6248fa", "is_disabled": 0, "lat": 38.91780283333333, "rental_uris": {"ios": "https://dc.lft.to/lastmile_qr_scan", "android": "https://dc.lft.to/lastmile_qr_scan"}, "is_reserved": 0, "lon": -77.0230995, "fusion_lat": 0.0, "name": "a647bbe37e8c2dd1319d34987d6248fa"}, {"type": "electric_scooter", "fusion_lon": 0.0, "bike_id": "ccc7cf9e5a197b03d99189278c9eaa8d", "is_disabled": 0, "lat": 38.921405166666666, "rental_uris": {"ios": "https://dc.lft.to/lastmile_qr_scan", "android": "https://dc.lft.to/lastmile_qr_scan"}, "is_reserved": 0, "lon": -77.03512366666666, "fusion_lat": 0.0, "name": "ccc7cf9e5a197b03d99189278c9eaa8d"}, {"type": "electric_scooter", "fusion_lon": 0.0, "bike_id": "03c8cfcd872e674f7ead8921bcd1bc31", "is_disabled": 0, "lat": 38.905494, "rental_uris": {"ios": "https://dc.lft.to/lastmile_qr_scan", "android": "https://dc.lft.to/lastmile_qr_scan"}, "is_reserved": 0, "lon": -77.01413366666667, "fusion_lat": 0.0, "name": "03c8cfcd872e674f7ead8921bcd1bc31"}, {"type": "electric_bike", "fusion_lon": 0.0, "bike_id": "8a0a5eef510281bc9651fd3b5f110782", "is_disabled": 0, "lat": 38.880225333333335, "rental_uris": {"ios": "https://dc.lft.to/lastmile_qr_scan", "android": "https://dc.lft.to/lastmile_qr_scan"}, "is_reserved": 0, "lon": -76.91722866666667, "fusion_lat": 0.0, "name": "8a0a5eef510281bc9651fd3b5f110782"}, {"type": "electric_scooter", "fusion_lon": 0.0, "bike_id": "721d5ba0e4cf5b6def26b9effcabe42c", "is_disabled": 0, "lat": 38.915511333333335, "rental_uris": {"ios": "https://dc.lft.to/lastmile_qr_scan", "android": "https://dc.lft.to/lastmile_qr_scan"}, "is_reserved": 0, "lon": -77.03857633333334, "fusion_lat": 0.0, "name": "721d5ba0e4cf5b6def26b9effcabe42c"}, {"type": "electric_scooter", "fusion_lon": 0.0, "bike_id": "0dcf5881c5bcbf9eaecf78b6cb3c3bff", "is_disabled": 0, "lat": 38.92395416666667, "rental_uris": {"ios": "https://dc.lft.to/lastmile_qr_scan", "android": "https://dc.lft.to/lastmile_qr_scan"}, "is_reserved": 0, "lon": -77.024338, "fusion_lat": 0.0, "name": "0dcf5881c5bcbf9eaecf78b6cb3c3bff"}, {"type": "electric_scooter", "fusion_lon": 0.0, "bike_id": "640da1f3d780510159e2aa598a587f4d", "is_disabled": 0, "lat": 38.973697333333334, "rental_uris": {"ios": "https://dc.lft.to/lastmile_qr_scan", "android": "https://dc.lft.to/lastmile_qr_scan"}, "is_reserved": 0, "lon": -77.01852716666667, "fusion_lat": 0.0, "name": "640da1f3d780510159e2aa598a587f4d"}, {"type": "electric_scooter", "fusion_lon": 0.0, "bike_id": "a21f1f2cad51eb67d74f5fc9c87c70ad", "is_disabled": 0, "lat": 38.91519483333333, "rental_uris": {"ios": "https://dc.lft.to/lastmile_qr_scan", "android": "https://dc.lft.to/lastmile_qr_scan"}, "is_reserved": 0, "lon": -77.01226883333334, "fusion_lat": 0.0, "name": "a21f1f2cad51eb67d74f5fc9c87c70ad"}, {"type": "electric_scooter", "fusion_lon": 0.0, "bike_id": "1b7c356bc47ab3d23e0cec31ba1cc6f6", "is_disabled": 0, "lat": 38.90361883333333, "rental_uris": {"ios": "https://dc.lft.to/lastmile_qr_scan", "android": "https://dc.lft.to/lastmile_qr_scan"}, "is_reserved": 0, "lon": -77.0400185, "fusion_lat": 0.0, "name": "1b7c356bc47ab3d23e0cec31ba1cc6f6"}, {"type": "electric_bike", "fusion_lon": 0.0, "bike_id": "60e76c2c092569162173f0cfe368ecb2", "is_disabled": 0, "lat": 38.831051, "rental_uris": {"ios": "https://dc.lft.to/lastmile_qr_scan", "android": "https://dc.lft.to/lastmile_qr_scan"}, "is_reserved": 0, "lon": -77.11286833333334, "fusion_lat": 0.0, "name": "60e76c2c092569162173f0cfe368ecb2"}, {"type": "electric_scooter", "fusion_lon": 0.0, "bike_id": "4580172c20c7c57e54bfca3e1d03b136", "is_disabled": 0, "lat": 38.913406, "rental_uris": {"ios": "https://dc.lft.to/lastmile_qr_scan", "android": "https://dc.lft.to/lastmile_qr_scan"}, "is_reserved": 0, "lon": -77.06324183333334, "fusion_lat": 0.0, "name": "4580172c20c7c57e54bfca3e1d03b136"}, {"type": "electric_scooter", "fusion_lon": 0.0, "bike_id": "21889f74711e819760ebd279745c5890", "is_disabled": 0, "lat": 38.909748, "rental_uris": {"ios": "https://dc.lft.to/lastmile_qr_scan", "android": "https://dc.lft.to/lastmile_qr_scan"}, "is_reserved": 0, "lon": -77.03845233333334, "fusion_lat": 0.0, "name": "21889f74711e819760ebd279745c5890"}, {"type": "electric_scooter", "fusion_lon": 0.0, "bike_id": "6784ccbdacc0efa9619e81f6d291eb85", "is_disabled": 0, "lat": 38.913538, "rental_uris": {"ios": "https://dc.lft.to/lastmile_qr_scan", "android": "https://dc.lft.to/lastmile_qr_scan"}, "is_reserved": 0, "lon": -77.0294735, "fusion_lat": 0.0, "name": "6784ccbdacc0efa9619e81f6d291eb85"}, {"type": "electric_bike", "fusion_lon": 0.0, "bike_id": "b8af340fff233328dd3f9c6144880b7f", "is_disabled": 0, "lat": 38.9001315, "rental_uris": {"ios": "https://dc.lft.to/lastmile_qr_scan", "android": "https://dc.lft.to/lastmile_qr_scan"}, "is_reserved": 0, "lon": -77.0054885, "fusion_lat": 0.0, "name": "b8af340fff233328dd3f9c6144880b7f"}, {"type": "electric_scooter", "fusion_lon": 0.0, "bike_id": "0966ebb79b46ae7484d758ff7caa22a7", "is_disabled": 0, "lat": 38.92898183333333, "rental_uris": {"ios": "https://dc.lft.to/lastmile_qr_scan", "android": "https://dc.lft.to/lastmile_qr_scan"}, "is_reserved": 0, "lon": -77.05810233333334, "fusion_lat": 0.0, "name": "0966ebb79b46ae7484d758ff7caa22a7"}, {"type": "electric_scooter", "fusion_lon": 0.0, "bike_id": "faf175c0f1302a04660eaaab5cd16b7e", "is_disabled": 0, "lat": 38.92456033333333, "rental_uris": {"ios": "https://dc.lft.to/lastmile_qr_scan", "android": "https://dc.lft.to/lastmile_qr_scan"}, "is_reserved": 0, "lon": -77.03289283333334, "fusion_lat": 0.0, "name": "faf175c0f1302a04660eaaab5cd16b7e"}, {"type": "electric_scooter", "fusion_lon": 0.0, "bike_id": "203003a5fd29b13ceda75f41e51eac81", "is_disabled": 0, "lat": 38.908582333333335, "rental_uris": {"ios": "https://dc.lft.to/lastmile_qr_scan", "android": "https://dc.lft.to/lastmile_qr_scan"}, "is_reserved": 0, "lon": -77.03491616666666, "fusion_lat": 0.0, "name": "203003a5fd29b13ceda75f41e51eac81"}, {"type": "electric_scooter", "fusion_lon": 0.0, "bike_id": "da9a792fd3dd8bb47b8cff0985b8a799", "is_disabled": 0, "lat": 38.9098265, "rental_uris": {"ios": "https://dc.lft.to/lastmile_qr_scan", "android": "https://dc.lft.to/lastmile_qr_scan"}, "is_reserved": 0, "lon": -77.03438566666667, "fusion_lat": 0.0, "name": "da9a792fd3dd8bb47b8cff0985b8a799"}, {"type": "electric_scooter", "fusion_lon": 0.0, "bike_id": "a1b54108a731ea867311db2bb4765c85", "is_disabled": 0, "lat": 38.925037333333336, "rental_uris": {"ios": "https://dc.lft.to/lastmile_qr_scan", "android": "https://dc.lft.to/lastmile_qr_scan"}, "is_reserved": 0, "lon": -77.02404116666666, "fusion_lat": 0.0, "name": "a1b54108a731ea867311db2bb4765c85"}, {"type": "electric_bike", "fusion_lon": 0.0, "bike_id": "04ffbfe9fcd5e9df7b8259ecf872b167", "is_disabled": 0, "lat": 38.946323666666665, "rental_uris": {"ios": "https://dc.lft.to/lastmile_qr_scan", "android": "https://dc.lft.to/lastmile_qr_scan"}, "is_reserved": 0, "lon": -76.993139, "fusion_lat": 0.0, "name": "04ffbfe9fcd5e9df7b8259ecf872b167"}, {"type": "electric_scooter", "fusion_lon": 0.0, "bike_id": "e76e2334269cdfc005c1afd5b7e94cca", "is_disabled": 0, "lat": 38.92070616666667, "rental_uris": {"ios": "https://dc.lft.to/lastmile_qr_scan", "android": "https://dc.lft.to/lastmile_qr_scan"}, "is_reserved": 0, "lon": -77.02300483333333, "fusion_lat": 0.0, "name": "e76e2334269cdfc005c1afd5b7e94cca"}, {"type": "electric_scooter", "fusion_lon": 0.0, "bike_id": "a414f35219ec5389b75c967b0edccc3c", "is_disabled": 0, "lat": 38.898548166666664, "rental_uris": {"ios": "https://dc.lft.to/lastmile_qr_scan", "android": "https://dc.lft.to/lastmile_qr_scan"}, "is_reserved": 0, "lon": -77.0258725, "fusion_lat": 0.0, "name": "a414f35219ec5389b75c967b0edccc3c"}, {"type": "electric_scooter", "fusion_lon": 0.0, "bike_id": "e1db831986677325c35057a87412fc24", "is_disabled": 0, "lat": 38.87474, "rental_uris": {"ios": "https://dc.lft.to/lastmile_qr_scan", "android": "https://dc.lft.to/lastmile_qr_scan"}, "is_reserved": 0, "lon": -77.005564, "fusion_lat": 0.0, "name": "e1db831986677325c35057a87412fc24"}, {"type": "electric_scooter", "fusion_lon": 0.0, "bike_id": "7808a8a17c99e67184f6a3712594e895", "is_disabled": 0, "lat": 38.927095666666666, "rental_uris": {"ios": "https://dc.lft.to/lastmile_qr_scan", "android": "https://dc.lft.to/lastmile_qr_scan"}, "is_reserved": 0, "lon": -77.02100866666666, "fusion_lat": 0.0, "name": "7808a8a17c99e67184f6a3712594e895"}, {"type": "electric_bike", "fusion_lon": 0.0, "bike_id": "8b2739068582addc5a35f8f9c919a525", "is_disabled": 0, "lat": 38.919894, "rental_uris": {"ios": "https://dc.lft.to/lastmile_qr_scan", "android": "https://dc.lft.to/lastmile_qr_scan"}, "is_reserved": 0, "lon": -76.95822766666667, "fusion_lat": 0.0, "name": "8b2739068582addc5a35f8f9c919a525"}, {"type": "electric_scooter", "fusion_lon": 0.0, "bike_id": "a4fe3cd4de0f55bba53ffdfbcd6ab01f", "is_disabled": 0, "lat": 38.907369833333334, "rental_uris": {"ios": "https://dc.lft.to/lastmile_qr_scan", "android": "https://dc.lft.to/lastmile_qr_scan"}, "is_reserved": 0, "lon": -76.97982483333334, "fusion_lat": 0.0, "name": "a4fe3cd4de0f55bba53ffdfbcd6ab01f"}, {"type": "electric_scooter", "fusion_lon": 0.0, "bike_id": "6bdcd84662c45870d4223aa4bb068ea8", "is_disabled": 0, "lat": 38.90409916666667, "rental_uris": {"ios": "https://dc.lft.to/lastmile_qr_scan", "android": "https://dc.lft.to/lastmile_qr_scan"}, "is_reserved": 0, "lon": -76.97332583333333, "fusion_lat": 0.0, "name": "6bdcd84662c45870d4223aa4bb068ea8"}, {"type": "electric_scooter", "fusion_lon": 0.0, "bike_id": "c93f060d292eb4ef5d97090577862894", "is_disabled": 0, "lat": 38.93519516666667, "rental_uris": {"ios": "https://dc.lft.to/lastmile_qr_scan", "android": "https://dc.lft.to/lastmile_qr_scan"}, "is_reserved": 0, "lon": -77.0241785, "fusion_lat": 0.0, "name": "c93f060d292eb4ef5d97090577862894"}, {"type": "electric_scooter", "fusion_lon": 0.0, "bike_id": "1388fd84020106db5eb9b8eb85d56e4e", "is_disabled": 0, "lat": 38.9226225, "rental_uris": {"ios": "https://dc.lft.to/lastmile_qr_scan", "android": "https://dc.lft.to/lastmile_qr_scan"}, "is_reserved": 0, "lon": -77.02961966666666, "fusion_lat": 0.0, "name": "1388fd84020106db5eb9b8eb85d56e4e"}, {"type": "electric_scooter", "fusion_lon": 0.0, "bike_id": "9701bd58f260ac3121fc22a37bcd0854", "is_disabled": 0, "lat": 38.948286833333334, "rental_uris": {"ios": "https://dc.lft.to/lastmile_qr_scan", "android": "https://dc.lft.to/lastmile_qr_scan"}, "is_reserved": 0, "lon": -77.02465966666666, "fusion_lat": 0.0, "name": "9701bd58f260ac3121fc22a37bcd0854"}, {"type": "electric_scooter", "fusion_lon": 0.0, "bike_id": "93bcc242c2b2137f3342104805fb8b40", "is_disabled": 0, "lat": 38.91560233333333, "rental_uris": {"ios": "https://dc.lft.to/lastmile_qr_scan", "android": "https://dc.lft.to/lastmile_qr_scan"}, "is_reserved": 0, "lon": -77.044638, "fusion_lat": 0.0, "name": "93bcc242c2b2137f3342104805fb8b40"}, {"type": "electric_scooter", "fusion_lon": 0.0, "bike_id": "8d83508257d1f1e1111a278035cb4b41", "is_disabled": 0, "lat": 38.8960225, "rental_uris": {"ios": "https://dc.lft.to/lastmile_qr_scan", "android": "https://dc.lft.to/lastmile_qr_scan"}, "is_reserved": 0, "lon": -77.04555916666666, "fusion_lat": 0.0, "name": "8d83508257d1f1e1111a278035cb4b41"}, {"type": "electric_scooter", "fusion_lon": 0.0, "bike_id": "7a68de1c31c6b970872e3b3f63b042cb", "is_disabled": 0, "lat": 38.90757583333333, "rental_uris": {"ios": "https://dc.lft.to/lastmile_qr_scan", "android": "https://dc.lft.to/lastmile_qr_scan"}, "is_reserved": 0, "lon": -77.03581983333333, "fusion_lat": 0.0, "name": "7a68de1c31c6b970872e3b3f63b042cb"}, {"type": "electric_scooter", "fusion_lon": 0.0, "bike_id": "c61a376e3c8a8da56403fd2143201d2c", "is_disabled": 0, "lat": 38.92351583333333, "rental_uris": {"ios": "https://dc.lft.to/lastmile_qr_scan", "android": "https://dc.lft.to/lastmile_qr_scan"}, "is_reserved": 0, "lon": -77.03650816666666, "fusion_lat": 0.0, "name": "c61a376e3c8a8da56403fd2143201d2c"}, {"type": "electric_scooter", "fusion_lon": 0.0, "bike_id": "3478878769a86316a3d6733ba191b7ce", "is_disabled": 0, "lat": 38.9082405, "rental_uris": {"ios": "https://dc.lft.to/lastmile_qr_scan", "android": "https://dc.lft.to/lastmile_qr_scan"}, "is_reserved": 0, "lon": -77.043464, "fusion_lat": 0.0, "name": "3478878769a86316a3d6733ba191b7ce"}, {"type": "electric_scooter", "fusion_lon": 0.0, "bike_id": "68d72f8978367b8069536dc29cb07380", "is_disabled": 0, "lat": 38.930783166666664, "rental_uris": {"ios": "https://dc.lft.to/lastmile_qr_scan", "android": "https://dc.lft.to/lastmile_qr_scan"}, "is_reserved": 0, "lon": -77.02468666666667, "fusion_lat": 0.0, "name": "68d72f8978367b8069536dc29cb07380"}, {"type": "electric_scooter", "fusion_lon": 0.0, "bike_id": "ced32748cfa501f8ed097d8626d0205f", "is_disabled": 0, "lat": 38.914026, "rental_uris": {"ios": "https://dc.lft.to/lastmile_qr_scan", "android": "https://dc.lft.to/lastmile_qr_scan"}, "is_reserved": 0, "lon": -77.06420883333334, "fusion_lat": 0.0, "name": "ced32748cfa501f8ed097d8626d0205f"}, {"type": "electric_scooter", "fusion_lon": 0.0, "bike_id": "3841c3437225d29b95309d602c88feb1", "is_disabled": 0, "lat": 38.93328433333333, "rental_uris": {"ios": "https://dc.lft.to/lastmile_qr_scan", "android": "https://dc.lft.to/lastmile_qr_scan"}, "is_reserved": 0, "lon": -77.03030966666667, "fusion_lat": 0.0, "name": "3841c3437225d29b95309d602c88feb1"}, {"type": "electric_scooter", "fusion_lon": 0.0, "bike_id": "bcd6a4f5d293bcdc8eaec3e29443d130", "is_disabled": 0, "lat": 38.9198335, "rental_uris": {"ios": "https://dc.lft.to/lastmile_qr_scan", "android": "https://dc.lft.to/lastmile_qr_scan"}, "is_reserved": 0, "lon": -77.0417225, "fusion_lat": 0.0, "name": "bcd6a4f5d293bcdc8eaec3e29443d130"}, {"type": "electric_scooter", "fusion_lon": 0.0, "bike_id": "f6c0da6d3711154da1d759a85d7f9a86", "is_disabled": 0, "lat": 38.9209865, "rental_uris": {"ios": "https://dc.lft.to/lastmile_qr_scan", "android": "https://dc.lft.to/lastmile_qr_scan"}, "is_reserved": 0, "lon": -77.04703116666667, "fusion_lat": 0.0, "name": "f6c0da6d3711154da1d759a85d7f9a86"}, {"type": "electric_scooter", "fusion_lon": 0.0, "bike_id": "8243974aaa7e5abcc9c496509939fd4d", "is_disabled": 0, "lat": 38.9013145, "rental_uris": {"ios": "https://dc.lft.to/lastmile_qr_scan", "android": "https://dc.lft.to/lastmile_qr_scan"}, "is_reserved": 0, "lon": -77.04035833333333, "fusion_lat": 0.0, "name": "8243974aaa7e5abcc9c496509939fd4d"}, {"type": "electric_scooter", "fusion_lon": 0.0, "bike_id": "61be65452845d63a63d82c0e85a24db4", "is_disabled": 0, "lat": 38.941909833333334, "rental_uris": {"ios": "https://dc.lft.to/lastmile_qr_scan", "android": "https://dc.lft.to/lastmile_qr_scan"}, "is_reserved": 0, "lon": -77.029597, "fusion_lat": 0.0, "name": "61be65452845d63a63d82c0e85a24db4"}, {"type": "electric_scooter", "fusion_lon": 0.0, "bike_id": "cc2524e625d2de6ac3afcbd5835b9dbb", "is_disabled": 0, "lat": 38.8783655, "rental_uris": {"ios": "https://dc.lft.to/lastmile_qr_scan", "android": "https://dc.lft.to/lastmile_qr_scan"}, "is_reserved": 0, "lon": -77.0004155, "fusion_lat": 0.0, "name": "cc2524e625d2de6ac3afcbd5835b9dbb"}, {"type": "electric_scooter", "fusion_lon": 0.0, "bike_id": "7811d666b136b1b83b5990de6c4f25cb", "is_disabled": 0, "lat": 38.90114483333333, "rental_uris": {"ios": "https://dc.lft.to/lastmile_qr_scan", "android": "https://dc.lft.to/lastmile_qr_scan"}, "is_reserved": 0, "lon": -77.04987383333334, "fusion_lat": 0.0, "name": "7811d666b136b1b83b5990de6c4f25cb"}, {"type": "electric_scooter", "fusion_lon": 0.0, "bike_id": "7dc7717041624394ef9f476fc65d38a6", "is_disabled": 0, "lat": 38.8995825, "rental_uris": {"ios": "https://dc.lft.to/lastmile_qr_scan", "android": "https://dc.lft.to/lastmile_qr_scan"}, "is_reserved": 0, "lon": -77.04139833333333, "fusion_lat": 0.0, "name": "7dc7717041624394ef9f476fc65d38a6"}, {"type": "electric_scooter", "fusion_lon": 0.0, "bike_id": "feb9be46d4bb9e35e0c06bf019f4543b", "is_disabled": 0, "lat": 38.9200255, "rental_uris": {"ios": "https://dc.lft.to/lastmile_qr_scan", "android": "https://dc.lft.to/lastmile_qr_scan"}, "is_reserved": 0, "lon": -77.032218, "fusion_lat": 0.0, "name": "feb9be46d4bb9e35e0c06bf019f4543b"}, {"type": "electric_scooter", "fusion_lon": 0.0, "bike_id": "84a97443f056a471f1796efed59ce145", "is_disabled": 0, "lat": 38.897343166666666, "rental_uris": {"ios": "https://dc.lft.to/lastmile_qr_scan", "android": "https://dc.lft.to/lastmile_qr_scan"}, "is_reserved": 0, "lon": -77.055188, "fusion_lat": 0.0, "name": "84a97443f056a471f1796efed59ce145"}, {"type": "electric_scooter", "fusion_lon": 0.0, "bike_id": "7d8fc3af9df4d25fd8f3023d7179ddf6", "is_disabled": 0, "lat": 38.9052765, "rental_uris": {"ios": "https://dc.lft.to/lastmile_qr_scan", "android": "https://dc.lft.to/lastmile_qr_scan"}, "is_reserved": 0, "lon": -77.0593655, "fusion_lat": 0.0, "name": "7d8fc3af9df4d25fd8f3023d7179ddf6"}, {"type": "electric_scooter", "fusion_lon": 0.0, "bike_id": "075d628c47fed4e2baf1549e544f0ae9", "is_disabled": 0, "lat": 38.91815666666667, "rental_uris": {"ios": "https://dc.lft.to/lastmile_qr_scan", "android": "https://dc.lft.to/lastmile_qr_scan"}, "is_reserved": 0, "lon": -77.02893066666667, "fusion_lat": 0.0, "name": "075d628c47fed4e2baf1549e544f0ae9"}, {"type": "electric_bike", "fusion_lon": 0.0, "bike_id": "f33ed0dd6c55f571c80a36037259e912", "is_disabled": 0, "lat": 38.87576583333333, "rental_uris": {"ios": "https://dc.lft.to/lastmile_qr_scan", "android": "https://dc.lft.to/lastmile_qr_scan"}, "is_reserved": 0, "lon": -77.2341185, "fusion_lat": 0.0, "name": "f33ed0dd6c55f571c80a36037259e912"}, {"type": "electric_scooter", "fusion_lon": 0.0, "bike_id": "348f66fc898a792236fb5b9eddae815c", "is_disabled": 0, "lat": 38.91130583333333, "rental_uris": {"ios": "https://dc.lft.to/lastmile_qr_scan", "android": "https://dc.lft.to/lastmile_qr_scan"}, "is_reserved": 0, "lon": -77.02207333333334, "fusion_lat": 0.0, "name": "348f66fc898a792236fb5b9eddae815c"}, {"type": "electric_scooter", "fusion_lon": 0.0, "bike_id": "556189582985d76d01fb88a213a76c4f", "is_disabled": 0, "lat": 38.90556466666666, "rental_uris": {"ios": "https://dc.lft.to/lastmile_qr_scan", "android": "https://dc.lft.to/lastmile_qr_scan"}, "is_reserved": 0, "lon": -77.00725866666667, "fusion_lat": 0.0, "name": "556189582985d76d01fb88a213a76c4f"}, {"type": "electric_scooter", "fusion_lon": 0.0, "bike_id": "aa0bbedf2560a07784e0ae7d78dc9a00", "is_disabled": 0, "lat": 38.920334, "rental_uris": {"ios": "https://dc.lft.to/lastmile_qr_scan", "android": "https://dc.lft.to/lastmile_qr_scan"}, "is_reserved": 0, "lon": -77.0122065, "fusion_lat": 0.0, "name": "aa0bbedf2560a07784e0ae7d78dc9a00"}, {"type": "electric_scooter", "fusion_lon": 0.0, "bike_id": "92666ea0c04b396a878b98bf53210481", "is_disabled": 0, "lat": 38.93538433333333, "rental_uris": {"ios": "https://dc.lft.to/lastmile_qr_scan", "android": "https://dc.lft.to/lastmile_qr_scan"}, "is_reserved": 0, "lon": -77.02349466666666, "fusion_lat": 0.0, "name": "92666ea0c04b396a878b98bf53210481"}, {"type": "electric_scooter", "fusion_lon": 0.0, "bike_id": "e60c7297e9527504582c86586560d1a5", "is_disabled": 0, "lat": 38.892220333333334, "rental_uris": {"ios": "https://dc.lft.to/lastmile_qr_scan", "android": "https://dc.lft.to/lastmile_qr_scan"}, "is_reserved": 0, "lon": -77.04812333333334, "fusion_lat": 0.0, "name": "e60c7297e9527504582c86586560d1a5"}, {"type": "electric_scooter", "fusion_lon": 0.0, "bike_id": "5130753adb89b6a53addb10290457398", "is_disabled": 0, "lat": 38.9050975, "rental_uris": {"ios": "https://dc.lft.to/lastmile_qr_scan", "android": "https://dc.lft.to/lastmile_qr_scan"}, "is_reserved": 0, "lon": -77.04478583333334, "fusion_lat": 0.0, "name": "5130753adb89b6a53addb10290457398"}, {"type": "electric_scooter", "fusion_lon": 0.0, "bike_id": "1370b8af068bd1421e6246a9d014bcbd", "is_disabled": 0, "lat": 38.905534, "rental_uris": {"ios": "https://dc.lft.to/lastmile_qr_scan", "android": "https://dc.lft.to/lastmile_qr_scan"}, "is_reserved": 0, "lon": -77.03472683333334, "fusion_lat": 0.0, "name": "1370b8af068bd1421e6246a9d014bcbd"}, {"type": "electric_scooter", "fusion_lon": 0.0, "bike_id": "698d66654953fcefcee2be11de379da5", "is_disabled": 0, "lat": 38.865025, "rental_uris": {"ios": "https://dc.lft.to/lastmile_qr_scan", "android": "https://dc.lft.to/lastmile_qr_scan"}, "is_reserved": 0, "lon": -76.98988016666667, "fusion_lat": 0.0, "name": "698d66654953fcefcee2be11de379da5"}, {"type": "electric_scooter", "fusion_lon": 0.0, "bike_id": "940a8ad0df1536f4401b3116ecc256a7", "is_disabled": 0, "lat": 38.93431116666667, "rental_uris": {"ios": "https://dc.lft.to/lastmile_qr_scan", "android": "https://dc.lft.to/lastmile_qr_scan"}, "is_reserved": 0, "lon": -77.0400115, "fusion_lat": 0.0, "name": "940a8ad0df1536f4401b3116ecc256a7"}, {"type": "electric_scooter", "fusion_lon": 0.0, "bike_id": "c6ef85b19fa54ac67eef7d34e36203d7", "is_disabled": 0, "lat": 38.928596166666665, "rental_uris": {"ios": "https://dc.lft.to/lastmile_qr_scan", "android": "https://dc.lft.to/lastmile_qr_scan"}, "is_reserved": 0, "lon": -77.01370933333334, "fusion_lat": 0.0, "name": "c6ef85b19fa54ac67eef7d34e36203d7"}, {"type": "electric_scooter", "fusion_lon": 0.0, "bike_id": "17608445d6a5b8b07007338d8fd168dd", "is_disabled": 0, "lat": 38.912835, "rental_uris": {"ios": "https://dc.lft.to/lastmile_qr_scan", "android": "https://dc.lft.to/lastmile_qr_scan"}, "is_reserved": 0, "lon": -77.045191, "fusion_lat": 0.0, "name": "17608445d6a5b8b07007338d8fd168dd"}, {"type": "electric_scooter", "fusion_lon": 0.0, "bike_id": "9d315fd6a93a4c1db9af172744d9ea20", "is_disabled": 0, "lat": 38.906690833333336, "rental_uris": {"ios": "https://dc.lft.to/lastmile_qr_scan", "android": "https://dc.lft.to/lastmile_qr_scan"}, "is_reserved": 0, "lon": -77.029704, "fusion_lat": 0.0, "name": "9d315fd6a93a4c1db9af172744d9ea20"}, {"type": "electric_scooter", "fusion_lon": 0.0, "bike_id": "a6e554aeefca1897595e383f983174b6", "is_disabled": 0, "lat": 38.8873685, "rental_uris": {"ios": "https://dc.lft.to/lastmile_qr_scan", "android": "https://dc.lft.to/lastmile_qr_scan"}, "is_reserved": 0, "lon": -77.023852, "fusion_lat": 0.0, "name": "a6e554aeefca1897595e383f983174b6"}, {"type": "electric_scooter", "fusion_lon": 0.0, "bike_id": "35deae4761280869156c6b691501fd6e", "is_disabled": 0, "lat": 38.941918, "rental_uris": {"ios": "https://dc.lft.to/lastmile_qr_scan", "android": "https://dc.lft.to/lastmile_qr_scan"}, "is_reserved": 0, "lon": -77.03843383333333, "fusion_lat": 0.0, "name": "35deae4761280869156c6b691501fd6e"}, {"type": "electric_scooter", "fusion_lon": 0.0, "bike_id": "d82bfa62e486db7184508ea5bbf425ab", "is_disabled": 0, "lat": 38.90234066666667, "rental_uris": {"ios": "https://dc.lft.to/lastmile_qr_scan", "android": "https://dc.lft.to/lastmile_qr_scan"}, "is_reserved": 0, "lon": -77.0165605, "fusion_lat": 0.0, "name": "d82bfa62e486db7184508ea5bbf425ab"}, {"type": "electric_scooter", "fusion_lon": 0.0, "bike_id": "077fcdd37f4af9217965452000094d87", "is_disabled": 0, "lat": 38.93542866666667, "rental_uris": {"ios": "https://dc.lft.to/lastmile_qr_scan", "android": "https://dc.lft.to/lastmile_qr_scan"}, "is_reserved": 0, "lon": -77.034205, "fusion_lat": 0.0, "name": "077fcdd37f4af9217965452000094d87"}, {"type": "electric_scooter", "fusion_lon": 0.0, "bike_id": "b78a51a68a1dfeff978391c173e61e52", "is_disabled": 0, "lat": 38.90693433333333, "rental_uris": {"ios": "https://dc.lft.to/lastmile_qr_scan", "android": "https://dc.lft.to/lastmile_qr_scan"}, "is_reserved": 0, "lon": -76.98510983333334, "fusion_lat": 0.0, "name": "b78a51a68a1dfeff978391c173e61e52"}, {"type": "electric_scooter", "fusion_lon": 0.0, "bike_id": "df9a5595da9df36f7a08bebc1b603f18", "is_disabled": 0, "lat": 38.91185016666667, "rental_uris": {"ios": "https://dc.lft.to/lastmile_qr_scan", "android": "https://dc.lft.to/lastmile_qr_scan"}, "is_reserved": 0, "lon": -77.038068, "fusion_lat": 0.0, "name": "df9a5595da9df36f7a08bebc1b603f18"}, {"type": "electric_scooter", "fusion_lon": 0.0, "bike_id": "3f578f477c23374d93d67e070ece70dd", "is_disabled": 0, "lat": 38.923363333333334, "rental_uris": {"ios": "https://dc.lft.to/lastmile_qr_scan", "android": "https://dc.lft.to/lastmile_qr_scan"}, "is_reserved": 0, "lon": -77.0415475, "fusion_lat": 0.0, "name": "3f578f477c23374d93d67e070ece70dd"}, {"type": "electric_scooter", "fusion_lon": 0.0, "bike_id": "bcae449f696b8250dd40bc5cc3f2237c", "is_disabled": 0, "lat": 38.91285516666667, "rental_uris": {"ios": "https://dc.lft.to/lastmile_qr_scan", "android": "https://dc.lft.to/lastmile_qr_scan"}, "is_reserved": 0, "lon": -77.04516866666667, "fusion_lat": 0.0, "name": "bcae449f696b8250dd40bc5cc3f2237c"}, {"type": "electric_scooter", "fusion_lon": 0.0, "bike_id": "2e317541f80e96d0399c16a69cedcfbd", "is_disabled": 0, "lat": 38.90705583333333, "rental_uris": {"ios": "https://dc.lft.to/lastmile_qr_scan", "android": "https://dc.lft.to/lastmile_qr_scan"}, "is_reserved": 0, "lon": -77.03588716666667, "fusion_lat": 0.0, "name": "2e317541f80e96d0399c16a69cedcfbd"}, {"type": "electric_scooter", "fusion_lon": 0.0, "bike_id": "bdf9669ba72c446b307add973966e0d7", "is_disabled": 0, "lat": 38.898428833333334, "rental_uris": {"ios": "https://dc.lft.to/lastmile_qr_scan", "android": "https://dc.lft.to/lastmile_qr_scan"}, "is_reserved": 0, "lon": -77.048913, "fusion_lat": 0.0, "name": "bdf9669ba72c446b307add973966e0d7"}, {"type": "electric_scooter", "fusion_lon": 0.0, "bike_id": "dce61dba4c3abb564583b341ec41b524", "is_disabled": 0, "lat": 38.919365666666664, "rental_uris": {"ios": "https://dc.lft.to/lastmile_qr_scan", "android": "https://dc.lft.to/lastmile_qr_scan"}, "is_reserved": 0, "lon": -77.03199666666667, "fusion_lat": 0.0, "name": "dce61dba4c3abb564583b341ec41b524"}, {"type": "electric_scooter", "fusion_lon": 0.0, "bike_id": "eabea51f523d0e9728f779fef14b7871", "is_disabled": 0, "lat": 38.90851933333333, "rental_uris": {"ios": "https://dc.lft.to/lastmile_qr_scan", "android": "https://dc.lft.to/lastmile_qr_scan"}, "is_reserved": 0, "lon": -76.99690983333333, "fusion_lat": 0.0, "name": "eabea51f523d0e9728f779fef14b7871"}, {"type": "electric_scooter", "fusion_lon": 0.0, "bike_id": "a7f21fd80b226a89896e453d2b6308d8", "is_disabled": 0, "lat": 38.92418716666667, "rental_uris": {"ios": "https://dc.lft.to/lastmile_qr_scan", "android": "https://dc.lft.to/lastmile_qr_scan"}, "is_reserved": 0, "lon": -77.01955333333333, "fusion_lat": 0.0, "name": "a7f21fd80b226a89896e453d2b6308d8"}, {"type": "electric_scooter", "fusion_lon": 0.0, "bike_id": "0c0c39545d07bded16f83850c271ddfd", "is_disabled": 0, "lat": 38.91031366666667, "rental_uris": {"ios": "https://dc.lft.to/lastmile_qr_scan", "android": "https://dc.lft.to/lastmile_qr_scan"}, "is_reserved": 0, "lon": -77.0341755, "fusion_lat": 0.0, "name": "0c0c39545d07bded16f83850c271ddfd"}, {"type": "electric_scooter", "fusion_lon": 0.0, "bike_id": "4b27b00e5cd7f7e7e37f6432ea3fbcfe", "is_disabled": 0, "lat": 38.894838166666666, "rental_uris": {"ios": "https://dc.lft.to/lastmile_qr_scan", "android": "https://dc.lft.to/lastmile_qr_scan"}, "is_reserved": 0, "lon": -77.00075116666666, "fusion_lat": 0.0, "name": "4b27b00e5cd7f7e7e37f6432ea3fbcfe"}, {"type": "electric_scooter", "fusion_lon": 0.0, "bike_id": "34ed59146ee318f8bac24896ac51955d", "is_disabled": 0, "lat": 38.900381833333334, "rental_uris": {"ios": "https://dc.lft.to/lastmile_qr_scan", "android": "https://dc.lft.to/lastmile_qr_scan"}, "is_reserved": 0, "lon": -77.01791666666666, "fusion_lat": 0.0, "name": "34ed59146ee318f8bac24896ac51955d"}, {"type": "electric_scooter", "fusion_lon": 0.0, "bike_id": "67657c7b872f678621ed6f2ffb233dc7", "is_disabled": 0, "lat": 38.9207605, "rental_uris": {"ios": "https://dc.lft.to/lastmile_qr_scan", "android": "https://dc.lft.to/lastmile_qr_scan"}, "is_reserved": 0, "lon": -77.02502183333333, "fusion_lat": 0.0, "name": "67657c7b872f678621ed6f2ffb233dc7"}, {"type": "electric_scooter", "fusion_lon": 0.0, "bike_id": "edff3b73fe4f05e19dec847bafa841f9", "is_disabled": 0, "lat": 38.8526585, "rental_uris": {"ios": "https://dc.lft.to/lastmile_qr_scan", "android": "https://dc.lft.to/lastmile_qr_scan"}, "is_reserved": 0, "lon": -76.9699625, "fusion_lat": 0.0, "name": "edff3b73fe4f05e19dec847bafa841f9"}, {"type": "electric_scooter", "fusion_lon": 0.0, "bike_id": "0a5f5dfdf2e4d86a5d8b1dcefb5200a8", "is_disabled": 0, "lat": 38.916123, "rental_uris": {"ios": "https://dc.lft.to/lastmile_qr_scan", "android": "https://dc.lft.to/lastmile_qr_scan"}, "is_reserved": 0, "lon": -77.0489715, "fusion_lat": 0.0, "name": "0a5f5dfdf2e4d86a5d8b1dcefb5200a8"}, {"type": "electric_bike", "fusion_lon": 0.0, "bike_id": "fe3853a6ba777d1be6baddb237ef04ec", "is_disabled": 0, "lat": 38.84194033333333, "rental_uris": {"ios": "https://dc.lft.to/lastmile_qr_scan", "android": "https://dc.lft.to/lastmile_qr_scan"}, "is_reserved": 0, "lon": -77.1135745, "fusion_lat": 0.0, "name": "fe3853a6ba777d1be6baddb237ef04ec"}, {"type": "electric_bike", "fusion_lon": 0.0, "bike_id": "b7cc6b3f027c500f92a9a07eed41af48", "is_disabled": 0, "lat": 39.034279833333336, "rental_uris": {"ios": "https://dc.lft.to/lastmile_qr_scan", "android": "https://dc.lft.to/lastmile_qr_scan"}, "is_reserved": 0, "lon": -77.04299016666667, "fusion_lat": 0.0, "name": "b7cc6b3f027c500f92a9a07eed41af48"}, {"type": "electric_scooter", "fusion_lon": 0.0, "bike_id": "37a88e30796e503cbc69f0954974b9af", "is_disabled": 0, "lat": 38.87767066666667, "rental_uris": {"ios": "https://dc.lft.to/lastmile_qr_scan", "android": "https://dc.lft.to/lastmile_qr_scan"}, "is_reserved": 0, "lon": -77.00745433333333, "fusion_lat": 0.0, "name": "37a88e30796e503cbc69f0954974b9af"}, {"type": "electric_bike", "fusion_lon": 0.0, "bike_id": "3086f81010ae3b4e9d3c02af674331e2", "is_disabled": 0, "lat": 38.882987666666665, "rental_uris": {"ios": "https://dc.lft.to/lastmile_qr_scan", "android": "https://dc.lft.to/lastmile_qr_scan"}, "is_reserved": 0, "lon": -76.949784, "fusion_lat": 0.0, "name": "3086f81010ae3b4e9d3c02af674331e2"}, {"type": "electric_scooter", "fusion_lon": 0.0, "bike_id": "1b06d0d0d1a6d4c2f870557580ce2128", "is_disabled": 0, "lat": 38.91058433333333, "rental_uris": {"ios": "https://dc.lft.to/lastmile_qr_scan", "android": "https://dc.lft.to/lastmile_qr_scan"}, "is_reserved": 0, "lon": -77.026566, "fusion_lat": 0.0, "name": "1b06d0d0d1a6d4c2f870557580ce2128"}, {"type": "electric_scooter", "fusion_lon": 0.0, "bike_id": "ebc77bec66dbd942fdfbcbd94bb469b4", "is_disabled": 0, "lat": 38.8594655, "rental_uris": {"ios": "https://dc.lft.to/lastmile_qr_scan", "android": "https://dc.lft.to/lastmile_qr_scan"}, "is_reserved": 0, "lon": -76.95879333333333, "fusion_lat": 0.0, "name": "ebc77bec66dbd942fdfbcbd94bb469b4"}, {"type": "electric_scooter", "fusion_lon": 0.0, "bike_id": "6e18ed1cfabc6a2ebe13f6493321691f", "is_disabled": 0, "lat": 38.92082933333333, "rental_uris": {"ios": "https://dc.lft.to/lastmile_qr_scan", "android": "https://dc.lft.to/lastmile_qr_scan"}, "is_reserved": 0, "lon": -77.0230125, "fusion_lat": 0.0, "name": "6e18ed1cfabc6a2ebe13f6493321691f"}, {"type": "electric_bike", "fusion_lon": 0.0, "bike_id": "9d1558a05b84d2fe141d70e9c5bf95ed", "is_disabled": 0, "lat": 38.9135135, "rental_uris": {"ios": "https://dc.lft.to/lastmile_qr_scan", "android": "https://dc.lft.to/lastmile_qr_scan"}, "is_reserved": 0, "lon": -77.036457, "fusion_lat": 0.0, "name": "9d1558a05b84d2fe141d70e9c5bf95ed"}, {"type": "electric_scooter", "fusion_lon": 0.0, "bike_id": "1ea7fd5ff165d286f03d7b717918f9d0", "is_disabled": 0, "lat": 38.9210765, "rental_uris": {"ios": "https://dc.lft.to/lastmile_qr_scan", "android": "https://dc.lft.to/lastmile_qr_scan"}, "is_reserved": 0, "lon": -77.0482905, "fusion_lat": 0.0, "name": "1ea7fd5ff165d286f03d7b717918f9d0"}, {"type": "electric_scooter", "fusion_lon": 0.0, "bike_id": "d637f195708d4f5edf06d598bdd6f55f", "is_disabled": 0, "lat": 38.925068833333334, "rental_uris": {"ios": "https://dc.lft.to/lastmile_qr_scan", "android": "https://dc.lft.to/lastmile_qr_scan"}, "is_reserved": 0, "lon": -77.02163016666667, "fusion_lat": 0.0, "name": "d637f195708d4f5edf06d598bdd6f55f"}, {"type": "electric_scooter", "fusion_lon": 0.0, "bike_id": "644d6462a09aa14edb9d3393a80aaa4d", "is_disabled": 0, "lat": 38.9321845, "rental_uris": {"ios": "https://dc.lft.to/lastmile_qr_scan", "android": "https://dc.lft.to/lastmile_qr_scan"}, "is_reserved": 0, "lon": -77.023835, "fusion_lat": 0.0, "name": "644d6462a09aa14edb9d3393a80aaa4d"}, {"type": "electric_scooter", "fusion_lon": 0.0, "bike_id": "8d6b38b239a07715f405fb4b1219391e", "is_disabled": 0, "lat": 38.906460333333335, "rental_uris": {"ios": "https://dc.lft.to/lastmile_qr_scan", "android": "https://dc.lft.to/lastmile_qr_scan"}, "is_reserved": 0, "lon": -77.01140666666667, "fusion_lat": 0.0, "name": "8d6b38b239a07715f405fb4b1219391e"}, {"type": "electric_scooter", "fusion_lon": 0.0, "bike_id": "4060e72810adbb83a991c71dd171ea24", "is_disabled": 0, "lat": 38.91462583333333, "rental_uris": {"ios": "https://dc.lft.to/lastmile_qr_scan", "android": "https://dc.lft.to/lastmile_qr_scan"}, "is_reserved": 0, "lon": -77.01494816666667, "fusion_lat": 0.0, "name": "4060e72810adbb83a991c71dd171ea24"}, {"type": "electric_scooter", "fusion_lon": 0.0, "bike_id": "3f8ba487e2afde57afdc1d5c41a6feab", "is_disabled": 0, "lat": 38.944111666666664, "rental_uris": {"ios": "https://dc.lft.to/lastmile_qr_scan", "android": "https://dc.lft.to/lastmile_qr_scan"}, "is_reserved": 0, "lon": -77.00503533333334, "fusion_lat": 0.0, "name": "3f8ba487e2afde57afdc1d5c41a6feab"}, {"type": "electric_scooter", "fusion_lon": 0.0, "bike_id": "ff00cf75aabda5f7ddfec37f8160a1e6", "is_disabled": 0, "lat": 38.9365685, "rental_uris": {"ios": "https://dc.lft.to/lastmile_qr_scan", "android": "https://dc.lft.to/lastmile_qr_scan"}, "is_reserved": 0, "lon": -77.03399316666666, "fusion_lat": 0.0, "name": "ff00cf75aabda5f7ddfec37f8160a1e6"}, {"type": "electric_scooter", "fusion_lon": 0.0, "bike_id": "4fd2baf51b684aebeeb05312c554576f", "is_disabled": 0, "lat": 38.89710783333334, "rental_uris": {"ios": "https://dc.lft.to/lastmile_qr_scan", "android": "https://dc.lft.to/lastmile_qr_scan"}, "is_reserved": 0, "lon": -77.0073195, "fusion_lat": 0.0, "name": "4fd2baf51b684aebeeb05312c554576f"}, {"type": "electric_scooter", "fusion_lon": 0.0, "bike_id": "9084ae83b782fbb5ebceaa014ec61e03", "is_disabled": 0, "lat": 38.886419333333336, "rental_uris": {"ios": "https://dc.lft.to/lastmile_qr_scan", "android": "https://dc.lft.to/lastmile_qr_scan"}, "is_reserved": 0, "lon": -77.02133533333334, "fusion_lat": 0.0, "name": "9084ae83b782fbb5ebceaa014ec61e03"}, {"type": "electric_scooter", "fusion_lon": 0.0, "bike_id": "731bdb12133592b50f8dfd5ad580fb69", "is_disabled": 0, "lat": 38.91641166666667, "rental_uris": {"ios": "https://dc.lft.to/lastmile_qr_scan", "android": "https://dc.lft.to/lastmile_qr_scan"}, "is_reserved": 0, "lon": -77.032136, "fusion_lat": 0.0, "name": "731bdb12133592b50f8dfd5ad580fb69"}, {"type": "electric_scooter", "fusion_lon": 0.0, "bike_id": "a9534d944d53955060c8211c26e74a62", "is_disabled": 0, "lat": 38.91115816666667, "rental_uris": {"ios": "https://dc.lft.to/lastmile_qr_scan", "android": "https://dc.lft.to/lastmile_qr_scan"}, "is_reserved": 0, "lon": -77.0209335, "fusion_lat": 0.0, "name": "a9534d944d53955060c8211c26e74a62"}, {"type": "electric_bike", "fusion_lon": 0.0, "bike_id": "539635400ac20e211c923382fc70d1e5", "is_disabled": 0, "lat": 38.8508995, "rental_uris": {"ios": "https://dc.lft.to/lastmile_qr_scan", "android": "https://dc.lft.to/lastmile_qr_scan"}, "is_reserved": 0, "lon": -76.95699616666667, "fusion_lat": 0.0, "name": "539635400ac20e211c923382fc70d1e5"}, {"type": "electric_scooter", "fusion_lon": 0.0, "bike_id": "ffc38b59e09783de0e6407ac0277e570", "is_disabled": 0, "lat": 38.9231805, "rental_uris": {"ios": "https://dc.lft.to/lastmile_qr_scan", "android": "https://dc.lft.to/lastmile_qr_scan"}, "is_reserved": 0, "lon": -77.019575, "fusion_lat": 0.0, "name": "ffc38b59e09783de0e6407ac0277e570"}, {"type": "electric_scooter", "fusion_lon": 0.0, "bike_id": "7de4fdd349f2297be6468309d1c7d8b2", "is_disabled": 0, "lat": 38.93218666666667, "rental_uris": {"ios": "https://dc.lft.to/lastmile_qr_scan", "android": "https://dc.lft.to/lastmile_qr_scan"}, "is_reserved": 0, "lon": -77.03520266666666, "fusion_lat": 0.0, "name": "7de4fdd349f2297be6468309d1c7d8b2"}, {"type": "electric_scooter", "fusion_lon": 0.0, "bike_id": "f381463adb8ef857292c320f9861e382", "is_disabled": 0, "lat": 38.87934033333333, "rental_uris": {"ios": "https://dc.lft.to/lastmile_qr_scan", "android": "https://dc.lft.to/lastmile_qr_scan"}, "is_reserved": 0, "lon": -77.01470083333334, "fusion_lat": 0.0, "name": "f381463adb8ef857292c320f9861e382"}, {"type": "electric_scooter", "fusion_lon": 0.0, "bike_id": "2c1dceb12e8b627257d62e608bea235c", "is_disabled": 0, "lat": 38.8621345, "rental_uris": {"ios": "https://dc.lft.to/lastmile_qr_scan", "android": "https://dc.lft.to/lastmile_qr_scan"}, "is_reserved": 0, "lon": -76.994833, "fusion_lat": 0.0, "name": "2c1dceb12e8b627257d62e608bea235c"}, {"type": "electric_scooter", "fusion_lon": 0.0, "bike_id": "4003afb3854654c5eb38dfa793b800d7", "is_disabled": 0, "lat": 38.9254615, "rental_uris": {"ios": "https://dc.lft.to/lastmile_qr_scan", "android": "https://dc.lft.to/lastmile_qr_scan"}, "is_reserved": 0, "lon": -77.00070566666666, "fusion_lat": 0.0, "name": "4003afb3854654c5eb38dfa793b800d7"}, {"type": "electric_scooter", "fusion_lon": 0.0, "bike_id": "3e297b05fa5245af3bb63eaf1c7fac55", "is_disabled": 0, "lat": 38.919835666666664, "rental_uris": {"ios": "https://dc.lft.to/lastmile_qr_scan", "android": "https://dc.lft.to/lastmile_qr_scan"}, "is_reserved": 0, "lon": -77.02505133333334, "fusion_lat": 0.0, "name": "3e297b05fa5245af3bb63eaf1c7fac55"}, {"type": "electric_scooter", "fusion_lon": 0.0, "bike_id": "5f949344a06b3da553dbcc43cec84092", "is_disabled": 0, "lat": 38.89940933333333, "rental_uris": {"ios": "https://dc.lft.to/lastmile_qr_scan", "android": "https://dc.lft.to/lastmile_qr_scan"}, "is_reserved": 0, "lon": -77.02007766666667, "fusion_lat": 0.0, "name": "5f949344a06b3da553dbcc43cec84092"}, {"type": "electric_bike", "fusion_lon": 0.0, "bike_id": "901c75845e207eae735313043905b588", "is_disabled": 0, "lat": 38.92665083333333, "rental_uris": {"ios": "https://dc.lft.to/lastmile_qr_scan", "android": "https://dc.lft.to/lastmile_qr_scan"}, "is_reserved": 0, "lon": -77.09012883333334, "fusion_lat": 0.0, "name": "901c75845e207eae735313043905b588"}, {"type": "electric_bike", "fusion_lon": 0.0, "bike_id": "9ba17f3e9e55f613bdca2bd006ce3630", "is_disabled": 0, "lat": 38.981049166666665, "rental_uris": {"ios": "https://dc.lft.to/lastmile_qr_scan", "android": "https://dc.lft.to/lastmile_qr_scan"}, "is_reserved": 0, "lon": -77.00760216666667, "fusion_lat": 0.0, "name": "9ba17f3e9e55f613bdca2bd006ce3630"}, {"type": "electric_scooter", "fusion_lon": 0.0, "bike_id": "2e88eeee6f245f5e544180fcf54bb670", "is_disabled": 0, "lat": 38.9643965, "rental_uris": {"ios": "https://dc.lft.to/lastmile_qr_scan", "android": "https://dc.lft.to/lastmile_qr_scan"}, "is_reserved": 0, "lon": -77.02001316666667, "fusion_lat": 0.0, "name": "2e88eeee6f245f5e544180fcf54bb670"}, {"type": "electric_scooter", "fusion_lon": 0.0, "bike_id": "9496aa252fe58ef96dc7ce8f0e95202c", "is_disabled": 0, "lat": 38.918190833333334, "rental_uris": {"ios": "https://dc.lft.to/lastmile_qr_scan", "android": "https://dc.lft.to/lastmile_qr_scan"}, "is_reserved": 0, "lon": -77.02532166666667, "fusion_lat": 0.0, "name": "9496aa252fe58ef96dc7ce8f0e95202c"}, {"type": "electric_scooter", "fusion_lon": 0.0, "bike_id": "8eb5887ee8f17380ce4224b8d98ea480", "is_disabled": 0, "lat": 38.932809666666664, "rental_uris": {"ios": "https://dc.lft.to/lastmile_qr_scan", "android": "https://dc.lft.to/lastmile_qr_scan"}, "is_reserved": 0, "lon": -77.04080116666667, "fusion_lat": 0.0, "name": "8eb5887ee8f17380ce4224b8d98ea480"}, {"type": "electric_bike", "fusion_lon": 0.0, "bike_id": "3f2850e4d582806c079b46a20cf5c67a", "is_disabled": 0, "lat": 38.991954666666665, "rental_uris": {"ios": "https://dc.lft.to/lastmile_qr_scan", "android": "https://dc.lft.to/lastmile_qr_scan"}, "is_reserved": 0, "lon": -77.03210633333333, "fusion_lat": 0.0, "name": "3f2850e4d582806c079b46a20cf5c67a"}, {"type": "electric_scooter", "fusion_lon": 0.0, "bike_id": "91f439732b3c89a1f50b5d502f4397ac", "is_disabled": 0, "lat": 38.905633, "rental_uris": {"ios": "https://dc.lft.to/lastmile_qr_scan", "android": "https://dc.lft.to/lastmile_qr_scan"}, "is_reserved": 0, "lon": -77.024178, "fusion_lat": 0.0, "name": "91f439732b3c89a1f50b5d502f4397ac"}, {"type": "electric_scooter", "fusion_lon": 0.0, "bike_id": "e46cd214e8bb5a2d03c0b86092554d0c", "is_disabled": 0, "lat": 38.89918483333334, "rental_uris": {"ios": "https://dc.lft.to/lastmile_qr_scan", "android": "https://dc.lft.to/lastmile_qr_scan"}, "is_reserved": 0, "lon": -76.93386683333334, "fusion_lat": 0.0, "name": "e46cd214e8bb5a2d03c0b86092554d0c"}, {"type": "electric_scooter", "fusion_lon": 0.0, "bike_id": "b8f411420d578c7f4e9150c949d4499e", "is_disabled": 0, "lat": 38.876464666666664, "rental_uris": {"ios": "https://dc.lft.to/lastmile_qr_scan", "android": "https://dc.lft.to/lastmile_qr_scan"}, "is_reserved": 0, "lon": -76.9650645, "fusion_lat": 0.0, "name": "b8f411420d578c7f4e9150c949d4499e"}, {"type": "electric_scooter", "fusion_lon": 0.0, "bike_id": "40b25e1dd69206676368f39563ef3d52", "is_disabled": 0, "lat": 38.93819166666667, "rental_uris": {"ios": "https://dc.lft.to/lastmile_qr_scan", "android": "https://dc.lft.to/lastmile_qr_scan"}, "is_reserved": 0, "lon": -76.98927566666667, "fusion_lat": 0.0, "name": "40b25e1dd69206676368f39563ef3d52"}, {"type": "electric_scooter", "fusion_lon": 0.0, "bike_id": "c9de339e8f80d8b51da7cbe59f0e2868", "is_disabled": 0, "lat": 38.897180666666664, "rental_uris": {"ios": "https://dc.lft.to/lastmile_qr_scan", "android": "https://dc.lft.to/lastmile_qr_scan"}, "is_reserved": 0, "lon": -77.01975816666666, "fusion_lat": 0.0, "name": "c9de339e8f80d8b51da7cbe59f0e2868"}, {"type": "electric_scooter", "fusion_lon": 0.0, "bike_id": "463c2893a704e74e135c254172cfaf38", "is_disabled": 0, "lat": 38.89729616666666, "rental_uris": {"ios": "https://dc.lft.to/lastmile_qr_scan", "android": "https://dc.lft.to/lastmile_qr_scan"}, "is_reserved": 0, "lon": -76.98495666666666, "fusion_lat": 0.0, "name": "463c2893a704e74e135c254172cfaf38"}, {"type": "electric_scooter", "fusion_lon": 0.0, "bike_id": "aafc6ccff0026d8a9d981747e344ea33", "is_disabled": 0, "lat": 38.923324666666666, "rental_uris": {"ios": "https://dc.lft.to/lastmile_qr_scan", "android": "https://dc.lft.to/lastmile_qr_scan"}, "is_reserved": 0, "lon": -77.03554366666667, "fusion_lat": 0.0, "name": "aafc6ccff0026d8a9d981747e344ea33"}, {"type": "electric_scooter", "fusion_lon": 0.0, "bike_id": "f2b72ceac6e429d01655b723336def53", "is_disabled": 0, "lat": 38.90709616666667, "rental_uris": {"ios": "https://dc.lft.to/lastmile_qr_scan", "android": "https://dc.lft.to/lastmile_qr_scan"}, "is_reserved": 0, "lon": -76.98563816666666, "fusion_lat": 0.0, "name": "f2b72ceac6e429d01655b723336def53"}, {"type": "electric_scooter", "fusion_lon": 0.0, "bike_id": "11764d499280b2f3eabcda8e63a13ebd", "is_disabled": 0, "lat": 38.9065715, "rental_uris": {"ios": "https://dc.lft.to/lastmile_qr_scan", "android": "https://dc.lft.to/lastmile_qr_scan"}, "is_reserved": 0, "lon": -77.04241233333333, "fusion_lat": 0.0, "name": "11764d499280b2f3eabcda8e63a13ebd"}, {"type": "electric_scooter", "fusion_lon": 0.0, "bike_id": "25108da0f02a9d0bdccd6f0818600532", "is_disabled": 0, "lat": 38.90427183333333, "rental_uris": {"ios": "https://dc.lft.to/lastmile_qr_scan", "android": "https://dc.lft.to/lastmile_qr_scan"}, "is_reserved": 0, "lon": -77.0250745, "fusion_lat": 0.0, "name": "25108da0f02a9d0bdccd6f0818600532"}, {"type": "electric_scooter", "fusion_lon": 0.0, "bike_id": "d145b862a66d5b42d697d0f5a5274205", "is_disabled": 0, "lat": 38.9056385, "rental_uris": {"ios": "https://dc.lft.to/lastmile_qr_scan", "android": "https://dc.lft.to/lastmile_qr_scan"}, "is_reserved": 0, "lon": -77.005613, "fusion_lat": 0.0, "name": "d145b862a66d5b42d697d0f5a5274205"}, {"type": "electric_scooter", "fusion_lon": 0.0, "bike_id": "beb9b8b081e32df3dd41c49ade5d805a", "is_disabled": 0, "lat": 38.898370666666665, "rental_uris": {"ios": "https://dc.lft.to/lastmile_qr_scan", "android": "https://dc.lft.to/lastmile_qr_scan"}, "is_reserved": 0, "lon": -77.05258683333334, "fusion_lat": 0.0, "name": "beb9b8b081e32df3dd41c49ade5d805a"}, {"type": "electric_scooter", "fusion_lon": 0.0, "bike_id": "e10fd615b224d5811ad8e6514fe29b66", "is_disabled": 0, "lat": 38.88205833333333, "rental_uris": {"ios": "https://dc.lft.to/lastmile_qr_scan", "android": "https://dc.lft.to/lastmile_qr_scan"}, "is_reserved": 0, "lon": -77.0177325, "fusion_lat": 0.0, "name": "e10fd615b224d5811ad8e6514fe29b66"}, {"type": "electric_scooter", "fusion_lon": 0.0, "bike_id": "f425655ddb04ac552a332c7f65077aea", "is_disabled": 0, "lat": 38.89944216666667, "rental_uris": {"ios": "https://dc.lft.to/lastmile_qr_scan", "android": "https://dc.lft.to/lastmile_qr_scan"}, "is_reserved": 0, "lon": -77.0212415, "fusion_lat": 0.0, "name": "f425655ddb04ac552a332c7f65077aea"}, {"type": "electric_scooter", "fusion_lon": 0.0, "bike_id": "23f1c9be4fac997c28e2cd40895b7e40", "is_disabled": 0, "lat": 38.90730383333333, "rental_uris": {"ios": "https://dc.lft.to/lastmile_qr_scan", "android": "https://dc.lft.to/lastmile_qr_scan"}, "is_reserved": 0, "lon": -77.00107583333333, "fusion_lat": 0.0, "name": "23f1c9be4fac997c28e2cd40895b7e40"}, {"type": "electric_scooter", "fusion_lon": 0.0, "bike_id": "7b9feb2f4ed0bb2fe8cf75140e293e8a", "is_disabled": 0, "lat": 38.90972766666667, "rental_uris": {"ios": "https://dc.lft.to/lastmile_qr_scan", "android": "https://dc.lft.to/lastmile_qr_scan"}, "is_reserved": 0, "lon": -77.038722, "fusion_lat": 0.0, "name": "7b9feb2f4ed0bb2fe8cf75140e293e8a"}, {"type": "electric_scooter", "fusion_lon": 0.0, "bike_id": "214f1cc620969fd22400f3beae2c6bd4", "is_disabled": 0, "lat": 38.90400133333333, "rental_uris": {"ios": "https://dc.lft.to/lastmile_qr_scan", "android": "https://dc.lft.to/lastmile_qr_scan"}, "is_reserved": 0, "lon": -77.02010783333333, "fusion_lat": 0.0, "name": "214f1cc620969fd22400f3beae2c6bd4"}, {"type": "electric_scooter", "fusion_lon": 0.0, "bike_id": "ba3458f05f4d03c335c78749aedf53a7", "is_disabled": 0, "lat": 38.889979833333335, "rental_uris": {"ios": "https://dc.lft.to/lastmile_qr_scan", "android": "https://dc.lft.to/lastmile_qr_scan"}, "is_reserved": 0, "lon": -76.95437033333333, "fusion_lat": 0.0, "name": "ba3458f05f4d03c335c78749aedf53a7"}, {"type": "electric_bike", "fusion_lon": 0.0, "bike_id": "33367583e5436b371e5c2972d85a1d7f", "is_disabled": 0, "lat": 38.835183, "rental_uris": {"ios": "https://dc.lft.to/lastmile_qr_scan", "android": "https://dc.lft.to/lastmile_qr_scan"}, "is_reserved": 0, "lon": -76.98710983333334, "fusion_lat": 0.0, "name": "33367583e5436b371e5c2972d85a1d7f"}, {"type": "electric_scooter", "fusion_lon": 0.0, "bike_id": "8cc2bc1ea3f574cc68178a9756ecfbc6", "is_disabled": 0, "lat": 38.902676666666665, "rental_uris": {"ios": "https://dc.lft.to/lastmile_qr_scan", "android": "https://dc.lft.to/lastmile_qr_scan"}, "is_reserved": 0, "lon": -77.0196745, "fusion_lat": 0.0, "name": "8cc2bc1ea3f574cc68178a9756ecfbc6"}, {"type": "electric_scooter", "fusion_lon": 0.0, "bike_id": "8a102a77b29d5aad563529df8d32aa02", "is_disabled": 0, "lat": 38.9066375, "rental_uris": {"ios": "https://dc.lft.to/lastmile_qr_scan", "android": "https://dc.lft.to/lastmile_qr_scan"}, "is_reserved": 0, "lon": -76.97942116666667, "fusion_lat": 0.0, "name": "8a102a77b29d5aad563529df8d32aa02"}, {"type": "electric_scooter", "fusion_lon": 0.0, "bike_id": "36b6e161dbdf06f54b71c1b8c700ca24", "is_disabled": 0, "lat": 38.909772, "rental_uris": {"ios": "https://dc.lft.to/lastmile_qr_scan", "android": "https://dc.lft.to/lastmile_qr_scan"}, "is_reserved": 0, "lon": -77.038481, "fusion_lat": 0.0, "name": "36b6e161dbdf06f54b71c1b8c700ca24"}, {"type": "electric_scooter", "fusion_lon": 0.0, "bike_id": "604152aa2f70d2db12f5d903d7a9b523", "is_disabled": 0, "lat": 38.9042145, "rental_uris": {"ios": "https://dc.lft.to/lastmile_qr_scan", "android": "https://dc.lft.to/lastmile_qr_scan"}, "is_reserved": 0, "lon": -77.01841416666667, "fusion_lat": 0.0, "name": "604152aa2f70d2db12f5d903d7a9b523"}, {"type": "electric_scooter", "fusion_lon": 0.0, "bike_id": "51f02c20b324aa220d45a55ed3ddd91e", "is_disabled": 0, "lat": 38.87866733333333, "rental_uris": {"ios": "https://dc.lft.to/lastmile_qr_scan", "android": "https://dc.lft.to/lastmile_qr_scan"}, "is_reserved": 0, "lon": -76.96259183333333, "fusion_lat": 0.0, "name": "51f02c20b324aa220d45a55ed3ddd91e"}, {"type": "electric_scooter", "fusion_lon": 0.0, "bike_id": "b1772d8307a468493f92bb47b1fff020", "is_disabled": 0, "lat": 38.89220183333333, "rental_uris": {"ios": "https://dc.lft.to/lastmile_qr_scan", "android": "https://dc.lft.to/lastmile_qr_scan"}, "is_reserved": 0, "lon": -77.03220916666666, "fusion_lat": 0.0, "name": "b1772d8307a468493f92bb47b1fff020"}, {"type": "electric_scooter", "fusion_lon": 0.0, "bike_id": "429be9552ea0fc42a04884f412653583", "is_disabled": 0, "lat": 38.905832333333336, "rental_uris": {"ios": "https://dc.lft.to/lastmile_qr_scan", "android": "https://dc.lft.to/lastmile_qr_scan"}, "is_reserved": 0, "lon": -77.04358216666667, "fusion_lat": 0.0, "name": "429be9552ea0fc42a04884f412653583"}, {"type": "electric_scooter", "fusion_lon": 0.0, "bike_id": "ef20dd0d41a3739c435d65379cd9cdd5", "is_disabled": 0, "lat": 38.8948725, "rental_uris": {"ios": "https://dc.lft.to/lastmile_qr_scan", "android": "https://dc.lft.to/lastmile_qr_scan"}, "is_reserved": 0, "lon": -77.02172216666666, "fusion_lat": 0.0, "name": "ef20dd0d41a3739c435d65379cd9cdd5"}, {"type": "electric_scooter", "fusion_lon": 0.0, "bike_id": "73dad5909e26f8ad27333fd8e7f87afd", "is_disabled": 0, "lat": 38.918178166666664, "rental_uris": {"ios": "https://dc.lft.to/lastmile_qr_scan", "android": "https://dc.lft.to/lastmile_qr_scan"}, "is_reserved": 0, "lon": -77.03123966666666, "fusion_lat": 0.0, "name": "73dad5909e26f8ad27333fd8e7f87afd"}, {"type": "electric_scooter", "fusion_lon": 0.0, "bike_id": "4dc04331937554ac1879ca15761f012d", "is_disabled": 0, "lat": 38.91184483333333, "rental_uris": {"ios": "https://dc.lft.to/lastmile_qr_scan", "android": "https://dc.lft.to/lastmile_qr_scan"}, "is_reserved": 0, "lon": -77.042972, "fusion_lat": 0.0, "name": "4dc04331937554ac1879ca15761f012d"}, {"type": "electric_scooter", "fusion_lon": 0.0, "bike_id": "65eacd65ed6c08d34a90df3101cb1f1a", "is_disabled": 0, "lat": 38.90817466666667, "rental_uris": {"ios": "https://dc.lft.to/lastmile_qr_scan", "android": "https://dc.lft.to/lastmile_qr_scan"}, "is_reserved": 0, "lon": -77.03362183333333, "fusion_lat": 0.0, "name": "65eacd65ed6c08d34a90df3101cb1f1a"}, {"type": "electric_scooter", "fusion_lon": 0.0, "bike_id": "5a2523b87bcea748721fa091748322e7", "is_disabled": 0, "lat": 38.90028866666667, "rental_uris": {"ios": "https://dc.lft.to/lastmile_qr_scan", "android": "https://dc.lft.to/lastmile_qr_scan"}, "is_reserved": 0, "lon": -77.002149, "fusion_lat": 0.0, "name": "5a2523b87bcea748721fa091748322e7"}, {"type": "electric_scooter", "fusion_lon": 0.0, "bike_id": "c7227534c92fce942d9543a2c689d2f8", "is_disabled": 0, "lat": 38.9134445, "rental_uris": {"ios": "https://dc.lft.to/lastmile_qr_scan", "android": "https://dc.lft.to/lastmile_qr_scan"}, "is_reserved": 0, "lon": -77.0320725, "fusion_lat": 0.0, "name": "c7227534c92fce942d9543a2c689d2f8"}, {"type": "electric_scooter", "fusion_lon": 0.0, "bike_id": "71785f1da27e67bf25d7d86bb8ceabee", "is_disabled": 0, "lat": 38.97212733333333, "rental_uris": {"ios": "https://dc.lft.to/lastmile_qr_scan", "android": "https://dc.lft.to/lastmile_qr_scan"}, "is_reserved": 0, "lon": -77.03335316666667, "fusion_lat": 0.0, "name": "71785f1da27e67bf25d7d86bb8ceabee"}, {"type": "electric_bike", "fusion_lon": 0.0, "bike_id": "f013989b50331737b372f3fa7cf344a9", "is_disabled": 0, "lat": 38.8468185, "rental_uris": {"ios": "https://dc.lft.to/lastmile_qr_scan", "android": "https://dc.lft.to/lastmile_qr_scan"}, "is_reserved": 0, "lon": -76.98275833333334, "fusion_lat": 0.0, "name": "f013989b50331737b372f3fa7cf344a9"}, {"type": "electric_scooter", "fusion_lon": 0.0, "bike_id": "ed7b1cda4217216bc97bab847385e2dd", "is_disabled": 0, "lat": 38.876625, "rental_uris": {"ios": "https://dc.lft.to/lastmile_qr_scan", "android": "https://dc.lft.to/lastmile_qr_scan"}, "is_reserved": 0, "lon": -76.9962595, "fusion_lat": 0.0, "name": "ed7b1cda4217216bc97bab847385e2dd"}, {"type": "electric_bike", "fusion_lon": 0.0, "bike_id": "d122b2e000fcfcbea1aada0ea98d95f5", "is_disabled": 0, "lat": 38.935733166666665, "rental_uris": {"ios": "https://dc.lft.to/lastmile_qr_scan", "android": "https://dc.lft.to/lastmile_qr_scan"}, "is_reserved": 0, "lon": -77.10615516666667, "fusion_lat": 0.0, "name": "d122b2e000fcfcbea1aada0ea98d95f5"}, {"type": "electric_scooter", "fusion_lon": 0.0, "bike_id": "4e5c4db2a94a32297761d4fcacfb671a", "is_disabled": 0, "lat": 38.879948, "rental_uris": {"ios": "https://dc.lft.to/lastmile_qr_scan", "android": "https://dc.lft.to/lastmile_qr_scan"}, "is_reserved": 0, "lon": -76.9868575, "fusion_lat": 0.0, "name": "4e5c4db2a94a32297761d4fcacfb671a"}, {"type": "electric_scooter", "fusion_lon": 0.0, "bike_id": "74f79bdbb22b9525f5525bab856926ed", "is_disabled": 0, "lat": 38.899574666666666, "rental_uris": {"ios": "https://dc.lft.to/lastmile_qr_scan", "android": "https://dc.lft.to/lastmile_qr_scan"}, "is_reserved": 0, "lon": -77.01937133333334, "fusion_lat": 0.0, "name": "74f79bdbb22b9525f5525bab856926ed"}, {"type": "electric_scooter", "fusion_lon": 0.0, "bike_id": "2aed2beee032ecf2f6bc7779beab3d9b", "is_disabled": 0, "lat": 38.904478833333336, "rental_uris": {"ios": "https://dc.lft.to/lastmile_qr_scan", "android": "https://dc.lft.to/lastmile_qr_scan"}, "is_reserved": 0, "lon": -77.05801583333333, "fusion_lat": 0.0, "name": "2aed2beee032ecf2f6bc7779beab3d9b"}, {"type": "electric_scooter", "fusion_lon": 0.0, "bike_id": "1300727f7ecb6acaf554be0f92bbe96a", "is_disabled": 0, "lat": 38.89346966666667, "rental_uris": {"ios": "https://dc.lft.to/lastmile_qr_scan", "android": "https://dc.lft.to/lastmile_qr_scan"}, "is_reserved": 0, "lon": -76.95230833333333, "fusion_lat": 0.0, "name": "1300727f7ecb6acaf554be0f92bbe96a"}, {"type": "electric_scooter", "fusion_lon": 0.0, "bike_id": "9e59b21cc20bea790f0f6b45eba266e6", "is_disabled": 0, "lat": 38.922949833333334, "rental_uris": {"ios": "https://dc.lft.to/lastmile_qr_scan", "android": "https://dc.lft.to/lastmile_qr_scan"}, "is_reserved": 0, "lon": -77.02327316666667, "fusion_lat": 0.0, "name": "9e59b21cc20bea790f0f6b45eba266e6"}, {"type": "electric_scooter", "fusion_lon": 0.0, "bike_id": "5c950275ccf933228d56b4b7855132f4", "is_disabled": 0, "lat": 38.933197166666666, "rental_uris": {"ios": "https://dc.lft.to/lastmile_qr_scan", "android": "https://dc.lft.to/lastmile_qr_scan"}, "is_reserved": 0, "lon": -77.02935383333333, "fusion_lat": 0.0, "name": "5c950275ccf933228d56b4b7855132f4"}, {"type": "electric_scooter", "fusion_lon": 0.0, "bike_id": "980ccc73ea6aec28ebcc7c833cffb43c", "is_disabled": 0, "lat": 38.876555333333336, "rental_uris": {"ios": "https://dc.lft.to/lastmile_qr_scan", "android": "https://dc.lft.to/lastmile_qr_scan"}, "is_reserved": 0, "lon": -77.0033755, "fusion_lat": 0.0, "name": "980ccc73ea6aec28ebcc7c833cffb43c"}, {"type": "electric_scooter", "fusion_lon": 0.0, "bike_id": "8649d059adad511dae76847b55773e71", "is_disabled": 0, "lat": 38.91427816666667, "rental_uris": {"ios": "https://dc.lft.to/lastmile_qr_scan", "android": "https://dc.lft.to/lastmile_qr_scan"}, "is_reserved": 0, "lon": -77.04586883333333, "fusion_lat": 0.0, "name": "8649d059adad511dae76847b55773e71"}, {"type": "electric_scooter", "fusion_lon": 0.0, "bike_id": "11324a3890e53aa71040ffe1e03c6149", "is_disabled": 0, "lat": 38.90240166666667, "rental_uris": {"ios": "https://dc.lft.to/lastmile_qr_scan", "android": "https://dc.lft.to/lastmile_qr_scan"}, "is_reserved": 0, "lon": -77.00213, "fusion_lat": 0.0, "name": "11324a3890e53aa71040ffe1e03c6149"}, {"type": "electric_scooter", "fusion_lon": 0.0, "bike_id": "acde05e5c40df4550d2e2cd7a9a589c3", "is_disabled": 0, "lat": 38.91318916666667, "rental_uris": {"ios": "https://dc.lft.to/lastmile_qr_scan", "android": "https://dc.lft.to/lastmile_qr_scan"}, "is_reserved": 0, "lon": -77.0471285, "fusion_lat": 0.0, "name": "acde05e5c40df4550d2e2cd7a9a589c3"}, {"type": "electric_scooter", "fusion_lon": 0.0, "bike_id": "85baa7041c0c4a40bfae84394a1988e0", "is_disabled": 0, "lat": 38.918296833333336, "rental_uris": {"ios": "https://dc.lft.to/lastmile_qr_scan", "android": "https://dc.lft.to/lastmile_qr_scan"}, "is_reserved": 0, "lon": -77.03184516666667, "fusion_lat": 0.0, "name": "85baa7041c0c4a40bfae84394a1988e0"}, {"type": "electric_scooter", "fusion_lon": 0.0, "bike_id": "c2d2cc8f953453371f44db19fe0271c7", "is_disabled": 0, "lat": 38.90465716666667, "rental_uris": {"ios": "https://dc.lft.to/lastmile_qr_scan", "android": "https://dc.lft.to/lastmile_qr_scan"}, "is_reserved": 0, "lon": -76.9950675, "fusion_lat": 0.0, "name": "c2d2cc8f953453371f44db19fe0271c7"}, {"type": "electric_scooter", "fusion_lon": 0.0, "bike_id": "45c9ed37da233a0cb758d2fbecc8e2d2", "is_disabled": 0, "lat": 38.9003495, "rental_uris": {"ios": "https://dc.lft.to/lastmile_qr_scan", "android": "https://dc.lft.to/lastmile_qr_scan"}, "is_reserved": 0, "lon": -76.99148016666666, "fusion_lat": 0.0, "name": "45c9ed37da233a0cb758d2fbecc8e2d2"}, {"type": "electric_scooter", "fusion_lon": 0.0, "bike_id": "90aa9a43e344e07508ea61208a8386b3", "is_disabled": 0, "lat": 38.88485683333333, "rental_uris": {"ios": "https://dc.lft.to/lastmile_qr_scan", "android": "https://dc.lft.to/lastmile_qr_scan"}, "is_reserved": 0, "lon": -77.03477733333334, "fusion_lat": 0.0, "name": "90aa9a43e344e07508ea61208a8386b3"}, {"type": "electric_scooter", "fusion_lon": 0.0, "bike_id": "2008a969060d6f429a87cf5e4138b0ca", "is_disabled": 0, "lat": 38.919259, "rental_uris": {"ios": "https://dc.lft.to/lastmile_qr_scan", "android": "https://dc.lft.to/lastmile_qr_scan"}, "is_reserved": 0, "lon": -77.07936916666667, "fusion_lat": 0.0, "name": "2008a969060d6f429a87cf5e4138b0ca"}, {"type": "electric_scooter", "fusion_lon": 0.0, "bike_id": "1033a7b3a93c9d1c5fec0aabb044a0c9", "is_disabled": 0, "lat": 38.92235516666667, "rental_uris": {"ios": "https://dc.lft.to/lastmile_qr_scan", "android": "https://dc.lft.to/lastmile_qr_scan"}, "is_reserved": 0, "lon": -77.01825116666667, "fusion_lat": 0.0, "name": "1033a7b3a93c9d1c5fec0aabb044a0c9"}, {"type": "electric_scooter", "fusion_lon": 0.0, "bike_id": "3e6c2ae6ed8f9b3d7e744d2ab7e6e156", "is_disabled": 0, "lat": 38.91887333333333, "rental_uris": {"ios": "https://dc.lft.to/lastmile_qr_scan", "android": "https://dc.lft.to/lastmile_qr_scan"}, "is_reserved": 0, "lon": -77.0383045, "fusion_lat": 0.0, "name": "3e6c2ae6ed8f9b3d7e744d2ab7e6e156"}, {"type": "electric_bike", "fusion_lon": 0.0, "bike_id": "4924499db5ba1675d0487f8098a2d8cb", "is_disabled": 0, "lat": 38.8961995, "rental_uris": {"ios": "https://dc.lft.to/lastmile_qr_scan", "android": "https://dc.lft.to/lastmile_qr_scan"}, "is_reserved": 0, "lon": -76.90743333333333, "fusion_lat": 0.0, "name": "4924499db5ba1675d0487f8098a2d8cb"}, {"type": "electric_scooter", "fusion_lon": 0.0, "bike_id": "6766771055f9cec5490c84e6337f8623", "is_disabled": 0, "lat": 38.92892416666667, "rental_uris": {"ios": "https://dc.lft.to/lastmile_qr_scan", "android": "https://dc.lft.to/lastmile_qr_scan"}, "is_reserved": 0, "lon": -77.03297366666666, "fusion_lat": 0.0, "name": "6766771055f9cec5490c84e6337f8623"}, {"type": "electric_scooter", "fusion_lon": 0.0, "bike_id": "b08757669f336cd72de6b3ab9de5ec7e", "is_disabled": 0, "lat": 38.90871666666666, "rental_uris": {"ios": "https://dc.lft.to/lastmile_qr_scan", "android": "https://dc.lft.to/lastmile_qr_scan"}, "is_reserved": 0, "lon": -77.03179866666666, "fusion_lat": 0.0, "name": "b08757669f336cd72de6b3ab9de5ec7e"},