{"data": {"bikes": [{"lon": -77.03450183333334, "rental_uris": {"android": "https://dc.lft.to/lastmile_qr_scan", "ios": "https://dc.lft.to/lastmile_qr_scan"}, "fusion_lon": 0.0, "is_reserved": 0, "is_disabled": 0, "fusion_lat": 0.0, "type": "electric_scooter", "name": "65db0c658726ba6ae9b13fa732e588fb", "lat": 38.903807, "bike_id": "65db0c658726ba6ae9b13fa732e588fb"}, {"lon": -77.0005965, "rental_uris": {"android": "https://dc.lft.to/lastmile_qr_scan", "ios": "https://dc.lft.to/lastmile_qr_scan"}, "fusion_lon": 0.0, "is_reserved": 0, "is_disabled": 0, "fusion_lat": 0.0, "type": "electric_scooter", "name": "46e1e292b812a913ee77d59d16e00c6a", "lat": 38.873637, "bike_id": "46e1e292b812a913ee77d59d16e00c6a"}, {"lon": -77.0216225, "rental_uris": {"android": "https://dc.lft.to/lastmile_qr_scan", "ios": "https://dc.lft.to/lastmile_qr_scan"}, "fusion_lon": 0.0, "is_reserved": 0, "is_disabled": 0, "fusion_lat": 0.0, "type": "electric_scooter", "name": "4f87f9a5670c13927df6106e77717106", "lat": 38.926125166666665, "bike_id": "4f87f9a5670c13927df6106e77717106"}, {"lon": -77.02117016666666, "rental_uris": {"android": "https://dc.lft.to/lastmile_qr_scan", "ios": "https://dc.lft.to/lastmile_qr_scan"}, "fusion_lon": 0.0, "is_reserved": 0, "is_disabled": 0, "fusion_lat": 0.0, "type": "electric_scooter", "name": "f63eac36cbec9f655561d5a90b941ce9", "lat": 38.915565, "bike_id": "f63eac36cbec9f655561d5a90b941ce9"}, {"lon": -77.01133183333333, "rental_uris": {"android": "https://dc.lft.to/lastmile_qr_scan", "ios": "https://dc.lft.to/lastmile_qr_scan"}, "fusion_lon": 0.0, "is_reserved": 0, "is_disabled": 0, "fusion_lat": 0.0, "type": "electric_scooter", "name": "0a37f77037714c8469a251afc7bfeda0", "lat": 38.8953945, "bike_id": "0a37f77037714c8469a251afc7bfeda0"}, {"lon": -77.00287583333333, "rental_uris": {"android": "https://dc.lft.to/lastmile_qr_scan", "ios": "https://dc.lft.to/lastmile_qr_scan"}, "fusion_lon": 0.0, "is_reserved": 0, "is_disabled": 0, "fusion_lat": 0.0, "type": "electric_scooter", "name": "a47ceeaf262a78f33f1df24003d56774", "lat": 38.892007, "bike_id": "a47ceeaf262a78f33f1df24003d56774"}, {"lon": -77.04469966666667, "rental_uris": {"android": "https://dc.lft.to/lastmile_qr_scan", "ios": "https://dc.lft.to/lastmile_qr_scan"}, "fusion_lon": 0.0, "is_reserved": 0, "is_disabled": 0, "fusion_lat": 0.0, "type": "electric_scooter", "name": "4fe9a2c23395171f1d484301936434d1", "lat": 38.89222216666667, "bike_id": "4fe9a2c23395171f1d484301936434d1"}, {"lon": -76.97804433333333, "rental_uris": {"android": "https://dc.lft.to/lastmile_qr_scan", "ios": "https://dc.lft.to/lastmile_qr_scan"}, "fusion_lon": 0.0, "is_reserved": 0, "is_disabled": 0, "fusion_lat": 0.0, "type": "electric_scooter", "name": "05441ee38d7698548e22a1f4163c1850", "lat": 38.90313233333333, "bike_id": "05441ee38d7698548e22a1f4163c1850"}, {"lon": -77.01608033333333, "rental_uris": {"android": "https://dc.lft.to/lastmile_qr_scan", "ios": "https://dc.lft.to/lastmile_qr_scan"}, "fusion_lon": 0.0, "is_reserved": 0, "is_disabled": 0, "fusion_lat": 0.0, "type": "electric_scooter", "name": "aeb0ea6b3b7b6e2414ffd6cf6eb2abdf", "lat": 38.92049133333333, "bike_id": "aeb0ea6b3b7b6e2414ffd6cf6eb2abdf"}, {"lon": -77.04908033333334, "rental_uris": {"android": "https://dc.lft.to/lastmile_qr_scan", "ios": "https://dc.lft.to/lastmile_qr_scan"}, "fusion_lon": 0.0, "is_reserved": 0, "is_disabled": 0, "fusion_lat": 0.0, "type": "electric_scooter", "name": "8913f4fbaa02c62dfb37439c82116c30", "lat": 38.8983625, "bike_id": "8913f4fbaa02c62dfb37439c82116c30"}, {"lon": -77.01075933333334, "rental_uris": {"android": "https://dc.lft.to/lastmile_qr_scan", "ios": "https://dc.lft.to/lastmile_qr_scan"}, "fusion_lon": 0.0, "is_reserved": 0, "is_disabled": 0, "fusion_lat": 0.0, "type": "electric_scooter", "name": "f5cb2dbf0f360c34c15162c1491fd3d9", "lat": 38.91414666666667, "bike_id": "f5cb2dbf0f360c34c15162c1491fd3d9"}, {"lon": -77.02214016666667, "rental_uris": {"android": "https://dc.lft.to/lastmile_qr_scan", "ios": "https://dc.lft.to/lastmile_qr_scan"}, "fusion_lon": 0.0, "is_reserved": 0, "is_disabled": 0, "fusion_lat": 0.0, "type": "electric_scooter", "name": "d92e764ba05b9da28240910595151e71", "lat": 38.905425666666666, "bike_id": "d92e764ba05b9da28240910595151e71"}, {"lon": -77.025933, "rental_uris": {"android": "https://dc.lft.to/lastmile_qr_scan", "ios": "https://dc.lft.to/lastmile_qr_scan"}, "fusion_lon": 0.0, "is_reserved": 0, "is_disabled": 0, "fusion_lat": 0.0, "type": "electric_scooter", "name": "acd6aefb763820e4424a6dbcb921eca3", "lat": 38.919470833333335, "bike_id": "acd6aefb763820e4424a6dbcb921eca3"}, {"lon": -77.03237533333333, "rental_uris": {"android": "https://dc.lft.to/lastmile_qr_scan", "ios": "https://dc.lft.to/lastmile_qr_scan"}, "fusion_lon": 0.0, "is_reserved": 0, "is_disabled": 0, "fusion_lat": 0.0, "type": "electric_scooter", "name": "66382cdf14d7917139be73476ff5c1dd", "lat": 38.90522933333333, "bike_id": "66382cdf14d7917139be73476ff5c1dd"}, {"lon": -77.01694566666667, "rental_uris": {"android": "https://dc.lft.to/lastmile_qr_scan", "ios": "https://dc.lft.to/lastmile_qr_scan"}, "fusion_lon": 0.0, "is_reserved": 0, "is_disabled": 0, "fusion_lat": 0.0, "type": "electric_scooter", "name": "e45c3646df4a265bd448f5e70e294faf", "lat": 38.907628, "bike_id": "e45c3646df4a265bd448f5e70e294faf"}, {"lon": -77.04496783333333, "rental_uris": {"android": "https://dc.lft.to/lastmile_qr_scan", "ios": "https://dc.lft.to/lastmile_qr_scan"}, "fusion_lon": 0.0, "is_reserved": 0, "is_disabled": 0, "fusion_lat": 0.0, "type": "electric_scooter", "name": "c00e62f40246a37c1719514ebb4026d2", "lat": 38.908984833333335, "bike_id": "c00e62f40246a37c1719514ebb4026d2"}, {"lon": -77.04651833333334, "rental_uris": {"android": "https://dc.lft.to/lastmile_qr_scan", "ios": "https://dc.lft.to/lastmile_qr_scan"}, "fusion_lon": 0.0, "is_reserved": 0, "is_disabled": 0, "fusion_lat": 0.0, "type": "electric_scooter", "name": "4a09bf91503167a59646752d159b473e", "lat": 38.89229383333333, "bike_id": "4a09bf91503167a59646752d159b473e"}, {"lon": -77.0239655, "rental_uris": {"android": "https://dc.lft.to/lastmile_qr_scan", "ios": "https://dc.lft.to/lastmile_qr_scan"}, "fusion_lon": 0.0, "is_reserved": 0, "is_disabled": 0, "fusion_lat": 0.0, "type": "electric_scooter", "name": "83d9cd1d5c3d5c27f7ca08744060c3cf", "lat": 38.89935633333333, "bike_id": "83d9cd1d5c3d5c27f7ca08744060c3cf"}, {"lon": -77.0280385, "rental_uris": {"android": "https://dc.lft.to/lastmile_qr_scan", "ios": "https://dc.lft.to/lastmile_qr_scan"}, "fusion_lon": 0.0, "is_reserved": 0, "is_disabled": 0, "fusion_lat": 0.0, "type": "electric_scooter", "name": "1555395a8fed0c356897262d17ee3c12", "lat": 38.912467666666664, "bike_id": "1555395a8fed0c356897262d17ee3c12"}, {"lon": -77.02798016666667, "rental_uris": {"android": "https://dc.lft.to/lastmile_qr_scan", "ios": "https://dc.lft.to/lastmile_qr_scan"}, "fusion_lon": 0.0, "is_reserved": 0, "is_disabled": 0, "fusion_lat": 0.0, "type": "electric_scooter", "name": "7660231bd3459eaad6ca79d01bbc7432", "lat": 38.892417333333334, "bike_id": "7660231bd3459eaad6ca79d01bbc7432"}, {"lon": -77.00287566666667, "rental_uris": {"android": "https://dc.lft.to/lastmile_qr_scan", "ios": "https://dc.lft.to/lastmile_qr_scan"}, "fusion_lon": 0.0, "is_reserved": 0, "is_disabled": 0, "fusion_lat": 0.0, "type": "electric_scooter", "name": "693afcb586ceaefcccefb52b0ba1a68a", "lat": 38.87661083333333, "bike_id": "693afcb586ceaefcccefb52b0ba1a68a"}, {"lon": -77.02825516666667, "rental_uris": {"android": "https://dc.lft.to/lastmile_qr_scan", "ios": "https://dc.lft.to/lastmile_qr_scan"}, "fusion_lon": 0.0, "is_reserved": 0, "is_disabled": 0, "fusion_lat": 0.0, "type": "electric_scooter", "name": "bcc779943fd539a6aebf899fa4b4804e", "lat": 38.886594833333334, "bike_id": "bcc779943fd539a6aebf899fa4b4804e"}, {"lon": -77.04546033333334, "rental_uris": {"android": "https://dc.lft.to/lastmile_qr_scan", "ios": "https://dc.lft.to/lastmile_qr_scan"}, "fusion_lon": 0.0, "is_reserved": 0, "is_disabled": 0, "fusion_lat": 0.0, "type": "electric_scooter", "name": "44d7c23986c15c6014c37b23050a483c", "lat": 38.91108766666667, "bike_id": "44d7c23986c15c6014c37b23050a483c"}, {"lon": -77.0220145, "rental_uris": {"android": "https://dc.lft.to/lastmile_qr_scan", "ios": "https://dc.lft.to/lastmile_qr_scan"}, "fusion_lon": 0.0, "is_reserved": 0, "is_disabled": 0, "fusion_lat": 0.0, "type": "electric_scooter", "name": "c7b9a17ad47302b59f720f361d934995", "lat": 38.893978, "bike_id": "c7b9a17ad47302b59f720f361d934995"}, {"lon": -77.04460666666667, "rental_uris": {"android": "https://dc.lft.to/lastmile_qr_scan", "ios": "https://dc.lft.to/lastmile_qr_scan"}, "fusion_lon": 0.0, "is_reserved": 0, "is_disabled": 0, "fusion_lat": 0.0, "type": "electric_scooter", "name": "afc1fd60937a8d2e4fb7a1ad78ec5d0c", "lat": 38.90022666666667, "bike_id": "afc1fd60937a8d2e4fb7a1ad78ec5d0c"}, {"lon": -77.02100783333333, "rental_uris": {"android": "https://dc.lft.to/lastmile_qr_scan", "ios": "https://dc.lft.to/lastmile_qr_scan"}, "fusion_lon": 0.0, "is_reserved": 0, "is_disabled": 0, "fusion_lat": 0.0, "type": "electric_scooter", "name": "525163443f1f78a46a1c743b67907a41", "lat": 38.910076, "bike_id": "525163443f1f78a46a1c743b67907a41"}, {"lon": -77.00559716666666, "rental_uris": {"android": "https://dc.lft.to/lastmile_qr_scan", "ios": "https://dc.lft.to/lastmile_qr_scan"}, "fusion_lon": 0.0, "is_reserved": 0, "is_disabled": 0, "fusion_lat": 0.0, "type": "electric_scooter", "name": "92a92ffc25e4aae5a6e7e4d607368b22", "lat": 38.875607, "bike_id": "92a92ffc25e4aae5a6e7e4d607368b22"}, {"lon": -77.04455066666667, "rental_uris": {"android": "https://dc.lft.to/lastmile_qr_scan", "ios": "https://dc.lft.to/lastmile_qr_scan"}, "fusion_lon": 0.0, "is_reserved": 0, "is_disabled": 0, "fusion_lat": 0.0, "type": "electric_scooter", "name": "4c60f01be5840223ffa741a74c50b30e", "lat": 38.909618333333334, "bike_id": "4c60f01be5840223ffa741a74c50b30e"}, {"lon": -77.00924583333334, "rental_uris": {"android": "https://dc.lft.to/lastmile_qr_scan", "ios": "https://dc.lft.to/lastmile_qr_scan"}, "fusion_lon": 0.0, "is_reserved": 0, "is_disabled": 0, "fusion_lat": 0.0, "type": "electric_scooter", "name": "1cbec4b0b5fe79674cd9d228c53d01f2", "lat": 38.89605866666667, "bike_id": "1cbec4b0b5fe79674cd9d228c53d01f2"}, {"lon": -76.998325, "rental_uris": {"android": "https://dc.lft.to/lastmile_qr_scan", "ios": "https://dc.lft.to/lastmile_qr_scan"}, "fusion_lon": 0.0, "is_reserved": 0, "is_disabled": 0, "fusion_lat": 0.0, "type": "electric_scooter", "name": "bc3ced98157288d055d3342af9c4c11f", "lat": 38.838575666666664, "bike_id": "bc3ced98157288d055d3342af9c4c11f"}, {"lon": -77.03247133333333, "rental_uris": {"android": "https://dc.lft.to/lastmile_qr_scan", "ios": "https://dc.lft.to/lastmile_qr_scan"}, "fusion_lon": 0.0, "is_reserved": 0, "is_disabled": 0, "fusion_lat": 0.0, "type": "electric_scooter", "name": "fcc3b35694b43e4b7276c3e25857a7ea", "lat": 38.91987616666667, "bike_id": "fcc3b35694b43e4b7276c3e25857a7ea"}, {"lon": -77.04639633333333, "rental_uris": {"android": "https://dc.lft.to/lastmile_qr_scan", "ios": "https://dc.lft.to/lastmile_qr_scan"}, "fusion_lon": 0.0, "is_reserved": 0, "is_disabled": 0, "fusion_lat": 0.0, "type": "electric_scooter", "name": "8fe73718bd9a4f1610fa173d53c91f74", "lat": 38.89718216666667, "bike_id": "8fe73718bd9a4f1610fa173d53c91f74"}, {"lon": -76.98767583333333, "rental_uris": {"android": "https://dc.lft.to/lastmile_qr_scan", "ios": "https://dc.lft.to/lastmile_qr_scan"}, "fusion_lon": 0.0, "is_reserved": 0, "is_disabled": 0, "fusion_lat": 0.0, "type": "electric_bike", "name": "824b5f43cef5a882c6f47dcc0b78cd97", "lat": 38.85765516666667, "bike_id": "824b5f43cef5a882c6f47dcc0b78cd97"}, {"lon": -77.04513866666667, "rental_uris": {"android": "https://dc.lft.to/lastmile_qr_scan", "ios": "https://dc.lft.to/lastmile_qr_scan"}, "fusion_lon": 0.0, "is_reserved": 0, "is_disabled": 0, "fusion_lat": 0.0, "type": "electric_scooter", "name": "08d6a691128a0dd42fc43376de146474", "lat": 38.908592166666665, "bike_id": "08d6a691128a0dd42fc43376de146474"}, {"lon": -77.039329, "rental_uris": {"android": "https://dc.lft.to/lastmile_qr_scan", "ios": "https://dc.lft.to/lastmile_qr_scan"}, "fusion_lon": 0.0, "is_reserved": 0, "is_disabled": 0, "fusion_lat": 0.0, "type": "electric_scooter", "name": "835e82e540d476ac95834d5d50f2cc6d", "lat": 38.92121216666666, "bike_id": "835e82e540d476ac95834d5d50f2cc6d"}, {"lon": -77.03244283333333, "rental_uris": {"android": "https://dc.lft.to/lastmile_qr_scan", "ios": "https://dc.lft.to/lastmile_qr_scan"}, "fusion_lon": 0.0, "is_reserved": 0, "is_disabled": 0, "fusion_lat": 0.0, "type": "electric_scooter", "name": "634c7139d1642d64d6fdfa15f2962a0f", "lat": 38.93449533333333, "bike_id": "634c7139d1642d64d6fdfa15f2962a0f"}, {"lon": -77.001439, "rental_uris": {"android": "https://dc.lft.to/lastmile_qr_scan", "ios": "https://dc.lft.to/lastmile_qr_scan"}, "fusion_lon": 0.0, "is_reserved": 0, "is_disabled": 0, "fusion_lat": 0.0, "type": "electric_scooter", "name": "8b65824dd119adbe0b594f9cf0457484", "lat": 38.91073766666667, "bike_id": "8b65824dd119adbe0b594f9cf0457484"}, {"lon": -77.04114616666666, "rental_uris": {"android": "https://dc.lft.to/lastmile_qr_scan", "ios": "https://dc.lft.to/lastmile_qr_scan"}, "fusion_lon": 0.0, "is_reserved": 0, "is_disabled": 0, "fusion_lat": 0.0, "type": "electric_scooter", "name": "56455307025dfc5e8686cce008877a72", "lat": 38.8991965, "bike_id": "56455307025dfc5e8686cce008877a72"}, {"lon": -76.990313, "rental_uris": {"android": "https://dc.lft.to/lastmile_qr_scan", "ios": "https://dc.lft.to/lastmile_qr_scan"}, "fusion_lon": 0.0, "is_reserved": 0, "is_disabled": 0, "fusion_lat": 0.0, "type": "electric_scooter", "name": "688a13ea526f6a93203a32430a255015", "lat": 38.89849933333333, "bike_id": "688a13ea526f6a93203a32430a255015"}, {"lon": -77.0253535, "rental_uris": {"android": "https://dc.lft.to/lastmile_qr_scan", "ios": "https://dc.lft.to/lastmile_qr_scan"}, "fusion_lon": 0.0, "is_reserved": 0, "is_disabled": 0, "fusion_lat": 0.0, "type": "electric_scooter", "name": "1a087834f714a3c71b36af8a8900130a", "lat": 38.927471, "bike_id": "1a087834f714a3c71b36af8a8900130a"}, {"lon": -77.02485966666667, "rental_uris": {"android": "https://dc.lft.to/lastmile_qr_scan", "ios": "https://dc.lft.to/lastmile_qr_scan"}, "fusion_lon": 0.0, "is_reserved": 0, "is_disabled": 0, "fusion_lat": 0.0, "type": "electric_scooter", "name": "fef8fb88ffc2c9208dfe5790812fc5ff", "lat": 38.93899783333333, "bike_id": "fef8fb88ffc2c9208dfe5790812fc5ff"}, {"lon": -77.0434085, "rental_uris": {"android": "https://dc.lft.to/lastmile_qr_scan", "ios": "https://dc.lft.to/lastmile_qr_scan"}, "fusion_lon": 0.0, "is_reserved": 0, "is_disabled": 0, "fusion_lat": 0.0, "type": "electric_scooter", "name": "ecab8cb2766c7781d8a7f6afc1bbe17f", "lat": 38.892229666666665, "bike_id": "ecab8cb2766c7781d8a7f6afc1bbe17f"}, {"lon": -76.90739166666667, "rental_uris": {"android": "https://dc.lft.to/lastmile_qr_scan", "ios": "https://dc.lft.to/lastmile_qr_scan"}, "fusion_lon": 0.0, "is_reserved": 0, "is_disabled": 0, "fusion_lat": 0.0, "type": "electric_bike", "name": "64ad764ba263b5b2615e9c4e021e624b", "lat": 38.896183, "bike_id": "64ad764ba263b5b2615e9c4e021e624b"}, {"lon": -77.03707783333333, "rental_uris": {"android": "https://dc.lft.to/lastmile_qr_scan", "ios": "https://dc.lft.to/lastmile_qr_scan"}, "fusion_lon": 0.0, "is_reserved": 0, "is_disabled": 0, "fusion_lat": 0.0, "type": "electric_scooter", "name": "41f5155b5c5bc6844dc4292c99f5af10", "lat": 38.92644266666667, "bike_id": "41f5155b5c5bc6844dc4292c99f5af10"}, {"lon": -77.0288565, "rental_uris": {"android": "https://dc.lft.to/lastmile_qr_scan", "ios": "https://dc.lft.to/lastmile_qr_scan"}, "fusion_lon": 0.0, "is_reserved": 0, "is_disabled": 0, "fusion_lat": 0.0, "type": "electric_scooter", "name": "976a4fdbcc1a84b96db607774c4bcbe7", "lat": 38.96073466666667, "bike_id": "976a4fdbcc1a84b96db607774c4bcbe7"}, {"lon": -77.070686, "rental_uris": {"android": "https://dc.lft.to/lastmile_qr_scan", "ios": "https://dc.lft.to/lastmile_qr_scan"}, "fusion_lon": 0.0, "is_reserved": 0, "is_disabled": 0, "fusion_lat": 0.0, "type": "electric_bike", "name": "9d26c9803c40ac5b4dfa3fef0d580d45", "lat": 38.90591633333333, "bike_id": "9d26c9803c40ac5b4dfa3fef0d580d45"}, {"lon": -77.0215305, "rental_uris": {"android": "https://dc.lft.to/lastmile_qr_scan", "ios": "https://dc.lft.to/lastmile_qr_scan"}, "fusion_lon": 0.0, "is_reserved": 0, "is_disabled": 0, "fusion_lat": 0.0, "type": "electric_scooter", "name": "0ca508291f44090c6882c0ea8045fb42", "lat": 38.925982, "bike_id": "0ca508291f44090c6882c0ea8045fb42"}, {"lon": -76.99535166666666, "rental_uris": {"android": "https://dc.lft.to/lastmile_qr_scan", "ios": "https://dc.lft.to/lastmile_qr_scan"}, "fusion_lon": 0.0, "is_reserved": 0, "is_disabled": 0, "fusion_lat": 0.0, "type": "electric_scooter", "name": "c52b03ef8b08988613a1da8fd8ff1ebb", "lat": 38.862676, "bike_id": "c52b03ef8b08988613a1da8fd8ff1ebb"}, {"lon": -77.05016633333334, "rental_uris": {"android": "https://dc.lft.to/lastmile_qr_scan", "ios": "https://dc.lft.to/lastmile_qr_scan"}, "fusion_lon": 0.0, "is_reserved": 0, "is_disabled": 0, "fusion_lat": 0.0, "type": "electric_scooter", "name": "943b438d1e9e209504b8d70f3383f5ee", "lat": 38.92339116666667, "bike_id": "943b438d1e9e209504b8d70f3383f5ee"}, {"lon": -77.04605, "rental_uris": {"android": "https://dc.lft.to/lastmile_qr_scan", "ios": "https://dc.lft.to/lastmile_qr_scan"}, "fusion_lon": 0.0, "is_reserved": 0, "is_disabled": 0, "fusion_lat": 0.0, "type": "electric_scooter", "name": "7a38ed140531bbd50a6066367f175534", "lat": 38.917214, "bike_id": "7a38ed140531bbd50a6066367f175534"}, {"lon": -76.9465255, "rental_uris": {"android": "https://dc.lft.to/lastmile_qr_scan", "ios": "https://dc.lft.to/lastmile_qr_scan"}, "fusion_lon": 0.0, "is_reserved": 0, "is_disabled": 0, "fusion_lat": 0.0, "type": "electric_scooter", "name": "6c99a68f62dba2c6340205e054a4639d", "lat": 38.89824466666666, "bike_id": "6c99a68f62dba2c6340205e054a4639d"}, {"lon": -77.006144, "rental_uris": {"android": "https://dc.lft.to/lastmile_qr_scan", "ios": "https://dc.lft.to/lastmile_qr_scan"}, "fusion_lon": 0.0, "is_reserved": 0, "is_disabled": 0, "fusion_lat": 0.0, "type": "electric_scooter", "name": "d18a60766062587aec9b23af58bbe443", "lat": 38.90608066666667, "bike_id": "d18a60766062587aec9b23af58bbe443"}, {"lon": -77.02291216666667, "rental_uris": {"android": "https://dc.lft.to/lastmile_qr_scan", "ios": "https://dc.lft.to/lastmile_qr_scan"}, "fusion_lon": 0.0, "is_reserved": 0, "is_disabled": 0, "fusion_lat": 0.0, "type": "electric_scooter", "name": "e4c9ae07f531c39fb5115a4daead044e", "lat": 38.91827966666666, "bike_id": "e4c9ae07f531c39fb5115a4daead044e"}, {"lon": -77.04863783333333, "rental_uris": {"android": "https://dc.lft.to/lastmile_qr_scan", "ios": "https://dc.lft.to/lastmile_qr_scan"}, "fusion_lon": 0.0, "is_reserved": 0, "is_disabled": 0, "fusion_lat": 0.0, "type": "electric_scooter", "name": "30553fdde3f0c1239c87a13375c9d0af", "lat": 38.892245833333334, "bike_id": "30553fdde3f0c1239c87a13375c9d0af"}, {"lon": -76.98654716666667, "rental_uris": {"android": "https://dc.lft.to/lastmile_qr_scan", "ios": "https://dc.lft.to/lastmile_qr_scan"}, "fusion_lon": 0.0, "is_reserved": 0, "is_disabled": 0, "fusion_lat": 0.0, "type": "electric_scooter", "name": "a98548ec1b2cf7b8478bd0940a22335b", "lat": 38.893530166666665, "bike_id": "a98548ec1b2cf7b8478bd0940a22335b"}, {"lon": -77.03294516666666, "rental_uris": {"android": "https://dc.lft.to/lastmile_qr_scan", "ios": "https://dc.lft.to/lastmile_qr_scan"}, "fusion_lon": 0.0, "is_reserved": 0, "is_disabled": 0, "fusion_lat": 0.0, "type": "electric_scooter", "name": "edc5860cbbb90bc59f9dfeffc62be319", "lat": 38.939586166666665, "bike_id": "edc5860cbbb90bc59f9dfeffc62be319"}, {"lon": -77.024787, "rental_uris": {"android": "https://dc.lft.to/lastmile_qr_scan", "ios": "https://dc.lft.to/lastmile_qr_scan"}, "fusion_lon": 0.0, "is_reserved": 0, "is_disabled": 0, "fusion_lat": 0.0, "type": "electric_scooter", "name": "3d2040f5a3be64d1c9c34e76f8548519", "lat": 38.91814016666667, "bike_id": "3d2040f5a3be64d1c9c34e76f8548519"}, {"lon": -77.04318233333333, "rental_uris": {"android": "https://dc.lft.to/lastmile_qr_scan", "ios": "https://dc.lft.to/lastmile_qr_scan"}, "fusion_lon": 0.0, "is_reserved": 0, "is_disabled": 0, "fusion_lat": 0.0, "type": "electric_scooter", "name": "e95c1c4250e7d074fc222ccfb42738db", "lat": 38.923603, "bike_id": "e95c1c4250e7d074fc222ccfb42738db"}, {"lon": -77.04863283333333, "rental_uris": {"android": "https://dc.lft.to/lastmile_qr_scan", "ios": "https://dc.lft.to/lastmile_qr_scan"}, "fusion_lon": 0.0, "is_reserved": 0, "is_disabled": 0, "fusion_lat": 0.0, "type": "electric_scooter", "name": "56b2e6a6da3ebd9526f2cf0343f664e7", "lat": 38.90954883333333, "bike_id": "56b2e6a6da3ebd9526f2cf0343f664e7"}, {"lon": -77.01926066666667, "rental_uris": {"android": "https://dc.lft.to/lastmile_qr_scan", "ios": "https://dc.lft.to/lastmile_qr_scan"}, "fusion_lon": 0.0, "is_reserved": 0, "is_disabled": 0, "fusion_lat": 0.0, "type": "electric_scooter", "name": "10f29808fa576889a0999afc500540ad", "lat": 38.922725166666666, "bike_id": "10f29808fa576889a0999afc500540ad"}, {"lon": -77.0151275, "rental_uris": {"android": "https://dc.lft.to/lastmile_qr_scan", "ios": "https://dc.lft.to/lastmile_qr_scan"}, "fusion_lon": 0.0, "is_reserved": 0, "is_disabled": 0, "fusion_lat": 0.0, "type": "electric_scooter", "name": "1d750b74b1bb7750fc5a1c44e8f03d79", "lat": 38.95800333333333, "bike_id": "1d750b74b1bb7750fc5a1c44e8f03d79"}, {"lon": -77.02343416666666, "rental_uris": {"android": "https://dc.lft.to/lastmile_qr_scan", "ios": "https://dc.lft.to/lastmile_qr_scan"}, "fusion_lon": 0.0, "is_reserved": 0, "is_disabled": 0, "fusion_lat": 0.0, "type": "electric_scooter", "name": "7ceb995e0e008839b1d99ffa9e64b233", "lat": 38.920495333333335, "bike_id": "7ceb995e0e008839b1d99ffa9e64b233"}, {"lon": -77.00199183333334, "rental_uris": {"android": "https://dc.lft.to/lastmile_qr_scan", "ios": "https://dc.lft.to/lastmile_qr_scan"}, "fusion_lon": 0.0, "is_reserved": 0, "is_disabled": 0, "fusion_lat": 0.0, "type": "electric_scooter", "name": "aad626312750cddf45c32939005cd9f7", "lat": 38.91161366666667, "bike_id": "aad626312750cddf45c32939005cd9f7"}, {"lon": -77.007182, "rental_uris": {"android": "https://dc.lft.to/lastmile_qr_scan", "ios": "https://dc.lft.to/lastmile_qr_scan"}, "fusion_lon": 0.0, "is_reserved": 0, "is_disabled": 0, "fusion_lat": 0.0, "type": "electric_scooter", "name": "a7773e1bf305fbbee0664397a3201ad5", "lat": 38.87848833333334, "bike_id": "a7773e1bf305fbbee0664397a3201ad5"}, {"lon": -77.000698, "rental_uris": {"android": "https://dc.lft.to/lastmile_qr_scan", "ios": "https://dc.lft.to/lastmile_qr_scan"}, "fusion_lon": 0.0, "is_reserved": 0, "is_disabled": 0, "fusion_lat": 0.0, "type": "electric_scooter", "name": "b9e0b94253272c8645670d18f04d0e45", "lat": 38.876839833333335, "bike_id": "b9e0b94253272c8645670d18f04d0e45"}, {"lon": -77.03995966666666, "rental_uris": {"android": "https://dc.lft.to/lastmile_qr_scan", "ios": "https://dc.lft.to/lastmile_qr_scan"}, "fusion_lon": 0.0, "is_reserved": 0, "is_disabled": 0, "fusion_lat": 0.0, "type": "electric_scooter", "name": "511a8dad071610cad93384ac882d919d", "lat": 38.93430816666667, "bike_id": "511a8dad071610cad93384ac882d919d"}, {"lon": -77.02186033333334, "rental_uris": {"android": "https://dc.lft.to/lastmile_qr_scan", "ios": "https://dc.lft.to/lastmile_qr_scan"}, "fusion_lon": 0.0, "is_reserved": 0, "is_disabled": 0, "fusion_lat": 0.0, "type": "electric_bike", "name": "ac562a2bedd83e252d86e64c379f562d", "lat": 39.00475933333333, "bike_id": "ac562a2bedd83e252d86e64c379f562d"}, {"lon": -77.06524866666666, "rental_uris": {"android": "https://dc.lft.to/lastmile_qr_scan", "ios": "https://dc.lft.to/lastmile_qr_scan"}, "fusion_lon": 0.0, "is_reserved": 0, "is_disabled": 0, "fusion_lat": 0.0, "type": "electric_scooter", "name": "7e68a36ff7446ef35d1abcb8d6d776a6", "lat": 38.924150833333336, "bike_id": "7e68a36ff7446ef35d1abcb8d6d776a6"}, {"lon": -77.0122335, "rental_uris": {"android": "https://dc.lft.to/lastmile_qr_scan", "ios": "https://dc.lft.to/lastmile_qr_scan"}, "fusion_lon": 0.0, "is_reserved": 0, "is_disabled": 0, "fusion_lat": 0.0, "type": "electric_scooter", "name": "ad2227169cfb2eabbce4a508fb93f129", "lat": 38.920285166666666, "bike_id": "ad2227169cfb2eabbce4a508fb93f129"}, {"lon": -77.01950283333333, "rental_uris": {"android": "https://dc.lft.to/lastmile_qr_scan", "ios": "https://dc.lft.to/lastmile_qr_scan"}, "fusion_lon": 0.0, "is_reserved": 0, "is_disabled": 0, "fusion_lat": 0.0, "type": "electric_scooter", "name": "b6912ac22d7b225701cc731783f373c4", "lat": 38.92416633333333, "bike_id": "b6912ac22d7b225701cc731783f373c4"}, {"lon": -76.96506516666666, "rental_uris": {"android": "https://dc.lft.to/lastmile_qr_scan", "ios": "https://dc.lft.to/lastmile_qr_scan"}, "fusion_lon": 0.0, "is_reserved": 0, "is_disabled": 0, "fusion_lat": 0.0, "type": "electric_scooter", "name": "d9d6fe4f037dd708faf2c2c0d3610e47", "lat": 38.8764655, "bike_id": "d9d6fe4f037dd708faf2c2c0d3610e47"}, {"lon": -77.05141333333333, "rental_uris": {"android": "https://dc.lft.to/lastmile_qr_scan", "ios": "https://dc.lft.to/lastmile_qr_scan"}, "fusion_lon": 0.0, "is_reserved": 0, "is_disabled": 0, "fusion_lat": 0.0, "type": "electric_scooter", "name": "b374a630c07e082b48ff002dd3c23068", "lat": 38.906458, "bike_id": "b374a630c07e082b48ff002dd3c23068"}, {"lon": -77.04025283333333, "rental_uris": {"android": "https://dc.lft.to/lastmile_qr_scan", "ios": "https://dc.lft.to/lastmile_qr_scan"}, "fusion_lon": 0.0, "is_reserved": 0, "is_disabled": 0, "fusion_lat": 0.0, "type": "electric_scooter", "name": "884ec2d1aca420b8aed6e4f5a9072c0f", "lat": 38.9014635, "bike_id": "884ec2d1aca420b8aed6e4f5a9072c0f"}, {"lon": -77.0219055, "rental_uris": {"android": "https://dc.lft.to/lastmile_qr_scan", "ios": "https://dc.lft.to/lastmile_qr_scan"}, "fusion_lon": 0.0, "is_reserved": 0, "is_disabled": 0, "fusion_lat": 0.0, "type": "electric_bike", "name": "9471c43f1a772b23821d49b140066b3b", "lat": 39.004727833333334, "bike_id": "9471c43f1a772b23821d49b140066b3b"}, {"lon": -77.0380805, "rental_uris": {"android": "https://dc.lft.to/lastmile_qr_scan", "ios": "https://dc.lft.to/lastmile_qr_scan"}, "fusion_lon": 0.0, "is_reserved": 0, "is_disabled": 0, "fusion_lat": 0.0, "type": "electric_scooter", "name": "3fa5ab2014a69ef83bd6a3cbb860de69", "lat": 38.906854333333335, "bike_id": "3fa5ab2014a69ef83bd6a3cbb860de69"}, {"lon": -77.036215, "rental_uris": {"android": "https://dc.lft.to/lastmile_qr_scan", "ios": "https://dc.lft.to/lastmile_qr_scan"}, "fusion_lon": 0.0, "is_reserved": 0, "is_disabled": 0, "fusion_lat": 0.0, "type": "electric_scooter", "name": "52e7b6c49c67b7671a9379e1d5d68ffd", "lat": 38.92846616666667, "bike_id": "52e7b6c49c67b7671a9379e1d5d68ffd"}, {"lon": -77.0467965, "rental_uris": {"android": "https://dc.lft.to/lastmile_qr_scan", "ios": "https://dc.lft.to/lastmile_qr_scan"}, "fusion_lon": 0.0, "is_reserved": 0, "is_disabled": 0, "fusion_lat": 0.0, "type": "electric_scooter", "name": "235a83b4758faee30620466f7b39321f", "lat": 38.895032666666665, "bike_id": "235a83b4758faee30620466f7b39321f"}, {"lon": -77.0317155, "rental_uris": {"android": "https://dc.lft.to/lastmile_qr_scan", "ios": "https://dc.lft.to/lastmile_qr_scan"}, "fusion_lon": 0.0, "is_reserved": 0, "is_disabled": 0, "fusion_lat": 0.0, "type": "electric_scooter", "name": "f600c29a9b62c144bff638c4f6d81310", "lat": 38.89217166666667, "bike_id": "f600c29a9b62c144bff638c4f6d81310"}, {"lon": -77.0225675, "rental_uris": {"android": "https://dc.lft.to/lastmile_qr_scan", "ios": "https://dc.lft.to/lastmile_qr_scan"}, "fusion_lon": 0.0, "is_reserved": 0, "is_disabled": 0, "fusion_lat": 0.0, "type": "electric_scooter", "name": "0f063da4f31770ae451f2550fedf87a3", "lat": 38.928929333333336, "bike_id": "0f063da4f31770ae451f2550fedf87a3"}, {"lon": -76.97524483333333, "rental_uris": {"android": "https://dc.lft.to/lastmile_qr_scan", "ios": "https://dc.lft.to/lastmile_qr_scan"}, "fusion_lon": 0.0, "is_reserved": 0, "is_disabled": 0, "fusion_lat": 0.0, "type": "electric_bike", "name": "a5f935673873bfadd8c9febfa85c44d3", "lat": 38.84003283333333, "bike_id": "a5f935673873bfadd8c9febfa85c44d3"}, {"lon": -77.03789416666666, "rental_uris": {"android": "https://dc.lft.to/lastmile_qr_scan", "ios": "https://dc.lft.to/lastmile_qr_scan"}, "fusion_lon": 0.0, "is_reserved": 0, "is_disabled": 0, "fusion_lat": 0.0, "type": "electric_scooter", "name": "a46e130c0e38ff4c53d1b8008f039e68", "lat": 38.902324, "bike_id": "a46e130c0e38ff4c53d1b8008f039e68"}, {"lon": -77.05003, "rental_uris": {"android": "https://dc.lft.to/lastmile_qr_scan", "ios": "https://dc.lft.to/lastmile_qr_scan"}, "fusion_lon": 0.0, "is_reserved": 0, "is_disabled": 0, "fusion_lat": 0.0, "type": "electric_scooter", "name": "c574e5be369d53b97406cf29c57220ed", "lat": 38.899234166666666, "bike_id": "c574e5be369d53b97406cf29c57220ed"}, {"lon": -77.03882266666666, "rental_uris": {"android": "https://dc.lft.to/lastmile_qr_scan", "ios": "https://dc.lft.to/lastmile_qr_scan"}, "fusion_lon": 0.0, "is_reserved": 0, "is_disabled": 0, "fusion_lat": 0.0, "type": "electric_scooter", "name": "97e7d4a486231432ddbf6c524e5aae27", "lat": 38.906448833333336, "bike_id": "97e7d4a486231432ddbf6c524e5aae27"}, {"lon": -77.03813383333333, "rental_uris": {"android": "https://dc.lft.to/lastmile_qr_scan", "ios": "https://dc.lft.to/lastmile_qr_scan"}, "fusion_lon": 0.0, "is_reserved": 0, "is_disabled": 0, "fusion_lat": 0.0, "type": "electric_scooter", "name": "554baba3363019755a6c743aacd27e47", "lat": 38.909721, "bike_id": "554baba3363019755a6c743aacd27e47"}, {"lon": -76.96260783333334, "rental_uris": {"android": "https://dc.lft.to/lastmile_qr_scan", "ios": "https://dc.lft.to/lastmile_qr_scan"}, "fusion_lon": 0.0, "is_reserved": 0, "is_disabled": 0, "fusion_lat": 0.0, "type": "electric_scooter", "name": "3b86c53181e9eaf12a77abaab1dd8be7", "lat": 38.87866533333333, "bike_id": "3b86c53181e9eaf12a77abaab1dd8be7"}, {"lon": -77.0183855, "rental_uris": {"android": "https://dc.lft.to/lastmile_qr_scan", "ios": "https://dc.lft.to/lastmile_qr_scan"}, "fusion_lon": 0.0, "is_reserved": 0, "is_disabled": 0, "fusion_lat": 0.0, "type": "electric_scooter", "name": "e39fe734fc3ad9e64127a1c1574866d0", "lat": 38.904279333333335, "bike_id": "e39fe734fc3ad9e64127a1c1574866d0"}, {"lon": -77.0366265, "rental_uris": {"android": "https://dc.lft.to/lastmile_qr_scan", "ios": "https://dc.lft.to/lastmile_qr_scan"}, "fusion_lon": 0.0, "is_reserved": 0, "is_disabled": 0, "fusion_lat": 0.0, "type": "electric_scooter", "name": "17ce0156ac03e9569764dc451138fcb7", "lat": 38.9091045, "bike_id": "17ce0156ac03e9569764dc451138fcb7"}, {"lon": -76.937555, "rental_uris": {"android": "https://dc.lft.to/lastmile_qr_scan", "ios": "https://dc.lft.to/lastmile_qr_scan"}, "fusion_lon": 0.0, "is_reserved": 0, "is_disabled": 0, "fusion_lat": 0.0, "type": "electric_scooter", "name": "9c5d2bc4757d70b24645fa7724faa180", "lat": 38.890451, "bike_id": "9c5d2bc4757d70b24645fa7724faa180"}, {"lon": -77.04532816666666, "rental_uris": {"android": "https://dc.lft.to/lastmile_qr_scan", "ios": "https://dc.lft.to/lastmile_qr_scan"}, "fusion_lon": 0.0, "is_reserved": 0, "is_disabled": 0, "fusion_lat": 0.0, "type": "electric_scooter", "name": "b683881f9455a3dd3f59437c6c399b01", "lat": 38.91820666666667, "bike_id": "b683881f9455a3dd3f59437c6c399b01"}, {"lon": -77.04261633333333, "rental_uris": {"android": "https://dc.lft.to/lastmile_qr_scan", "ios": "https://dc.lft.to/lastmile_qr_scan"}, "fusion_lon": 0.0, "is_reserved": 0, "is_disabled": 0, "fusion_lat": 0.0, "type": "electric_scooter", "name": "a1a3ffd0b961918d269e6a262c180f3b", "lat": 38.8995195, "bike_id": "a1a3ffd0b961918d269e6a262c180f3b"}, {"lon": -77.036622, "rental_uris": {"android": "https://dc.lft.to/lastmile_qr_scan", "ios": "https://dc.lft.to/lastmile_qr_scan"}, "fusion_lon": 0.0, "is_reserved": 0, "is_disabled": 0, "fusion_lat": 0.0, "type": "electric_scooter", "name": "9e7934568a1e8b2f4c8d924a05c3610f", "lat": 38.90841916666667, "bike_id": "9e7934568a1e8b2f4c8d924a05c3610f"}, {"lon": -77.22902916666666, "rental_uris": {"android": "https://dc.lft.to/lastmile_qr_scan", "ios": "https://dc.lft.to/lastmile_qr_scan"}, "fusion_lon": 0.0, "is_reserved": 0, "is_disabled": 0, "fusion_lat": 0.0, "type": "electric_bike", "name": "cde353d564badbe5d09a400712282387", "lat": 38.87027283333333, "bike_id": "cde353d564badbe5d09a400712282387"}, {"lon": -77.09724833333334, "rental_uris": {"android": "https://dc.lft.to/lastmile_qr_scan", "ios": "https://dc.lft.to/lastmile_qr_scan"}, "fusion_lon": 0.0, "is_reserved": 0, "is_disabled": 0, "fusion_lat": 0.0, "type": "electric_bike", "name": "8544f8dedecff5a0ff415afd68e98688", "lat": 38.80734483333333, "bike_id": "8544f8dedecff5a0ff415afd68e98688"}, {"lon": -77.00199833333333, "rental_uris": {"android": "https://dc.lft.to/lastmile_qr_scan", "ios": "https://dc.lft.to/lastmile_qr_scan"}, "fusion_lon": 0.0, "is_reserved": 0, "is_disabled": 0, "fusion_lat": 0.0, "type": "electric_scooter", "name": "f4e342b260f575e270c3b0f339b4cf94", "lat": 38.90235666666667, "bike_id": "f4e342b260f575e270c3b0f339b4cf94"}, {"lon": -77.0316505, "rental_uris": {"android": "https://dc.lft.to/lastmile_qr_scan", "ios": "https://dc.lft.to/lastmile_qr_scan"}, "fusion_lon": 0.0, "is_reserved": 0, "is_disabled": 0, "fusion_lat": 0.0, "type": "electric_scooter", "name": "dd66b6c572a5348f0e3d019f712ae04a", "lat": 38.916449, "bike_id": "dd66b6c572a5348f0e3d019f712ae04a"}, {"lon": -77.0458385, "rental_uris": {"android": "https://dc.lft.to/lastmile_qr_scan", "ios": "https://dc.lft.to/lastmile_qr_scan"}, "fusion_lon": 0.0, "is_reserved": 0, "is_disabled": 0, "fusion_lat": 0.0, "type": "electric_scooter", "name": "479ba9703a17325d7f1c6f7bb2bae950", "lat": 38.90281483333333, "bike_id": "479ba9703a17325d7f1c6f7bb2bae950"}, {"lon": -77.04647466666667, "rental_uris": {"android": "https://dc.lft.to/lastmile_qr_scan", "ios": "https://dc.lft.to/lastmile_qr_scan"}, "fusion_lon": 0.0, "is_reserved": 0, "is_disabled": 0, "fusion_lat": 0.0, "type": "electric_scooter", "name": "b16fc2a82fc0f2ffce68768dde563709", "lat": 38.892222333333336, "bike_id": "b16fc2a82fc0f2ffce68768dde563709"}, {"lon": -77.01744433333333, "rental_uris": {"android": "https://dc.lft.to/lastmile_qr_scan", "ios": "https://dc.lft.to/lastmile_qr_scan"}, "fusion_lon": 0.0, "is_reserved": 0, "is_disabled": 0, "fusion_lat": 0.0, "type": "electric_scooter", "name": "81c1e054575058d5fb72dcbe2bd3f3a4", "lat": 38.89225733333333, "bike_id": "81c1e054575058d5fb72dcbe2bd3f3a4"}, {"lon": -77.05955, "rental_uris": {"android": "https://dc.lft.to/lastmile_qr_scan", "ios": "https://dc.lft.to/lastmile_qr_scan"}, "fusion_lon": 0.0, "is_reserved": 0, "is_disabled": 0, "fusion_lat": 0.0, "type": "electric_scooter", "name": "4fbeb19b5160f90f532d33d1314411bd", "lat": 38.91958666666667, "bike_id": "4fbeb19b5160f90f532d33d1314411bd"}, {"lon": -77.01944683333333, "rental_uris": {"android": "https://dc.lft.to/lastmile_qr_scan", "ios": "https://dc.lft.to/lastmile_qr_scan"}, "fusion_lon": 0.0, "is_reserved": 0, "is_disabled": 0, "fusion_lat": 0.0, "type": "electric_scooter", "name": "2cae8b72146df43663f388a41f04a0f5", "lat": 38.899106833333335, "bike_id": "2cae8b72146df43663f388a41f04a0f5"}, {"lon": -77.033345, "rental_uris": {"android": "https://dc.lft.to/lastmile_qr_scan", "ios": "https://dc.lft.to/lastmile_qr_scan"}, "fusion_lon": 0.0, "is_reserved": 0, "is_disabled": 0, "fusion_lat": 0.0, "type": "electric_scooter", "name": "543ee645918ada359eae7534a734c517", "lat": 38.972148833333335, "bike_id": "543ee645918ada359eae7534a734c517"}, {"lon": -76.95229183333333, "rental_uris": {"android": "https://dc.lft.to/lastmile_qr_scan", "ios": "https://dc.lft.to/lastmile_qr_scan"}, "fusion_lon": 0.0, "is_reserved": 0, "is_disabled": 0, "fusion_lat": 0.0, "type": "electric_scooter", "name": "b2aeb5364016e26376a7068ccb45fdac", "lat": 38.89347333333333, "bike_id": "b2aeb5364016e26376a7068ccb45fdac"}, {"lon": -77.00021333333333, "rental_uris": {"android": "https://dc.lft.to/lastmile_qr_scan", "ios": "https://dc.lft.to/lastmile_qr_scan"}, "fusion_lon": 0.0, "is_reserved": 0, "is_disabled": 0, "fusion_lat": 0.0, "type": "electric_scooter", "name": "9f5037ec22c8b98fff91ad4b707fc218", "lat": 38.8751015, "bike_id": "9f5037ec22c8b98fff91ad4b707fc218"}, {"lon": -76.99263183333333, "rental_uris": {"android": "https://dc.lft.to/lastmile_qr_scan", "ios": "https://dc.lft.to/lastmile_qr_scan"}, "fusion_lon": 0.0, "is_reserved": 0, "is_disabled": 0, "fusion_lat": 0.0, "type": "electric_scooter", "name": "f3b5cabec5e0054d0f1a778b46460c40", "lat": 38.90297016666667, "bike_id": "f3b5cabec5e0054d0f1a778b46460c40"}, {"lon": -77.03583916666666, "rental_uris": {"android": "https://dc.lft.to/lastmile_qr_scan", "ios": "https://dc.lft.to/lastmile_qr_scan"}, "fusion_lon": 0.0, "is_reserved": 0, "is_disabled": 0, "fusion_lat": 0.0, "type": "electric_scooter", "name": "e706c54bba9788d99996ef0c8cbcfd1f", "lat": 38.926245, "bike_id": "e706c54bba9788d99996ef0c8cbcfd1f"}, {"lon": -76.98290966666667, "rental_uris": {"android": "https://dc.lft.to/lastmile_qr_scan", "ios": "https://dc.lft.to/lastmile_qr_scan"}, "fusion_lon": 0.0, "is_reserved": 0, "is_disabled": 0, "fusion_lat": 0.0, "type": "electric_bike", "name": "a2d2c6fc1e5180bf5ed15968d15d605e", "lat": 38.84604933333333, "bike_id": "a2d2c6fc1e5180bf5ed15968d15d605e"}, {"lon": -77.03185283333333, "rental_uris": {"android": "https://dc.lft.to/lastmile_qr_scan", "ios": "https://dc.lft.to/lastmile_qr_scan"}, "fusion_lon": 0.0, "is_reserved": 0, "is_disabled": 0, "fusion_lat": 0.0, "type": "electric_scooter", "name": "6486996736b9f2dca2dd56f857280a59", "lat": 38.896147666666664, "bike_id": "6486996736b9f2dca2dd56f857280a59"}, {"lon": -77.059053, "rental_uris": {"android": "https://dc.lft.to/lastmile_qr_scan", "ios": "https://dc.lft.to/lastmile_qr_scan"}, "fusion_lon": 0.0, "is_reserved": 0, "is_disabled": 0, "fusion_lat": 0.0, "type": "electric_bike", "name": "3fe649194438eda3fb0994fa46db7c40", "lat": 38.90081716666667, "bike_id": "3fe649194438eda3fb0994fa46db7c40"}, {"lon": -77.10613716666667, "rental_uris": {"android": "https://dc.lft.to/lastmile_qr_scan", "ios": "https://dc.lft.to/lastmile_qr_scan"}, "fusion_lon": 0.0, "is_reserved": 0, "is_disabled": 0, "fusion_lat": 0.0, "type": "electric_bike", "name": "f1038214dcb5b488a382d4ff3a85e252", "lat": 38.935668, "bike_id": "f1038214dcb5b488a382d4ff3a85e252"}, {"lon": -77.05799333333333, "rental_uris": {"android": "https://dc.lft.to/lastmile_qr_scan", "ios": "https://dc.lft.to/lastmile_qr_scan"}, "fusion_lon": 0.0, "is_reserved": 0, "is_disabled": 0, "fusion_lat": 0.0, "type": "electric_scooter", "name": "45aa50aba0343f8d2b992944382c7e14", "lat": 38.904419833333336, "bike_id": "45aa50aba0343f8d2b992944382c7e14"}, {"lon": -77.0021205, "rental_uris": {"android": "https://dc.lft.to/lastmile_qr_scan", "ios": "https://dc.lft.to/lastmile_qr_scan"}, "fusion_lon": 0.0, "is_reserved": 0, "is_disabled": 0, "fusion_lat": 0.0, "type": "electric_scooter", "name": "c3946225de8cfd892d19b0e00b0aa322", "lat": 38.900332166666665, "bike_id": "c3946225de8cfd892d19b0e00b0aa322"}, {"lon": -77.00765983333334, "rental_uris": {"android": "https://dc.lft.to/lastmile_qr_scan", "ios": "https://dc.lft.to/lastmile_qr_scan"}, "fusion_lon": 0.0, "is_reserved": 0, "is_disabled": 0, "fusion_lat": 0.0, "type": "electric_scooter", "name": "8080ffbe991199cdf673c2935e967f64", "lat": 38.879397833333336, "bike_id": "8080ffbe991199cdf673c2935e967f64"}, {"lon": -77.04653516666667, "rental_uris": {"android": "https://dc.lft.to/lastmile_qr_scan", "ios": "https://dc.lft.to/lastmile_qr_scan"}, "fusion_lon": 0.0, "is_reserved": 0, "is_disabled": 0, "fusion_lat": 0.0, "type": "electric_scooter", "name": "1139d33fb7292cc459150bccb20ebbc2", "lat": 38.89230383333334, "bike_id": "1139d33fb7292cc459150bccb20ebbc2"}, {"lon": -77.03251083333333, "rental_uris": {"android": "https://dc.lft.to/lastmile_qr_scan", "ios": "https://dc.lft.to/lastmile_qr_scan"}, "fusion_lon": 0.0, "is_reserved": 0, "is_disabled": 0, "fusion_lat": 0.0, "type": "electric_scooter", "name": "31b8378f0715c7008b0f47676c7855d7", "lat": 38.931354666666664, "bike_id": "31b8378f0715c7008b0f47676c7855d7"}, {"lon": -77.04642533333333, "rental_uris": {"android": "https://dc.lft.to/lastmile_qr_scan", "ios": "https://dc.lft.to/lastmile_qr_scan"}, "fusion_lon": 0.0, "is_reserved": 0, "is_disabled": 0, "fusion_lat": 0.0, "type": "electric_scooter", "name": "d42beae04eababecea802f95253a053f", "lat": 38.8996645, "bike_id": "d42beae04eababecea802f95253a053f"}, {"lon": -77.02028133333333, "rental_uris": {"android": "https://dc.lft.to/lastmile_qr_scan", "ios": "https://dc.lft.to/lastmile_qr_scan"}, "fusion_lon": 0.0, "is_reserved": 0, "is_disabled": 0, "fusion_lat": 0.0, "type": "electric_scooter", "name": "054715c8800419fddaaaeca9122d3f15", "lat": 38.899042, "bike_id": "054715c8800419fddaaaeca9122d3f15"}, {"lon": -76.97956, "rental_uris": {"android": "https://dc.lft.to/lastmile_qr_scan", "ios": "https://dc.lft.to/lastmile_qr_scan"}, "fusion_lon": 0.0, "is_reserved": 0, "is_disabled": 0, "fusion_lat": 0.0, "type": "electric_scooter", "name": "2c3bbb84ef51a71abd08812bc0b931da", "lat": 38.892187, "bike_id": "2c3bbb84ef51a71abd08812bc0b931da"}, {"lon": -76.9835715, "rental_uris": {"android": "https://dc.lft.to/lastmile_qr_scan", "ios": "https://dc.lft.to/lastmile_qr_scan"}, "fusion_lon": 0.0, "is_reserved": 0, "is_disabled": 0, "fusion_lat": 0.0, "type": "electric_scooter", "name": "7d726d39c4ca7bdfcb86d932b72d67e8", "lat": 38.887259666666665, "bike_id": "7d726d39c4ca7bdfcb86d932b72d67e8"}, {"lon": -77.04355116666666, "rental_uris": {"android": "https://dc.lft.to/lastmile_qr_scan", "ios": "https://dc.lft.to/lastmile_qr_scan"}, "fusion_lon": 0.0, "is_reserved": 0, "is_disabled": 0, "fusion_lat": 0.0, "type": "electric_scooter", "name": "6b91abd5511a54430fd5f2af506cf0d6", "lat": 38.91109083333333, "bike_id": "6b91abd5511a54430fd5f2af506cf0d6"}, {"lon": -77.07464466666667, "rental_uris": {"android": "https://dc.lft.to/lastmile_qr_scan", "ios": "https://dc.lft.to/lastmile_qr_scan"}, "fusion_lon": 0.0, "is_reserved": 0, "is_disabled": 0, "fusion_lat": 0.0, "type": "electric_scooter", "name": "9d509c23216283a77b146ae152387750", "lat": 38.935565833333335, "bike_id": "9d509c23216283a77b146ae152387750"}, {"lon": -77.04121783333333, "rental_uris": {"android": "https://dc.lft.to/lastmile_qr_scan", "ios": "https://dc.lft.to/lastmile_qr_scan"}, "fusion_lon": 0.0, "is_reserved": 0, "is_disabled": 0, "fusion_lat": 0.0, "type": "electric_scooter", "name": "cc0c2245d3885a2889877319de6ae2b7", "lat": 38.92142166666667, "bike_id": "cc0c2245d3885a2889877319de6ae2b7"}, {"lon": -77.04357883333333, "rental_uris": {"android": "https://dc.lft.to/lastmile_qr_scan", "ios": "https://dc.lft.to/lastmile_qr_scan"}, "fusion_lon": 0.0, "is_reserved": 0, "is_disabled": 0, "fusion_lat": 0.0, "type": "electric_scooter", "name": "cd778dc31982591785733d6617385237", "lat": 38.905337333333335, "bike_id": "cd778dc31982591785733d6617385237"}, {"lon": -77.00600266666666, "rental_uris": {"android": "https://dc.lft.to/lastmile_qr_scan", "ios": "https://dc.lft.to/lastmile_qr_scan"}, "fusion_lon": 0.0, "is_reserved": 0, "is_disabled": 0, "fusion_lat": 0.0, "type": "electric_scooter", "name": "b0ae4671758f065eb73aa6decc04d614", "lat": 38.906124, "bike_id": "b0ae4671758f065eb73aa6decc04d614"}, {"lon": -77.04756733333333, "rental_uris": {"android": "https://dc.lft.to/lastmile_qr_scan", "ios": "https://dc.lft.to/lastmile_qr_scan"}, "fusion_lon": 0.0, "is_reserved": 0, "is_disabled": 0, "fusion_lat": 0.0, "type": "electric_scooter", "name": "0bbceb36e13febef5fccb512298a315f", "lat": 38.895924, "bike_id": "0bbceb36e13febef5fccb512298a315f"}, {"lon": -77.03513466666666, "rental_uris": {"android": "https://dc.lft.to/lastmile_qr_scan", "ios": "https://dc.lft.to/lastmile_qr_scan"}, "fusion_lon": 0.0, "is_reserved": 0, "is_disabled": 0, "fusion_lat": 0.0, "type": "electric_scooter", "name": "ea969f5d7830b4d3f5e3c6f1f2440bb6", "lat": 38.921497333333335, "bike_id": "ea969f5d7830b4d3f5e3c6f1f2440bb6"}, {"lon": -77.03277566666667, "rental_uris": {"android": "https://dc.lft.to/lastmile_qr_scan", "ios": "https://dc.lft.to/lastmile_qr_scan"}, "fusion_lon": 0.0, "is_reserved": 0, "is_disabled": 0, "fusion_lat": 0.0, "type": "electric_scooter", "name": "7de93777fee383ae4e3131596211cafc", "lat": 38.932532333333334, "bike_id": "7de93777fee383ae4e3131596211cafc"}, {"lon": -77.03189766666667, "rental_uris": {"android": "https://dc.lft.to/lastmile_qr_scan", "ios": "https://dc.lft.to/lastmile_qr_scan"}, "fusion_lon": 0.0, "is_reserved": 0, "is_disabled": 0, "fusion_lat": 0.0, "type": "electric_scooter", "name": "8b6efb42dc22b08935f05046f705b397", "lat": 38.900355166666664, "bike_id": "8b6efb42dc22b08935f05046f705b397"}, {"lon": -77.005665, "rental_uris": {"android": "https://dc.lft.to/lastmile_qr_scan", "ios": "https://dc.lft.to/lastmile_qr_scan"}, "fusion_lon": 0.0, "is_reserved": 0, "is_disabled": 0, "fusion_lat": 0.0, "type": "electric_scooter", "name": "e1f68d6bef967d64c98e3533d47711a1", "lat": 38.880203333333334, "bike_id": "e1f68d6bef967d64c98e3533d47711a1"}, {"lon": -77.04003716666666, "rental_uris": {"android": "https://dc.lft.to/lastmile_qr_scan", "ios": "https://dc.lft.to/lastmile_qr_scan"}, "fusion_lon": 0.0, "is_reserved": 0, "is_disabled": 0, "fusion_lat": 0.0, "type": "electric_scooter", "name": "28d2dbce61fcf325845a6f106f4bc189", "lat": 38.903223833333335, "bike_id": "28d2dbce61fcf325845a6f106f4bc189"}, {"lon": -77.00228266666667, "rental_uris": {"android": "https://dc.lft.to/lastmile_qr_scan", "ios": "https://dc.lft.to/lastmile_qr_scan"}, "fusion_lon": 0.0, "is_reserved": 0, "is_disabled": 0, "fusion_lat": 0.0, "type": "electric_scooter", "name": "c7ac929617faa1f661b1f6ea5ba01b29", "lat": 38.9057045, "bike_id": "c7ac929617faa1f661b1f6ea5ba01b29"}, {"lon": -76.9898675, "rental_uris": {"android": "https://dc.lft.to/lastmile_qr_scan", "ios": "https://dc.lft.to/lastmile_qr_scan"}, "fusion_lon": 0.0, "is_reserved": 0, "is_disabled": 0, "fusion_lat": 0.0, "type": "electric_scooter", "name": "1e933ce35ab78dccae6ac145c1a95755", "lat": 38.9243935, "bike_id": "1e933ce35ab78dccae6ac145c1a95755"}, {"lon": -77.029809, "rental_uris": {"android": "https://dc.lft.to/lastmile_qr_scan", "ios": "https://dc.lft.to/lastmile_qr_scan"}, "fusion_lon": 0.0, "is_reserved": 0, "is_disabled": 0, "fusion_lat": 0.0, "type": "electric_scooter", "name": "0b5a7c2e86ec9d7c6f8ea6337d0d7411", "lat": 38.92251866666667, "bike_id": "0b5a7c2e86ec9d7c6f8ea6337d0d7411"}, {"lon": -77.0527045, "rental_uris": {"android": "https://dc.lft.to/lastmile_qr_scan", "ios": "https://dc.lft.to/lastmile_qr_scan"}, "fusion_lon": 0.0, "is_reserved": 0, "is_disabled": 0, "fusion_lat": 0.0, "type": "electric_scooter", "name": "c09d4d64b62eb7a4fd3093960359e5e4", "lat": 38.9275625, "bike_id": "c09d4d64b62eb7a4fd3093960359e5e4"}, {"lon": -76.99811533333333, "rental_uris": {"android": "https://dc.lft.to/lastmile_qr_scan", "ios": "https://dc.lft.to/lastmile_qr_scan"}, "fusion_lon": 0.0, "is_reserved": 0, "is_disabled": 0, "fusion_lat": 0.0, "type": "electric_bike", "name": "b799518158affd87be73cceff5ec3a7c", "lat": 38.81976433333333, "bike_id": "b799518158affd87be73cceff5ec3a7c"}, {"lon": -76.92661016666666, "rental_uris": {"android": "https://dc.lft.to/lastmile_qr_scan", "ios": "https://dc.lft.to/lastmile_qr_scan"}, "fusion_lon": 0.0, "is_reserved": 0, "is_disabled": 0, "fusion_lat": 0.0, "type": "electric_scooter", "name": "eaeec70a65d59a4631d0f322abae4df0", "lat": 38.89176066666667, "bike_id": "eaeec70a65d59a4631d0f322abae4df0"}, {"lon": -77.01947566666666, "rental_uris": {"android": "https://dc.lft.to/lastmile_qr_scan", "ios": "https://dc.lft.to/lastmile_qr_scan"}, "fusion_lon": 0.0, "is_reserved": 0, "is_disabled": 0, "fusion_lat": 0.0, "type": "electric_scooter", "name": "237af84ead100b7fc628d0c45566f68e", "lat": 38.924145333333335, "bike_id": "237af84ead100b7fc628d0c45566f68e"}, {"lon": -77.01229366666666, "rental_uris": {"android": "https://dc.lft.to/lastmile_qr_scan", "ios": "https://dc.lft.to/lastmile_qr_scan"}, "fusion_lon": 0.0, "is_reserved": 0, "is_disabled": 0, "fusion_lat": 0.0, "type": "electric_scooter", "name": "eee7acf1b309581b4153aea8848d27e8", "lat": 38.89822433333333, "bike_id": "eee7acf1b309581b4153aea8848d27e8"}, {"lon": -77.02260316666667, "rental_uris": {"android": "https://dc.lft.to/lastmile_qr_scan", "ios": "https://dc.lft.to/lastmile_qr_scan"}, "fusion_lon": 0.0, "is_reserved": 0, "is_disabled": 0, "fusion_lat": 0.0, "type": "electric_scooter", "name": "fec0c0eceb04be2d298cf9255c830d44", "lat": 38.92506216666666, "bike_id": "fec0c0eceb04be2d298cf9255c830d44"}, {"lon": -77.03200816666667, "rental_uris": {"android": "https://dc.lft.to/lastmile_qr_scan", "ios": "https://dc.lft.to/lastmile_qr_scan"}, "fusion_lon": 0.0, "is_reserved": 0, "is_disabled": 0, "fusion_lat": 0.0, "type": "electric_scooter", "name": "401480f7ef5f0fd64ecdce7525267b7d", "lat": 38.90788716666667, "bike_id": "401480f7ef5f0fd64ecdce7525267b7d"}, {"lon": -77.04329566666667, "rental_uris": {"android": "https://dc.lft.to/lastmile_qr_scan", "ios": "https://dc.lft.to/lastmile_qr_scan"}, "fusion_lon": 0.0, "is_reserved": 0, "is_disabled": 0, "fusion_lat": 0.0, "type": "electric_scooter", "name": "f8a165b9395e558ca93c15a303694863", "lat": 38.892217, "bike_id": "f8a165b9395e558ca93c15a303694863"}, {"lon": -76.987715, "rental_uris": {"android": "https://dc.lft.to/lastmile_qr_scan", "ios": "https://dc.lft.to/lastmile_qr_scan"}, "fusion_lon": 0.0, "is_reserved": 0, "is_disabled": 0, "fusion_lat": 0.0, "type": "electric_scooter", "name": "851a026c43abb74fbd4c2ca459abb812", "lat": 38.912035333333336, "bike_id": "851a026c43abb74fbd4c2ca459abb812"}, {"lon": -77.05035833333334, "rental_uris": {"android": "https://dc.lft.to/lastmile_qr_scan", "ios": "https://dc.lft.to/lastmile_qr_scan"}, "fusion_lon": 0.0, "is_reserved": 0, "is_disabled": 0, "fusion_lat": 0.0, "type": "electric_scooter", "name": "cf29c66401fe4973682d031b375ed5bf", "lat": 38.92516283333333, "bike_id": "cf29c66401fe4973682d031b375ed5bf"}, {"lon": -77.035413, "rental_uris": {"android": "https://dc.lft.to/lastmile_qr_scan", "ios": "https://dc.lft.to/lastmile_qr_scan"}, "fusion_lon": 0.0, "is_reserved": 0, "is_disabled": 0, "fusion_lat": 0.0, "type": "electric_scooter", "name": "adf950547aa1711499131a0d3d22381f", "lat": 38.907248833333334, "bike_id": "adf950547aa1711499131a0d3d22381f"}, {"lon": -77.0310315, "rental_uris": {"android": "https://dc.lft.to/lastmile_qr_scan", "ios": "https://dc.lft.to/lastmile_qr_scan"}, "fusion_lon": 0.0, "is_reserved": 0, "is_disabled": 0, "fusion_lat": 0.0, "type": "electric_scooter", "name": "b9560b2c55aa39d5f6fd2807ac5ac59f", "lat": 38.920276333333334, "bike_id": "b9560b2c55aa39d5f6fd2807ac5ac59f"}, {"lon": -77.02072583333333, "rental_uris": {"android": "https://dc.lft.to/lastmile_qr_scan", "ios": "https://dc.lft.to/lastmile_qr_scan"}, "fusion_lon": 0.0, "is_reserved": 0, "is_disabled": 0, "fusion_lat": 0.0, "type": "electric_scooter", "name": "a3a729718dde99d72d832ffef125aae5", "lat": 38.92113583333333, "bike_id": "a3a729718dde99d72d832ffef125aae5"}, {"lon": -77.03700683333334, "rental_uris": {"android": "https://dc.lft.to/lastmile_qr_scan", "ios": "https://dc.lft.to/lastmile_qr_scan"}, "fusion_lon": 0.0, "is_reserved": 0, "is_disabled": 0, "fusion_lat": 0.0, "type": "electric_scooter", "name": "39e2288e2830c27b6963134a9aaa5a8d", "lat": 38.926455833333335, "bike_id": "39e2288e2830c27b6963134a9aaa5a8d"}, {"lon": -77.04495783333333, "rental_uris": {"android": "https://dc.lft.to/lastmile_qr_scan", "ios": "https://dc.lft.to/lastmile_qr_scan"}, "fusion_lon": 0.0, "is_reserved": 0, "is_disabled": 0, "fusion_lat": 0.0, "type": "electric_scooter", "name": "512e8e5e4b814ffd21415a3257aa8928", "lat": 38.899108, "bike_id": "512e8e5e4b814ffd21415a3257aa8928"}, {"lon": -77.0413125, "rental_uris": {"android": "https://dc.lft.to/lastmile_qr_scan", "ios": "https://dc.lft.to/lastmile_qr_scan"}, "fusion_lon": 0.0, "is_reserved": 0, "is_disabled": 0, "fusion_lat": 0.0, "type": "electric_scooter", "name": "c6e916520fea75184a98645f28a77f68", "lat": 38.934594833333335, "bike_id": "c6e916520fea75184a98645f28a77f68"}, {"lon": -76.98074933333334, "rental_uris": {"android": "https://dc.lft.to/lastmile_qr_scan", "ios": "https://dc.lft.to/lastmile_qr_scan"}, "fusion_lon": 0.0, "is_reserved": 0, "is_disabled": 0, "fusion_lat": 0.0, "type": "electric_scooter", "name": "9bafb2556b2dc731f9e8572a7d1e26c6", "lat": 38.8801535, "bike_id": "9bafb2556b2dc731f9e8572a7d1e26c6"}, {"lon": -77.0281455, "rental_uris": {"android": "https://dc.lft.to/lastmile_qr_scan", "ios": "https://dc.lft.to/lastmile_qr_scan"}, "fusion_lon": 0.0, "is_reserved": 0, "is_disabled": 0, "fusion_lat": 0.0, "type": "electric_scooter", "name": "1adb32d1b2e61019546021639408b5d7", "lat": 38.9317435, "bike_id": "1adb32d1b2e61019546021639408b5d7"}, {"lon": -77.02852983333334, "rental_uris": {"android": "https://dc.lft.to/lastmile_qr_scan", "ios": "https://dc.lft.to/lastmile_qr_scan"}, "fusion_lon": 0.0, "is_reserved": 0, "is_disabled": 0, "fusion_lat": 0.0, "type": "electric_scooter", "name": "201ebe1ab6ddd61d9f19746cf78cf8d4", "lat": 38.932432, "bike_id": "201ebe1ab6ddd61d9f19746cf78cf8d4"}, {"lon": -77.02161816666667, "rental_uris": {"android": "https://dc.lft.to/lastmile_qr_scan", "ios": "https://dc.lft.to/lastmile_qr_scan"}, "fusion_lon": 0.0, "is_reserved": 0, "is_disabled": 0, "fusion_lat": 0.0, "type": "electric_scooter", "name": "37bfa3a5ed55536b658c5f8d8695d4ae", "lat": 38.895598, "bike_id": "37bfa3a5ed55536b658c5f8d8695d4ae"}, {"lon": -77.06784883333333, "rental_uris": {"android": "https://dc.lft.to/lastmile_qr_scan", "ios": "https://dc.lft.to/lastmile_qr_scan"}, "fusion_lon": 0.0, "is_reserved": 0, "is_disabled": 0, "fusion_lat": 0.0, "type": "electric_scooter", "name": "0551db94cb2aa6b547493bba0405d871", "lat": 38.908807833333334, "bike_id": "0551db94cb2aa6b547493bba0405d871"}, {"lon": -77.014305, "rental_uris": {"android": "https://dc.lft.to/lastmile_qr_scan", "ios": "https://dc.lft.to/lastmile_qr_scan"}, "fusion_lon": 0.0, "is_reserved": 0, "is_disabled": 0, "fusion_lat": 0.0, "type": "electric_scooter", "name": "7b6b09643dedc91fe95fd0aa351cf1d9", "lat": 38.920232666666664, "bike_id": "7b6b09643dedc91fe95fd0aa351cf1d9"}, {"lon": -77.0225955, "rental_uris": {"android": "https://dc.lft.to/lastmile_qr_scan", "ios": "https://dc.lft.to/lastmile_qr_scan"}, "fusion_lon": 0.0, "is_reserved": 0, "is_disabled": 0, "fusion_lat": 0.0, "type": "electric_scooter", "name": "9af13674e0664ac71705768b9a3430c7", "lat": 38.924111833333335, "bike_id": "9af13674e0664ac71705768b9a3430c7"}, {"lon": -77.03354516666667, "rental_uris": {"android": "https://dc.lft.to/lastmile_qr_scan", "ios": "https://dc.lft.to/lastmile_qr_scan"}, "fusion_lon": 0.0, "is_reserved": 0, "is_disabled": 0, "fusion_lat": 0.0, "type": "electric_scooter", "name": "779c879f12e651b86eae12921edb0997", "lat": 38.88775483333333, "bike_id": "779c879f12e651b86eae12921edb0997"}, {"lon": -77.00974733333334, "rental_uris": {"android": "https://dc.lft.to/lastmile_qr_scan", "ios": "https://dc.lft.to/lastmile_qr_scan"}, "fusion_lon": 0.0, "is_reserved": 0, "is_disabled": 0, "fusion_lat": 0.0, "type": "electric_bike", "name": "3c6e466bc0c4cf5edcd18a7068846ca3", "lat": 38.897422, "bike_id": "3c6e466bc0c4cf5edcd18a7068846ca3"}, {"lon": -77.0453925, "rental_uris": {"android": "https://dc.lft.to/lastmile_qr_scan", "ios": "https://dc.lft.to/lastmile_qr_scan"}, "fusion_lon": 0.0, "is_reserved": 0, "is_disabled": 0, "fusion_lat": 0.0, "type": "electric_scooter", "name": "84bda1b40e1239e5ad3a053a01094f1d", "lat": 38.9005725, "bike_id": "84bda1b40e1239e5ad3a053a01094f1d"}, {"lon": -77.04326716666667, "rental_uris": {"android": "https://dc.lft.to/lastmile_qr_scan", "ios": "https://dc.lft.to/lastmile_qr_scan"}, "fusion_lon": 0.0, "is_reserved": 0, "is_disabled": 0, "fusion_lat": 0.0, "type": "electric_scooter", "name": "628fb89db680d225b7d034fc861dd75b", "lat": 38.910311, "bike_id": "628fb89db680d225b7d034fc861dd75b"}, {"lon": -76.99966933333333, "rental_uris": {"android": "https://dc.lft.to/lastmile_qr_scan", "ios": "https://dc.lft.to/lastmile_qr_scan"}, "fusion_lon": 0.0, "is_reserved": 0, "is_disabled": 0, "fusion_lat": 0.0, "type": "electric_scooter", "name": "1e28ac84fe8c7e737c54cfdde6b726c3", "lat": 38.908742833333335, "bike_id": "1e28ac84fe8c7e737c54cfdde6b726c3"}, {"lon": -77.00209316666667, "rental_uris": {"android": "https://dc.lft.to/lastmile_qr_scan", "ios": "https://dc.lft.to/lastmile_qr_scan"}, "fusion_lon": 0.0, "is_reserved": 0, "is_disabled": 0, "fusion_lat": 0.0, "type": "electric_scooter", "name": "b5e983e5b4a8c00eaf428a945a2413c0", "lat": 38.914561666666664, "bike_id": "b5e983e5b4a8c00eaf428a945a2413c0"}, {"lon": -77.1265365, "rental_uris": {"android": "https://dc.lft.to/lastmile_qr_scan", "ios": "https://dc.lft.to/lastmile_qr_scan"}, "fusion_lon": 0.0, "is_reserved": 0, "is_disabled": 0, "fusion_lat": 0.0, "type": "electric_bike", "name": "682962887a45509ca5c9ea53fc85c909", "lat": 38.81909433333333, "bike_id": "682962887a45509ca5c9ea53fc85c909"}, {"lon": -77.0572755, "rental_uris": {"android": "https://dc.lft.to/lastmile_qr_scan", "ios": "https://dc.lft.to/lastmile_qr_scan"}, "fusion_lon": 0.0, "is_reserved": 0, "is_disabled": 0, "fusion_lat": 0.0, "type": "electric_scooter", "name": "3effa5be5d3ce5a0ce01e9ce54fa00c4", "lat": 38.933323, "bike_id": "3effa5be5d3ce5a0ce01e9ce54fa00c4"}, {"lon": -77.04354583333334, "rental_uris": {"android": "https://dc.lft.to/lastmile_qr_scan", "ios": "https://dc.lft.to/lastmile_qr_scan"}, "fusion_lon": 0.0, "is_reserved": 0, "is_disabled": 0, "fusion_lat": 0.0, "type": "electric_scooter", "name": "f6a80e10364718a6c2d4089d4548ac55", "lat": 38.904175333333335, "bike_id": "f6a80e10364718a6c2d4089d4548ac55"}, {"lon": -76.97322583333333, "rental_uris": {"android": "https://dc.lft.to/lastmile_qr_scan", "ios": "https://dc.lft.to/lastmile_qr_scan"}, "fusion_lon": 0.0, "is_reserved": 0, "is_disabled": 0, "fusion_lat": 0.0, "type": "electric_scooter", "name": "a7bb6c004b461a38d3f9ec2aecf70f52", "lat": 38.9047945, "bike_id": "a7bb6c004b461a38d3f9ec2aecf70f52"}, {"lon": -76.9487875, "rental_uris": {"android": "https://dc.lft.to/lastmile_qr_scan", "ios": "https://dc.lft.to/lastmile_qr_scan"}, "fusion_lon": 0.0, "is_reserved": 0, "is_disabled": 0, "fusion_lat": 0.0, "type": "electric_scooter", "name": "235eec42d8ef583df909c061e01fadd4", "lat": 38.89555716666667, "bike_id": "235eec42d8ef583df909c061e01fadd4"}, {"lon": -77.04190816666667, "rental_uris": {"android": "https://dc.lft.to/lastmile_qr_scan", "ios": "https://dc.lft.to/lastmile_qr_scan"}, "fusion_lon": 0.0, "is_reserved": 0, "is_disabled": 0, "fusion_lat": 0.0, "type": "electric_scooter", "name": "6f9221a48c010135c54e1013de4f3fe1", "lat": 38.9205035, "bike_id": "6f9221a48c010135c54e1013de4f3fe1"}, {"lon": -77.0416015, "rental_uris": {"android": "https://dc.lft.to/lastmile_qr_scan", "ios": "https://dc.lft.to/lastmile_qr_scan"}, "fusion_lon": 0.0, "is_reserved": 0, "is_disabled": 0, "fusion_lat": 0.0, "type": "electric_scooter", "name": "6ddbfaf42901ff7c7fca6f55f9fbcfce", "lat": 38.89237833333333, "bike_id": "6ddbfaf42901ff7c7fca6f55f9fbcfce"}, {"lon": -77.04678483333333, "rental_uris": {"android": "https://dc.lft.to/lastmile_qr_scan", "ios": "https://dc.lft.to/lastmile_qr_scan"}, "fusion_lon": 0.0, "is_reserved": 0, "is_disabled": 0, "fusion_lat": 0.0, "type": "electric_scooter", "name": "dbea186416ff59cb738808f474c7ee3a", "lat": 38.8926935, "bike_id": "dbea186416ff59cb738808f474c7ee3a"}, {"lon": -76.93188666666667, "rental_uris": {"android": "https://dc.lft.to/lastmile_qr_scan", "ios": "https://dc.lft.to/lastmile_qr_scan"}, "fusion_lon": 0.0, "is_reserved": 0, "is_disabled": 0, "fusion_lat": 0.0, "type": "electric_scooter", "name": "8b52dc90640e24d4375a759a916b5f46", "lat": 38.89874366666667, "bike_id": "8b52dc90640e24d4375a759a916b5f46"}, {"lon": -77.04331583333334, "rental_uris": {"android": "https://dc.lft.to/lastmile_qr_scan", "ios": "https://dc.lft.to/lastmile_qr_scan"}, "fusion_lon": 0.0, "is_reserved": 0, "is_disabled": 0, "fusion_lat": 0.0, "type": "electric_scooter", "name": "4307e2c4fa1d837539f64f3ce2818a24", "lat": 38.89761, "bike_id": "4307e2c4fa1d837539f64f3ce2818a24"}, {"lon": -77.023815, "rental_uris": {"android": "https://dc.lft.to/lastmile_qr_scan", "ios": "https://dc.lft.to/lastmile_qr_scan"}, "fusion_lon": 0.0, "is_reserved": 0, "is_disabled": 0, "fusion_lat": 0.0, "type": "electric_scooter", "name": "3f32313b77779cbe896d69d193875cda", "lat": 38.89197266666667, "bike_id": "3f32313b77779cbe896d69d193875cda"}, {"lon": -76.97225233333333, "rental_uris": {"android": "https://dc.lft.to/lastmile_qr_scan", "ios": "https://dc.lft.to/lastmile_qr_scan"}, "fusion_lon": 0.0, "is_reserved": 0, "is_disabled": 0, "fusion_lat": 0.0, "type": "electric_bike", "name": "d3ff54b9c699e3eaf718f5c0d80a663f", "lat": 38.90031583333333, "bike_id": "d3ff54b9c699e3eaf718f5c0d80a663f"}, {"lon": -77.03211433333334, "rental_uris": {"android": "https://dc.lft.to/lastmile_qr_scan", "ios": "https://dc.lft.to/lastmile_qr_scan"}, "fusion_lon": 0.0, "is_reserved": 0, "is_disabled": 0, "fusion_lat": 0.0, "type": "electric_scooter", "name": "b837ebcbf472324b327c65dccf40b6e6", "lat": 38.900118666666664, "bike_id": "b837ebcbf472324b327c65dccf40b6e6"}, {"lon": -77.03989833333333, "rental_uris": {"android": "https://dc.lft.to/lastmile_qr_scan", "ios": "https://dc.lft.to/lastmile_qr_scan"}, "fusion_lon": 0.0, "is_reserved": 0, "is_disabled": 0, "fusion_lat": 0.0, "type": "electric_scooter", "name": "9313d555675d011034219a1d951d5508", "lat": 38.92448666666667, "bike_id": "9313d555675d011034219a1d951d5508"}, {"lon": -77.04352983333334, "rental_uris": {"android": "https://dc.lft.to/lastmile_qr_scan", "ios": "https://dc.lft.to/lastmile_qr_scan"}, "fusion_lon": 0.0, "is_reserved": 0, "is_disabled": 0, "fusion_lat": 0.0, "type": "electric_scooter", "name": "8a1f681ad92c881616ef4c699083d898", "lat": 38.90380183333333, "bike_id": "8a1f681ad92c881616ef4c699083d898"}, {"lon": -77.0320485, "rental_uris": {"android": "https://dc.lft.to/lastmile_qr_scan", "ios": "https://dc.lft.to/lastmile_qr_scan"}, "fusion_lon": 0.0, "is_reserved": 0, "is_disabled": 0, "fusion_lat": 0.0, "type": "electric_scooter", "name": "93eb5f3dd7054d0c9822cbcb730a06b3", "lat": 38.91919033333333, "bike_id": "93eb5f3dd7054d0c9822cbcb730a06b3"}, {"lon": -77.07660966666667, "rental_uris": {"android": "https://dc.lft.to/lastmile_qr_scan", "ios": "https://dc.lft.to/lastmile_qr_scan"}, "fusion_lon": 0.0, "is_reserved": 0, "is_disabled": 0, "fusion_lat": 0.0, "type": "electric_bike", "name": "03753f3977fb366ef4998fbd6f884e2c", "lat": 38.80978116666667, "bike_id": "03753f3977fb366ef4998fbd6f884e2c"}, {"lon": -77.04346216666667, "rental_uris": {"android": "https://dc.lft.to/lastmile_qr_scan", "ios": "https://dc.lft.to/lastmile_qr_scan"}, "fusion_lon": 0.0, "is_reserved": 0, "is_disabled": 0, "fusion_lat": 0.0, "type": "electric_scooter", "name": "9521f73acf66dd54ff648f347e40696a", "lat": 38.90369483333333, "bike_id": "9521f73acf66dd54ff648f347e40696a"}, {"lon": -76.985574, "rental_uris": {"android": "https://dc.lft.to/lastmile_qr_scan", "ios": "https://dc.lft.to/lastmile_qr_scan"}, "fusion_lon": 0.0, "is_reserved": 0, "is_disabled": 0, "fusion_lat": 0.0, "type": "electric_scooter", "name": "8f4d18679cd5a770c46c7cd06dd60313", "lat": 38.89976566666667, "bike_id": "8f4d18679cd5a770c46c7cd06dd60313"}, {"lon": -77.025788, "rental_uris": {"android": "https://dc.lft.to/lastmile_qr_scan", "ios": "https://dc.lft.to/lastmile_qr_scan"}, "fusion_lon": 0.0, "is_reserved": 0, "is_disabled": 0, "fusion_lat": 0.0, "type": "electric_scooter", "name": "58d7ae0348202b9dad966f054251e7b4", "lat": 38.920428666666666, "bike_id": "58d7ae0348202b9dad966f054251e7b4"}, {"lon": -77.00713283333333, "rental_uris": {"android": "https://dc.lft.to/lastmile_qr_scan", "ios": "https://dc.lft.to/lastmile_qr_scan"}, "fusion_lon": 0.0, "is_reserved": 0, "is_disabled": 0, "fusion_lat": 0.0, "type": "electric_scooter", "name": "12732f0ffd34e7bb54423b76d862157c", "lat": 38.90482383333333, "bike_id": "12732f0ffd34e7bb54423b76d862157c"}, {"lon": -77.06166083333333, "rental_uris": {"android": "https://dc.lft.to/lastmile_qr_scan", "ios": "https://dc.lft.to/lastmile_qr_scan"}, "fusion_lon": 0.0, "is_reserved": 0, "is_disabled": 0, "fusion_lat": 0.0, "type": "electric_scooter", "name": "438fa8d66eeace333a753a2a3a0a6f11", "lat": 38.943001833333334, "bike_id": "438fa8d66eeace333a753a2a3a0a6f11"}, {"lon": -77.05339633333334, "rental_uris": {"android": "https://dc.lft.to/lastmile_qr_scan", "ios": "https://dc.lft.to/lastmile_qr_scan"}, "fusion_lon": 0.0, "is_reserved": 0, "is_disabled": 0, "fusion_lat": 0.0, "type": "electric_scooter", "name": "aed3e2829ceb29e4a9704181ac512b44", "lat": 38.89879533333333, "bike_id": "aed3e2829ceb29e4a9704181ac512b44"}, {"lon": -77.04491466666667, "rental_uris": {"android": "https://dc.lft.to/lastmile_qr_scan", "ios": "https://dc.lft.to/lastmile_qr_scan"}, "fusion_lon": 0.0, "is_reserved": 0, "is_disabled": 0, "fusion_lat": 0.0, "type": "electric_scooter", "name": "3b9600d2637755b0e10ea9c0f89aec3c", "lat": 38.8995115, "bike_id": "3b9600d2637755b0e10ea9c0f89aec3c"}, {"lon": -77.00783033333333, "rental_uris": {"android": "https://dc.lft.to/lastmile_qr_scan", "ios": "https://dc.lft.to/lastmile_qr_scan"}, "fusion_lon": 0.0, "is_reserved": 0, "is_disabled": 0, "fusion_lat": 0.0, "type": "electric_scooter", "name": "46907f0d0206c20091239269d02aea49", "lat": 38.87107483333333, "bike_id": "46907f0d0206c20091239269d02aea49"}, {"lon": -77.11745066666667, "rental_uris": {"android": "https://dc.lft.to/lastmile_qr_scan", "ios": "https://dc.lft.to/lastmile_qr_scan"}, "fusion_lon": 0.0, "is_reserved": 0, "is_disabled": 0, "fusion_lat": 0.0, "type": "electric_bike", "name": "eebe852c0169fba67fb9fcc2b8cfea90", "lat": 38.812478166666665, "bike_id": "eebe852c0169fba67fb9fcc2b8cfea90"}, {"lon": -77.0424805, "rental_uris": {"android": "https://dc.lft.to/lastmile_qr_scan", "ios": "https://dc.lft.to/lastmile_qr_scan"}, "fusion_lon": 0.0, "is_reserved": 0, "is_disabled": 0, "fusion_lat": 0.0, "type": "electric_scooter", "name": "23b74c769ce644c05da33a5cbaac172a", "lat": 38.924282166666664, "bike_id": "23b74c769ce644c05da33a5cbaac172a"}, {"lon": -77.04198133333334, "rental_uris": {"android": "https://dc.lft.to/lastmile_qr_scan", "ios": "https://dc.lft.to/lastmile_qr_scan"}, "fusion_lon": 0.0, "is_reserved": 0, "is_disabled": 0, "fusion_lat": 0.0, "type": "electric_scooter", "name": "dc5c78aada6132365e5bc4f358afa1ac", "lat": 38.92620633333333, "bike_id": "dc5c78aada6132365e5bc4f358afa1ac"}, {"lon": -77.04148766666667, "rental_uris": {"android": "https://dc.lft.to/lastmile_qr_scan", "ios": "https://dc.lft.to/lastmile_qr_scan"}, "fusion_lon": 0.0, "is_reserved": 0, "is_disabled": 0, "fusion_lat": 0.0, "type": "electric_scooter", "name": "d4db94f6cd319c34f11dc44f64a52e15", "lat": 38.907329833333336, "bike_id": "d4db94f6cd319c34f11dc44f64a52e15"}, {"lon": -77.03665233333334, "rental_uris": {"android": "https://dc.lft.to/lastmile_qr_scan", "ios": "https://dc.lft.to/lastmile_qr_scan"}, "fusion_lon": 0.0, "is_reserved": 0, "is_disabled": 0, "fusion_lat": 0.0, "type": "electric_scooter", "name": "3ae34fd25b28a0ab863809903463e93b", "lat": 38.90672466666667, "bike_id": "3ae34fd25b28a0ab863809903463e93b"}, {"lon": -76.97331433333333, "rental_uris": {"android": "https://dc.lft.to/lastmile_qr_scan", "ios": "https://dc.lft.to/lastmile_qr_scan"}, "fusion_lon": 0.0, "is_reserved": 0, "is_disabled": 0, "fusion_lat": 0.0, "type": "electric_bike", "name": "5c4e00b3a253f6a0448baf8e2e78e2d1", "lat": 38.855506, "bike_id": "5c4e00b3a253f6a0448baf8e2e78e2d1"}, {"lon": -77.03191466666667, "rental_uris": {"android": "https://dc.lft.to/lastmile_qr_scan", "ios": "https://dc.lft.to/lastmile_qr_scan"}, "fusion_lon": 0.0, "is_reserved": 0, "is_disabled": 0, "fusion_lat": 0.0, "type": "electric_scooter", "name": "1fc333fde06a16a7ffd6a9bb03982717", "lat": 38.93059316666667, "bike_id": "1fc333fde06a16a7ffd6a9bb03982717"}, {"lon": -77.03741583333333, "rental_uris": {"android": "https://dc.lft.to/lastmile_qr_scan", "ios": "https://dc.lft.to/lastmile_qr_scan"}, "fusion_lon": 0.0, "is_reserved": 0, "is_disabled": 0, "fusion_lat": 0.0, "type": "electric_scooter", "name": "1219838ec31b34f013b2ff7c11d88656", "lat": 38.90763283333333, "bike_id": "1219838ec31b34f013b2ff7c11d88656"}, {"lon": -77.12986016666666, "rental_uris": {"android": "https://dc.lft.to/lastmile_qr_scan", "ios": "https://dc.lft.to/lastmile_qr_scan"}, "fusion_lon": 0.0, "is_reserved": 0, "is_disabled": 0, "fusion_lat": 0.0, "type": "electric_bike", "name": "a73fbe1857354b5776230dcee17bff49", "lat": 38.79982666666667, "bike_id": "a73fbe1857354b5776230dcee17bff49"}, {"lon": -77.02947566666667, "rental_uris": {"android": "https://dc.lft.to/lastmile_qr_scan", "ios": "https://dc.lft.to/lastmile_qr_scan"}, "fusion_lon": 0.0, "is_reserved": 0, "is_disabled": 0, "fusion_lat": 0.0, "type": "electric_scooter", "name": "510bee7af71603fb9a50d33a4ed26cfd", "lat": 38.913437, "bike_id": "510bee7af71603fb9a50d33a4ed26cfd"}, {"lon": -77.02084783333333, "rental_uris": {"android": "https://dc.lft.to/lastmile_qr_scan", "ios": "https://dc.lft.to/lastmile_qr_scan"}, "fusion_lon": 0.0, "is_reserved": 0, "is_disabled": 0, "fusion_lat": 0.0, "type": "electric_scooter", "name": "e09669e49bfee763b0896a7f3b1abaf5", "lat": 38.901125, "bike_id": "e09669e49bfee763b0896a7f3b1abaf5"}, {"lon": -77.06323233333333, "rental_uris": {"android": "https://dc.lft.to/lastmile_qr_scan", "ios": "https://dc.lft.to/lastmile_qr_scan"}, "fusion_lon": 0.0, "is_reserved": 0, "is_disabled": 0, "fusion_lat": 0.0, "type": "electric_scooter", "name": "fd0aea4bb6c7721ef3d7158a020ddeba", "lat": 38.91338483333333, "bike_id": "fd0aea4bb6c7721ef3d7158a020ddeba"}, {"lon": -77.11282683333333, "rental_uris": {"android": "https://dc.lft.to/lastmile_qr_scan", "ios": "https://dc.lft.to/lastmile_qr_scan"}, "fusion_lon": 0.0, "is_reserved": 0, "is_disabled": 0, "fusion_lat": 0.0, "type": "electric_bike", "name": "5095ba57f5705bf0f3f7722c70c5558b", "lat": 38.831078833333336, "bike_id": "5095ba57f5705bf0f3f7722c70c5558b"}, {"lon": -77.01770733333333, "rental_uris": {"android": "https://dc.lft.to/lastmile_qr_scan", "ios": "https://dc.lft.to/lastmile_qr_scan"}, "fusion_lon": 0.0, "is_reserved": 0, "is_disabled": 0, "fusion_lat": 0.0, "type": "electric_scooter", "name": "ca955802f2602ee6954651f36c11fa07", "lat": 38.900965166666666, "bike_id": "ca955802f2602ee6954651f36c11fa07"}, {"lon": -77.01834266666667, "rental_uris": {"android": "https://dc.lft.to/lastmile_qr_scan", "ios": "https://dc.lft.to/lastmile_qr_scan"}, "fusion_lon": 0.0, "is_reserved": 0, "is_disabled": 0, "fusion_lat": 0.0, "type": "electric_scooter", "name": "3092819e0a47dfe3d928144adfaf2445", "lat": 38.901046666666666, "bike_id": "3092819e0a47dfe3d928144adfaf2445"}, {"lon": -77.0465875, "rental_uris": {"android": "https://dc.lft.to/lastmile_qr_scan", "ios": "https://dc.lft.to/lastmile_qr_scan"}, "fusion_lon": 0.0, "is_reserved": 0, "is_disabled": 0, "fusion_lat": 0.0, "type": "electric_scooter", "name": "3cff443c7eb14b0818030fccbc2f1d70", "lat": 38.90254216666666, "bike_id": "3cff443c7eb14b0818030fccbc2f1d70"}, {"lon": -77.00533883333334, "rental_uris": {"android": "https://dc.lft.to/lastmile_qr_scan", "ios": "https://dc.lft.to/lastmile_qr_scan"}, "fusion_lon": 0.0, "is_reserved": 0, "is_disabled": 0, "fusion_lat": 0.0, "type": "electric_scooter", "name": "d0da893a40de5c17be3bb2d648eb94d9", "lat": 38.875428666666664, "bike_id": "d0da893a40de5c17be3bb2d648eb94d9"}, {"lon": -77.0580615, "rental_uris": {"android": "https://dc.lft.to/lastmile_qr_scan", "ios": "https://dc.lft.to/lastmile_qr_scan"}, "fusion_lon": 0.0, "is_reserved": 0, "is_disabled": 0, "fusion_lat": 0.0, "type": "electric_scooter", "name": "38789cb8f95b273661d74836a5b9409d", "lat": 38.928942166666666, "bike_id": "38789cb8f95b273661d74836a5b9409d"}, {"lon": -77.03632716666667, "rental_uris": {"android": "https://dc.lft.to/lastmile_qr_scan", "ios": "https://dc.lft.to/lastmile_qr_scan"}, "fusion_lon": 0.0, "is_reserved": 0, "is_disabled": 0, "fusion_lat": 0.0, "type": "electric_scooter", "name": "6f2a469142b98b1a74a42015b0de46c0", "lat": 38.91692783333333, "bike_id": "6f2a469142b98b1a74a42015b0de46c0"}, {"lon": -77.03490466666666, "rental_uris": {"android": "https://dc.lft.to/lastmile_qr_scan", "ios": "https://dc.lft.to/lastmile_qr_scan"}, "fusion_lon": 0.0, "is_reserved": 0, "is_disabled": 0, "fusion_lat": 0.0, "type": "electric_scooter", "name": "a297d9f8962a2864978d913faa5464b2", "lat": 38.90864666666667, "bike_id": "a297d9f8962a2864978d913faa5464b2"}, {"lon": -77.06810666666667, "rental_uris": {"android": "https://dc.lft.to/lastmile_qr_scan", "ios": "https://dc.lft.to/lastmile_qr_scan"}, "fusion_lon": 0.0, "is_reserved": 0, "is_disabled": 0, "fusion_lat": 0.0, "type": "electric_scooter", "name": "383de961751f95335827db9b9139d7e1", "lat": 38.91733416666667, "bike_id": "383de961751f95335827db9b9139d7e1"}, {"lon": -77.0446145, "rental_uris": {"android": "https://dc.lft.to/lastmile_qr_scan", "ios": "https://dc.lft.to/lastmile_qr_scan"}, "fusion_lon": 0.0, "is_reserved": 0, "is_disabled": 0, "fusion_lat": 0.0, "type": "electric_scooter", "name": "e7e98555b1e1c7fe5d37a0a56259d0ab", "lat": 38.90389316666667, "bike_id": "e7e98555b1e1c7fe5d37a0a56259d0ab"}, {"lon": -77.01231016666667, "rental_uris": {"android": "https://dc.lft.to/lastmile_qr_scan", "ios": "https://dc.lft.to/lastmile_qr_scan"}, "fusion_lon": 0.0, "is_reserved": 0, "is_disabled": 0, "fusion_lat": 0.0, "type": "electric_scooter", "name": "c90b467a0979e84622e80dd5ba9ae7fc", "lat": 38.893408666666666, "bike_id": "c90b467a0979e84622e80dd5ba9ae7fc"}, {"lon": -77.0215755, "rental_uris": {"android": "https://dc.lft.to/lastmile_qr_scan", "ios": "https://dc.lft.to/lastmile_qr_scan"}, "fusion_lon": 0.0, "is_reserved": 0, "is_disabled": 0, "fusion_lat": 0.0, "type": "electric_scooter", "name": "9b0549879f69bda6d6a8698b44b50df0", "lat": 38.92630166666667, "bike_id": "9b0549879f69bda6d6a8698b44b50df0"}, {"lon": -77.0282355, "rental_uris": {"android": "https://dc.lft.to/lastmile_qr_scan", "ios": "https://dc.lft.to/lastmile_qr_scan"}, "fusion_lon": 0.0, "is_reserved": 0, "is_disabled": 0, "fusion_lat": 0.0, "type": "electric_scooter", "name": "168158a6b7f9b0c4316dcdf56135b951", "lat": 38.88653933333333, "bike_id": "168158a6b7f9b0c4316dcdf56135b951"}, {"lon": -77.00837066666666, "rental_uris": {"android": "https://dc.lft.to/lastmile_qr_scan", "ios": "https://dc.lft.to/lastmile_qr_scan"}, "fusion_lon": 0.0, "is_reserved": 0, "is_disabled": 0, "fusion_lat": 0.0, "type": "electric_scooter", "name": "fdcc41fd4e75e2d6ab0c28541473503e", "lat": 38.914013, "bike_id": "fdcc41fd4e75e2d6ab0c28541473503e"}, {"lon": -77.044714, "rental_uris": {"android": "https://dc.lft.to/lastmile_qr_scan", "ios": "https://dc.lft.to/lastmile_qr_scan"}, "fusion_lon": 0.0, "is_reserved": 0, "is_disabled": 0, "fusion_lat": 0.0, "type": "electric_scooter", "name": "3baac42670b77e0a1c121ed7a0a68c99", "lat": 38.892205, "bike_id": "3baac42670b77e0a1c121ed7a0a68c99"}, {"lon": -77.02836533333333, "rental_uris": {"android": "https://dc.lft.to/lastmile_qr_scan", "ios": "https://dc.lft.to/lastmile_qr_scan"}, "fusion_lon": 0.0, "is_reserved": 0, "is_disabled": 0, "fusion_lat": 0.0, "type": "electric_scooter", "name": "b137f95e08b233867665796fa63a0838", "lat": 38.88767333333333, "bike_id": "b137f95e08b233867665796fa63a0838"}, {"lon": -77.043504, "rental_uris": {"android": "https://dc.lft.to/lastmile_qr_scan", "ios": "https://dc.lft.to/lastmile_qr_scan"}, "fusion_lon": 0.0, "is_reserved": 0, "is_disabled": 0, "fusion_lat": 0.0, "type": "electric_scooter", "name": "f4113aab7832f441bf58bb0a9c52ea2f", "lat": 38.89742566666666, "bike_id": "f4113aab7832f441bf58bb0a9c52ea2f"}, {"lon": -77.075222, "rental_uris": {"android": "https://dc.lft.to/lastmile_qr_scan", "ios": "https://dc.lft.to/lastmile_qr_scan"}, "fusion_lon": 0.0, "is_reserved": 0, "is_disabled": 0, "fusion_lat": 0.0, "type": "electric_bike", "name": "00e16d36d47d7fd0deec05249acb9c95", "lat": 38.84279016666667, "bike_id": "00e16d36d47d7fd0deec05249acb9c95"}, {"lon": -77.02827733333334, "rental_uris": {"android": "https://dc.lft.to/lastmile_qr_scan", "ios": "https://dc.lft.to/lastmile_qr_scan"}, "fusion_lon": 0.0, "is_reserved": 0, "is_disabled": 0, "fusion_lat": 0.0, "type": "electric_scooter", "name": "3e6d7deea019ad8c1a69c5d8f56a0ff7", "lat": 38.9276695, "bike_id": "3e6d7deea019ad8c1a69c5d8f56a0ff7"}, {"lon": -77.03412, "rental_uris": {"android": "https://dc.lft.to/lastmile_qr_scan", "ios": "https://dc.lft.to/lastmile_qr_scan"}, "fusion_lon": 0.0, "is_reserved": 0, "is_disabled": 0, "fusion_lat": 0.0, "type": "electric_scooter", "name": "13828a65149c8a58a493c4caee147164", "lat": 38.90242666666666, "bike_id": "13828a65149c8a58a493c4caee147164"}, {"lon": -77.04758516666666, "rental_uris": {"android": "https://dc.lft.to/lastmile_qr_scan", "ios": "https://dc.lft.to/lastmile_qr_scan"}, "fusion_lon": 0.0, "is_reserved": 0, "is_disabled": 0, "fusion_lat": 0.0, "type": "electric_scooter", "name": "9feb32822dbc3eb4c3cac908a3b7a8a8", "lat": 38.90156866666667, "bike_id": "9feb32822dbc3eb4c3cac908a3b7a8a8"}, {"lon": -77.01838533333333, "rental_uris": {"android": "https://dc.lft.to/lastmile_qr_scan", "ios": "https://dc.lft.to/lastmile_qr_scan"}, "fusion_lon": 0.0, "is_reserved": 0, "is_disabled": 0, "fusion_lat": 0.0, "type": "electric_scooter", "name": "c75fa2378fb21726fe70c7a89ab2e9ed", "lat": 38.92268633333333, "bike_id": "c75fa2378fb21726fe70c7a89ab2e9ed"}, {"lon": -77.02501616666666, "rental_uris": {"android": "https://dc.lft.to/lastmile_qr_scan", "ios": "https://dc.lft.to/lastmile_qr_scan"}, "fusion_lon": 0.0, "is_reserved": 0, "is_disabled": 0, "fusion_lat": 0.0, "type": "electric_scooter", "name": "af8ad337d583b23616693acab38859c2", "lat": 38.9202265, "bike_id": "af8ad337d583b23616693acab38859c2"}, {"lon": -77.04058816666667, "rental_uris": {"android": "https://dc.lft.to/lastmile_qr_scan", "ios": "https://dc.lft.to/lastmile_qr_scan"}, "fusion_lon": 0.0, "is_reserved": 0, "is_disabled": 0, "fusion_lat": 0.0, "type": "electric_scooter", "name": "0287fb958ad306c1246f4547348c1cc1", "lat": 38.927957166666666, "bike_id": "0287fb958ad306c1246f4547348c1cc1"}, {"lon": -77.04865583333333, "rental_uris": {"android": "https://dc.lft.to/lastmile_qr_scan", "ios": "https://dc.lft.to/lastmile_qr_scan"}, "fusion_lon": 0.0, "is_reserved": 0, "is_disabled": 0, "fusion_lat": 0.0, "type": "electric_scooter", "name": "816a7951234fb7eceedaeb10703619ec", "lat": 38.900383833333336, "bike_id": "816a7951234fb7eceedaeb10703619ec"}, {"lon": -77.02795233333333, "rental_uris": {"android": "https://dc.lft.to/lastmile_qr_scan", "ios": "https://dc.lft.to/lastmile_qr_scan"}, "fusion_lon": 0.0, "is_reserved": 0, "is_disabled": 0, "fusion_lat": 0.0, "type": "electric_scooter", "name": "d5f7d5e1d919a088c740e3f7b7a4e49d", "lat": 38.89827866666667, "bike_id": "d5f7d5e1d919a088c740e3f7b7a4e49d"}, {"lon": -77.02700483333334, "rental_uris": {"android": "https://dc.lft.to/lastmile_qr_scan", "ios": "https://dc.lft.to/lastmile_qr_scan"}, "fusion_lon": 0.0, "is_reserved": 0, "is_disabled": 0, "fusion_lat": 0.0, "type": "electric_scooter", "name": "3775b90a654c69b013a533b47ec93a7a", "lat": 38.917282166666666, "bike_id": "3775b90a654c69b013a533b47ec93a7a"}, {"lon": -77.03039866666667, "rental_uris": {"android": "https://dc.lft.to/lastmile_qr_scan", "ios": "https://dc.lft.to/lastmile_qr_scan"}, "fusion_lon": 0.0, "is_reserved": 0, "is_disabled": 0, "fusion_lat": 0.0, "type": "electric_scooter", "name": "13a3c36553c8ce0b39ad5e96a988a847", "lat": 38.91682383333333, "bike_id": "13a3c36553c8ce0b39ad5e96a988a847"}, {"lon": -77.07112433333333, "rental_uris": {"android": "https://dc.lft.to/lastmile_qr_scan", "ios": "https://dc.lft.to/lastmile_qr_scan"}, "fusion_lon": 0.0, "is_reserved": 0, "is_disabled": 0, "fusion_lat": 0.0, "type": "electric_scooter", "name": "46b016c037cfb4315bb29523ecdd427f", "lat": 38.919794833333334, "bike_id": "46b016c037cfb4315bb29523ecdd427f"}, {"lon": -77.04224433333333, "rental_uris": {"android": "https://dc.lft.to/lastmile_qr_scan", "ios": "https://dc.lft.to/lastmile_qr_scan"}, "fusion_lon": 0.0, "is_reserved": 0, "is_disabled": 0, "fusion_lat": 0.0, "type": "electric_scooter", "name": "80246f1ca02251142e775fb56bba9f0f", "lat": 38.911874833333336, "bike_id": "80246f1ca02251142e775fb56bba9f0f"}, {"lon": -76.9777125, "rental_uris": {"android": "https://dc.lft.to/lastmile_qr_scan", "ios": "https://dc.lft.to/lastmile_qr_scan"}, "fusion_lon": 0.0, "is_reserved": 0, "is_disabled": 0, "fusion_lat": 0.0, "type": "electric_bike", "name": "b385cefa78b398bc52959dee786ae873", "lat": 38.85728783333333, "bike_id": "b385cefa78b398bc52959dee786ae873"}, {"lon": -77.02208, "rental_uris": {"android": "https://dc.lft.to/lastmile_qr_scan", "ios": "https://dc.lft.to/lastmile_qr_scan"}, "fusion_lon": 0.0, "is_reserved": 0, "is_disabled": 0, "fusion_lat": 0.0, "type": "electric_scooter", "name": "34a1fba96770d35af3454c0edc2ba634", "lat": 38.90355983333333, "bike_id": "34a1fba96770d35af3454c0edc2ba634"}, {"lon": -77.03875133333334, "rental_uris": {"android": "https://dc.lft.to/lastmile_qr_scan", "ios": "https://dc.lft.to/lastmile_qr_scan"}, "fusion_lon": 0.0, "is_reserved": 0, "is_disabled": 0, "fusion_lat": 0.0, "type": "electric_scooter", "name": "b6d73a1ed85613ed5460753cf9d231e5", "lat": 38.903642166666664, "bike_id": "b6d73a1ed85613ed5460753cf9d231e5"}, {"lon": -77.021185, "rental_uris": {"android": "https://dc.lft.to/lastmile_qr_scan", "ios": "https://dc.lft.to/lastmile_qr_scan"}, "fusion_lon": 0.0, "is_reserved": 0, "is_disabled": 0, "fusion_lat": 0.0, "type": "electric_scooter", "name": "82a95ff3f24e964dbc22f89e625680d1", "lat": 38.9236085, "bike_id": "82a95ff3f24e964dbc22f89e625680d1"}, {"lon": -77.03859183333333, "rental_uris": {"android": "https://dc.lft.to/lastmile_qr_scan", "ios": "https://dc.lft.to/lastmile_qr_scan"}, "fusion_lon": 0.0, "is_reserved": 0, "is_disabled": 0, "fusion_lat": 0.0, "type": "electric_scooter", "name": "abfa70a8424928f5db11971aaca21763", "lat": 38.90259616666667, "bike_id": "abfa70a8424928f5db11971aaca21763"}, {"lon": -77.0876165, "rental_uris": {"android": "https://dc.lft.to/lastmile_qr_scan", "ios": "https://dc.lft.to/lastmile_qr_scan"}, "fusion_lon": 0.0, "is_reserved": 0, "is_disabled": 0, "fusion_lat": 0.0, "type": "electric_bike", "name": "bee388babfbe09fc74fa16f53c31af76", "lat": 38.840721333333335, "bike_id": "bee388babfbe09fc74fa16f53c31af76"}, {"lon": -77.05028033333333, "rental_uris": {"android": "https://dc.lft.to/lastmile_qr_scan", "ios": "https://dc.lft.to/lastmile_qr_scan"}, "fusion_lon": 0.0, "is_reserved": 0, "is_disabled": 0, "fusion_lat": 0.0, "type": "electric_scooter", "name": "90f5841ea33a032f97b011e84a695549", "lat": 38.89827566666666, "bike_id": "90f5841ea33a032f97b011e84a695549"}, {"lon": -76.98094183333333, "rental_uris": {"android": "https://dc.lft.to/lastmile_qr_scan", "ios": "https://dc.lft.to/lastmile_qr_scan"}, "fusion_lon": 0.0, "is_reserved": 0, "is_disabled": 0, "fusion_lat": 0.0, "type": "electric_scooter", "name": "3506a684dfa31ecab25710c1ae8c17f1", "lat": 38.866971166666666, "bike_id": "3506a684dfa31ecab25710c1ae8c17f1"}, {"lon": -76.99224916666667, "rental_uris": {"android": "https://dc.lft.to/lastmile_qr_scan", "ios": "https://dc.lft.to/lastmile_qr_scan"}, "fusion_lon": 0.0, "is_reserved": 0, "is_disabled": 0, "fusion_lat": 0.0, "type": "electric_scooter", "name": "b799bc3fd5feba12e7d2138b138f9c66", "lat": 38.86285866666667, "bike_id": "b799bc3fd5feba12e7d2138b138f9c66"}, {"lon": -77.035836, "rental_uris": {"android": "https://dc.lft.to/lastmile_qr_scan", "ios": "https://dc.lft.to/lastmile_qr_scan"}, "fusion_lon": 0.0, "is_reserved": 0, "is_disabled": 0, "fusion_lat": 0.0, "type": "electric_bike", "name": "dc9ccf57b54a7e27761544984e61587e", "lat": 38.992279833333335, "bike_id": "dc9ccf57b54a7e27761544984e61587e"}, {"lon": -77.0347485, "rental_uris": {"android": "https://dc.lft.to/lastmile_qr_scan", "ios": "https://dc.lft.to/lastmile_qr_scan"}, "fusion_lon": 0.0, "is_reserved": 0, "is_disabled": 0, "fusion_lat": 0.0, "type": "electric_scooter", "name": "fc67b5a706393165694ad84a84976b2e", "lat": 38.91685283333333, "bike_id": "fc67b5a706393165694ad84a84976b2e"}, {"lon": -76.9555155, "rental_uris": {"android": "https://dc.lft.to/lastmile_qr_scan", "ios": "https://dc.lft.to/lastmile_qr_scan"}, "fusion_lon": 0.0, "is_reserved": 0, "is_disabled": 0, "fusion_lat": 0.0, "type": "electric_scooter", "name": "4b948a7823c73694f3a33bbf27acd5ad", "lat": 38.92738216666667, "bike_id": "4b948a7823c73694f3a33bbf27acd5ad"}, {"lon": -77.07275766666666, "rental_uris": {"android": "https://dc.lft.to/lastmile_qr_scan", "ios": "https://dc.lft.to/lastmile_qr_scan"}, "fusion_lon": 0.0, "is_reserved": 0, "is_disabled": 0, "fusion_lat": 0.0, "type": "electric_scooter", "name": "a424b9d8d4533bc8dd7cf9bcc11d17b8", "lat": 38.90916466666667, "bike_id": "a424b9d8d4533bc8dd7cf9bcc11d17b8"}, {"lon": -77.01854616666667, "rental_uris": {"android": "https://dc.lft.to/lastmile_qr_scan", "ios": "https://dc.lft.to/lastmile_qr_scan"}, "fusion_lon": 0.0, "is_reserved": 0, "is_disabled": 0, "fusion_lat": 0.0, "type": "electric_scooter", "name": "dfa43dcfd0b13d1fa3f9f8f54c808cf3", "lat": 38.948891, "bike_id": "dfa43dcfd0b13d1fa3f9f8f54c808cf3"}, {"lon": -76.99947483333334, "rental_uris": {"android": "https://dc.lft.to/lastmile_qr_scan", "ios": "https://dc.lft.to/lastmile_qr_scan"}, "fusion_lon": 0.0, "is_reserved": 0, "is_disabled": 0, "fusion_lat": 0.0, "type": "electric_scooter", "name": "2c522f92f21dd7feb3cc881dc6437c1a", "lat": 38.9042695, "bike_id": "2c522f92f21dd7feb3cc881dc6437c1a"}, {"lon": -77.02829833333334, "rental_uris": {"android": "https://dc.lft.to/lastmile_qr_scan", "ios": "https://dc.lft.to/lastmile_qr_scan"}, "fusion_lon": 0.0, "is_reserved": 0, "is_disabled": 0, "fusion_lat": 0.0, "type": "electric_scooter", "name": "420d395bfc368d1a92e53df3a8d8c600", "lat": 38.88623233333333, "bike_id": "420d395bfc368d1a92e53df3a8d8c600"}, {"lon": -77.04546466666666, "rental_uris": {"android": "https://dc.lft.to/lastmile_qr_scan", "ios": "https://dc.lft.to/lastmile_qr_scan"}, "fusion_lon": 0.0, "is_reserved": 0, "is_disabled": 0, "fusion_lat": 0.0, "type": "electric_scooter", "name": "61393f6ed8b464ef5a4aecfbdbe3795b", "lat": 38.91106383333333, "bike_id": "61393f6ed8b464ef5a4aecfbdbe3795b"}, {"lon": -77.03224366666667, "rental_uris": {"android": "https://dc.lft.to/lastmile_qr_scan", "ios": "https://dc.lft.to/lastmile_qr_scan"}, "fusion_lon": 0.0, "is_reserved": 0, "is_disabled": 0, "fusion_lat": 0.0, "type": "electric_scooter", "name": "fdba290a69e072f785be33a9935dface", "lat": 38.917076333333334, "bike_id": "fdba290a69e072f785be33a9935dface"}, {"lon": -77.21008983333333, "rental_uris": {"android": "https://dc.lft.to/lastmile_qr_scan", "ios": "https://dc.lft.to/lastmile_qr_scan"}, "fusion_lon": 0.0, "is_reserved": 0, "is_disabled": 0, "fusion_lat": 0.0, "type": "electric_bike", "name": "49902d728b875c5cf5739665805623b4", "lat": 38.92589866666667, "bike_id": "49902d728b875c5cf5739665805623b4"}, {"lon": -77.023927, "rental_uris": {"android": "https://dc.lft.to/lastmile_qr_scan", "ios": "https://dc.lft.to/lastmile_qr_scan"}, "fusion_lon": 0.0, "is_reserved": 0, "is_disabled": 0, "fusion_lat": 0.0, "type": "electric_scooter", "name": "d9628bd0e8f9fa8acdb8e2440b348f80", "lat": 38.919689, "bike_id": "d9628bd0e8f9fa8acdb8e2440b348f80"}, {"lon": -77.043521, "rental_uris": {"android": "https://dc.lft.to/lastmile_qr_scan", "ios": "https://dc.lft.to/lastmile_qr_scan"}, "fusion_lon": 0.0, "is_reserved": 0, "is_disabled": 0, "fusion_lat": 0.0, "type": "electric_scooter", "name": "86a413910998b79d444380bc5502724b", "lat": 38.9040655, "bike_id": "86a413910998b79d444380bc5502724b"}, {"lon": -77.02198316666667, "rental_uris": {"android": "https://dc.lft.to/lastmile_qr_scan", "ios": "https://dc.lft.to/lastmile_qr_scan"}, "fusion_lon": 0.0, "is_reserved": 0, "is_disabled": 0, "fusion_lat": 0.0, "type": "electric_scooter", "name": "f74c88aaf9f3f177eef74ee26e05b55a", "lat": 38.910462333333335, "bike_id": "f74c88aaf9f3f177eef74ee26e05b55a"}, {"lon": -77.021363, "rental_uris": {"android": "https://dc.lft.to/lastmile_qr_scan", "ios": "https://dc.lft.to/lastmile_qr_scan"}, "fusion_lon": 0.0, "is_reserved": 0, "is_disabled": 0, "fusion_lat": 0.0, "type": "electric_scooter", "name": "18f31af7d2ec3bf872eb911f910f1ebc", "lat": 38.911053, "bike_id": "18f31af7d2ec3bf872eb911f910f1ebc"}, {"lon": -77.04685616666667, "rental_uris": {"android": "https://dc.lft.to/lastmile_qr_scan", "ios": "https://dc.lft.to/lastmile_qr_scan"}, "fusion_lon": 0.0, "is_reserved": 0, "is_disabled": 0, "fusion_lat": 0.0, "type": "electric_scooter", "name": "c33eef3f1aa6baf0aa4a95f7f1b5db1b", "lat": 38.892209666666666, "bike_id": "c33eef3f1aa6baf0aa4a95f7f1b5db1b"}, {"lon": -76.99849383333333, "rental_uris": {"android": "https://dc.lft.to/lastmile_qr_scan", "ios": "https://dc.lft.to/lastmile_qr_scan"}, "fusion_lon": 0.0, "is_reserved": 0, "is_disabled": 0, "fusion_lat": 0.0, "type": "electric_scooter", "name": "da47a5a14a1216173334967d4c3cdc69", "lat": 38.90049533333333, "bike_id": "da47a5a14a1216173334967d4c3cdc69"}, {"lon": -77.02356416666667, "rental_uris": {"android": "https://dc.lft.to/lastmile_qr_scan", "ios": "https://dc.lft.to/lastmile_qr_scan"}, "fusion_lon": 0.0, "is_reserved": 0, "is_disabled": 0, "fusion_lat": 0.0, "type": "electric_scooter", "name": "3527f634b4a13a7c067b5776fcaa7b8a", "lat": 38.92060883333333, "bike_id": "3527f634b4a13a7c067b5776fcaa7b8a"}, {"lon": -77.020368, "rental_uris": {"android": "https://dc.lft.to/lastmile_qr_scan", "ios": "https://dc.lft.to/lastmile_qr_scan"}, "fusion_lon": 0.0, "is_reserved": 0, "is_disabled": 0, "fusion_lat": 0.0, "type": "electric_scooter", "name": "b19a7208796cda5969e9d1c2d250f029", "lat": 38.92437183333333, "bike_id": "b19a7208796cda5969e9d1c2d250f029"}, {"lon": -77.033864, "rental_uris": {"android": "https://dc.lft.to/lastmile_qr_scan", "ios": "https://dc.lft.to/lastmile_qr_scan"}, "fusion_lon": 0.0, "is_reserved": 0, "is_disabled": 0, "fusion_lat": 0.0, "type": "electric_scooter", "name": "da943f62d4ddcefbc5647a3543b778d0", "lat": 38.93837933333333, "bike_id": "da943f62d4ddcefbc5647a3543b778d0"}, {"lon": -77.063773, "rental_uris": {"android": "https://dc.lft.to/lastmile_qr_scan", "ios": "https://dc.lft.to/lastmile_qr_scan"}, "fusion_lon": 0.0, "is_reserved": 0, "is_disabled": 0, "fusion_lat": 0.0, "type": "electric_scooter", "name": "e3c6f52b3af0b20be9497ee6f61d99a3", "lat": 38.9060695, "bike_id": "e3c6f52b3af0b20be9497ee6f61d99a3"}, {"lon": -77.0301935, "rental_uris": {"android": "https://dc.lft.to/lastmile_qr_scan", "ios": "https://dc.lft.to/lastmile_qr_scan"}, "fusion_lon": 0.0, "is_reserved": 0, "is_disabled": 0, "fusion_lat": 0.0, "type": "electric_scooter", "name": "820da52bb31f3ddefca6b6adf24adfa9", "lat": 38.9119435, "bike_id": "820da52bb31f3ddefca6b6adf24adfa9"}, {"lon": -77.00641533333334, "rental_uris": {"android": "https://dc.lft.to/lastmile_qr_scan", "ios": "https://dc.lft.to/lastmile_qr_scan"}, "fusion_lon": 0.0, "is_reserved": 0, "is_disabled": 0, "fusion_lat": 0.0, "type": "electric_scooter", "name": "be8974916ae1cd9e0244442ce9a236ac", "lat": 38.87182466666667, "bike_id": "be8974916ae1cd9e0244442ce9a236ac"}, {"lon": -77.14095466666667, "rental_uris": {"android": "https://dc.lft.to/lastmile_qr_scan", "ios": "https://dc.lft.to/lastmile_qr_scan"}, "fusion_lon": 0.0, "is_reserved": 0, "is_disabled": 0, "fusion_lat": 0.0, "type": "electric_bike", "name": "3c5d49acc7731bffcadb72fb3822726a", "lat": 38.98782933333333, "bike_id": "3c5d49acc7731bffcadb72fb3822726a"}, {"lon": -77.03655366666666, "rental_uris": {"android": "https://dc.lft.to/lastmile_qr_scan", "ios": "https://dc.lft.to/lastmile_qr_scan"}, "fusion_lon": 0.0, "is_reserved": 0, "is_disabled": 0, "fusion_lat": 0.0, "type": "electric_scooter", "name": "d830ac274925ab05894bd04eb17210d1", "lat": 38.916167333333334, "bike_id": "d830ac274925ab05894bd04eb17210d1"}, {"lon": -77.01222033333333, "rental_uris": {"android": "https://dc.lft.to/lastmile_qr_scan", "ios": "https://dc.lft.to/lastmile_qr_scan"}, "fusion_lon": 0.0, "is_reserved": 0, "is_disabled": 0, "fusion_lat": 0.0, "type": "electric_scooter", "name": "4e5956ee54db4bea8140214fa872f430", "lat": 38.8932875, "bike_id": "4e5956ee54db4bea8140214fa872f430"}, {"lon": -76.992771, "rental_uris": {"android": "https://dc.lft.to/lastmile_qr_scan", "ios": "https://dc.lft.to/lastmile_qr_scan"}, "fusion_lon": 0.0, "is_reserved": 0, "is_disabled": 0, "fusion_lat": 0.0, "type": "electric_bike", "name": "8c07b5163724fcb4fae29b2c27757a81", "lat": 38.9725405, "bike_id": "8c07b5163724fcb4fae29b2c27757a81"}, {"lon": -77.06593616666666, "rental_uris": {"android": "https://dc.lft.to/lastmile_qr_scan", "ios": "https://dc.lft.to/lastmile_qr_scan"}, "fusion_lon": 0.0, "is_reserved": 0, "is_disabled": 0, "fusion_lat": 0.0, "type": "electric_scooter", "name": "6af85eb4ec29ea4de32651596aa45b56", "lat": 38.904696333333334, "bike_id": "6af85eb4ec29ea4de32651596aa45b56"}, {"lon": -77.00249766666667, "rental_uris": {"android": "https://dc.lft.to/lastmile_qr_scan", "ios": "https://dc.lft.to/lastmile_qr_scan"}, "fusion_lon": 0.0, "is_reserved": 0, "is_disabled": 0, "fusion_lat": 0.0, "type": "electric_scooter", "name": "a9ec542b310974678a659f3b641fc7ca", "lat": 38.9110255, "bike_id": "a9ec542b310974678a659f3b641fc7ca"}, {"lon": -76.99809616666667, "rental_uris": {"android": "https://dc.lft.to/lastmile_qr_scan", "ios": "https://dc.lft.to/lastmile_qr_scan"}, "fusion_lon": 0.0, "is_reserved": 0, "is_disabled": 0, "fusion_lat": 0.0, "type": "electric_scooter", "name": "991655142e13b703e6c592469ffd0acc", "lat": 38.87638483333333, "bike_id": "991655142e13b703e6c592469ffd0acc"}, {"lon": -76.99717733333334, "rental_uris": {"android": "https://dc.lft.to/lastmile_qr_scan", "ios": "https://dc.lft.to/lastmile_qr_scan"}, "fusion_lon": 0.0, "is_reserved": 0, "is_disabled": 0, "fusion_lat": 0.0, "type": "electric_bike", "name": "94410918cf8efc914ebce0ce0618b518", "lat": 38.83853916666666, "bike_id": "94410918cf8efc914ebce0ce0618b518"}, {"lon": -76.98337566666666, "rental_uris": {"android": "https://dc.lft.to/lastmile_qr_scan", "ios": "https://dc.lft.to/lastmile_qr_scan"}, "fusion_lon": 0.0, "is_reserved": 0, "is_disabled": 0, "fusion_lat": 0.0, "type": "electric_scooter", "name": "4914c797ee6754e1c3e5145bb6fdd51c", "lat": 38.8954265, "bike_id": "4914c797ee6754e1c3e5145bb6fdd51c"}, {"lon": -77.00387116666667, "rental_uris": {"android": "https://dc.lft.to/lastmile_qr_scan", "ios": "https://dc.lft.to/lastmile_qr_scan"}, "fusion_lon": 0.0, "is_reserved": 0, "is_disabled": 0, "fusion_lat": 0.0, "type": "electric_scooter", "name": "d9d7f7f0fd7e5319a9e49412271d6b4b", "lat": 38.876377833333336, "bike_id": "d9d7f7f0fd7e5319a9e49412271d6b4b"}, {"lon": -76.95794633333334, "rental_uris": {"android": "https://dc.lft.to/lastmile_qr_scan", "ios": "https://dc.lft.to/lastmile_qr_scan"}, "fusion_lon": 0.0, "is_reserved": 0, "is_disabled": 0, "fusion_lat": 0.0, "type": "electric_bike", "name": "b33f848fc6ec238d2b9ae3b3c73b7c3b", "lat": 38.9804645, "bike_id": "b33f848fc6ec238d2b9ae3b3c73b7c3b"}, {"lon": -77.02571783333333, "rental_uris": {"android": "https://dc.lft.to/lastmile_qr_scan", "ios": "https://dc.lft.to/lastmile_qr_scan"}, "fusion_lon": 0.0, "is_reserved": 0, "is_disabled": 0, "fusion_lat": 0.0, "type": "electric_scooter", "name": "1f14fb06fd744f635eb338eb8386efb0", "lat": 38.926852, "bike_id": "1f14fb06fd744f635eb338eb8386efb0"}, {"lon": -77.01722516666666, "rental_uris": {"android": "https://dc.lft.to/lastmile_qr_scan", "ios": "https://dc.lft.to/lastmile_qr_scan"}, "fusion_lon": 0.0, "is_reserved": 0, "is_disabled": 0, "fusion_lat": 0.0, "type": "electric_scooter", "name": "4c985f4f6838b17e2e773db20525aeee", "lat": 38.894939666666666, "bike_id": "4c985f4f6838b17e2e773db20525aeee"}, {"lon": -77.01678716666666, "rental_uris": {"android": "https://dc.lft.to/lastmile_qr_scan", "ios": "https://dc.lft.to/lastmile_qr_scan"}, "fusion_lon": 0.0, "is_reserved": 0, "is_disabled": 0, "fusion_lat": 0.0, "type": "electric_scooter", "name": "36d88f5b476bd30d883d08bf921650ce", "lat": 38.920398, "bike_id": "36d88f5b476bd30d883d08bf921650ce"}, {"lon": -77.04188483333333, "rental_uris": {"android": "https://dc.lft.to/lastmile_qr_scan", "ios": "https://dc.lft.to/lastmile_qr_scan"}, "fusion_lon": 0.0, "is_reserved": 0, "is_disabled": 0, "fusion_lat": 0.0, "type": "electric_scooter", "name": "f432989c44609ffd500459e8bf3d3b08", "lat": 38.920093666666666, "bike_id": "f432989c44609ffd500459e8bf3d3b08"}, {"lon": -77.075399, "rental_uris": {"android": "https://dc.lft.to/lastmile_qr_scan", "ios": "https://dc.lft.to/lastmile_qr_scan"}, "fusion_lon": 0.0, "is_reserved": 0, "is_disabled": 0, "fusion_lat": 0.0, "type": "electric_scooter", "name": "3d803b960108c0d80d186c69d65e50cb", "lat": 38.910445833333334, "bike_id": "3d803b960108c0d80d186c69d65e50cb"}, {"lon": -77.02597, "rental_uris": {"android": "https://dc.lft.to/lastmile_qr_scan", "ios": "https://dc.lft.to/lastmile_qr_scan"}, "fusion_lon": 0.0, "is_reserved": 0, "is_disabled": 0, "fusion_lat": 0.0, "type": "electric_scooter", "name": "43a46c3a8af8d4ac75c98eaa37b30a3c", "lat": 38.9639505, "bike_id": "43a46c3a8af8d4ac75c98eaa37b30a3c"}, {"lon": -77.03220866666666, "rental_uris": {"android": "https://dc.lft.to/lastmile_qr_scan", "ios": "https://dc.lft.to/lastmile_qr_scan"}, "fusion_lon": 0.0, "is_reserved": 0, "is_disabled": 0, "fusion_lat": 0.0, "type": "electric_scooter", "name": "e329ebd9c1ae2f2bd8f78b0fcad2ebbd", "lat": 38.91037733333334, "bike_id": "e329ebd9c1ae2f2bd8f78b0fcad2ebbd"}, {"lon": -77.02724933333333, "rental_uris": {"android": "https://dc.lft.to/lastmile_qr_scan", "ios": "https://dc.lft.to/lastmile_qr_scan"}, "fusion_lon": 0.0, "is_reserved": 0, "is_disabled": 0, "fusion_lat": 0.0, "type": "electric_scooter", "name": "4b7d3da130b7d21961f3b444ca54157a", "lat": 38.9004, "bike_id": "4b7d3da130b7d21961f3b444ca54157a"}, {"lon": -77.02813316666666, "rental_uris": {"android": "https://dc.lft.to/lastmile_qr_scan", "ios": "https://dc.lft.to/lastmile_qr_scan"}, "fusion_lon": 0.0, "is_reserved": 0, "is_disabled": 0, "fusion_lat": 0.0, "type": "electric_scooter", "name": "9f16332af3f049823472ed44acbd8a88", "lat": 38.9612305, "bike_id": "9f16332af3f049823472ed44acbd8a88"}, {"lon": -77.023965, "rental_uris": {"android": "https://dc.lft.to/lastmile_qr_scan", "ios": "https://dc.lft.to/lastmile_qr_scan"}, "fusion_lon": 0.0, "is_reserved": 0, "is_disabled": 0, "fusion_lat": 0.0, "type": "electric_scooter", "name": "95df87a743c56f2b83ab6f5ddb2c1843", "lat": 38.93775633333333, "bike_id": "95df87a743c56f2b83ab6f5ddb2c1843"}, {"lon": -76.99019683333333, "rental_uris": {"android": "https://dc.lft.to/lastmile_qr_scan", "ios": "https://dc.lft.to/lastmile_qr_scan"}, "fusion_lon": 0.0, "is_reserved": 0, "is_disabled": 0, "fusion_lat": 0.0, "type": "electric_scooter", "name": "1e8680cc9821bf5e43b16ed59131243d", "lat": 38.882705333333334, "bike_id": "1e8680cc9821bf5e43b16ed59131243d"}, {"lon": -77.02847833333334, "rental_uris": {"android": "https://dc.lft.to/lastmile_qr_scan", "ios": "https://dc.lft.to/lastmile_qr_scan"}, "fusion_lon": 0.0, "is_reserved": 0, "is_disabled": 0, "fusion_lat": 0.0, "type": "electric_scooter", "name": "d718af616c93477bdf4b48c40505ef77", "lat": 38.887116, "bike_id": "d718af616c93477bdf4b48c40505ef77"},