{"data": {"bikes": [{"lat": 38.83730716666667, "is_disabled": 0, "type": "electric_bike", "lon": -76.99761816666667, "bike_id": "30df7db1f9bd68d7bd13f2812cf66b62", "fusion_lat": 0.0, "name": "30df7db1f9bd68d7bd13f2812cf66b62", "is_reserved": 0, "rental_uris": {"android": "https://dc.lft.to/lastmile_qr_scan", "ios": "https://dc.lft.to/lastmile_qr_scan"}, "fusion_lon": 0.0}, {"lat": 38.93537533333333, "is_disabled": 0, "type": "electric_scooter", "lon": -77.02347333333333, "bike_id": "62b2e3fcbce2b5850b58c82f863ae53a", "fusion_lat": 0.0, "name": "62b2e3fcbce2b5850b58c82f863ae53a", "is_reserved": 0, "rental_uris": {"android": "https://dc.lft.to/lastmile_qr_scan", "ios": "https://dc.lft.to/lastmile_qr_scan"}, "fusion_lon": 0.0}, {"lat": 38.90272566666667, "is_disabled": 0, "type": "electric_scooter", "lon": -77.00347716666667, "bike_id": "2521c8a4a495b4db87c964aaf915438c", "fusion_lat": 0.0, "name": "2521c8a4a495b4db87c964aaf915438c", "is_reserved": 0, "rental_uris": {"android": "https://dc.lft.to/lastmile_qr_scan", "ios": "https://dc.lft.to/lastmile_qr_scan"}, "fusion_lon": 0.0}, {"lat": 38.86508216666667, "is_disabled": 0, "type": "electric_scooter", "lon": -76.9900985, "bike_id": "2fb17babf7f5edfd90bbb52a6a6dbad1", "fusion_lat": 0.0, "name": "2fb17babf7f5edfd90bbb52a6a6dbad1", "is_reserved": 0, "rental_uris": {"android": "https://dc.lft.to/lastmile_qr_scan", "ios": "https://dc.lft.to/lastmile_qr_scan"}, "fusion_lon": 0.0}, {"lat": 38.92934233333333, "is_disabled": 0, "type": "electric_scooter", "lon": -77.037491, "bike_id": "4946c8fd81fdf2463acfe33c91f4b14d", "fusion_lat": 0.0, "name": "4946c8fd81fdf2463acfe33c91f4b14d", "is_reserved": 0, "rental_uris": {"android": "https://dc.lft.to/lastmile_qr_scan", "ios": "https://dc.lft.to/lastmile_qr_scan"}, "fusion_lon": 0.0}, {"lat": 38.899855, "is_disabled": 0, "type": "electric_scooter", "lon": -77.0206865, "bike_id": "7acdc0ee99e8b40a73f5ef31f6e0760d", "fusion_lat": 0.0, "name": "7acdc0ee99e8b40a73f5ef31f6e0760d", "is_reserved": 0, "rental_uris": {"android": "https://dc.lft.to/lastmile_qr_scan", "ios": "https://dc.lft.to/lastmile_qr_scan"}, "fusion_lon": 0.0}, {"lat": 38.91771933333333, "is_disabled": 0, "type": "electric_scooter", "lon": -77.01878466666666, "bike_id": "0e83475077e64e820c3cfe907d2afa61", "fusion_lat": 0.0, "name": "0e83475077e64e820c3cfe907d2afa61", "is_reserved": 0, "rental_uris": {"android": "https://dc.lft.to/lastmile_qr_scan", "ios": "https://dc.lft.to/lastmile_qr_scan"}, "fusion_lon": 0.0}, {"lat": 38.91102133333333, "is_disabled": 0, "type": "electric_scooter", "lon": -77.042076, "bike_id": "b1699fc0d6a01267af5e2c474221e7ad", "fusion_lat": 0.0, "name": "b1699fc0d6a01267af5e2c474221e7ad", "is_reserved": 0, "rental_uris": {"android": "https://dc.lft.to/lastmile_qr_scan", "ios": "https://dc.lft.to/lastmile_qr_scan"}, "fusion_lon": 0.0}, {"lat": 38.856852333333336, "is_disabled": 0, "type": "electric_scooter", "lon": -76.981788, "bike_id": "561c6e44ab337a492571f8f96f540c21", "fusion_lat": 0.0, "name": "561c6e44ab337a492571f8f96f540c21", "is_reserved": 0, "rental_uris": {"android": "https://dc.lft.to/lastmile_qr_scan", "ios": "https://dc.lft.to/lastmile_qr_scan"}, "fusion_lon": 0.0}, {"lat": 38.936524666666664, "is_disabled": 0, "type": "electric_scooter", "lon": -77.02047466666667, "bike_id": "c8533de976f9052c06ba4faebec809f2", "fusion_lat": 0.0, "name": "c8533de976f9052c06ba4faebec809f2", "is_reserved": 0, "rental_uris": {"android": "https://dc.lft.to/lastmile_qr_scan", "ios": "https://dc.lft.to/lastmile_qr_scan"}, "fusion_lon": 0.0}, {"lat": 38.917364166666665, "is_disabled": 0, "type": "electric_scooter", "lon": -77.03665983333333, "bike_id": "fc599422b7426c6c78a76e9be907d0ea", "fusion_lat": 0.0, "name": "fc599422b7426c6c78a76e9be907d0ea", "is_reserved": 0, "rental_uris": {"android": "https://dc.lft.to/lastmile_qr_scan", "ios": "https://dc.lft.to/lastmile_qr_scan"}, "fusion_lon": 0.0}, {"lat": 38.90543383333333, "is_disabled": 0, "type": "electric_scooter", "lon": -77.02224583333333, "bike_id": "39c5b28d2a2ee1cb41f6da9717a27dd7", "fusion_lat": 0.0, "name": "39c5b28d2a2ee1cb41f6da9717a27dd7", "is_reserved": 0, "rental_uris": {"android": "https://dc.lft.to/lastmile_qr_scan", "ios": "https://dc.lft.to/lastmile_qr_scan"}, "fusion_lon": 0.0}, {"lat": 38.915646, "is_disabled": 0, "type": "electric_scooter", "lon": -77.03856083333334, "bike_id": "8538265d2290870e0e7ffab2cc1ceb96", "fusion_lat": 0.0, "name": "8538265d2290870e0e7ffab2cc1ceb96", "is_reserved": 0, "rental_uris": {"android": "https://dc.lft.to/lastmile_qr_scan", "ios": "https://dc.lft.to/lastmile_qr_scan"}, "fusion_lon": 0.0}, {"lat": 38.936913, "is_disabled": 0, "type": "electric_bike", "lon": -77.05647233333333, "bike_id": "1de38589b3f5bec1b86d479c52eb2a29", "fusion_lat": 0.0, "name": "1de38589b3f5bec1b86d479c52eb2a29", "is_reserved": 0, "rental_uris": {"android": "https://dc.lft.to/lastmile_qr_scan", "ios": "https://dc.lft.to/lastmile_qr_scan"}, "fusion_lon": 0.0}, {"lat": 38.91811166666667, "is_disabled": 0, "type": "electric_scooter", "lon": -77.0417395, "bike_id": "a274cd2369213dc8a747cbd34743a51f", "fusion_lat": 0.0, "name": "a274cd2369213dc8a747cbd34743a51f", "is_reserved": 0, "rental_uris": {"android": "https://dc.lft.to/lastmile_qr_scan", "ios": "https://dc.lft.to/lastmile_qr_scan"}, "fusion_lon": 0.0}, {"lat": 38.916634, "is_disabled": 0, "type": "electric_scooter", "lon": -77.04725366666666, "bike_id": "3d0e23a46c796c6e426d5508e7dacc5b", "fusion_lat": 0.0, "name": "3d0e23a46c796c6e426d5508e7dacc5b", "is_reserved": 0, "rental_uris": {"android": "https://dc.lft.to/lastmile_qr_scan", "ios": "https://dc.lft.to/lastmile_qr_scan"}, "fusion_lon": 0.0}, {"lat": 38.8954715, "is_disabled": 0, "type": "electric_scooter", "lon": -77.00436966666666, "bike_id": "9684f17fdc89027e7320682288e90ac4", "fusion_lat": 0.0, "name": "9684f17fdc89027e7320682288e90ac4", "is_reserved": 0, "rental_uris": {"android": "https://dc.lft.to/lastmile_qr_scan", "ios": "https://dc.lft.to/lastmile_qr_scan"}, "fusion_lon": 0.0}, {"lat": 38.884849833333334, "is_disabled": 0, "type": "electric_scooter", "lon": -76.94520633333333, "bike_id": "856e2f8eee0cd118da9ac3f024a15bb9", "fusion_lat": 0.0, "name": "856e2f8eee0cd118da9ac3f024a15bb9", "is_reserved": 0, "rental_uris": {"android": "https://dc.lft.to/lastmile_qr_scan", "ios": "https://dc.lft.to/lastmile_qr_scan"}, "fusion_lon": 0.0}, {"lat": 38.90553216666667, "is_disabled": 0, "type": "electric_scooter", "lon": -77.0269235, "bike_id": "76f3ca8a8066349b877988ba72d7258c", "fusion_lat": 0.0, "name": "76f3ca8a8066349b877988ba72d7258c", "is_reserved": 0, "rental_uris": {"android": "https://dc.lft.to/lastmile_qr_scan", "ios": "https://dc.lft.to/lastmile_qr_scan"}, "fusion_lon": 0.0}, {"lat": 38.922061, "is_disabled": 0, "type": "electric_scooter", "lon": -77.03743983333334, "bike_id": "27e114bd37d6f4ae288979adff368b45", "fusion_lat": 0.0, "name": "27e114bd37d6f4ae288979adff368b45", "is_reserved": 0, "rental_uris": {"android": "https://dc.lft.to/lastmile_qr_scan", "ios": "https://dc.lft.to/lastmile_qr_scan"}, "fusion_lon": 0.0}, {"lat": 38.90276683333333, "is_disabled": 0, "type": "electric_scooter", "lon": -77.05256716666666, "bike_id": "23be399e752901df6f71ba6d57eee554", "fusion_lat": 0.0, "name": "23be399e752901df6f71ba6d57eee554", "is_reserved": 0, "rental_uris": {"android": "https://dc.lft.to/lastmile_qr_scan", "ios": "https://dc.lft.to/lastmile_qr_scan"}, "fusion_lon": 0.0}, {"lat": 38.8922485, "is_disabled": 0, "type": "electric_scooter", "lon": -77.04861483333333, "bike_id": "969c94a6818e30a6ab622a436412063e", "fusion_lat": 0.0, "name": "969c94a6818e30a6ab622a436412063e", "is_reserved": 0, "rental_uris": {"android": "https://dc.lft.to/lastmile_qr_scan", "ios": "https://dc.lft.to/lastmile_qr_scan"}, "fusion_lon": 0.0}, {"lat": 38.907344333333334, "is_disabled": 0, "type": "electric_scooter", "lon": -77.04766266666667, "bike_id": "c31a060ce9637b34f7bb4cf0cbdf06f0", "fusion_lat": 0.0, "name": "c31a060ce9637b34f7bb4cf0cbdf06f0", "is_reserved": 0, "rental_uris": {"android": "https://dc.lft.to/lastmile_qr_scan", "ios": "https://dc.lft.to/lastmile_qr_scan"}, "fusion_lon": 0.0}, {"lat": 38.91742883333333, "is_disabled": 0, "type": "electric_scooter", "lon": -77.0318985, "bike_id": "9d61bd4acc257e6f6ea4f4471af40a61", "fusion_lat": 0.0, "name": "9d61bd4acc257e6f6ea4f4471af40a61", "is_reserved": 0, "rental_uris": {"android": "https://dc.lft.to/lastmile_qr_scan", "ios": "https://dc.lft.to/lastmile_qr_scan"}, "fusion_lon": 0.0}, {"lat": 38.93085466666667, "is_disabled": 0, "type": "electric_scooter", "lon": -77.07764433333334, "bike_id": "fc740060a0c1aea03e15afabe878669b", "fusion_lat": 0.0, "name": "fc740060a0c1aea03e15afabe878669b", "is_reserved": 0, "rental_uris": {"android": "https://dc.lft.to/lastmile_qr_scan", "ios": "https://dc.lft.to/lastmile_qr_scan"}, "fusion_lon": 0.0}, {"lat": 38.850273666666666, "is_disabled": 0, "type": "electric_bike", "lon": -77.098021, "bike_id": "1ab4631b5fb2b48a5ce236eaacd4f3a1", "fusion_lat": 0.0, "name": "1ab4631b5fb2b48a5ce236eaacd4f3a1", "is_reserved": 0, "rental_uris": {"android": "https://dc.lft.to/lastmile_qr_scan", "ios": "https://dc.lft.to/lastmile_qr_scan"}, "fusion_lon": 0.0}, {"lat": 38.9174735, "is_disabled": 0, "type": "electric_scooter", "lon": -77.03208716666667, "bike_id": "63bf2da855a8ec3d5fa600904b6a220b", "fusion_lat": 0.0, "name": "63bf2da855a8ec3d5fa600904b6a220b", "is_reserved": 0, "rental_uris": {"android": "https://dc.lft.to/lastmile_qr_scan", "ios": "https://dc.lft.to/lastmile_qr_scan"}, "fusion_lon": 0.0}, {"lat": 38.931470833333336, "is_disabled": 0, "type": "electric_scooter", "lon": -77.02137516666667, "bike_id": "594fbd88dd231b8bc8ad4c2cbb62b032", "fusion_lat": 0.0, "name": "594fbd88dd231b8bc8ad4c2cbb62b032", "is_reserved": 0, "rental_uris": {"android": "https://dc.lft.to/lastmile_qr_scan", "ios": "https://dc.lft.to/lastmile_qr_scan"}, "fusion_lon": 0.0}, {"lat": 38.89529433333333, "is_disabled": 0, "type": "electric_scooter", "lon": -76.948909, "bike_id": "4481395464d1efae1b534ebbb75e367d", "fusion_lat": 0.0, "name": "4481395464d1efae1b534ebbb75e367d", "is_reserved": 0, "rental_uris": {"android": "https://dc.lft.to/lastmile_qr_scan", "ios": "https://dc.lft.to/lastmile_qr_scan"}, "fusion_lon": 0.0}, {"lat": 38.85791583333334, "is_disabled": 0, "type": "electric_bike", "lon": -77.09961683333333, "bike_id": "34b06b2f5637c12f3d03771ec0b8b189", "fusion_lat": 0.0, "name": "34b06b2f5637c12f3d03771ec0b8b189", "is_reserved": 0, "rental_uris": {"android": "https://dc.lft.to/lastmile_qr_scan", "ios": "https://dc.lft.to/lastmile_qr_scan"}, "fusion_lon": 0.0}, {"lat": 38.9082175, "is_disabled": 0, "type": "electric_scooter", "lon": -77.0434425, "bike_id": "f68e1a565fb54dbdb066b8e7e4025a0a", "fusion_lat": 0.0, "name": "f68e1a565fb54dbdb066b8e7e4025a0a", "is_reserved": 0, "rental_uris": {"android": "https://dc.lft.to/lastmile_qr_scan", "ios": "https://dc.lft.to/lastmile_qr_scan"}, "fusion_lon": 0.0}, {"lat": 38.905634166666665, "is_disabled": 0, "type": "electric_scooter", "lon": -77.01311833333334, "bike_id": "562a438a74b164e4f97bdb3d70af455f", "fusion_lat": 0.0, "name": "562a438a74b164e4f97bdb3d70af455f", "is_reserved": 0, "rental_uris": {"android": "https://dc.lft.to/lastmile_qr_scan", "ios": "https://dc.lft.to/lastmile_qr_scan"}, "fusion_lon": 0.0}, {"lat": 38.89880483333334, "is_disabled": 0, "type": "electric_scooter", "lon": -77.05338533333334, "bike_id": "a87a240e476b89baa4ce81682316e2ca", "fusion_lat": 0.0, "name": "a87a240e476b89baa4ce81682316e2ca", "is_reserved": 0, "rental_uris": {"android": "https://dc.lft.to/lastmile_qr_scan", "ios": "https://dc.lft.to/lastmile_qr_scan"}, "fusion_lon": 0.0}, {"lat": 38.922821166666665, "is_disabled": 0, "type": "electric_scooter", "lon": -77.0298015, "bike_id": "8f8c7c966bc12291da163f1480261dcd", "fusion_lat": 0.0, "name": "8f8c7c966bc12291da163f1480261dcd", "is_reserved": 0, "rental_uris": {"android": "https://dc.lft.to/lastmile_qr_scan", "ios": "https://dc.lft.to/lastmile_qr_scan"}, "fusion_lon": 0.0}, {"lat": 38.906801, "is_disabled": 0, "type": "electric_scooter", "lon": -77.02718, "bike_id": "b66452d740986953fcd26877a21da273", "fusion_lat": 0.0, "name": "b66452d740986953fcd26877a21da273", "is_reserved": 0, "rental_uris": {"android": "https://dc.lft.to/lastmile_qr_scan", "ios": "https://dc.lft.to/lastmile_qr_scan"}, "fusion_lon": 0.0}, {"lat": 38.86348016666667, "is_disabled": 0, "type": "electric_scooter", "lon": -76.99000533333333, "bike_id": "04643cfd65e06f9a868aec211a21e608", "fusion_lat": 0.0, "name": "04643cfd65e06f9a868aec211a21e608", "is_reserved": 0, "rental_uris": {"android": "https://dc.lft.to/lastmile_qr_scan", "ios": "https://dc.lft.to/lastmile_qr_scan"}, "fusion_lon": 0.0}, {"lat": 38.95554766666667, "is_disabled": 0, "type": "electric_bike", "lon": -76.93541066666667, "bike_id": "ef4f2d9780c5bfb1e150df965c97f271", "fusion_lat": 0.0, "name": "ef4f2d9780c5bfb1e150df965c97f271", "is_reserved": 0, "rental_uris": {"android": "https://dc.lft.to/lastmile_qr_scan", "ios": "https://dc.lft.to/lastmile_qr_scan"}, "fusion_lon": 0.0}, {"lat": 38.899251, "is_disabled": 0, "type": "electric_scooter", "lon": -76.933762, "bike_id": "6aa7192a60878f8e93d68bcc3cf8ff2a", "fusion_lat": 0.0, "name": "6aa7192a60878f8e93d68bcc3cf8ff2a", "is_reserved": 0, "rental_uris": {"android": "https://dc.lft.to/lastmile_qr_scan", "ios": "https://dc.lft.to/lastmile_qr_scan"}, "fusion_lon": 0.0}, {"lat": 38.94839416666667, "is_disabled": 0, "type": "electric_bike", "lon": -77.03885483333333, "bike_id": "8152d1b649a07e83816c46a3ea11acd3", "fusion_lat": 0.0, "name": "8152d1b649a07e83816c46a3ea11acd3", "is_reserved": 0, "rental_uris": {"android": "https://dc.lft.to/lastmile_qr_scan", "ios": "https://dc.lft.to/lastmile_qr_scan"}, "fusion_lon": 0.0}, {"lat": 38.93205866666667, "is_disabled": 0, "type": "electric_scooter", "lon": -77.03670616666666, "bike_id": "1113004aebad2e6ff9dcc1842f7010bf", "fusion_lat": 0.0, "name": "1113004aebad2e6ff9dcc1842f7010bf", "is_reserved": 0, "rental_uris": {"android": "https://dc.lft.to/lastmile_qr_scan", "ios": "https://dc.lft.to/lastmile_qr_scan"}, "fusion_lon": 0.0}, {"lat": 38.918622166666665, "is_disabled": 0, "type": "electric_scooter", "lon": -77.03184833333333, "bike_id": "0f1bdfac4fd8847cd76431b6bccb5c27", "fusion_lat": 0.0, "name": "0f1bdfac4fd8847cd76431b6bccb5c27", "is_reserved": 0, "rental_uris": {"android": "https://dc.lft.to/lastmile_qr_scan", "ios": "https://dc.lft.to/lastmile_qr_scan"}, "fusion_lon": 0.0}, {"lat": 38.907888, "is_disabled": 0, "type": "electric_scooter", "lon": -77.04486416666667, "bike_id": "2dd728d2eb88baab68a246cb98b8effd", "fusion_lat": 0.0, "name": "2dd728d2eb88baab68a246cb98b8effd", "is_reserved": 0, "rental_uris": {"android": "https://dc.lft.to/lastmile_qr_scan", "ios": "https://dc.lft.to/lastmile_qr_scan"}, "fusion_lon": 0.0}, {"lat": 38.93535383333333, "is_disabled": 0, "type": "electric_scooter", "lon": -77.03256466666667, "bike_id": "5e7a834d1562a02b8e1575088c57c2ef", "fusion_lat": 0.0, "name": "5e7a834d1562a02b8e1575088c57c2ef", "is_reserved": 0, "rental_uris": {"android": "https://dc.lft.to/lastmile_qr_scan", "ios": "https://dc.lft.to/lastmile_qr_scan"}, "fusion_lon": 0.0}, {"lat": 38.9309365, "is_disabled": 0, "type": "electric_scooter", "lon": -77.037451, "bike_id": "ce57f008065887149597f7ea5fc11f06", "fusion_lat": 0.0, "name": "ce57f008065887149597f7ea5fc11f06", "is_reserved": 0, "rental_uris": {"android": "https://dc.lft.to/lastmile_qr_scan", "ios": "https://dc.lft.to/lastmile_qr_scan"}, "fusion_lon": 0.0}, {"lat": 38.89221533333333, "is_disabled": 0, "type": "electric_scooter", "lon": -77.023186, "bike_id": "3bf60348b851650e186bbae46a187ea7", "fusion_lat": 0.0, "name": "3bf60348b851650e186bbae46a187ea7", "is_reserved": 0, "rental_uris": {"android": "https://dc.lft.to/lastmile_qr_scan", "ios": "https://dc.lft.to/lastmile_qr_scan"}, "fusion_lon": 0.0}, {"lat": 38.908546666666666, "is_disabled": 0, "type": "electric_scooter", "lon": -77.0435855, "bike_id": "ecd3ab06667eec5ff9aa43d21084a0e3", "fusion_lat": 0.0, "name": "ecd3ab06667eec5ff9aa43d21084a0e3", "is_reserved": 0, "rental_uris": {"android": "https://dc.lft.to/lastmile_qr_scan", "ios": "https://dc.lft.to/lastmile_qr_scan"}, "fusion_lon": 0.0}, {"lat": 38.917154833333335, "is_disabled": 0, "type": "electric_scooter", "lon": -77.03836883333334, "bike_id": "6b61890d46eddc1e39886178218461a9", "fusion_lat": 0.0, "name": "6b61890d46eddc1e39886178218461a9", "is_reserved": 0, "rental_uris": {"android": "https://dc.lft.to/lastmile_qr_scan", "ios": "https://dc.lft.to/lastmile_qr_scan"}, "fusion_lon": 0.0}, {"lat": 38.927446833333335, "is_disabled": 0, "type": "electric_scooter", "lon": -77.0341755, "bike_id": "23cce8f31a4cccada01fd60a1bcb0455", "fusion_lat": 0.0, "name": "23cce8f31a4cccada01fd60a1bcb0455", "is_reserved": 0, "rental_uris": {"android": "https://dc.lft.to/lastmile_qr_scan", "ios": "https://dc.lft.to/lastmile_qr_scan"}, "fusion_lon": 0.0}, {"lat": 38.911948, "is_disabled": 0, "type": "electric_scooter", "lon": -77.03434833333333, "bike_id": "a91422c72b0d2d4c0032f0735357304e", "fusion_lat": 0.0, "name": "a91422c72b0d2d4c0032f0735357304e", "is_reserved": 0, "rental_uris": {"android": "https://dc.lft.to/lastmile_qr_scan", "ios": "https://dc.lft.to/lastmile_qr_scan"}, "fusion_lon": 0.0}, {"lat": 38.9229145, "is_disabled": 0, "type": "electric_scooter", "lon": -77.029679, "bike_id": "ea0ce6b4bb2aeedddb45ff7f6aa5d142", "fusion_lat": 0.0, "name": "ea0ce6b4bb2aeedddb45ff7f6aa5d142", "is_reserved": 0, "rental_uris": {"android": "https://dc.lft.to/lastmile_qr_scan", "ios": "https://dc.lft.to/lastmile_qr_scan"}, "fusion_lon": 0.0}, {"lat": 38.954932666666664, "is_disabled": 0, "type": "electric_scooter", "lon": -77.06560683333333, "bike_id": "413bde2c36b2d3b23a2b10c8e7075a8e", "fusion_lat": 0.0, "name": "413bde2c36b2d3b23a2b10c8e7075a8e", "is_reserved": 0, "rental_uris": {"android": "https://dc.lft.to/lastmile_qr_scan", "ios": "https://dc.lft.to/lastmile_qr_scan"}, "fusion_lon": 0.0}, {"lat": 38.89249383333333, "is_disabled": 0, "type": "electric_scooter", "lon": -77.03958233333333, "bike_id": "b05dfc340684ec9aad82eed2d7194f6b", "fusion_lat": 0.0, "name": "b05dfc340684ec9aad82eed2d7194f6b", "is_reserved": 0, "rental_uris": {"android": "https://dc.lft.to/lastmile_qr_scan", "ios": "https://dc.lft.to/lastmile_qr_scan"}, "fusion_lon": 0.0}, {"lat": 38.900905, "is_disabled": 0, "type": "electric_scooter", "lon": -77.05035, "bike_id": "7d21bc3cac3c4b943613c5079f6cc1e7", "fusion_lat": 0.0, "name": "7d21bc3cac3c4b943613c5079f6cc1e7", "is_reserved": 0, "rental_uris": {"android": "https://dc.lft.to/lastmile_qr_scan", "ios": "https://dc.lft.to/lastmile_qr_scan"}, "fusion_lon": 0.0}, {"lat": 38.936697833333334, "is_disabled": 0, "type": "electric_scooter", "lon": -77.02454666666667, "bike_id": "9ea3b3747f170c4b9d0292faeb0e8eb7", "fusion_lat": 0.0, "name": "9ea3b3747f170c4b9d0292faeb0e8eb7", "is_reserved": 0, "rental_uris": {"android": "https://dc.lft.to/lastmile_qr_scan", "ios": "https://dc.lft.to/lastmile_qr_scan"}, "fusion_lon": 0.0}, {"lat": 38.89036433333333, "is_disabled": 0, "type": "electric_scooter", "lon": -76.9374955, "bike_id": "961f4e8e02c4c38010e560518b8c8074", "fusion_lat": 0.0, "name": "961f4e8e02c4c38010e560518b8c8074", "is_reserved": 0, "rental_uris": {"android": "https://dc.lft.to/lastmile_qr_scan", "ios": "https://dc.lft.to/lastmile_qr_scan"}, "fusion_lon": 0.0}, {"lat": 38.931222166666664, "is_disabled": 0, "type": "electric_bike", "lon": -77.02711966666666, "bike_id": "ec81f57a19c219d7c5b7785cf9676c73", "fusion_lat": 0.0, "name": "ec81f57a19c219d7c5b7785cf9676c73", "is_reserved": 0, "rental_uris": {"android": "https://dc.lft.to/lastmile_qr_scan", "ios": "https://dc.lft.to/lastmile_qr_scan"}, "fusion_lon": 0.0}, {"lat": 38.9288015, "is_disabled": 0, "type": "electric_scooter", "lon": -77.03715266666667, "bike_id": "fdb284aeadbdae915d815f23f6834e9e", "fusion_lat": 0.0, "name": "fdb284aeadbdae915d815f23f6834e9e", "is_reserved": 0, "rental_uris": {"android": "https://dc.lft.to/lastmile_qr_scan", "ios": "https://dc.lft.to/lastmile_qr_scan"}, "fusion_lon": 0.0}, {"lat": 38.9329915, "is_disabled": 0, "type": "electric_scooter", "lon": -77.04537366666666, "bike_id": "efe0ebd4c51d2886887c1db1ecdc9a89", "fusion_lat": 0.0, "name": "efe0ebd4c51d2886887c1db1ecdc9a89", "is_reserved": 0, "rental_uris": {"android": "https://dc.lft.to/lastmile_qr_scan", "ios": "https://dc.lft.to/lastmile_qr_scan"}, "fusion_lon": 0.0}, {"lat": 38.91463233333333, "is_disabled": 0, "type": "electric_scooter", "lon": -77.01433933333334, "bike_id": "e8b10ba4957086a4fbe34b05785b1f36", "fusion_lat": 0.0, "name": "e8b10ba4957086a4fbe34b05785b1f36", "is_reserved": 0, "rental_uris": {"android": "https://dc.lft.to/lastmile_qr_scan", "ios": "https://dc.lft.to/lastmile_qr_scan"}, "fusion_lon": 0.0}, {"lat": 38.900412333333335, "is_disabled": 0, "type": "electric_scooter", "lon": -77.03324233333333, "bike_id": "76fa41415a410c8f417d2f6fb05af0ff", "fusion_lat": 0.0, "name": "76fa41415a410c8f417d2f6fb05af0ff", "is_reserved": 0, "rental_uris": {"android": "https://dc.lft.to/lastmile_qr_scan", "ios": "https://dc.lft.to/lastmile_qr_scan"}, "fusion_lon": 0.0}, {"lat": 38.91461133333333, "is_disabled": 0, "type": "electric_bike", "lon": -76.97273883333334, "bike_id": "1522fba63bee07f84963a2b94b95bef3", "fusion_lat": 0.0, "name": "1522fba63bee07f84963a2b94b95bef3", "is_reserved": 0, "rental_uris": {"android": "https://dc.lft.to/lastmile_qr_scan", "ios": "https://dc.lft.to/lastmile_qr_scan"}, "fusion_lon": 0.0}, {"lat": 38.90253883333333, "is_disabled": 0, "type": "electric_scooter", "lon": -77.01779483333334, "bike_id": "dd54ce6aba4bf569c240d86f9b2ef34f", "fusion_lat": 0.0, "name": "dd54ce6aba4bf569c240d86f9b2ef34f", "is_reserved": 0, "rental_uris": {"android": "https://dc.lft.to/lastmile_qr_scan", "ios": "https://dc.lft.to/lastmile_qr_scan"}, "fusion_lon": 0.0}, {"lat": 38.88206566666667, "is_disabled": 0, "type": "electric_scooter", "lon": -76.98922616666667, "bike_id": "7883603ed1dabd2c889008b9c2aa569a", "fusion_lat": 0.0, "name": "7883603ed1dabd2c889008b9c2aa569a", "is_reserved": 0, "rental_uris": {"android": "https://dc.lft.to/lastmile_qr_scan", "ios": "https://dc.lft.to/lastmile_qr_scan"}, "fusion_lon": 0.0}, {"lat": 38.870757166666664, "is_disabled": 0, "type": "electric_bike", "lon": -76.97843266666666, "bike_id": "73a56ee60bcb949b209cb412668c57ea", "fusion_lat": 0.0, "name": "73a56ee60bcb949b209cb412668c57ea", "is_reserved": 0, "rental_uris": {"android": "https://dc.lft.to/lastmile_qr_scan", "ios": "https://dc.lft.to/lastmile_qr_scan"}, "fusion_lon": 0.0}, {"lat": 38.878618, "is_disabled": 0, "type": "electric_scooter", "lon": -77.0176445, "bike_id": "988b55befc1120636e62ffbc14544b63", "fusion_lat": 0.0, "name": "988b55befc1120636e62ffbc14544b63", "is_reserved": 0, "rental_uris": {"android": "https://dc.lft.to/lastmile_qr_scan", "ios": "https://dc.lft.to/lastmile_qr_scan"}, "fusion_lon": 0.0}, {"lat": 38.892231333333335, "is_disabled": 0, "type": "electric_scooter", "lon": -77.02210866666667, "bike_id": "35c3a240fedf5d32534a7c95096af846", "fusion_lat": 0.0, "name": "35c3a240fedf5d32534a7c95096af846", "is_reserved": 0, "rental_uris": {"android": "https://dc.lft.to/lastmile_qr_scan", "ios": "https://dc.lft.to/lastmile_qr_scan"}, "fusion_lon": 0.0}, {"lat": 38.9590265, "is_disabled": 0, "type": "electric_bike", "lon": -76.924967, "bike_id": "327ce959ad452573948aea068988b774", "fusion_lat": 0.0, "name": "327ce959ad452573948aea068988b774", "is_reserved": 0, "rental_uris": {"android": "https://dc.lft.to/lastmile_qr_scan", "ios": "https://dc.lft.to/lastmile_qr_scan"}, "fusion_lon": 0.0}, {"lat": 38.92067333333333, "is_disabled": 0, "type": "electric_scooter", "lon": -77.07887416666667, "bike_id": "407712311469e9ff00c844631a959dd2", "fusion_lat": 0.0, "name": "407712311469e9ff00c844631a959dd2", "is_reserved": 0, "rental_uris": {"android": "https://dc.lft.to/lastmile_qr_scan", "ios": "https://dc.lft.to/lastmile_qr_scan"}, "fusion_lon": 0.0}, {"lat": 38.93411666666667, "is_disabled": 0, "type": "electric_scooter", "lon": -77.0329215, "bike_id": "f8120885a80f0ebafc13f1466fc5f3bb", "fusion_lat": 0.0, "name": "f8120885a80f0ebafc13f1466fc5f3bb", "is_reserved": 0, "rental_uris": {"android": "https://dc.lft.to/lastmile_qr_scan", "ios": "https://dc.lft.to/lastmile_qr_scan"}, "fusion_lon": 0.0}, {"lat": 38.88364283333333, "is_disabled": 0, "type": "electric_scooter", "lon": -76.941557, "bike_id": "2f6a27f9ab5e7f7d918a20f37aa05433", "fusion_lat": 0.0, "name": "2f6a27f9ab5e7f7d918a20f37aa05433", "is_reserved": 0, "rental_uris": {"android": "https://dc.lft.to/lastmile_qr_scan", "ios": "https://dc.lft.to/lastmile_qr_scan"}, "fusion_lon": 0.0}, {"lat": 38.92539083333333, "is_disabled": 0, "type": "electric_scooter", "lon": -77.026305, "bike_id": "2730ad787e0784d0e6c6f0565b243dc6", "fusion_lat": 0.0, "name": "2730ad787e0784d0e6c6f0565b243dc6", "is_reserved": 0, "rental_uris": {"android": "https://dc.lft.to/lastmile_qr_scan", "ios": "https://dc.lft.to/lastmile_qr_scan"}, "fusion_lon": 0.0}, {"lat": 38.9650705, "is_disabled": 0, "type": "electric_bike", "lon": -77.02827383333333, "bike_id": "6d63cf099de94e314f6a240a62718bbc", "fusion_lat": 0.0, "name": "6d63cf099de94e314f6a240a62718bbc", "is_reserved": 0, "rental_uris": {"android": "https://dc.lft.to/lastmile_qr_scan", "ios": "https://dc.lft.to/lastmile_qr_scan"}, "fusion_lon": 0.0}, {"lat": 38.9361035, "is_disabled": 0, "type": "electric_scooter", "lon": -77.05859766666667, "bike_id": "56a5415b986e888ccbfa19f66fa642cd", "fusion_lat": 0.0, "name": "56a5415b986e888ccbfa19f66fa642cd", "is_reserved": 0, "rental_uris": {"android": "https://dc.lft.to/lastmile_qr_scan", "ios": "https://dc.lft.to/lastmile_qr_scan"}, "fusion_lon": 0.0}, {"lat": 38.9098005, "is_disabled": 0, "type": "electric_scooter", "lon": -77.03175783333333, "bike_id": "30de24c62a0dfbd97bceaf334b067a45", "fusion_lat": 0.0, "name": "30de24c62a0dfbd97bceaf334b067a45", "is_reserved": 0, "rental_uris": {"android": "https://dc.lft.to/lastmile_qr_scan", "ios": "https://dc.lft.to/lastmile_qr_scan"}, "fusion_lon": 0.0}, {"lat": 38.916850333333336, "is_disabled": 0, "type": "electric_scooter", "lon": -77.00205666666666, "bike_id": "11c4114837a2d60b980133942f4a3582", "fusion_lat": 0.0, "name": "11c4114837a2d60b980133942f4a3582", "is_reserved": 0, "rental_uris": {"android": "https://dc.lft.to/lastmile_qr_scan", "ios": "https://dc.lft.to/lastmile_qr_scan"}, "fusion_lon": 0.0}, {"lat": 38.906006833333336, "is_disabled": 0, "type": "electric_scooter", "lon": -77.0162555, "bike_id": "04e2e10281dc4e6a5c8053cb46e498f0", "fusion_lat": 0.0, "name": "04e2e10281dc4e6a5c8053cb46e498f0", "is_reserved": 0, "rental_uris": {"android": "https://dc.lft.to/lastmile_qr_scan", "ios": "https://dc.lft.to/lastmile_qr_scan"}, "fusion_lon": 0.0}, {"lat": 38.9229035, "is_disabled": 0, "type": "electric_scooter", "lon": -77.029587, "bike_id": "9593ecdaffdf880acb0ef10cf7264209", "fusion_lat": 0.0, "name": "9593ecdaffdf880acb0ef10cf7264209", "is_reserved": 0, "rental_uris": {"android": "https://dc.lft.to/lastmile_qr_scan", "ios": "https://dc.lft.to/lastmile_qr_scan"}, "fusion_lon": 0.0}, {"lat": 38.893414666666665, "is_disabled": 0, "type": "electric_scooter", "lon": -76.99160933333333, "bike_id": "a788813c7db095f730f1058b40634cde", "fusion_lat": 0.0, "name": "a788813c7db095f730f1058b40634cde", "is_reserved": 0, "rental_uris": {"android": "https://dc.lft.to/lastmile_qr_scan", "ios": "https://dc.lft.to/lastmile_qr_scan"}, "fusion_lon": 0.0}, {"lat": 38.91805866666667, "is_disabled": 0, "type": "electric_scooter", "lon": -77.03207933333333, "bike_id": "028c1bad81aa39cb8c5a50131207d9a8", "fusion_lat": 0.0, "name": "028c1bad81aa39cb8c5a50131207d9a8", "is_reserved": 0, "rental_uris": {"android": "https://dc.lft.to/lastmile_qr_scan", "ios": "https://dc.lft.to/lastmile_qr_scan"}, "fusion_lon": 0.0}, {"lat": 38.90202766666667, "is_disabled": 0, "type": "electric_scooter", "lon": -76.98213483333333, "bike_id": "3b12252a5789120002c11331251467af", "fusion_lat": 0.0, "name": "3b12252a5789120002c11331251467af", "is_reserved": 0, "rental_uris": {"android": "https://dc.lft.to/lastmile_qr_scan", "ios": "https://dc.lft.to/lastmile_qr_scan"}, "fusion_lon": 0.0}, {"lat": 38.93532916666667, "is_disabled": 0, "type": "electric_scooter", "lon": -77.07293783333333, "bike_id": "c4c6a3a70e9499a7438b671176642e33", "fusion_lat": 0.0, "name": "c4c6a3a70e9499a7438b671176642e33", "is_reserved": 0, "rental_uris": {"android": "https://dc.lft.to/lastmile_qr_scan", "ios": "https://dc.lft.to/lastmile_qr_scan"}, "fusion_lon": 0.0}, {"lat": 38.91567116666667, "is_disabled": 0, "type": "electric_scooter", "lon": -77.031486, "bike_id": "ca26cf4a726c8d5a925673ba7d3a3b16", "fusion_lat": 0.0, "name": "ca26cf4a726c8d5a925673ba7d3a3b16", "is_reserved": 0, "rental_uris": {"android": "https://dc.lft.to/lastmile_qr_scan", "ios": "https://dc.lft.to/lastmile_qr_scan"}, "fusion_lon": 0.0}, {"lat": 38.84292466666667, "is_disabled": 0, "type": "electric_scooter", "lon": -76.99944333333333, "bike_id": "5b2614de84cec0982ebb81415c530502", "fusion_lat": 0.0, "name": "5b2614de84cec0982ebb81415c530502", "is_reserved": 0, "rental_uris": {"android": "https://dc.lft.to/lastmile_qr_scan", "ios": "https://dc.lft.to/lastmile_qr_scan"}, "fusion_lon": 0.0}, {"lat": 38.9302295, "is_disabled": 0, "type": "electric_scooter", "lon": -77.0235, "bike_id": "5eaec54f5bd18b6bdee479165d20d285", "fusion_lat": 0.0, "name": "5eaec54f5bd18b6bdee479165d20d285", "is_reserved": 0, "rental_uris": {"android": "https://dc.lft.to/lastmile_qr_scan", "ios": "https://dc.lft.to/lastmile_qr_scan"}, "fusion_lon": 0.0}, {"lat": 38.924888333333335, "is_disabled": 0, "type": "electric_scooter", "lon": -77.073245, "bike_id": "c11460e3b2ca4c4e524c2c9aee3c9f48", "fusion_lat": 0.0, "name": "c11460e3b2ca4c4e524c2c9aee3c9f48", "is_reserved": 0, "rental_uris": {"android": "https://dc.lft.to/lastmile_qr_scan", "ios": "https://dc.lft.to/lastmile_qr_scan"}, "fusion_lon": 0.0}, {"lat": 38.88074983333333, "is_disabled": 0, "type": "electric_scooter", "lon": -77.005975, "bike_id": "0d43462fb093ba6e9d309692bff65ecc", "fusion_lat": 0.0, "name": "0d43462fb093ba6e9d309692bff65ecc", "is_reserved": 0, "rental_uris": {"android": "https://dc.lft.to/lastmile_qr_scan", "ios": "https://dc.lft.to/lastmile_qr_scan"}, "fusion_lon": 0.0}, {"lat": 38.91715216666667, "is_disabled": 0, "type": "electric_scooter", "lon": -77.03248, "bike_id": "5ea57ca6a359c5834e77d96e7ed530fa", "fusion_lat": 0.0, "name": "5ea57ca6a359c5834e77d96e7ed530fa", "is_reserved": 0, "rental_uris": {"android": "https://dc.lft.to/lastmile_qr_scan", "ios": "https://dc.lft.to/lastmile_qr_scan"}, "fusion_lon": 0.0}, {"lat": 38.99447816666667, "is_disabled": 0, "type": "electric_bike", "lon": -77.031956, "bike_id": "fd9b008e01edef61114e3c92b7904a5e", "fusion_lat": 0.0, "name": "fd9b008e01edef61114e3c92b7904a5e", "is_reserved": 0, "rental_uris": {"android": "https://dc.lft.to/lastmile_qr_scan", "ios": "https://dc.lft.to/lastmile_qr_scan"}, "fusion_lon": 0.0}, {"lat": 38.9246725, "is_disabled": 0, "type": "electric_scooter", "lon": -77.05236516666666, "bike_id": "cf01b62efe28abbba0782db2f67aad67", "fusion_lat": 0.0, "name": "cf01b62efe28abbba0782db2f67aad67", "is_reserved": 0, "rental_uris": {"android": "https://dc.lft.to/lastmile_qr_scan", "ios": "https://dc.lft.to/lastmile_qr_scan"}, "fusion_lon": 0.0}, {"lat": 38.884919, "is_disabled": 0, "type": "electric_scooter", "lon": -77.0070995, "bike_id": "d77642e1055fe64f3de194fc7003907f", "fusion_lat": 0.0, "name": "d77642e1055fe64f3de194fc7003907f", "is_reserved": 0, "rental_uris": {"android": "https://dc.lft.to/lastmile_qr_scan", "ios": "https://dc.lft.to/lastmile_qr_scan"}, "fusion_lon": 0.0}, {"lat": 38.909409833333335, "is_disabled": 0, "type": "electric_scooter", "lon": -77.0447525, "bike_id": "65c07dbee38ffd659d692982fb7e391f", "fusion_lat": 0.0, "name": "65c07dbee38ffd659d692982fb7e391f", "is_reserved": 0, "rental_uris": {"android": "https://dc.lft.to/lastmile_qr_scan", "ios": "https://dc.lft.to/lastmile_qr_scan"}, "fusion_lon": 0.0}, {"lat": 38.928599, "is_disabled": 0, "type": "electric_scooter", "lon": -77.03101066666666, "bike_id": "28a18319517c61f0c16154d9352450f3", "fusion_lat": 0.0, "name": "28a18319517c61f0c16154d9352450f3", "is_reserved": 0, "rental_uris": {"android": "https://dc.lft.to/lastmile_qr_scan", "ios": "https://dc.lft.to/lastmile_qr_scan"}, "fusion_lon": 0.0}, {"lat": 38.92382383333333, "is_disabled": 0, "type": "electric_scooter", "lon": -77.02744533333333, "bike_id": "9c7cba25f69d5f54111ac0ed8fdd7075", "fusion_lat": 0.0, "name": "9c7cba25f69d5f54111ac0ed8fdd7075", "is_reserved": 0, "rental_uris": {"android": "https://dc.lft.to/lastmile_qr_scan", "ios": "https://dc.lft.to/lastmile_qr_scan"}, "fusion_lon": 0.0}, {"lat": 38.9155775, "is_disabled": 0, "type": "electric_scooter", "lon": -77.04182883333333, "bike_id": "0afdca32d2d11827e10bcb4f81866cd6", "fusion_lat": 0.0, "name": "0afdca32d2d11827e10bcb4f81866cd6", "is_reserved": 0, "rental_uris": {"android": "https://dc.lft.to/lastmile_qr_scan", "ios": "https://dc.lft.to/lastmile_qr_scan"}, "fusion_lon": 0.0}, {"lat": 38.916849666666664, "is_disabled": 0, "type": "electric_scooter", "lon": -77.02950016666666, "bike_id": "eac5dc69291c514fee04eba96d47033b", "fusion_lat": 0.0, "name": "eac5dc69291c514fee04eba96d47033b", "is_reserved": 0, "rental_uris": {"android": "https://dc.lft.to/lastmile_qr_scan", "ios": "https://dc.lft.to/lastmile_qr_scan"}, "fusion_lon": 0.0}, {"lat": 38.884458333333335, "is_disabled": 0, "type": "electric_scooter", "lon": -77.000504, "bike_id": "ada89a80425f92cebbc07279ee9ea542", "fusion_lat": 0.0, "name": "ada89a80425f92cebbc07279ee9ea542", "is_reserved": 0, "rental_uris": {"android": "https://dc.lft.to/lastmile_qr_scan", "ios": "https://dc.lft.to/lastmile_qr_scan"}, "fusion_lon": 0.0}, {"lat": 38.90521283333333, "is_disabled": 0, "type": "electric_scooter", "lon": -77.064508, "bike_id": "321ba3bc6fbb9c6d3810bf3d6fd8a2a9", "fusion_lat": 0.0, "name": "321ba3bc6fbb9c6d3810bf3d6fd8a2a9", "is_reserved": 0, "rental_uris": {"android": "https://dc.lft.to/lastmile_qr_scan", "ios": "https://dc.lft.to/lastmile_qr_scan"}, "fusion_lon": 0.0}, {"lat": 38.92215566666667, "is_disabled": 0, "type": "electric_scooter", "lon": -77.03782416666667, "bike_id": "a316f91df8d6fd7de652c8ed5428b036", "fusion_lat": 0.0, "name": "a316f91df8d6fd7de652c8ed5428b036", "is_reserved": 0, "rental_uris": {"android": "https://dc.lft.to/lastmile_qr_scan", "ios": "https://dc.lft.to/lastmile_qr_scan"}, "fusion_lon": 0.0}, {"lat": 38.8670095, "is_disabled": 0, "type": "electric_scooter", "lon": -76.9871555, "bike_id": "02d6b8761595740555789f7f4e262797", "fusion_lat": 0.0, "name": "02d6b8761595740555789f7f4e262797", "is_reserved": 0, "rental_uris": {"android": "https://dc.lft.to/lastmile_qr_scan", "ios": "https://dc.lft.to/lastmile_qr_scan"}, "fusion_lon": 0.0}, {"lat": 38.89391916666667, "is_disabled": 0, "type": "electric_scooter", "lon": -76.95000466666667, "bike_id": "f7d29980ab99518554804ec0ee9854db", "fusion_lat": 0.0, "name": "f7d29980ab99518554804ec0ee9854db", "is_reserved": 0, "rental_uris": {"android": "https://dc.lft.to/lastmile_qr_scan", "ios": "https://dc.lft.to/lastmile_qr_scan"}, "fusion_lon": 0.0}, {"lat": 38.899914, "is_disabled": 0, "type": "electric_scooter", "lon": -77.02149533333333, "bike_id": "86396cff7b32c34dc898937329fe35f1", "fusion_lat": 0.0, "name": "86396cff7b32c34dc898937329fe35f1", "is_reserved": 0, "rental_uris": {"android": "https://dc.lft.to/lastmile_qr_scan", "ios": "https://dc.lft.to/lastmile_qr_scan"}, "fusion_lon": 0.0}, {"lat": 38.92870383333333, "is_disabled": 0, "type": "electric_scooter", "lon": -76.99031783333334, "bike_id": "f859d3497f86b0aeb3c19b4715251a9e", "fusion_lat": 0.0, "name": "f859d3497f86b0aeb3c19b4715251a9e", "is_reserved": 0, "rental_uris": {"android": "https://dc.lft.to/lastmile_qr_scan", "ios": "https://dc.lft.to/lastmile_qr_scan"}, "fusion_lon": 0.0}, {"lat": 38.91271666666667, "is_disabled": 0, "type": "electric_scooter", "lon": -77.02256883333334, "bike_id": "fd8b67497ba2400656cf6b484ba7ddfa", "fusion_lat": 0.0, "name": "fd8b67497ba2400656cf6b484ba7ddfa", "is_reserved": 0, "rental_uris": {"android": "https://dc.lft.to/lastmile_qr_scan", "ios": "https://dc.lft.to/lastmile_qr_scan"}, "fusion_lon": 0.0}, {"lat": 38.88671683333333, "is_disabled": 0, "type": "electric_scooter", "lon": -76.99034033333334, "bike_id": "d69de9917b1abb6ec382137530338b48", "fusion_lat": 0.0, "name": "d69de9917b1abb6ec382137530338b48", "is_reserved": 0, "rental_uris": {"android": "https://dc.lft.to/lastmile_qr_scan", "ios": "https://dc.lft.to/lastmile_qr_scan"}, "fusion_lon": 0.0}, {"lat": 38.923460666666664, "is_disabled": 0, "type": "electric_scooter", "lon": -77.03524966666667, "bike_id": "dda94fd7841e12aaa165dd9ceb4fb1a0", "fusion_lat": 0.0, "name": "dda94fd7841e12aaa165dd9ceb4fb1a0", "is_reserved": 0, "rental_uris": {"android": "https://dc.lft.to/lastmile_qr_scan", "ios": "https://dc.lft.to/lastmile_qr_scan"}, "fusion_lon": 0.0}, {"lat": 38.90398183333333, "is_disabled": 0, "type": "electric_scooter", "lon": -77.04323183333334, "bike_id": "03082691338e455dffc14bcc2f905ca5", "fusion_lat": 0.0, "name": "03082691338e455dffc14bcc2f905ca5", "is_reserved": 0, "rental_uris": {"android": "https://dc.lft.to/lastmile_qr_scan", "ios": "https://dc.lft.to/lastmile_qr_scan"}, "fusion_lon": 0.0}, {"lat": 38.921072, "is_disabled": 0, "type": "electric_scooter", "lon": -77.04587033333334, "bike_id": "40a3bce0ffe044a840fc8324a33a5c8f", "fusion_lat": 0.0, "name": "40a3bce0ffe044a840fc8324a33a5c8f", "is_reserved": 0, "rental_uris": {"android": "https://dc.lft.to/lastmile_qr_scan", "ios": "https://dc.lft.to/lastmile_qr_scan"}, "fusion_lon": 0.0}, {"lat": 39.075037, "is_disabled": 0, "type": "electric_bike", "lon": -77.1189715, "bike_id": "73b5075f8c3e88abe2c4cd304002dd63", "fusion_lat": 0.0, "name": "73b5075f8c3e88abe2c4cd304002dd63", "is_reserved": 0, "rental_uris": {"android": "https://dc.lft.to/lastmile_qr_scan", "ios": "https://dc.lft.to/lastmile_qr_scan"}, "fusion_lon": 0.0}, {"lat": 38.9020105, "is_disabled": 0, "type": "electric_scooter", "lon": -77.02180033333333, "bike_id": "921f89b5bf2090ab1035fec508a2a9e6", "fusion_lat": 0.0, "name": "921f89b5bf2090ab1035fec508a2a9e6", "is_reserved": 0, "rental_uris": {"android": "https://dc.lft.to/lastmile_qr_scan", "ios": "https://dc.lft.to/lastmile_qr_scan"}, "fusion_lon": 0.0}, {"lat": 38.92239516666667, "is_disabled": 0, "type": "electric_scooter", "lon": -77.033511, "bike_id": "f919b1c7b4edf33e0e4a6b3714585ad8", "fusion_lat": 0.0, "name": "f919b1c7b4edf33e0e4a6b3714585ad8", "is_reserved": 0, "rental_uris": {"android": "https://dc.lft.to/lastmile_qr_scan", "ios": "https://dc.lft.to/lastmile_qr_scan"}, "fusion_lon": 0.0}, {"lat": 38.851904833333336, "is_disabled": 0, "type": "electric_bike", "lon": -76.9611565, "bike_id": "dbf79e57cef9db80564c2e112cf0e846", "fusion_lat": 0.0, "name": "dbf79e57cef9db80564c2e112cf0e846", "is_reserved": 0, "rental_uris": {"android": "https://dc.lft.to/lastmile_qr_scan", "ios": "https://dc.lft.to/lastmile_qr_scan"}, "fusion_lon": 0.0}, {"lat": 38.9006845, "is_disabled": 0, "type": "electric_scooter", "lon": -77.00206683333333, "bike_id": "61e9dfbd6cd2773a5dab9c5b82ce8809", "fusion_lat": 0.0, "name": "61e9dfbd6cd2773a5dab9c5b82ce8809", "is_reserved": 0, "rental_uris": {"android": "https://dc.lft.to/lastmile_qr_scan", "ios": "https://dc.lft.to/lastmile_qr_scan"}, "fusion_lon": 0.0}, {"lat": 38.89843583333333, "is_disabled": 0, "type": "electric_scooter", "lon": -76.9463405, "bike_id": "cee7b1d730e64073c624bea3b5321653", "fusion_lat": 0.0, "name": "cee7b1d730e64073c624bea3b5321653", "is_reserved": 0, "rental_uris": {"android": "https://dc.lft.to/lastmile_qr_scan", "ios": "https://dc.lft.to/lastmile_qr_scan"}, "fusion_lon": 0.0}, {"lat": 38.9156795, "is_disabled": 0, "type": "electric_scooter", "lon": -77.031475, "bike_id": "218c95f65d31eae9632ad78d15a878c1", "fusion_lat": 0.0, "name": "218c95f65d31eae9632ad78d15a878c1", "is_reserved": 0, "rental_uris": {"android": "https://dc.lft.to/lastmile_qr_scan", "ios": "https://dc.lft.to/lastmile_qr_scan"}, "fusion_lon": 0.0}, {"lat": 38.94103416666667, "is_disabled": 0, "type": "electric_scooter", "lon": -77.02110683333333, "bike_id": "c29c559073ca6993fe43cf3953ae618c", "fusion_lat": 0.0, "name": "c29c559073ca6993fe43cf3953ae618c", "is_reserved": 0, "rental_uris": {"android": "https://dc.lft.to/lastmile_qr_scan", "ios": "https://dc.lft.to/lastmile_qr_scan"}, "fusion_lon": 0.0}, {"lat": 38.917133666666665, "is_disabled": 0, "type": "electric_scooter", "lon": -77.02950783333333, "bike_id": "7c2c33d38aadf0f9a3f50a718c2df044", "fusion_lat": 0.0, "name": "7c2c33d38aadf0f9a3f50a718c2df044", "is_reserved": 0, "rental_uris": {"android": "https://dc.lft.to/lastmile_qr_scan", "ios": "https://dc.lft.to/lastmile_qr_scan"}, "fusion_lon": 0.0}, {"lat": 38.90824416666667, "is_disabled": 0, "type": "electric_scooter", "lon": -77.0384555, "bike_id": "f667962af9fc381d0c669a3331cc5408", "fusion_lat": 0.0, "name": "f667962af9fc381d0c669a3331cc5408", "is_reserved": 0, "rental_uris": {"android": "https://dc.lft.to/lastmile_qr_scan", "ios": "https://dc.lft.to/lastmile_qr_scan"}, "fusion_lon": 0.0}, {"lat": 38.909607666666666, "is_disabled": 0, "type": "electric_scooter", "lon": -77.0237835, "bike_id": "85384034a75b04fe3768eff144173b79", "fusion_lat": 0.0, "name": "85384034a75b04fe3768eff144173b79", "is_reserved": 0, "rental_uris": {"android": "https://dc.lft.to/lastmile_qr_scan", "ios": "https://dc.lft.to/lastmile_qr_scan"}, "fusion_lon": 0.0}, {"lat": 38.85521683333333, "is_disabled": 0, "type": "electric_bike", "lon": -77.12045633333334, "bike_id": "97bd043f22da19cb82ec697f424fa2a1", "fusion_lat": 0.0, "name": "97bd043f22da19cb82ec697f424fa2a1", "is_reserved": 0, "rental_uris": {"android": "https://dc.lft.to/lastmile_qr_scan", "ios": "https://dc.lft.to/lastmile_qr_scan"}, "fusion_lon": 0.0}, {"lat": 38.90270316666667, "is_disabled": 0, "type": "electric_scooter", "lon": -77.03978383333333, "bike_id": "1813750df3d2a73a53e4752bd4ce30ae", "fusion_lat": 0.0, "name": "1813750df3d2a73a53e4752bd4ce30ae", "is_reserved": 0, "rental_uris": {"android": "https://dc.lft.to/lastmile_qr_scan", "ios": "https://dc.lft.to/lastmile_qr_scan"}, "fusion_lon": 0.0}, {"lat": 38.90207683333333, "is_disabled": 0, "type": "electric_scooter", "lon": -77.02676733333334, "bike_id": "8fd99f08ab0075e1becb7d4a64498155", "fusion_lat": 0.0, "name": "8fd99f08ab0075e1becb7d4a64498155", "is_reserved": 0, "rental_uris": {"android": "https://dc.lft.to/lastmile_qr_scan", "ios": "https://dc.lft.to/lastmile_qr_scan"}, "fusion_lon": 0.0}, {"lat": 38.944418666666664, "is_disabled": 0, "type": "electric_scooter", "lon": -77.01509816666666, "bike_id": "802f9e3fe7716ade8b880647e2d9f91d", "fusion_lat": 0.0, "name": "802f9e3fe7716ade8b880647e2d9f91d", "is_reserved": 0, "rental_uris": {"android": "https://dc.lft.to/lastmile_qr_scan", "ios": "https://dc.lft.to/lastmile_qr_scan"}, "fusion_lon": 0.0}, {"lat": 38.9215705, "is_disabled": 0, "type": "electric_scooter", "lon": -77.03514466666667, "bike_id": "3b18e33571407b05fd68eefd9b218bfd", "fusion_lat": 0.0, "name": "3b18e33571407b05fd68eefd9b218bfd", "is_reserved": 0, "rental_uris": {"android": "https://dc.lft.to/lastmile_qr_scan", "ios": "https://dc.lft.to/lastmile_qr_scan"}, "fusion_lon": 0.0}, {"lat": 38.93022, "is_disabled": 0, "type": "electric_scooter", "lon": -77.04452216666667, "bike_id": "5e5e87d779a58a0875b5c39e74611f61", "fusion_lat": 0.0, "name": "5e5e87d779a58a0875b5c39e74611f61", "is_reserved": 0, "rental_uris": {"android": "https://dc.lft.to/lastmile_qr_scan", "ios": "https://dc.lft.to/lastmile_qr_scan"}, "fusion_lon": 0.0}, {"lat": 38.91406633333333, "is_disabled": 0, "type": "electric_scooter", "lon": -77.031624, "bike_id": "f0901f5c36a2410d8ab500392626cda4", "fusion_lat": 0.0, "name": "f0901f5c36a2410d8ab500392626cda4", "is_reserved": 0, "rental_uris": {"android": "https://dc.lft.to/lastmile_qr_scan", "ios": "https://dc.lft.to/lastmile_qr_scan"}, "fusion_lon": 0.0}, {"lat": 38.943525666666666, "is_disabled": 0, "type": "electric_scooter", "lon": -77.00218683333334, "bike_id": "7a8ddae3e9090c8407a1da666d11dd0d", "fusion_lat": 0.0, "name": "7a8ddae3e9090c8407a1da666d11dd0d", "is_reserved": 0, "rental_uris": {"android": "https://dc.lft.to/lastmile_qr_scan", "ios": "https://dc.lft.to/lastmile_qr_scan"}, "fusion_lon": 0.0}, {"lat": 38.919115, "is_disabled": 0, "type": "electric_scooter", "lon": -77.0316915, "bike_id": "92872f41671d255057010db29a01f3c7", "fusion_lat": 0.0, "name": "92872f41671d255057010db29a01f3c7", "is_reserved": 0, "rental_uris": {"android": "https://dc.lft.to/lastmile_qr_scan", "ios": "https://dc.lft.to/lastmile_qr_scan"}, "fusion_lon": 0.0}, {"lat": 38.8970885, "is_disabled": 0, "type": "electric_scooter", "lon": -77.00839683333334, "bike_id": "22ac5a29c37ba6d886b4c102dfdc7782", "fusion_lat": 0.0, "name": "22ac5a29c37ba6d886b4c102dfdc7782", "is_reserved": 0, "rental_uris": {"android": "https://dc.lft.to/lastmile_qr_scan", "ios": "https://dc.lft.to/lastmile_qr_scan"}, "fusion_lon": 0.0}, {"lat": 38.8990725, "is_disabled": 0, "type": "electric_scooter", "lon": -76.93345633333334, "bike_id": "938a79d0613055702e037a64f37e3a3d", "fusion_lat": 0.0, "name": "938a79d0613055702e037a64f37e3a3d", "is_reserved": 0, "rental_uris": {"android": "https://dc.lft.to/lastmile_qr_scan", "ios": "https://dc.lft.to/lastmile_qr_scan"}, "fusion_lon": 0.0}, {"lat": 38.89707216666667, "is_disabled": 0, "type": "electric_scooter", "lon": -77.0487095, "bike_id": "1e7e6040910401e636c21e6d6c42967e", "fusion_lat": 0.0, "name": "1e7e6040910401e636c21e6d6c42967e", "is_reserved": 0, "rental_uris": {"android": "https://dc.lft.to/lastmile_qr_scan", "ios": "https://dc.lft.to/lastmile_qr_scan"}, "fusion_lon": 0.0}, {"lat": 38.922502, "is_disabled": 0, "type": "electric_scooter", "lon": -77.03139933333334, "bike_id": "29017dfff06c99feb770a876c82d95a2", "fusion_lat": 0.0, "name": "29017dfff06c99feb770a876c82d95a2", "is_reserved": 0, "rental_uris": {"android": "https://dc.lft.to/lastmile_qr_scan", "ios": "https://dc.lft.to/lastmile_qr_scan"}, "fusion_lon": 0.0}, {"lat": 38.911926, "is_disabled": 0, "type": "electric_scooter", "lon": -77.01082383333333, "bike_id": "d2a17f306f66690a8a0f07de38dd2bad", "fusion_lat": 0.0, "name": "d2a17f306f66690a8a0f07de38dd2bad", "is_reserved": 0, "rental_uris": {"android": "https://dc.lft.to/lastmile_qr_scan", "ios": "https://dc.lft.to/lastmile_qr_scan"}, "fusion_lon": 0.0}, {"lat": 38.902413333333335, "is_disabled": 0, "type": "electric_scooter", "lon": -77.00206033333333, "bike_id": "ac5bf2fa114810c2311605147a0f292e", "fusion_lat": 0.0, "name": "ac5bf2fa114810c2311605147a0f292e", "is_reserved": 0, "rental_uris": {"android": "https://dc.lft.to/lastmile_qr_scan", "ios": "https://dc.lft.to/lastmile_qr_scan"}, "fusion_lon": 0.0}, {"lat": 38.89551216666667, "is_disabled": 0, "type": "electric_scooter", "lon": -77.00921333333334, "bike_id": "df7ca5824ffa2468776c1ef2c6ff2166", "fusion_lat": 0.0, "name": "df7ca5824ffa2468776c1ef2c6ff2166", "is_reserved": 0, "rental_uris": {"android": "https://dc.lft.to/lastmile_qr_scan", "ios": "https://dc.lft.to/lastmile_qr_scan"}, "fusion_lon": 0.0}, {"lat": 38.925775333333334, "is_disabled": 0, "type": "electric_scooter", "lon": -77.02834316666667, "bike_id": "04131d95f4c76801cdd19f22dd52ce99", "fusion_lat": 0.0, "name": "04131d95f4c76801cdd19f22dd52ce99", "is_reserved": 0, "rental_uris": {"android": "https://dc.lft.to/lastmile_qr_scan", "ios": "https://dc.lft.to/lastmile_qr_scan"}, "fusion_lon": 0.0}, {"lat": 38.93255766666667, "is_disabled": 0, "type": "electric_scooter", "lon": -77.03466033333333, "bike_id": "1bcffe755ecf928efa23add2fe400fce", "fusion_lat": 0.0, "name": "1bcffe755ecf928efa23add2fe400fce", "is_reserved": 0, "rental_uris": {"android": "https://dc.lft.to/lastmile_qr_scan", "ios": "https://dc.lft.to/lastmile_qr_scan"}, "fusion_lon": 0.0}, {"lat": 38.9171265, "is_disabled": 0, "type": "electric_scooter", "lon": -77.03878316666666, "bike_id": "d7e2497a30d647a57ff928a3394c0522", "fusion_lat": 0.0, "name": "d7e2497a30d647a57ff928a3394c0522", "is_reserved": 0, "rental_uris": {"android": "https://dc.lft.to/lastmile_qr_scan", "ios": "https://dc.lft.to/lastmile_qr_scan"}, "fusion_lon": 0.0}, {"lat": 38.907615, "is_disabled": 0, "type": "electric_scooter", "lon": -77.034506, "bike_id": "52c8d6d0de7d6465771c19e8e864c712", "fusion_lat": 0.0, "name": "52c8d6d0de7d6465771c19e8e864c712", "is_reserved": 0, "rental_uris": {"android": "https://dc.lft.to/lastmile_qr_scan", "ios": "https://dc.lft.to/lastmile_qr_scan"}, "fusion_lon": 0.0}, {"lat": 38.884322833333336, "is_disabled": 0, "type": "electric_scooter", "lon": -76.95758683333334, "bike_id": "029a5f5b59adf286faf95090330488d5", "fusion_lat": 0.0, "name": "029a5f5b59adf286faf95090330488d5", "is_reserved": 0, "rental_uris": {"android": "https://dc.lft.to/lastmile_qr_scan", "ios": "https://dc.lft.to/lastmile_qr_scan"}, "fusion_lon": 0.0}, {"lat": 38.902625, "is_disabled": 0, "type": "electric_scooter", "lon": -77.03976816666666, "bike_id": "e71b5a49926b35789a323c3478f43845", "fusion_lat": 0.0, "name": "e71b5a49926b35789a323c3478f43845", "is_reserved": 0, "rental_uris": {"android": "https://dc.lft.to/lastmile_qr_scan", "ios": "https://dc.lft.to/lastmile_qr_scan"}, "fusion_lon": 0.0}, {"lat": 38.923478333333335, "is_disabled": 0, "type": "electric_scooter", "lon": -77.0352525, "bike_id": "49f17fddcffe007cc0a921a8404a2f8a", "fusion_lat": 0.0, "name": "49f17fddcffe007cc0a921a8404a2f8a", "is_reserved": 0, "rental_uris": {"android": "https://dc.lft.to/lastmile_qr_scan", "ios": "https://dc.lft.to/lastmile_qr_scan"}, "fusion_lon": 0.0}, {"lat": 38.903078666666666, "is_disabled": 0, "type": "electric_scooter", "lon": -77.01190583333333, "bike_id": "6ef52292969fd9e303a14db1cf2be9ad", "fusion_lat": 0.0, "name": "6ef52292969fd9e303a14db1cf2be9ad", "is_reserved": 0, "rental_uris": {"android": "https://dc.lft.to/lastmile_qr_scan", "ios": "https://dc.lft.to/lastmile_qr_scan"}, "fusion_lon": 0.0}, {"lat": 38.901705, "is_disabled": 0, "type": "electric_scooter", "lon": -77.02502683333333, "bike_id": "e62db0aed4396b8e2da895b8f74695e9", "fusion_lat": 0.0, "name": "e62db0aed4396b8e2da895b8f74695e9", "is_reserved": 0, "rental_uris": {"android": "https://dc.lft.to/lastmile_qr_scan", "ios": "https://dc.lft.to/lastmile_qr_scan"}, "fusion_lon": 0.0}, {"lat": 38.9073725, "is_disabled": 0, "type": "electric_scooter", "lon": -77.02717083333333, "bike_id": "3aac7446e316a677f0ed021913e6cf4a", "fusion_lat": 0.0, "name": "3aac7446e316a677f0ed021913e6cf4a", "is_reserved": 0, "rental_uris": {"android": "https://dc.lft.to/lastmile_qr_scan", "ios": "https://dc.lft.to/lastmile_qr_scan"}, "fusion_lon": 0.0}, {"lat": 38.915683666666666, "is_disabled": 0, "type": "electric_scooter", "lon": -77.02009383333333, "bike_id": "810adbdb375e4488c49c49e4e2be427c", "fusion_lat": 0.0, "name": "810adbdb375e4488c49c49e4e2be427c", "is_reserved": 0, "rental_uris": {"android": "https://dc.lft.to/lastmile_qr_scan", "ios": "https://dc.lft.to/lastmile_qr_scan"}, "fusion_lon": 0.0}, {"lat": 38.899737333333334, "is_disabled": 0, "type": "electric_scooter", "lon": -76.92732033333333, "bike_id": "0ef065788813226a8deca9ae0a681862", "fusion_lat": 0.0, "name": "0ef065788813226a8deca9ae0a681862", "is_reserved": 0, "rental_uris": {"android": "https://dc.lft.to/lastmile_qr_scan", "ios": "https://dc.lft.to/lastmile_qr_scan"}, "fusion_lon": 0.0}, {"lat": 38.91679516666667, "is_disabled": 0, "type": "electric_scooter", "lon": -77.02721566666666, "bike_id": "e839236f2d2f12df8ae4555d059fd050", "fusion_lat": 0.0, "name": "e839236f2d2f12df8ae4555d059fd050", "is_reserved": 0, "rental_uris": {"android": "https://dc.lft.to/lastmile_qr_scan", "ios": "https://dc.lft.to/lastmile_qr_scan"}, "fusion_lon": 0.0}, {"lat": 38.929945833333335, "is_disabled": 0, "type": "electric_scooter", "lon": -77.02630166666667, "bike_id": "124f8fbd9d6bc80eef1b1e5523e715ee", "fusion_lat": 0.0, "name": "124f8fbd9d6bc80eef1b1e5523e715ee", "is_reserved": 0, "rental_uris": {"android": "https://dc.lft.to/lastmile_qr_scan", "ios": "https://dc.lft.to/lastmile_qr_scan"}, "fusion_lon": 0.0}, {"lat": 38.918650666666665, "is_disabled": 0, "type": "electric_scooter", "lon": -77.04424483333334, "bike_id": "773521a9be71a886cc02cbf329dcde4a", "fusion_lat": 0.0, "name": "773521a9be71a886cc02cbf329dcde4a", "is_reserved": 0, "rental_uris": {"android": "https://dc.lft.to/lastmile_qr_scan", "ios": "https://dc.lft.to/lastmile_qr_scan"}, "fusion_lon": 0.0}, {"lat": 38.87671566666667, "is_disabled": 0, "type": "electric_bike", "lon": -77.01445283333334, "bike_id": "8ba20f9ec9f560829f6afde43094e547", "fusion_lat": 0.0, "name": "8ba20f9ec9f560829f6afde43094e547", "is_reserved": 0, "rental_uris": {"android": "https://dc.lft.to/lastmile_qr_scan", "ios": "https://dc.lft.to/lastmile_qr_scan"}, "fusion_lon": 0.0}, {"lat": 38.8843135, "is_disabled": 0, "type": "electric_scooter", "lon": -76.95754833333334, "bike_id": "0bfa68ace9e2689c208b7d9fa2cfa527", "fusion_lat": 0.0, "name": "0bfa68ace9e2689c208b7d9fa2cfa527", "is_reserved": 0, "rental_uris": {"android": "https://dc.lft.to/lastmile_qr_scan", "ios": "https://dc.lft.to/lastmile_qr_scan"}, "fusion_lon": 0.0}, {"lat": 38.90736716666667, "is_disabled": 0, "type": "electric_scooter", "lon": -77.03454783333333, "bike_id": "a60e356ebfad1ae062f7ea34dcb94b92", "fusion_lat": 0.0, "name": "a60e356ebfad1ae062f7ea34dcb94b92", "is_reserved": 0, "rental_uris": {"android": "https://dc.lft.to/lastmile_qr_scan", "ios": "https://dc.lft.to/lastmile_qr_scan"}, "fusion_lon": 0.0}, {"lat": 38.919767, "is_disabled": 0, "type": "electric_scooter", "lon": -77.02389266666667, "bike_id": "185723ecdcfab5a5ebb44eb3f26b54e6", "fusion_lat": 0.0, "name": "185723ecdcfab5a5ebb44eb3f26b54e6", "is_reserved": 0, "rental_uris": {"android": "https://dc.lft.to/lastmile_qr_scan", "ios": "https://dc.lft.to/lastmile_qr_scan"}, "fusion_lon": 0.0}, {"lat": 38.900706166666666, "is_disabled": 0, "type": "electric_scooter", "lon": -77.04926233333333, "bike_id": "44be3bfbd8fea5ed740c25e9a442fedb", "fusion_lat": 0.0, "name": "44be3bfbd8fea5ed740c25e9a442fedb", "is_reserved": 0, "rental_uris": {"android": "https://dc.lft.to/lastmile_qr_scan", "ios": "https://dc.lft.to/lastmile_qr_scan"}, "fusion_lon": 0.0}, {"lat": 38.91783233333334, "is_disabled": 0, "type": "electric_scooter", "lon": -77.0434395, "bike_id": "4025d27fb84f2f5a376140da95f09a81", "fusion_lat": 0.0, "name": "4025d27fb84f2f5a376140da95f09a81", "is_reserved": 0, "rental_uris": {"android": "https://dc.lft.to/lastmile_qr_scan", "ios": "https://dc.lft.to/lastmile_qr_scan"}, "fusion_lon": 0.0}, {"lat": 38.89226516666667, "is_disabled": 0, "type": "electric_scooter", "lon": -77.0321635, "bike_id": "7a463b5100172caa1ced090ffc2cb0bf", "fusion_lat": 0.0, "name": "7a463b5100172caa1ced090ffc2cb0bf", "is_reserved": 0, "rental_uris": {"android": "https://dc.lft.to/lastmile_qr_scan", "ios": "https://dc.lft.to/lastmile_qr_scan"}, "fusion_lon": 0.0}, {"lat": 38.956497166666665, "is_disabled": 0, "type": "electric_scooter", "lon": -77.023957, "bike_id": "c3e1521518e2a39fb7ebb6a56891dee9", "fusion_lat": 0.0, "name": "c3e1521518e2a39fb7ebb6a56891dee9", "is_reserved": 0, "rental_uris": {"android": "https://dc.lft.to/lastmile_qr_scan", "ios": "https://dc.lft.to/lastmile_qr_scan"}, "fusion_lon": 0.0}, {"lat": 38.9978505, "is_disabled": 0, "type": "electric_bike", "lon": -77.007658, "bike_id": "ee9122ba17e5e2643cb4e6028aa0948e", "fusion_lat": 0.0, "name": "ee9122ba17e5e2643cb4e6028aa0948e", "is_reserved": 0, "rental_uris": {"android": "https://dc.lft.to/lastmile_qr_scan", "ios": "https://dc.lft.to/lastmile_qr_scan"}, "fusion_lon": 0.0}, {"lat": 38.92470383333333, "is_disabled": 0, "type": "electric_scooter", "lon": -77.05237283333334, "bike_id": "314630e64699d936526bf042524427b1", "fusion_lat": 0.0, "name": "314630e64699d936526bf042524427b1", "is_reserved": 0, "rental_uris": {"android": "https://dc.lft.to/lastmile_qr_scan", "ios": "https://dc.lft.to/lastmile_qr_scan"}, "fusion_lon": 0.0}, {"lat": 38.92367616666667, "is_disabled": 0, "type": "electric_scooter", "lon": -77.0513025, "bike_id": "12c75ab682a64303494442e9941f1cdd", "fusion_lat": 0.0, "name": "12c75ab682a64303494442e9941f1cdd", "is_reserved": 0, "rental_uris": {"android": "https://dc.lft.to/lastmile_qr_scan", "ios": "https://dc.lft.to/lastmile_qr_scan"}, "fusion_lon": 0.0}, {"lat": 38.9577615, "is_disabled": 0, "type": "electric_scooter", "lon": -77.02755483333334, "bike_id": "a0c13124a3234ce1252a2349b97f9725", "fusion_lat": 0.0, "name": "a0c13124a3234ce1252a2349b97f9725", "is_reserved": 0, "rental_uris": {"android": "https://dc.lft.to/lastmile_qr_scan", "ios": "https://dc.lft.to/lastmile_qr_scan"}, "fusion_lon": 0.0}, {"lat": 38.94632283333333, "is_disabled": 0, "type": "electric_scooter", "lon": -77.01848216666667, "bike_id": "9f44f8f13f1a3ccafaef310fe3fe2d92", "fusion_lat": 0.0, "name": "9f44f8f13f1a3ccafaef310fe3fe2d92", "is_reserved": 0, "rental_uris": {"android": "https://dc.lft.to/lastmile_qr_scan", "ios": "https://dc.lft.to/lastmile_qr_scan"}, "fusion_lon": 0.0}, {"lat": 38.90963033333333, "is_disabled": 0, "type": "electric_scooter", "lon": -77.038317, "bike_id": "16b54e1ea58ae808a124a037b0fd714e", "fusion_lat": 0.0, "name": "16b54e1ea58ae808a124a037b0fd714e", "is_reserved": 0, "rental_uris": {"android": "https://dc.lft.to/lastmile_qr_scan", "ios": "https://dc.lft.to/lastmile_qr_scan"}, "fusion_lon": 0.0}, {"lat": 38.90926016666667, "is_disabled": 0, "type": "electric_scooter", "lon": -77.0802635, "bike_id": "46d64cef67bf9c2b4e72155456dd8036", "fusion_lat": 0.0, "name": "46d64cef67bf9c2b4e72155456dd8036", "is_reserved": 0, "rental_uris": {"android": "https://dc.lft.to/lastmile_qr_scan", "ios": "https://dc.lft.to/lastmile_qr_scan"}, "fusion_lon": 0.0}, {"lat": 38.867468, "is_disabled": 0, "type": "electric_scooter", "lon": -76.97663866666667, "bike_id": "714ae745721bcd3de2ec4f5d37188da2", "fusion_lat": 0.0, "name": "714ae745721bcd3de2ec4f5d37188da2", "is_reserved": 0, "rental_uris": {"android": "https://dc.lft.to/lastmile_qr_scan", "ios": "https://dc.lft.to/lastmile_qr_scan"}, "fusion_lon": 0.0}, {"lat": 38.951853666666665, "is_disabled": 0, "type": "electric_bike", "lon": -76.9354515, "bike_id": "d379c0ecb944bd988d3b2d283d2ca0e4", "fusion_lat": 0.0, "name": "d379c0ecb944bd988d3b2d283d2ca0e4", "is_reserved": 0, "rental_uris": {"android": "https://dc.lft.to/lastmile_qr_scan", "ios": "https://dc.lft.to/lastmile_qr_scan"}, "fusion_lon": 0.0}, {"lat": 38.919966, "is_disabled": 0, "type": "electric_scooter", "lon": -77.03954933333333, "bike_id": "190ed6f3827ae016d6d7d602604d6854", "fusion_lat": 0.0, "name": "190ed6f3827ae016d6d7d602604d6854", "is_reserved": 0, "rental_uris": {"android": "https://dc.lft.to/lastmile_qr_scan", "ios": "https://dc.lft.to/lastmile_qr_scan"}, "fusion_lon": 0.0}, {"lat": 38.907069166666666, "is_disabled": 0, "type": "electric_scooter", "lon": -76.98698483333334, "bike_id": "e1355a19c569412c6802eee36a50f667", "fusion_lat": 0.0, "name": "e1355a19c569412c6802eee36a50f667", "is_reserved": 0, "rental_uris": {"android": "https://dc.lft.to/lastmile_qr_scan", "ios": "https://dc.lft.to/lastmile_qr_scan"}, "fusion_lon": 0.0}, {"lat": 38.87731016666667, "is_disabled": 0, "type": "electric_bike", "lon": -77.1185035, "bike_id": "cffdab8599cffa37a440f794e5a5a574", "fusion_lat": 0.0, "name": "cffdab8599cffa37a440f794e5a5a574", "is_reserved": 0, "rental_uris": {"android": "https://dc.lft.to/lastmile_qr_scan", "ios": "https://dc.lft.to/lastmile_qr_scan"}, "fusion_lon": 0.0}, {"lat": 38.90773816666667, "is_disabled": 0, "type": "electric_scooter", "lon": -77.038641, "bike_id": "facef75d5fb204aec81a58d1cd6ce356", "fusion_lat": 0.0, "name": "facef75d5fb204aec81a58d1cd6ce356", "is_reserved": 0, "rental_uris": {"android": "https://dc.lft.to/lastmile_qr_scan", "ios": "https://dc.lft.to/lastmile_qr_scan"}, "fusion_lon": 0.0}, {"lat": 38.9068465, "is_disabled": 0, "type": "electric_scooter", "lon": -77.03641866666666, "bike_id": "5890dafea73feefbac2ef0fe22a3d66f", "fusion_lat": 0.0, "name": "5890dafea73feefbac2ef0fe22a3d66f", "is_reserved": 0, "rental_uris": {"android": "https://dc.lft.to/lastmile_qr_scan", "ios": "https://dc.lft.to/lastmile_qr_scan"}, "fusion_lon": 0.0}, {"lat": 38.84506966666667, "is_disabled": 0, "type": "electric_bike", "lon": -76.99353583333334, "bike_id": "dd4ac32236e737a365fa0fb265adcbd6", "fusion_lat": 0.0, "name": "dd4ac32236e737a365fa0fb265adcbd6", "is_reserved": 0, "rental_uris": {"android": "https://dc.lft.to/lastmile_qr_scan", "ios": "https://dc.lft.to/lastmile_qr_scan"}, "fusion_lon": 0.0}, {"lat": 38.91285233333333, "is_disabled": 0, "type": "electric_scooter", "lon": -77.04511116666667, "bike_id": "91590c97c9070e5a91cde79a733dff35", "fusion_lat": 0.0, "name": "91590c97c9070e5a91cde79a733dff35", "is_reserved": 0, "rental_uris": {"android": "https://dc.lft.to/lastmile_qr_scan", "ios": "https://dc.lft.to/lastmile_qr_scan"}, "fusion_lon": 0.0}, {"lat": 38.896559, "is_disabled": 0, "type": "electric_scooter", "lon": -77.00520766666666, "bike_id": "86454564a762ad927b35ce47bf7e19c4", "fusion_lat": 0.0, "name": "86454564a762ad927b35ce47bf7e19c4", "is_reserved": 0, "rental_uris": {"android": "https://dc.lft.to/lastmile_qr_scan", "ios": "https://dc.lft.to/lastmile_qr_scan"}, "fusion_lon": 0.0}, {"lat": 38.905839666666665, "is_disabled": 0, "type": "electric_scooter", "lon": -76.9862375, "bike_id": "9f66affd74b24d8ea5eb774de6e96286", "fusion_lat": 0.0, "name": "9f66affd74b24d8ea5eb774de6e96286", "is_reserved": 0, "rental_uris": {"android": "https://dc.lft.to/lastmile_qr_scan", "ios": "https://dc.lft.to/lastmile_qr_scan"}, "fusion_lon": 0.0}, {"lat": 38.912696333333336, "is_disabled": 0, "type": "electric_scooter", "lon": -77.02253116666667, "bike_id": "2675aa0f10a86721bd055752995aab51", "fusion_lat": 0.0, "name": "2675aa0f10a86721bd055752995aab51", "is_reserved": 0, "rental_uris": {"android": "https://dc.lft.to/lastmile_qr_scan", "ios": "https://dc.lft.to/lastmile_qr_scan"}, "fusion_lon": 0.0}, {"lat": 38.907238166666666, "is_disabled": 0, "type": "electric_scooter", "lon": -77.04821033333333, "bike_id": "e6aa60e3899c339066c83ad124202fe5", "fusion_lat": 0.0, "name": "e6aa60e3899c339066c83ad124202fe5", "is_reserved": 0, "rental_uris": {"android": "https://dc.lft.to/lastmile_qr_scan", "ios": "https://dc.lft.to/lastmile_qr_scan"}, "fusion_lon": 0.0}, {"lat": 38.86712583333333, "is_disabled": 0, "type": "electric_scooter", "lon": -76.987297, "bike_id": "315ba969ec27aff2ff1b08dd3ec84a72", "fusion_lat": 0.0, "name": "315ba969ec27aff2ff1b08dd3ec84a72", "is_reserved": 0, "rental_uris": {"android": "https://dc.lft.to/lastmile_qr_scan", "ios": "https://dc.lft.to/lastmile_qr_scan"}, "fusion_lon": 0.0}, {"lat": 38.9014625, "is_disabled": 0, "type": "electric_scooter", "lon": -77.04194483333333, "bike_id": "e0ceac0de8b37c04f20ebe644d54d234", "fusion_lat": 0.0, "name": "e0ceac0de8b37c04f20ebe644d54d234", "is_reserved": 0, "rental_uris": {"android": "https://dc.lft.to/lastmile_qr_scan", "ios": "https://dc.lft.to/lastmile_qr_scan"}, "fusion_lon": 0.0}, {"lat": 38.908667666666666, "is_disabled": 0, "type": "electric_bike", "lon": -76.94010366666667, "bike_id": "847ed1fccecf600b12788fdb39f42888", "fusion_lat": 0.0, "name": "847ed1fccecf600b12788fdb39f42888", "is_reserved": 0, "rental_uris": {"android": "https://dc.lft.to/lastmile_qr_scan", "ios": "https://dc.lft.to/lastmile_qr_scan"}, "fusion_lon": 0.0}, {"lat": 38.90971783333333, "is_disabled": 0, "type": "electric_scooter", "lon": -77.03868816666666, "bike_id": "3ba539627c84082537f5ee4f1ce4d98c", "fusion_lat": 0.0, "name": "3ba539627c84082537f5ee4f1ce4d98c", "is_reserved": 0, "rental_uris": {"android": "https://dc.lft.to/lastmile_qr_scan", "ios": "https://dc.lft.to/lastmile_qr_scan"}, "fusion_lon": 0.0}, {"lat": 38.898774333333336, "is_disabled": 0, "type": "electric_scooter", "lon": -77.02048183333333, "bike_id": "408190f8cb09b6fea9a78235e72de2c1", "fusion_lat": 0.0, "name": "408190f8cb09b6fea9a78235e72de2c1", "is_reserved": 0, "rental_uris": {"android": "https://dc.lft.to/lastmile_qr_scan", "ios": "https://dc.lft.to/lastmile_qr_scan"}, "fusion_lon": 0.0}, {"lat": 38.905765333333335, "is_disabled": 0, "type": "electric_scooter", "lon": -77.048723, "bike_id": "e5c6e1979539d45cdc1139dff99bd6ef", "fusion_lat": 0.0, "name": "e5c6e1979539d45cdc1139dff99bd6ef", "is_reserved": 0, "rental_uris": {"android": "https://dc.lft.to/lastmile_qr_scan", "ios": "https://dc.lft.to/lastmile_qr_scan"}, "fusion_lon": 0.0}, {"lat": 38.922127333333336, "is_disabled": 0, "type": "electric_scooter", "lon": -77.040223, "bike_id": "fe7f4315233668e7a38ef43381ae8325", "fusion_lat": 0.0, "name": "fe7f4315233668e7a38ef43381ae8325", "is_reserved": 0, "rental_uris": {"android": "https://dc.lft.to/lastmile_qr_scan", "ios": "https://dc.lft.to/lastmile_qr_scan"}, "fusion_lon": 0.0}, {"lat": 38.933190833333335, "is_disabled": 0, "type": "electric_scooter", "lon": -77.04521133333333, "bike_id": "e164dff20f4b0de33f778f9d806c5a15", "fusion_lat": 0.0, "name": "e164dff20f4b0de33f778f9d806c5a15", "is_reserved": 0, "rental_uris": {"android": "https://dc.lft.to/lastmile_qr_scan", "ios": "https://dc.lft.to/lastmile_qr_scan"}, "fusion_lon": 0.0}, {"lat": 38.89744, "is_disabled": 0, "type": "electric_scooter", "lon": -77.00074416666666, "bike_id": "543814ed11636d70f75ccf48b331d397", "fusion_lat": 0.0, "name": "543814ed11636d70f75ccf48b331d397", "is_reserved": 0, "rental_uris": {"android": "https://dc.lft.to/lastmile_qr_scan", "ios": "https://dc.lft.to/lastmile_qr_scan"}, "fusion_lon": 0.0}, {"lat": 38.86677316666667, "is_disabled": 0, "type": "electric_scooter", "lon": -76.985413, "bike_id": "63f6c00ad9de672f65ceb20e2b3b7af1", "fusion_lat": 0.0, "name": "63f6c00ad9de672f65ceb20e2b3b7af1", "is_reserved": 0, "rental_uris": {"android": "https://dc.lft.to/lastmile_qr_scan", "ios": "https://dc.lft.to/lastmile_qr_scan"}, "fusion_lon": 0.0}, {"lat": 38.917855, "is_disabled": 0, "type": "electric_scooter", "lon": -77.02310433333334, "bike_id": "05a62b0f101e19ab50edfebc24663f75", "fusion_lat": 0.0, "name": "05a62b0f101e19ab50edfebc24663f75", "is_reserved": 0, "rental_uris": {"android": "https://dc.lft.to/lastmile_qr_scan", "ios": "https://dc.lft.to/lastmile_qr_scan"}, "fusion_lon": 0.0}, {"lat": 38.892254, "is_disabled": 0, "type": "electric_scooter", "lon": -77.04202133333334, "bike_id": "2a0dc4a603ffc161b32aa7eee73e8253", "fusion_lat": 0.0, "name": "2a0dc4a603ffc161b32aa7eee73e8253", "is_reserved": 0, "rental_uris": {"android": "https://dc.lft.to/lastmile_qr_scan", "ios": "https://dc.lft.to/lastmile_qr_scan"}, "fusion_lon": 0.0}, {"lat": 38.8772925, "is_disabled": 0, "type": "electric_bike", "lon": -76.98105916666667, "bike_id": "639676fac3d87e2acbf5ff8916c5e392", "fusion_lat": 0.0, "name": "639676fac3d87e2acbf5ff8916c5e392", "is_reserved": 0, "rental_uris": {"android": "https://dc.lft.to/lastmile_qr_scan", "ios": "https://dc.lft.to/lastmile_qr_scan"}, "fusion_lon": 0.0}, {"lat": 38.91314916666666, "is_disabled": 0, "type": "electric_scooter", "lon": -77.014474, "bike_id": "49a55baae263a54dc44623755f5ce56e", "fusion_lat": 0.0, "name": "49a55baae263a54dc44623755f5ce56e", "is_reserved": 0, "rental_uris": {"android": "https://dc.lft.to/lastmile_qr_scan", "ios": "https://dc.lft.to/lastmile_qr_scan"}, "fusion_lon": 0.0}, {"lat": 38.917811, "is_disabled": 0, "type": "electric_scooter", "lon": -77.0366525, "bike_id": "05896e0958f43854bb6f1f8af8ed7ed4", "fusion_lat": 0.0, "name": "05896e0958f43854bb6f1f8af8ed7ed4", "is_reserved": 0, "rental_uris": {"android": "https://dc.lft.to/lastmile_qr_scan", "ios": "https://dc.lft.to/lastmile_qr_scan"}, "fusion_lon": 0.0}, {"lat": 38.897485833333334, "is_disabled": 0, "type": "electric_scooter", "lon": -77.02686916666667, "bike_id": "c56c58fc98a981739836f8f430b7c77c", "fusion_lat": 0.0, "name": "c56c58fc98a981739836f8f430b7c77c", "is_reserved": 0, "rental_uris": {"android": "https://dc.lft.to/lastmile_qr_scan", "ios": "https://dc.lft.to/lastmile_qr_scan"}, "fusion_lon": 0.0}, {"lat": 38.94973983333333, "is_disabled": 0, "type": "electric_scooter", "lon": -77.065619, "bike_id": "6696b52cd02dfc05aafbff6164b8bb4e", "fusion_lat": 0.0, "name": "6696b52cd02dfc05aafbff6164b8bb4e", "is_reserved": 0, "rental_uris": {"android": "https://dc.lft.to/lastmile_qr_scan", "ios": "https://dc.lft.to/lastmile_qr_scan"}, "fusion_lon": 0.0}, {"lat": 38.892048333333335, "is_disabled": 0, "type": "electric_scooter", "lon": -76.98565966666666, "bike_id": "1f6b9c23f8c40e3fbb8ffa533a172f78", "fusion_lat": 0.0, "name": "1f6b9c23f8c40e3fbb8ffa533a172f78", "is_reserved": 0, "rental_uris": {"android": "https://dc.lft.to/lastmile_qr_scan", "ios": "https://dc.lft.to/lastmile_qr_scan"}, "fusion_lon": 0.0}, {"lat": 39.03049516666667, "is_disabled": 0, "type": "electric_bike", "lon": -77.09493566666667, "bike_id": "db48a0f0d335742d7c182bd5199361d8", "fusion_lat": 0.0, "name": "db48a0f0d335742d7c182bd5199361d8", "is_reserved": 0, "rental_uris": {"android": "https://dc.lft.to/lastmile_qr_scan", "ios": "https://dc.lft.to/lastmile_qr_scan"}, "fusion_lon": 0.0}, {"lat": 38.91702883333333, "is_disabled": 0, "type": "electric_scooter", "lon": -77.027322, "bike_id": "b10267924d9107540d54ec6e3d25d5ef", "fusion_lat": 0.0, "name": "b10267924d9107540d54ec6e3d25d5ef", "is_reserved": 0, "rental_uris": {"android": "https://dc.lft.to/lastmile_qr_scan", "ios": "https://dc.lft.to/lastmile_qr_scan"}, "fusion_lon": 0.0}, {"lat": 38.899844, "is_disabled": 0, "type": "electric_scooter", "lon": -77.0207545, "bike_id": "e60ee6e6d51202508b50425890776582", "fusion_lat": 0.0, "name": "e60ee6e6d51202508b50425890776582", "is_reserved": 0, "rental_uris": {"android": "https://dc.lft.to/lastmile_qr_scan", "ios": "https://dc.lft.to/lastmile_qr_scan"}, "fusion_lon": 0.0}, {"lat": 38.938677, "is_disabled": 0, "type": "electric_scooter", "lon": -77.03095733333333, "bike_id": "cedd37d512e81253427982aecb317ab7", "fusion_lat": 0.0, "name": "cedd37d512e81253427982aecb317ab7", "is_reserved": 0, "rental_uris": {"android": "https://dc.lft.to/lastmile_qr_scan", "ios": "https://dc.lft.to/lastmile_qr_scan"}, "fusion_lon": 0.0}, {"lat": 38.99819433333333, "is_disabled": 0, "type": "electric_bike", "lon": -76.88377116666666, "bike_id": "4bf0345c45287952c0da6ac840e091f6", "fusion_lat": 0.0, "name": "4bf0345c45287952c0da6ac840e091f6", "is_reserved": 0, "rental_uris": {"android": "https://dc.lft.to/lastmile_qr_scan", "ios": "https://dc.lft.to/lastmile_qr_scan"}, "fusion_lon": 0.0}, {"lat": 38.87671733333333, "is_disabled": 0, "type": "electric_scooter", "lon": -77.00415316666667, "bike_id": "00676f4bc010eaa2e51ddfbab6800894", "fusion_lat": 0.0, "name": "00676f4bc010eaa2e51ddfbab6800894", "is_reserved": 0, "rental_uris": {"android": "https://dc.lft.to/lastmile_qr_scan", "ios": "https://dc.lft.to/lastmile_qr_scan"}, "fusion_lon": 0.0}, {"lat": 38.91745516666667, "is_disabled": 0, "type": "electric_scooter", "lon": -77.03184333333333, "bike_id": "40f2fb739540e112ad8d27d5d92a157e", "fusion_lat": 0.0, "name": "40f2fb739540e112ad8d27d5d92a157e", "is_reserved": 0, "rental_uris": {"android": "https://dc.lft.to/lastmile_qr_scan", "ios": "https://dc.lft.to/lastmile_qr_scan"}, "fusion_lon": 0.0}, {"lat": 39.024307666666665, "is_disabled": 0, "type": "electric_bike", "lon": -77.131027, "bike_id": "7a49f851fe9dac7e8b90d0b06878943f", "fusion_lat": 0.0, "name": "7a49f851fe9dac7e8b90d0b06878943f", "is_reserved": 0, "rental_uris": {"android": "https://dc.lft.to/lastmile_qr_scan", "ios": "https://dc.lft.to/lastmile_qr_scan"}, "fusion_lon": 0.0}, {"lat": 38.89528833333333, "is_disabled": 0, "type": "electric_scooter", "lon": -76.94888016666667, "bike_id": "d48eb248dc41356f7545a701f3ecea96", "fusion_lat": 0.0, "name": "d48eb248dc41356f7545a701f3ecea96", "is_reserved": 0, "rental_uris": {"android": "https://dc.lft.to/lastmile_qr_scan", "ios": "https://dc.lft.to/lastmile_qr_scan"}, "fusion_lon": 0.0}, {"lat": 38.913212, "is_disabled": 0, "type": "electric_scooter", "lon": -76.98643983333334, "bike_id": "0df1fb23688b785eab08c89acd1fce06", "fusion_lat": 0.0, "name": "0df1fb23688b785eab08c89acd1fce06", "is_reserved": 0, "rental_uris": {"android": "https://dc.lft.to/lastmile_qr_scan", "ios": "https://dc.lft.to/lastmile_qr_scan"}, "fusion_lon": 0.0}, {"lat": 38.92250583333333, "is_disabled": 0, "type": "electric_scooter", "lon": -77.030764, "bike_id": "dd6d0d597aaae2f6139c411c41c9e38d", "fusion_lat": 0.0, "name": "dd6d0d597aaae2f6139c411c41c9e38d", "is_reserved": 0, "rental_uris": {"android": "https://dc.lft.to/lastmile_qr_scan", "ios": "https://dc.lft.to/lastmile_qr_scan"}, "fusion_lon": 0.0}, {"lat": 38.939223166666665, "is_disabled": 0, "type": "electric_scooter", "lon": -77.02799616666667, "bike_id": "a8982b603d6d5ab09b617a61891510aa", "fusion_lat": 0.0, "name": "a8982b603d6d5ab09b617a61891510aa", "is_reserved": 0, "rental_uris": {"android": "https://dc.lft.to/lastmile_qr_scan", "ios": "https://dc.lft.to/lastmile_qr_scan"}, "fusion_lon": 0.0}, {"lat": 38.90860383333333, "is_disabled": 0, "type": "electric_scooter", "lon": -77.0477045, "bike_id": "8a714c0616e2cf264ce89c115f674eea", "fusion_lat": 0.0, "name": "8a714c0616e2cf264ce89c115f674eea", "is_reserved": 0, "rental_uris": {"android": "https://dc.lft.to/lastmile_qr_scan", "ios": "https://dc.lft.to/lastmile_qr_scan"}, "fusion_lon": 0.0}, {"lat": 38.88929016666667, "is_disabled": 0, "type": "electric_scooter", "lon": -76.97374866666667, "bike_id": "5c8f2f869fb90466aa07cf712e123219", "fusion_lat": 0.0, "name": "5c8f2f869fb90466aa07cf712e123219", "is_reserved": 0, "rental_uris": {"android": "https://dc.lft.to/lastmile_qr_scan", "ios": "https://dc.lft.to/lastmile_qr_scan"}, "fusion_lon": 0.0}, {"lat": 38.91700816666667, "is_disabled": 0, "type": "electric_scooter", "lon": -77.03353833333334, "bike_id": "88a5aae87dd21915ead891f701d01378", "fusion_lat": 0.0, "name": "88a5aae87dd21915ead891f701d01378", "is_reserved": 0, "rental_uris": {"android": "https://dc.lft.to/lastmile_qr_scan", "ios": "https://dc.lft.to/lastmile_qr_scan"}, "fusion_lon": 0.0}, {"lat": 38.94407316666667, "is_disabled": 0, "type": "electric_scooter", "lon": -77.02646433333334, "bike_id": "434199a07cf49efb04d7e636b65bc51f", "fusion_lat": 0.0, "name": "434199a07cf49efb04d7e636b65bc51f", "is_reserved": 0, "rental_uris": {"android": "https://dc.lft.to/lastmile_qr_scan", "ios": "https://dc.lft.to/lastmile_qr_scan"}, "fusion_lon": 0.0}, {"lat": 38.908956833333335, "is_disabled": 0, "type": "electric_scooter", "lon": -77.032084, "bike_id": "b8c77420f213290fad2decfcad095855", "fusion_lat": 0.0, "name": "b8c77420f213290fad2decfcad095855", "is_reserved": 0, "rental_uris": {"android": "https://dc.lft.to/lastmile_qr_scan", "ios": "https://dc.lft.to/lastmile_qr_scan"}, "fusion_lon": 0.0}, {"lat": 38.912894333333334, "is_disabled": 0, "type": "electric_bike", "lon": -77.044849, "bike_id": "1be28788a72f1d1ef5deb68cc4d25c53", "fusion_lat": 0.0, "name": "1be28788a72f1d1ef5deb68cc4d25c53", "is_reserved": 0, "rental_uris": {"android": "https://dc.lft.to/lastmile_qr_scan", "ios": "https://dc.lft.to/lastmile_qr_scan"}, "fusion_lon": 0.0}, {"lat": 38.870763833333335, "is_disabled": 0, "type": "electric_scooter", "lon": -76.96864766666667, "bike_id": "90e4ee261b03296bca51825e72af409f", "fusion_lat": 0.0, "name": "90e4ee261b03296bca51825e72af409f", "is_reserved": 0, "rental_uris": {"android": "https://dc.lft.to/lastmile_qr_scan", "ios": "https://dc.lft.to/lastmile_qr_scan"}, "fusion_lon": 0.0}, {"lat": 38.902061333333336, "is_disabled": 0, "type": "electric_scooter", "lon": -77.02371666666667, "bike_id": "7a46c8f2fc986d79833c1221ea67b5c2", "fusion_lat": 0.0, "name": "7a46c8f2fc986d79833c1221ea67b5c2", "is_reserved": 0, "rental_uris": {"android": "https://dc.lft.to/lastmile_qr_scan", "ios": "https://dc.lft.to/lastmile_qr_scan"}, "fusion_lon": 0.0}, {"lat": 38.90074533333333, "is_disabled": 0, "type": "electric_scooter", "lon": -77.0021345, "bike_id": "f722ff14ba2506706e17466d843f1c4a", "fusion_lat": 0.0, "name": "f722ff14ba2506706e17466d843f1c4a", "is_reserved": 0, "rental_uris": {"android": "https://dc.lft.to/lastmile_qr_scan", "ios": "https://dc.lft.to/lastmile_qr_scan"}, "fusion_lon": 0.0}, {"lat": 38.8724445, "is_disabled": 0, "type": "electric_scooter", "lon": -76.97726166666666, "bike_id": "eb2a8816fa60f6cdda719fb440bf5934", "fusion_lat": 0.0, "name": "eb2a8816fa60f6cdda719fb440bf5934", "is_reserved": 0, "rental_uris": {"android": "https://dc.lft.to/lastmile_qr_scan", "ios": "https://dc.lft.to/lastmile_qr_scan"}, "fusion_lon": 0.0}, {"lat": 38.901660166666666, "is_disabled": 0, "type": "electric_scooter", "lon": -76.99856516666667, "bike_id": "c5d5cb869b5968dbac2b6b262f4905fc", "fusion_lat": 0.0, "name": "c5d5cb869b5968dbac2b6b262f4905fc", "is_reserved": 0, "rental_uris": {"android": "https://dc.lft.to/lastmile_qr_scan", "ios": "https://dc.lft.to/lastmile_qr_scan"}, "fusion_lon": 0.0}, {"lat": 38.9128125, "is_disabled": 0, "type": "electric_scooter", "lon": -77.04507766666667, "bike_id": "b30109465ea186363fd704d47f87caf0", "fusion_lat": 0.0, "name": "b30109465ea186363fd704d47f87caf0", "is_reserved": 0, "rental_uris": {"android": "https://dc.lft.to/lastmile_qr_scan", "ios": "https://dc.lft.to/lastmile_qr_scan"}, "fusion_lon": 0.0}, {"lat": 38.85954616666667, "is_disabled": 0, "type": "electric_scooter", "lon": -76.991394, "bike_id": "9a3fbc413ac30e3a9ad40b097a3bd7ca", "fusion_lat": 0.0, "name": "9a3fbc413ac30e3a9ad40b097a3bd7ca", "is_reserved": 0, "rental_uris": {"android": "https://dc.lft.to/lastmile_qr_scan", "ios": "https://dc.lft.to/lastmile_qr_scan"}, "fusion_lon": 0.0}, {"lat": 38.93357, "is_disabled": 0, "type": "electric_scooter", "lon": -77.02496466666666, "bike_id": "d74fa83c5ce4f276ccb5449489d28687", "fusion_lat": 0.0, "name": "d74fa83c5ce4f276ccb5449489d28687", "is_reserved": 0, "rental_uris": {"android": "https://dc.lft.to/lastmile_qr_scan", "ios": "https://dc.lft.to/lastmile_qr_scan"}, "fusion_lon": 0.0}, {"lat": 38.80268683333333, "is_disabled": 0, "type": "electric_bike", "lon": -77.0811475, "bike_id": "288b41688123a8d758fd68c688706ddc", "fusion_lat": 0.0, "name": "288b41688123a8d758fd68c688706ddc", "is_reserved": 0, "rental_uris": {"android": "https://dc.lft.to/lastmile_qr_scan", "ios": "https://dc.lft.to/lastmile_qr_scan"}, "fusion_lon": 0.0}, {"lat": 39.003811666666664, "is_disabled": 0, "type": "electric_bike", "lon": -77.01291883333333, "bike_id": "590f9c9aa6430089a39c6e7573992a56", "fusion_lat": 0.0, "name": "590f9c9aa6430089a39c6e7573992a56", "is_reserved": 0, "rental_uris": {"android": "https://dc.lft.to/lastmile_qr_scan", "ios": "https://dc.lft.to/lastmile_qr_scan"}, "fusion_lon": 0.0}, {"lat": 38.923568, "is_disabled": 0, "type": "electric_scooter", "lon": -77.02438683333334, "bike_id": "f01d0f7152c42747d309c6d0629c02b9", "fusion_lat": 0.0, "name": "f01d0f7152c42747d309c6d0629c02b9", "is_reserved": 0, "rental_uris": {"android": "https://dc.lft.to/lastmile_qr_scan", "ios": "https://dc.lft.to/lastmile_qr_scan"}, "fusion_lon": 0.0}, {"lat": 38.902428666666665, "is_disabled": 0, "type": "electric_scooter", "lon": -77.0198965, "bike_id": "7da19b583b4068e8a4e23221f0abb7aa", "fusion_lat": 0.0, "name": "7da19b583b4068e8a4e23221f0abb7aa", "is_reserved": 0, "rental_uris": {"android": "https://dc.lft.to/lastmile_qr_scan", "ios": "https://dc.lft.to/lastmile_qr_scan"}, "fusion_lon": 0.0}, {"lat": 38.933604833333334, "is_disabled": 0, "type": "electric_bike", "lon": -77.09964166666667, "bike_id": "9dadab5bbdc2f850d2beaf0594be0dd5", "fusion_lat": 0.0, "name": "9dadab5bbdc2f850d2beaf0594be0dd5", "is_reserved": 0, "rental_uris": {"android": "https://dc.lft.to/lastmile_qr_scan", "ios": "https://dc.lft.to/lastmile_qr_scan"}, "fusion_lon": 0.0}, {"lat": 38.91934716666667, "is_disabled": 0, "type": "electric_scooter", "lon": -77.03187533333333, "bike_id": "05f75089234297d2e99965ae707d55e2", "fusion_lat": 0.0, "name": "05f75089234297d2e99965ae707d55e2", "is_reserved": 0, "rental_uris": {"android": "https://dc.lft.to/lastmile_qr_scan", "ios": "https://dc.lft.to/lastmile_qr_scan"}, "fusion_lon": 0.0}, {"lat": 38.9027105, "is_disabled": 0, "type": "electric_scooter", "lon": -77.03967316666666, "bike_id": "8e6a188d6d783bd4ab59a8b85d6a7e8e", "fusion_lat": 0.0, "name": "8e6a188d6d783bd4ab59a8b85d6a7e8e", "is_reserved": 0, "rental_uris": {"android": "https://dc.lft.to/lastmile_qr_scan", "ios": "https://dc.lft.to/lastmile_qr_scan"}, "fusion_lon": 0.0}, {"lat": 38.916846666666665, "is_disabled": 0, "type": "electric_scooter", "lon": -77.01223166666666, "bike_id": "cb16a223289ea62684cd024377be0e3c", "fusion_lat": 0.0, "name": "cb16a223289ea62684cd024377be0e3c", "is_reserved": 0, "rental_uris": {"android": "https://dc.lft.to/lastmile_qr_scan", "ios": "https://dc.lft.to/lastmile_qr_scan"}, "fusion_lon": 0.0}, {"lat": 38.900819, "is_disabled": 0, "type": "electric_scooter", "lon": -77.002147, "bike_id": "9bd29738339a685cda793404ffb5625e", "fusion_lat": 0.0, "name": "9bd29738339a685cda793404ffb5625e", "is_reserved": 0, "rental_uris": {"android": "https://dc.lft.to/lastmile_qr_scan", "ios": "https://dc.lft.to/lastmile_qr_scan"}, "fusion_lon": 0.0}, {"lat": 38.907464166666664, "is_disabled": 0, "type": "electric_scooter", "lon": -77.0342805, "bike_id": "126bebdc29acaedc7b58af2207da9840", "fusion_lat": 0.0, "name": "126bebdc29acaedc7b58af2207da9840", "is_reserved": 0, "rental_uris": {"android": "https://dc.lft.to/lastmile_qr_scan", "ios": "https://dc.lft.to/lastmile_qr_scan"}, "fusion_lon": 0.0}, {"lat": 38.921512, "is_disabled": 0, "type": "electric_scooter", "lon": -77.02095866666667, "bike_id": "f4ff21ce169a282ca87914a403ccd4d4", "fusion_lat": 0.0, "name": "f4ff21ce169a282ca87914a403ccd4d4", "is_reserved": 0, "rental_uris": {"android": "https://dc.lft.to/lastmile_qr_scan", "ios": "https://dc.lft.to/lastmile_qr_scan"}, "fusion_lon": 0.0}, {"lat": 38.9130835, "is_disabled": 0, "type": "electric_scooter", "lon": -77.02408433333333, "bike_id": "6ea2cb26d3bb30d59558921105e1039f", "fusion_lat": 0.0, "name": "6ea2cb26d3bb30d59558921105e1039f", "is_reserved": 0, "rental_uris": {"android": "https://dc.lft.to/lastmile_qr_scan", "ios": "https://dc.lft.to/lastmile_qr_scan"}, "fusion_lon": 0.0}, {"lat": 38.9100585, "is_disabled": 0, "type": "electric_scooter", "lon": -77.02180783333333, "bike_id": "dd044c7d7134a573acd839a75cb2c86a", "fusion_lat": 0.0, "name": "dd044c7d7134a573acd839a75cb2c86a", "is_reserved": 0, "rental_uris": {"android": "https://dc.lft.to/lastmile_qr_scan", "ios": "https://dc.lft.to/lastmile_qr_scan"}, "fusion_lon": 0.0}, {"lat": 38.903661666666665, "is_disabled": 0, "type": "electric_scooter", "lon": -77.0448325, "bike_id": "8a83a5e430c904a4d0bea1532d6ac1b6", "fusion_lat": 0.0, "name": "8a83a5e430c904a4d0bea1532d6ac1b6", "is_reserved": 0, "rental_uris": {"android": "https://dc.lft.to/lastmile_qr_scan", "ios": "https://dc.lft.to/lastmile_qr_scan"}, "fusion_lon": 0.0}, {"lat": 38.902148, "is_disabled": 0, "type": "electric_scooter", "lon": -77.04873916666666, "bike_id": "44dbb7bccb177ced43410eafcd641f0f", "fusion_lat": 0.0, "name": "44dbb7bccb177ced43410eafcd641f0f", "is_reserved": 0, "rental_uris": {"android": "https://dc.lft.to/lastmile_qr_scan", "ios": "https://dc.lft.to/lastmile_qr_scan"}, "fusion_lon": 0.0}, {"lat": 38.934039, "is_disabled": 0, "type": "electric_scooter", "lon": -77.04125316666666, "bike_id": "385f5110220052288b181957d6abc00b", "fusion_lat": 0.0, "name": "385f5110220052288b181957d6abc00b", "is_reserved": 0, "rental_uris": {"android": "https://dc.lft.to/lastmile_qr_scan", "ios": "https://dc.lft.to/lastmile_qr_scan"}, "fusion_lon": 0.0}, {"lat": 38.960945833333334, "is_disabled": 0, "type": "electric_scooter", "lon": -77.08284516666667, "bike_id": "7ce9ce9d2329cb2beabdff1749eb3bdf", "fusion_lat": 0.0, "name": "7ce9ce9d2329cb2beabdff1749eb3bdf", "is_reserved": 0, "rental_uris": {"android": "https://dc.lft.to/lastmile_qr_scan", "ios": "https://dc.lft.to/lastmile_qr_scan"}, "fusion_lon": 0.0}, {"lat": 38.921101666666665, "is_disabled": 0, "type": "electric_bike", "lon": -77.03931766666666, "bike_id": "d9864593809cb9f28117f745eab6b5d6", "fusion_lat": 0.0, "name": "d9864593809cb9f28117f745eab6b5d6", "is_reserved": 0, "rental_uris": {"android": "https://dc.lft.to/lastmile_qr_scan", "ios": "https://dc.lft.to/lastmile_qr_scan"}, "fusion_lon": 0.0}, {"lat": 38.92214583333333, "is_disabled": 0, "type": "electric_scooter", "lon": -77.0329375, "bike_id": "4a622ca7795f12921111de9b40ec4a69", "fusion_lat": 0.0, "name": "4a622ca7795f12921111de9b40ec4a69", "is_reserved": 0, "rental_uris": {"android": "https://dc.lft.to/lastmile_qr_scan", "ios": "https://dc.lft.to/lastmile_qr_scan"}, "fusion_lon": 0.0}, {"lat": 38.91834466666667, "is_disabled": 0, "type": "electric_scooter", "lon": -77.0227945, "bike_id": "261877fa3b752a84b3fcb8975a346dbc", "fusion_lat": 0.0, "name": "261877fa3b752a84b3fcb8975a346dbc", "is_reserved": 0, "rental_uris": {"android": "https://dc.lft.to/lastmile_qr_scan", "ios": "https://dc.lft.to/lastmile_qr_scan"}, "fusion_lon": 0.0}, {"lat": 38.90506033333333, "is_disabled": 0, "type": "electric_scooter", "lon": -77.02942266666666, "bike_id": "16e270600773c4e30620eec96406a322", "fusion_lat": 0.0, "name": "16e270600773c4e30620eec96406a322", "is_reserved": 0, "rental_uris": {"android": "https://dc.lft.to/lastmile_qr_scan", "ios": "https://dc.lft.to/lastmile_qr_scan"}, "fusion_lon": 0.0}, {"lat": 38.9527325, "is_disabled": 0, "type": "electric_scooter", "lon": -77.06872533333333, "bike_id": "7c522f3a632698f09472ec95bc8e8744", "fusion_lat": 0.0, "name": "7c522f3a632698f09472ec95bc8e8744", "is_reserved": 0, "rental_uris": {"android": "https://dc.lft.to/lastmile_qr_scan", "ios": "https://dc.lft.to/lastmile_qr_scan"}, "fusion_lon": 0.0}, {"lat": 38.915558, "is_disabled": 0, "type": "electric_scooter", "lon": -77.0532835, "bike_id": "1c4878bc121fced457fb81e16f96d691", "fusion_lat": 0.0, "name": "1c4878bc121fced457fb81e16f96d691", "is_reserved": 0, "rental_uris": {"android": "https://dc.lft.to/lastmile_qr_scan", "ios": "https://dc.lft.to/lastmile_qr_scan"}, "fusion_lon": 0.0}, {"lat": 38.86654466666667, "is_disabled": 0, "type": "electric_scooter", "lon": -76.98886783333333, "bike_id": "99c21dcddcdb8a540397b9188d4bf22c", "fusion_lat": 0.0, "name": "99c21dcddcdb8a540397b9188d4bf22c", "is_reserved": 0, "rental_uris": {"android": "https://dc.lft.to/lastmile_qr_scan", "ios": "https://dc.lft.to/lastmile_qr_scan"}, "fusion_lon": 0.0}, {"lat": 38.923683, "is_disabled": 0, "type": "electric_scooter", "lon": -77.05055516666667, "bike_id": "9ec171af0b52b61f0ff4714d9cb1da4e", "fusion_lat": 0.0, "name": "9ec171af0b52b61f0ff4714d9cb1da4e", "is_reserved": 0, "rental_uris": {"android": "https://dc.lft.to/lastmile_qr_scan", "ios": "https://dc.lft.to/lastmile_qr_scan"}, "fusion_lon": 0.0}, {"lat": 38.905651666666664, "is_disabled": 0, "type": "electric_scooter", "lon": -77.03416733333333, "bike_id": "02356d3675d99e7d46b845b3cc973147", "fusion_lat": 0.0, "name": "02356d3675d99e7d46b845b3cc973147", "is_reserved": 0, "rental_uris": {"android": "https://dc.lft.to/lastmile_qr_scan", "ios": "https://dc.lft.to/lastmile_qr_scan"}, "fusion_lon": 0.0}, {"lat": 38.917332333333334, "is_disabled": 0, "type": "electric_scooter", "lon": -77.03645033333333, "bike_id": "5da665945a9bf79956c1028c4fb54a5d", "fusion_lat": 0.0, "name": "5da665945a9bf79956c1028c4fb54a5d", "is_reserved": 0, "rental_uris": {"android": "https://dc.lft.to/lastmile_qr_scan", "ios": "https://dc.lft.to/lastmile_qr_scan"}, "fusion_lon": 0.0}, {"lat": 39.052063833333335, "is_disabled": 0, "type": "electric_bike", "lon": -77.10910833333334, "bike_id": "a7fdfa0fae88d09101aa726213624db5", "fusion_lat": 0.0, "name": "a7fdfa0fae88d09101aa726213624db5", "is_reserved": 0, "rental_uris": {"android": "https://dc.lft.to/lastmile_qr_scan", "ios": "https://dc.lft.to/lastmile_qr_scan"}, "fusion_lon": 0.0}, {"lat": 38.906137666666666, "is_disabled": 0, "type": "electric_scooter", "lon": -77.01882483333333, "bike_id": "b4a18dcec6dce4264f12e3511d034f3b", "fusion_lat": 0.0, "name": "b4a18dcec6dce4264f12e3511d034f3b", "is_reserved": 0, "rental_uris": {"android": "https://dc.lft.to/lastmile_qr_scan", "ios": "https://dc.lft.to/lastmile_qr_scan"}, "fusion_lon": 0.0}, {"lat": 38.859085, "is_disabled": 0, "type": "electric_scooter", "lon": -76.99152483333333, "bike_id": "c9433cfe710f20a7fc6cfb8983ebde32", "fusion_lat": 0.0, "name": "c9433cfe710f20a7fc6cfb8983ebde32", "is_reserved": 0, "rental_uris": {"android": "https://dc.lft.to/lastmile_qr_scan", "ios": "https://dc.lft.to/lastmile_qr_scan"}, "fusion_lon": 0.0}, {"lat": 38.919336, "is_disabled": 0, "type": "electric_scooter", "lon": -77.02411583333334, "bike_id": "47a327aad165d51d0c6222f95f3cc2be", "fusion_lat": 0.0, "name": "47a327aad165d51d0c6222f95f3cc2be", "is_reserved": 0, "rental_uris": {"android": "https://dc.lft.to/lastmile_qr_scan", "ios": "https://dc.lft.to/lastmile_qr_scan"}, "fusion_lon": 0.0}, {"lat": 38.93889466666667, "is_disabled": 0, "type": "electric_bike", "lon": -76.99503983333334, "bike_id": "1f91741ada32c622bdf77147672bd89f", "fusion_lat": 0.0, "name": "1f91741ada32c622bdf77147672bd89f", "is_reserved": 0, "rental_uris": {"android": "https://dc.lft.to/lastmile_qr_scan", "ios": "https://dc.lft.to/lastmile_qr_scan"}, "fusion_lon": 0.0}, {"lat": 38.90208966666667, "is_disabled": 0, "type": "electric_scooter", "lon": -77.02375916666666, "bike_id": "4090294018adce87430f2eab66017bdc", "fusion_lat": 0.0, "name": "4090294018adce87430f2eab66017bdc", "is_reserved": 0, "rental_uris": {"android": "https://dc.lft.to/lastmile_qr_scan", "ios": "https://dc.lft.to/lastmile_qr_scan"}, "fusion_lon": 0.0}, {"lat": 38.89901366666667, "is_disabled": 0, "type": "electric_scooter", "lon": -76.93349833333333, "bike_id": "c05009575b5d172b63b161a6f1f70878", "fusion_lat": 0.0, "name": "c05009575b5d172b63b161a6f1f70878", "is_reserved": 0, "rental_uris": {"android": "https://dc.lft.to/lastmile_qr_scan", "ios": "https://dc.lft.to/lastmile_qr_scan"}, "fusion_lon": 0.0}, {"lat": 38.88512266666667, "is_disabled": 0, "type": "electric_scooter", "lon": -77.006799, "bike_id": "80cdbdf261ffb7e96bd6b4935269dd16", "fusion_lat": 0.0, "name": "80cdbdf261ffb7e96bd6b4935269dd16", "is_reserved": 0, "rental_uris": {"android": "https://dc.lft.to/lastmile_qr_scan", "ios": "https://dc.lft.to/lastmile_qr_scan"}, "fusion_lon": 0.0}, {"lat": 38.913424166666665, "is_disabled": 0, "type": "electric_scooter", "lon": -77.04887016666666, "bike_id": "13eddf338e4220480e7e7f70fd33476e", "fusion_lat": 0.0, "name": "13eddf338e4220480e7e7f70fd33476e", "is_reserved": 0, "rental_uris": {"android": "https://dc.lft.to/lastmile_qr_scan", "ios": "https://dc.lft.to/lastmile_qr_scan"}, "fusion_lon": 0.0}, {"lat": 38.907932333333335, "is_disabled": 0, "type": "electric_scooter", "lon": -77.03800183333334, "bike_id": "7a7ed68e07ed651c4a23e86449f9a67e", "fusion_lat": 0.0, "name": "7a7ed68e07ed651c4a23e86449f9a67e", "is_reserved": 0, "rental_uris": {"android": "https://dc.lft.to/lastmile_qr_scan", "ios": "https://dc.lft.to/lastmile_qr_scan"}, "fusion_lon": 0.0}, {"lat": 39.03059966666667, "is_disabled": 0, "type": "electric_bike", "lon": -77.09492683333333, "bike_id": "e7cd2a63132e539030ab724b49c1822a", "fusion_lat": 0.0, "name": "e7cd2a63132e539030ab724b49c1822a", "is_reserved": 0, "rental_uris": {"android": "https://dc.lft.to/lastmile_qr_scan", "ios": "https://dc.lft.to/lastmile_qr_scan"}, "fusion_lon": 0.0}, {"lat": 38.9274895, "is_disabled": 0, "type": "electric_scooter", "lon": -76.99725433333333, "bike_id": "ac83081b9db291ca3455c87a6b9cedbf", "fusion_lat": 0.0, "name": "ac83081b9db291ca3455c87a6b9cedbf", "is_reserved": 0, "rental_uris": {"android": "https://dc.lft.to/lastmile_qr_scan", "ios": "https://dc.lft.to/lastmile_qr_scan"}, "fusion_lon": 0.0}, {"lat": 38.8636625, "is_disabled": 0, "type": "electric_scooter", "lon": -76.99036466666666, "bike_id": "31f400936c67b3ac36923ee9f6e6cc79", "fusion_lat": 0.0, "name": "31f400936c67b3ac36923ee9f6e6cc79", "is_reserved": 0, "rental_uris": {"android": "https://dc.lft.to/lastmile_qr_scan", "ios": "https://dc.lft.to/lastmile_qr_scan"}, "fusion_lon": 0.0}, {"lat": 38.9130855, "is_disabled": 0, "type": "electric_scooter", "lon": -77.041625, "bike_id": "9f99f2d9eab2851a08d5a347e1408024", "fusion_lat": 0.0, "name": "9f99f2d9eab2851a08d5a347e1408024", "is_reserved": 0, "rental_uris": {"android": "https://dc.lft.to/lastmile_qr_scan", "ios": "https://dc.lft.to/lastmile_qr_scan"}, "fusion_lon": 0.0}, {"lat": 38.905026666666664, "is_disabled": 0, "type": "electric_scooter", "lon": -77.06284966666666, "bike_id": "4495764d55e750dc526a8fb571733c53", "fusion_lat": 0.0, "name": "4495764d55e750dc526a8fb571733c53", "is_reserved": 0, "rental_uris": {"android": "https://dc.lft.to/lastmile_qr_scan", "ios": "https://dc.lft.to/lastmile_qr_scan"}, "fusion_lon": 0.0}, {"lat": 38.903709666666664, "is_disabled": 0, "type": "electric_scooter", "lon": -77.02917516666666, "bike_id": "852402971a738c539afa4bb25eaf6fca", "fusion_lat": 0.0, "name": "852402971a738c539afa4bb25eaf6fca", "is_reserved": 0, "rental_uris": {"android": "https://dc.lft.to/lastmile_qr_scan", "ios": "https://dc.lft.to/lastmile_qr_scan"}, "fusion_lon": 0.0}, {"lat": 38.8757745, "is_disabled": 0, "type": "electric_scooter", "lon": -77.02083033333334, "bike_id": "3795e188994b3a51d0a50ec438c159ea", "fusion_lat": 0.0, "name": "3795e188994b3a51d0a50ec438c159ea", "is_reserved": 0, "rental_uris": {"android": "https://dc.lft.to/lastmile_qr_scan", "ios": "https://dc.lft.to/lastmile_qr_scan"}, "fusion_lon": 0.0}, {"lat": 38.91929616666667, "is_disabled": 0, "type": "electric_scooter", "lon": -77.0318, "bike_id": "5107824ab3269767530ec19ca98d2533", "fusion_lat": 0.0, "name": "5107824ab3269767530ec19ca98d2533", "is_reserved": 0, "rental_uris": {"android": "https://dc.lft.to/lastmile_qr_scan", "ios": "https://dc.lft.to/lastmile_qr_scan"}, "fusion_lon": 0.0}, {"lat": 38.90964816666666, "is_disabled": 0, "type": "electric_scooter", "lon": -77.03941533333334, "bike_id": "87695f8d0f666707abc2a44bb21fbe70", "fusion_lat": 0.0, "name": "87695f8d0f666707abc2a44bb21fbe70", "is_reserved": 0, "rental_uris": {"android": "https://dc.lft.to/lastmile_qr_scan", "ios": "https://dc.lft.to/lastmile_qr_scan"}, "fusion_lon": 0.0}, {"lat": 38.90847133333333, "is_disabled": 0, "type": "electric_scooter", "lon": -76.99952466666667, "bike_id": "9db9fb425aef6115cabb66fb85869aa3", "fusion_lat": 0.0, "name": "9db9fb425aef6115cabb66fb85869aa3", "is_reserved": 0, "rental_uris": {"android": "https://dc.lft.to/lastmile_qr_scan", "ios": "https://dc.lft.to/lastmile_qr_scan"}, "fusion_lon": 0.0}, {"lat": 38.943631, "is_disabled": 0, "type": "electric_bike", "lon": -76.96776516666667, "bike_id": "e2ac7301ef5dd2dd3ed52c22bdc810df", "fusion_lat": 0.0, "name": "e2ac7301ef5dd2dd3ed52c22bdc810df", "is_reserved": 0, "rental_uris": {"android": "https://dc.lft.to/lastmile_qr_scan", "ios": "https://dc.lft.to/lastmile_qr_scan"}, "fusion_lon": 0.0}, {"lat": 38.9040995, "is_disabled": 0, "type": "electric_scooter", "lon": -77.04021833333333, "bike_id": "e3eab9ec1d4f0005cdacb7b8d44676ca", "fusion_lat": 0.0, "name": "e3eab9ec1d4f0005cdacb7b8d44676ca", "is_reserved": 0, "rental_uris": {"android": "https://dc.lft.to/lastmile_qr_scan", "ios": "https://dc.lft.to/lastmile_qr_scan"}, "fusion_lon": 0.0}, {"lat": 38.9008115, "is_disabled": 0, "type": "electric_scooter", "lon": -77.0182625, "bike_id": "86b0328ccc62391c7e634b923d55f0a4", "fusion_lat": 0.0, "name": "86b0328ccc62391c7e634b923d55f0a4", "is_reserved": 0, "rental_uris": {"android": "https://dc.lft.to/lastmile_qr_scan", "ios": "https://dc.lft.to/lastmile_qr_scan"}, "fusion_lon": 0.0}, {"lat": 38.93640283333333, "is_disabled": 0, "type": "electric_scooter", "lon": -77.02500116666667, "bike_id": "345a51b01c03b9201261d9f304404cd7", "fusion_lat": 0.0, "name": "345a51b01c03b9201261d9f304404cd7", "is_reserved": 0, "rental_uris": {"android": "https://dc.lft.to/lastmile_qr_scan", "ios": "https://dc.lft.to/lastmile_qr_scan"}, "fusion_lon": 0.0}, {"lat": 38.917963, "is_disabled": 0, "type": "electric_scooter", "lon": -77.04040083333334, "bike_id": "73cc6237f85532f95c34130216c3db0a", "fusion_lat": 0.0, "name": "73cc6237f85532f95c34130216c3db0a", "is_reserved": 0, "rental_uris": {"android": "https://dc.lft.to/lastmile_qr_scan", "ios": "https://dc.lft.to/lastmile_qr_scan"}, "fusion_lon": 0.0}, {"lat": 38.916356, "is_disabled": 0, "type": "electric_scooter", "lon": -77.04787383333333, "bike_id": "4c4a1f3380a98a63bda140c25143cb7f", "fusion_lat": 0.0, "name": "4c4a1f3380a98a63bda140c25143cb7f", "is_reserved": 0, "rental_uris": {"android": "https://dc.lft.to/lastmile_qr_scan", "ios": "https://dc.lft.to/lastmile_qr_scan"}, "fusion_lon": 0.0}, {"lat": 38.9112695, "is_disabled": 0, "type": "electric_scooter", "lon": -77.03839216666667, "bike_id": "ca4de518fc64f99d95d93c182dd70732", "fusion_lat": 0.0, "name": "ca4de518fc64f99d95d93c182dd70732", "is_reserved": 0, "rental_uris": {"android": "https://dc.lft.to/lastmile_qr_scan", "ios": "https://dc.lft.to/lastmile_qr_scan"}, "fusion_lon": 0.0}, {"lat": 38.877221166666665, "is_disabled": 0, "type": "electric_scooter", "lon": -77.01760983333334, "bike_id": "130fca9d80b49aba4de4e7df973905be", "fusion_lat": 0.0, "name": "130fca9d80b49aba4de4e7df973905be", "is_reserved": 0, "rental_uris": {"android": "https://dc.lft.to/lastmile_qr_scan", "ios": "https://dc.lft.to/lastmile_qr_scan"}, "fusion_lon": 0.0}, {"lat": 38.930862833333336, "is_disabled": 0, "type": "electric_scooter", "lon": -77.03740683333334, "bike_id": "3eea2d3b7a9163c1eb488bf0fd444d97", "fusion_lat": 0.0, "name": "3eea2d3b7a9163c1eb488bf0fd444d97", "is_reserved": 0, "rental_uris": {"android": "https://dc.lft.to/lastmile_qr_scan", "ios": "https://dc.lft.to/lastmile_qr_scan"}, "fusion_lon": 0.0}, {"lat": 38.89354083333333, "is_disabled": 0, "type": "electric_scooter", "lon": -77.04135316666667, "bike_id": "06cf0626063cd506b160bd8695256a37", "fusion_lat": 0.0, "name": "06cf0626063cd506b160bd8695256a37", "is_reserved": 0, "rental_uris": {"android": "https://dc.lft.to/lastmile_qr_scan", "ios": "https://dc.lft.to/lastmile_qr_scan"}, "fusion_lon": 0.0}, {"lat": 38.900404, "is_disabled": 0, "type": "electric_scooter", "lon": -76.99386783333334, "bike_id": "1de87648b0eb28a234ae290a6868ac54", "fusion_lat": 0.0, "name": "1de87648b0eb28a234ae290a6868ac54", "is_reserved": 0, "rental_uris": {"android": "https://dc.lft.to/lastmile_qr_scan", "ios": "https://dc.lft.to/lastmile_qr_scan"}, "fusion_lon": 0.0}, {"lat": 38.925328666666665, "is_disabled": 0, "type": "electric_scooter", "lon": -77.04433766666666, "bike_id": "f37c74d1a778fb4b15cc49da4d8be33c", "fusion_lat": 0.0, "name": "f37c74d1a778fb4b15cc49da4d8be33c", "is_reserved": 0, "rental_uris": {"android": "https://dc.lft.to/lastmile_qr_scan", "ios": "https://dc.lft.to/lastmile_qr_scan"}, "fusion_lon": 0.0}, {"lat": 38.908963, "is_disabled": 0, "type": "electric_scooter", "lon": -77.031451, "bike_id": "85f8065391ce3d5ebc5b5cc93bbd8d7e", "fusion_lat": 0.0, "name": "85f8065391ce3d5ebc5b5cc93bbd8d7e", "is_reserved": 0, "rental_uris": {"android": "https://dc.lft.to/lastmile_qr_scan", "ios": "https://dc.lft.to/lastmile_qr_scan"}, "fusion_lon": 0.0}, {"lat": 38.91791216666667, "is_disabled": 0, "type": "electric_scooter", "lon": -77.02314916666667, "bike_id": "549e03accf9bdf8cec492df395cbbd29", "fusion_lat": 0.0, "name": "549e03accf9bdf8cec492df395cbbd29", "is_reserved": 0, "rental_uris": {"android": "https://dc.lft.to/lastmile_qr_scan", "ios": "https://dc.lft.to/lastmile_qr_scan"}, "fusion_lon": 0.0},