{"data": {"bikes": [{"is_disabled": 0, "is_reserved": 0, "fusion_lat": 0.0, "lat": 38.90658366666667, "fusion_lon": 0.0, "rental_uris": {"ios": "https://dc.lft.to/lastmile_qr_scan", "android": "https://dc.lft.to/lastmile_qr_scan"}, "lon": -77.00971716666666, "bike_id": "b93f1193ec46d298eefe96a7cd750db9", "type": "electric_scooter", "name": "b93f1193ec46d298eefe96a7cd750db9"}, {"is_disabled": 0, "is_reserved": 0, "fusion_lat": 0.0, "lat": 38.97368516666667, "fusion_lon": 0.0, "rental_uris": {"ios": "https://dc.lft.to/lastmile_qr_scan", "android": "https://dc.lft.to/lastmile_qr_scan"}, "lon": -77.01866433333333, "bike_id": "8e5c91317f57f7e2a3ff22ee8157d0eb", "type": "electric_scooter", "name": "8e5c91317f57f7e2a3ff22ee8157d0eb"}, {"is_disabled": 0, "is_reserved": 0, "fusion_lat": 0.0, "lat": 39.005319666666665, "fusion_lon": 0.0, "rental_uris": {"ios": "https://dc.lft.to/lastmile_qr_scan", "android": "https://dc.lft.to/lastmile_qr_scan"}, "lon": -77.10402433333333, "bike_id": "87c90fdb1e392d982195a9379d8ddad1", "type": "electric_bike", "name": "87c90fdb1e392d982195a9379d8ddad1"}, {"is_disabled": 0, "is_reserved": 0, "fusion_lat": 0.0, "lat": 38.8852565, "fusion_lon": 0.0, "rental_uris": {"ios": "https://dc.lft.to/lastmile_qr_scan", "android": "https://dc.lft.to/lastmile_qr_scan"}, "lon": -76.99606766666666, "bike_id": "3b543e0cf9bf31d9d76b63fa895d3511", "type": "electric_scooter", "name": "3b543e0cf9bf31d9d76b63fa895d3511"}, {"is_disabled": 0, "is_reserved": 0, "fusion_lat": 0.0, "lat": 38.881035833333335, "fusion_lon": 0.0, "rental_uris": {"ios": "https://dc.lft.to/lastmile_qr_scan", "android": "https://dc.lft.to/lastmile_qr_scan"}, "lon": -77.01237916666666, "bike_id": "779a40f8ebb9283a79ed81556eb22ef7", "type": "electric_scooter", "name": "779a40f8ebb9283a79ed81556eb22ef7"}, {"is_disabled": 0, "is_reserved": 0, "fusion_lat": 0.0, "lat": 38.90512233333333, "fusion_lon": 0.0, "rental_uris": {"ios": "https://dc.lft.to/lastmile_qr_scan", "android": "https://dc.lft.to/lastmile_qr_scan"}, "lon": -77.05143983333333, "bike_id": "871caf35a7b67209f0b86b006eaec1a4", "type": "electric_scooter", "name": "871caf35a7b67209f0b86b006eaec1a4"}, {"is_disabled": 0, "is_reserved": 0, "fusion_lat": 0.0, "lat": 38.9224625, "fusion_lon": 0.0, "rental_uris": {"ios": "https://dc.lft.to/lastmile_qr_scan", "android": "https://dc.lft.to/lastmile_qr_scan"}, "lon": -77.03076966666667, "bike_id": "7b0b0ab486b18638202a4c1f896f5e68", "type": "electric_scooter", "name": "7b0b0ab486b18638202a4c1f896f5e68"}, {"is_disabled": 0, "is_reserved": 0, "fusion_lat": 0.0, "lat": 38.9655715, "fusion_lon": 0.0, "rental_uris": {"ios": "https://dc.lft.to/lastmile_qr_scan", "android": "https://dc.lft.to/lastmile_qr_scan"}, "lon": -77.028203, "bike_id": "e1551b820befe7170883ea771ab85fea", "type": "electric_bike", "name": "e1551b820befe7170883ea771ab85fea"}, {"is_disabled": 0, "is_reserved": 0, "fusion_lat": 0.0, "lat": 38.9070465, "fusion_lon": 0.0, "rental_uris": {"ios": "https://dc.lft.to/lastmile_qr_scan", "android": "https://dc.lft.to/lastmile_qr_scan"}, "lon": -77.0467535, "bike_id": "d54d721c75155514d33fcdfe72dd3304", "type": "electric_scooter", "name": "d54d721c75155514d33fcdfe72dd3304"}, {"is_disabled": 0, "is_reserved": 0, "fusion_lat": 0.0, "lat": 38.90156133333333, "fusion_lon": 0.0, "rental_uris": {"ios": "https://dc.lft.to/lastmile_qr_scan", "android": "https://dc.lft.to/lastmile_qr_scan"}, "lon": -77.05051616666667, "bike_id": "ff9d3c24410e4c0420d91a9d24a480f2", "type": "electric_scooter", "name": "ff9d3c24410e4c0420d91a9d24a480f2"}, {"is_disabled": 0, "is_reserved": 0, "fusion_lat": 0.0, "lat": 38.929718333333334, "fusion_lon": 0.0, "rental_uris": {"ios": "https://dc.lft.to/lastmile_qr_scan", "android": "https://dc.lft.to/lastmile_qr_scan"}, "lon": -77.04203933333334, "bike_id": "9ea0fe0edc16a348d5097471dfd66232", "type": "electric_scooter", "name": "9ea0fe0edc16a348d5097471dfd66232"}, {"is_disabled": 0, "is_reserved": 0, "fusion_lat": 0.0, "lat": 38.90863316666667, "fusion_lon": 0.0, "rental_uris": {"ios": "https://dc.lft.to/lastmile_qr_scan", "android": "https://dc.lft.to/lastmile_qr_scan"}, "lon": -77.0858835, "bike_id": "18d488c7b262c0fc5b2d3b3a6e86f7c9", "type": "electric_scooter", "name": "18d488c7b262c0fc5b2d3b3a6e86f7c9"}, {"is_disabled": 0, "is_reserved": 0, "fusion_lat": 0.0, "lat": 38.947205833333335, "fusion_lon": 0.0, "rental_uris": {"ios": "https://dc.lft.to/lastmile_qr_scan", "android": "https://dc.lft.to/lastmile_qr_scan"}, "lon": -77.02356833333333, "bike_id": "13e41ee58d062e811e89a150f12dd0cb", "type": "electric_scooter", "name": "13e41ee58d062e811e89a150f12dd0cb"}, {"is_disabled": 0, "is_reserved": 0, "fusion_lat": 0.0, "lat": 38.90376916666666, "fusion_lon": 0.0, "rental_uris": {"ios": "https://dc.lft.to/lastmile_qr_scan", "android": "https://dc.lft.to/lastmile_qr_scan"}, "lon": -77.00195516666666, "bike_id": "f03daee3eb5ecb806b2abbfb798a65a1", "type": "electric_scooter", "name": "f03daee3eb5ecb806b2abbfb798a65a1"}, {"is_disabled": 0, "is_reserved": 0, "fusion_lat": 0.0, "lat": 38.91777616666667, "fusion_lon": 0.0, "rental_uris": {"ios": "https://dc.lft.to/lastmile_qr_scan", "android": "https://dc.lft.to/lastmile_qr_scan"}, "lon": -77.02474883333333, "bike_id": "53be76d2670d8d1a1474647ff6596e7b", "type": "electric_scooter", "name": "53be76d2670d8d1a1474647ff6596e7b"}, {"is_disabled": 0, "is_reserved": 0, "fusion_lat": 0.0, "lat": 38.92088716666667, "fusion_lon": 0.0, "rental_uris": {"ios": "https://dc.lft.to/lastmile_qr_scan", "android": "https://dc.lft.to/lastmile_qr_scan"}, "lon": -77.02251583333333, "bike_id": "e8d9779f2cae331e56545aa9b1d196f6", "type": "electric_scooter", "name": "e8d9779f2cae331e56545aa9b1d196f6"}, {"is_disabled": 0, "is_reserved": 0, "fusion_lat": 0.0, "lat": 38.9085565, "fusion_lon": 0.0, "rental_uris": {"ios": "https://dc.lft.to/lastmile_qr_scan", "android": "https://dc.lft.to/lastmile_qr_scan"}, "lon": -77.04831333333334, "bike_id": "750580945fde26b238a05df6168acbfa", "type": "electric_scooter", "name": "750580945fde26b238a05df6168acbfa"}, {"is_disabled": 0, "is_reserved": 0, "fusion_lat": 0.0, "lat": 38.89579166666667, "fusion_lon": 0.0, "rental_uris": {"ios": "https://dc.lft.to/lastmile_qr_scan", "android": "https://dc.lft.to/lastmile_qr_scan"}, "lon": -77.02510416666667, "bike_id": "45b98a5f5cd7a7a92265284d1070b488", "type": "electric_scooter", "name": "45b98a5f5cd7a7a92265284d1070b488"}, {"is_disabled": 0, "is_reserved": 0, "fusion_lat": 0.0, "lat": 38.919492, "fusion_lon": 0.0, "rental_uris": {"ios": "https://dc.lft.to/lastmile_qr_scan", "android": "https://dc.lft.to/lastmile_qr_scan"}, "lon": -77.014013, "bike_id": "d35e6ca300c6d8d158285d405f40da7b", "type": "electric_scooter", "name": "d35e6ca300c6d8d158285d405f40da7b"}, {"is_disabled": 0, "is_reserved": 0, "fusion_lat": 0.0, "lat": 38.88487166666667, "fusion_lon": 0.0, "rental_uris": {"ios": "https://dc.lft.to/lastmile_qr_scan", "android": "https://dc.lft.to/lastmile_qr_scan"}, "lon": -77.03477216666667, "bike_id": "decfe6e1503995ea71f177370fb864b9", "type": "electric_scooter", "name": "decfe6e1503995ea71f177370fb864b9"}, {"is_disabled": 0, "is_reserved": 0, "fusion_lat": 0.0, "lat": 38.900033666666666, "fusion_lon": 0.0, "rental_uris": {"ios": "https://dc.lft.to/lastmile_qr_scan", "android": "https://dc.lft.to/lastmile_qr_scan"}, "lon": -77.01206033333334, "bike_id": "b568aaab2ef63e3ea056fc591a83f844", "type": "electric_scooter", "name": "b568aaab2ef63e3ea056fc591a83f844"}, {"is_disabled": 0, "is_reserved": 0, "fusion_lat": 0.0, "lat": 38.89223666666667, "fusion_lon": 0.0, "rental_uris": {"ios": "https://dc.lft.to/lastmile_qr_scan", "android": "https://dc.lft.to/lastmile_qr_scan"}, "lon": -77.02787833333333, "bike_id": "e5b2b58e97666b0976cd96e02ae32a03", "type": "electric_scooter", "name": "e5b2b58e97666b0976cd96e02ae32a03"}, {"is_disabled": 0, "is_reserved": 0, "fusion_lat": 0.0, "lat": 38.91990883333333, "fusion_lon": 0.0, "rental_uris": {"ios": "https://dc.lft.to/lastmile_qr_scan", "android": "https://dc.lft.to/lastmile_qr_scan"}, "lon": -77.0416455, "bike_id": "9c83b1c20dafbe3d27a8d3cec6ef50a4", "type": "electric_scooter", "name": "9c83b1c20dafbe3d27a8d3cec6ef50a4"}, {"is_disabled": 0, "is_reserved": 0, "fusion_lat": 0.0, "lat": 38.91136733333333, "fusion_lon": 0.0, "rental_uris": {"ios": "https://dc.lft.to/lastmile_qr_scan", "android": "https://dc.lft.to/lastmile_qr_scan"}, "lon": -77.02101833333333, "bike_id": "0802844b1f3e13b8c9534ccd50986eb3", "type": "electric_scooter", "name": "0802844b1f3e13b8c9534ccd50986eb3"}, {"is_disabled": 0, "is_reserved": 0, "fusion_lat": 0.0, "lat": 38.904711166666665, "fusion_lon": 0.0, "rental_uris": {"ios": "https://dc.lft.to/lastmile_qr_scan", "android": "https://dc.lft.to/lastmile_qr_scan"}, "lon": -76.95064433333333, "bike_id": "4ec5ded5059c384d7d3e46d01beb0b2c", "type": "electric_scooter", "name": "4ec5ded5059c384d7d3e46d01beb0b2c"}, {"is_disabled": 0, "is_reserved": 0, "fusion_lat": 0.0, "lat": 38.90466333333333, "fusion_lon": 0.0, "rental_uris": {"ios": "https://dc.lft.to/lastmile_qr_scan", "android": "https://dc.lft.to/lastmile_qr_scan"}, "lon": -77.04850033333334, "bike_id": "ede0aab61d7e25ca0472e6343b7eded9", "type": "electric_scooter", "name": "ede0aab61d7e25ca0472e6343b7eded9"}, {"is_disabled": 0, "is_reserved": 0, "fusion_lat": 0.0, "lat": 38.908990833333334, "fusion_lon": 0.0, "rental_uris": {"ios": "https://dc.lft.to/lastmile_qr_scan", "android": "https://dc.lft.to/lastmile_qr_scan"}, "lon": -77.04407516666667, "bike_id": "f890adbc750f3d9bdf3a653106955da5", "type": "electric_scooter", "name": "f890adbc750f3d9bdf3a653106955da5"}, {"is_disabled": 0, "is_reserved": 0, "fusion_lat": 0.0, "lat": 38.930809833333335, "fusion_lon": 0.0, "rental_uris": {"ios": "https://dc.lft.to/lastmile_qr_scan", "android": "https://dc.lft.to/lastmile_qr_scan"}, "lon": -77.028086, "bike_id": "cc12e8fada2b972f1f7f691f167306da", "type": "electric_scooter", "name": "cc12e8fada2b972f1f7f691f167306da"}, {"is_disabled": 0, "is_reserved": 0, "fusion_lat": 0.0, "lat": 38.85533233333334, "fusion_lon": 0.0, "rental_uris": {"ios": "https://dc.lft.to/lastmile_qr_scan", "android": "https://dc.lft.to/lastmile_qr_scan"}, "lon": -76.99181133333333, "bike_id": "cbbeaf2222a2a6a13b8be13c921eafa7", "type": "electric_scooter", "name": "cbbeaf2222a2a6a13b8be13c921eafa7"}, {"is_disabled": 0, "is_reserved": 0, "fusion_lat": 0.0, "lat": 38.90523316666667, "fusion_lon": 0.0, "rental_uris": {"ios": "https://dc.lft.to/lastmile_qr_scan", "android": "https://dc.lft.to/lastmile_qr_scan"}, "lon": -77.06611616666666, "bike_id": "f3358e9b5f73fdeb4e63759422e82675", "type": "electric_scooter", "name": "f3358e9b5f73fdeb4e63759422e82675"}, {"is_disabled": 0, "is_reserved": 0, "fusion_lat": 0.0, "lat": 38.90958833333333, "fusion_lon": 0.0, "rental_uris": {"ios": "https://dc.lft.to/lastmile_qr_scan", "android": "https://dc.lft.to/lastmile_qr_scan"}, "lon": -77.0228025, "bike_id": "fa816d02a627182b9591d615c2e0adf6", "type": "electric_scooter", "name": "fa816d02a627182b9591d615c2e0adf6"}, {"is_disabled": 0, "is_reserved": 0, "fusion_lat": 0.0, "lat": 38.8419335, "fusion_lon": 0.0, "rental_uris": {"ios": "https://dc.lft.to/lastmile_qr_scan", "android": "https://dc.lft.to/lastmile_qr_scan"}, "lon": -77.07755133333333, "bike_id": "7cef335d4bf7b88379ba4114f88ed65a", "type": "electric_bike", "name": "7cef335d4bf7b88379ba4114f88ed65a"}, {"is_disabled": 0, "is_reserved": 0, "fusion_lat": 0.0, "lat": 38.9282015, "fusion_lon": 0.0, "rental_uris": {"ios": "https://dc.lft.to/lastmile_qr_scan", "android": "https://dc.lft.to/lastmile_qr_scan"}, "lon": -77.01411566666667, "bike_id": "6e060ad3c14fc6a5821820e0c0e78599", "type": "electric_scooter", "name": "6e060ad3c14fc6a5821820e0c0e78599"}, {"is_disabled": 0, "is_reserved": 0, "fusion_lat": 0.0, "lat": 38.93289016666667, "fusion_lon": 0.0, "rental_uris": {"ios": "https://dc.lft.to/lastmile_qr_scan", "android": "https://dc.lft.to/lastmile_qr_scan"}, "lon": -77.03627233333333, "bike_id": "95b638a07312e7f719eaf4f688a696c4", "type": "electric_scooter", "name": "95b638a07312e7f719eaf4f688a696c4"}, {"is_disabled": 0, "is_reserved": 0, "fusion_lat": 0.0, "lat": 38.8924845, "fusion_lon": 0.0, "rental_uris": {"ios": "https://dc.lft.to/lastmile_qr_scan", "android": "https://dc.lft.to/lastmile_qr_scan"}, "lon": -76.98545733333333, "bike_id": "47f7243c11e5ef91f8851421726f8fe6", "type": "electric_bike", "name": "47f7243c11e5ef91f8851421726f8fe6"}, {"is_disabled": 0, "is_reserved": 0, "fusion_lat": 0.0, "lat": 38.970313166666664, "fusion_lon": 0.0, "rental_uris": {"ios": "https://dc.lft.to/lastmile_qr_scan", "android": "https://dc.lft.to/lastmile_qr_scan"}, "lon": -77.0223615, "bike_id": "5f26549437b9b386ed82358c9af77c02", "type": "electric_bike", "name": "5f26549437b9b386ed82358c9af77c02"}, {"is_disabled": 0, "is_reserved": 0, "fusion_lat": 0.0, "lat": 38.8813675, "fusion_lon": 0.0, "rental_uris": {"ios": "https://dc.lft.to/lastmile_qr_scan", "android": "https://dc.lft.to/lastmile_qr_scan"}, "lon": -77.02277216666667, "bike_id": "f1c6893c2ee9a235baaffa7db0754882", "type": "electric_scooter", "name": "f1c6893c2ee9a235baaffa7db0754882"}, {"is_disabled": 0, "is_reserved": 0, "fusion_lat": 0.0, "lat": 38.88186116666667, "fusion_lon": 0.0, "rental_uris": {"ios": "https://dc.lft.to/lastmile_qr_scan", "android": "https://dc.lft.to/lastmile_qr_scan"}, "lon": -76.99266166666666, "bike_id": "9c299aba362d53e402e1e09c39dae386", "type": "electric_scooter", "name": "9c299aba362d53e402e1e09c39dae386"}, {"is_disabled": 0, "is_reserved": 0, "fusion_lat": 0.0, "lat": 38.91617933333333, "fusion_lon": 0.0, "rental_uris": {"ios": "https://dc.lft.to/lastmile_qr_scan", "android": "https://dc.lft.to/lastmile_qr_scan"}, "lon": -77.00295583333333, "bike_id": "0d414438ab11c5032120e6fa21204746", "type": "electric_bike", "name": "0d414438ab11c5032120e6fa21204746"}, {"is_disabled": 0, "is_reserved": 0, "fusion_lat": 0.0, "lat": 38.922196, "fusion_lon": 0.0, "rental_uris": {"ios": "https://dc.lft.to/lastmile_qr_scan", "android": "https://dc.lft.to/lastmile_qr_scan"}, "lon": -77.04241166666667, "bike_id": "09172fc7e6cd1a5afd33e3085dfca870", "type": "electric_scooter", "name": "09172fc7e6cd1a5afd33e3085dfca870"}, {"is_disabled": 0, "is_reserved": 0, "fusion_lat": 0.0, "lat": 38.883009333333334, "fusion_lon": 0.0, "rental_uris": {"ios": "https://dc.lft.to/lastmile_qr_scan", "android": "https://dc.lft.to/lastmile_qr_scan"}, "lon": -76.94850766666667, "bike_id": "d3c8f1c4348cfab7777886634c328a3a", "type": "electric_scooter", "name": "d3c8f1c4348cfab7777886634c328a3a"}, {"is_disabled": 0, "is_reserved": 0, "fusion_lat": 0.0, "lat": 38.91204166666667, "fusion_lon": 0.0, "rental_uris": {"ios": "https://dc.lft.to/lastmile_qr_scan", "android": "https://dc.lft.to/lastmile_qr_scan"}, "lon": -76.98777233333334, "bike_id": "b934faca2fce1341967d87c4a452d9e0", "type": "electric_scooter", "name": "b934faca2fce1341967d87c4a452d9e0"}, {"is_disabled": 0, "is_reserved": 0, "fusion_lat": 0.0, "lat": 38.9215135, "fusion_lon": 0.0, "rental_uris": {"ios": "https://dc.lft.to/lastmile_qr_scan", "android": "https://dc.lft.to/lastmile_qr_scan"}, "lon": -77.038705, "bike_id": "de5f454af0695d24a5daaec3bb36b156", "type": "electric_scooter", "name": "de5f454af0695d24a5daaec3bb36b156"}, {"is_disabled": 0, "is_reserved": 0, "fusion_lat": 0.0, "lat": 38.899907166666665, "fusion_lon": 0.0, "rental_uris": {"ios": "https://dc.lft.to/lastmile_qr_scan", "android": "https://dc.lft.to/lastmile_qr_scan"}, "lon": -77.0271445, "bike_id": "e6cf332f6f049dd3e01639767faeb876", "type": "electric_scooter", "name": "e6cf332f6f049dd3e01639767faeb876"}, {"is_disabled": 0, "is_reserved": 0, "fusion_lat": 0.0, "lat": 38.930673166666665, "fusion_lon": 0.0, "rental_uris": {"ios": "https://dc.lft.to/lastmile_qr_scan", "android": "https://dc.lft.to/lastmile_qr_scan"}, "lon": -77.04056583333333, "bike_id": "79738dafcbb11ae5e7f7357f4ef05e81", "type": "electric_scooter", "name": "79738dafcbb11ae5e7f7357f4ef05e81"}, {"is_disabled": 0, "is_reserved": 0, "fusion_lat": 0.0, "lat": 38.90002783333333, "fusion_lon": 0.0, "rental_uris": {"ios": "https://dc.lft.to/lastmile_qr_scan", "android": "https://dc.lft.to/lastmile_qr_scan"}, "lon": -76.9448685, "bike_id": "0dcf76d71a5d4c5199b2ec339e9514b0", "type": "electric_bike", "name": "0dcf76d71a5d4c5199b2ec339e9514b0"}, {"is_disabled": 0, "is_reserved": 0, "fusion_lat": 0.0, "lat": 38.925988833333335, "fusion_lon": 0.0, "rental_uris": {"ios": "https://dc.lft.to/lastmile_qr_scan", "android": "https://dc.lft.to/lastmile_qr_scan"}, "lon": -77.05307633333334, "bike_id": "3f0b94070263037a7c4ab69593e0cf9d", "type": "electric_scooter", "name": "3f0b94070263037a7c4ab69593e0cf9d"}, {"is_disabled": 0, "is_reserved": 0, "fusion_lat": 0.0, "lat": 38.91685233333333, "fusion_lon": 0.0, "rental_uris": {"ios": "https://dc.lft.to/lastmile_qr_scan", "android": "https://dc.lft.to/lastmile_qr_scan"}, "lon": -77.02940433333333, "bike_id": "4cfb6412d59ac43c9a629d9939483778", "type": "electric_scooter", "name": "4cfb6412d59ac43c9a629d9939483778"}, {"is_disabled": 0, "is_reserved": 0, "fusion_lat": 0.0, "lat": 38.91472266666667, "fusion_lon": 0.0, "rental_uris": {"ios": "https://dc.lft.to/lastmile_qr_scan", "android": "https://dc.lft.to/lastmile_qr_scan"}, "lon": -77.00919033333334, "bike_id": "eb5b1adc478b640ce1f86f3f75aeb5ce", "type": "electric_scooter", "name": "eb5b1adc478b640ce1f86f3f75aeb5ce"}, {"is_disabled": 0, "is_reserved": 0, "fusion_lat": 0.0, "lat": 38.914183333333334, "fusion_lon": 0.0, "rental_uris": {"ios": "https://dc.lft.to/lastmile_qr_scan", "android": "https://dc.lft.to/lastmile_qr_scan"}, "lon": -77.05215, "bike_id": "4855b311bc2e8b8ff86b40a1dc891f38", "type": "electric_scooter", "name": "4855b311bc2e8b8ff86b40a1dc891f38"}, {"is_disabled": 0, "is_reserved": 0, "fusion_lat": 0.0, "lat": 38.886185833333336, "fusion_lon": 0.0, "rental_uris": {"ios": "https://dc.lft.to/lastmile_qr_scan", "android": "https://dc.lft.to/lastmile_qr_scan"}, "lon": -76.92636683333333, "bike_id": "250d733022e86edcd78ba08d452cc4e8", "type": "electric_scooter", "name": "250d733022e86edcd78ba08d452cc4e8"}, {"is_disabled": 0, "is_reserved": 0, "fusion_lat": 0.0, "lat": 38.94329483333333, "fusion_lon": 0.0, "rental_uris": {"ios": "https://dc.lft.to/lastmile_qr_scan", "android": "https://dc.lft.to/lastmile_qr_scan"}, "lon": -77.026925, "bike_id": "d56c8e9bb3bfbad4b46bfa22f6a606bf", "type": "electric_scooter", "name": "d56c8e9bb3bfbad4b46bfa22f6a606bf"}, {"is_disabled": 0, "is_reserved": 0, "fusion_lat": 0.0, "lat": 38.90508333333333, "fusion_lon": 0.0, "rental_uris": {"ios": "https://dc.lft.to/lastmile_qr_scan", "android": "https://dc.lft.to/lastmile_qr_scan"}, "lon": -76.952025, "bike_id": "d8cb84415fb6870a9a4c4a82331e5a38", "type": "electric_scooter", "name": "d8cb84415fb6870a9a4c4a82331e5a38"}, {"is_disabled": 0, "is_reserved": 0, "fusion_lat": 0.0, "lat": 39.026445, "fusion_lon": 0.0, "rental_uris": {"ios": "https://dc.lft.to/lastmile_qr_scan", "android": "https://dc.lft.to/lastmile_qr_scan"}, "lon": -77.036871, "bike_id": "7fba9dc838e19ce87820645c0a9aa7b2", "type": "electric_bike", "name": "7fba9dc838e19ce87820645c0a9aa7b2"}, {"is_disabled": 0, "is_reserved": 0, "fusion_lat": 0.0, "lat": 38.923627333333336, "fusion_lon": 0.0, "rental_uris": {"ios": "https://dc.lft.to/lastmile_qr_scan", "android": "https://dc.lft.to/lastmile_qr_scan"}, "lon": -77.02138916666667, "bike_id": "0825871cdff6c18b891578ca3daa9f0c", "type": "electric_scooter", "name": "0825871cdff6c18b891578ca3daa9f0c"}, {"is_disabled": 0, "is_reserved": 0, "fusion_lat": 0.0, "lat": 38.91573833333333, "fusion_lon": 0.0, "rental_uris": {"ios": "https://dc.lft.to/lastmile_qr_scan", "android": "https://dc.lft.to/lastmile_qr_scan"}, "lon": -77.02003633333334, "bike_id": "a9f15436d722849018550c4089a124f7", "type": "electric_scooter", "name": "a9f15436d722849018550c4089a124f7"}, {"is_disabled": 0, "is_reserved": 0, "fusion_lat": 0.0, "lat": 38.82921316666667, "fusion_lon": 0.0, "rental_uris": {"ios": "https://dc.lft.to/lastmile_qr_scan", "android": "https://dc.lft.to/lastmile_qr_scan"}, "lon": -77.06874466666666, "bike_id": "35d580d4ffcd1b77655b7ed0a089a05c", "type": "electric_bike", "name": "35d580d4ffcd1b77655b7ed0a089a05c"}, {"is_disabled": 0, "is_reserved": 0, "fusion_lat": 0.0, "lat": 38.8990625, "fusion_lon": 0.0, "rental_uris": {"ios": "https://dc.lft.to/lastmile_qr_scan", "android": "https://dc.lft.to/lastmile_qr_scan"}, "lon": -76.93402233333333, "bike_id": "cd343b453ae48191f0ff403d3eb7d00d", "type": "electric_scooter", "name": "cd343b453ae48191f0ff403d3eb7d00d"}, {"is_disabled": 0, "is_reserved": 0, "fusion_lat": 0.0, "lat": 38.905742000000004, "fusion_lon": 0.0, "rental_uris": {"ios": "https://dc.lft.to/lastmile_qr_scan", "android": "https://dc.lft.to/lastmile_qr_scan"}, "lon": -77.048637, "bike_id": "c011bb4d647246333b7cc17fba365002", "type": "electric_scooter", "name": "c011bb4d647246333b7cc17fba365002"}, {"is_disabled": 0, "is_reserved": 0, "fusion_lat": 0.0, "lat": 38.8921715, "fusion_lon": 0.0, "rental_uris": {"ios": "https://dc.lft.to/lastmile_qr_scan", "android": "https://dc.lft.to/lastmile_qr_scan"}, "lon": -77.031635, "bike_id": "d8d80378895a4e1584c6690462bf4b48", "type": "electric_scooter", "name": "d8d80378895a4e1584c6690462bf4b48"}, {"is_disabled": 0, "is_reserved": 0, "fusion_lat": 0.0, "lat": 38.9106535, "fusion_lon": 0.0, "rental_uris": {"ios": "https://dc.lft.to/lastmile_qr_scan", "android": "https://dc.lft.to/lastmile_qr_scan"}, "lon": -77.04090266666667, "bike_id": "6a724d79ad34c59da29b3f52f081c628", "type": "electric_scooter", "name": "6a724d79ad34c59da29b3f52f081c628"}, {"is_disabled": 0, "is_reserved": 0, "fusion_lat": 0.0, "lat": 38.92359316666667, "fusion_lon": 0.0, "rental_uris": {"ios": "https://dc.lft.to/lastmile_qr_scan", "android": "https://dc.lft.to/lastmile_qr_scan"}, "lon": -77.043218, "bike_id": "c0981b441e49400e2a9a0b8422fa16a9", "type": "electric_scooter", "name": "c0981b441e49400e2a9a0b8422fa16a9"}, {"is_disabled": 0, "is_reserved": 0, "fusion_lat": 0.0, "lat": 38.892398, "fusion_lon": 0.0, "rental_uris": {"ios": "https://dc.lft.to/lastmile_qr_scan", "android": "https://dc.lft.to/lastmile_qr_scan"}, "lon": -77.0487145, "bike_id": "d9d2163e13c2211a54cde5021de6cae9", "type": "electric_scooter", "name": "d9d2163e13c2211a54cde5021de6cae9"}, {"is_disabled": 0, "is_reserved": 0, "fusion_lat": 0.0, "lat": 38.90143966666667, "fusion_lon": 0.0, "rental_uris": {"ios": "https://dc.lft.to/lastmile_qr_scan", "android": "https://dc.lft.to/lastmile_qr_scan"}, "lon": -76.97420066666666, "bike_id": "6a39fbadf913f3bb5dc4c62f12bb45c8", "type": "electric_scooter", "name": "6a39fbadf913f3bb5dc4c62f12bb45c8"}, {"is_disabled": 0, "is_reserved": 0, "fusion_lat": 0.0, "lat": 38.92873616666667, "fusion_lon": 0.0, "rental_uris": {"ios": "https://dc.lft.to/lastmile_qr_scan", "android": "https://dc.lft.to/lastmile_qr_scan"}, "lon": -77.05658116666666, "bike_id": "222730ea4153b088e6f5827dc0cfe60b", "type": "electric_scooter", "name": "222730ea4153b088e6f5827dc0cfe60b"}, {"is_disabled": 0, "is_reserved": 0, "fusion_lat": 0.0, "lat": 38.92256283333333, "fusion_lon": 0.0, "rental_uris": {"ios": "https://dc.lft.to/lastmile_qr_scan", "android": "https://dc.lft.to/lastmile_qr_scan"}, "lon": -77.07276883333333, "bike_id": "dd9541f585427a9955a3ee0954a729ea", "type": "electric_scooter", "name": "dd9541f585427a9955a3ee0954a729ea"}, {"is_disabled": 0, "is_reserved": 0, "fusion_lat": 0.0, "lat": 38.88042733333333, "fusion_lon": 0.0, "rental_uris": {"ios": "https://dc.lft.to/lastmile_qr_scan", "android": "https://dc.lft.to/lastmile_qr_scan"}, "lon": -76.92719633333333, "bike_id": "6e970bff505cba23005435805434a9ea", "type": "electric_scooter", "name": "6e970bff505cba23005435805434a9ea"}, {"is_disabled": 0, "is_reserved": 0, "fusion_lat": 0.0, "lat": 38.92355416666667, "fusion_lon": 0.0, "rental_uris": {"ios": "https://dc.lft.to/lastmile_qr_scan", "android": "https://dc.lft.to/lastmile_qr_scan"}, "lon": -77.0731115, "bike_id": "dbbb7746e7d5397f696263895a4ba9a2", "type": "electric_scooter", "name": "dbbb7746e7d5397f696263895a4ba9a2"}, {"is_disabled": 0, "is_reserved": 0, "fusion_lat": 0.0, "lat": 38.92397533333333, "fusion_lon": 0.0, "rental_uris": {"ios": "https://dc.lft.to/lastmile_qr_scan", "android": "https://dc.lft.to/lastmile_qr_scan"}, "lon": -76.99372383333333, "bike_id": "1d4e9bf5ddd1927a9228e6a8a17d24d2", "type": "electric_scooter", "name": "1d4e9bf5ddd1927a9228e6a8a17d24d2"}, {"is_disabled": 0, "is_reserved": 0, "fusion_lat": 0.0, "lat": 38.892067, "fusion_lon": 0.0, "rental_uris": {"ios": "https://dc.lft.to/lastmile_qr_scan", "android": "https://dc.lft.to/lastmile_qr_scan"}, "lon": -76.998406, "bike_id": "0e8286b14b0f2636edbf44ad50f83539", "type": "electric_scooter", "name": "0e8286b14b0f2636edbf44ad50f83539"}, {"is_disabled": 0, "is_reserved": 0, "fusion_lat": 0.0, "lat": 38.93698083333334, "fusion_lon": 0.0, "rental_uris": {"ios": "https://dc.lft.to/lastmile_qr_scan", "android": "https://dc.lft.to/lastmile_qr_scan"}, "lon": -77.05600066666666, "bike_id": "a0fa2b52475bfd8f20457a33ed2af93a", "type": "electric_scooter", "name": "a0fa2b52475bfd8f20457a33ed2af93a"}, {"is_disabled": 0, "is_reserved": 0, "fusion_lat": 0.0, "lat": 38.92659833333333, "fusion_lon": 0.0, "rental_uris": {"ios": "https://dc.lft.to/lastmile_qr_scan", "android": "https://dc.lft.to/lastmile_qr_scan"}, "lon": -77.02452033333333, "bike_id": "d7817d7b604da477a28ef715a20d934b", "type": "electric_scooter", "name": "d7817d7b604da477a28ef715a20d934b"}, {"is_disabled": 0, "is_reserved": 0, "fusion_lat": 0.0, "lat": 38.93118283333333, "fusion_lon": 0.0, "rental_uris": {"ios": "https://dc.lft.to/lastmile_qr_scan", "android": "https://dc.lft.to/lastmile_qr_scan"}, "lon": -77.02068366666667, "bike_id": "7447f91916212e266d953608f14e8aa5", "type": "electric_scooter", "name": "7447f91916212e266d953608f14e8aa5"}, {"is_disabled": 0, "is_reserved": 0, "fusion_lat": 0.0, "lat": 38.91857366666667, "fusion_lon": 0.0, "rental_uris": {"ios": "https://dc.lft.to/lastmile_qr_scan", "android": "https://dc.lft.to/lastmile_qr_scan"}, "lon": -77.04450366666667, "bike_id": "84616905cf3933733f266828587b169e", "type": "electric_scooter", "name": "84616905cf3933733f266828587b169e"}, {"is_disabled": 0, "is_reserved": 0, "fusion_lat": 0.0, "lat": 38.90793683333333, "fusion_lon": 0.0, "rental_uris": {"ios": "https://dc.lft.to/lastmile_qr_scan", "android": "https://dc.lft.to/lastmile_qr_scan"}, "lon": -77.04990466666666, "bike_id": "50f5a1e67c7f94d1a18e047221fabe45", "type": "electric_scooter", "name": "50f5a1e67c7f94d1a18e047221fabe45"}, {"is_disabled": 0, "is_reserved": 0, "fusion_lat": 0.0, "lat": 38.91198933333333, "fusion_lon": 0.0, "rental_uris": {"ios": "https://dc.lft.to/lastmile_qr_scan", "android": "https://dc.lft.to/lastmile_qr_scan"}, "lon": -77.0602545, "bike_id": "243ddafc673c565619ae85f9c2fa52db", "type": "electric_bike", "name": "243ddafc673c565619ae85f9c2fa52db"}, {"is_disabled": 0, "is_reserved": 0, "fusion_lat": 0.0, "lat": 38.892892333333336, "fusion_lon": 0.0, "rental_uris": {"ios": "https://dc.lft.to/lastmile_qr_scan", "android": "https://dc.lft.to/lastmile_qr_scan"}, "lon": -76.97617633333333, "bike_id": "5b0cc59e4fff17a36e6c130412a2e133", "type": "electric_bike", "name": "5b0cc59e4fff17a36e6c130412a2e133"}, {"is_disabled": 0, "is_reserved": 0, "fusion_lat": 0.0, "lat": 38.91986516666667, "fusion_lon": 0.0, "rental_uris": {"ios": "https://dc.lft.to/lastmile_qr_scan", "android": "https://dc.lft.to/lastmile_qr_scan"}, "lon": -77.0416995, "bike_id": "f76a021637be27f5687003a5d5c563d2", "type": "electric_scooter", "name": "f76a021637be27f5687003a5d5c563d2"}, {"is_disabled": 0, "is_reserved": 0, "fusion_lat": 0.0, "lat": 38.919514666666664, "fusion_lon": 0.0, "rental_uris": {"ios": "https://dc.lft.to/lastmile_qr_scan", "android": "https://dc.lft.to/lastmile_qr_scan"}, "lon": -77.014052, "bike_id": "cba7c5a8acd303b1199783b25d9c657d", "type": "electric_scooter", "name": "cba7c5a8acd303b1199783b25d9c657d"}, {"is_disabled": 0, "is_reserved": 0, "fusion_lat": 0.0, "lat": 38.9155565, "fusion_lon": 0.0, "rental_uris": {"ios": "https://dc.lft.to/lastmile_qr_scan", "android": "https://dc.lft.to/lastmile_qr_scan"}, "lon": -77.02167333333334, "bike_id": "1857118549d18d012e4aaf15a033f724", "type": "electric_scooter", "name": "1857118549d18d012e4aaf15a033f724"}, {"is_disabled": 0, "is_reserved": 0, "fusion_lat": 0.0, "lat": 38.92691466666667, "fusion_lon": 0.0, "rental_uris": {"ios": "https://dc.lft.to/lastmile_qr_scan", "android": "https://dc.lft.to/lastmile_qr_scan"}, "lon": -77.02279533333333, "bike_id": "ae8cca377c396c08f280283b9eb4b91c", "type": "electric_scooter", "name": "ae8cca377c396c08f280283b9eb4b91c"}, {"is_disabled": 0, "is_reserved": 0, "fusion_lat": 0.0, "lat": 38.929063166666666, "fusion_lon": 0.0, "rental_uris": {"ios": "https://dc.lft.to/lastmile_qr_scan", "android": "https://dc.lft.to/lastmile_qr_scan"}, "lon": -77.05979816666667, "bike_id": "1268686fdf6f67eaf769bce63cb987c5", "type": "electric_scooter", "name": "1268686fdf6f67eaf769bce63cb987c5"}, {"is_disabled": 0, "is_reserved": 0, "fusion_lat": 0.0, "lat": 38.89194083333334, "fusion_lon": 0.0, "rental_uris": {"ios": "https://dc.lft.to/lastmile_qr_scan", "android": "https://dc.lft.to/lastmile_qr_scan"}, "lon": -77.02229966666667, "bike_id": "987c37773adfcd9a45f7caddf5b5728f", "type": "electric_scooter", "name": "987c37773adfcd9a45f7caddf5b5728f"}, {"is_disabled": 0, "is_reserved": 0, "fusion_lat": 0.0, "lat": 38.92298816666667, "fusion_lon": 0.0, "rental_uris": {"ios": "https://dc.lft.to/lastmile_qr_scan", "android": "https://dc.lft.to/lastmile_qr_scan"}, "lon": -77.04151683333333, "bike_id": "5c35345c63d3f81f9dfbe2bc34adaaf4", "type": "electric_scooter", "name": "5c35345c63d3f81f9dfbe2bc34adaaf4"}, {"is_disabled": 0, "is_reserved": 0, "fusion_lat": 0.0, "lat": 38.9191145, "fusion_lon": 0.0, "rental_uris": {"ios": "https://dc.lft.to/lastmile_qr_scan", "android": "https://dc.lft.to/lastmile_qr_scan"}, "lon": -77.02531433333333, "bike_id": "9da6c7e2af0d06f1aeb52800da8a8df4", "type": "electric_scooter", "name": "9da6c7e2af0d06f1aeb52800da8a8df4"}, {"is_disabled": 0, "is_reserved": 0, "fusion_lat": 0.0, "lat": 38.899486, "fusion_lon": 0.0, "rental_uris": {"ios": "https://dc.lft.to/lastmile_qr_scan", "android": "https://dc.lft.to/lastmile_qr_scan"}, "lon": -77.0161845, "bike_id": "d36a3d18164a9e9aa27f926b83c6536c", "type": "electric_scooter", "name": "d36a3d18164a9e9aa27f926b83c6536c"}, {"is_disabled": 0, "is_reserved": 0, "fusion_lat": 0.0, "lat": 38.91063166666667, "fusion_lon": 0.0, "rental_uris": {"ios": "https://dc.lft.to/lastmile_qr_scan", "android": "https://dc.lft.to/lastmile_qr_scan"}, "lon": -77.019926, "bike_id": "04641ad519f1bb880b0d98a3ca7f5cb0", "type": "electric_scooter", "name": "04641ad519f1bb880b0d98a3ca7f5cb0"}, {"is_disabled": 0, "is_reserved": 0, "fusion_lat": 0.0, "lat": 38.89675833333333, "fusion_lon": 0.0, "rental_uris": {"ios": "https://dc.lft.to/lastmile_qr_scan", "android": "https://dc.lft.to/lastmile_qr_scan"}, "lon": -77.05468483333334, "bike_id": "c5acf9d09e0de713beb9e514949971ed", "type": "electric_scooter", "name": "c5acf9d09e0de713beb9e514949971ed"}, {"is_disabled": 0, "is_reserved": 0, "fusion_lat": 0.0, "lat": 38.807668, "fusion_lon": 0.0, "rental_uris": {"ios": "https://dc.lft.to/lastmile_qr_scan", "android": "https://dc.lft.to/lastmile_qr_scan"}, "lon": -77.057425, "bike_id": "938254bfd7b4378e63cc34881dc8fcef", "type": "electric_bike", "name": "938254bfd7b4378e63cc34881dc8fcef"}, {"is_disabled": 0, "is_reserved": 0, "fusion_lat": 0.0, "lat": 38.90224883333333, "fusion_lon": 0.0, "rental_uris": {"ios": "https://dc.lft.to/lastmile_qr_scan", "android": "https://dc.lft.to/lastmile_qr_scan"}, "lon": -77.01741116666666, "bike_id": "7b321be802e39e2b7139f603ac0a0211", "type": "electric_scooter", "name": "7b321be802e39e2b7139f603ac0a0211"}, {"is_disabled": 0, "is_reserved": 0, "fusion_lat": 0.0, "lat": 38.905288666666664, "fusion_lon": 0.0, "rental_uris": {"ios": "https://dc.lft.to/lastmile_qr_scan", "android": "https://dc.lft.to/lastmile_qr_scan"}, "lon": -77.0069685, "bike_id": "184fa2578e43829fd01b3e059fb7e986", "type": "electric_scooter", "name": "184fa2578e43829fd01b3e059fb7e986"}, {"is_disabled": 0, "is_reserved": 0, "fusion_lat": 0.0, "lat": 38.88477783333333, "fusion_lon": 0.0, "rental_uris": {"ios": "https://dc.lft.to/lastmile_qr_scan", "android": "https://dc.lft.to/lastmile_qr_scan"}, "lon": -77.0265005, "bike_id": "91ff4087828a9a59ef00ee367bf7b612", "type": "electric_scooter", "name": "91ff4087828a9a59ef00ee367bf7b612"}, {"is_disabled": 0, "is_reserved": 0, "fusion_lat": 0.0, "lat": 38.897371666666665, "fusion_lon": 0.0, "rental_uris": {"ios": "https://dc.lft.to/lastmile_qr_scan", "android": "https://dc.lft.to/lastmile_qr_scan"}, "lon": -77.02101633333334, "bike_id": "f81af551588a0a2d8a3d4c6ba5e2c3fa", "type": "electric_scooter", "name": "f81af551588a0a2d8a3d4c6ba5e2c3fa"}, {"is_disabled": 0, "is_reserved": 0, "fusion_lat": 0.0, "lat": 38.949229, "fusion_lon": 0.0, "rental_uris": {"ios": "https://dc.lft.to/lastmile_qr_scan", "android": "https://dc.lft.to/lastmile_qr_scan"}, "lon": -77.02317283333333, "bike_id": "4003c56d537c5faf05ebcab7621adbf9", "type": "electric_scooter", "name": "4003c56d537c5faf05ebcab7621adbf9"}, {"is_disabled": 0, "is_reserved": 0, "fusion_lat": 0.0, "lat": 38.9049205, "fusion_lon": 0.0, "rental_uris": {"ios": "https://dc.lft.to/lastmile_qr_scan", "android": "https://dc.lft.to/lastmile_qr_scan"}, "lon": -76.9495995, "bike_id": "695ae0c73afa0f888732c49ab9bc6006", "type": "electric_scooter", "name": "695ae0c73afa0f888732c49ab9bc6006"}, {"is_disabled": 0, "is_reserved": 0, "fusion_lat": 0.0, "lat": 38.93903733333333, "fusion_lon": 0.0, "rental_uris": {"ios": "https://dc.lft.to/lastmile_qr_scan", "android": "https://dc.lft.to/lastmile_qr_scan"}, "lon": -77.0776105, "bike_id": "0c661ce1af82fc322527a524822090ff", "type": "electric_scooter", "name": "0c661ce1af82fc322527a524822090ff"}, {"is_disabled": 0, "is_reserved": 0, "fusion_lat": 0.0, "lat": 38.918364, "fusion_lon": 0.0, "rental_uris": {"ios": "https://dc.lft.to/lastmile_qr_scan", "android": "https://dc.lft.to/lastmile_qr_scan"}, "lon": -77.04179083333334, "bike_id": "6b5ec7cf9215a2ccf9eee576286e75ab", "type": "electric_scooter", "name": "6b5ec7cf9215a2ccf9eee576286e75ab"}, {"is_disabled": 0, "is_reserved": 0, "fusion_lat": 0.0, "lat": 38.86681766666667, "fusion_lon": 0.0, "rental_uris": {"ios": "https://dc.lft.to/lastmile_qr_scan", "android": "https://dc.lft.to/lastmile_qr_scan"}, "lon": -76.94853366666666, "bike_id": "900b101984a5c3626cfa75e153a897e2", "type": "electric_scooter", "name": "900b101984a5c3626cfa75e153a897e2"}, {"is_disabled": 0, "is_reserved": 0, "fusion_lat": 0.0, "lat": 38.896063833333336, "fusion_lon": 0.0, "rental_uris": {"ios": "https://dc.lft.to/lastmile_qr_scan", "android": "https://dc.lft.to/lastmile_qr_scan"}, "lon": -77.0454435, "bike_id": "050cfa0aa44826437f80ce43aaa3c2cd", "type": "electric_scooter", "name": "050cfa0aa44826437f80ce43aaa3c2cd"}, {"is_disabled": 0, "is_reserved": 0, "fusion_lat": 0.0, "lat": 38.92438833333333, "fusion_lon": 0.0, "rental_uris": {"ios": "https://dc.lft.to/lastmile_qr_scan", "android": "https://dc.lft.to/lastmile_qr_scan"}, "lon": -77.03406533333333, "bike_id": "1ac6ddecc60170e4466869017dbcecb8", "type": "electric_scooter", "name": "1ac6ddecc60170e4466869017dbcecb8"}, {"is_disabled": 0, "is_reserved": 0, "fusion_lat": 0.0, "lat": 38.85718, "fusion_lon": 0.0, "rental_uris": {"ios": "https://dc.lft.to/lastmile_qr_scan", "android": "https://dc.lft.to/lastmile_qr_scan"}, "lon": -76.98099683333334, "bike_id": "3d3d272edc646f29f857f5a1b3d25450", "type": "electric_scooter", "name": "3d3d272edc646f29f857f5a1b3d25450"}, {"is_disabled": 0, "is_reserved": 0, "fusion_lat": 0.0, "lat": 38.88885633333334, "fusion_lon": 0.0, "rental_uris": {"ios": "https://dc.lft.to/lastmile_qr_scan", "android": "https://dc.lft.to/lastmile_qr_scan"}, "lon": -77.03322083333333, "bike_id": "031b7eb08065f4de7fb306be51103ff3", "type": "electric_scooter", "name": "031b7eb08065f4de7fb306be51103ff3"}, {"is_disabled": 0, "is_reserved": 0, "fusion_lat": 0.0, "lat": 38.813332, "fusion_lon": 0.0, "rental_uris": {"ios": "https://dc.lft.to/lastmile_qr_scan", "android": "https://dc.lft.to/lastmile_qr_scan"}, "lon": -77.05087533333334, "bike_id": "f3c3b403e76859db94d18dddea6ffd42", "type": "electric_bike", "name": "f3c3b403e76859db94d18dddea6ffd42"}, {"is_disabled": 0, "is_reserved": 0, "fusion_lat": 0.0, "lat": 38.90921783333334, "fusion_lon": 0.0, "rental_uris": {"ios": "https://dc.lft.to/lastmile_qr_scan", "android": "https://dc.lft.to/lastmile_qr_scan"}, "lon": -77.02499483333334, "bike_id": "c019e93ac4cf74bbd4fe70a4b4236b58", "type": "electric_scooter", "name": "c019e93ac4cf74bbd4fe70a4b4236b58"}, {"is_disabled": 0, "is_reserved": 0, "fusion_lat": 0.0, "lat": 38.88133033333333, "fusion_lon": 0.0, "rental_uris": {"ios": "https://dc.lft.to/lastmile_qr_scan", "android": "https://dc.lft.to/lastmile_qr_scan"}, "lon": -77.027076, "bike_id": "a7180305e7522b9c38047f9e919034d9", "type": "electric_scooter", "name": "a7180305e7522b9c38047f9e919034d9"}, {"is_disabled": 0, "is_reserved": 0, "fusion_lat": 0.0, "lat": 38.98719416666667, "fusion_lon": 0.0, "rental_uris": {"ios": "https://dc.lft.to/lastmile_qr_scan", "android": "https://dc.lft.to/lastmile_qr_scan"}, "lon": -77.03755316666667, "bike_id": "96f15d732321e21c1b2b85fbf15beb1e", "type": "electric_bike", "name": "96f15d732321e21c1b2b85fbf15beb1e"}, {"is_disabled": 0, "is_reserved": 0, "fusion_lat": 0.0, "lat": 38.84289016666666, "fusion_lon": 0.0, "rental_uris": {"ios": "https://dc.lft.to/lastmile_qr_scan", "android": "https://dc.lft.to/lastmile_qr_scan"}, "lon": -77.063828, "bike_id": "389e03aaeef6e925ba3d6b7d1ae8e0ed", "type": "electric_bike", "name": "389e03aaeef6e925ba3d6b7d1ae8e0ed"}, {"is_disabled": 0, "is_reserved": 0, "fusion_lat": 0.0, "lat": 38.975970833333335, "fusion_lon": 0.0, "rental_uris": {"ios": "https://dc.lft.to/lastmile_qr_scan", "android": "https://dc.lft.to/lastmile_qr_scan"}, "lon": -77.0187125, "bike_id": "0a9776950031b372bb2c1e5f3e2478ec", "type": "electric_scooter", "name": "0a9776950031b372bb2c1e5f3e2478ec"}, {"is_disabled": 0, "is_reserved": 0, "fusion_lat": 0.0, "lat": 38.90029783333333, "fusion_lon": 0.0, "rental_uris": {"ios": "https://dc.lft.to/lastmile_qr_scan", "android": "https://dc.lft.to/lastmile_qr_scan"}, "lon": -76.98831383333334, "bike_id": "1bc5ef8d3cf152293c4fce3506fdc744", "type": "electric_scooter", "name": "1bc5ef8d3cf152293c4fce3506fdc744"}, {"is_disabled": 0, "is_reserved": 0, "fusion_lat": 0.0, "lat": 38.934130833333334, "fusion_lon": 0.0, "rental_uris": {"ios": "https://dc.lft.to/lastmile_qr_scan", "android": "https://dc.lft.to/lastmile_qr_scan"}, "lon": -77.02523883333333, "bike_id": "78eb36c1021e87d49d6914d7ce883463", "type": "electric_bike", "name": "78eb36c1021e87d49d6914d7ce883463"}, {"is_disabled": 0, "is_reserved": 0, "fusion_lat": 0.0, "lat": 38.903145333333335, "fusion_lon": 0.0, "rental_uris": {"ios": "https://dc.lft.to/lastmile_qr_scan", "android": "https://dc.lft.to/lastmile_qr_scan"}, "lon": -76.97549583333333, "bike_id": "97cfcd941c85c5454604dadfe5c5b7ee", "type": "electric_scooter", "name": "97cfcd941c85c5454604dadfe5c5b7ee"}, {"is_disabled": 0, "is_reserved": 0, "fusion_lat": 0.0, "lat": 38.88037333333333, "fusion_lon": 0.0, "rental_uris": {"ios": "https://dc.lft.to/lastmile_qr_scan", "android": "https://dc.lft.to/lastmile_qr_scan"}, "lon": -76.92721583333334, "bike_id": "e2967ee7b594b0573cd1308a5db07e92", "type": "electric_scooter", "name": "e2967ee7b594b0573cd1308a5db07e92"}, {"is_disabled": 0, "is_reserved": 0, "fusion_lat": 0.0, "lat": 38.93244683333333, "fusion_lon": 0.0, "rental_uris": {"ios": "https://dc.lft.to/lastmile_qr_scan", "android": "https://dc.lft.to/lastmile_qr_scan"}, "lon": -76.99203433333334, "bike_id": "f978a9ab5a7dd1b05780bc1a4c11fd82", "type": "electric_scooter", "name": "f978a9ab5a7dd1b05780bc1a4c11fd82"}, {"is_disabled": 0, "is_reserved": 0, "fusion_lat": 0.0, "lat": 38.91960366666667, "fusion_lon": 0.0, "rental_uris": {"ios": "https://dc.lft.to/lastmile_qr_scan", "android": "https://dc.lft.to/lastmile_qr_scan"}, "lon": -77.02401683333333, "bike_id": "fc67beb1ee9ff30f0d294232b95c2a59", "type": "electric_scooter", "name": "fc67beb1ee9ff30f0d294232b95c2a59"}, {"is_disabled": 0, "is_reserved": 0, "fusion_lat": 0.0, "lat": 38.93930433333333, "fusion_lon": 0.0, "rental_uris": {"ios": "https://dc.lft.to/lastmile_qr_scan", "android": "https://dc.lft.to/lastmile_qr_scan"}, "lon": -77.025851, "bike_id": "55c15d381abce553d6ee796e6d72fc4b", "type": "electric_scooter", "name": "55c15d381abce553d6ee796e6d72fc4b"}, {"is_disabled": 0, "is_reserved": 0, "fusion_lat": 0.0, "lat": 38.918083, "fusion_lon": 0.0, "rental_uris": {"ios": "https://dc.lft.to/lastmile_qr_scan", "android": "https://dc.lft.to/lastmile_qr_scan"}, "lon": -77.03440366666666, "bike_id": "bcc0cbeb24d393995b837f699c05f6cc", "type": "electric_scooter", "name": "bcc0cbeb24d393995b837f699c05f6cc"}, {"is_disabled": 0, "is_reserved": 0, "fusion_lat": 0.0, "lat": 38.971532333333336, "fusion_lon": 0.0, "rental_uris": {"ios": "https://dc.lft.to/lastmile_qr_scan", "android": "https://dc.lft.to/lastmile_qr_scan"}, "lon": -76.98363216666667, "bike_id": "ff93c7634279628ff8856871796009d5", "type": "electric_bike", "name": "ff93c7634279628ff8856871796009d5"}, {"is_disabled": 0, "is_reserved": 0, "fusion_lat": 0.0, "lat": 38.916284833333336, "fusion_lon": 0.0, "rental_uris": {"ios": "https://dc.lft.to/lastmile_qr_scan", "android": "https://dc.lft.to/lastmile_qr_scan"}, "lon": -77.03974533333333, "bike_id": "4d803857c98bd6274e79fc4b3d376b27", "type": "electric_scooter", "name": "4d803857c98bd6274e79fc4b3d376b27"}, {"is_disabled": 0, "is_reserved": 0, "fusion_lat": 0.0, "lat": 38.92654266666667, "fusion_lon": 0.0, "rental_uris": {"ios": "https://dc.lft.to/lastmile_qr_scan", "android": "https://dc.lft.to/lastmile_qr_scan"}, "lon": -77.038472, "bike_id": "67c4cfcbc7b24dea8e46322e65b4a1ea", "type": "electric_scooter", "name": "67c4cfcbc7b24dea8e46322e65b4a1ea"}, {"is_disabled": 0, "is_reserved": 0, "fusion_lat": 0.0, "lat": 38.897084666666665, "fusion_lon": 0.0, "rental_uris": {"ios": "https://dc.lft.to/lastmile_qr_scan", "android": "https://dc.lft.to/lastmile_qr_scan"}, "lon": -76.93915833333334, "bike_id": "8d3f627cc67e6149a846086b702a36bb", "type": "electric_scooter", "name": "8d3f627cc67e6149a846086b702a36bb"}, {"is_disabled": 0, "is_reserved": 0, "fusion_lat": 0.0, "lat": 38.9264855, "fusion_lon": 0.0, "rental_uris": {"ios": "https://dc.lft.to/lastmile_qr_scan", "android": "https://dc.lft.to/lastmile_qr_scan"}, "lon": -77.09018633333334, "bike_id": "c8f43e582816f0c3c73264bd6f81bd6e", "type": "electric_bike", "name": "c8f43e582816f0c3c73264bd6f81bd6e"}, {"is_disabled": 0, "is_reserved": 0, "fusion_lat": 0.0, "lat": 38.923303833333335, "fusion_lon": 0.0, "rental_uris": {"ios": "https://dc.lft.to/lastmile_qr_scan", "android": "https://dc.lft.to/lastmile_qr_scan"}, "lon": -77.03667733333333, "bike_id": "7cfdadff08d29f780f9ce3369bb3eec3", "type": "electric_scooter", "name": "7cfdadff08d29f780f9ce3369bb3eec3"}, {"is_disabled": 0, "is_reserved": 0, "fusion_lat": 0.0, "lat": 38.904698833333335, "fusion_lon": 0.0, "rental_uris": {"ios": "https://dc.lft.to/lastmile_qr_scan", "android": "https://dc.lft.to/lastmile_qr_scan"}, "lon": -77.05925516666667, "bike_id": "57d2ae0ad379856c9e414667bfd6e99d", "type": "electric_scooter", "name": "57d2ae0ad379856c9e414667bfd6e99d"}, {"is_disabled": 0, "is_reserved": 0, "fusion_lat": 0.0, "lat": 38.8956545, "fusion_lon": 0.0, "rental_uris": {"ios": "https://dc.lft.to/lastmile_qr_scan", "android": "https://dc.lft.to/lastmile_qr_scan"}, "lon": -77.12733533333333, "bike_id": "aaa1535e0f5c132fe6b88da72ed8ba93", "type": "electric_bike", "name": "aaa1535e0f5c132fe6b88da72ed8ba93"}, {"is_disabled": 0, "is_reserved": 0, "fusion_lat": 0.0, "lat": 38.9115535, "fusion_lon": 0.0, "rental_uris": {"ios": "https://dc.lft.to/lastmile_qr_scan", "android": "https://dc.lft.to/lastmile_qr_scan"}, "lon": -77.01095333333333, "bike_id": "54392c51e1e2de068011674de664d3a5", "type": "electric_scooter", "name": "54392c51e1e2de068011674de664d3a5"}, {"is_disabled": 0, "is_reserved": 0, "fusion_lat": 0.0, "lat": 38.900277333333335, "fusion_lon": 0.0, "rental_uris": {"ios": "https://dc.lft.to/lastmile_qr_scan", "android": "https://dc.lft.to/lastmile_qr_scan"}, "lon": -77.0021575, "bike_id": "c3126ebbcb748c29dbbf498f12e2d7bd", "type": "electric_scooter", "name": "c3126ebbcb748c29dbbf498f12e2d7bd"}, {"is_disabled": 0, "is_reserved": 0, "fusion_lat": 0.0, "lat": 38.9170495, "fusion_lon": 0.0, "rental_uris": {"ios": "https://dc.lft.to/lastmile_qr_scan", "android": "https://dc.lft.to/lastmile_qr_scan"}, "lon": -77.03954366666666, "bike_id": "857c036ecbf37152f9ae7bf3a7cdbd9e", "type": "electric_scooter", "name": "857c036ecbf37152f9ae7bf3a7cdbd9e"}, {"is_disabled": 0, "is_reserved": 0, "fusion_lat": 0.0, "lat": 38.89388866666667, "fusion_lon": 0.0, "rental_uris": {"ios": "https://dc.lft.to/lastmile_qr_scan", "android": "https://dc.lft.to/lastmile_qr_scan"}, "lon": -77.04433966666667, "bike_id": "eea6c53aaa33308534b196015bb369bd", "type": "electric_scooter", "name": "eea6c53aaa33308534b196015bb369bd"}, {"is_disabled": 0, "is_reserved": 0, "fusion_lat": 0.0, "lat": 38.905007166666664, "fusion_lon": 0.0, "rental_uris": {"ios": "https://dc.lft.to/lastmile_qr_scan", "android": "https://dc.lft.to/lastmile_qr_scan"}, "lon": -77.0657095, "bike_id": "d0ec53f96c5a51735a15f76b06982912", "type": "electric_scooter", "name": "d0ec53f96c5a51735a15f76b06982912"}, {"is_disabled": 0, "is_reserved": 0, "fusion_lat": 0.0, "lat": 38.915516833333335, "fusion_lon": 0.0, "rental_uris": {"ios": "https://dc.lft.to/lastmile_qr_scan", "android": "https://dc.lft.to/lastmile_qr_scan"}, "lon": -77.04179616666667, "bike_id": "2f074ad9f200e562c2a3596a1b31665e", "type": "electric_scooter", "name": "2f074ad9f200e562c2a3596a1b31665e"}, {"is_disabled": 0, "is_reserved": 0, "fusion_lat": 0.0, "lat": 38.879245166666664, "fusion_lon": 0.0, "rental_uris": {"ios": "https://dc.lft.to/lastmile_qr_scan", "android": "https://dc.lft.to/lastmile_qr_scan"}, "lon": -77.02147766666667, "bike_id": "7529709b628d36d9753a542991fa6985", "type": "electric_scooter", "name": "7529709b628d36d9753a542991fa6985"}, {"is_disabled": 0, "is_reserved": 0, "fusion_lat": 0.0, "lat": 38.9578175, "fusion_lon": 0.0, "rental_uris": {"ios": "https://dc.lft.to/lastmile_qr_scan", "android": "https://dc.lft.to/lastmile_qr_scan"}, "lon": -77.0241395, "bike_id": "0df0da1a79b83640151550ed41801e57", "type": "electric_scooter", "name": "0df0da1a79b83640151550ed41801e57"}, {"is_disabled": 0, "is_reserved": 0, "fusion_lat": 0.0, "lat": 38.921519, "fusion_lon": 0.0, "rental_uris": {"ios": "https://dc.lft.to/lastmile_qr_scan", "android": "https://dc.lft.to/lastmile_qr_scan"}, "lon": -77.035104, "bike_id": "3ba2b2dbe0a79eb0c81003ed39920e88", "type": "electric_scooter", "name": "3ba2b2dbe0a79eb0c81003ed39920e88"}, {"is_disabled": 0, "is_reserved": 0, "fusion_lat": 0.0, "lat": 38.91515033333334, "fusion_lon": 0.0, "rental_uris": {"ios": "https://dc.lft.to/lastmile_qr_scan", "android": "https://dc.lft.to/lastmile_qr_scan"}, "lon": -77.01844083333333, "bike_id": "b667c546e633d39da659be85d65b7c1b", "type": "electric_scooter", "name": "b667c546e633d39da659be85d65b7c1b"}, {"is_disabled": 0, "is_reserved": 0, "fusion_lat": 0.0, "lat": 38.9176875, "fusion_lon": 0.0, "rental_uris": {"ios": "https://dc.lft.to/lastmile_qr_scan", "android": "https://dc.lft.to/lastmile_qr_scan"}, "lon": -77.02215166666667, "bike_id": "ea1ca89acf167d846e3b5570250d5f23", "type": "electric_scooter", "name": "ea1ca89acf167d846e3b5570250d5f23"}, {"is_disabled": 0, "is_reserved": 0, "fusion_lat": 0.0, "lat": 38.92969166666666, "fusion_lon": 0.0, "rental_uris": {"ios": "https://dc.lft.to/lastmile_qr_scan", "android": "https://dc.lft.to/lastmile_qr_scan"}, "lon": -77.02820516666667, "bike_id": "72b0192184d53aa982a2673f217fd07f", "type": "electric_scooter", "name": "72b0192184d53aa982a2673f217fd07f"}, {"is_disabled": 0, "is_reserved": 0, "fusion_lat": 0.0, "lat": 38.92172216666667, "fusion_lon": 0.0, "rental_uris": {"ios": "https://dc.lft.to/lastmile_qr_scan", "android": "https://dc.lft.to/lastmile_qr_scan"}, "lon": -77.0268205, "bike_id": "9be51beb228ee061394e2fdc77c090a0", "type": "electric_scooter", "name": "9be51beb228ee061394e2fdc77c090a0"}, {"is_disabled": 0, "is_reserved": 0, "fusion_lat": 0.0, "lat": 38.906431833333336, "fusion_lon": 0.0, "rental_uris": {"ios": "https://dc.lft.to/lastmile_qr_scan", "android": "https://dc.lft.to/lastmile_qr_scan"}, "lon": -77.06898533333333, "bike_id": "c9e2d242baaee34253ea8d030729f39f", "type": "electric_scooter", "name": "c9e2d242baaee34253ea8d030729f39f"}, {"is_disabled": 0, "is_reserved": 0, "fusion_lat": 0.0, "lat": 38.996688, "fusion_lon": 0.0, "rental_uris": {"ios": "https://dc.lft.to/lastmile_qr_scan", "android": "https://dc.lft.to/lastmile_qr_scan"}, "lon": -77.03785416666666, "bike_id": "a2cf77afc820eed67dc03c41159db323", "type": "electric_bike", "name": "a2cf77afc820eed67dc03c41159db323"}, {"is_disabled": 0, "is_reserved": 0, "fusion_lat": 0.0, "lat": 38.9286265, "fusion_lon": 0.0, "rental_uris": {"ios": "https://dc.lft.to/lastmile_qr_scan", "android": "https://dc.lft.to/lastmile_qr_scan"}, "lon": -77.07341583333333, "bike_id": "7043f6db57892bd15c213e12d4f2a131", "type": "electric_scooter", "name": "7043f6db57892bd15c213e12d4f2a131"}, {"is_disabled": 0, "is_reserved": 0, "fusion_lat": 0.0, "lat": 38.907295500000004, "fusion_lon": 0.0, "rental_uris": {"ios": "https://dc.lft.to/lastmile_qr_scan", "android": "https://dc.lft.to/lastmile_qr_scan"}, "lon": -77.03080416666667, "bike_id": "ab5fedd85177bc3d1bf24f806eb584a0", "type": "electric_scooter", "name": "ab5fedd85177bc3d1bf24f806eb584a0"}, {"is_disabled": 0, "is_reserved": 0, "fusion_lat": 0.0, "lat": 38.94588683333333, "fusion_lon": 0.0, "rental_uris": {"ios": "https://dc.lft.to/lastmile_qr_scan", "android": "https://dc.lft.to/lastmile_qr_scan"}, "lon": -77.020343, "bike_id": "09d7372eaffe399b5d04ebb3878a26e6", "type": "electric_scooter", "name": "09d7372eaffe399b5d04ebb3878a26e6"}, {"is_disabled": 0, "is_reserved": 0, "fusion_lat": 0.0, "lat": 38.89902633333333, "fusion_lon": 0.0, "rental_uris": {"ios": "https://dc.lft.to/lastmile_qr_scan", "android": "https://dc.lft.to/lastmile_qr_scan"}, "lon": -76.9895965, "bike_id": "e7976922de17f55d167ed09f82bdebcc", "type": "electric_bike", "name": "e7976922de17f55d167ed09f82bdebcc"}, {"is_disabled": 0, "is_reserved": 0, "fusion_lat": 0.0, "lat": 38.9510285, "fusion_lon": 0.0, "rental_uris": {"ios": "https://dc.lft.to/lastmile_qr_scan", "android": "https://dc.lft.to/lastmile_qr_scan"}, "lon": -77.01576866666667, "bike_id": "2cfaad8e4d9cb2625e4c50e50247e829", "type": "electric_scooter", "name": "2cfaad8e4d9cb2625e4c50e50247e829"}, {"is_disabled": 0, "is_reserved": 0, "fusion_lat": 0.0, "lat": 38.912688833333334, "fusion_lon": 0.0, "rental_uris": {"ios": "https://dc.lft.to/lastmile_qr_scan", "android": "https://dc.lft.to/lastmile_qr_scan"}, "lon": -77.044838, "bike_id": "187a72d27cc8d7792fbe8f90fe9123d3", "type": "electric_scooter", "name": "187a72d27cc8d7792fbe8f90fe9123d3"}, {"is_disabled": 0, "is_reserved": 0, "fusion_lat": 0.0, "lat": 38.906868, "fusion_lon": 0.0, "rental_uris": {"ios": "https://dc.lft.to/lastmile_qr_scan", "android": "https://dc.lft.to/lastmile_qr_scan"}, "lon": -77.03546733333333, "bike_id": "ed8ca129fc35c25aecd4bf6ca3a0eeaa", "type": "electric_scooter", "name": "ed8ca129fc35c25aecd4bf6ca3a0eeaa"}, {"is_disabled": 0, "is_reserved": 0, "fusion_lat": 0.0, "lat": 38.89263716666667, "fusion_lon": 0.0, "rental_uris": {"ios": "https://dc.lft.to/lastmile_qr_scan", "android": "https://dc.lft.to/lastmile_qr_scan"}, "lon": -77.04200366666667, "bike_id": "0508a0b4e1220cbdb550decc03ca7a13", "type": "electric_scooter", "name": "0508a0b4e1220cbdb550decc03ca7a13"}, {"is_disabled": 0, "is_reserved": 0, "fusion_lat": 0.0, "lat": 38.9126585, "fusion_lon": 0.0, "rental_uris": {"ios": "https://dc.lft.to/lastmile_qr_scan", "android": "https://dc.lft.to/lastmile_qr_scan"}, "lon": -77.0222735, "bike_id": "f5d716427bccd7ec46b2b0dbe239e8ac", "type": "electric_scooter", "name": "f5d716427bccd7ec46b2b0dbe239e8ac"}, {"is_disabled": 0, "is_reserved": 0, "fusion_lat": 0.0, "lat": 38.92379666666667, "fusion_lon": 0.0, "rental_uris": {"ios": "https://dc.lft.to/lastmile_qr_scan", "android": "https://dc.lft.to/lastmile_qr_scan"}, "lon": -77.04027433333333, "bike_id": "478b1b0063b450372b65c06095a69a86", "type": "electric_scooter", "name": "478b1b0063b450372b65c06095a69a86"}, {"is_disabled": 0, "is_reserved": 0, "fusion_lat": 0.0, "lat": 38.94630633333333, "fusion_lon": 0.0, "rental_uris": {"ios": "https://dc.lft.to/lastmile_qr_scan", "android": "https://dc.lft.to/lastmile_qr_scan"}, "lon": -77.0184415, "bike_id": "963e79ae352d78df44e8515f2e2d1005", "type": "electric_scooter", "name": "963e79ae352d78df44e8515f2e2d1005"}, {"is_disabled": 0, "is_reserved": 0, "fusion_lat": 0.0, "lat": 38.887155166666666, "fusion_lon": 0.0, "rental_uris": {"ios": "https://dc.lft.to/lastmile_qr_scan", "android": "https://dc.lft.to/lastmile_qr_scan"}, "lon": -76.996273, "bike_id": "6856a7f089226dff4bb2ec3a2c86dc53", "type": "electric_scooter", "name": "6856a7f089226dff4bb2ec3a2c86dc53"}, {"is_disabled": 0, "is_reserved": 0, "fusion_lat": 0.0, "lat": 38.8785625, "fusion_lon": 0.0, "rental_uris": {"ios": "https://dc.lft.to/lastmile_qr_scan", "android": "https://dc.lft.to/lastmile_qr_scan"}, "lon": -77.01766983333333, "bike_id": "6838a31980815535df60cd0d6628c61a", "type": "electric_scooter", "name": "6838a31980815535df60cd0d6628c61a"}, {"is_disabled": 0, "is_reserved": 0, "fusion_lat": 0.0, "lat": 38.9052385, "fusion_lon": 0.0, "rental_uris": {"ios": "https://dc.lft.to/lastmile_qr_scan", "android": "https://dc.lft.to/lastmile_qr_scan"}, "lon": -77.02949716666667, "bike_id": "f5326a973428fd528bb10576a0f6765d", "type": "electric_scooter", "name": "f5326a973428fd528bb10576a0f6765d"}, {"is_disabled": 0, "is_reserved": 0, "fusion_lat": 0.0, "lat": 38.868222333333335, "fusion_lon": 0.0, "rental_uris": {"ios": "https://dc.lft.to/lastmile_qr_scan", "android": "https://dc.lft.to/lastmile_qr_scan"}, "lon": -76.98012783333333, "bike_id": "9e8055afb8dd7d1638115ae60bd815c8", "type": "electric_bike", "name": "9e8055afb8dd7d1638115ae60bd815c8"}, {"is_disabled": 0, "is_reserved": 0, "fusion_lat": 0.0, "lat": 38.87062983333333, "fusion_lon": 0.0, "rental_uris": {"ios": "https://dc.lft.to/lastmile_qr_scan", "android": "https://dc.lft.to/lastmile_qr_scan"}, "lon": -77.110308, "bike_id": "20ed215e2b0ea878d17ab50a085b5fc6", "type": "electric_bike", "name": "20ed215e2b0ea878d17ab50a085b5fc6"}, {"is_disabled": 0, "is_reserved": 0, "fusion_lat": 0.0, "lat": 38.890508, "fusion_lon": 0.0, "rental_uris": {"ios": "https://dc.lft.to/lastmile_qr_scan", "android": "https://dc.lft.to/lastmile_qr_scan"}, "lon": -77.019703, "bike_id": "b9100c5ea80037bc92832ca1350c94f3", "type": "electric_scooter", "name": "b9100c5ea80037bc92832ca1350c94f3"}, {"is_disabled": 0, "is_reserved": 0, "fusion_lat": 0.0, "lat": 38.93751366666667, "fusion_lon": 0.0, "rental_uris": {"ios": "https://dc.lft.to/lastmile_qr_scan", "android": "https://dc.lft.to/lastmile_qr_scan"}, "lon": -77.034404, "bike_id": "35860fceee857e2bf945272b1cf2684a", "type": "electric_scooter", "name": "35860fceee857e2bf945272b1cf2684a"}, {"is_disabled": 0, "is_reserved": 0, "fusion_lat": 0.0, "lat": 38.89728616666667, "fusion_lon": 0.0, "rental_uris": {"ios": "https://dc.lft.to/lastmile_qr_scan", "android": "https://dc.lft.to/lastmile_qr_scan"}, "lon": -77.049932, "bike_id": "64fd29e872349b17da67ad291f6e260d", "type": "electric_scooter", "name": "64fd29e872349b17da67ad291f6e260d"}, {"is_disabled": 0, "is_reserved": 0, "fusion_lat": 0.0, "lat": 38.923908, "fusion_lon": 0.0, "rental_uris": {"ios": "https://dc.lft.to/lastmile_qr_scan", "android": "https://dc.lft.to/lastmile_qr_scan"}, "lon": -77.04318016666667, "bike_id": "9d08c6aba9ed32807954be7421401019", "type": "electric_scooter", "name": "9d08c6aba9ed32807954be7421401019"}, {"is_disabled": 0, "is_reserved": 0, "fusion_lat": 0.0, "lat": 38.92355366666666, "fusion_lon": 0.0, "rental_uris": {"ios": "https://dc.lft.to/lastmile_qr_scan", "android": "https://dc.lft.to/lastmile_qr_scan"}, "lon": -77.052741, "bike_id": "8c05b4b089f2cb2dbcb089597bb574db", "type": "electric_scooter", "name": "8c05b4b089f2cb2dbcb089597bb574db"}, {"is_disabled": 0, "is_reserved": 0, "fusion_lat": 0.0, "lat": 38.93911116666666, "fusion_lon": 0.0, "rental_uris": {"ios": "https://dc.lft.to/lastmile_qr_scan", "android": "https://dc.lft.to/lastmile_qr_scan"}, "lon": -77.03257283333333, "bike_id": "58db08570f2ef170ad539da483aaea8a", "type": "electric_scooter", "name": "58db08570f2ef170ad539da483aaea8a"}, {"is_disabled": 0, "is_reserved": 0, "fusion_lat": 0.0, "lat": 38.918002, "fusion_lon": 0.0, "rental_uris": {"ios": "https://dc.lft.to/lastmile_qr_scan", "android": "https://dc.lft.to/lastmile_qr_scan"}, "lon": -77.03546916666667, "bike_id": "114f9bcfa7284b6ef56bae36c09b8d69", "type": "electric_scooter", "name": "114f9bcfa7284b6ef56bae36c09b8d69"}, {"is_disabled": 0, "is_reserved": 0, "fusion_lat": 0.0, "lat": 38.925062833333335, "fusion_lon": 0.0, "rental_uris": {"ios": "https://dc.lft.to/lastmile_qr_scan", "android": "https://dc.lft.to/lastmile_qr_scan"}, "lon": -77.02357566666667, "bike_id": "93153fb65fc5b01b7b2deeb9bd928c6b", "type": "electric_scooter", "name": "93153fb65fc5b01b7b2deeb9bd928c6b"}, {"is_disabled": 0, "is_reserved": 0, "fusion_lat": 0.0, "lat": 38.9102905, "fusion_lon": 0.0, "rental_uris": {"ios": "https://dc.lft.to/lastmile_qr_scan", "android": "https://dc.lft.to/lastmile_qr_scan"}, "lon": -76.92335316666667, "bike_id": "7b681b39092d744bac68d469a4ae71fb", "type": "electric_bike", "name": "7b681b39092d744bac68d469a4ae71fb"}, {"is_disabled": 0, "is_reserved": 0, "fusion_lat": 0.0, "lat": 38.92169533333333, "fusion_lon": 0.0, "rental_uris": {"ios": "https://dc.lft.to/lastmile_qr_scan", "android": "https://dc.lft.to/lastmile_qr_scan"}, "lon": -77.0401915, "bike_id": "ee3e14edf05119ac0621f3b0faab2bba", "type": "electric_scooter", "name": "ee3e14edf05119ac0621f3b0faab2bba"}, {"is_disabled": 0, "is_reserved": 0, "fusion_lat": 0.0, "lat": 38.9024835, "fusion_lon": 0.0, "rental_uris": {"ios": "https://dc.lft.to/lastmile_qr_scan", "android": "https://dc.lft.to/lastmile_qr_scan"}, "lon": -77.026681, "bike_id": "6c8adee350ae7139cdc33c4429e761b7", "type": "electric_scooter", "name": "6c8adee350ae7139cdc33c4429e761b7"}, {"is_disabled": 0, "is_reserved": 0, "fusion_lat": 0.0, "lat": 38.92149966666667, "fusion_lon": 0.0, "rental_uris": {"ios": "https://dc.lft.to/lastmile_qr_scan", "android": "https://dc.lft.to/lastmile_qr_scan"}, "lon": -77.03510233333333, "bike_id": "7d6ee02919a926279225ab7db1039f94", "type": "electric_scooter", "name": "7d6ee02919a926279225ab7db1039f94"}, {"is_disabled": 0, "is_reserved": 0, "fusion_lat": 0.0, "lat": 38.897326666666665, "fusion_lon": 0.0, "rental_uris": {"ios": "https://dc.lft.to/lastmile_qr_scan", "android": "https://dc.lft.to/lastmile_qr_scan"}, "lon": -77.04422866666667, "bike_id": "0b53933eabb5aabdca3934ed3970210f", "type": "electric_scooter", "name": "0b53933eabb5aabdca3934ed3970210f"}, {"is_disabled": 0, "is_reserved": 0, "fusion_lat": 0.0, "lat": 38.93346716666667, "fusion_lon": 0.0, "rental_uris": {"ios": "https://dc.lft.to/lastmile_qr_scan", "android": "https://dc.lft.to/lastmile_qr_scan"}, "lon": -77.059347, "bike_id": "46669b96a85b95738c32db834630f41a", "type": "electric_scooter", "name": "46669b96a85b95738c32db834630f41a"}, {"is_disabled": 0, "is_reserved": 0, "fusion_lat": 0.0, "lat": 38.901663, "fusion_lon": 0.0, "rental_uris": {"ios": "https://dc.lft.to/lastmile_qr_scan", "android": "https://dc.lft.to/lastmile_qr_scan"}, "lon": -77.0238225, "bike_id": "5e092306079b614696e20a63fa16262f", "type": "electric_scooter", "name": "5e092306079b614696e20a63fa16262f"}, {"is_disabled": 0, "is_reserved": 0, "fusion_lat": 0.0, "lat": 38.917562333333336, "fusion_lon": 0.0, "rental_uris": {"ios": "https://dc.lft.to/lastmile_qr_scan", "android": "https://dc.lft.to/lastmile_qr_scan"}, "lon": -77.0388585, "bike_id": "45ea9e875eaf895585fc5697b14fa5c5", "type": "electric_scooter", "name": "45ea9e875eaf895585fc5697b14fa5c5"}, {"is_disabled": 0, "is_reserved": 0, "fusion_lat": 0.0, "lat": 38.920380333333334, "fusion_lon": 0.0, "rental_uris": {"ios": "https://dc.lft.to/lastmile_qr_scan", "android": "https://dc.lft.to/lastmile_qr_scan"}, "lon": -77.04718716666666, "bike_id": "36bf08b8979fcb906ac34e9e75e7abbf", "type": "electric_scooter", "name": "36bf08b8979fcb906ac34e9e75e7abbf"}, {"is_disabled": 0, "is_reserved": 0, "fusion_lat": 0.0, "lat": 38.87068333333333, "fusion_lon": 0.0, "rental_uris": {"ios": "https://dc.lft.to/lastmile_qr_scan", "android": "https://dc.lft.to/lastmile_qr_scan"}, "lon": -76.9797665, "bike_id": "9515a1f8bd5ad22ad206c1bc85e30593", "type": "electric_scooter", "name": "9515a1f8bd5ad22ad206c1bc85e30593"}, {"is_disabled": 0, "is_reserved": 0, "fusion_lat": 0.0, "lat": 38.902208333333334, "fusion_lon": 0.0, "rental_uris": {"ios": "https://dc.lft.to/lastmile_qr_scan", "android": "https://dc.lft.to/lastmile_qr_scan"}, "lon": -77.05130866666667, "bike_id": "725a13bc283deba817fe555b9dc08ed0", "type": "electric_scooter", "name": "725a13bc283deba817fe555b9dc08ed0"}, {"is_disabled": 0, "is_reserved": 0, "fusion_lat": 0.0, "lat": 38.875782666666666, "fusion_lon": 0.0, "rental_uris": {"ios": "https://dc.lft.to/lastmile_qr_scan", "android": "https://dc.lft.to/lastmile_qr_scan"}, "lon": -77.234089, "bike_id": "d0cce94978a5c4d2fab584d7c685b47d", "type": "electric_bike", "name": "d0cce94978a5c4d2fab584d7c685b47d"}, {"is_disabled": 0, "is_reserved": 0, "fusion_lat": 0.0, "lat": 38.91445483333333, "fusion_lon": 0.0, "rental_uris": {"ios": "https://dc.lft.to/lastmile_qr_scan", "android": "https://dc.lft.to/lastmile_qr_scan"}, "lon": -77.02287483333333, "bike_id": "2f82020837944e9e7c54ae8d8b656749", "type": "electric_scooter", "name": "2f82020837944e9e7c54ae8d8b656749"}, {"is_disabled": 0, "is_reserved": 0, "fusion_lat": 0.0, "lat": 38.88039933333334, "fusion_lon": 0.0, "rental_uris": {"ios": "https://dc.lft.to/lastmile_qr_scan", "android": "https://dc.lft.to/lastmile_qr_scan"}, "lon": -76.92722766666667, "bike_id": "ef768bc3a3f102a37ed24e3df062f249", "type": "electric_scooter", "name": "ef768bc3a3f102a37ed24e3df062f249"}, {"is_disabled": 0, "is_reserved": 0, "fusion_lat": 0.0, "lat": 38.930274833333335, "fusion_lon": 0.0, "rental_uris": {"ios": "https://dc.lft.to/lastmile_qr_scan", "android": "https://dc.lft.to/lastmile_qr_scan"}, "lon": -77.06077666666667, "bike_id": "02d6455e9dbb7a23631bb68e9346c4ad", "type": "electric_scooter", "name": "02d6455e9dbb7a23631bb68e9346c4ad"}, {"is_disabled": 0, "is_reserved": 0, "fusion_lat": 0.0, "lat": 38.93172216666667, "fusion_lon": 0.0, "rental_uris": {"ios": "https://dc.lft.to/lastmile_qr_scan", "android": "https://dc.lft.to/lastmile_qr_scan"}, "lon": -77.02817416666667, "bike_id": "b8d601267f61411eb53a0e04f3414120", "type": "electric_scooter", "name": "b8d601267f61411eb53a0e04f3414120"}, {"is_disabled": 0, "is_reserved": 0, "fusion_lat": 0.0, "lat": 38.93794583333333, "fusion_lon": 0.0, "rental_uris": {"ios": "https://dc.lft.to/lastmile_qr_scan", "android": "https://dc.lft.to/lastmile_qr_scan"}, "lon": -77.029819, "bike_id": "96941b62701f3b87ee8f12568936f6f8", "type": "electric_scooter", "name": "96941b62701f3b87ee8f12568936f6f8"}, {"is_disabled": 0, "is_reserved": 0, "fusion_lat": 0.0, "lat": 38.92928666666667, "fusion_lon": 0.0, "rental_uris": {"ios": "https://dc.lft.to/lastmile_qr_scan", "android": "https://dc.lft.to/lastmile_qr_scan"}, "lon": -77.00677416666667, "bike_id": "5adbd9f2c240ef80abf9f6154002d09f", "type": "electric_scooter", "name": "5adbd9f2c240ef80abf9f6154002d09f"}, {"is_disabled": 0, "is_reserved": 0, "fusion_lat": 0.0, "lat": 38.903727333333336, "fusion_lon": 0.0, "rental_uris": {"ios": "https://dc.lft.to/lastmile_qr_scan", "android": "https://dc.lft.to/lastmile_qr_scan"}, "lon": -77.01794933333333, "bike_id": "cd7976f906d69f4d0418d4c5b66579b2", "type": "electric_scooter", "name": "cd7976f906d69f4d0418d4c5b66579b2"}, {"is_disabled": 0, "is_reserved": 0, "fusion_lat": 0.0, "lat": 38.914137, "fusion_lon": 0.0, "rental_uris": {"ios": "https://dc.lft.to/lastmile_qr_scan", "android": "https://dc.lft.to/lastmile_qr_scan"}, "lon": -77.02216033333333, "bike_id": "abf7b214bb1f03c8c410323f5d4eeb9c", "type": "electric_scooter", "name": "abf7b214bb1f03c8c410323f5d4eeb9c"}, {"is_disabled": 0, "is_reserved": 0, "fusion_lat": 0.0, "lat": 38.91862316666667, "fusion_lon": 0.0, "rental_uris": {"ios": "https://dc.lft.to/lastmile_qr_scan", "android": "https://dc.lft.to/lastmile_qr_scan"}, "lon": -77.02313566666666, "bike_id": "f36af913e58497a7c837a7a90e494324", "type": "electric_scooter", "name": "f36af913e58497a7c837a7a90e494324"}, {"is_disabled": 0, "is_reserved": 0, "fusion_lat": 0.0, "lat": 38.90037616666667, "fusion_lon": 0.0, "rental_uris": {"ios": "https://dc.lft.to/lastmile_qr_scan", "android": "https://dc.lft.to/lastmile_qr_scan"}, "lon": -76.98556166666667, "bike_id": "82bef6c2799c436e3c4c9accee3b4abc", "type": "electric_scooter", "name": "82bef6c2799c436e3c4c9accee3b4abc"}, {"is_disabled": 0, "is_reserved": 0, "fusion_lat": 0.0, "lat": 38.920476, "fusion_lon": 0.0, "rental_uris": {"ios": "https://dc.lft.to/lastmile_qr_scan", "android": "https://dc.lft.to/lastmile_qr_scan"}, "lon": -77.03474133333333, "bike_id": "8070145552bf3dd84776c58a510ade9e", "type": "electric_scooter", "name": "8070145552bf3dd84776c58a510ade9e"}, {"is_disabled": 0, "is_reserved": 0, "fusion_lat": 0.0, "lat": 38.93355833333333, "fusion_lon": 0.0, "rental_uris": {"ios": "https://dc.lft.to/lastmile_qr_scan", "android": "https://dc.lft.to/lastmile_qr_scan"}, "lon": -77.03417433333334, "bike_id": "9e9ed026633ec0cc13099cc9a33186ac", "type": "electric_scooter", "name": "9e9ed026633ec0cc13099cc9a33186ac"}, {"is_disabled": 0, "is_reserved": 0, "fusion_lat": 0.0, "lat": 38.956348166666665, "fusion_lon": 0.0, "rental_uris": {"ios": "https://dc.lft.to/lastmile_qr_scan", "android": "https://dc.lft.to/lastmile_qr_scan"}, "lon": -77.02440483333334, "bike_id": "94336b6f33dc568fb82ee6668110543b", "type": "electric_scooter", "name": "94336b6f33dc568fb82ee6668110543b"}, {"is_disabled": 0, "is_reserved": 0, "fusion_lat": 0.0, "lat": 38.907194833333335, "fusion_lon": 0.0, "rental_uris": {"ios": "https://dc.lft.to/lastmile_qr_scan", "android": "https://dc.lft.to/lastmile_qr_scan"}, "lon": -77.053113, "bike_id": "3a417d7d01571af40294a442798bff8e", "type": "electric_scooter", "name": "3a417d7d01571af40294a442798bff8e"}, {"is_disabled": 0, "is_reserved": 0, "fusion_lat": 0.0, "lat": 38.916932, "fusion_lon": 0.0, "rental_uris": {"ios": "https://dc.lft.to/lastmile_qr_scan", "android": "https://dc.lft.to/lastmile_qr_scan"}, "lon": -77.025157, "bike_id": "69f41863d8b301c093170e5d6ad947ef", "type": "electric_scooter", "name": "69f41863d8b301c093170e5d6ad947ef"}, {"is_disabled": 0, "is_reserved": 0, "fusion_lat": 0.0, "lat": 38.93523, "fusion_lon": 0.0, "rental_uris": {"ios": "https://dc.lft.to/lastmile_qr_scan", "android": "https://dc.lft.to/lastmile_qr_scan"}, "lon": -77.08158433333334, "bike_id": "975066d49dffad127d6958127e55f2e4", "type": "electric_scooter", "name": "975066d49dffad127d6958127e55f2e4"}, {"is_disabled": 0, "is_reserved": 0, "fusion_lat": 0.0, "lat": 38.916225833333336, "fusion_lon": 0.0, "rental_uris": {"ios": "https://dc.lft.to/lastmile_qr_scan", "android": "https://dc.lft.to/lastmile_qr_scan"}, "lon": -77.0239495, "bike_id": "03cdad90d7eabddedafabae3e9e2af32", "type": "electric_scooter", "name": "03cdad90d7eabddedafabae3e9e2af32"}, {"is_disabled": 0, "is_reserved": 0, "fusion_lat": 0.0, "lat": 38.8925805, "fusion_lon": 0.0, "rental_uris": {"ios": "https://dc.lft.to/lastmile_qr_scan", "android": "https://dc.lft.to/lastmile_qr_scan"}, "lon": -77.05025183333333, "bike_id": "5da5425752a1f548001e0b11d39c19a1", "type": "electric_scooter", "name": "5da5425752a1f548001e0b11d39c19a1"}, {"is_disabled": 0, "is_reserved": 0, "fusion_lat": 0.0, "lat": 38.93064566666666, "fusion_lon": 0.0, "rental_uris": {"ios": "https://dc.lft.to/lastmile_qr_scan", "android": "https://dc.lft.to/lastmile_qr_scan"}, "lon": -77.03185166666667, "bike_id": "23a6de5992d25228aa85d116a9993aa0", "type": "electric_scooter", "name": "23a6de5992d25228aa85d116a9993aa0"}, {"is_disabled": 0, "is_reserved": 0, "fusion_lat": 0.0, "lat": 38.89348416666667, "fusion_lon": 0.0, "rental_uris": {"ios": "https://dc.lft.to/lastmile_qr_scan", "android": "https://dc.lft.to/lastmile_qr_scan"}, "lon": -76.99215583333333, "bike_id": "38d2a333f7f97e2e00884c1657d33ec7", "type": "electric_scooter", "name": "38d2a333f7f97e2e00884c1657d33ec7"}, {"is_disabled": 0, "is_reserved": 0, "fusion_lat": 0.0, "lat": 38.933128833333335, "fusion_lon": 0.0, "rental_uris": {"ios": "https://dc.lft.to/lastmile_qr_scan", "android": "https://dc.lft.to/lastmile_qr_scan"}, "lon": -77.03188683333333, "bike_id": "920216cb91ec894c27dbd53ef74085ae", "type": "electric_scooter", "name": "920216cb91ec894c27dbd53ef74085ae"}, {"is_disabled": 0, "is_reserved": 0, "fusion_lat": 0.0, "lat": 38.91550183333333, "fusion_lon": 0.0, "rental_uris": {"ios": "https://dc.lft.to/lastmile_qr_scan", "android": "https://dc.lft.to/lastmile_qr_scan"}, "lon": -77.01155033333333, "bike_id": "05cf38324b86c7743576c4337b72a822", "type": "electric_scooter", "name": "05cf38324b86c7743576c4337b72a822"}, {"is_disabled": 0, "is_reserved": 0, "fusion_lat": 0.0, "lat": 38.92331133333333, "fusion_lon": 0.0, "rental_uris": {"ios": "https://dc.lft.to/lastmile_qr_scan", "android": "https://dc.lft.to/lastmile_qr_scan"}, "lon": -77.0089335, "bike_id": "3e6ba39c1a7e59bb2daf679a6d7c1869", "type": "electric_scooter", "name": "3e6ba39c1a7e59bb2daf679a6d7c1869"}, {"is_disabled": 0, "is_reserved": 0, "fusion_lat": 0.0, "lat": 38.89197866666667, "fusion_lon": 0.0, "rental_uris": {"ios": "https://dc.lft.to/lastmile_qr_scan", "android": "https://dc.lft.to/lastmile_qr_scan"}, "lon": -77.024747, "bike_id": "b856c906001ea261510437eb93424dcb", "type": "electric_scooter", "name": "b856c906001ea261510437eb93424dcb"}, {"is_disabled": 0, "is_reserved": 0, "fusion_lat": 0.0, "lat": 38.9176295, "fusion_lon": 0.0, "rental_uris": {"ios": "https://dc.lft.to/lastmile_qr_scan", "android": "https://dc.lft.to/lastmile_qr_scan"}, "lon": -77.00451316666667, "bike_id": "70507ede5805ee9ed4b398cf5ff4b915", "type": "electric_scooter", "name": "70507ede5805ee9ed4b398cf5ff4b915"}, {"is_disabled": 0, "is_reserved": 0, "fusion_lat": 0.0, "lat": 38.912139333333336, "fusion_lon": 0.0, "rental_uris": {"ios": "https://dc.lft.to/lastmile_qr_scan", "android": "https://dc.lft.to/lastmile_qr_scan"}, "lon": -77.02101133333333, "bike_id": "91cc4036013ea634c93625edcaba73b0", "type": "electric_scooter", "name": "91cc4036013ea634c93625edcaba73b0"}, {"is_disabled": 0, "is_reserved": 0, "fusion_lat": 0.0, "lat": 38.8766615, "fusion_lon": 0.0, "rental_uris": {"ios": "https://dc.lft.to/lastmile_qr_scan", "android": "https://dc.lft.to/lastmile_qr_scan"}, "lon": -77.01762, "bike_id": "dc80c7fbb702310cf1755ebd06cbe489", "type": "electric_scooter", "name": "dc80c7fbb702310cf1755ebd06cbe489"}, {"is_disabled": 0, "is_reserved": 0, "fusion_lat": 0.0, "lat": 38.92164133333333, "fusion_lon": 0.0, "rental_uris": {"ios": "https://dc.lft.to/lastmile_qr_scan", "android": "https://dc.lft.to/lastmile_qr_scan"}, "lon": -77.036711, "bike_id": "fd4f51bafc501b13a8da0646bc2cf108", "type": "electric_scooter", "name": "fd4f51bafc501b13a8da0646bc2cf108"}, {"is_disabled": 0, "is_reserved": 0, "fusion_lat": 0.0, "lat": 38.88482333333333, "fusion_lon": 0.0, "rental_uris": {"ios": "https://dc.lft.to/lastmile_qr_scan", "android": "https://dc.lft.to/lastmile_qr_scan"}, "lon": -77.03350766666667, "bike_id": "ab1aec82dfe667df06804395e453eb31", "type": "electric_scooter", "name": "ab1aec82dfe667df06804395e453eb31"}, {"is_disabled": 0, "is_reserved": 0, "fusion_lat": 0.0, "lat": 38.93131966666667, "fusion_lon": 0.0, "rental_uris": {"ios": "https://dc.lft.to/lastmile_qr_scan", "android": "https://dc.lft.to/lastmile_qr_scan"}, "lon": -77.02804583333334, "bike_id": "4a415cc84812e5cd057b00ec7e54ba39", "type": "electric_scooter", "name": "4a415cc84812e5cd057b00ec7e54ba39"}, {"is_disabled": 0, "is_reserved": 0, "fusion_lat": 0.0, "lat": 38.956021666666665, "fusion_lon": 0.0, "rental_uris": {"ios": "https://dc.lft.to/lastmile_qr_scan", "android": "https://dc.lft.to/lastmile_qr_scan"}, "lon": -77.01019, "bike_id": "de44e43c1c37e5a91b2a30414207151e", "type": "electric_bike", "name": "de44e43c1c37e5a91b2a30414207151e"}, {"is_disabled": 0, "is_reserved": 0, "fusion_lat": 0.0, "lat": 38.92973516666667, "fusion_lon": 0.0, "rental_uris": {"ios": "https://dc.lft.to/lastmile_qr_scan", "android": "https://dc.lft.to/lastmile_qr_scan"}, "lon": -77.02820833333334, "bike_id": "46a3938da0c18154ac5a802adcbc8d55", "type": "electric_scooter", "name": "46a3938da0c18154ac5a802adcbc8d55"}, {"is_disabled": 0, "is_reserved": 0, "fusion_lat": 0.0, "lat": 38.892382, "fusion_lon": 0.0, "rental_uris": {"ios": "https://dc.lft.to/lastmile_qr_scan", "android": "https://dc.lft.to/lastmile_qr_scan"}, "lon": -77.02803683333333, "bike_id": "070dcc659b841964df1a5d0159d89030", "type": "electric_scooter", "name": "070dcc659b841964df1a5d0159d89030"}, {"is_disabled": 0, "is_reserved": 0, "fusion_lat": 0.0, "lat": 38.9118795, "fusion_lon": 0.0, "rental_uris": {"ios": "https://dc.lft.to/lastmile_qr_scan", "android": "https://dc.lft.to/lastmile_qr_scan"}, "lon": -77.002783, "bike_id": "c0170cd95297d8acf7169d66028a3038", "type": "electric_scooter", "name": "c0170cd95297d8acf7169d66028a3038"}, {"is_disabled": 0, "is_reserved": 0, "fusion_lat": 0.0, "lat": 38.92386066666667, "fusion_lon": 0.0, "rental_uris": {"ios": "https://dc.lft.to/lastmile_qr_scan", "android": "https://dc.lft.to/lastmile_qr_scan"}, "lon": -77.03655333333333, "bike_id": "c7be4ded13a84527b9102275eb7dac27", "type": "electric_scooter", "name": "c7be4ded13a84527b9102275eb7dac27"}, {"is_disabled": 0, "is_reserved": 0, "fusion_lat": 0.0, "lat": 38.88395333333333, "fusion_lon": 0.0, "rental_uris": {"ios": "https://dc.lft.to/lastmile_qr_scan", "android": "https://dc.lft.to/lastmile_qr_scan"}, "lon": -77.03177716666667, "bike_id": "e9240ebc299f2bf885d2b1c539aa18b6", "type": "electric_scooter", "name": "e9240ebc299f2bf885d2b1c539aa18b6"}, {"is_disabled": 0, "is_reserved": 0, "fusion_lat": 0.0, "lat": 38.89742016666667, "fusion_lon": 0.0, "rental_uris": {"ios": "https://dc.lft.to/lastmile_qr_scan", "android": "https://dc.lft.to/lastmile_qr_scan"}, "lon": -77.03353933333334, "bike_id": "76f1be5aaa6440c5623b54c87d08921c", "type": "electric_scooter", "name": "76f1be5aaa6440c5623b54c87d08921c"}, {"is_disabled": 0, "is_reserved": 0, "fusion_lat": 0.0, "lat": 38.896343333333334, "fusion_lon": 0.0, "rental_uris": {"ios": "https://dc.lft.to/lastmile_qr_scan", "android": "https://dc.lft.to/lastmile_qr_scan"}, "lon": -77.04340983333333, "bike_id": "7d1b20402ac8206a0b832e32c97dfe63", "type": "electric_scooter", "name": "7d1b20402ac8206a0b832e32c97dfe63"}, {"is_disabled": 0, "is_reserved": 0, "fusion_lat": 0.0, "lat": 38.94507016666667, "fusion_lon": 0.0, "rental_uris": {"ios": "https://dc.lft.to/lastmile_qr_scan", "android": "https://dc.lft.to/lastmile_qr_scan"}, "lon": -77.0067295, "bike_id": "f2eaf0f7182890a557b1a949c5de8443", "type": "electric_bike", "name": "f2eaf0f7182890a557b1a949c5de8443"}, {"is_disabled": 0, "is_reserved": 0, "fusion_lat": 0.0, "lat": 38.912912166666665, "fusion_lon": 0.0, "rental_uris": {"ios": "https://dc.lft.to/lastmile_qr_scan", "android": "https://dc.lft.to/lastmile_qr_scan"}, "lon": -76.93739733333334, "bike_id": "871f84b93f4096cbf87a59a397ab1a73", "type": "electric_scooter", "name": "871f84b93f4096cbf87a59a397ab1a73"}, {"is_disabled": 0, "is_reserved": 0, "fusion_lat": 0.0, "lat": 38.8999865, "fusion_lon": 0.0, "rental_uris": {"ios": "https://dc.lft.to/lastmile_qr_scan", "android": "https://dc.lft.to/lastmile_qr_scan"}, "lon": -76.9981115, "bike_id": "4cd09996608a87b947a34be64edcb22e", "type": "electric_scooter", "name": "4cd09996608a87b947a34be64edcb22e"}, {"is_disabled": 0, "is_reserved": 0, "fusion_lat": 0.0, "lat": 38.909278, "fusion_lon": 0.0, "rental_uris": {"ios": "https://dc.lft.to/lastmile_qr_scan", "android": "https://dc.lft.to/lastmile_qr_scan"}, "lon": -77.02319433333334, "bike_id": "612e8c71c79c62a028d464caa81485d2", "type": "electric_scooter", "name": "612e8c71c79c62a028d464caa81485d2"}, {"is_disabled": 0, "is_reserved": 0, "fusion_lat": 0.0, "lat": 38.8983475, "fusion_lon": 0.0, "rental_uris": {"ios": "https://dc.lft.to/lastmile_qr_scan", "android": "https://dc.lft.to/lastmile_qr_scan"}, "lon": -76.98104666666667, "bike_id": "b61e3ee5976b6ef9aa434024eba976b5", "type": "electric_scooter", "name": "b61e3ee5976b6ef9aa434024eba976b5"}, {"is_disabled": 0, "is_reserved": 0, "fusion_lat": 0.0, "lat": 38.89931883333333, "fusion_lon": 0.0, "rental_uris": {"ios": "https://dc.lft.to/lastmile_qr_scan", "android": "https://dc.lft.to/lastmile_qr_scan"}, "lon": -76.9376075, "bike_id": "93fb14989cb4d92852fcf60d8388d118", "type": "electric_scooter", "name": "93fb14989cb4d92852fcf60d8388d118"}, {"is_disabled": 0, "is_reserved": 0, "fusion_lat": 0.0, "lat": 38.91452133333333, "fusion_lon": 0.0, "rental_uris": {"ios": "https://dc.lft.to/lastmile_qr_scan", "android": "https://dc.lft.to/lastmile_qr_scan"}, "lon": -76.97287366666667, "bike_id": "6ee701252a7ce3a1d7660bc332434621", "type": "electric_bike", "name": "6ee701252a7ce3a1d7660bc332434621"}, {"is_disabled": 0, "is_reserved": 0, "fusion_lat": 0.0, "lat": 38.901725166666665, "fusion_lon": 0.0, "rental_uris": {"ios": "https://dc.lft.to/lastmile_qr_scan", "android": "https://dc.lft.to/lastmile_qr_scan"}, "lon": -76.98076183333333, "bike_id": "c0bec8c5d4edd8b6269e37d1bfadbbeb", "type": "electric_scooter", "name": "c0bec8c5d4edd8b6269e37d1bfadbbeb"}, {"is_disabled": 0, "is_reserved": 0, "fusion_lat": 0.0, "lat": 38.89030783333333, "fusion_lon": 0.0, "rental_uris": {"ios": "https://dc.lft.to/lastmile_qr_scan", "android": "https://dc.lft.to/lastmile_qr_scan"}, "lon": -76.93754183333333, "bike_id": "a794eba39905eed8b53d5f441bbf8187", "type": "electric_scooter", "name": "a794eba39905eed8b53d5f441bbf8187"}, {"is_disabled": 0, "is_reserved": 0, "fusion_lat": 0.0, "lat": 38.91349483333333, "fusion_lon": 0.0, "rental_uris": {"ios": "https://dc.lft.to/lastmile_qr_scan", "android": "https://dc.lft.to/lastmile_qr_scan"}, "lon": -77.064013, "bike_id": "74d4d9a0b10556558ea8b9f4fd74bccc", "type": "electric_scooter", "name": "74d4d9a0b10556558ea8b9f4fd74bccc"}, {"is_disabled": 0, "is_reserved": 0, "fusion_lat": 0.0, "lat": 38.92442416666667, "fusion_lon": 0.0, "rental_uris": {"ios": "https://dc.lft.to/lastmile_qr_scan", "android": "https://dc.lft.to/lastmile_qr_scan"}, "lon": -77.02019283333334, "bike_id": "548ea1f85951f9b42f5bbdd13064a6c9", "type": "electric_scooter", "name": "548ea1f85951f9b42f5bbdd13064a6c9"}, {"is_disabled": 0, "is_reserved": 0, "fusion_lat": 0.0, "lat": 38.892499, "fusion_lon": 0.0, "rental_uris": {"ios": "https://dc.lft.to/lastmile_qr_scan", "android": "https://dc.lft.to/lastmile_qr_scan"}, "lon": -77.04660483333333, "bike_id": "77b367bebb2624cc33d6644da2b775b5", "type": "electric_scooter", "name": "77b367bebb2624cc33d6644da2b775b5"}, {"is_disabled": 0, "is_reserved": 0, "fusion_lat": 0.0, "lat": 38.885973, "fusion_lon": 0.0, "rental_uris": {"ios": "https://dc.lft.to/lastmile_qr_scan", "android": "https://dc.lft.to/lastmile_qr_scan"}, "lon": -77.00079816666667, "bike_id": "fa9cab6d39b5398edb377fc4c37c15bd", "type": "electric_bike", "name": "fa9cab6d39b5398edb377fc4c37c15bd"}, {"is_disabled": 0, "is_reserved": 0, "fusion_lat": 0.0, "lat": 38.9141695, "fusion_lon": 0.0, "rental_uris": {"ios": "https://dc.lft.to/lastmile_qr_scan", "android": "https://dc.lft.to/lastmile_qr_scan"}, "lon": -77.02234866666667, "bike_id": "3795dc79b7a278c21c71deb44ad5077f", "type": "electric_scooter", "name": "3795dc79b7a278c21c71deb44ad5077f"}, {"is_disabled": 0, "is_reserved": 0, "fusion_lat": 0.0, "lat": 39.084731833333336, "fusion_lon": 0.0, "rental_uris": {"ios": "https://dc.lft.to/lastmile_qr_scan", "android": "https://dc.lft.to/lastmile_qr_scan"}, "lon": -76.95068983333333, "bike_id": "2c5275c71727cd8c754333d01a7df5c9", "type": "electric_bike", "name": "2c5275c71727cd8c754333d01a7df5c9"}, {"is_disabled": 0, "is_reserved": 0, "fusion_lat": 0.0, "lat": 38.917683833333335, "fusion_lon": 0.0, "rental_uris": {"ios": "https://dc.lft.to/lastmile_qr_scan", "android": "https://dc.lft.to/lastmile_qr_scan"}, "lon": -77.0319445, "bike_id": "c0e43fbcdbaa57fb16bde4d8a22c61c4", "type": "electric_scooter", "name": "c0e43fbcdbaa57fb16bde4d8a22c61c4"}, {"is_disabled": 0, "is_reserved": 0, "fusion_lat": 0.0, "lat": 39.0347595, "fusion_lon": 0.0, "rental_uris": {"ios": "https://dc.lft.to/lastmile_qr_scan", "android": "https://dc.lft.to/lastmile_qr_scan"}, "lon": -77.01659216666667, "bike_id": "815f18cebba0ce1140a5f7138cb481e7", "type": "electric_bike", "name": "815f18cebba0ce1140a5f7138cb481e7"}, {"is_disabled": 0, "is_reserved": 0, "fusion_lat": 0.0, "lat": 38.9335185, "fusion_lon": 0.0, "rental_uris": {"ios": "https://dc.lft.to/lastmile_qr_scan", "android": "https://dc.lft.to/lastmile_qr_scan"}, "lon": -77.0239535, "bike_id": "56b11c3695b10d8a3468c7703b70a47a", "type": "electric_scooter", "name": "56b11c3695b10d8a3468c7703b70a47a"}, {"is_disabled": 0, "is_reserved": 0, "fusion_lat": 0.0, "lat": 38.9027125, "fusion_lon": 0.0, "rental_uris": {"ios": "https://dc.lft.to/lastmile_qr_scan", "android": "https://dc.lft.to/lastmile_qr_scan"}, "lon": -77.01899833333333, "bike_id": "fe923a5749b495a744660e72fd209ba9", "type": "electric_scooter", "name": "fe923a5749b495a744660e72fd209ba9"}, {"is_disabled": 0, "is_reserved": 0, "fusion_lat": 0.0, "lat": 38.898189, "fusion_lon": 0.0, "rental_uris": {"ios": "https://dc.lft.to/lastmile_qr_scan", "android": "https://dc.lft.to/lastmile_qr_scan"}, "lon": -76.92809616666666, "bike_id": "18ed00b282e9ec32dce550f89e524e36", "type": "electric_scooter", "name": "18ed00b282e9ec32dce550f89e524e36"}, {"is_disabled": 0, "is_reserved": 0, "fusion_lat": 0.0, "lat": 38.92164966666667, "fusion_lon": 0.0, "rental_uris": {"ios": "https://dc.lft.to/lastmile_qr_scan", "android": "https://dc.lft.to/lastmile_qr_scan"}, "lon": -77.040241, "bike_id": "498cb180996135e4fa090cbe2f60cc2d", "type": "electric_scooter", "name": "498cb180996135e4fa090cbe2f60cc2d"}, {"is_disabled": 0, "is_reserved": 0, "fusion_lat": 0.0, "lat": 38.891969, "fusion_lon": 0.0, "rental_uris": {"ios": "https://dc.lft.to/lastmile_qr_scan", "android": "https://dc.lft.to/lastmile_qr_scan"}, "lon": -77.0247625, "bike_id": "7ab56c254463d7a6b11e4d306da53d3c", "type": "electric_scooter", "name": "7ab56c254463d7a6b11e4d306da53d3c"}, {"is_disabled": 0, "is_reserved": 0, "fusion_lat": 0.0, "lat": 38.95342433333333, "fusion_lon": 0.0, "rental_uris": {"ios": "https://dc.lft.to/lastmile_qr_scan", "android": "https://dc.lft.to/lastmile_qr_scan"}, "lon": -77.081472, "bike_id": "910fe9073d62aa168e7f3ea8a85d88bd", "type": "electric_scooter", "name": "910fe9073d62aa168e7f3ea8a85d88bd"}, {"is_disabled": 0, "is_reserved": 0, "fusion_lat": 0.0, "lat": 38.92351266666667, "fusion_lon": 0.0, "rental_uris": {"ios": "https://dc.lft.to/lastmile_qr_scan", "android": "https://dc.lft.to/lastmile_qr_scan"}, "lon": -76.97206483333333, "bike_id": "82bde0b632b00f79617cbdc99a0bb3fa", "type": "electric_scooter", "name": "82bde0b632b00f79617cbdc99a0bb3fa"}, {"is_disabled": 0, "is_reserved": 0, "fusion_lat": 0.0, "lat": 38.895222833333335, "fusion_lon": 0.0, "rental_uris": {"ios": "https://dc.lft.to/lastmile_qr_scan", "android": "https://dc.lft.to/lastmile_qr_scan"}, "lon": -77.02283183333333, "bike_id": "7c5b6f4be8297ccdcd9df0c666f00316", "type": "electric_scooter", "name": "7c5b6f4be8297ccdcd9df0c666f00316"}, {"is_disabled": 0, "is_reserved": 0, "fusion_lat": 0.0, "lat": 38.92224083333333, "fusion_lon": 0.0, "rental_uris": {"ios": "https://dc.lft.to/lastmile_qr_scan", "android": "https://dc.lft.to/lastmile_qr_scan"}, "lon": -77.03895283333334, "bike_id": "6232691a13282de77b564313b49261a7", "type": "electric_scooter", "name": "6232691a13282de77b564313b49261a7"}, {"is_disabled": 0, "is_reserved": 0, "fusion_lat": 0.0, "lat": 38.8953045, "fusion_lon": 0.0, "rental_uris": {"ios": "https://dc.lft.to/lastmile_qr_scan", "android": "https://dc.lft.to/lastmile_qr_scan"}, "lon": -77.03210466666667, "bike_id": "2d2c18529591a1c8dd604ad17b72fe17", "type": "electric_scooter", "name": "2d2c18529591a1c8dd604ad17b72fe17"}, {"is_disabled": 0, "is_reserved": 0, "fusion_lat": 0.0, "lat": 38.936567833333335, "fusion_lon": 0.0, "rental_uris": {"ios": "https://dc.lft.to/lastmile_qr_scan", "android": "https://dc.lft.to/lastmile_qr_scan"}, "lon": -77.03653916666667, "bike_id": "289234acafc1be157a1ce32e5a7fdfa3", "type": "electric_scooter", "name": "289234acafc1be157a1ce32e5a7fdfa3"}, {"is_disabled": 0, "is_reserved": 0, "fusion_lat": 0.0, "lat": 38.914387, "fusion_lon": 0.0, "rental_uris": {"ios": "https://dc.lft.to/lastmile_qr_scan", "android": "https://dc.lft.to/lastmile_qr_scan"}, "lon": -76.98433516666667, "bike_id": "2ae4a0c977e688bcdbd28f719fd2a996", "type": "electric_scooter", "name": "2ae4a0c977e688bcdbd28f719fd2a996"}, {"is_disabled": 0, "is_reserved": 0, "fusion_lat": 0.0, "lat": 38.878947, "fusion_lon": 0.0, "rental_uris": {"ios": "https://dc.lft.to/lastmile_qr_scan", "android": "https://dc.lft.to/lastmile_qr_scan"}, "lon": -76.93531833333333, "bike_id": "4778f857507021b6b4247dc53590e47d", "type": "electric_scooter", "name": "4778f857507021b6b4247dc53590e47d"}, {"is_disabled": 0, "is_reserved": 0, "fusion_lat": 0.0, "lat": 38.864927, "fusion_lon": 0.0, "rental_uris": {"ios": "https://dc.lft.to/lastmile_qr_scan", "android": "https://dc.lft.to/lastmile_qr_scan"}, "lon": -76.96984433333333, "bike_id": "3b297703154ff4abec0c6be2e4be5197", "type": "electric_bike", "name": "3b297703154ff4abec0c6be2e4be5197"}, {"is_disabled": 0, "is_reserved": 0, "fusion_lat": 0.0, "lat": 38.91964316666667, "fusion_lon": 0.0, "rental_uris": {"ios": "https://dc.lft.to/lastmile_qr_scan", "android": "https://dc.lft.to/lastmile_qr_scan"}, "lon": -77.01902633333333, "bike_id": "00f8b3ed022160b2ae9b2bf08daee7a8", "type": "electric_scooter", "name": "00f8b3ed022160b2ae9b2bf08daee7a8"}, {"is_disabled": 0, "is_reserved": 0, "fusion_lat": 0.0, "lat": 38.922260333333334, "fusion_lon": 0.0, "rental_uris": {"ios": "https://dc.lft.to/lastmile_qr_scan", "android": "https://dc.lft.to/lastmile_qr_scan"}, "lon": -77.04235816666667, "bike_id": "135ec9d2ba96acf74cd947c0b6b01805", "type": "electric_scooter", "name": "135ec9d2ba96acf74cd947c0b6b01805"}, {"is_disabled": 0, "is_reserved": 0, "fusion_lat": 0.0, "lat": 38.896676, "fusion_lon": 0.0, "rental_uris": {"ios": "https://dc.lft.to/lastmile_qr_scan", "android": "https://dc.lft.to/lastmile_qr_scan"}, "lon": -76.9320795, "bike_id": "6ca0d7b72db1b00fdeaa9cb816074c79", "type": "electric_bike", "name": "6ca0d7b72db1b00fdeaa9cb816074c79"}, {"is_disabled": 0, "is_reserved": 0, "fusion_lat": 0.0, "lat": 38.905147166666666, "fusion_lon": 0.0, "rental_uris": {"ios": "https://dc.lft.to/lastmile_qr_scan", "android": "https://dc.lft.to/lastmile_qr_scan"}, "lon": -77.00137683333334, "bike_id": "122fcb6d937defc09a392f946ec70cc2", "type": "electric_scooter", "name": "122fcb6d937defc09a392f946ec70cc2"}, {"is_disabled": 0, "is_reserved": 0, "fusion_lat": 0.0, "lat": 38.93413366666667, "fusion_lon": 0.0, "rental_uris": {"ios": "https://dc.lft.to/lastmile_qr_scan", "android": "https://dc.lft.to/lastmile_qr_scan"}, "lon": -77.07246966666666, "bike_id": "011fd1b41c50df1f2261b4abdc7cfe5c", "type": "electric_scooter", "name": "011fd1b41c50df1f2261b4abdc7cfe5c"}, {"is_disabled": 0, "is_reserved": 0, "fusion_lat": 0.0, "lat": 38.92847883333334, "fusion_lon": 0.0, "rental_uris": {"ios": "https://dc.lft.to/lastmile_qr_scan", "android": "https://dc.lft.to/lastmile_qr_scan"}, "lon": -77.0296055, "bike_id": "575bd80f7047719ed4db5a73034c970c", "type": "electric_scooter", "name": "575bd80f7047719ed4db5a73034c970c"}, {"is_disabled": 0, "is_reserved": 0, "fusion_lat": 0.0, "lat": 38.97442133333333, "fusion_lon": 0.0, "rental_uris": {"ios": "https://dc.lft.to/lastmile_qr_scan", "android": "https://dc.lft.to/lastmile_qr_scan"}, "lon": -77.095904, "bike_id": "186c19cda39d5334b1977ee7055eaf7a", "type": "electric_bike", "name": "186c19cda39d5334b1977ee7055eaf7a"}, {"is_disabled": 0, "is_reserved": 0, "fusion_lat": 0.0, "lat": 38.92062716666667, "fusion_lon": 0.0, "rental_uris": {"ios": "https://dc.lft.to/lastmile_qr_scan", "android": "https://dc.lft.to/lastmile_qr_scan"}, "lon": -77.0454645, "bike_id": "3226a354a3aca308319f67372d173c3f", "type": "electric_scooter", "name": "3226a354a3aca308319f67372d173c3f"}, {"is_disabled": 0, "is_reserved": 0, "fusion_lat": 0.0, "lat": 38.92302883333333, "fusion_lon": 0.0, "rental_uris": {"ios": "https://dc.lft.to/lastmile_qr_scan", "android": "https://dc.lft.to/lastmile_qr_scan"}, "lon": -77.0341785, "bike_id": "f42d8b301cab97dedc4726f711c7207d", "type": "electric_scooter", "name": "f42d8b301cab97dedc4726f711c7207d"}, {"is_disabled": 0, "is_reserved": 0, "fusion_lat": 0.0, "lat": 38.909822166666665, "fusion_lon": 0.0, "rental_uris": {"ios": "https://dc.lft.to/lastmile_qr_scan", "android": "https://dc.lft.to/lastmile_qr_scan"}, "lon": -77.033469, "bike_id": "11831ac55d3857e8e099c232cfbb44fd", "type": "electric_scooter", "name": "11831ac55d3857e8e099c232cfbb44fd"}, {"is_disabled": 0, "is_reserved": 0, "fusion_lat": 0.0, "lat": 38.876556666666666, "fusion_lon": 0.0, "rental_uris": {"ios": "https://dc.lft.to/lastmile_qr_scan", "android": "https://dc.lft.to/lastmile_qr_scan"}, "lon": -77.00883483333334, "bike_id": "d95b43b82d56582b52cc9e579fb98b1f", "type": "electric_scooter", "name": "d95b43b82d56582b52cc9e579fb98b1f"}, {"is_disabled": 0, "is_reserved": 0, "fusion_lat": 0.0, "lat": 38.90782166666666, "fusion_lon": 0.0, "rental_uris": {"ios": "https://dc.lft.to/lastmile_qr_scan", "android": "https://dc.lft.to/lastmile_qr_scan"}, "lon": -77.010666, "bike_id": "a504fb3fb6e28d08992af881fca18d35", "type": "electric_scooter", "name": "a504fb3fb6e28d08992af881fca18d35"}, {"is_disabled": 0, "is_reserved": 0, "fusion_lat": 0.0, "lat": 38.921017666666664, "fusion_lon": 0.0, "rental_uris": {"ios": "https://dc.lft.to/lastmile_qr_scan", "android": "https://dc.lft.to/lastmile_qr_scan"}, "lon": -77.046951, "bike_id": "8c5fe59967bf9188e0c30a07dd1c0f09", "type": "electric_scooter", "name": "8c5fe59967bf9188e0c30a07dd1c0f09"}, {"is_disabled": 0, "is_reserved": 0, "fusion_lat": 0.0, "lat": 38.947465, "fusion_lon": 0.0, "rental_uris": {"ios": "https://dc.lft.to/lastmile_qr_scan", "android": "https://dc.lft.to/lastmile_qr_scan"}, "lon": -77.02352983333333, "bike_id": "6d9acd3cb222b0b853a629b4eef9815e", "type": "electric_scooter", "name": "6d9acd3cb222b0b853a629b4eef9815e"}, {"is_disabled": 0, "is_reserved": 0, "fusion_lat": 0.0, "lat": 39.074686666666665, "fusion_lon": 0.0, "rental_uris": {"ios": "https://dc.lft.to/lastmile_qr_scan", "android": "https://dc.lft.to/lastmile_qr_scan"}, "lon": -77.11526266666667, "bike_id": "97d73af3f9dbc5addb4cf090eb83515b", "type": "electric_bike", "name": "97d73af3f9dbc5addb4cf090eb83515b"}, {"is_disabled": 0, "is_reserved": 0, "fusion_lat": 0.0, "lat": 38.804027166666664, "fusion_lon": 0.0, "rental_uris": {"ios": "https://dc.lft.to/lastmile_qr_scan", "android": "https://dc.lft.to/lastmile_qr_scan"}, "lon": -77.11330916666667, "bike_id": "d696bfae7f87ad84ec5e1ace2626765e", "type": "electric_bike", "name": "d696bfae7f87ad84ec5e1ace2626765e"}, {"is_disabled": 0, "is_reserved": 0, "fusion_lat": 0.0, "lat": 38.93626366666667, "fusion_lon": 0.0, "rental_uris": {"ios": "https://dc.lft.to/lastmile_qr_scan", "android": "https://dc.lft.to/lastmile_qr_scan"}, "lon": -77.0365045, "bike_id": "9bd614961f7ab544ebd3b322ef37bb7d", "type": "electric_scooter", "name": "9bd614961f7ab544ebd3b322ef37bb7d"}, {"is_disabled": 0, "is_reserved": 0, "fusion_lat": 0.0, "lat": 38.85591766666667, "fusion_lon": 0.0, "rental_uris": {"ios": "https://dc.lft.to/lastmile_qr_scan", "android": "https://dc.lft.to/lastmile_qr_scan"}, "lon": -76.9727315, "bike_id": "ec92a629f45d6790f0f537210ca5cba5", "type": "electric_bike", "name": "ec92a629f45d6790f0f537210ca5cba5"}, {"is_disabled": 0, "is_reserved": 0, "fusion_lat": 0.0, "lat": 38.89248283333333, "fusion_lon": 0.0, "rental_uris": {"ios": "https://dc.lft.to/lastmile_qr_scan", "android": "https://dc.lft.to/lastmile_qr_scan"}, "lon": -77.04650366666667, "bike_id": "0419894669aa85147a4c88b6e4d7e9bc", "type": "electric_scooter", "name": "0419894669aa85147a4c88b6e4d7e9bc"}, {"is_disabled": 0, "is_reserved": 0, "fusion_lat": 0.0, "lat": 38.929937333333335, "fusion_lon": 0.0, "rental_uris": {"ios": "https://dc.lft.to/lastmile_qr_scan", "android": "https://dc.lft.to/lastmile_qr_scan"}, "lon": -77.022153, "bike_id": "4c35fee5f9fcbd5c80c4a5b097129ca6", "type": "electric_scooter", "name": "4c35fee5f9fcbd5c80c4a5b097129ca6"}, {"is_disabled": 0, "is_reserved": 0, "fusion_lat": 0.0, "lat": 38.9181745, "fusion_lon": 0.0, "rental_uris": {"ios": "https://dc.lft.to/lastmile_qr_scan", "android": "https://dc.lft.to/lastmile_qr_scan"}, "lon": -77.02528216666667, "bike_id": "8828fe28d06131f0ddbecec8e560a3e6", "type": "electric_scooter", "name": "8828fe28d06131f0ddbecec8e560a3e6"}, {"is_disabled": 0, "is_reserved": 0, "fusion_lat": 0.0, "lat": 38.916077666666666, "fusion_lon": 0.0, "rental_uris": {"ios": "https://dc.lft.to/lastmile_qr_scan", "android": "https://dc.lft.to/lastmile_qr_scan"}, "lon": -77.02287033333333, "bike_id": "f41004fe8b79d6fa23db5fdbabb15a77", "type": "electric_scooter", "name": "f41004fe8b79d6fa23db5fdbabb15a77"}, {"is_disabled": 0, "is_reserved": 0, "fusion_lat": 0.0, "lat": 38.907342, "fusion_lon": 0.0, "rental_uris": {"ios": "https://dc.lft.to/lastmile_qr_scan", "android": "https://dc.lft.to/lastmile_qr_scan"}, "lon": -77.02728033333334, "bike_id": "85983599b4149ffb2cfc0f25d9072bb8", "type": "electric_scooter", "name": "85983599b4149ffb2cfc0f25d9072bb8"}, {"is_disabled": 0, "is_reserved": 0, "fusion_lat": 0.0, "lat": 38.90669283333333, "fusion_lon": 0.0, "rental_uris": {"ios": "https://dc.lft.to/lastmile_qr_scan", "android": "https://dc.lft.to/lastmile_qr_scan"}, "lon": -77.026927, "bike_id": "b328895854581837c47bb9db59dce541", "type": "electric_scooter", "name": "b328895854581837c47bb9db59dce541"}, {"is_disabled": 0, "is_reserved": 0, "fusion_lat": 0.0, "lat": 38.85786316666667, "fusion_lon": 0.0, "rental_uris": {"ios": "https://dc.lft.to/lastmile_qr_scan", "android": "https://dc.lft.to/lastmile_qr_scan"}, "lon": -77.09962416666667, "bike_id": "3e1bbf84ce728c7f9e085808ed1535e2", "type": "electric_bike", "name": "3e1bbf84ce728c7f9e085808ed1535e2"}, {"is_disabled": 0, "is_reserved": 0, "fusion_lat": 0.0, "lat": 38.9513895, "fusion_lon": 0.0, "rental_uris": {"ios": "https://dc.lft.to/lastmile_qr_scan", "android": "https://dc.lft.to/lastmile_qr_scan"}, "lon": -76.96622233333333, "bike_id": "dddd05e8236ff3d0c057eb97cf483fdb", "type": "electric_bike", "name": "dddd05e8236ff3d0c057eb97cf483fdb"}, {"is_disabled": 0, "is_reserved": 0, "fusion_lat": 0.0, "lat": 38.9558725, "fusion_lon": 0.0, "rental_uris": {"ios": "https://dc.lft.to/lastmile_qr_scan", "android": "https://dc.lft.to/lastmile_qr_scan"}, "lon": -77.028115, "bike_id": "ad7fa0510d3f7bda0655454e050247c0", "type": "electric_scooter", "name": "ad7fa0510d3f7bda0655454e050247c0"}, {"is_disabled": 0, "is_reserved": 0, "fusion_lat": 0.0, "lat": 38.92544483333333, "fusion_lon": 0.0, "rental_uris": {"ios": "https://dc.lft.to/lastmile_qr_scan", "android": "https://dc.lft.to/lastmile_qr_scan"}, "lon": -77.02564333333333, "bike_id": "9ff800289eedf7d82ef0b5ca75ee1926", "type": "electric_scooter", "name": "9ff800289eedf7d82ef0b5ca75ee1926"}, {"is_disabled": 0, "is_reserved": 0, "fusion_lat": 0.0, "lat": 38.96184483333333, "fusion_lon": 0.0, "rental_uris": {"ios": "https://dc.lft.to/lastmile_qr_scan", "android": "https://dc.lft.to/lastmile_qr_scan"}, "lon": -77.09900633333334, "bike_id": "95e78ea3610cd66907f3dde7131078a8", "type": "electric_bike", "name": "95e78ea3610cd66907f3dde7131078a8"}, {"is_disabled": 0, "is_reserved": 0, "fusion_lat": 0.0, "lat": 38.925251, "fusion_lon": 0.0, "rental_uris": {"ios": "https://dc.lft.to/lastmile_qr_scan", "android": "https://dc.lft.to/lastmile_qr_scan"}, "lon": -77.02969233333333, "bike_id": "2351cd84bae2755ea0d79c34a5f7e781", "type": "electric_scooter", "name": "2351cd84bae2755ea0d79c34a5f7e781"}, {"is_disabled": 0, "is_reserved": 0, "fusion_lat": 0.0, "lat": 38.893342, "fusion_lon": 0.0, "rental_uris": {"ios": "https://dc.lft.to/lastmile_qr_scan", "android": "https://dc.lft.to/lastmile_qr_scan"}, "lon": -76.92891683333333, "bike_id": "7a07a804885294d0129d6f84570288f1", "type": "electric_scooter", "name": "7a07a804885294d0129d6f84570288f1"}, {"is_disabled": 0, "is_reserved": 0, "fusion_lat": 0.0, "lat": 38.87640966666667, "fusion_lon": 0.0, "rental_uris": {"ios": "https://dc.lft.to/lastmile_qr_scan", "android": "https://dc.lft.to/lastmile_qr_scan"}, "lon": -77.00840016666666, "bike_id": "7547bfa6267bd4cbbd049296a0405e05", "type": "electric_scooter", "name": "7547bfa6267bd4cbbd049296a0405e05"}, {"is_disabled": 0, "is_reserved": 0, "fusion_lat": 0.0, "lat": 38.8968835, "fusion_lon": 0.0, "rental_uris": {"ios": "https://dc.lft.to/lastmile_qr_scan", "android": "https://dc.lft.to/lastmile_qr_scan"}, "lon": -77.024073, "bike_id": "8b469445955b9be0b7bba357391a70df", "type": "electric_scooter", "name": "8b469445955b9be0b7bba357391a70df"}, {"is_disabled": 0, "is_reserved": 0, "fusion_lat": 0.0, "lat": 38.915494833333334, "fusion_lon": 0.0, "rental_uris": {"ios": "https://dc.lft.to/lastmile_qr_scan", "android": "https://dc.lft.to/lastmile_qr_scan"}, "lon": -77.0314875, "bike_id": "b047817f7c569573ab5cbdc5fc20394f", "type": "electric_scooter", "name": "b047817f7c569573ab5cbdc5fc20394f"}, {"is_disabled": 0, "is_reserved": 0, "fusion_lat": 0.0, "lat": 38.89220733333333, "fusion_lon": 0.0, "rental_uris": {"ios": "https://dc.lft.to/lastmile_qr_scan", "android": "https://dc.lft.to/lastmile_qr_scan"}, "lon": -77.04686783333334, "bike_id": "c3ad1ecbaf03f3620de5af7c181323f6", "type": "electric_scooter", "name": "c3ad1ecbaf03f3620de5af7c181323f6"}, {"is_disabled": 0, "is_reserved": 0, "fusion_lat": 0.0, "lat": 38.89225583333333, "fusion_lon": 0.0, "rental_uris": {"ios": "https://dc.lft.to/lastmile_qr_scan", "android": "https://dc.lft.to/lastmile_qr_scan"}, "lon": -77.04507816666667, "bike_id": "00889edd4ff84a29aa6e0cd3cac0ba2e", "type": "electric_scooter", "name": "00889edd4ff84a29aa6e0cd3cac0ba2e"}, {"is_disabled": 0, "is_reserved": 0, "fusion_lat": 0.0, "lat": 38.895029, "fusion_lon": 0.0, "rental_uris": {"ios": "https://dc.lft.to/lastmile_qr_scan", "android": "https://dc.lft.to/lastmile_qr_scan"}, "lon": -76.97407, "bike_id": "0f6f51fed3c61b894c5806d21b9607fc", "type": "electric_scooter", "name": "0f6f51fed3c61b894c5806d21b9607fc"}, {"is_disabled": 0, "is_reserved": 0, "fusion_lat": 0.0, "lat": 38.84277683333333, "fusion_lon": 0.0, "rental_uris": {"ios": "https://dc.lft.to/lastmile_qr_scan", "android": "https://dc.lft.to/lastmile_qr_scan"}, "lon": -76.98840283333334, "bike_id": "33cd798d6250bf0482e2248f2c33bd60", "type": "electric_bike", "name": "33cd798d6250bf0482e2248f2c33bd60"},