{"data": {"bikes": [{"fusion_lat": 0.0, "name": "cd2a193b2e2945056d3bdace1d2cce65", "is_disabled": 0, "rental_uris": {"android": "https://dc.lft.to/lastmile_qr_scan", "ios": "https://dc.lft.to/lastmile_qr_scan"}, "fusion_lon": 0.0, "lat": 38.886671166666666, "bike_id": "cd2a193b2e2945056d3bdace1d2cce65", "type": "electric_scooter", "is_reserved": 0, "lon": -77.02821716666666}, {"fusion_lat": 0.0, "name": "37c120f87038a1602cd9a990cd3088ae", "is_disabled": 0, "rental_uris": {"android": "https://dc.lft.to/lastmile_qr_scan", "ios": "https://dc.lft.to/lastmile_qr_scan"}, "fusion_lon": 0.0, "lat": 38.92439733333333, "bike_id": "37c120f87038a1602cd9a990cd3088ae", "type": "electric_scooter", "is_reserved": 0, "lon": -77.034097}, {"fusion_lat": 0.0, "name": "5333b05ac94bbefa51456581cdf3ac0e", "is_disabled": 0, "rental_uris": {"android": "https://dc.lft.to/lastmile_qr_scan", "ios": "https://dc.lft.to/lastmile_qr_scan"}, "fusion_lon": 0.0, "lat": 38.92611683333333, "bike_id": "5333b05ac94bbefa51456581cdf3ac0e", "type": "electric_scooter", "is_reserved": 0, "lon": -77.021608}, {"fusion_lat": 0.0, "name": "b14ea8de999bb9656187e65db189c6d7", "is_disabled": 0, "rental_uris": {"android": "https://dc.lft.to/lastmile_qr_scan", "ios": "https://dc.lft.to/lastmile_qr_scan"}, "fusion_lon": 0.0, "lat": 38.932608333333334, "bike_id": "b14ea8de999bb9656187e65db189c6d7", "type": "electric_scooter", "is_reserved": 0, "lon": -77.06620016666666}, {"fusion_lat": 0.0, "name": "22721cecabf0cd0079da5e49bb13b5c8", "is_disabled": 0, "rental_uris": {"android": "https://dc.lft.to/lastmile_qr_scan", "ios": "https://dc.lft.to/lastmile_qr_scan"}, "fusion_lon": 0.0, "lat": 38.8990365, "bike_id": "22721cecabf0cd0079da5e49bb13b5c8", "type": "electric_scooter", "is_reserved": 0, "lon": -76.99011566666667}, {"fusion_lat": 0.0, "name": "0b2e95d8594fddf7457cc649b08a53fd", "is_disabled": 0, "rental_uris": {"android": "https://dc.lft.to/lastmile_qr_scan", "ios": "https://dc.lft.to/lastmile_qr_scan"}, "fusion_lon": 0.0, "lat": 38.90580966666667, "bike_id": "0b2e95d8594fddf7457cc649b08a53fd", "type": "electric_scooter", "is_reserved": 0, "lon": -77.02209416666666}, {"fusion_lat": 0.0, "name": "c3bf81b40e5cf1112812eb6e6b1cedda", "is_disabled": 0, "rental_uris": {"android": "https://dc.lft.to/lastmile_qr_scan", "ios": "https://dc.lft.to/lastmile_qr_scan"}, "fusion_lon": 0.0, "lat": 38.91120166666666, "bike_id": "c3bf81b40e5cf1112812eb6e6b1cedda", "type": "electric_scooter", "is_reserved": 0, "lon": -77.0423355}, {"fusion_lat": 0.0, "name": "886ba2fd7563c0aa24d92cda9de34516", "is_disabled": 0, "rental_uris": {"android": "https://dc.lft.to/lastmile_qr_scan", "ios": "https://dc.lft.to/lastmile_qr_scan"}, "fusion_lon": 0.0, "lat": 38.892425, "bike_id": "886ba2fd7563c0aa24d92cda9de34516", "type": "electric_scooter", "is_reserved": 0, "lon": -77.0335035}, {"fusion_lat": 0.0, "name": "2310ddef22525d50b4971086f9edba7f", "is_disabled": 0, "rental_uris": {"android": "https://dc.lft.to/lastmile_qr_scan", "ios": "https://dc.lft.to/lastmile_qr_scan"}, "fusion_lon": 0.0, "lat": 38.922876, "bike_id": "2310ddef22525d50b4971086f9edba7f", "type": "electric_scooter", "is_reserved": 0, "lon": -77.03658916666667}, {"fusion_lat": 0.0, "name": "8906aaa87a2fd940dae4cdd47aaa3038", "is_disabled": 0, "rental_uris": {"android": "https://dc.lft.to/lastmile_qr_scan", "ios": "https://dc.lft.to/lastmile_qr_scan"}, "fusion_lon": 0.0, "lat": 38.937063333333334, "bike_id": "8906aaa87a2fd940dae4cdd47aaa3038", "type": "electric_scooter", "is_reserved": 0, "lon": -77.06106733333333}, {"fusion_lat": 0.0, "name": "e7437f4d771b9f7a5800ae730b2a1156", "is_disabled": 0, "rental_uris": {"android": "https://dc.lft.to/lastmile_qr_scan", "ios": "https://dc.lft.to/lastmile_qr_scan"}, "fusion_lon": 0.0, "lat": 38.8900425, "bike_id": "e7437f4d771b9f7a5800ae730b2a1156", "type": "electric_scooter", "is_reserved": 0, "lon": -76.9374435}, {"fusion_lat": 0.0, "name": "8de17d0fcda8467a32e95a3f7b787dd5", "is_disabled": 0, "rental_uris": {"android": "https://dc.lft.to/lastmile_qr_scan", "ios": "https://dc.lft.to/lastmile_qr_scan"}, "fusion_lon": 0.0, "lat": 38.93261916666667, "bike_id": "8de17d0fcda8467a32e95a3f7b787dd5", "type": "electric_scooter", "is_reserved": 0, "lon": -77.0326455}, {"fusion_lat": 0.0, "name": "460cd2173feb2913c74e9710575c504b", "is_disabled": 0, "rental_uris": {"android": "https://dc.lft.to/lastmile_qr_scan", "ios": "https://dc.lft.to/lastmile_qr_scan"}, "fusion_lon": 0.0, "lat": 38.924447666666666, "bike_id": "460cd2173feb2913c74e9710575c504b", "type": "electric_scooter", "is_reserved": 0, "lon": -77.05182983333333}, {"fusion_lat": 0.0, "name": "abd1bc2454de8edb6e77d79bcedfa2cd", "is_disabled": 0, "rental_uris": {"android": "https://dc.lft.to/lastmile_qr_scan", "ios": "https://dc.lft.to/lastmile_qr_scan"}, "fusion_lon": 0.0, "lat": 38.93966133333333, "bike_id": "abd1bc2454de8edb6e77d79bcedfa2cd", "type": "electric_scooter", "is_reserved": 0, "lon": -77.032552}, {"fusion_lat": 0.0, "name": "89996044b6c671d27f305840fd01e7aa", "is_disabled": 0, "rental_uris": {"android": "https://dc.lft.to/lastmile_qr_scan", "ios": "https://dc.lft.to/lastmile_qr_scan"}, "fusion_lon": 0.0, "lat": 38.887215166666664, "bike_id": "89996044b6c671d27f305840fd01e7aa", "type": "electric_scooter", "is_reserved": 0, "lon": -76.99684016666667}, {"fusion_lat": 0.0, "name": "7950d636d606bebaeccf6217015eb590", "is_disabled": 0, "rental_uris": {"android": "https://dc.lft.to/lastmile_qr_scan", "ios": "https://dc.lft.to/lastmile_qr_scan"}, "fusion_lon": 0.0, "lat": 38.8625385, "bike_id": "7950d636d606bebaeccf6217015eb590", "type": "electric_scooter", "is_reserved": 0, "lon": -76.99513716666667}, {"fusion_lat": 0.0, "name": "e251ff27be6dc5205f7b2c2bdefd0b9c", "is_disabled": 0, "rental_uris": {"android": "https://dc.lft.to/lastmile_qr_scan", "ios": "https://dc.lft.to/lastmile_qr_scan"}, "fusion_lon": 0.0, "lat": 38.89224183333333, "bike_id": "e251ff27be6dc5205f7b2c2bdefd0b9c", "type": "electric_scooter", "is_reserved": 0, "lon": -77.03177316666667}, {"fusion_lat": 0.0, "name": "d3b909cd2744a5c8153bee435c4a7f1d", "is_disabled": 0, "rental_uris": {"android": "https://dc.lft.to/lastmile_qr_scan", "ios": "https://dc.lft.to/lastmile_qr_scan"}, "fusion_lon": 0.0, "lat": 38.899428, "bike_id": "d3b909cd2744a5c8153bee435c4a7f1d", "type": "electric_scooter", "is_reserved": 0, "lon": -76.98162033333334}, {"fusion_lat": 0.0, "name": "1f8a2a2385f755ffe70c96e9a478cb53", "is_disabled": 0, "rental_uris": {"android": "https://dc.lft.to/lastmile_qr_scan", "ios": "https://dc.lft.to/lastmile_qr_scan"}, "fusion_lon": 0.0, "lat": 38.9002435, "bike_id": "1f8a2a2385f755ffe70c96e9a478cb53", "type": "electric_scooter", "is_reserved": 0, "lon": -77.01185916666667}, {"fusion_lat": 0.0, "name": "155d8a5e678acfee380ad203696a231f", "is_disabled": 0, "rental_uris": {"android": "https://dc.lft.to/lastmile_qr_scan", "ios": "https://dc.lft.to/lastmile_qr_scan"}, "fusion_lon": 0.0, "lat": 38.92074016666667, "bike_id": "155d8a5e678acfee380ad203696a231f", "type": "electric_scooter", "is_reserved": 0, "lon": -77.02447933333333}, {"fusion_lat": 0.0, "name": "7818707732d8935a7ccb2f5d3d1dccbe", "is_disabled": 0, "rental_uris": {"android": "https://dc.lft.to/lastmile_qr_scan", "ios": "https://dc.lft.to/lastmile_qr_scan"}, "fusion_lon": 0.0, "lat": 38.9289545, "bike_id": "7818707732d8935a7ccb2f5d3d1dccbe", "type": "electric_bike", "is_reserved": 0, "lon": -77.23177266666667}, {"fusion_lat": 0.0, "name": "e2ff4869baf5c9d2f2cf30b65bc25c03", "is_disabled": 0, "rental_uris": {"android": "https://dc.lft.to/lastmile_qr_scan", "ios": "https://dc.lft.to/lastmile_qr_scan"}, "fusion_lon": 0.0, "lat": 38.9134225, "bike_id": "e2ff4869baf5c9d2f2cf30b65bc25c03", "type": "electric_scooter", "is_reserved": 0, "lon": -77.04261616666666}, {"fusion_lat": 0.0, "name": "fb45a9eb620dee295ac0d36174fd4bc4", "is_disabled": 0, "rental_uris": {"android": "https://dc.lft.to/lastmile_qr_scan", "ios": "https://dc.lft.to/lastmile_qr_scan"}, "fusion_lon": 0.0, "lat": 38.89785466666667, "bike_id": "fb45a9eb620dee295ac0d36174fd4bc4", "type": "electric_scooter", "is_reserved": 0, "lon": -77.01202116666667}, {"fusion_lat": 0.0, "name": "db65709021508f247956983ecbc70719", "is_disabled": 0, "rental_uris": {"android": "https://dc.lft.to/lastmile_qr_scan", "ios": "https://dc.lft.to/lastmile_qr_scan"}, "fusion_lon": 0.0, "lat": 38.89231566666667, "bike_id": "db65709021508f247956983ecbc70719", "type": "electric_scooter", "is_reserved": 0, "lon": -77.02583683333333}, {"fusion_lat": 0.0, "name": "20d1cb0d8da9048309c106efda435f7e", "is_disabled": 0, "rental_uris": {"android": "https://dc.lft.to/lastmile_qr_scan", "ios": "https://dc.lft.to/lastmile_qr_scan"}, "fusion_lon": 0.0, "lat": 38.90855216666667, "bike_id": "20d1cb0d8da9048309c106efda435f7e", "type": "electric_scooter", "is_reserved": 0, "lon": -77.03840683333334}, {"fusion_lat": 0.0, "name": "3bd7cd3bc3f11c2bbcc21d2591b4615b", "is_disabled": 0, "rental_uris": {"android": "https://dc.lft.to/lastmile_qr_scan", "ios": "https://dc.lft.to/lastmile_qr_scan"}, "fusion_lon": 0.0, "lat": 38.920950500000004, "bike_id": "3bd7cd3bc3f11c2bbcc21d2591b4615b", "type": "electric_bike", "is_reserved": 0, "lon": -76.999407}, {"fusion_lat": 0.0, "name": "4f9f2eb55eb52521f0d838832eb4f364", "is_disabled": 0, "rental_uris": {"android": "https://dc.lft.to/lastmile_qr_scan", "ios": "https://dc.lft.to/lastmile_qr_scan"}, "fusion_lon": 0.0, "lat": 38.91416866666667, "bike_id": "4f9f2eb55eb52521f0d838832eb4f364", "type": "electric_scooter", "is_reserved": 0, "lon": -77.02206616666666}, {"fusion_lat": 0.0, "name": "483be2f4d17abe9a985b986c673a99b0", "is_disabled": 0, "rental_uris": {"android": "https://dc.lft.to/lastmile_qr_scan", "ios": "https://dc.lft.to/lastmile_qr_scan"}, "fusion_lon": 0.0, "lat": 38.923409666666664, "bike_id": "483be2f4d17abe9a985b986c673a99b0", "type": "electric_scooter", "is_reserved": 0, "lon": -77.041406}, {"fusion_lat": 0.0, "name": "b332744e052367f262d6933fbfa49aa8", "is_disabled": 0, "rental_uris": {"android": "https://dc.lft.to/lastmile_qr_scan", "ios": "https://dc.lft.to/lastmile_qr_scan"}, "fusion_lon": 0.0, "lat": 38.952894, "bike_id": "b332744e052367f262d6933fbfa49aa8", "type": "electric_scooter", "is_reserved": 0, "lon": -77.06854283333334}, {"fusion_lat": 0.0, "name": "6899ad438d61944162a3e0afa82cdca1", "is_disabled": 0, "rental_uris": {"android": "https://dc.lft.to/lastmile_qr_scan", "ios": "https://dc.lft.to/lastmile_qr_scan"}, "fusion_lon": 0.0, "lat": 38.9127715, "bike_id": "6899ad438d61944162a3e0afa82cdca1", "type": "electric_scooter", "is_reserved": 0, "lon": -77.02301683333333}, {"fusion_lat": 0.0, "name": "7a044833758d42f6c57286615df5c381", "is_disabled": 0, "rental_uris": {"android": "https://dc.lft.to/lastmile_qr_scan", "ios": "https://dc.lft.to/lastmile_qr_scan"}, "fusion_lon": 0.0, "lat": 38.91921633333333, "bike_id": "7a044833758d42f6c57286615df5c381", "type": "electric_scooter", "is_reserved": 0, "lon": -77.0247765}, {"fusion_lat": 0.0, "name": "352384d6946e908b16174d85d55dce5d", "is_disabled": 0, "rental_uris": {"android": "https://dc.lft.to/lastmile_qr_scan", "ios": "https://dc.lft.to/lastmile_qr_scan"}, "fusion_lon": 0.0, "lat": 38.90579, "bike_id": "352384d6946e908b16174d85d55dce5d", "type": "electric_scooter", "is_reserved": 0, "lon": -77.02204866666666}, {"fusion_lat": 0.0, "name": "beabebfa9922def6caa5fc91569ee467", "is_disabled": 0, "rental_uris": {"android": "https://dc.lft.to/lastmile_qr_scan", "ios": "https://dc.lft.to/lastmile_qr_scan"}, "fusion_lon": 0.0, "lat": 38.905501, "bike_id": "beabebfa9922def6caa5fc91569ee467", "type": "electric_scooter", "is_reserved": 0, "lon": -77.04632516666666}, {"fusion_lat": 0.0, "name": "a91c063887a852cd0b62f606194c80bf", "is_disabled": 0, "rental_uris": {"android": "https://dc.lft.to/lastmile_qr_scan", "ios": "https://dc.lft.to/lastmile_qr_scan"}, "fusion_lon": 0.0, "lat": 38.9237805, "bike_id": "a91c063887a852cd0b62f606194c80bf", "type": "electric_scooter", "is_reserved": 0, "lon": -77.02132833333333}, {"fusion_lat": 0.0, "name": "57da1670e010e2b7c48d19fb201941d4", "is_disabled": 0, "rental_uris": {"android": "https://dc.lft.to/lastmile_qr_scan", "ios": "https://dc.lft.to/lastmile_qr_scan"}, "fusion_lon": 0.0, "lat": 38.907836833333334, "bike_id": "57da1670e010e2b7c48d19fb201941d4", "type": "electric_scooter", "is_reserved": 0, "lon": -77.03853216666667}, {"fusion_lat": 0.0, "name": "5226aee2d5b1acdf49ff8b5b7dab6147", "is_disabled": 0, "rental_uris": {"android": "https://dc.lft.to/lastmile_qr_scan", "ios": "https://dc.lft.to/lastmile_qr_scan"}, "fusion_lon": 0.0, "lat": 38.90795633333333, "bike_id": "5226aee2d5b1acdf49ff8b5b7dab6147", "type": "electric_scooter", "is_reserved": 0, "lon": -77.03436983333333}, {"fusion_lat": 0.0, "name": "87c8278f90aaeff25eb824f15be31012", "is_disabled": 0, "rental_uris": {"android": "https://dc.lft.to/lastmile_qr_scan", "ios": "https://dc.lft.to/lastmile_qr_scan"}, "fusion_lon": 0.0, "lat": 38.91333483333333, "bike_id": "87c8278f90aaeff25eb824f15be31012", "type": "electric_scooter", "is_reserved": 0, "lon": -77.02129433333333}, {"fusion_lat": 0.0, "name": "e7196bd7e2a1baa25d770eaafadbee85", "is_disabled": 0, "rental_uris": {"android": "https://dc.lft.to/lastmile_qr_scan", "ios": "https://dc.lft.to/lastmile_qr_scan"}, "fusion_lon": 0.0, "lat": 38.88340066666667, "bike_id": "e7196bd7e2a1baa25d770eaafadbee85", "type": "electric_scooter", "is_reserved": 0, "lon": -77.0168145}, {"fusion_lat": 0.0, "name": "66171330966c0e8fd8ba8ebae55aa9d4", "is_disabled": 0, "rental_uris": {"android": "https://dc.lft.to/lastmile_qr_scan", "ios": "https://dc.lft.to/lastmile_qr_scan"}, "fusion_lon": 0.0, "lat": 38.924780166666665, "bike_id": "66171330966c0e8fd8ba8ebae55aa9d4", "type": "electric_bike", "is_reserved": 0, "lon": -77.03908666666666}, {"fusion_lat": 0.0, "name": "e81c0edb36703062d2a3ff50e9a7d27e", "is_disabled": 0, "rental_uris": {"android": "https://dc.lft.to/lastmile_qr_scan", "ios": "https://dc.lft.to/lastmile_qr_scan"}, "fusion_lon": 0.0, "lat": 38.896037666666665, "bike_id": "e81c0edb36703062d2a3ff50e9a7d27e", "type": "electric_scooter", "is_reserved": 0, "lon": -77.00927016666667}, {"fusion_lat": 0.0, "name": "c7f7199d4d557984d35a240004699051", "is_disabled": 0, "rental_uris": {"android": "https://dc.lft.to/lastmile_qr_scan", "ios": "https://dc.lft.to/lastmile_qr_scan"}, "fusion_lon": 0.0, "lat": 38.928292166666665, "bike_id": "c7f7199d4d557984d35a240004699051", "type": "electric_scooter", "is_reserved": 0, "lon": -77.05433866666667}, {"fusion_lat": 0.0, "name": "b8b1a3147059ad77ec37ddd21ef04083", "is_disabled": 0, "rental_uris": {"android": "https://dc.lft.to/lastmile_qr_scan", "ios": "https://dc.lft.to/lastmile_qr_scan"}, "fusion_lon": 0.0, "lat": 38.89643683333333, "bike_id": "b8b1a3147059ad77ec37ddd21ef04083", "type": "electric_scooter", "is_reserved": 0, "lon": -77.03173466666667}, {"fusion_lat": 0.0, "name": "0afb87deef3e439113decdacdbe98888", "is_disabled": 0, "rental_uris": {"android": "https://dc.lft.to/lastmile_qr_scan", "ios": "https://dc.lft.to/lastmile_qr_scan"}, "fusion_lon": 0.0, "lat": 38.88492766666667, "bike_id": "0afb87deef3e439113decdacdbe98888", "type": "electric_scooter", "is_reserved": 0, "lon": -77.010838}, {"fusion_lat": 0.0, "name": "901dec31959012cd4f79029f826a3c16", "is_disabled": 0, "rental_uris": {"android": "https://dc.lft.to/lastmile_qr_scan", "ios": "https://dc.lft.to/lastmile_qr_scan"}, "fusion_lon": 0.0, "lat": 38.8922815, "bike_id": "901dec31959012cd4f79029f826a3c16", "type": "electric_scooter", "is_reserved": 0, "lon": -77.04397566666667}, {"fusion_lat": 0.0, "name": "6855f6fe9debe1fbb74b38f30c810977", "is_disabled": 0, "rental_uris": {"android": "https://dc.lft.to/lastmile_qr_scan", "ios": "https://dc.lft.to/lastmile_qr_scan"}, "fusion_lon": 0.0, "lat": 38.884703333333334, "bike_id": "6855f6fe9debe1fbb74b38f30c810977", "type": "electric_scooter", "is_reserved": 0, "lon": -77.01509533333333}, {"fusion_lat": 0.0, "name": "d211c8b1a05e7d38c658ebfe955ec64a", "is_disabled": 0, "rental_uris": {"android": "https://dc.lft.to/lastmile_qr_scan", "ios": "https://dc.lft.to/lastmile_qr_scan"}, "fusion_lon": 0.0, "lat": 38.91740583333333, "bike_id": "d211c8b1a05e7d38c658ebfe955ec64a", "type": "electric_scooter", "is_reserved": 0, "lon": -77.0684335}, {"fusion_lat": 0.0, "name": "656e489c48ef2ec0c940efa27d3ec281", "is_disabled": 0, "rental_uris": {"android": "https://dc.lft.to/lastmile_qr_scan", "ios": "https://dc.lft.to/lastmile_qr_scan"}, "fusion_lon": 0.0, "lat": 38.9132675, "bike_id": "656e489c48ef2ec0c940efa27d3ec281", "type": "electric_scooter", "is_reserved": 0, "lon": -77.021375}, {"fusion_lat": 0.0, "name": "ed09f9848b6348af239ddd4933513aba", "is_disabled": 0, "rental_uris": {"android": "https://dc.lft.to/lastmile_qr_scan", "ios": "https://dc.lft.to/lastmile_qr_scan"}, "fusion_lon": 0.0, "lat": 38.8866505, "bike_id": "ed09f9848b6348af239ddd4933513aba", "type": "electric_scooter", "is_reserved": 0, "lon": -77.02820016666666}, {"fusion_lat": 0.0, "name": "7658ea7866ff49e4a230bbc92e41df27", "is_disabled": 0, "rental_uris": {"android": "https://dc.lft.to/lastmile_qr_scan", "ios": "https://dc.lft.to/lastmile_qr_scan"}, "fusion_lon": 0.0, "lat": 38.926131833333336, "bike_id": "7658ea7866ff49e4a230bbc92e41df27", "type": "electric_scooter", "is_reserved": 0, "lon": -77.02165783333334}, {"fusion_lat": 0.0, "name": "24908b1c534a83c3970c80dd4e574f7b", "is_disabled": 0, "rental_uris": {"android": "https://dc.lft.to/lastmile_qr_scan", "ios": "https://dc.lft.to/lastmile_qr_scan"}, "fusion_lon": 0.0, "lat": 38.900146166666666, "bike_id": "24908b1c534a83c3970c80dd4e574f7b", "type": "electric_scooter", "is_reserved": 0, "lon": -76.98809183333333}, {"fusion_lat": 0.0, "name": "fb0f57038e0771ef3e0dfc76d31fb25c", "is_disabled": 0, "rental_uris": {"android": "https://dc.lft.to/lastmile_qr_scan", "ios": "https://dc.lft.to/lastmile_qr_scan"}, "fusion_lon": 0.0, "lat": 38.9155, "bike_id": "fb0f57038e0771ef3e0dfc76d31fb25c", "type": "electric_scooter", "is_reserved": 0, "lon": -77.03211983333334}, {"fusion_lat": 0.0, "name": "d853b10f617bee169eb31e18b2b99eb2", "is_disabled": 0, "rental_uris": {"android": "https://dc.lft.to/lastmile_qr_scan", "ios": "https://dc.lft.to/lastmile_qr_scan"}, "fusion_lon": 0.0, "lat": 38.92423566666667, "bike_id": "d853b10f617bee169eb31e18b2b99eb2", "type": "electric_scooter", "is_reserved": 0, "lon": -77.01952333333334}, {"fusion_lat": 0.0, "name": "19d3c8dd45b5f570f60ed76aa8773e46", "is_disabled": 0, "rental_uris": {"android": "https://dc.lft.to/lastmile_qr_scan", "ios": "https://dc.lft.to/lastmile_qr_scan"}, "fusion_lon": 0.0, "lat": 38.928312, "bike_id": "19d3c8dd45b5f570f60ed76aa8773e46", "type": "electric_scooter", "is_reserved": 0, "lon": -77.05460433333333}, {"fusion_lat": 0.0, "name": "fcdfe26c96309c98d14ef23c179c67dd", "is_disabled": 0, "rental_uris": {"android": "https://dc.lft.to/lastmile_qr_scan", "ios": "https://dc.lft.to/lastmile_qr_scan"}, "fusion_lon": 0.0, "lat": 38.897319333333336, "bike_id": "fcdfe26c96309c98d14ef23c179c67dd", "type": "electric_scooter", "is_reserved": 0, "lon": -77.02324866666666}, {"fusion_lat": 0.0, "name": "3cb6b5822863fac51353cc4595faf417", "is_disabled": 0, "rental_uris": {"android": "https://dc.lft.to/lastmile_qr_scan", "ios": "https://dc.lft.to/lastmile_qr_scan"}, "fusion_lon": 0.0, "lat": 38.9175075, "bike_id": "3cb6b5822863fac51353cc4595faf417", "type": "electric_scooter", "is_reserved": 0, "lon": -77.030702}, {"fusion_lat": 0.0, "name": "3fd1e066bdf63979cb682ad0bb2e39d4", "is_disabled": 0, "rental_uris": {"android": "https://dc.lft.to/lastmile_qr_scan", "ios": "https://dc.lft.to/lastmile_qr_scan"}, "fusion_lon": 0.0, "lat": 38.921307, "bike_id": "3fd1e066bdf63979cb682ad0bb2e39d4", "type": "electric_scooter", "is_reserved": 0, "lon": -77.01788933333333}, {"fusion_lat": 0.0, "name": "c0ca9726e0311e46f676becdb6075a30", "is_disabled": 0, "rental_uris": {"android": "https://dc.lft.to/lastmile_qr_scan", "ios": "https://dc.lft.to/lastmile_qr_scan"}, "fusion_lon": 0.0, "lat": 38.90292483333333, "bike_id": "c0ca9726e0311e46f676becdb6075a30", "type": "electric_scooter", "is_reserved": 0, "lon": -77.02246383333333}, {"fusion_lat": 0.0, "name": "e71f1e4f9e7b7b8d504c31c262293930", "is_disabled": 0, "rental_uris": {"android": "https://dc.lft.to/lastmile_qr_scan", "ios": "https://dc.lft.to/lastmile_qr_scan"}, "fusion_lon": 0.0, "lat": 38.9076145, "bike_id": "e71f1e4f9e7b7b8d504c31c262293930", "type": "electric_scooter", "is_reserved": 0, "lon": -77.05692566666667}, {"fusion_lat": 0.0, "name": "25aedcab0149f8f935540e23cc23afa4", "is_disabled": 0, "rental_uris": {"android": "https://dc.lft.to/lastmile_qr_scan", "ios": "https://dc.lft.to/lastmile_qr_scan"}, "fusion_lon": 0.0, "lat": 38.92692233333333, "bike_id": "25aedcab0149f8f935540e23cc23afa4", "type": "electric_scooter", "is_reserved": 0, "lon": -77.02183383333333}, {"fusion_lat": 0.0, "name": "fbdcba67bf74ff11823aa1e911b1d085", "is_disabled": 0, "rental_uris": {"android": "https://dc.lft.to/lastmile_qr_scan", "ios": "https://dc.lft.to/lastmile_qr_scan"}, "fusion_lon": 0.0, "lat": 38.86629716666667, "bike_id": "fbdcba67bf74ff11823aa1e911b1d085", "type": "electric_scooter", "is_reserved": 0, "lon": -76.98712816666666}, {"fusion_lat": 0.0, "name": "06a563c2de04a56f4a5ffc956b2601af", "is_disabled": 0, "rental_uris": {"android": "https://dc.lft.to/lastmile_qr_scan", "ios": "https://dc.lft.to/lastmile_qr_scan"}, "fusion_lon": 0.0, "lat": 38.902718, "bike_id": "06a563c2de04a56f4a5ffc956b2601af", "type": "electric_scooter", "is_reserved": 0, "lon": -77.05312283333333}, {"fusion_lat": 0.0, "name": "b6a0dcf1767aba44f1ce9ec9cc727d72", "is_disabled": 0, "rental_uris": {"android": "https://dc.lft.to/lastmile_qr_scan", "ios": "https://dc.lft.to/lastmile_qr_scan"}, "fusion_lon": 0.0, "lat": 38.9094915, "bike_id": "b6a0dcf1767aba44f1ce9ec9cc727d72", "type": "electric_bike", "is_reserved": 0, "lon": -76.98447616666667}, {"fusion_lat": 0.0, "name": "288ba1ad1e97e21eb8ba7d2c883f08b3", "is_disabled": 0, "rental_uris": {"android": "https://dc.lft.to/lastmile_qr_scan", "ios": "https://dc.lft.to/lastmile_qr_scan"}, "fusion_lon": 0.0, "lat": 38.827886166666666, "bike_id": "288ba1ad1e97e21eb8ba7d2c883f08b3", "type": "electric_bike", "is_reserved": 0, "lon": -77.12489183333334}, {"fusion_lat": 0.0, "name": "7b6ac8526ba630f3e53b2a91b457fdcd", "is_disabled": 0, "rental_uris": {"android": "https://dc.lft.to/lastmile_qr_scan", "ios": "https://dc.lft.to/lastmile_qr_scan"}, "fusion_lon": 0.0, "lat": 38.917777666666666, "bike_id": "7b6ac8526ba630f3e53b2a91b457fdcd", "type": "electric_scooter", "is_reserved": 0, "lon": -77.01452416666666}, {"fusion_lat": 0.0, "name": "c67fd69150f2728402fd9dd7e934bca9", "is_disabled": 0, "rental_uris": {"android": "https://dc.lft.to/lastmile_qr_scan", "ios": "https://dc.lft.to/lastmile_qr_scan"}, "fusion_lon": 0.0, "lat": 38.89731966666667, "bike_id": "c67fd69150f2728402fd9dd7e934bca9", "type": "electric_scooter", "is_reserved": 0, "lon": -77.02343883333333}, {"fusion_lat": 0.0, "name": "61b79059f083b0b3e82f1c9ba6e61541", "is_disabled": 0, "rental_uris": {"android": "https://dc.lft.to/lastmile_qr_scan", "ios": "https://dc.lft.to/lastmile_qr_scan"}, "fusion_lon": 0.0, "lat": 38.9259395, "bike_id": "61b79059f083b0b3e82f1c9ba6e61541", "type": "electric_scooter", "is_reserved": 0, "lon": -77.04403383333333}, {"fusion_lat": 0.0, "name": "6fe63e115db0e80df9c3981ce7fec3bc", "is_disabled": 0, "rental_uris": {"android": "https://dc.lft.to/lastmile_qr_scan", "ios": "https://dc.lft.to/lastmile_qr_scan"}, "fusion_lon": 0.0, "lat": 38.925182666666664, "bike_id": "6fe63e115db0e80df9c3981ce7fec3bc", "type": "electric_scooter", "is_reserved": 0, "lon": -77.023537}, {"fusion_lat": 0.0, "name": "cb7c80bcbaa9f376996d2e5325c9bc94", "is_disabled": 0, "rental_uris": {"android": "https://dc.lft.to/lastmile_qr_scan", "ios": "https://dc.lft.to/lastmile_qr_scan"}, "fusion_lon": 0.0, "lat": 38.8860275, "bike_id": "cb7c80bcbaa9f376996d2e5325c9bc94", "type": "electric_scooter", "is_reserved": 0, "lon": -77.04508366666667}, {"fusion_lat": 0.0, "name": "8f0086d06cfd166c3a1b3c49d5ef69d3", "is_disabled": 0, "rental_uris": {"android": "https://dc.lft.to/lastmile_qr_scan", "ios": "https://dc.lft.to/lastmile_qr_scan"}, "fusion_lon": 0.0, "lat": 38.91993333333333, "bike_id": "8f0086d06cfd166c3a1b3c49d5ef69d3", "type": "electric_scooter", "is_reserved": 0, "lon": -77.0239825}, {"fusion_lat": 0.0, "name": "4c5bb823175346d9bfed68cac25fd315", "is_disabled": 0, "rental_uris": {"android": "https://dc.lft.to/lastmile_qr_scan", "ios": "https://dc.lft.to/lastmile_qr_scan"}, "fusion_lon": 0.0, "lat": 38.91115966666667, "bike_id": "4c5bb823175346d9bfed68cac25fd315", "type": "electric_scooter", "is_reserved": 0, "lon": -77.081328}, {"fusion_lat": 0.0, "name": "715a9671fb77e2742384b4834f11fef9", "is_disabled": 0, "rental_uris": {"android": "https://dc.lft.to/lastmile_qr_scan", "ios": "https://dc.lft.to/lastmile_qr_scan"}, "fusion_lon": 0.0, "lat": 38.93699616666667, "bike_id": "715a9671fb77e2742384b4834f11fef9", "type": "electric_scooter", "is_reserved": 0, "lon": -77.055979}, {"fusion_lat": 0.0, "name": "38c4f013c0f942c2cff86bec4a44ab3c", "is_disabled": 0, "rental_uris": {"android": "https://dc.lft.to/lastmile_qr_scan", "ios": "https://dc.lft.to/lastmile_qr_scan"}, "fusion_lon": 0.0, "lat": 38.906444, "bike_id": "38c4f013c0f942c2cff86bec4a44ab3c", "type": "electric_scooter", "is_reserved": 0, "lon": -77.04868633333334}, {"fusion_lat": 0.0, "name": "9f79734a64b29056b37ce97cd8c5ce8a", "is_disabled": 0, "rental_uris": {"android": "https://dc.lft.to/lastmile_qr_scan", "ios": "https://dc.lft.to/lastmile_qr_scan"}, "fusion_lon": 0.0, "lat": 38.885398333333335, "bike_id": "9f79734a64b29056b37ce97cd8c5ce8a", "type": "electric_scooter", "is_reserved": 0, "lon": -77.0005265}, {"fusion_lat": 0.0, "name": "1a95f2798004cd34138894b355d18590", "is_disabled": 0, "rental_uris": {"android": "https://dc.lft.to/lastmile_qr_scan", "ios": "https://dc.lft.to/lastmile_qr_scan"}, "fusion_lon": 0.0, "lat": 38.93463416666667, "bike_id": "1a95f2798004cd34138894b355d18590", "type": "electric_scooter", "is_reserved": 0, "lon": -77.02785233333333}, {"fusion_lat": 0.0, "name": "2979c27124f626eb2b56a942ee16f57a", "is_disabled": 0, "rental_uris": {"android": "https://dc.lft.to/lastmile_qr_scan", "ios": "https://dc.lft.to/lastmile_qr_scan"}, "fusion_lon": 0.0, "lat": 38.83932733333333, "bike_id": "2979c27124f626eb2b56a942ee16f57a", "type": "electric_bike", "is_reserved": 0, "lon": -77.07899616666667}, {"fusion_lat": 0.0, "name": "eaf51a9d3d7da24d40724bed78142263", "is_disabled": 0, "rental_uris": {"android": "https://dc.lft.to/lastmile_qr_scan", "ios": "https://dc.lft.to/lastmile_qr_scan"}, "fusion_lon": 0.0, "lat": 38.90146, "bike_id": "eaf51a9d3d7da24d40724bed78142263", "type": "electric_scooter", "is_reserved": 0, "lon": -76.98655566666666}, {"fusion_lat": 0.0, "name": "da4d21d894086d1fbb8e5989692b0af2", "is_disabled": 0, "rental_uris": {"android": "https://dc.lft.to/lastmile_qr_scan", "ios": "https://dc.lft.to/lastmile_qr_scan"}, "fusion_lon": 0.0, "lat": 38.978816, "bike_id": "da4d21d894086d1fbb8e5989692b0af2", "type": "electric_bike", "is_reserved": 0, "lon": -77.06029133333334}, {"fusion_lat": 0.0, "name": "85110ef8d75b1d1d00954117c3c93b0a", "is_disabled": 0, "rental_uris": {"android": "https://dc.lft.to/lastmile_qr_scan", "ios": "https://dc.lft.to/lastmile_qr_scan"}, "fusion_lon": 0.0, "lat": 38.8738415, "bike_id": "85110ef8d75b1d1d00954117c3c93b0a", "type": "electric_scooter", "is_reserved": 0, "lon": -77.00063733333333}, {"fusion_lat": 0.0, "name": "ab670ac26533dd815d135b4380e40053", "is_disabled": 0, "rental_uris": {"android": "https://dc.lft.to/lastmile_qr_scan", "ios": "https://dc.lft.to/lastmile_qr_scan"}, "fusion_lon": 0.0, "lat": 38.89922583333333, "bike_id": "ab670ac26533dd815d135b4380e40053", "type": "electric_scooter", "is_reserved": 0, "lon": -77.00363916666667}, {"fusion_lat": 0.0, "name": "63402a91dad71e80cd7a40675bc3fc5a", "is_disabled": 0, "rental_uris": {"android": "https://dc.lft.to/lastmile_qr_scan", "ios": "https://dc.lft.to/lastmile_qr_scan"}, "fusion_lon": 0.0, "lat": 38.932599, "bike_id": "63402a91dad71e80cd7a40675bc3fc5a", "type": "electric_scooter", "is_reserved": 0, "lon": -77.03265616666667}, {"fusion_lat": 0.0, "name": "eebd9a83fd0b8c6a549f77c7db931f67", "is_disabled": 0, "rental_uris": {"android": "https://dc.lft.to/lastmile_qr_scan", "ios": "https://dc.lft.to/lastmile_qr_scan"}, "fusion_lon": 0.0, "lat": 38.93661616666667, "bike_id": "eebd9a83fd0b8c6a549f77c7db931f67", "type": "electric_scooter", "is_reserved": 0, "lon": -77.05499466666667}, {"fusion_lat": 0.0, "name": "c6fc41e2334966477590681bb79e000d", "is_disabled": 0, "rental_uris": {"android": "https://dc.lft.to/lastmile_qr_scan", "ios": "https://dc.lft.to/lastmile_qr_scan"}, "fusion_lon": 0.0, "lat": 38.91024433333333, "bike_id": "c6fc41e2334966477590681bb79e000d", "type": "electric_scooter", "is_reserved": 0, "lon": -77.04479683333334}, {"fusion_lat": 0.0, "name": "7820f22dd43ba2dd802ecb20523509ed", "is_disabled": 0, "rental_uris": {"android": "https://dc.lft.to/lastmile_qr_scan", "ios": "https://dc.lft.to/lastmile_qr_scan"}, "fusion_lon": 0.0, "lat": 38.90461916666667, "bike_id": "7820f22dd43ba2dd802ecb20523509ed", "type": "electric_scooter", "is_reserved": 0, "lon": -77.02877966666667}, {"fusion_lat": 0.0, "name": "31e069218732c21602585dba2e3698b9", "is_disabled": 0, "rental_uris": {"android": "https://dc.lft.to/lastmile_qr_scan", "ios": "https://dc.lft.to/lastmile_qr_scan"}, "fusion_lon": 0.0, "lat": 38.921558, "bike_id": "31e069218732c21602585dba2e3698b9", "type": "electric_scooter", "is_reserved": 0, "lon": -77.0343995}, {"fusion_lat": 0.0, "name": "f571d7cc22889e890347153b09b55fe6", "is_disabled": 0, "rental_uris": {"android": "https://dc.lft.to/lastmile_qr_scan", "ios": "https://dc.lft.to/lastmile_qr_scan"}, "fusion_lon": 0.0, "lat": 38.886165166666665, "bike_id": "f571d7cc22889e890347153b09b55fe6", "type": "electric_scooter", "is_reserved": 0, "lon": -77.0196825}, {"fusion_lat": 0.0, "name": "7c350f9a2b70c49159b5b377eb052223", "is_disabled": 0, "rental_uris": {"android": "https://dc.lft.to/lastmile_qr_scan", "ios": "https://dc.lft.to/lastmile_qr_scan"}, "fusion_lon": 0.0, "lat": 38.87379466666667, "bike_id": "7c350f9a2b70c49159b5b377eb052223", "type": "electric_scooter", "is_reserved": 0, "lon": -77.00055916666666}, {"fusion_lat": 0.0, "name": "b7c735b8837649000fe851e697f41d2a", "is_disabled": 0, "rental_uris": {"android": "https://dc.lft.to/lastmile_qr_scan", "ios": "https://dc.lft.to/lastmile_qr_scan"}, "fusion_lon": 0.0, "lat": 38.9188615, "bike_id": "b7c735b8837649000fe851e697f41d2a", "type": "electric_bike", "is_reserved": 0, "lon": -76.96598733333333}, {"fusion_lat": 0.0, "name": "f98bedd8c1c053d4b1e6ac7383106214", "is_disabled": 0, "rental_uris": {"android": "https://dc.lft.to/lastmile_qr_scan", "ios": "https://dc.lft.to/lastmile_qr_scan"}, "fusion_lon": 0.0, "lat": 38.93145716666667, "bike_id": "f98bedd8c1c053d4b1e6ac7383106214", "type": "electric_scooter", "is_reserved": 0, "lon": -77.0298665}, {"fusion_lat": 0.0, "name": "1ae828c600fe1f3a7ba9b8d0618e1a8f", "is_disabled": 0, "rental_uris": {"android": "https://dc.lft.to/lastmile_qr_scan", "ios": "https://dc.lft.to/lastmile_qr_scan"}, "fusion_lon": 0.0, "lat": 38.91852466666667, "bike_id": "1ae828c600fe1f3a7ba9b8d0618e1a8f", "type": "electric_scooter", "is_reserved": 0, "lon": -77.02709016666667}, {"fusion_lat": 0.0, "name": "cde3a0a5efb58bf43fa5de0f092b3cbf", "is_disabled": 0, "rental_uris": {"android": "https://dc.lft.to/lastmile_qr_scan", "ios": "https://dc.lft.to/lastmile_qr_scan"}, "fusion_lon": 0.0, "lat": 38.874346333333335, "bike_id": "cde3a0a5efb58bf43fa5de0f092b3cbf", "type": "electric_scooter", "is_reserved": 0, "lon": -77.01885216666666}, {"fusion_lat": 0.0, "name": "d356aa331628ce362a8eab16a26516f9", "is_disabled": 0, "rental_uris": {"android": "https://dc.lft.to/lastmile_qr_scan", "ios": "https://dc.lft.to/lastmile_qr_scan"}, "fusion_lon": 0.0, "lat": 38.917684666666666, "bike_id": "d356aa331628ce362a8eab16a26516f9", "type": "electric_scooter", "is_reserved": 0, "lon": -77.047722}, {"fusion_lat": 0.0, "name": "8962e720072d94d7265d9a8f44420f26", "is_disabled": 0, "rental_uris": {"android": "https://dc.lft.to/lastmile_qr_scan", "ios": "https://dc.lft.to/lastmile_qr_scan"}, "fusion_lon": 0.0, "lat": 38.90387116666667, "bike_id": "8962e720072d94d7265d9a8f44420f26", "type": "electric_scooter", "is_reserved": 0, "lon": -77.041845}, {"fusion_lat": 0.0, "name": "ec89bf8da700c403cc9de1c4e502550a", "is_disabled": 0, "rental_uris": {"android": "https://dc.lft.to/lastmile_qr_scan", "ios": "https://dc.lft.to/lastmile_qr_scan"}, "fusion_lon": 0.0, "lat": 38.8890765, "bike_id": "ec89bf8da700c403cc9de1c4e502550a", "type": "electric_scooter", "is_reserved": 0, "lon": -76.9773305}, {"fusion_lat": 0.0, "name": "0b3f192b3e4d22dd700d879ed6629afc", "is_disabled": 0, "rental_uris": {"android": "https://dc.lft.to/lastmile_qr_scan", "ios": "https://dc.lft.to/lastmile_qr_scan"}, "fusion_lon": 0.0, "lat": 38.928028, "bike_id": "0b3f192b3e4d22dd700d879ed6629afc", "type": "electric_scooter", "is_reserved": 0, "lon": -77.02395783333333}, {"fusion_lat": 0.0, "name": "81e3929c396e647018e7eaa80b677f5e", "is_disabled": 0, "rental_uris": {"android": "https://dc.lft.to/lastmile_qr_scan", "ios": "https://dc.lft.to/lastmile_qr_scan"}, "fusion_lon": 0.0, "lat": 38.9057345, "bike_id": "81e3929c396e647018e7eaa80b677f5e", "type": "electric_scooter", "is_reserved": 0, "lon": -77.03464916666667}, {"fusion_lat": 0.0, "name": "2b489101aa4b4d04f7641a6c7237f9a4", "is_disabled": 0, "rental_uris": {"android": "https://dc.lft.to/lastmile_qr_scan", "ios": "https://dc.lft.to/lastmile_qr_scan"}, "fusion_lon": 0.0, "lat": 38.9162725, "bike_id": "2b489101aa4b4d04f7641a6c7237f9a4", "type": "electric_scooter", "is_reserved": 0, "lon": -77.04558883333333}, {"fusion_lat": 0.0, "name": "6ffb38c53f8a5402173bd9a374de8755", "is_disabled": 0, "rental_uris": {"android": "https://dc.lft.to/lastmile_qr_scan", "ios": "https://dc.lft.to/lastmile_qr_scan"}, "fusion_lon": 0.0, "lat": 38.90154783333333, "bike_id": "6ffb38c53f8a5402173bd9a374de8755", "type": "electric_scooter", "is_reserved": 0, "lon": -77.02318216666667}, {"fusion_lat": 0.0, "name": "6afc429eaf6749956cab2f389cc831bd", "is_disabled": 0, "rental_uris": {"android": "https://dc.lft.to/lastmile_qr_scan", "ios": "https://dc.lft.to/lastmile_qr_scan"}, "fusion_lon": 0.0, "lat": 38.873828, "bike_id": "6afc429eaf6749956cab2f389cc831bd", "type": "electric_scooter", "is_reserved": 0, "lon": -77.000546}, {"fusion_lat": 0.0, "name": "d89dcce5ed2eba6e06c1438a5529948d", "is_disabled": 0, "rental_uris": {"android": "https://dc.lft.to/lastmile_qr_scan", "ios": "https://dc.lft.to/lastmile_qr_scan"}, "fusion_lon": 0.0, "lat": 38.86764316666667, "bike_id": "d89dcce5ed2eba6e06c1438a5529948d", "type": "electric_scooter", "is_reserved": 0, "lon": -76.98269816666667}, {"fusion_lat": 0.0, "name": "6684f4023f93e4a00f6a2b36132896c4", "is_disabled": 0, "rental_uris": {"android": "https://dc.lft.to/lastmile_qr_scan", "ios": "https://dc.lft.to/lastmile_qr_scan"}, "fusion_lon": 0.0, "lat": 38.91637866666667, "bike_id": "6684f4023f93e4a00f6a2b36132896c4", "type": "electric_scooter", "is_reserved": 0, "lon": -77.031849}, {"fusion_lat": 0.0, "name": "17d096a178c10194f2fcb7243c2e9b2e", "is_disabled": 0, "rental_uris": {"android": "https://dc.lft.to/lastmile_qr_scan", "ios": "https://dc.lft.to/lastmile_qr_scan"}, "fusion_lon": 0.0, "lat": 38.924015, "bike_id": "17d096a178c10194f2fcb7243c2e9b2e", "type": "electric_scooter", "is_reserved": 0, "lon": -77.0428795}, {"fusion_lat": 0.0, "name": "e34d09420131997cd0326dcaf008c9a3", "is_disabled": 0, "rental_uris": {"android": "https://dc.lft.to/lastmile_qr_scan", "ios": "https://dc.lft.to/lastmile_qr_scan"}, "fusion_lon": 0.0, "lat": 38.89228116666666, "bike_id": "e34d09420131997cd0326dcaf008c9a3", "type": "electric_scooter", "is_reserved": 0, "lon": -77.01549416666667}, {"fusion_lat": 0.0, "name": "f1df186f3e2ef3bcb86cfd9d70d1ca4d", "is_disabled": 0, "rental_uris": {"android": "https://dc.lft.to/lastmile_qr_scan", "ios": "https://dc.lft.to/lastmile_qr_scan"}, "fusion_lon": 0.0, "lat": 38.9229455, "bike_id": "f1df186f3e2ef3bcb86cfd9d70d1ca4d", "type": "electric_scooter", "is_reserved": 0, "lon": -77.02974166666667}, {"fusion_lat": 0.0, "name": "32a5066f44678f9db9b8a6fbbc81fc4b", "is_disabled": 0, "rental_uris": {"android": "https://dc.lft.to/lastmile_qr_scan", "ios": "https://dc.lft.to/lastmile_qr_scan"}, "fusion_lon": 0.0, "lat": 38.9345865, "bike_id": "32a5066f44678f9db9b8a6fbbc81fc4b", "type": "electric_scooter", "is_reserved": 0, "lon": -77.07265133333334}, {"fusion_lat": 0.0, "name": "d5a8fc1e721ce2b36f883de3607f2b16", "is_disabled": 0, "rental_uris": {"android": "https://dc.lft.to/lastmile_qr_scan", "ios": "https://dc.lft.to/lastmile_qr_scan"}, "fusion_lon": 0.0, "lat": 38.88524783333333, "bike_id": "d5a8fc1e721ce2b36f883de3607f2b16", "type": "electric_scooter", "is_reserved": 0, "lon": -77.01510133333333}, {"fusion_lat": 0.0, "name": "b055840be4baae3323d344eb6a612f5b", "is_disabled": 0, "rental_uris": {"android": "https://dc.lft.to/lastmile_qr_scan", "ios": "https://dc.lft.to/lastmile_qr_scan"}, "fusion_lon": 0.0, "lat": 38.928581333333334, "bike_id": "b055840be4baae3323d344eb6a612f5b", "type": "electric_scooter", "is_reserved": 0, "lon": -77.03521916666666}, {"fusion_lat": 0.0, "name": "907bbcd8bcb3e3601603e2245defe41c", "is_disabled": 0, "rental_uris": {"android": "https://dc.lft.to/lastmile_qr_scan", "ios": "https://dc.lft.to/lastmile_qr_scan"}, "fusion_lon": 0.0, "lat": 38.90003683333333, "bike_id": "907bbcd8bcb3e3601603e2245defe41c", "type": "electric_scooter", "is_reserved": 0, "lon": -77.00665016666666}, {"fusion_lat": 0.0, "name": "c0ed9557d9366c44bc423ba7290353fc", "is_disabled": 0, "rental_uris": {"android": "https://dc.lft.to/lastmile_qr_scan", "ios": "https://dc.lft.to/lastmile_qr_scan"}, "fusion_lon": 0.0, "lat": 38.924144166666665, "bike_id": "c0ed9557d9366c44bc423ba7290353fc", "type": "electric_scooter", "is_reserved": 0, "lon": -77.050542}, {"fusion_lat": 0.0, "name": "d9cf86b82435396b8a0c3e262e69df34", "is_disabled": 0, "rental_uris": {"android": "https://dc.lft.to/lastmile_qr_scan", "ios": "https://dc.lft.to/lastmile_qr_scan"}, "fusion_lon": 0.0, "lat": 38.897172833333336, "bike_id": "d9cf86b82435396b8a0c3e262e69df34", "type": "electric_scooter", "is_reserved": 0, "lon": -77.01306166666667}, {"fusion_lat": 0.0, "name": "fd79c23422f9c69dd84ee29f29b891a1", "is_disabled": 0, "rental_uris": {"android": "https://dc.lft.to/lastmile_qr_scan", "ios": "https://dc.lft.to/lastmile_qr_scan"}, "fusion_lon": 0.0, "lat": 38.904231, "bike_id": "fd79c23422f9c69dd84ee29f29b891a1", "type": "electric_scooter", "is_reserved": 0, "lon": -76.94974933333333}, {"fusion_lat": 0.0, "name": "e5361d065f3e05f4ea9970ba7844aebe", "is_disabled": 0, "rental_uris": {"android": "https://dc.lft.to/lastmile_qr_scan", "ios": "https://dc.lft.to/lastmile_qr_scan"}, "fusion_lon": 0.0, "lat": 38.9350875, "bike_id": "e5361d065f3e05f4ea9970ba7844aebe", "type": "electric_scooter", "is_reserved": 0, "lon": -77.02410766666667}, {"fusion_lat": 0.0, "name": "1fd1ea52c5d7fb6ef4cd33ca1683fbeb", "is_disabled": 0, "rental_uris": {"android": "https://dc.lft.to/lastmile_qr_scan", "ios": "https://dc.lft.to/lastmile_qr_scan"}, "fusion_lon": 0.0, "lat": 38.87923816666667, "bike_id": "1fd1ea52c5d7fb6ef4cd33ca1683fbeb", "type": "electric_scooter", "is_reserved": 0, "lon": -76.94482383333333}, {"fusion_lat": 0.0, "name": "99f0ac65a18bc2c9138ba937c1dc46d4", "is_disabled": 0, "rental_uris": {"android": "https://dc.lft.to/lastmile_qr_scan", "ios": "https://dc.lft.to/lastmile_qr_scan"}, "fusion_lon": 0.0, "lat": 38.911168, "bike_id": "99f0ac65a18bc2c9138ba937c1dc46d4", "type": "electric_scooter", "is_reserved": 0, "lon": -77.0066325}, {"fusion_lat": 0.0, "name": "01cf85d7918760c8a0b84ed235a9fab6", "is_disabled": 0, "rental_uris": {"android": "https://dc.lft.to/lastmile_qr_scan", "ios": "https://dc.lft.to/lastmile_qr_scan"}, "fusion_lon": 0.0, "lat": 38.88901766666667, "bike_id": "01cf85d7918760c8a0b84ed235a9fab6", "type": "electric_scooter", "is_reserved": 0, "lon": -76.992044}, {"fusion_lat": 0.0, "name": "d8e1e7420c11cece944aa0917fa40252", "is_disabled": 0, "rental_uris": {"android": "https://dc.lft.to/lastmile_qr_scan", "ios": "https://dc.lft.to/lastmile_qr_scan"}, "fusion_lon": 0.0, "lat": 38.915674333333335, "bike_id": "d8e1e7420c11cece944aa0917fa40252", "type": "electric_scooter", "is_reserved": 0, "lon": -77.03147}, {"fusion_lat": 0.0, "name": "03b5f302e2b40784bf64e97d05c778ce", "is_disabled": 0, "rental_uris": {"android": "https://dc.lft.to/lastmile_qr_scan", "ios": "https://dc.lft.to/lastmile_qr_scan"}, "fusion_lon": 0.0, "lat": 38.89356566666667, "bike_id": "03b5f302e2b40784bf64e97d05c778ce", "type": "electric_bike", "is_reserved": 0, "lon": -77.1874505}, {"fusion_lat": 0.0, "name": "91d12a02437c7d745c34e2ac0164e2b1", "is_disabled": 0, "rental_uris": {"android": "https://dc.lft.to/lastmile_qr_scan", "ios": "https://dc.lft.to/lastmile_qr_scan"}, "fusion_lon": 0.0, "lat": 38.94952383333333, "bike_id": "91d12a02437c7d745c34e2ac0164e2b1", "type": "electric_scooter", "is_reserved": 0, "lon": -77.02314516666667}, {"fusion_lat": 0.0, "name": "7e5f5a941cc95808193a798b0a0a430a", "is_disabled": 0, "rental_uris": {"android": "https://dc.lft.to/lastmile_qr_scan", "ios": "https://dc.lft.to/lastmile_qr_scan"}, "fusion_lon": 0.0, "lat": 38.892449, "bike_id": "7e5f5a941cc95808193a798b0a0a430a", "type": "electric_bike", "is_reserved": 0, "lon": -76.98543433333333}, {"fusion_lat": 0.0, "name": "8894075eef52a4af5207a1a339b984b7", "is_disabled": 0, "rental_uris": {"android": "https://dc.lft.to/lastmile_qr_scan", "ios": "https://dc.lft.to/lastmile_qr_scan"}, "fusion_lon": 0.0, "lat": 38.9098925, "bike_id": "8894075eef52a4af5207a1a339b984b7", "type": "electric_scooter", "is_reserved": 0, "lon": -77.03191266666667}, {"fusion_lat": 0.0, "name": "e04ad7c68ad9646c8e5f192c0aad3ac4", "is_disabled": 0, "rental_uris": {"android": "https://dc.lft.to/lastmile_qr_scan", "ios": "https://dc.lft.to/lastmile_qr_scan"}, "fusion_lon": 0.0, "lat": 38.89432883333333, "bike_id": "e04ad7c68ad9646c8e5f192c0aad3ac4", "type": "electric_scooter", "is_reserved": 0, "lon": -77.001066}, {"fusion_lat": 0.0, "name": "c353a0273a5ea0b0834b6ede7e682f25", "is_disabled": 0, "rental_uris": {"android": "https://dc.lft.to/lastmile_qr_scan", "ios": "https://dc.lft.to/lastmile_qr_scan"}, "fusion_lon": 0.0, "lat": 38.90220883333333, "bike_id": "c353a0273a5ea0b0834b6ede7e682f25", "type": "electric_bike", "is_reserved": 0, "lon": -76.98346433333333}, {"fusion_lat": 0.0, "name": "017f5ea9c7083972b89f157c47f5c29d", "is_disabled": 0, "rental_uris": {"android": "https://dc.lft.to/lastmile_qr_scan", "ios": "https://dc.lft.to/lastmile_qr_scan"}, "fusion_lon": 0.0, "lat": 38.92614666666667, "bike_id": "017f5ea9c7083972b89f157c47f5c29d", "type": "electric_scooter", "is_reserved": 0, "lon": -77.02160316666667}, {"fusion_lat": 0.0, "name": "3ae25762e13e0a181f6b3bad99841c13", "is_disabled": 0, "rental_uris": {"android": "https://dc.lft.to/lastmile_qr_scan", "ios": "https://dc.lft.to/lastmile_qr_scan"}, "fusion_lon": 0.0, "lat": 38.87726983333334, "bike_id": "3ae25762e13e0a181f6b3bad99841c13", "type": "electric_scooter", "is_reserved": 0, "lon": -77.01761933333333}, {"fusion_lat": 0.0, "name": "04da9187e348111557ee4be709ded3fb", "is_disabled": 0, "rental_uris": {"android": "https://dc.lft.to/lastmile_qr_scan", "ios": "https://dc.lft.to/lastmile_qr_scan"}, "fusion_lon": 0.0, "lat": 38.923586, "bike_id": "04da9187e348111557ee4be709ded3fb", "type": "electric_scooter", "is_reserved": 0, "lon": -77.0337165}, {"fusion_lat": 0.0, "name": "8932af356cc77bf0e3230ba46e3f8f5a", "is_disabled": 0, "rental_uris": {"android": "https://dc.lft.to/lastmile_qr_scan", "ios": "https://dc.lft.to/lastmile_qr_scan"}, "fusion_lon": 0.0, "lat": 38.9177195, "bike_id": "8932af356cc77bf0e3230ba46e3f8f5a", "type": "electric_scooter", "is_reserved": 0, "lon": -77.022793}, {"fusion_lat": 0.0, "name": "5898b818446ab4baf893d3d1afb0d47f", "is_disabled": 0, "rental_uris": {"android": "https://dc.lft.to/lastmile_qr_scan", "ios": "https://dc.lft.to/lastmile_qr_scan"}, "fusion_lon": 0.0, "lat": 38.95615983333333, "bike_id": "5898b818446ab4baf893d3d1afb0d47f", "type": "electric_scooter", "is_reserved": 0, "lon": -77.02760266666667}, {"fusion_lat": 0.0, "name": "3f439f00c92e0e2ae8481390a08409e5", "is_disabled": 0, "rental_uris": {"android": "https://dc.lft.to/lastmile_qr_scan", "ios": "https://dc.lft.to/lastmile_qr_scan"}, "fusion_lon": 0.0, "lat": 38.930704166666665, "bike_id": "3f439f00c92e0e2ae8481390a08409e5", "type": "electric_scooter", "is_reserved": 0, "lon": -77.01941266666667}, {"fusion_lat": 0.0, "name": "46e21a218136add6a3b692a19cf18498", "is_disabled": 0, "rental_uris": {"android": "https://dc.lft.to/lastmile_qr_scan", "ios": "https://dc.lft.to/lastmile_qr_scan"}, "fusion_lon": 0.0, "lat": 38.9431285, "bike_id": "46e21a218136add6a3b692a19cf18498", "type": "electric_scooter", "is_reserved": 0, "lon": -77.06058233333333}, {"fusion_lat": 0.0, "name": "54bc3b63e09adc848bdc2335af5de0a1", "is_disabled": 0, "rental_uris": {"android": "https://dc.lft.to/lastmile_qr_scan", "ios": "https://dc.lft.to/lastmile_qr_scan"}, "fusion_lon": 0.0, "lat": 38.907223, "bike_id": "54bc3b63e09adc848bdc2335af5de0a1", "type": "electric_scooter", "is_reserved": 0, "lon": -77.02967083333333}, {"fusion_lat": 0.0, "name": "b395221e3c86d76e1394b8713fd7c6a5", "is_disabled": 0, "rental_uris": {"android": "https://dc.lft.to/lastmile_qr_scan", "ios": "https://dc.lft.to/lastmile_qr_scan"}, "fusion_lon": 0.0, "lat": 38.910337, "bike_id": "b395221e3c86d76e1394b8713fd7c6a5", "type": "electric_scooter", "is_reserved": 0, "lon": -77.0151225}, {"fusion_lat": 0.0, "name": "9b972586d6a8ef1cf61403c72a1258e8", "is_disabled": 0, "rental_uris": {"android": "https://dc.lft.to/lastmile_qr_scan", "ios": "https://dc.lft.to/lastmile_qr_scan"}, "fusion_lon": 0.0, "lat": 38.962288666666666, "bike_id": "9b972586d6a8ef1cf61403c72a1258e8", "type": "electric_bike", "is_reserved": 0, "lon": -76.92760166666666}, {"fusion_lat": 0.0, "name": "936fc15603618dc06fe12e452382e315", "is_disabled": 0, "rental_uris": {"android": "https://dc.lft.to/lastmile_qr_scan", "ios": "https://dc.lft.to/lastmile_qr_scan"}, "fusion_lon": 0.0, "lat": 38.90423916666667, "bike_id": "936fc15603618dc06fe12e452382e315", "type": "electric_scooter", "is_reserved": 0, "lon": -77.03847383333333}, {"fusion_lat": 0.0, "name": "915a6468834c6ee671459393ca1f08fe", "is_disabled": 0, "rental_uris": {"android": "https://dc.lft.to/lastmile_qr_scan", "ios": "https://dc.lft.to/lastmile_qr_scan"}, "fusion_lon": 0.0, "lat": 38.92028216666667, "bike_id": "915a6468834c6ee671459393ca1f08fe", "type": "electric_scooter", "is_reserved": 0, "lon": -77.01025116666666}, {"fusion_lat": 0.0, "name": "64d7d0f8b5f88af2e2bec9661c0f2db9", "is_disabled": 0, "rental_uris": {"android": "https://dc.lft.to/lastmile_qr_scan", "ios": "https://dc.lft.to/lastmile_qr_scan"}, "fusion_lon": 0.0, "lat": 38.92301616666666, "bike_id": "64d7d0f8b5f88af2e2bec9661c0f2db9", "type": "electric_scooter", "is_reserved": 0, "lon": -77.04260583333334}, {"fusion_lat": 0.0, "name": "869e914203d76db3dc5554be83d188ca", "is_disabled": 0, "rental_uris": {"android": "https://dc.lft.to/lastmile_qr_scan", "ios": "https://dc.lft.to/lastmile_qr_scan"}, "fusion_lon": 0.0, "lat": 38.91328933333333, "bike_id": "869e914203d76db3dc5554be83d188ca", "type": "electric_scooter", "is_reserved": 0, "lon": -77.03190766666667}, {"fusion_lat": 0.0, "name": "9bd7df8b7a20ee799a75b0f2b2b22465", "is_disabled": 0, "rental_uris": {"android": "https://dc.lft.to/lastmile_qr_scan", "ios": "https://dc.lft.to/lastmile_qr_scan"}, "fusion_lon": 0.0, "lat": 38.8833515, "bike_id": "9bd7df8b7a20ee799a75b0f2b2b22465", "type": "electric_scooter", "is_reserved": 0, "lon": -77.018329}, {"fusion_lat": 0.0, "name": "27f91a8174686b360c120628545e06be", "is_disabled": 0, "rental_uris": {"android": "https://dc.lft.to/lastmile_qr_scan", "ios": "https://dc.lft.to/lastmile_qr_scan"}, "fusion_lon": 0.0, "lat": 38.96730983333333, "bike_id": "27f91a8174686b360c120628545e06be", "type": "electric_scooter", "is_reserved": 0, "lon": -77.00917916666667}, {"fusion_lat": 0.0, "name": "3df84af9d12a495e827a38f16518d7bf", "is_disabled": 0, "rental_uris": {"android": "https://dc.lft.to/lastmile_qr_scan", "ios": "https://dc.lft.to/lastmile_qr_scan"}, "fusion_lon": 0.0, "lat": 38.919216, "bike_id": "3df84af9d12a495e827a38f16518d7bf", "type": "electric_scooter", "is_reserved": 0, "lon": -77.02612216666667}, {"fusion_lat": 0.0, "name": "dc1cac756115ee0b68d97b4d58b7ec50", "is_disabled": 0, "rental_uris": {"android": "https://dc.lft.to/lastmile_qr_scan", "ios": "https://dc.lft.to/lastmile_qr_scan"}, "fusion_lon": 0.0, "lat": 38.89621666666667, "bike_id": "dc1cac756115ee0b68d97b4d58b7ec50", "type": "electric_scooter", "is_reserved": 0, "lon": -77.02652366666666}, {"fusion_lat": 0.0, "name": "4f323df6f67cd73962138ac06fea9016", "is_disabled": 0, "rental_uris": {"android": "https://dc.lft.to/lastmile_qr_scan", "ios": "https://dc.lft.to/lastmile_qr_scan"}, "fusion_lon": 0.0, "lat": 38.89730983333333, "bike_id": "4f323df6f67cd73962138ac06fea9016", "type": "electric_scooter", "is_reserved": 0, "lon": -77.04989683333334}, {"fusion_lat": 0.0, "name": "e5025939bb315ba92941c97890cc0a84", "is_disabled": 0, "rental_uris": {"android": "https://dc.lft.to/lastmile_qr_scan", "ios": "https://dc.lft.to/lastmile_qr_scan"}, "fusion_lon": 0.0, "lat": 38.95249733333333, "bike_id": "e5025939bb315ba92941c97890cc0a84", "type": "electric_scooter", "is_reserved": 0, "lon": -77.02375216666667}, {"fusion_lat": 0.0, "name": "18a65874356fde7885b798aaf1877b72", "is_disabled": 0, "rental_uris": {"android": "https://dc.lft.to/lastmile_qr_scan", "ios": "https://dc.lft.to/lastmile_qr_scan"}, "fusion_lon": 0.0, "lat": 38.893572166666665, "bike_id": "18a65874356fde7885b798aaf1877b72", "type": "electric_scooter", "is_reserved": 0, "lon": -77.00063883333333}, {"fusion_lat": 0.0, "name": "c65b008e09a76204f72b902246b28364", "is_disabled": 0, "rental_uris": {"android": "https://dc.lft.to/lastmile_qr_scan", "ios": "https://dc.lft.to/lastmile_qr_scan"}, "fusion_lon": 0.0, "lat": 38.91789833333333, "bike_id": "c65b008e09a76204f72b902246b28364", "type": "electric_scooter", "is_reserved": 0, "lon": -77.03188266666666}, {"fusion_lat": 0.0, "name": "912440c744d78262b5764b8dd747b9e1", "is_disabled": 0, "rental_uris": {"android": "https://dc.lft.to/lastmile_qr_scan", "ios": "https://dc.lft.to/lastmile_qr_scan"}, "fusion_lon": 0.0, "lat": 38.8926085, "bike_id": "912440c744d78262b5764b8dd747b9e1", "type": "electric_bike", "is_reserved": 0, "lon": -76.95116983333334}, {"fusion_lat": 0.0, "name": "bd1068cb3afa383e7f04b3198b3fd59c", "is_disabled": 0, "rental_uris": {"android": "https://dc.lft.to/lastmile_qr_scan", "ios": "https://dc.lft.to/lastmile_qr_scan"}, "fusion_lon": 0.0, "lat": 38.911261, "bike_id": "bd1068cb3afa383e7f04b3198b3fd59c", "type": "electric_scooter", "is_reserved": 0, "lon": -77.01993183333333}, {"fusion_lat": 0.0, "name": "24f51e7d180dbaffeeea2f6aba90e198", "is_disabled": 0, "rental_uris": {"android": "https://dc.lft.to/lastmile_qr_scan", "ios": "https://dc.lft.to/lastmile_qr_scan"}, "fusion_lon": 0.0, "lat": 38.89877116666667, "bike_id": "24f51e7d180dbaffeeea2f6aba90e198", "type": "electric_scooter", "is_reserved": 0, "lon": -77.04663883333333}, {"fusion_lat": 0.0, "name": "ec92a9fb0322d4144e0177c7589674fc", "is_disabled": 0, "rental_uris": {"android": "https://dc.lft.to/lastmile_qr_scan", "ios": "https://dc.lft.to/lastmile_qr_scan"}, "fusion_lon": 0.0, "lat": 38.924651833333336, "bike_id": "ec92a9fb0322d4144e0177c7589674fc", "type": "electric_scooter", "is_reserved": 0, "lon": -77.08028283333333}, {"fusion_lat": 0.0, "name": "a53e9e12ec584c4ef914910911be2c9f", "is_disabled": 0, "rental_uris": {"android": "https://dc.lft.to/lastmile_qr_scan", "ios": "https://dc.lft.to/lastmile_qr_scan"}, "fusion_lon": 0.0, "lat": 38.884017, "bike_id": "a53e9e12ec584c4ef914910911be2c9f", "type": "electric_scooter", "is_reserved": 0, "lon": -76.9304615}, {"fusion_lat": 0.0, "name": "94bd10c4f9689c70ac51f1a445004b81", "is_disabled": 0, "rental_uris": {"android": "https://dc.lft.to/lastmile_qr_scan", "ios": "https://dc.lft.to/lastmile_qr_scan"}, "fusion_lon": 0.0, "lat": 38.89651933333333, "bike_id": "94bd10c4f9689c70ac51f1a445004b81", "type": "electric_scooter", "is_reserved": 0, "lon": -77.04998116666667}, {"fusion_lat": 0.0, "name": "44bbd525d9cd17544d5fc86cd3fe967f", "is_disabled": 0, "rental_uris": {"android": "https://dc.lft.to/lastmile_qr_scan", "ios": "https://dc.lft.to/lastmile_qr_scan"}, "fusion_lon": 0.0, "lat": 38.90373983333333, "bike_id": "44bbd525d9cd17544d5fc86cd3fe967f", "type": "electric_scooter", "is_reserved": 0, "lon": -77.06710016666666}, {"fusion_lat": 0.0, "name": "be1414b0384f2ea17feac49e061ac2b6", "is_disabled": 0, "rental_uris": {"android": "https://dc.lft.to/lastmile_qr_scan", "ios": "https://dc.lft.to/lastmile_qr_scan"}, "fusion_lon": 0.0, "lat": 38.915533, "bike_id": "be1414b0384f2ea17feac49e061ac2b6", "type": "electric_scooter", "is_reserved": 0, "lon": -77.04114116666666}, {"fusion_lat": 0.0, "name": "dcf5759f90aa1c5f4611d2120a7b6291", "is_disabled": 0, "rental_uris": {"android": "https://dc.lft.to/lastmile_qr_scan", "ios": "https://dc.lft.to/lastmile_qr_scan"}, "fusion_lon": 0.0, "lat": 38.90905933333333, "bike_id": "dcf5759f90aa1c5f4611d2120a7b6291", "type": "electric_scooter", "is_reserved": 0, "lon": -77.04466633333334}, {"fusion_lat": 0.0, "name": "6c4307c21941ed2a1b2bdbfaf3b3acc4", "is_disabled": 0, "rental_uris": {"android": "https://dc.lft.to/lastmile_qr_scan", "ios": "https://dc.lft.to/lastmile_qr_scan"}, "fusion_lon": 0.0, "lat": 38.9588845, "bike_id": "6c4307c21941ed2a1b2bdbfaf3b3acc4", "type": "electric_scooter", "is_reserved": 0, "lon": -77.02768616666667}, {"fusion_lat": 0.0, "name": "64c6ab219a8d00e59b487ec84138bc0d", "is_disabled": 0, "rental_uris": {"android": "https://dc.lft.to/lastmile_qr_scan", "ios": "https://dc.lft.to/lastmile_qr_scan"}, "fusion_lon": 0.0, "lat": 38.90538383333333, "bike_id": "64c6ab219a8d00e59b487ec84138bc0d", "type": "electric_scooter", "is_reserved": 0, "lon": -77.03472883333333}, {"fusion_lat": 0.0, "name": "70bdbcf6281cfd9a78300d69cd6857c3", "is_disabled": 0, "rental_uris": {"android": "https://dc.lft.to/lastmile_qr_scan", "ios": "https://dc.lft.to/lastmile_qr_scan"}, "fusion_lon": 0.0, "lat": 38.949895166666664, "bike_id": "70bdbcf6281cfd9a78300d69cd6857c3", "type": "electric_bike", "is_reserved": 0, "lon": -77.06632133333333}, {"fusion_lat": 0.0, "name": "82de4543902250b520f14d6ae70609cc", "is_disabled": 0, "rental_uris": {"android": "https://dc.lft.to/lastmile_qr_scan", "ios": "https://dc.lft.to/lastmile_qr_scan"}, "fusion_lon": 0.0, "lat": 38.81332116666667, "bike_id": "82de4543902250b520f14d6ae70609cc", "type": "electric_bike", "is_reserved": 0, "lon": -77.05085683333333}, {"fusion_lat": 0.0, "name": "bf5fa4f04c9d7f9ef42042ed3098621b", "is_disabled": 0, "rental_uris": {"android": "https://dc.lft.to/lastmile_qr_scan", "ios": "https://dc.lft.to/lastmile_qr_scan"}, "fusion_lon": 0.0, "lat": 38.92830166666667, "bike_id": "bf5fa4f04c9d7f9ef42042ed3098621b", "type": "electric_scooter", "is_reserved": 0, "lon": -77.05436633333333}, {"fusion_lat": 0.0, "name": "6f4221238f996f250ba8ee0f621fe343", "is_disabled": 0, "rental_uris": {"android": "https://dc.lft.to/lastmile_qr_scan", "ios": "https://dc.lft.to/lastmile_qr_scan"}, "fusion_lon": 0.0, "lat": 38.905837166666664, "bike_id": "6f4221238f996f250ba8ee0f621fe343", "type": "electric_scooter", "is_reserved": 0, "lon": -77.03060066666667}, {"fusion_lat": 0.0, "name": "0a3ae8249ca0af3b6ce1435412f1d35f", "is_disabled": 0, "rental_uris": {"android": "https://dc.lft.to/lastmile_qr_scan", "ios": "https://dc.lft.to/lastmile_qr_scan"}, "fusion_lon": 0.0, "lat": 38.903180166666665, "bike_id": "0a3ae8249ca0af3b6ce1435412f1d35f", "type": "electric_scooter", "is_reserved": 0, "lon": -76.97798833333333}, {"fusion_lat": 0.0, "name": "5f0160a92a5096b8feda4f9ca193f1d6", "is_disabled": 0, "rental_uris": {"android": "https://dc.lft.to/lastmile_qr_scan", "ios": "https://dc.lft.to/lastmile_qr_scan"}, "fusion_lon": 0.0, "lat": 38.94628433333333, "bike_id": "5f0160a92a5096b8feda4f9ca193f1d6", "type": "electric_scooter", "is_reserved": 0, "lon": -77.03281883333334}, {"fusion_lat": 0.0, "name": "a7792f20f024fdd6664e46b7761b3b1d", "is_disabled": 0, "rental_uris": {"android": "https://dc.lft.to/lastmile_qr_scan", "ios": "https://dc.lft.to/lastmile_qr_scan"}, "fusion_lon": 0.0, "lat": 38.8551435, "bike_id": "a7792f20f024fdd6664e46b7761b3b1d", "type": "electric_bike", "is_reserved": 0, "lon": -77.10536866666666}, {"fusion_lat": 0.0, "name": "b22137ad930b41e5f9382ce65131a438", "is_disabled": 0, "rental_uris": {"android": "https://dc.lft.to/lastmile_qr_scan", "ios": "https://dc.lft.to/lastmile_qr_scan"}, "fusion_lon": 0.0, "lat": 38.8835315, "bike_id": "b22137ad930b41e5f9382ce65131a438", "type": "electric_scooter", "is_reserved": 0, "lon": -76.99481983333334}, {"fusion_lat": 0.0, "name": "7b8a7f621a419c3e0050e4b143a2b39e", "is_disabled": 0, "rental_uris": {"android": "https://dc.lft.to/lastmile_qr_scan", "ios": "https://dc.lft.to/lastmile_qr_scan"}, "fusion_lon": 0.0, "lat": 38.88878533333333, "bike_id": "7b8a7f621a419c3e0050e4b143a2b39e", "type": "electric_scooter", "is_reserved": 0, "lon": -76.98455716666666}, {"fusion_lat": 0.0, "name": "8d8fbd1292502c1c1d9e0736b7ad377c", "is_disabled": 0, "rental_uris": {"android": "https://dc.lft.to/lastmile_qr_scan", "ios": "https://dc.lft.to/lastmile_qr_scan"}, "fusion_lon": 0.0, "lat": 38.887509333333334, "bike_id": "8d8fbd1292502c1c1d9e0736b7ad377c", "type": "electric_scooter", "is_reserved": 0, "lon": -77.0236405}, {"fusion_lat": 0.0, "name": "1670b1dc2dbfa48ba49f1929ac2aabcc", "is_disabled": 0, "rental_uris": {"android": "https://dc.lft.to/lastmile_qr_scan", "ios": "https://dc.lft.to/lastmile_qr_scan"}, "fusion_lon": 0.0, "lat": 38.9196995, "bike_id": "1670b1dc2dbfa48ba49f1929ac2aabcc", "type": "electric_scooter", "is_reserved": 0, "lon": -77.00107616666666}, {"fusion_lat": 0.0, "name": "b07f7e76d9fbe921b950e451b795d809", "is_disabled": 0, "rental_uris": {"android": "https://dc.lft.to/lastmile_qr_scan", "ios": "https://dc.lft.to/lastmile_qr_scan"}, "fusion_lon": 0.0, "lat": 38.90197283333333, "bike_id": "b07f7e76d9fbe921b950e451b795d809", "type": "electric_scooter", "is_reserved": 0, "lon": -76.92893366666667}, {"fusion_lat": 0.0, "name": "437c6e2143057c0cb599beee3dbafffb", "is_disabled": 0, "rental_uris": {"android": "https://dc.lft.to/lastmile_qr_scan", "ios": "https://dc.lft.to/lastmile_qr_scan"}, "fusion_lon": 0.0, "lat": 38.886515833333334, "bike_id": "437c6e2143057c0cb599beee3dbafffb", "type": "electric_scooter", "is_reserved": 0, "lon": -76.925833}, {"fusion_lat": 0.0, "name": "9fffc1a56b26590caf917142e1a1a12c", "is_disabled": 0, "rental_uris": {"android": "https://dc.lft.to/lastmile_qr_scan", "ios": "https://dc.lft.to/lastmile_qr_scan"}, "fusion_lon": 0.0, "lat": 38.90729533333333, "bike_id": "9fffc1a56b26590caf917142e1a1a12c", "type": "electric_scooter", "is_reserved": 0, "lon": -77.02546016666666}, {"fusion_lat": 0.0, "name": "ee5f93b9e996bd822ab7bc6c8abedbd6", "is_disabled": 0, "rental_uris": {"android": "https://dc.lft.to/lastmile_qr_scan", "ios": "https://dc.lft.to/lastmile_qr_scan"}, "fusion_lon": 0.0, "lat": 38.920490666666666, "bike_id": "ee5f93b9e996bd822ab7bc6c8abedbd6", "type": "electric_scooter", "is_reserved": 0, "lon": -77.00209416666667}, {"fusion_lat": 0.0, "name": "cef400d2864eb5d9caf7fccba38a015e", "is_disabled": 0, "rental_uris": {"android": "https://dc.lft.to/lastmile_qr_scan", "ios": "https://dc.lft.to/lastmile_qr_scan"}, "fusion_lon": 0.0, "lat": 38.904001, "bike_id": "cef400d2864eb5d9caf7fccba38a015e", "type": "electric_scooter", "is_reserved": 0, "lon": -77.0384715}, {"fusion_lat": 0.0, "name": "359123cabe78eb672caeac5d170b7c1e", "is_disabled": 0, "rental_uris": {"android": "https://dc.lft.to/lastmile_qr_scan", "ios": "https://dc.lft.to/lastmile_qr_scan"}, "fusion_lon": 0.0, "lat": 38.92878733333333, "bike_id": "359123cabe78eb672caeac5d170b7c1e", "type": "electric_scooter", "is_reserved": 0, "lon": -77.03737866666667}, {"fusion_lat": 0.0, "name": "c71bf0cfd9b471756bf4b42404ad53d8", "is_disabled": 0, "rental_uris": {"android": "https://dc.lft.to/lastmile_qr_scan", "ios": "https://dc.lft.to/lastmile_qr_scan"}, "fusion_lon": 0.0, "lat": 38.80021083333333, "bike_id": "c71bf0cfd9b471756bf4b42404ad53d8", "type": "electric_bike", "is_reserved": 0, "lon": -77.0547985}, {"fusion_lat": 0.0, "name": "75df6643054132c2f5876750de5aa7e6", "is_disabled": 0, "rental_uris": {"android": "https://dc.lft.to/lastmile_qr_scan", "ios": "https://dc.lft.to/lastmile_qr_scan"}, "fusion_lon": 0.0, "lat": 38.9192895, "bike_id": "75df6643054132c2f5876750de5aa7e6", "type": "electric_scooter", "is_reserved": 0, "lon": -77.07094466666666}, {"fusion_lat": 0.0, "name": "4db630bcfce5c317aa620be916105f18", "is_disabled": 0, "rental_uris": {"android": "https://dc.lft.to/lastmile_qr_scan", "ios": "https://dc.lft.to/lastmile_qr_scan"}, "fusion_lon": 0.0, "lat": 38.90773216666667, "bike_id": "4db630bcfce5c317aa620be916105f18", "type": "electric_scooter", "is_reserved": 0, "lon": -77.03205716666666}, {"fusion_lat": 0.0, "name": "062315049f110e160c6398c2a20b418c", "is_disabled": 0, "rental_uris": {"android": "https://dc.lft.to/lastmile_qr_scan", "ios": "https://dc.lft.to/lastmile_qr_scan"}, "fusion_lon": 0.0, "lat": 38.873332, "bike_id": "062315049f110e160c6398c2a20b418c", "type": "electric_bike", "is_reserved": 0, "lon": -77.08212866666666}, {"fusion_lat": 0.0, "name": "a1144af20657ab7bea93225e0f514c54", "is_disabled": 0, "rental_uris": {"android": "https://dc.lft.to/lastmile_qr_scan", "ios": "https://dc.lft.to/lastmile_qr_scan"}, "fusion_lon": 0.0, "lat": 38.931998, "bike_id": "a1144af20657ab7bea93225e0f514c54", "type": "electric_scooter", "is_reserved": 0, "lon": -77.03751033333333}, {"fusion_lat": 0.0, "name": "3fc655609779ceb42949f189cb31d28d", "is_disabled": 0, "rental_uris": {"android": "https://dc.lft.to/lastmile_qr_scan", "ios": "https://dc.lft.to/lastmile_qr_scan"}, "fusion_lon": 0.0, "lat": 38.900876833333335, "bike_id": "3fc655609779ceb42949f189cb31d28d", "type": "electric_scooter", "is_reserved": 0, "lon": -77.0272465}, {"fusion_lat": 0.0, "name": "f9fadca517c2aee50f5a09537b19f448", "is_disabled": 0, "rental_uris": {"android": "https://dc.lft.to/lastmile_qr_scan", "ios": "https://dc.lft.to/lastmile_qr_scan"}, "fusion_lon": 0.0, "lat": 38.90478366666667, "bike_id": "f9fadca517c2aee50f5a09537b19f448", "type": "electric_scooter", "is_reserved": 0, "lon": -77.04374183333333}, {"fusion_lat": 0.0, "name": "e094e4a18a45303c62049ff9b8de92cf", "is_disabled": 0, "rental_uris": {"android": "https://dc.lft.to/lastmile_qr_scan", "ios": "https://dc.lft.to/lastmile_qr_scan"}, "fusion_lon": 0.0, "lat": 38.90729183333333, "bike_id": "e094e4a18a45303c62049ff9b8de92cf", "type": "electric_scooter", "is_reserved": 0, "lon": -77.04353216666667}, {"fusion_lat": 0.0, "name": "faa7ea7a69bbb62dfe04580b4ac9a804", "is_disabled": 0, "rental_uris": {"android": "https://dc.lft.to/lastmile_qr_scan", "ios": "https://dc.lft.to/lastmile_qr_scan"}, "fusion_lon": 0.0, "lat": 38.9207615, "bike_id": "faa7ea7a69bbb62dfe04580b4ac9a804", "type": "electric_scooter", "is_reserved": 0, "lon": -77.02313083333334}, {"fusion_lat": 0.0, "name": "ed30010a095a9cef1236b30f3d18d06f", "is_disabled": 0, "rental_uris": {"android": "https://dc.lft.to/lastmile_qr_scan", "ios": "https://dc.lft.to/lastmile_qr_scan"}, "fusion_lon": 0.0, "lat": 38.922715833333335, "bike_id": "ed30010a095a9cef1236b30f3d18d06f", "type": "electric_scooter", "is_reserved": 0, "lon": -76.991236}, {"fusion_lat": 0.0, "name": "22abd5995c342fa79205a137caa8ded2", "is_disabled": 0, "rental_uris": {"android": "https://dc.lft.to/lastmile_qr_scan", "ios": "https://dc.lft.to/lastmile_qr_scan"}, "fusion_lon": 0.0, "lat": 38.917895, "bike_id": "22abd5995c342fa79205a137caa8ded2", "type": "electric_scooter", "is_reserved": 0, "lon": -77.02697133333334}, {"fusion_lat": 0.0, "name": "fcbb8bd143d2727b426fb2c011ab5839", "is_disabled": 0, "rental_uris": {"android": "https://dc.lft.to/lastmile_qr_scan", "ios": "https://dc.lft.to/lastmile_qr_scan"}, "fusion_lon": 0.0, "lat": 38.950722999999996, "bike_id": "fcbb8bd143d2727b426fb2c011ab5839", "type": "electric_bike", "is_reserved": 0, "lon": -77.072319}, {"fusion_lat": 0.0, "name": "6f51e59dd0f15d765e3d09eec2ccb80e", "is_disabled": 0, "rental_uris": {"android": "https://dc.lft.to/lastmile_qr_scan", "ios": "https://dc.lft.to/lastmile_qr_scan"}, "fusion_lon": 0.0, "lat": 38.9266505, "bike_id": "6f51e59dd0f15d765e3d09eec2ccb80e", "type": "electric_bike", "is_reserved": 0, "lon": -77.09853066666666}, {"fusion_lat": 0.0, "name": "0b76435587d8569cd46a2726a409401c", "is_disabled": 0, "rental_uris": {"android": "https://dc.lft.to/lastmile_qr_scan", "ios": "https://dc.lft.to/lastmile_qr_scan"}, "fusion_lon": 0.0, "lat": 38.956387166666666, "bike_id": "0b76435587d8569cd46a2726a409401c", "type": "electric_scooter", "is_reserved": 0, "lon": -77.0330355}, {"fusion_lat": 0.0, "name": "2be98462f7126e149416b6973157bc58", "is_disabled": 0, "rental_uris": {"android": "https://dc.lft.to/lastmile_qr_scan", "ios": "https://dc.lft.to/lastmile_qr_scan"}, "fusion_lon": 0.0, "lat": 38.90019216666666, "bike_id": "2be98462f7126e149416b6973157bc58", "type": "electric_scooter", "is_reserved": 0, "lon": -77.0449335}, {"fusion_lat": 0.0, "name": "605ac19da58f4221d6740390665f5730", "is_disabled": 0, "rental_uris": {"android": "https://dc.lft.to/lastmile_qr_scan", "ios": "https://dc.lft.to/lastmile_qr_scan"}, "fusion_lon": 0.0, "lat": 38.909759333333334, "bike_id": "605ac19da58f4221d6740390665f5730", "type": "electric_scooter", "is_reserved": 0, "lon": -77.02180166666666}, {"fusion_lat": 0.0, "name": "7380e54fe2c68acaf55a51248528d2c7", "is_disabled": 0, "rental_uris": {"android": "https://dc.lft.to/lastmile_qr_scan", "ios": "https://dc.lft.to/lastmile_qr_scan"}, "fusion_lon": 0.0, "lat": 38.916523833333336, "bike_id": "7380e54fe2c68acaf55a51248528d2c7", "type": "electric_scooter", "is_reserved": 0, "lon": -77.03695633333334}, {"fusion_lat": 0.0, "name": "8e4fadb0a5d7fd0633ad1889df0fd16f", "is_disabled": 0, "rental_uris": {"android": "https://dc.lft.to/lastmile_qr_scan", "ios": "https://dc.lft.to/lastmile_qr_scan"}, "fusion_lon": 0.0, "lat": 38.958769, "bike_id": "8e4fadb0a5d7fd0633ad1889df0fd16f", "type": "electric_bike", "is_reserved": 0, "lon": -76.97053516666666}, {"fusion_lat": 0.0, "name": "85240f52a8713744420988c33cd9d922", "is_disabled": 0, "rental_uris": {"android": "https://dc.lft.to/lastmile_qr_scan", "ios": "https://dc.lft.to/lastmile_qr_scan"}, "fusion_lon": 0.0, "lat": 38.913229666666666, "bike_id": "85240f52a8713744420988c33cd9d922", "type": "electric_scooter", "is_reserved": 0, "lon": -77.02954016666666}, {"fusion_lat": 0.0, "name": "4811470d6aa0e36424178dba3f85e6c8", "is_disabled": 0, "rental_uris": {"android": "https://dc.lft.to/lastmile_qr_scan", "ios": "https://dc.lft.to/lastmile_qr_scan"}, "fusion_lon": 0.0, "lat": 38.92086416666667, "bike_id": "4811470d6aa0e36424178dba3f85e6c8", "type": "electric_scooter", "is_reserved": 0, "lon": -77.0736665}, {"fusion_lat": 0.0, "name": "81025acfe5537bb5a4c173e139b183fd", "is_disabled": 0, "rental_uris": {"android": "https://dc.lft.to/lastmile_qr_scan", "ios": "https://dc.lft.to/lastmile_qr_scan"}, "fusion_lon": 0.0, "lat": 38.89246816666667, "bike_id": "81025acfe5537bb5a4c173e139b183fd", "type": "electric_scooter", "is_reserved": 0, "lon": -77.03193916666666}, {"fusion_lat": 0.0, "name": "ffa14ef41f1d190fd977700c9c5f16d6", "is_disabled": 0, "rental_uris": {"android": "https://dc.lft.to/lastmile_qr_scan", "ios": "https://dc.lft.to/lastmile_qr_scan"}, "fusion_lon": 0.0, "lat": 38.89830416666667, "bike_id": "ffa14ef41f1d190fd977700c9c5f16d6", "type": "electric_scooter", "is_reserved": 0, "lon": -77.0261825}, {"fusion_lat": 0.0, "name": "57757c48658327685ca9038baf1e5a31", "is_disabled": 0, "rental_uris": {"android": "https://dc.lft.to/lastmile_qr_scan", "ios": "https://dc.lft.to/lastmile_qr_scan"}, "fusion_lon": 0.0, "lat": 38.95746416666667, "bike_id": "57757c48658327685ca9038baf1e5a31", "type": "electric_bike", "is_reserved": 0, "lon": -76.97255583333333}, {"fusion_lat": 0.0, "name": "73bba939bb1702375afecf64b2b84da7", "is_disabled": 0, "rental_uris": {"android": "https://dc.lft.to/lastmile_qr_scan", "ios": "https://dc.lft.to/lastmile_qr_scan"}, "fusion_lon": 0.0, "lat": 38.92111333333333, "bike_id": "73bba939bb1702375afecf64b2b84da7", "type": "electric_scooter", "is_reserved": 0, "lon": -77.04693666666667}, {"fusion_lat": 0.0, "name": "051732c0f1d2608d29a470b065e8575a", "is_disabled": 0, "rental_uris": {"android": "https://dc.lft.to/lastmile_qr_scan", "ios": "https://dc.lft.to/lastmile_qr_scan"}, "fusion_lon": 0.0, "lat": 38.8979415, "bike_id": "051732c0f1d2608d29a470b065e8575a", "type": "electric_scooter", "is_reserved": 0, "lon": -77.04661266666666}, {"fusion_lat": 0.0, "name": "704705f67f2e32e9fe1e482b6ae77fb4", "is_disabled": 0, "rental_uris": {"android": "https://dc.lft.to/lastmile_qr_scan", "ios": "https://dc.lft.to/lastmile_qr_scan"}, "fusion_lon": 0.0, "lat": 38.900352833333336, "bike_id": "704705f67f2e32e9fe1e482b6ae77fb4", "type": "electric_scooter", "is_reserved": 0, "lon": -77.0582375}, {"fusion_lat": 0.0, "name": "05f9df24c62654f31677daafef9e1f91", "is_disabled": 0, "rental_uris": {"android": "https://dc.lft.to/lastmile_qr_scan", "ios": "https://dc.lft.to/lastmile_qr_scan"}, "fusion_lon": 0.0, "lat": 38.9483945, "bike_id": "05f9df24c62654f31677daafef9e1f91", "type": "electric_scooter", "is_reserved": 0, "lon": -77.02562366666666}, {"fusion_lat": 0.0, "name": "a8c3d79cc6c89acd7aa49847a09fbf75", "is_disabled": 0, "rental_uris": {"android": "https://dc.lft.to/lastmile_qr_scan", "ios": "https://dc.lft.to/lastmile_qr_scan"}, "fusion_lon": 0.0, "lat": 38.900505333333335, "bike_id": "a8c3d79cc6c89acd7aa49847a09fbf75", "type": "electric_scooter", "is_reserved": 0, "lon": -77.05596616666666}, {"fusion_lat": 0.0, "name": "4109a70f49127858ad4f3ad7183e2b33", "is_disabled": 0, "rental_uris": {"android": "https://dc.lft.to/lastmile_qr_scan", "ios": "https://dc.lft.to/lastmile_qr_scan"}, "fusion_lon": 0.0, "lat": 38.90739333333333, "bike_id": "4109a70f49127858ad4f3ad7183e2b33", "type": "electric_scooter", "is_reserved": 0, "lon": -77.06322266666666}, {"fusion_lat": 0.0, "name": "974cb0d19302f66bb5c858d6f8f41cbb", "is_disabled": 0, "rental_uris": {"android": "https://dc.lft.to/lastmile_qr_scan", "ios": "https://dc.lft.to/lastmile_qr_scan"}, "fusion_lon": 0.0, "lat": 38.89911583333333, "bike_id": "974cb0d19302f66bb5c858d6f8f41cbb", "type": "electric_scooter", "is_reserved": 0, "lon": -76.93349666666667}, {"fusion_lat": 0.0, "name": "e8c684ab7eefc3812f66117853f4bec3", "is_disabled": 0, "rental_uris": {"android": "https://dc.lft.to/lastmile_qr_scan", "ios": "https://dc.lft.to/lastmile_qr_scan"}, "fusion_lon": 0.0, "lat": 38.922510333333335, "bike_id": "e8c684ab7eefc3812f66117853f4bec3", "type": "electric_scooter", "is_reserved": 0, "lon": -77.02976366666667}, {"fusion_lat": 0.0, "name": "b3818bb31427da7b001922e02d8f7664", "is_disabled": 0, "rental_uris": {"android": "https://dc.lft.to/lastmile_qr_scan", "ios": "https://dc.lft.to/lastmile_qr_scan"}, "fusion_lon": 0.0, "lat": 38.919036, "bike_id": "b3818bb31427da7b001922e02d8f7664", "type": "electric_scooter", "is_reserved": 0, "lon": -77.02757833333334}, {"fusion_lat": 0.0, "name": "3139d75aff3864fc33f29ad45b05ec7b", "is_disabled": 0, "rental_uris": {"android": "https://dc.lft.to/lastmile_qr_scan", "ios": "https://dc.lft.to/lastmile_qr_scan"}, "fusion_lon": 0.0, "lat": 38.918528, "bike_id": "3139d75aff3864fc33f29ad45b05ec7b", "type": "electric_scooter", "is_reserved": 0, "lon": -77.027033}, {"fusion_lat": 0.0, "name": "afef4c989d4ec72d54a565379edef053", "is_disabled": 0, "rental_uris": {"android": "https://dc.lft.to/lastmile_qr_scan", "ios": "https://dc.lft.to/lastmile_qr_scan"}, "fusion_lon": 0.0, "lat": 38.968133333333334, "bike_id": "afef4c989d4ec72d54a565379edef053", "type": "electric_bike", "is_reserved": 0, "lon": -76.9552715}, {"fusion_lat": 0.0, "name": "da3749107bda7448ab5299838f080ee7", "is_disabled": 0, "rental_uris": {"android": "https://dc.lft.to/lastmile_qr_scan", "ios": "https://dc.lft.to/lastmile_qr_scan"}, "fusion_lon": 0.0, "lat": 38.893045666666666, "bike_id": "da3749107bda7448ab5299838f080ee7", "type": "electric_scooter", "is_reserved": 0, "lon": -77.0214755}, {"fusion_lat": 0.0, "name": "b5127d625781bfc7f54ab1eac7340c91", "is_disabled": 0, "rental_uris": {"android": "https://dc.lft.to/lastmile_qr_scan", "ios": "https://dc.lft.to/lastmile_qr_scan"}, "fusion_lon": 0.0, "lat": 38.794697666666664, "bike_id": "b5127d625781bfc7f54ab1eac7340c91", "type": "electric_bike", "is_reserved": 0, "lon": -76.9924855}, {"fusion_lat": 0.0, "name": "742b17b9c9825c833db301e6208538c4", "is_disabled": 0, "rental_uris": {"android": "https://dc.lft.to/lastmile_qr_scan", "ios": "https://dc.lft.to/lastmile_qr_scan"}, "fusion_lon": 0.0, "lat": 38.90430033333333, "bike_id": "742b17b9c9825c833db301e6208538c4", "type": "electric_scooter", "is_reserved": 0, "lon": -76.9818045}, {"fusion_lat": 0.0, "name": "4e0a7f8ec15ba881947f647605b06130", "is_disabled": 0, "rental_uris": {"android": "https://dc.lft.to/lastmile_qr_scan", "ios": "https://dc.lft.to/lastmile_qr_scan"}, "fusion_lon": 0.0, "lat": 38.921949166666664, "bike_id": "4e0a7f8ec15ba881947f647605b06130", "type": "electric_scooter", "is_reserved": 0, "lon": -77.05046283333333}, {"fusion_lat": 0.0, "name": "a84351fd21d1a39772658f8aef62500b", "is_disabled": 0, "rental_uris": {"android": "https://dc.lft.to/lastmile_qr_scan", "ios": "https://dc.lft.to/lastmile_qr_scan"}, "fusion_lon": 0.0, "lat": 38.912737, "bike_id": "a84351fd21d1a39772658f8aef62500b", "type": "electric_scooter", "is_reserved": 0, "lon": -77.01222366666667}, {"fusion_lat": 0.0, "name": "f0bad653b4dc81e99f63ca45bae08cfb", "is_disabled": 0, "rental_uris": {"android": "https://dc.lft.to/lastmile_qr_scan", "ios": "https://dc.lft.to/lastmile_qr_scan"}, "fusion_lon": 0.0, "lat": 38.86685966666667, "bike_id": "f0bad653b4dc81e99f63ca45bae08cfb", "type": "electric_scooter", "is_reserved": 0, "lon": -76.98570616666666}, {"fusion_lat": 0.0, "name": "782afbc8bd90c9eea77ebaebb4db4859", "is_disabled": 0, "rental_uris": {"android": "https://dc.lft.to/lastmile_qr_scan", "ios": "https://dc.lft.to/lastmile_qr_scan"}, "fusion_lon": 0.0, "lat": 38.920245666666666, "bike_id": "782afbc8bd90c9eea77ebaebb4db4859", "type": "electric_bike", "is_reserved": 0, "lon": -77.07708266666667}, {"fusion_lat": 0.0, "name": "ea8715370be017c8625843e3f082b89e", "is_disabled": 0, "rental_uris": {"android": "https://dc.lft.to/lastmile_qr_scan", "ios": "https://dc.lft.to/lastmile_qr_scan"}, "fusion_lon": 0.0, "lat": 38.92439066666667, "bike_id": "ea8715370be017c8625843e3f082b89e", "type": "electric_scooter", "is_reserved": 0, "lon": -77.00063716666666}, {"fusion_lat": 0.0, "name": "c260864103564fea400474227089d2f9", "is_disabled": 0, "rental_uris": {"android": "https://dc.lft.to/lastmile_qr_scan", "ios": "https://dc.lft.to/lastmile_qr_scan"}, "fusion_lon": 0.0, "lat": 38.905688166666664, "bike_id": "c260864103564fea400474227089d2f9", "type": "electric_scooter", "is_reserved": 0, "lon": -77.06256833333333}, {"fusion_lat": 0.0, "name": "c7e8fcdd0a0240943eb5c2abe619869e", "is_disabled": 0, "rental_uris": {"android": "https://dc.lft.to/lastmile_qr_scan", "ios": "https://dc.lft.to/lastmile_qr_scan"}, "fusion_lon": 0.0, "lat": 38.87720683333333, "bike_id": "c7e8fcdd0a0240943eb5c2abe619869e", "type": "electric_scooter", "is_reserved": 0, "lon": -77.01760333333333}, {"fusion_lat": 0.0, "name": "7593a98545603cdd8b7e528bcc8ce3af", "is_disabled": 0, "rental_uris": {"android": "https://dc.lft.to/lastmile_qr_scan", "ios": "https://dc.lft.to/lastmile_qr_scan"}, "fusion_lon": 0.0, "lat": 38.885525333333334, "bike_id": "7593a98545603cdd8b7e528bcc8ce3af", "type": "electric_scooter", "is_reserved": 0, "lon": -76.9977865}, {"fusion_lat": 0.0, "name": "276c0a6d1e450f39bcaea5229bd21fc9", "is_disabled": 0, "rental_uris": {"android": "https://dc.lft.to/lastmile_qr_scan", "ios": "https://dc.lft.to/lastmile_qr_scan"}, "fusion_lon": 0.0, "lat": 38.89720766666667, "bike_id": "276c0a6d1e450f39bcaea5229bd21fc9", "type": "electric_scooter", "is_reserved": 0, "lon": -77.00795833333333}, {"fusion_lat": 0.0, "name": "29383bc5a7f1bc573cc697cd1f93ceec", "is_disabled": 0, "rental_uris": {"android": "https://dc.lft.to/lastmile_qr_scan", "ios": "https://dc.lft.to/lastmile_qr_scan"}, "fusion_lon": 0.0, "lat": 38.91809583333333, "bike_id": "29383bc5a7f1bc573cc697cd1f93ceec", "type": "electric_scooter", "is_reserved": 0, "lon": -77.04591916666666}, {"fusion_lat": 0.0, "name": "c8e90e88fbf337085c847590e168a177", "is_disabled": 0, "rental_uris": {"android": "https://dc.lft.to/lastmile_qr_scan", "ios": "https://dc.lft.to/lastmile_qr_scan"}, "fusion_lon": 0.0, "lat": 38.898396, "bike_id": "c8e90e88fbf337085c847590e168a177", "type": "electric_scooter", "is_reserved": 0, "lon": -77.02641683333333}, {"fusion_lat": 0.0, "name": "e8275fd5b600c5f34ac8397e82e2abb7", "is_disabled": 0, "rental_uris": {"android": "https://dc.lft.to/lastmile_qr_scan", "ios": "https://dc.lft.to/lastmile_qr_scan"}, "fusion_lon": 0.0, "lat": 38.919945, "bike_id": "e8275fd5b600c5f34ac8397e82e2abb7", "type": "electric_scooter", "is_reserved": 0, "lon": -77.0239685}, {"fusion_lat": 0.0, "name": "b8ca43da15172ae3d01ce05dd5afc9f8", "is_disabled": 0, "rental_uris": {"android": "https://dc.lft.to/lastmile_qr_scan", "ios": "https://dc.lft.to/lastmile_qr_scan"}, "fusion_lon": 0.0, "lat": 38.931967, "bike_id": "b8ca43da15172ae3d01ce05dd5afc9f8", "type": "electric_scooter", "is_reserved": 0, "lon": -77.04297683333333}, {"fusion_lat": 0.0, "name": "7785344fe998d63fe9e3f28f083b9a7d", "is_disabled": 0, "rental_uris": {"android": "https://dc.lft.to/lastmile_qr_scan", "ios": "https://dc.lft.to/lastmile_qr_scan"}, "fusion_lon": 0.0, "lat": 38.8923675, "bike_id": "7785344fe998d63fe9e3f28f083b9a7d", "type": "electric_scooter", "is_reserved": 0, "lon": -77.046723}, {"fusion_lat": 0.0, "name": "cb1455b20d5b9ae23c9246336790d003", "is_disabled": 0, "rental_uris": {"android": "https://dc.lft.to/lastmile_qr_scan", "ios": "https://dc.lft.to/lastmile_qr_scan"}, "fusion_lon": 0.0, "lat": 38.920003333333334, "bike_id": "cb1455b20d5b9ae23c9246336790d003", "type": "electric_scooter", "is_reserved": 0, "lon": -77.07180516666666}, {"fusion_lat": 0.0, "name": "ade19ddb820f6144d27714b49c133364", "is_disabled": 0, "rental_uris": {"android": "https://dc.lft.to/lastmile_qr_scan", "ios": "https://dc.lft.to/lastmile_qr_scan"}, "fusion_lon": 0.0, "lat": 38.887687, "bike_id": "ade19ddb820f6144d27714b49c133364", "type": "electric_scooter", "is_reserved": 0, "lon": -77.033024}, {"fusion_lat": 0.0, "name": "6aee7b444b4d22cd5e2235f1c9adc031", "is_disabled": 0, "rental_uris": {"android": "https://dc.lft.to/lastmile_qr_scan", "ios": "https://dc.lft.to/lastmile_qr_scan"}, "fusion_lon": 0.0, "lat": 38.87848783333333, "bike_id": "6aee7b444b4d22cd5e2235f1c9adc031", "type": "electric_bike", "is_reserved": 0, "lon": -77.03026133333333}, {"fusion_lat": 0.0, "name": "793ec72766b32c68bfa68042510232c6", "is_disabled": 0, "rental_uris": {"android": "https://dc.lft.to/lastmile_qr_scan", "ios": "https://dc.lft.to/lastmile_qr_scan"}, "fusion_lon": 0.0, "lat": 38.90043716666667, "bike_id": "793ec72766b32c68bfa68042510232c6", "type": "electric_scooter", "is_reserved": 0, "lon": -77.03525916666666}, {"fusion_lat": 0.0, "name": "9d8819ef3a1e972aaafe050e6fc12b69", "is_disabled": 0, "rental_uris": {"android": "https://dc.lft.to/lastmile_qr_scan", "ios": "https://dc.lft.to/lastmile_qr_scan"}, "fusion_lon": 0.0, "lat": 38.94292883333333, "bike_id": "9d8819ef3a1e972aaafe050e6fc12b69", "type": "electric_scooter", "is_reserved": 0, "lon": -77.02165516666666}, {"fusion_lat": 0.0, "name": "f4c50b1bee0e39e3afcd688f52704696", "is_disabled": 0, "rental_uris": {"android": "https://dc.lft.to/lastmile_qr_scan", "ios": "https://dc.lft.to/lastmile_qr_scan"}, "fusion_lon": 0.0, "lat": 38.88303283333333, "bike_id": "f4c50b1bee0e39e3afcd688f52704696", "type": "electric_scooter", "is_reserved": 0, "lon": -76.94855416666667}, {"fusion_lat": 0.0, "name": "173dc62c75f40d09e2166cf212f58310", "is_disabled": 0, "rental_uris": {"android": "https://dc.lft.to/lastmile_qr_scan", "ios": "https://dc.lft.to/lastmile_qr_scan"}, "fusion_lon": 0.0, "lat": 38.924166666666665, "bike_id": "173dc62c75f40d09e2166cf212f58310", "type": "electric_scooter", "is_reserved": 0, "lon": -76.9962255}, {"fusion_lat": 0.0, "name": "26cd1baa377d5dcb3804e927b4930fb0", "is_disabled": 0, "rental_uris": {"android": "https://dc.lft.to/lastmile_qr_scan", "ios": "https://dc.lft.to/lastmile_qr_scan"}, "fusion_lon": 0.0, "lat": 38.8984145, "bike_id": "26cd1baa377d5dcb3804e927b4930fb0", "type": "electric_scooter", "is_reserved": 0, "lon": -77.01339533333334}, {"fusion_lat": 0.0, "name": "ed2794ffa0916d974063fd0cb89589fd", "is_disabled": 0, "rental_uris": {"android": "https://dc.lft.to/lastmile_qr_scan", "ios": "https://dc.lft.to/lastmile_qr_scan"}, "fusion_lon": 0.0, "lat": 38.88427183333334, "bike_id": "ed2794ffa0916d974063fd0cb89589fd", "type": "electric_scooter", "is_reserved": 0, "lon": -76.95750383333333}, {"fusion_lat": 0.0, "name": "a79745ece8ffbf6b1a6c1166e3caa12f", "is_disabled": 0, "rental_uris": {"android": "https://dc.lft.to/lastmile_qr_scan", "ios": "https://dc.lft.to/lastmile_qr_scan"}, "fusion_lon": 0.0, "lat": 38.916158833333334, "bike_id": "a79745ece8ffbf6b1a6c1166e3caa12f", "type": "electric_scooter", "is_reserved": 0, "lon": -77.0231405}, {"fusion_lat": 0.0, "name": "f5604a56734fd4670509115bb82f8d2f", "is_disabled": 0, "rental_uris": {"android": "https://dc.lft.to/lastmile_qr_scan", "ios": "https://dc.lft.to/lastmile_qr_scan"}, "fusion_lon": 0.0, "lat": 38.92517683333333, "bike_id": "f5604a56734fd4670509115bb82f8d2f", "type": "electric_scooter", "is_reserved": 0, "lon": -77.022855}, {"fusion_lat": 0.0, "name": "280a402a86d04a0821030382533da0f7", "is_disabled": 0, "rental_uris": {"android": "https://dc.lft.to/lastmile_qr_scan", "ios": "https://dc.lft.to/lastmile_qr_scan"}, "fusion_lon": 0.0, "lat": 38.935841, "bike_id": "280a402a86d04a0821030382533da0f7", "type": "electric_scooter", "is_reserved": 0, "lon": -77.028489}, {"fusion_lat": 0.0, "name": "6142e28ffafcaff184ed773c418ed02c", "is_disabled": 0, "rental_uris": {"android": "https://dc.lft.to/lastmile_qr_scan", "ios": "https://dc.lft.to/lastmile_qr_scan"}, "fusion_lon": 0.0, "lat": 38.985525333333335, "bike_id": "6142e28ffafcaff184ed773c418ed02c", "type": "electric_bike", "is_reserved": 0, "lon": -77.00402566666666}, {"fusion_lat": 0.0, "name": "ec55e1c1927a0b2ea8071ed5a7287039", "is_disabled": 0, "rental_uris": {"android": "https://dc.lft.to/lastmile_qr_scan", "ios": "https://dc.lft.to/lastmile_qr_scan"}, "fusion_lon": 0.0, "lat": 38.8933965, "bike_id": "ec55e1c1927a0b2ea8071ed5a7287039", "type": "electric_scooter", "is_reserved": 0, "lon": -77.046763}, {"fusion_lat": 0.0, "name": "8d3aedea43a431b8c70ed1a685896319", "is_disabled": 0, "rental_uris": {"android": "https://dc.lft.to/lastmile_qr_scan", "ios": "https://dc.lft.to/lastmile_qr_scan"}, "fusion_lon": 0.0, "lat": 38.952200833333336, "bike_id": "8d3aedea43a431b8c70ed1a685896319", "type": "electric_scooter", "is_reserved": 0, "lon": -77.08216316666666}, {"fusion_lat": 0.0, "name": "9c0d8d27cd98bf74897aebbf67a3fa8b", "is_disabled": 0, "rental_uris": {"android": "https://dc.lft.to/lastmile_qr_scan", "ios": "https://dc.lft.to/lastmile_qr_scan"}, "fusion_lon": 0.0, "lat": 38.85430866666667, "bike_id": "9c0d8d27cd98bf74897aebbf67a3fa8b", "type": "electric_bike", "is_reserved": 0, "lon": -77.12078316666667}, {"fusion_lat": 0.0, "name": "522ccb86c6228e45e944a9c4449e8f59", "is_disabled": 0, "rental_uris": {"android": "https://dc.lft.to/lastmile_qr_scan", "ios": "https://dc.lft.to/lastmile_qr_scan"}, "fusion_lon": 0.0, "lat": 38.92084466666667, "bike_id": "522ccb86c6228e45e944a9c4449e8f59", "type": "electric_scooter", "is_reserved": 0, "lon": -76.9945095}, {"fusion_lat": 0.0, "name": "58ff4a5b83a21f0a5d57dad164066181", "is_disabled": 0, "rental_uris": {"android": "https://dc.lft.to/lastmile_qr_scan", "ios": "https://dc.lft.to/lastmile_qr_scan"}, "fusion_lon": 0.0, "lat": 38.89728433333333, "bike_id": "58ff4a5b83a21f0a5d57dad164066181", "type": "electric_scooter", "is_reserved": 0, "lon": -77.04629983333334}, {"fusion_lat": 0.0, "name": "82ea37b506b4bd8b6fb0bfd2419b0f3f", "is_disabled": 0, "rental_uris": {"android": "https://dc.lft.to/lastmile_qr_scan", "ios": "https://dc.lft.to/lastmile_qr_scan"}, "fusion_lon": 0.0, "lat": 38.9168775, "bike_id": "82ea37b506b4bd8b6fb0bfd2419b0f3f", "type": "electric_scooter", "is_reserved": 0, "lon": -77.04140533333333}, {"fusion_lat": 0.0, "name": "2509cb65eb761d757faa73aecf9000d9", "is_disabled": 0, "rental_uris": {"android": "https://dc.lft.to/lastmile_qr_scan", "ios": "https://dc.lft.to/lastmile_qr_scan"}, "fusion_lon": 0.0, "lat": 38.89987933333333, "bike_id": "2509cb65eb761d757faa73aecf9000d9", "type": "electric_scooter", "is_reserved": 0, "lon": -76.9843585}, {"fusion_lat": 0.0, "name": "4c66155b1c1decf9e5057e23ad37038d", "is_disabled": 0, "rental_uris": {"android": "https://dc.lft.to/lastmile_qr_scan", "ios": "https://dc.lft.to/lastmile_qr_scan"}, "fusion_lon": 0.0, "lat": 38.9241705, "bike_id": "4c66155b1c1decf9e5057e23ad37038d", "type": "electric_scooter", "is_reserved": 0, "lon": -77.03639883333334}, {"fusion_lat": 0.0, "name": "546afeda5720d03ca8ed05329b97b130", "is_disabled": 0, "rental_uris": {"android": "https://dc.lft.to/lastmile_qr_scan", "ios": "https://dc.lft.to/lastmile_qr_scan"}, "fusion_lon": 0.0, "lat": 38.916476833333334, "bike_id": "546afeda5720d03ca8ed05329b97b130", "type": "electric_scooter", "is_reserved": 0, "lon": -77.04801916666666}, {"fusion_lat": 0.0, "name": "7a0323eab1e628320b011b0c62a5eee5", "is_disabled": 0, "rental_uris": {"android": "https://dc.lft.to/lastmile_qr_scan", "ios": "https://dc.lft.to/lastmile_qr_scan"}, "fusion_lon": 0.0, "lat": 38.92829033333334, "bike_id": "7a0323eab1e628320b011b0c62a5eee5", "type": "electric_scooter", "is_reserved": 0, "lon": -77.0597185}, {"fusion_lat": 0.0, "name": "c8a94bc4ef6060b35c5730cb0e0f8f14", "is_disabled": 0, "rental_uris": {"android": "https://dc.lft.to/lastmile_qr_scan", "ios": "https://dc.lft.to/lastmile_qr_scan"}, "fusion_lon": 0.0, "lat": 38.91696666666667, "bike_id": "c8a94bc4ef6060b35c5730cb0e0f8f14", "type": "electric_scooter", "is_reserved": 0, "lon": -77.041081}, {"fusion_lat": 0.0, "name": "0788b9d88c7afc11ee9047397cbeb3cd", "is_disabled": 0, "rental_uris": {"android": "https://dc.lft.to/lastmile_qr_scan", "ios": "https://dc.lft.to/lastmile_qr_scan"}, "fusion_lon": 0.0, "lat": 39.03611466666667, "bike_id": "0788b9d88c7afc11ee9047397cbeb3cd", "type": "electric_bike", "is_reserved": 0, "lon": -77.05540116666667}, {"fusion_lat": 0.0, "name": "15b3568f0b8c367b15555c93abf4de8e", "is_disabled": 0, "rental_uris": {"android": "https://dc.lft.to/lastmile_qr_scan", "ios": "https://dc.lft.to/lastmile_qr_scan"}, "fusion_lon": 0.0, "lat": 38.9235565, "bike_id": "15b3568f0b8c367b15555c93abf4de8e", "type": "electric_scooter", "is_reserved": 0, "lon": -77.04319116666667}, {"fusion_lat": 0.0, "name": "daaf97e59bbf65dfc67e4fb879e14c0b", "is_disabled": 0, "rental_uris": {"android": "https://dc.lft.to/lastmile_qr_scan", "ios": "https://dc.lft.to/lastmile_qr_scan"}, "fusion_lon": 0.0, "lat": 38.9085155, "bike_id": "daaf97e59bbf65dfc67e4fb879e14c0b", "type": "electric_scooter", "is_reserved": 0, "lon": -77.04278816666667}, {"fusion_lat": 0.0, "name": "43edc9d9807d964651953bd48b4e96b0", "is_disabled": 0, "rental_uris": {"android": "https://dc.lft.to/lastmile_qr_scan", "ios": "https://dc.lft.to/lastmile_qr_scan"}, "fusion_lon": 0.0, "lat": 38.9127445, "bike_id": "43edc9d9807d964651953bd48b4e96b0", "type": "electric_scooter", "is_reserved": 0, "lon": -77.03871066666666}, {"fusion_lat": 0.0, "name": "9ca7bf287a55eb63dcd9f5d0288b8b03", "is_disabled": 0, "rental_uris": {"android": "https://dc.lft.to/lastmile_qr_scan", "ios": "https://dc.lft.to/lastmile_qr_scan"}, "fusion_lon": 0.0, "lat": 38.899615, "bike_id": "9ca7bf287a55eb63dcd9f5d0288b8b03", "type": "electric_scooter", "is_reserved": 0, "lon": -77.016155}, {"fusion_lat": 0.0, "name": "866f931dbd56218300836d384ebfc1e1", "is_disabled": 0, "rental_uris": {"android": "https://dc.lft.to/lastmile_qr_scan", "ios": "https://dc.lft.to/lastmile_qr_scan"}, "fusion_lon": 0.0, "lat": 38.9061655, "bike_id": "866f931dbd56218300836d384ebfc1e1", "type": "electric_scooter", "is_reserved": 0, "lon": -77.05900333333334}, {"fusion_lat": 0.0, "name": "90bd2cbb1a0debf5e04aea64c4e80fae", "is_disabled": 0, "rental_uris": {"android": "https://dc.lft.to/lastmile_qr_scan", "ios": "https://dc.lft.to/lastmile_qr_scan"}, "fusion_lon": 0.0, "lat": 38.902687, "bike_id": "90bd2cbb1a0debf5e04aea64c4e80fae", "type": "electric_scooter", "is_reserved": 0, "lon": -77.04349383333333}, {"fusion_lat": 0.0, "name": "1e3379fff88962e852ef01b7acb9d120", "is_disabled": 0, "rental_uris": {"android": "https://dc.lft.to/lastmile_qr_scan", "ios": "https://dc.lft.to/lastmile_qr_scan"}, "fusion_lon": 0.0, "lat": 38.9313435, "bike_id": "1e3379fff88962e852ef01b7acb9d120", "type": "electric_scooter", "is_reserved": 0, "lon": -77.0784785}, {"fusion_lat": 0.0, "name": "ad7d0ecc7eae3d4bead8fd1c459ec5f9", "is_disabled": 0, "rental_uris": {"android": "https://dc.lft.to/lastmile_qr_scan", "ios": "https://dc.lft.to/lastmile_qr_scan"}, "fusion_lon": 0.0, "lat": 38.9008935, "bike_id": "ad7d0ecc7eae3d4bead8fd1c459ec5f9", "type": "electric_scooter", "is_reserved": 0, "lon": -77.05834083333333}, {"fusion_lat": 0.0, "name": "6814103c32a9ffb20f4d711a83d37dc1", "is_disabled": 0, "rental_uris": {"android": "https://dc.lft.to/lastmile_qr_scan", "ios": "https://dc.lft.to/lastmile_qr_scan"}, "fusion_lon": 0.0, "lat": 38.91914033333333, "bike_id": "6814103c32a9ffb20f4d711a83d37dc1", "type": "electric_scooter", "is_reserved": 0, "lon": -77.02500016666667}, {"fusion_lat": 0.0, "name": "2f5684f5c78832cadf7f79c324af2abd", "is_disabled": 0, "rental_uris": {"android": "https://dc.lft.to/lastmile_qr_scan", "ios": "https://dc.lft.to/lastmile_qr_scan"}, "fusion_lon": 0.0, "lat": 38.9097775, "bike_id": "2f5684f5c78832cadf7f79c324af2abd", "type": "electric_scooter", "is_reserved": 0, "lon": -77.02183516666666}, {"fusion_lat": 0.0, "name": "70fc12ed52f7cdb50b631f615994d642", "is_disabled": 0, "rental_uris": {"android": "https://dc.lft.to/lastmile_qr_scan", "ios": "https://dc.lft.to/lastmile_qr_scan"}, "fusion_lon": 0.0, "lat": 38.8663115, "bike_id": "70fc12ed52f7cdb50b631f615994d642", "type": "electric_scooter", "is_reserved": 0, "lon": -76.98716516666667}, {"fusion_lat": 0.0, "name": "ed7244de2ce0a425469c2ca588c270be", "is_disabled": 0, "rental_uris": {"android": "https://dc.lft.to/lastmile_qr_scan", "ios": "https://dc.lft.to/lastmile_qr_scan"}, "fusion_lon": 0.0, "lat": 38.92417566666666, "bike_id": "ed7244de2ce0a425469c2ca588c270be", "type": "electric_scooter", "is_reserved": 0, "lon": -77.02006283333333}, {"fusion_lat": 0.0, "name": "d22de92dce339af9b03f110f6df942e2", "is_disabled": 0, "rental_uris": {"android": "https://dc.lft.to/lastmile_qr_scan", "ios": "https://dc.lft.to/lastmile_qr_scan"}, "fusion_lon": 0.0, "lat": 38.94448466666667, "bike_id": "d22de92dce339af9b03f110f6df942e2", "type": "electric_scooter", "is_reserved": 0, "lon": -77.02341666666666}, {"fusion_lat": 0.0, "name": "00f31c396451695a638906ebd94e6cf1", "is_disabled": 0, "rental_uris": {"android": "https://dc.lft.to/lastmile_qr_scan", "ios": "https://dc.lft.to/lastmile_qr_scan"}, "fusion_lon": 0.0, "lat": 38.917770833333336, "bike_id": "00f31c396451695a638906ebd94e6cf1", "type": "electric_scooter", "is_reserved": 0, "lon": -77.01216366666667}, {"fusion_lat": 0.0, "name": "411b0effdba7106e6c373afa47b6ae0f", "is_disabled": 0, "rental_uris": {"android": "https://dc.lft.to/lastmile_qr_scan", "ios": "https://dc.lft.to/lastmile_qr_scan"}, "fusion_lon": 0.0, "lat": 38.92298566666667, "bike_id": "411b0effdba7106e6c373afa47b6ae0f", "type": "electric_scooter", "is_reserved": 0, "lon": -77.04265616666666}, {"fusion_lat": 0.0, "name": "9df630b6e082344f59227267c4174662", "is_disabled": 0, "rental_uris": {"android": "https://dc.lft.to/lastmile_qr_scan", "ios": "https://dc.lft.to/lastmile_qr_scan"}, "fusion_lon": 0.0, "lat": 38.8873655, "bike_id": "9df630b6e082344f59227267c4174662", "type": "electric_scooter", "is_reserved": 0, "lon": -77.03172333333333}, {"fusion_lat": 0.0, "name": "61da54bc6ab0814cd945cfdf510f25b4", "is_disabled": 0, "rental_uris": {"android": "https://dc.lft.to/lastmile_qr_scan", "ios": "https://dc.lft.to/lastmile_qr_scan"}, "fusion_lon": 0.0, "lat": 38.91725566666667, "bike_id": "61da54bc6ab0814cd945cfdf510f25b4", "type": "electric_scooter", "is_reserved": 0, "lon": -77.03204966666667}, {"fusion_lat": 0.0, "name": "b55dd20593c6cb2dde7cd047b81daef5", "is_disabled": 0, "rental_uris": {"android": "https://dc.lft.to/lastmile_qr_scan", "ios": "https://dc.lft.to/lastmile_qr_scan"}, "fusion_lon": 0.0, "lat": 38.892285333333334, "bike_id": "b55dd20593c6cb2dde7cd047b81daef5", "type": "electric_scooter", "is_reserved": 0, "lon": -77.02409183333333}, {"fusion_lat": 0.0, "name": "3fe8d79bd6a7c8f4bc984a0b1281b79c", "is_disabled": 0, "rental_uris": {"android": "https://dc.lft.to/lastmile_qr_scan", "ios": "https://dc.lft.to/lastmile_qr_scan"}, "fusion_lon": 0.0, "lat": 38.92221833333333, "bike_id": "3fe8d79bd6a7c8f4bc984a0b1281b79c", "type": "electric_bike", "is_reserved": 0, "lon": -77.20138433333334}, {"fusion_lat": 0.0, "name": "37a07944a4c5358289b01f6507a939af", "is_disabled": 0, "rental_uris": {"android": "https://dc.lft.to/lastmile_qr_scan", "ios": "https://dc.lft.to/lastmile_qr_scan"}, "fusion_lon": 0.0, "lat": 38.94200033333333, "bike_id": "37a07944a4c5358289b01f6507a939af", "type": "electric_scooter", "is_reserved": 0, "lon": -77.0258975}, {"fusion_lat": 0.0, "name": "0ea53e305ee83f05249df4eb2d01d802", "is_disabled": 0, "rental_uris": {"android": "https://dc.lft.to/lastmile_qr_scan", "ios": "https://dc.lft.to/lastmile_qr_scan"}, "fusion_lon": 0.0, "lat": 38.964067166666666, "bike_id": "0ea53e305ee83f05249df4eb2d01d802", "type": "electric_scooter", "is_reserved": 0, "lon": -77.07530966666667}, {"fusion_lat": 0.0, "name": "171dff75f322b2c6bcb52c7c0d84f734", "is_disabled": 0, "rental_uris": {"android": "https://dc.lft.to/lastmile_qr_scan", "ios": "https://dc.lft.to/lastmile_qr_scan"}, "fusion_lon": 0.0, "lat": 38.881312, "bike_id": "171dff75f322b2c6bcb52c7c0d84f734", "type": "electric_bike", "is_reserved": 0, "lon": -76.995503}, {"fusion_lat": 0.0, "name": "e9c79105767e832869bd8c11555790c2", "is_disabled": 0, "rental_uris": {"android": "https://dc.lft.to/lastmile_qr_scan", "ios": "https://dc.lft.to/lastmile_qr_scan"}, "fusion_lon": 0.0, "lat": 38.90374883333333, "bike_id": "e9c79105767e832869bd8c11555790c2", "type": "electric_scooter", "is_reserved": 0, "lon": -77.05150566666667}, {"fusion_lat": 0.0, "name": "19db8fe6376120960c56d3054121b693", "is_disabled": 0, "rental_uris": {"android": "https://dc.lft.to/lastmile_qr_scan", "ios": "https://dc.lft.to/lastmile_qr_scan"}, "fusion_lon": 0.0, "lat": 38.8939575, "bike_id": "19db8fe6376120960c56d3054121b693", "type": "electric_scooter", "is_reserved": 0, "lon": -76.99488366666667}, {"fusion_lat": 0.0, "name": "9df72156568aa3b338982302d8624259", "is_disabled": 0, "rental_uris": {"android": "https://dc.lft.to/lastmile_qr_scan", "ios": "https://dc.lft.to/lastmile_qr_scan"}, "fusion_lon": 0.0, "lat": 38.9112895, "bike_id": "9df72156568aa3b338982302d8624259", "type": "electric_scooter", "is_reserved": 0, "lon": -77.01996116666666}, {"fusion_lat": 0.0, "name": "153ca75aa37d9f773f762b3380dfce4e", "is_disabled": 0, "rental_uris": {"android": "https://dc.lft.to/lastmile_qr_scan", "ios": "https://dc.lft.to/lastmile_qr_scan"}, "fusion_lon": 0.0, "lat": 38.921480833333334, "bike_id": "153ca75aa37d9f773f762b3380dfce4e", "type": "electric_scooter", "is_reserved": 0, "lon": -77.04359966666667}, {"fusion_lat": 0.0, "name": "3ac1fe0f676d45e6b44c84c9e8bf3ee1", "is_disabled": 0, "rental_uris": {"android": "https://dc.lft.to/lastmile_qr_scan", "ios": "https://dc.lft.to/lastmile_qr_scan"}, "fusion_lon": 0.0, "lat": 38.912925, "bike_id": "3ac1fe0f676d45e6b44c84c9e8bf3ee1", "type": "electric_scooter", "is_reserved": 0, "lon": -77.023843}, {"fusion_lat": 0.0, "name": "5c0f1e4b200c18dd51eb69374ff4a9be", "is_disabled": 0, "rental_uris": {"android": "https://dc.lft.to/lastmile_qr_scan", "ios": "https://dc.lft.to/lastmile_qr_scan"}, "fusion_lon": 0.0, "lat": 38.934557166666664, "bike_id": "5c0f1e4b200c18dd51eb69374ff4a9be", "type": "electric_scooter", "is_reserved": 0, "lon": -77.07269266666667}, {"fusion_lat": 0.0, "name": "538bcebedd9d895b4c3991de2f0e770a", "is_disabled": 0, "rental_uris": {"android": "https://dc.lft.to/lastmile_qr_scan", "ios": "https://dc.lft.to/lastmile_qr_scan"}, "fusion_lon": 0.0, "lat": 38.87674883333333, "bike_id": "538bcebedd9d895b4c3991de2f0e770a", "type": "electric_scooter", "is_reserved": 0, "lon": -77.00114633333334}, {"fusion_lat": 0.0, "name": "61ba0eba3d8f1a5a8010db5dc907d0e2", "is_disabled": 0, "rental_uris": {"android": "https://dc.lft.to/lastmile_qr_scan", "ios": "https://dc.lft.to/lastmile_qr_scan"}, "fusion_lon": 0.0, "lat": 38.957323, "bike_id": "61ba0eba3d8f1a5a8010db5dc907d0e2", "type": "electric_scooter", "is_reserved": 0, "lon": -77.024034}, {"fusion_lat": 0.0, "name": "8e5d59d388df203444c6768e83822e0e", "is_disabled": 0, "rental_uris": {"android": "https://dc.lft.to/lastmile_qr_scan", "ios": "https://dc.lft.to/lastmile_qr_scan"}, "fusion_lon": 0.0, "lat": 38.918371666666665, "bike_id": "8e5d59d388df203444c6768e83822e0e", "type": "electric_scooter", "is_reserved": 0, "lon": -77.023861}, {"fusion_lat": 0.0, "name": "bfe926ddfd0cfdf4d864135ee8963428", "is_disabled": 0, "rental_uris": {"android": "https://dc.lft.to/lastmile_qr_scan", "ios": "https://dc.lft.to/lastmile_qr_scan"}, "fusion_lon": 0.0, "lat": 38.897445833333336, "bike_id": "bfe926ddfd0cfdf4d864135ee8963428", "type": "electric_scooter", "is_reserved": 0, "lon": -77.00006183333333}, {"fusion_lat": 0.0, "name": "67b870f3de8e52db5be7733aa1c02a9b", "is_disabled": 0, "rental_uris": {"android": "https://dc.lft.to/lastmile_qr_scan", "ios": "https://dc.lft.to/lastmile_qr_scan"}, "fusion_lon": 0.0, "lat": 38.891627666666665, "bike_id": "67b870f3de8e52db5be7733aa1c02a9b", "type": "electric_bike", "is_reserved": 0, "lon": -77.0046815}, {"fusion_lat": 0.0, "name": "fa804a25f86937b26241e40aa94b0c13", "is_disabled": 0, "rental_uris": {"android": "https://dc.lft.to/lastmile_qr_scan", "ios": "https://dc.lft.to/lastmile_qr_scan"}, "fusion_lon": 0.0, "lat": 38.94506583333333, "bike_id": "fa804a25f86937b26241e40aa94b0c13", "type": "electric_bike", "is_reserved": 0, "lon": -77.00672516666667}, {"fusion_lat": 0.0, "name": "7912249cd863a26494e16a0db95fd8a3", "is_disabled": 0, "rental_uris": {"android": "https://dc.lft.to/lastmile_qr_scan", "ios": "https://dc.lft.to/lastmile_qr_scan"}, "fusion_lon": 0.0, "lat": 38.9002825, "bike_id": "7912249cd863a26494e16a0db95fd8a3", "type": "electric_scooter", "is_reserved": 0, "lon": -77.01191516666667},