{"data": {"bikes": [{"name": "17ecfe564f16c00b9e2141eea3b0a293", "lon": -77.02783783333334, "lat": 38.962057, "type": "electric_scooter", "fusion_lon": 0.0, "is_reserved": 0, "bike_id": "17ecfe564f16c00b9e2141eea3b0a293", "fusion_lat": 0.0, "is_disabled": 0, "rental_uris": {"ios": "https://dc.lft.to/lastmile_qr_scan", "android": "https://dc.lft.to/lastmile_qr_scan"}}, {"name": "5d4b1a52def820ed23d927764c6701a4", "lon": -77.041914, "lat": 38.917064833333335, "type": "electric_scooter", "fusion_lon": 0.0, "is_reserved": 0, "bike_id": "5d4b1a52def820ed23d927764c6701a4", "fusion_lat": 0.0, "is_disabled": 0, "rental_uris": {"ios": "https://dc.lft.to/lastmile_qr_scan", "android": "https://dc.lft.to/lastmile_qr_scan"}}, {"name": "b67adb14c78cdfbdabbb238f630ce4e8", "lon": -76.9514215, "lat": 38.890379, "type": "electric_scooter", "fusion_lon": 0.0, "is_reserved": 0, "bike_id": "b67adb14c78cdfbdabbb238f630ce4e8", "fusion_lat": 0.0, "is_disabled": 0, "rental_uris": {"ios": "https://dc.lft.to/lastmile_qr_scan", "android": "https://dc.lft.to/lastmile_qr_scan"}}, {"name": "15a283c4af5d6ca27677c83142c634ac", "lon": -77.02984383333333, "lat": 38.895597, "type": "electric_scooter", "fusion_lon": 0.0, "is_reserved": 0, "bike_id": "15a283c4af5d6ca27677c83142c634ac", "fusion_lat": 0.0, "is_disabled": 0, "rental_uris": {"ios": "https://dc.lft.to/lastmile_qr_scan", "android": "https://dc.lft.to/lastmile_qr_scan"}}, {"name": "8542ff04cc1e06c7adf03d2693ca6748", "lon": -76.8837325, "lat": 38.998357666666664, "type": "electric_bike", "fusion_lon": 0.0, "is_reserved": 0, "bike_id": "8542ff04cc1e06c7adf03d2693ca6748", "fusion_lat": 0.0, "is_disabled": 0, "rental_uris": {"ios": "https://dc.lft.to/lastmile_qr_scan", "android": "https://dc.lft.to/lastmile_qr_scan"}}, {"name": "461d21fb1abd64ddd70784163158c193", "lon": -77.03290333333334, "lat": 38.900141166666664, "type": "electric_scooter", "fusion_lon": 0.0, "is_reserved": 0, "bike_id": "461d21fb1abd64ddd70784163158c193", "fusion_lat": 0.0, "is_disabled": 0, "rental_uris": {"ios": "https://dc.lft.to/lastmile_qr_scan", "android": "https://dc.lft.to/lastmile_qr_scan"}}, {"name": "d15a26bb7acf87490c2f58edbac91fa8", "lon": -77.02976566666666, "lat": 38.9167825, "type": "electric_scooter", "fusion_lon": 0.0, "is_reserved": 0, "bike_id": "d15a26bb7acf87490c2f58edbac91fa8", "fusion_lat": 0.0, "is_disabled": 0, "rental_uris": {"ios": "https://dc.lft.to/lastmile_qr_scan", "android": "https://dc.lft.to/lastmile_qr_scan"}}, {"name": "45cf1ab7e6af781805c83de7b3f54674", "lon": -77.00751083333333, "lat": 38.926755, "type": "electric_scooter", "fusion_lon": 0.0, "is_reserved": 0, "bike_id": "45cf1ab7e6af781805c83de7b3f54674", "fusion_lat": 0.0, "is_disabled": 0, "rental_uris": {"ios": "https://dc.lft.to/lastmile_qr_scan", "android": "https://dc.lft.to/lastmile_qr_scan"}}, {"name": "3a8efc337ff0ab9bd9aa812f07a66cb7", "lon": -77.03855016666667, "lat": 38.93199166666667, "type": "electric_scooter", "fusion_lon": 0.0, "is_reserved": 0, "bike_id": "3a8efc337ff0ab9bd9aa812f07a66cb7", "fusion_lat": 0.0, "is_disabled": 0, "rental_uris": {"ios": "https://dc.lft.to/lastmile_qr_scan", "android": "https://dc.lft.to/lastmile_qr_scan"}}, {"name": "5e2bc02bdd9d8d0f60eb2c2e1fc9eb7f", "lon": -77.05041533333333, "lat": 38.923543, "type": "electric_scooter", "fusion_lon": 0.0, "is_reserved": 0, "bike_id": "5e2bc02bdd9d8d0f60eb2c2e1fc9eb7f", "fusion_lat": 0.0, "is_disabled": 0, "rental_uris": {"ios": "https://dc.lft.to/lastmile_qr_scan", "android": "https://dc.lft.to/lastmile_qr_scan"}}, {"name": "9a73447a870d3ef86e1292d43f1b5879", "lon": -77.02628833333333, "lat": 38.962142666666665, "type": "electric_bike", "fusion_lon": 0.0, "is_reserved": 0, "bike_id": "9a73447a870d3ef86e1292d43f1b5879", "fusion_lat": 0.0, "is_disabled": 0, "rental_uris": {"ios": "https://dc.lft.to/lastmile_qr_scan", "android": "https://dc.lft.to/lastmile_qr_scan"}}, {"name": "bdd58d761b25b218a6b9fc2107fcbe59", "lon": -77.03975516666667, "lat": 38.9119355, "type": "electric_scooter", "fusion_lon": 0.0, "is_reserved": 0, "bike_id": "bdd58d761b25b218a6b9fc2107fcbe59", "fusion_lat": 0.0, "is_disabled": 0, "rental_uris": {"ios": "https://dc.lft.to/lastmile_qr_scan", "android": "https://dc.lft.to/lastmile_qr_scan"}}, {"name": "9f2312d3ef4ff54ef6bea2326a647b2b", "lon": -77.36093733333334, "lat": 38.93963633333333, "type": "electric_bike", "fusion_lon": 0.0, "is_reserved": 0, "bike_id": "9f2312d3ef4ff54ef6bea2326a647b2b", "fusion_lat": 0.0, "is_disabled": 0, "rental_uris": {"ios": "https://dc.lft.to/lastmile_qr_scan", "android": "https://dc.lft.to/lastmile_qr_scan"}}, {"name": "e0ee5cfdc568bba43c2d5902032633d9", "lon": -77.01754366666667, "lat": 38.88322133333333, "type": "electric_scooter", "fusion_lon": 0.0, "is_reserved": 0, "bike_id": "e0ee5cfdc568bba43c2d5902032633d9", "fusion_lat": 0.0, "is_disabled": 0, "rental_uris": {"ios": "https://dc.lft.to/lastmile_qr_scan", "android": "https://dc.lft.to/lastmile_qr_scan"}}, {"name": "4f277a7e3e1732dbca5b55261d3c08b3", "lon": -76.93194783333334, "lat": 38.898736, "type": "electric_scooter", "fusion_lon": 0.0, "is_reserved": 0, "bike_id": "4f277a7e3e1732dbca5b55261d3c08b3", "fusion_lat": 0.0, "is_disabled": 0, "rental_uris": {"ios": "https://dc.lft.to/lastmile_qr_scan", "android": "https://dc.lft.to/lastmile_qr_scan"}}, {"name": "eef97e0bd01477ce70d4fc021d0dd56a", "lon": -77.03272283333334, "lat": 38.902340333333335, "type": "electric_scooter", "fusion_lon": 0.0, "is_reserved": 0, "bike_id": "eef97e0bd01477ce70d4fc021d0dd56a", "fusion_lat": 0.0, "is_disabled": 0, "rental_uris": {"ios": "https://dc.lft.to/lastmile_qr_scan", "android": "https://dc.lft.to/lastmile_qr_scan"}}, {"name": "1da0e9758f3af25a7cf5c40c5eba18ea", "lon": -77.05151466666666, "lat": 38.9053085, "type": "electric_scooter", "fusion_lon": 0.0, "is_reserved": 0, "bike_id": "1da0e9758f3af25a7cf5c40c5eba18ea", "fusion_lat": 0.0, "is_disabled": 0, "rental_uris": {"ios": "https://dc.lft.to/lastmile_qr_scan", "android": "https://dc.lft.to/lastmile_qr_scan"}}, {"name": "e4d1b71bc8615f9ba93f193004c29385", "lon": -76.98518716666666, "lat": 38.866680833333334, "type": "electric_scooter", "fusion_lon": 0.0, "is_reserved": 0, "bike_id": "e4d1b71bc8615f9ba93f193004c29385", "fusion_lat": 0.0, "is_disabled": 0, "rental_uris": {"ios": "https://dc.lft.to/lastmile_qr_scan", "android": "https://dc.lft.to/lastmile_qr_scan"}}, {"name": "4d77bd65de19d71e2dba86389cd614e5", "lon": -77.06368516666667, "lat": 38.905087, "type": "electric_scooter", "fusion_lon": 0.0, "is_reserved": 0, "bike_id": "4d77bd65de19d71e2dba86389cd614e5", "fusion_lat": 0.0, "is_disabled": 0, "rental_uris": {"ios": "https://dc.lft.to/lastmile_qr_scan", "android": "https://dc.lft.to/lastmile_qr_scan"}}, {"name": "c350c058dda39c870c405c277c1e075b", "lon": -77.04518783333333, "lat": 38.900099, "type": "electric_scooter", "fusion_lon": 0.0, "is_reserved": 0, "bike_id": "c350c058dda39c870c405c277c1e075b", "fusion_lat": 0.0, "is_disabled": 0, "rental_uris": {"ios": "https://dc.lft.to/lastmile_qr_scan", "android": "https://dc.lft.to/lastmile_qr_scan"}}, {"name": "107b6ca1a19c276f52890d5bb3fac38a", "lon": -77.04479533333334, "lat": 38.918671333333336, "type": "electric_scooter", "fusion_lon": 0.0, "is_reserved": 0, "bike_id": "107b6ca1a19c276f52890d5bb3fac38a", "fusion_lat": 0.0, "is_disabled": 0, "rental_uris": {"ios": "https://dc.lft.to/lastmile_qr_scan", "android": "https://dc.lft.to/lastmile_qr_scan"}}, {"name": "a6fe13964bbae435a28afb6f7e888c9d", "lon": -76.98538233333333, "lat": 38.914462, "type": "electric_scooter", "fusion_lon": 0.0, "is_reserved": 0, "bike_id": "a6fe13964bbae435a28afb6f7e888c9d", "fusion_lat": 0.0, "is_disabled": 0, "rental_uris": {"ios": "https://dc.lft.to/lastmile_qr_scan", "android": "https://dc.lft.to/lastmile_qr_scan"}}, {"name": "7ab7ba9a352bd42cfdfd8d46275eacef", "lon": -76.93539833333334, "lat": 38.95550633333333, "type": "electric_bike", "fusion_lon": 0.0, "is_reserved": 0, "bike_id": "7ab7ba9a352bd42cfdfd8d46275eacef", "fusion_lat": 0.0, "is_disabled": 0, "rental_uris": {"ios": "https://dc.lft.to/lastmile_qr_scan", "android": "https://dc.lft.to/lastmile_qr_scan"}}, {"name": "5fd2e68512c669848017eb29e40adc95", "lon": -77.0216365, "lat": 38.8972655, "type": "electric_scooter", "fusion_lon": 0.0, "is_reserved": 0, "bike_id": "5fd2e68512c669848017eb29e40adc95", "fusion_lat": 0.0, "is_disabled": 0, "rental_uris": {"ios": "https://dc.lft.to/lastmile_qr_scan", "android": "https://dc.lft.to/lastmile_qr_scan"}}, {"name": "e5d4e4f23ba7a80f7d84c112c11f476f", "lon": -77.03452733333333, "lat": 38.9051195, "type": "electric_scooter", "fusion_lon": 0.0, "is_reserved": 0, "bike_id": "e5d4e4f23ba7a80f7d84c112c11f476f", "fusion_lat": 0.0, "is_disabled": 0, "rental_uris": {"ios": "https://dc.lft.to/lastmile_qr_scan", "android": "https://dc.lft.to/lastmile_qr_scan"}}, {"name": "3c3371e4165d1cb80e8357ff3b75401c", "lon": -77.04276933333334, "lat": 38.910353666666666, "type": "electric_scooter", "fusion_lon": 0.0, "is_reserved": 0, "bike_id": "3c3371e4165d1cb80e8357ff3b75401c", "fusion_lat": 0.0, "is_disabled": 0, "rental_uris": {"ios": "https://dc.lft.to/lastmile_qr_scan", "android": "https://dc.lft.to/lastmile_qr_scan"}}, {"name": "7837165a1a755fa8a94b71aab7f92114", "lon": -77.02566833333333, "lat": 38.92576, "type": "electric_scooter", "fusion_lon": 0.0, "is_reserved": 0, "bike_id": "7837165a1a755fa8a94b71aab7f92114", "fusion_lat": 0.0, "is_disabled": 0, "rental_uris": {"ios": "https://dc.lft.to/lastmile_qr_scan", "android": "https://dc.lft.to/lastmile_qr_scan"}}, {"name": "0522f6708b9d561be3933498bf713735", "lon": -77.02316183333333, "lat": 38.940855, "type": "electric_scooter", "fusion_lon": 0.0, "is_reserved": 0, "bike_id": "0522f6708b9d561be3933498bf713735", "fusion_lat": 0.0, "is_disabled": 0, "rental_uris": {"ios": "https://dc.lft.to/lastmile_qr_scan", "android": "https://dc.lft.to/lastmile_qr_scan"}}, {"name": "d42f7fa9ffc5d167f0c6854bea1daa92", "lon": -77.02288183333333, "lat": 38.916877666666664, "type": "electric_scooter", "fusion_lon": 0.0, "is_reserved": 0, "bike_id": "d42f7fa9ffc5d167f0c6854bea1daa92", "fusion_lat": 0.0, "is_disabled": 0, "rental_uris": {"ios": "https://dc.lft.to/lastmile_qr_scan", "android": "https://dc.lft.to/lastmile_qr_scan"}}, {"name": "c1b116c0b56e518e5432cf4e83f8fa98", "lon": -77.00767383333333, "lat": 38.926747166666665, "type": "electric_scooter", "fusion_lon": 0.0, "is_reserved": 0, "bike_id": "c1b116c0b56e518e5432cf4e83f8fa98", "fusion_lat": 0.0, "is_disabled": 0, "rental_uris": {"ios": "https://dc.lft.to/lastmile_qr_scan", "android": "https://dc.lft.to/lastmile_qr_scan"}}, {"name": "245bcb77ba4831496dbba13069ad88ba", "lon": -77.02588933333334, "lat": 38.90169216666666, "type": "electric_scooter", "fusion_lon": 0.0, "is_reserved": 0, "bike_id": "245bcb77ba4831496dbba13069ad88ba", "fusion_lat": 0.0, "is_disabled": 0, "rental_uris": {"ios": "https://dc.lft.to/lastmile_qr_scan", "android": "https://dc.lft.to/lastmile_qr_scan"}}, {"name": "940c5bccf330dad4e039ed57e78ff1b8", "lon": -77.02983233333333, "lat": 38.9071965, "type": "electric_scooter", "fusion_lon": 0.0, "is_reserved": 0, "bike_id": "940c5bccf330dad4e039ed57e78ff1b8", "fusion_lat": 0.0, "is_disabled": 0, "rental_uris": {"ios": "https://dc.lft.to/lastmile_qr_scan", "android": "https://dc.lft.to/lastmile_qr_scan"}}, {"name": "2b4aae82f2fdd79ec00d283187477ea7", "lon": -77.18740766666667, "lat": 38.893518, "type": "electric_bike", "fusion_lon": 0.0, "is_reserved": 0, "bike_id": "2b4aae82f2fdd79ec00d283187477ea7", "fusion_lat": 0.0, "is_disabled": 0, "rental_uris": {"ios": "https://dc.lft.to/lastmile_qr_scan", "android": "https://dc.lft.to/lastmile_qr_scan"}}, {"name": "643fe7101a5b818232182a8e7647ebab", "lon": -77.10732566666667, "lat": 38.855543833333336, "type": "electric_bike", "fusion_lon": 0.0, "is_reserved": 0, "bike_id": "643fe7101a5b818232182a8e7647ebab", "fusion_lat": 0.0, "is_disabled": 0, "rental_uris": {"ios": "https://dc.lft.to/lastmile_qr_scan", "android": "https://dc.lft.to/lastmile_qr_scan"}}, {"name": "ec4906d75aeaea17ad3eaa1f80bcd1e8", "lon": -77.02718916666667, "lat": 38.936980166666665, "type": "electric_scooter", "fusion_lon": 0.0, "is_reserved": 0, "bike_id": "ec4906d75aeaea17ad3eaa1f80bcd1e8", "fusion_lat": 0.0, "is_disabled": 0, "rental_uris": {"ios": "https://dc.lft.to/lastmile_qr_scan", "android": "https://dc.lft.to/lastmile_qr_scan"}}, {"name": "927c0fc26297c8ea1cf4d064ca65952a", "lon": -76.99018666666667, "lat": 38.88267233333333, "type": "electric_scooter", "fusion_lon": 0.0, "is_reserved": 0, "bike_id": "927c0fc26297c8ea1cf4d064ca65952a", "fusion_lat": 0.0, "is_disabled": 0, "rental_uris": {"ios": "https://dc.lft.to/lastmile_qr_scan", "android": "https://dc.lft.to/lastmile_qr_scan"}}, {"name": "235af19830a7eaee047d813051bb1bec", "lon": -77.02736433333334, "lat": 38.928481833333336, "type": "electric_scooter", "fusion_lon": 0.0, "is_reserved": 0, "bike_id": "235af19830a7eaee047d813051bb1bec", "fusion_lat": 0.0, "is_disabled": 0, "rental_uris": {"ios": "https://dc.lft.to/lastmile_qr_scan", "android": "https://dc.lft.to/lastmile_qr_scan"}}, {"name": "d477d932ba13fdffb002849588b769a5", "lon": -77.0590455, "lat": 38.902387, "type": "electric_scooter", "fusion_lon": 0.0, "is_reserved": 0, "bike_id": "d477d932ba13fdffb002849588b769a5", "fusion_lat": 0.0, "is_disabled": 0, "rental_uris": {"ios": "https://dc.lft.to/lastmile_qr_scan", "android": "https://dc.lft.to/lastmile_qr_scan"}}, {"name": "b2c0834748bc04a3bb5ac2d7f848fb6a", "lon": -77.08459016666667, "lat": 38.848181, "type": "electric_bike", "fusion_lon": 0.0, "is_reserved": 0, "bike_id": "b2c0834748bc04a3bb5ac2d7f848fb6a", "fusion_lat": 0.0, "is_disabled": 0, "rental_uris": {"ios": "https://dc.lft.to/lastmile_qr_scan", "android": "https://dc.lft.to/lastmile_qr_scan"}}, {"name": "a1025c5832a0f86a1ea9d4be8e277fc3", "lon": -77.00091966666666, "lat": 38.92029983333333, "type": "electric_scooter", "fusion_lon": 0.0, "is_reserved": 0, "bike_id": "a1025c5832a0f86a1ea9d4be8e277fc3", "fusion_lat": 0.0, "is_disabled": 0, "rental_uris": {"ios": "https://dc.lft.to/lastmile_qr_scan", "android": "https://dc.lft.to/lastmile_qr_scan"}}, {"name": "3f635ba7db917ca3f49c5b6c4aa37a89", "lon": -77.0033655, "lat": 38.89187116666667, "type": "electric_scooter", "fusion_lon": 0.0, "is_reserved": 0, "bike_id": "3f635ba7db917ca3f49c5b6c4aa37a89", "fusion_lat": 0.0, "is_disabled": 0, "rental_uris": {"ios": "https://dc.lft.to/lastmile_qr_scan", "android": "https://dc.lft.to/lastmile_qr_scan"}}, {"name": "8fc9984f43e5878e5ba8d4b5d14207ef", "lon": -77.06342533333333, "lat": 38.90745066666667, "type": "electric_scooter", "fusion_lon": 0.0, "is_reserved": 0, "bike_id": "8fc9984f43e5878e5ba8d4b5d14207ef", "fusion_lat": 0.0, "is_disabled": 0, "rental_uris": {"ios": "https://dc.lft.to/lastmile_qr_scan", "android": "https://dc.lft.to/lastmile_qr_scan"}}, {"name": "064afb738ab5e0915e1a48667fc089c8", "lon": -77.013594, "lat": 38.91926566666667, "type": "electric_scooter", "fusion_lon": 0.0, "is_reserved": 0, "bike_id": "064afb738ab5e0915e1a48667fc089c8", "fusion_lat": 0.0, "is_disabled": 0, "rental_uris": {"ios": "https://dc.lft.to/lastmile_qr_scan", "android": "https://dc.lft.to/lastmile_qr_scan"}}, {"name": "2a2318dcf764c9fa2e5123d64c7d6128", "lon": -76.9901255, "lat": 38.905061833333335, "type": "electric_scooter", "fusion_lon": 0.0, "is_reserved": 0, "bike_id": "2a2318dcf764c9fa2e5123d64c7d6128", "fusion_lat": 0.0, "is_disabled": 0, "rental_uris": {"ios": "https://dc.lft.to/lastmile_qr_scan", "android": "https://dc.lft.to/lastmile_qr_scan"}}, {"name": "eb604de386dcca80df3450162fbe0672", "lon": -77.001901, "lat": 38.89251133333333, "type": "electric_bike", "fusion_lon": 0.0, "is_reserved": 0, "bike_id": "eb604de386dcca80df3450162fbe0672", "fusion_lat": 0.0, "is_disabled": 0, "rental_uris": {"ios": "https://dc.lft.to/lastmile_qr_scan", "android": "https://dc.lft.to/lastmile_qr_scan"}}, {"name": "86780b60b9f1a0a6cdb6c9299c2cebf4", "lon": -77.04701766666666, "lat": 38.92172333333333, "type": "electric_scooter", "fusion_lon": 0.0, "is_reserved": 0, "bike_id": "86780b60b9f1a0a6cdb6c9299c2cebf4", "fusion_lat": 0.0, "is_disabled": 0, "rental_uris": {"ios": "https://dc.lft.to/lastmile_qr_scan", "android": "https://dc.lft.to/lastmile_qr_scan"}}, {"name": "c03664982d4feb45a207169491cc132b", "lon": -77.059166, "lat": 38.90102533333334, "type": "electric_scooter", "fusion_lon": 0.0, "is_reserved": 0, "bike_id": "c03664982d4feb45a207169491cc132b", "fusion_lat": 0.0, "is_disabled": 0, "rental_uris": {"ios": "https://dc.lft.to/lastmile_qr_scan", "android": "https://dc.lft.to/lastmile_qr_scan"}}, {"name": "284f8a9ca3f909790978367419b1f177", "lon": -77.02175733333333, "lat": 38.911085166666666, "type": "electric_scooter", "fusion_lon": 0.0, "is_reserved": 0, "bike_id": "284f8a9ca3f909790978367419b1f177", "fusion_lat": 0.0, "is_disabled": 0, "rental_uris": {"ios": "https://dc.lft.to/lastmile_qr_scan", "android": "https://dc.lft.to/lastmile_qr_scan"}}, {"name": "201a12c34c2e34238576f86d82791ebd", "lon": -76.93731366666667, "lat": 38.89012483333333, "type": "electric_scooter", "fusion_lon": 0.0, "is_reserved": 0, "bike_id": "201a12c34c2e34238576f86d82791ebd", "fusion_lat": 0.0, "is_disabled": 0, "rental_uris": {"ios": "https://dc.lft.to/lastmile_qr_scan", "android": "https://dc.lft.to/lastmile_qr_scan"}}, {"name": "0fee9f5951a9b36e084502c9420f6d30", "lon": -77.02196, "lat": 38.910559, "type": "electric_scooter", "fusion_lon": 0.0, "is_reserved": 0, "bike_id": "0fee9f5951a9b36e084502c9420f6d30", "fusion_lat": 0.0, "is_disabled": 0, "rental_uris": {"ios": "https://dc.lft.to/lastmile_qr_scan", "android": "https://dc.lft.to/lastmile_qr_scan"}}, {"name": "ec693bb78101cddcbbd6c5948ad85f6f", "lon": -77.038749, "lat": 38.9065015, "type": "electric_scooter", "fusion_lon": 0.0, "is_reserved": 0, "bike_id": "ec693bb78101cddcbbd6c5948ad85f6f", "fusion_lat": 0.0, "is_disabled": 0, "rental_uris": {"ios": "https://dc.lft.to/lastmile_qr_scan", "android": "https://dc.lft.to/lastmile_qr_scan"}}, {"name": "7909cafcc4f5a1c9f59b4e365368af78", "lon": -76.93644833333333, "lat": 38.87146283333333, "type": "electric_bike", "fusion_lon": 0.0, "is_reserved": 0, "bike_id": "7909cafcc4f5a1c9f59b4e365368af78", "fusion_lat": 0.0, "is_disabled": 0, "rental_uris": {"ios": "https://dc.lft.to/lastmile_qr_scan", "android": "https://dc.lft.to/lastmile_qr_scan"}}, {"name": "39958234bd54ee98d483dfb60842804d", "lon": -77.01748216666667, "lat": 38.887374666666666, "type": "electric_scooter", "fusion_lon": 0.0, "is_reserved": 0, "bike_id": "39958234bd54ee98d483dfb60842804d", "fusion_lat": 0.0, "is_disabled": 0, "rental_uris": {"ios": "https://dc.lft.to/lastmile_qr_scan", "android": "https://dc.lft.to/lastmile_qr_scan"}}, {"name": "cf7c78553001aae4864d99dff34acacc", "lon": -76.98968033333334, "lat": 38.865352, "type": "electric_scooter", "fusion_lon": 0.0, "is_reserved": 0, "bike_id": "cf7c78553001aae4864d99dff34acacc", "fusion_lat": 0.0, "is_disabled": 0, "rental_uris": {"ios": "https://dc.lft.to/lastmile_qr_scan", "android": "https://dc.lft.to/lastmile_qr_scan"}}, {"name": "01607d7f8f89317084798a3075e9bc18", "lon": -77.01113983333333, "lat": 38.929657666666664, "type": "electric_scooter", "fusion_lon": 0.0, "is_reserved": 0, "bike_id": "01607d7f8f89317084798a3075e9bc18", "fusion_lat": 0.0, "is_disabled": 0, "rental_uris": {"ios": "https://dc.lft.to/lastmile_qr_scan", "android": "https://dc.lft.to/lastmile_qr_scan"}}, {"name": "d95cbed83b3881dba22d89f81cfab3ba", "lon": -77.03470283333333, "lat": 38.902729, "type": "electric_scooter", "fusion_lon": 0.0, "is_reserved": 0, "bike_id": "d95cbed83b3881dba22d89f81cfab3ba", "fusion_lat": 0.0, "is_disabled": 0, "rental_uris": {"ios": "https://dc.lft.to/lastmile_qr_scan", "android": "https://dc.lft.to/lastmile_qr_scan"}}, {"name": "30c04dad54f2947cb7fa4d57c5ec09f5", "lon": -77.047194, "lat": 38.897451, "type": "electric_scooter", "fusion_lon": 0.0, "is_reserved": 0, "bike_id": "30c04dad54f2947cb7fa4d57c5ec09f5", "fusion_lat": 0.0, "is_disabled": 0, "rental_uris": {"ios": "https://dc.lft.to/lastmile_qr_scan", "android": "https://dc.lft.to/lastmile_qr_scan"}}, {"name": "e2ce220073e5ffced8d02cc95d6f8c90", "lon": -77.03203066666667, "lat": 38.910869166666664, "type": "electric_scooter", "fusion_lon": 0.0, "is_reserved": 0, "bike_id": "e2ce220073e5ffced8d02cc95d6f8c90", "fusion_lat": 0.0, "is_disabled": 0, "rental_uris": {"ios": "https://dc.lft.to/lastmile_qr_scan", "android": "https://dc.lft.to/lastmile_qr_scan"}}, {"name": "09f104de634cdf4d3b95a8147b662833", "lon": -76.96876566666667, "lat": 38.870939, "type": "electric_scooter", "fusion_lon": 0.0, "is_reserved": 0, "bike_id": "09f104de634cdf4d3b95a8147b662833", "fusion_lat": 0.0, "is_disabled": 0, "rental_uris": {"ios": "https://dc.lft.to/lastmile_qr_scan", "android": "https://dc.lft.to/lastmile_qr_scan"}}, {"name": "6abde69dfcc9637a780b14f0924e9f50", "lon": -77.03903116666666, "lat": 38.918693833333336, "type": "electric_scooter", "fusion_lon": 0.0, "is_reserved": 0, "bike_id": "6abde69dfcc9637a780b14f0924e9f50", "fusion_lat": 0.0, "is_disabled": 0, "rental_uris": {"ios": "https://dc.lft.to/lastmile_qr_scan", "android": "https://dc.lft.to/lastmile_qr_scan"}}, {"name": "486ac66a22e1d5e4d32d2cbb1b3df1c7", "lon": -76.99639966666666, "lat": 38.9003305, "type": "electric_scooter", "fusion_lon": 0.0, "is_reserved": 0, "bike_id": "486ac66a22e1d5e4d32d2cbb1b3df1c7", "fusion_lat": 0.0, "is_disabled": 0, "rental_uris": {"ios": "https://dc.lft.to/lastmile_qr_scan", "android": "https://dc.lft.to/lastmile_qr_scan"}}, {"name": "dce5ac1b4b5e23fb70648abd1a0e6d94", "lon": -76.98092316666667, "lat": 38.95356266666667, "type": "electric_bike", "fusion_lon": 0.0, "is_reserved": 0, "bike_id": "dce5ac1b4b5e23fb70648abd1a0e6d94", "fusion_lat": 0.0, "is_disabled": 0, "rental_uris": {"ios": "https://dc.lft.to/lastmile_qr_scan", "android": "https://dc.lft.to/lastmile_qr_scan"}}, {"name": "dc4f37473d381f49d605f728f6831075", "lon": -76.96603666666667, "lat": 38.873918333333336, "type": "electric_scooter", "fusion_lon": 0.0, "is_reserved": 0, "bike_id": "dc4f37473d381f49d605f728f6831075", "fusion_lat": 0.0, "is_disabled": 0, "rental_uris": {"ios": "https://dc.lft.to/lastmile_qr_scan", "android": "https://dc.lft.to/lastmile_qr_scan"}}, {"name": "f5d13f09ef488b5df039a0e5b13d378e", "lon": -76.94598116666667, "lat": 38.90154233333333, "type": "electric_scooter", "fusion_lon": 0.0, "is_reserved": 0, "bike_id": "f5d13f09ef488b5df039a0e5b13d378e", "fusion_lat": 0.0, "is_disabled": 0, "rental_uris": {"ios": "https://dc.lft.to/lastmile_qr_scan", "android": "https://dc.lft.to/lastmile_qr_scan"}}, {"name": "e5990d2d3f9e42912d59e9105ef38579", "lon": -77.02278316666667, "lat": 38.91677216666667, "type": "electric_scooter", "fusion_lon": 0.0, "is_reserved": 0, "bike_id": "e5990d2d3f9e42912d59e9105ef38579", "fusion_lat": 0.0, "is_disabled": 0, "rental_uris": {"ios": "https://dc.lft.to/lastmile_qr_scan", "android": "https://dc.lft.to/lastmile_qr_scan"}}, {"name": "08b699ae58ca19f46d5f8905cd5eb33b", "lon": -77.02685, "lat": 38.91267666666667, "type": "electric_scooter", "fusion_lon": 0.0, "is_reserved": 0, "bike_id": "08b699ae58ca19f46d5f8905cd5eb33b", "fusion_lat": 0.0, "is_disabled": 0, "rental_uris": {"ios": "https://dc.lft.to/lastmile_qr_scan", "android": "https://dc.lft.to/lastmile_qr_scan"}}, {"name": "cae9be45645ea671a916d822f3614ba4", "lon": -77.00767333333333, "lat": 38.8259625, "type": "electric_scooter", "fusion_lon": 0.0, "is_reserved": 0, "bike_id": "cae9be45645ea671a916d822f3614ba4", "fusion_lat": 0.0, "is_disabled": 0, "rental_uris": {"ios": "https://dc.lft.to/lastmile_qr_scan", "android": "https://dc.lft.to/lastmile_qr_scan"}}, {"name": "6c61fb7a0e25a29dce3b5e97074a767b", "lon": -77.0412505, "lat": 38.93090733333333, "type": "electric_bike", "fusion_lon": 0.0, "is_reserved": 0, "bike_id": "6c61fb7a0e25a29dce3b5e97074a767b", "fusion_lat": 0.0, "is_disabled": 0, "rental_uris": {"ios": "https://dc.lft.to/lastmile_qr_scan", "android": "https://dc.lft.to/lastmile_qr_scan"}}, {"name": "4f1b1b12980a50c150e274daa2d33ed3", "lon": -77.12484666666667, "lat": 38.853961166666664, "type": "electric_bike", "fusion_lon": 0.0, "is_reserved": 0, "bike_id": "4f1b1b12980a50c150e274daa2d33ed3", "fusion_lat": 0.0, "is_disabled": 0, "rental_uris": {"ios": "https://dc.lft.to/lastmile_qr_scan", "android": "https://dc.lft.to/lastmile_qr_scan"}}, {"name": "b7a4d3d51354852aae0265b20281ad22", "lon": -77.052102, "lat": 38.924691, "type": "electric_scooter", "fusion_lon": 0.0, "is_reserved": 0, "bike_id": "b7a4d3d51354852aae0265b20281ad22", "fusion_lat": 0.0, "is_disabled": 0, "rental_uris": {"ios": "https://dc.lft.to/lastmile_qr_scan", "android": "https://dc.lft.to/lastmile_qr_scan"}}, {"name": "f5b21324d8ecce7538f02c2251e28f83", "lon": -77.00568566666666, "lat": 38.886006, "type": "electric_scooter", "fusion_lon": 0.0, "is_reserved": 0, "bike_id": "f5b21324d8ecce7538f02c2251e28f83", "fusion_lat": 0.0, "is_disabled": 0, "rental_uris": {"ios": "https://dc.lft.to/lastmile_qr_scan", "android": "https://dc.lft.to/lastmile_qr_scan"}}, {"name": "035e7d11ba5e31e79e5a93cc82e971e8", "lon": -77.0435525, "lat": 38.905215, "type": "electric_scooter", "fusion_lon": 0.0, "is_reserved": 0, "bike_id": "035e7d11ba5e31e79e5a93cc82e971e8", "fusion_lat": 0.0, "is_disabled": 0, "rental_uris": {"ios": "https://dc.lft.to/lastmile_qr_scan", "android": "https://dc.lft.to/lastmile_qr_scan"}}, {"name": "f1172af987932e2394fa501b05c3f556", "lon": -76.98715666666666, "lat": 38.866242166666666, "type": "electric_scooter", "fusion_lon": 0.0, "is_reserved": 0, "bike_id": "f1172af987932e2394fa501b05c3f556", "fusion_lat": 0.0, "is_disabled": 0, "rental_uris": {"ios": "https://dc.lft.to/lastmile_qr_scan", "android": "https://dc.lft.to/lastmile_qr_scan"}}, {"name": "52d01c5d4f036b4de7a706144766d016", "lon": -77.07432533333333, "lat": 38.99945966666667, "type": "electric_bike", "fusion_lon": 0.0, "is_reserved": 0, "bike_id": "52d01c5d4f036b4de7a706144766d016", "fusion_lat": 0.0, "is_disabled": 0, "rental_uris": {"ios": "https://dc.lft.to/lastmile_qr_scan", "android": "https://dc.lft.to/lastmile_qr_scan"}}, {"name": "109bcea316a424b576385b7dd626c8e0", "lon": -76.9753415, "lat": 38.840158833333334, "type": "electric_bike", "fusion_lon": 0.0, "is_reserved": 0, "bike_id": "109bcea316a424b576385b7dd626c8e0", "fusion_lat": 0.0, "is_disabled": 0, "rental_uris": {"ios": "https://dc.lft.to/lastmile_qr_scan", "android": "https://dc.lft.to/lastmile_qr_scan"}}, {"name": "891c171341031a5ba648fead1756d267", "lon": -77.022356, "lat": 38.91267933333334, "type": "electric_scooter", "fusion_lon": 0.0, "is_reserved": 0, "bike_id": "891c171341031a5ba648fead1756d267", "fusion_lat": 0.0, "is_disabled": 0, "rental_uris": {"ios": "https://dc.lft.to/lastmile_qr_scan", "android": "https://dc.lft.to/lastmile_qr_scan"}}, {"name": "cae713091e1bef1cfea7df0026cb5067", "lon": -77.02439116666666, "lat": 38.92727683333333, "type": "electric_scooter", "fusion_lon": 0.0, "is_reserved": 0, "bike_id": "cae713091e1bef1cfea7df0026cb5067", "fusion_lat": 0.0, "is_disabled": 0, "rental_uris": {"ios": "https://dc.lft.to/lastmile_qr_scan", "android": "https://dc.lft.to/lastmile_qr_scan"}}, {"name": "a4108e207192f68c526a997eef05ae1e", "lon": -77.02452566666666, "lat": 38.924089333333335, "type": "electric_scooter", "fusion_lon": 0.0, "is_reserved": 0, "bike_id": "a4108e207192f68c526a997eef05ae1e", "fusion_lat": 0.0, "is_disabled": 0, "rental_uris": {"ios": "https://dc.lft.to/lastmile_qr_scan", "android": "https://dc.lft.to/lastmile_qr_scan"}}, {"name": "e8e377cfe2c9bd5f8f8680e04f66b97e", "lon": -77.03330683333333, "lat": 38.898426, "type": "electric_scooter", "fusion_lon": 0.0, "is_reserved": 0, "bike_id": "e8e377cfe2c9bd5f8f8680e04f66b97e", "fusion_lat": 0.0, "is_disabled": 0, "rental_uris": {"ios": "https://dc.lft.to/lastmile_qr_scan", "android": "https://dc.lft.to/lastmile_qr_scan"}}, {"name": "37ef76f53980d3e35b19b81947a4785a", "lon": -77.03330766666667, "lat": 38.898393666666664, "type": "electric_scooter", "fusion_lon": 0.0, "is_reserved": 0, "bike_id": "37ef76f53980d3e35b19b81947a4785a", "fusion_lat": 0.0, "is_disabled": 0, "rental_uris": {"ios": "https://dc.lft.to/lastmile_qr_scan", "android": "https://dc.lft.to/lastmile_qr_scan"}}, {"name": "547829898f0ebf8320e79eeb90f4d5a5", "lon": -77.032302, "lat": 38.914054166666666, "type": "electric_scooter", "fusion_lon": 0.0, "is_reserved": 0, "bike_id": "547829898f0ebf8320e79eeb90f4d5a5", "fusion_lat": 0.0, "is_disabled": 0, "rental_uris": {"ios": "https://dc.lft.to/lastmile_qr_scan", "android": "https://dc.lft.to/lastmile_qr_scan"}}, {"name": "b946da23313c6577e8bd3addfd9e337a", "lon": -76.98270083333334, "lat": 38.8853275, "type": "electric_scooter", "fusion_lon": 0.0, "is_reserved": 0, "bike_id": "b946da23313c6577e8bd3addfd9e337a", "fusion_lat": 0.0, "is_disabled": 0, "rental_uris": {"ios": "https://dc.lft.to/lastmile_qr_scan", "android": "https://dc.lft.to/lastmile_qr_scan"}}, {"name": "dd69f8074a9843f8813c08335702969c", "lon": -77.0177615, "lat": 38.8829505, "type": "electric_scooter", "fusion_lon": 0.0, "is_reserved": 0, "bike_id": "dd69f8074a9843f8813c08335702969c", "fusion_lat": 0.0, "is_disabled": 0, "rental_uris": {"ios": "https://dc.lft.to/lastmile_qr_scan", "android": "https://dc.lft.to/lastmile_qr_scan"}}, {"name": "f19a71ace70b311354cb213288641cf4", "lon": -77.050387, "lat": 38.92358333333333, "type": "electric_scooter", "fusion_lon": 0.0, "is_reserved": 0, "bike_id": "f19a71ace70b311354cb213288641cf4", "fusion_lat": 0.0, "is_disabled": 0, "rental_uris": {"ios": "https://dc.lft.to/lastmile_qr_scan", "android": "https://dc.lft.to/lastmile_qr_scan"}}, {"name": "20f798cd5837fc740f24186af6479130", "lon": -76.99840483333334, "lat": 38.8908285, "type": "electric_scooter", "fusion_lon": 0.0, "is_reserved": 0, "bike_id": "20f798cd5837fc740f24186af6479130", "fusion_lat": 0.0, "is_disabled": 0, "rental_uris": {"ios": "https://dc.lft.to/lastmile_qr_scan", "android": "https://dc.lft.to/lastmile_qr_scan"}}, {"name": "69b127ac89ff9df5ac9f85e3a4166e6a", "lon": -77.027727, "lat": 38.9396325, "type": "electric_scooter", "fusion_lon": 0.0, "is_reserved": 0, "bike_id": "69b127ac89ff9df5ac9f85e3a4166e6a", "fusion_lat": 0.0, "is_disabled": 0, "rental_uris": {"ios": "https://dc.lft.to/lastmile_qr_scan", "android": "https://dc.lft.to/lastmile_qr_scan"}}, {"name": "8a0a1a630848852dbfa7ce20935e52cf", "lon": -77.03932166666667, "lat": 38.92492416666666, "type": "electric_scooter", "fusion_lon": 0.0, "is_reserved": 0, "bike_id": "8a0a1a630848852dbfa7ce20935e52cf", "fusion_lat": 0.0, "is_disabled": 0, "rental_uris": {"ios": "https://dc.lft.to/lastmile_qr_scan", "android": "https://dc.lft.to/lastmile_qr_scan"}}, {"name": "d903eca87389e968ee88ec96f6cef4a5", "lon": -77.03361566666666, "lat": 38.90389666666667, "type": "electric_scooter", "fusion_lon": 0.0, "is_reserved": 0, "bike_id": "d903eca87389e968ee88ec96f6cef4a5", "fusion_lat": 0.0, "is_disabled": 0, "rental_uris": {"ios": "https://dc.lft.to/lastmile_qr_scan", "android": "https://dc.lft.to/lastmile_qr_scan"}}, {"name": "98bfde7d51de2c693d659c72852a2b94", "lon": -77.03834866666666, "lat": 38.907169, "type": "electric_scooter", "fusion_lon": 0.0, "is_reserved": 0, "bike_id": "98bfde7d51de2c693d659c72852a2b94", "fusion_lat": 0.0, "is_disabled": 0, "rental_uris": {"ios": "https://dc.lft.to/lastmile_qr_scan", "android": "https://dc.lft.to/lastmile_qr_scan"}}, {"name": "571bbeb11d6e1981955840978b6d28dd", "lon": -77.03184716666667, "lat": 38.91800383333333, "type": "electric_scooter", "fusion_lon": 0.0, "is_reserved": 0, "bike_id": "571bbeb11d6e1981955840978b6d28dd", "fusion_lat": 0.0, "is_disabled": 0, "rental_uris": {"ios": "https://dc.lft.to/lastmile_qr_scan", "android": "https://dc.lft.to/lastmile_qr_scan"}}, {"name": "c65e0d6fa45defd1ae0b4a0a857e3b23", "lon": -77.06109166666667, "lat": 38.9370805, "type": "electric_scooter", "fusion_lon": 0.0, "is_reserved": 0, "bike_id": "c65e0d6fa45defd1ae0b4a0a857e3b23", "fusion_lat": 0.0, "is_disabled": 0, "rental_uris": {"ios": "https://dc.lft.to/lastmile_qr_scan", "android": "https://dc.lft.to/lastmile_qr_scan"}}, {"name": "f222a4e643ba19723da197d06b2af56a", "lon": -76.98476516666666, "lat": 38.9109645, "type": "electric_bike", "fusion_lon": 0.0, "is_reserved": 0, "bike_id": "f222a4e643ba19723da197d06b2af56a", "fusion_lat": 0.0, "is_disabled": 0, "rental_uris": {"ios": "https://dc.lft.to/lastmile_qr_scan", "android": "https://dc.lft.to/lastmile_qr_scan"}}, {"name": "d12f2ac3c29315f2905610cc97fba9bf", "lon": -77.03639383333334, "lat": 38.91690166666667, "type": "electric_scooter", "fusion_lon": 0.0, "is_reserved": 0, "bike_id": "d12f2ac3c29315f2905610cc97fba9bf", "fusion_lat": 0.0, "is_disabled": 0, "rental_uris": {"ios": "https://dc.lft.to/lastmile_qr_scan", "android": "https://dc.lft.to/lastmile_qr_scan"}}, {"name": "f0740a4e552943a455d8c39864b39d02", "lon": -77.03800766666667, "lat": 38.90675933333333, "type": "electric_scooter", "fusion_lon": 0.0, "is_reserved": 0, "bike_id": "f0740a4e552943a455d8c39864b39d02", "fusion_lat": 0.0, "is_disabled": 0, "rental_uris": {"ios": "https://dc.lft.to/lastmile_qr_scan", "android": "https://dc.lft.to/lastmile_qr_scan"}}, {"name": "27101cddff2ca642b6454d24e82fe0c8", "lon": -76.97632666666667, "lat": 38.9057175, "type": "electric_scooter", "fusion_lon": 0.0, "is_reserved": 0, "bike_id": "27101cddff2ca642b6454d24e82fe0c8", "fusion_lat": 0.0, "is_disabled": 0, "rental_uris": {"ios": "https://dc.lft.to/lastmile_qr_scan", "android": "https://dc.lft.to/lastmile_qr_scan"}}, {"name": "d361050e01e076d46ade20476004d84d", "lon": -77.00739966666667, "lat": 38.89843, "type": "electric_scooter", "fusion_lon": 0.0, "is_reserved": 0, "bike_id": "d361050e01e076d46ade20476004d84d", "fusion_lat": 0.0, "is_disabled": 0, "rental_uris": {"ios": "https://dc.lft.to/lastmile_qr_scan", "android": "https://dc.lft.to/lastmile_qr_scan"}}, {"name": "56ef5c64dc5f810a510ee9b745c44b6a", "lon": -77.04329066666666, "lat": 38.908809833333336, "type": "electric_scooter", "fusion_lon": 0.0, "is_reserved": 0, "bike_id": "56ef5c64dc5f810a510ee9b745c44b6a", "fusion_lat": 0.0, "is_disabled": 0, "rental_uris": {"ios": "https://dc.lft.to/lastmile_qr_scan", "android": "https://dc.lft.to/lastmile_qr_scan"}}, {"name": "f1a29845d53f5a32c758b315efb000b4", "lon": -77.0331215, "lat": 38.956193666666664, "type": "electric_scooter", "fusion_lon": 0.0, "is_reserved": 0, "bike_id": "f1a29845d53f5a32c758b315efb000b4", "fusion_lat": 0.0, "is_disabled": 0, "rental_uris": {"ios": "https://dc.lft.to/lastmile_qr_scan", "android": "https://dc.lft.to/lastmile_qr_scan"}}, {"name": "8e5be6049a0edac509aadc458a2ab50e", "lon": -76.986111, "lat": 38.86528066666666, "type": "electric_scooter", "fusion_lon": 0.0, "is_reserved": 0, "bike_id": "8e5be6049a0edac509aadc458a2ab50e", "fusion_lat": 0.0, "is_disabled": 0, "rental_uris": {"ios": "https://dc.lft.to/lastmile_qr_scan", "android": "https://dc.lft.to/lastmile_qr_scan"}}, {"name": "544b67af8463a05828dd4f79c859ae33", "lon": -77.03407383333334, "lat": 38.922514166666666, "type": "electric_scooter", "fusion_lon": 0.0, "is_reserved": 0, "bike_id": "544b67af8463a05828dd4f79c859ae33", "fusion_lat": 0.0, "is_disabled": 0, "rental_uris": {"ios": "https://dc.lft.to/lastmile_qr_scan", "android": "https://dc.lft.to/lastmile_qr_scan"}}, {"name": "58cfa32f24be8349eeb0865d3ec7e3be", "lon": -77.07503066666666, "lat": 38.89474516666667, "type": "electric_scooter", "fusion_lon": 0.0, "is_reserved": 0, "bike_id": "58cfa32f24be8349eeb0865d3ec7e3be", "fusion_lat": 0.0, "is_disabled": 0, "rental_uris": {"ios": "https://dc.lft.to/lastmile_qr_scan", "android": "https://dc.lft.to/lastmile_qr_scan"}}, {"name": "07f5afc44699008b75ee82b22f362b3b", "lon": -77.038008, "lat": 38.90674716666667, "type": "electric_scooter", "fusion_lon": 0.0, "is_reserved": 0, "bike_id": "07f5afc44699008b75ee82b22f362b3b", "fusion_lat": 0.0, "is_disabled": 0, "rental_uris": {"ios": "https://dc.lft.to/lastmile_qr_scan", "android": "https://dc.lft.to/lastmile_qr_scan"}}, {"name": "008c9083f060e50463cbd6f39e7470c3", "lon": -77.03900716666666, "lat": 38.9221905, "type": "electric_scooter", "fusion_lon": 0.0, "is_reserved": 0, "bike_id": "008c9083f060e50463cbd6f39e7470c3", "fusion_lat": 0.0, "is_disabled": 0, "rental_uris": {"ios": "https://dc.lft.to/lastmile_qr_scan", "android": "https://dc.lft.to/lastmile_qr_scan"}}, {"name": "966b5763d64ba17cd1a4e798ff716ce8", "lon": -77.0352485, "lat": 38.900327833333336, "type": "electric_scooter", "fusion_lon": 0.0, "is_reserved": 0, "bike_id": "966b5763d64ba17cd1a4e798ff716ce8", "fusion_lat": 0.0, "is_disabled": 0, "rental_uris": {"ios": "https://dc.lft.to/lastmile_qr_scan", "android": "https://dc.lft.to/lastmile_qr_scan"}}, {"name": "539489c9adad8d47bc9fb8fc5f6c2e3f", "lon": -76.94637333333333, "lat": 38.8984345, "type": "electric_scooter", "fusion_lon": 0.0, "is_reserved": 0, "bike_id": "539489c9adad8d47bc9fb8fc5f6c2e3f", "fusion_lat": 0.0, "is_disabled": 0, "rental_uris": {"ios": "https://dc.lft.to/lastmile_qr_scan", "android": "https://dc.lft.to/lastmile_qr_scan"}}, {"name": "8555f60691fa76b3434f272eff2ef4e3", "lon": -77.0216325, "lat": 38.926119666666665, "type": "electric_scooter", "fusion_lon": 0.0, "is_reserved": 0, "bike_id": "8555f60691fa76b3434f272eff2ef4e3", "fusion_lat": 0.0, "is_disabled": 0, "rental_uris": {"ios": "https://dc.lft.to/lastmile_qr_scan", "android": "https://dc.lft.to/lastmile_qr_scan"}}, {"name": "36dacaf344568c45f63f966fd0fd935b", "lon": -77.04776016666666, "lat": 38.90509333333333, "type": "electric_scooter", "fusion_lon": 0.0, "is_reserved": 0, "bike_id": "36dacaf344568c45f63f966fd0fd935b", "fusion_lat": 0.0, "is_disabled": 0, "rental_uris": {"ios": "https://dc.lft.to/lastmile_qr_scan", "android": "https://dc.lft.to/lastmile_qr_scan"}}, {"name": "c078b62718f1985129482a363db11061", "lon": -77.12526233333334, "lat": 39.056325333333334, "type": "electric_bike", "fusion_lon": 0.0, "is_reserved": 0, "bike_id": "c078b62718f1985129482a363db11061", "fusion_lat": 0.0, "is_disabled": 0, "rental_uris": {"ios": "https://dc.lft.to/lastmile_qr_scan", "android": "https://dc.lft.to/lastmile_qr_scan"}}, {"name": "7a99932b67cf1835b37789473adfd7bf", "lon": -77.03268066666666, "lat": 38.91705966666667, "type": "electric_scooter", "fusion_lon": 0.0, "is_reserved": 0, "bike_id": "7a99932b67cf1835b37789473adfd7bf", "fusion_lat": 0.0, "is_disabled": 0, "rental_uris": {"ios": "https://dc.lft.to/lastmile_qr_scan", "android": "https://dc.lft.to/lastmile_qr_scan"}}, {"name": "08367d2531df63baf24004a8b229cb79", "lon": -76.94634816666667, "lat": 38.898456, "type": "electric_scooter", "fusion_lon": 0.0, "is_reserved": 0, "bike_id": "08367d2531df63baf24004a8b229cb79", "fusion_lat": 0.0, "is_disabled": 0, "rental_uris": {"ios": "https://dc.lft.to/lastmile_qr_scan", "android": "https://dc.lft.to/lastmile_qr_scan"}}, {"name": "ac7ab6a12a098889d07361185c404b2f", "lon": -77.02297766666666, "lat": 38.928082833333335, "type": "electric_scooter", "fusion_lon": 0.0, "is_reserved": 0, "bike_id": "ac7ab6a12a098889d07361185c404b2f", "fusion_lat": 0.0, "is_disabled": 0, "rental_uris": {"ios": "https://dc.lft.to/lastmile_qr_scan", "android": "https://dc.lft.to/lastmile_qr_scan"}}, {"name": "eb87b42465c7762f673f899cc494bb7e", "lon": -76.91101783333333, "lat": 38.893984, "type": "electric_scooter", "fusion_lon": 0.0, "is_reserved": 0, "bike_id": "eb87b42465c7762f673f899cc494bb7e", "fusion_lat": 0.0, "is_disabled": 0, "rental_uris": {"ios": "https://dc.lft.to/lastmile_qr_scan", "android": "https://dc.lft.to/lastmile_qr_scan"}}, {"name": "33d9173e2876e8929e11aff90202273c", "lon": -76.98092083333333, "lat": 38.8813495, "type": "electric_bike", "fusion_lon": 0.0, "is_reserved": 0, "bike_id": "33d9173e2876e8929e11aff90202273c", "fusion_lat": 0.0, "is_disabled": 0, "rental_uris": {"ios": "https://dc.lft.to/lastmile_qr_scan", "android": "https://dc.lft.to/lastmile_qr_scan"}}, {"name": "336c5dc0f45c3d52a6b43cb91e68d2ef", "lon": -77.078664, "lat": 38.924558, "type": "electric_scooter", "fusion_lon": 0.0, "is_reserved": 0, "bike_id": "336c5dc0f45c3d52a6b43cb91e68d2ef", "fusion_lat": 0.0, "is_disabled": 0, "rental_uris": {"ios": "https://dc.lft.to/lastmile_qr_scan", "android": "https://dc.lft.to/lastmile_qr_scan"}}, {"name": "13edb9121072fd6f7f56c7d5b5083781", "lon": -77.0232735, "lat": 38.930563, "type": "electric_scooter", "fusion_lon": 0.0, "is_reserved": 0, "bike_id": "13edb9121072fd6f7f56c7d5b5083781", "fusion_lat": 0.0, "is_disabled": 0, "rental_uris": {"ios": "https://dc.lft.to/lastmile_qr_scan", "android": "https://dc.lft.to/lastmile_qr_scan"}}, {"name": "c00355a2d813b966306df0acb8a5c2d8", "lon": -77.0418795, "lat": 38.92620516666667, "type": "electric_scooter", "fusion_lon": 0.0, "is_reserved": 0, "bike_id": "c00355a2d813b966306df0acb8a5c2d8", "fusion_lat": 0.0, "is_disabled": 0, "rental_uris": {"ios": "https://dc.lft.to/lastmile_qr_scan", "android": "https://dc.lft.to/lastmile_qr_scan"}}, {"name": "6173a1e32ca6106878ce8124bd761574", "lon": -77.01792133333333, "lat": 38.8840655, "type": "electric_scooter", "fusion_lon": 0.0, "is_reserved": 0, "bike_id": "6173a1e32ca6106878ce8124bd761574", "fusion_lat": 0.0, "is_disabled": 0, "rental_uris": {"ios": "https://dc.lft.to/lastmile_qr_scan", "android": "https://dc.lft.to/lastmile_qr_scan"}}, {"name": "feea698aa9897803c0fbb0ee7c5362c7", "lon": -76.99848083333333, "lat": 38.8874375, "type": "electric_scooter", "fusion_lon": 0.0, "is_reserved": 0, "bike_id": "feea698aa9897803c0fbb0ee7c5362c7", "fusion_lat": 0.0, "is_disabled": 0, "rental_uris": {"ios": "https://dc.lft.to/lastmile_qr_scan", "android": "https://dc.lft.to/lastmile_qr_scan"}}, {"name": "bcfdff9d84ba85610e3108a40afa1014", "lon": -77.043837, "lat": 38.923429666666664, "type": "electric_scooter", "fusion_lon": 0.0, "is_reserved": 0, "bike_id": "bcfdff9d84ba85610e3108a40afa1014", "fusion_lat": 0.0, "is_disabled": 0, "rental_uris": {"ios": "https://dc.lft.to/lastmile_qr_scan", "android": "https://dc.lft.to/lastmile_qr_scan"}}, {"name": "819f00e7f104f0b8a0de5062aa38f5d8", "lon": -77.054206, "lat": 38.902354, "type": "electric_scooter", "fusion_lon": 0.0, "is_reserved": 0, "bike_id": "819f00e7f104f0b8a0de5062aa38f5d8", "fusion_lat": 0.0, "is_disabled": 0, "rental_uris": {"ios": "https://dc.lft.to/lastmile_qr_scan", "android": "https://dc.lft.to/lastmile_qr_scan"}}, {"name": "3a836dce918812c520d5b7a694cc68ff", "lon": -76.93376833333333, "lat": 38.8991815, "type": "electric_scooter", "fusion_lon": 0.0, "is_reserved": 0, "bike_id": "3a836dce918812c520d5b7a694cc68ff", "fusion_lat": 0.0, "is_disabled": 0, "rental_uris": {"ios": "https://dc.lft.to/lastmile_qr_scan", "android": "https://dc.lft.to/lastmile_qr_scan"}}, {"name": "0f93950b996273261194deca10fa4bf6", "lon": -77.03178616666666, "lat": 38.91720466666666, "type": "electric_scooter", "fusion_lon": 0.0, "is_reserved": 0, "bike_id": "0f93950b996273261194deca10fa4bf6", "fusion_lat": 0.0, "is_disabled": 0, "rental_uris": {"ios": "https://dc.lft.to/lastmile_qr_scan", "android": "https://dc.lft.to/lastmile_qr_scan"}}, {"name": "2fd9cc35243da8e8e0d35795c0b51ea5", "lon": -76.978183, "lat": 38.90167366666667, "type": "electric_scooter", "fusion_lon": 0.0, "is_reserved": 0, "bike_id": "2fd9cc35243da8e8e0d35795c0b51ea5", "fusion_lat": 0.0, "is_disabled": 0, "rental_uris": {"ios": "https://dc.lft.to/lastmile_qr_scan", "android": "https://dc.lft.to/lastmile_qr_scan"}}, {"name": "4db2578f0ed9b30839f07880a7e8e6d4", "lon": -77.02603216666667, "lat": 38.91825, "type": "electric_scooter", "fusion_lon": 0.0, "is_reserved": 0, "bike_id": "4db2578f0ed9b30839f07880a7e8e6d4", "fusion_lat": 0.0, "is_disabled": 0, "rental_uris": {"ios": "https://dc.lft.to/lastmile_qr_scan", "android": "https://dc.lft.to/lastmile_qr_scan"}}, {"name": "a426a93c2185721fc1c37f8187f1f3d5", "lon": -77.00050633333333, "lat": 38.899962333333335, "type": "electric_scooter", "fusion_lon": 0.0, "is_reserved": 0, "bike_id": "a426a93c2185721fc1c37f8187f1f3d5", "fusion_lat": 0.0, "is_disabled": 0, "rental_uris": {"ios": "https://dc.lft.to/lastmile_qr_scan", "android": "https://dc.lft.to/lastmile_qr_scan"}}, {"name": "b5cda730eb0ff81f8730ab2e0bd297b9", "lon": -77.04339783333333, "lat": 38.907826, "type": "electric_scooter", "fusion_lon": 0.0, "is_reserved": 0, "bike_id": "b5cda730eb0ff81f8730ab2e0bd297b9", "fusion_lat": 0.0, "is_disabled": 0, "rental_uris": {"ios": "https://dc.lft.to/lastmile_qr_scan", "android": "https://dc.lft.to/lastmile_qr_scan"}}, {"name": "4997e664bacc2b2f4ec45150b48b2d4f", "lon": -77.00107633333333, "lat": 38.907260666666666, "type": "electric_scooter", "fusion_lon": 0.0, "is_reserved": 0, "bike_id": "4997e664bacc2b2f4ec45150b48b2d4f", "fusion_lat": 0.0, "is_disabled": 0, "rental_uris": {"ios": "https://dc.lft.to/lastmile_qr_scan", "android": "https://dc.lft.to/lastmile_qr_scan"}}, {"name": "bfc0050ed9244998cb1509397ef2a79b", "lon": -77.0388335, "lat": 38.91712833333333, "type": "electric_scooter", "fusion_lon": 0.0, "is_reserved": 0, "bike_id": "bfc0050ed9244998cb1509397ef2a79b", "fusion_lat": 0.0, "is_disabled": 0, "rental_uris": {"ios": "https://dc.lft.to/lastmile_qr_scan", "android": "https://dc.lft.to/lastmile_qr_scan"}}, {"name": "5ac3c9c27a6255146f7ddce68e0667f3", "lon": -77.00584466666666, "lat": 38.8790855, "type": "electric_scooter", "fusion_lon": 0.0, "is_reserved": 0, "bike_id": "5ac3c9c27a6255146f7ddce68e0667f3", "fusion_lat": 0.0, "is_disabled": 0, "rental_uris": {"ios": "https://dc.lft.to/lastmile_qr_scan", "android": "https://dc.lft.to/lastmile_qr_scan"}}, {"name": "59c5e234e7376795eaa807da54b124db", "lon": -77.05585216666667, "lat": 38.893242666666666, "type": "electric_scooter", "fusion_lon": 0.0, "is_reserved": 0, "bike_id": "59c5e234e7376795eaa807da54b124db", "fusion_lat": 0.0, "is_disabled": 0, "rental_uris": {"ios": "https://dc.lft.to/lastmile_qr_scan", "android": "https://dc.lft.to/lastmile_qr_scan"}}, {"name": "45b843d6963e28a309644443c2611332", "lon": -77.0253115, "lat": 38.942594666666665, "type": "electric_scooter", "fusion_lon": 0.0, "is_reserved": 0, "bike_id": "45b843d6963e28a309644443c2611332", "fusion_lat": 0.0, "is_disabled": 0, "rental_uris": {"ios": "https://dc.lft.to/lastmile_qr_scan", "android": "https://dc.lft.to/lastmile_qr_scan"}}, {"name": "be8efe5c39954bb0e830daa35a0e0c64", "lon": -76.9783675, "lat": 38.87206366666667, "type": "electric_scooter", "fusion_lon": 0.0, "is_reserved": 0, "bike_id": "be8efe5c39954bb0e830daa35a0e0c64", "fusion_lat": 0.0, "is_disabled": 0, "rental_uris": {"ios": "https://dc.lft.to/lastmile_qr_scan", "android": "https://dc.lft.to/lastmile_qr_scan"}}, {"name": "d8b1f20c511a1f2c633c2d2b774d0a0b", "lon": -77.05173983333333, "lat": 38.923413833333335, "type": "electric_scooter", "fusion_lon": 0.0, "is_reserved": 0, "bike_id": "d8b1f20c511a1f2c633c2d2b774d0a0b", "fusion_lat": 0.0, "is_disabled": 0, "rental_uris": {"ios": "https://dc.lft.to/lastmile_qr_scan", "android": "https://dc.lft.to/lastmile_qr_scan"}}, {"name": "642d7142f947a2343b9a84e7a9464f40", "lon": -77.02488333333334, "lat": 38.938654666666665, "type": "electric_scooter", "fusion_lon": 0.0, "is_reserved": 0, "bike_id": "642d7142f947a2343b9a84e7a9464f40", "fusion_lat": 0.0, "is_disabled": 0, "rental_uris": {"ios": "https://dc.lft.to/lastmile_qr_scan", "android": "https://dc.lft.to/lastmile_qr_scan"}}, {"name": "4a845e9007abeec72ba080bfbd3218fc", "lon": -77.02989683333334, "lat": 38.90732933333334, "type": "electric_scooter", "fusion_lon": 0.0, "is_reserved": 0, "bike_id": "4a845e9007abeec72ba080bfbd3218fc", "fusion_lat": 0.0, "is_disabled": 0, "rental_uris": {"ios": "https://dc.lft.to/lastmile_qr_scan", "android": "https://dc.lft.to/lastmile_qr_scan"}}, {"name": "9d69012d6436bbf9c82a25f63cd3bf3c", "lon": -77.00740933333333, "lat": 38.898491166666666, "type": "electric_scooter", "fusion_lon": 0.0, "is_reserved": 0, "bike_id": "9d69012d6436bbf9c82a25f63cd3bf3c", "fusion_lat": 0.0, "is_disabled": 0, "rental_uris": {"ios": "https://dc.lft.to/lastmile_qr_scan", "android": "https://dc.lft.to/lastmile_qr_scan"}}, {"name": "1d915a849e910e742a31a61b70d34269", "lon": -77.03780683333333, "lat": 38.916923, "type": "electric_scooter", "fusion_lon": 0.0, "is_reserved": 0, "bike_id": "1d915a849e910e742a31a61b70d34269", "fusion_lat": 0.0, "is_disabled": 0, "rental_uris": {"ios": "https://dc.lft.to/lastmile_qr_scan", "android": "https://dc.lft.to/lastmile_qr_scan"}}, {"name": "c97484fe6051dc52dbe1e8a4eef38470", "lon": -77.04189316666667, "lat": 38.919728666666664, "type": "electric_scooter", "fusion_lon": 0.0, "is_reserved": 0, "bike_id": "c97484fe6051dc52dbe1e8a4eef38470", "fusion_lat": 0.0, "is_disabled": 0, "rental_uris": {"ios": "https://dc.lft.to/lastmile_qr_scan", "android": "https://dc.lft.to/lastmile_qr_scan"}}, {"name": "79c4f4dd8164a298bda3b0f7eb5bcde4", "lon": -76.98884833333334, "lat": 38.866548333333334, "type": "electric_scooter", "fusion_lon": 0.0, "is_reserved": 0, "bike_id": "79c4f4dd8164a298bda3b0f7eb5bcde4", "fusion_lat": 0.0, "is_disabled": 0, "rental_uris": {"ios": "https://dc.lft.to/lastmile_qr_scan", "android": "https://dc.lft.to/lastmile_qr_scan"}}, {"name": "c73dcadaf28b656a52605518ddb61430", "lon": -77.04848416666667, "lat": 38.9195865, "type": "electric_scooter", "fusion_lon": 0.0, "is_reserved": 0, "bike_id": "c73dcadaf28b656a52605518ddb61430", "fusion_lat": 0.0, "is_disabled": 0, "rental_uris": {"ios": "https://dc.lft.to/lastmile_qr_scan", "android": "https://dc.lft.to/lastmile_qr_scan"}}, {"name": "dad6cfd5f955d688780afbaf16b94d99", "lon": -77.04619716666667, "lat": 38.90957933333333, "type": "electric_scooter", "fusion_lon": 0.0, "is_reserved": 0, "bike_id": "dad6cfd5f955d688780afbaf16b94d99", "fusion_lat": 0.0, "is_disabled": 0, "rental_uris": {"ios": "https://dc.lft.to/lastmile_qr_scan", "android": "https://dc.lft.to/lastmile_qr_scan"}}, {"name": "400d6fdb44717a946fb631261638eb5d", "lon": -77.02397233333333, "lat": 38.91995766666667, "type": "electric_scooter", "fusion_lon": 0.0, "is_reserved": 0, "bike_id": "400d6fdb44717a946fb631261638eb5d", "fusion_lat": 0.0, "is_disabled": 0, "rental_uris": {"ios": "https://dc.lft.to/lastmile_qr_scan", "android": "https://dc.lft.to/lastmile_qr_scan"}}, {"name": "513214ca1e83e18cd0617a4436536e8f", "lon": -77.02727083333333, "lat": 38.918219, "type": "electric_scooter", "fusion_lon": 0.0, "is_reserved": 0, "bike_id": "513214ca1e83e18cd0617a4436536e8f", "fusion_lat": 0.0, "is_disabled": 0, "rental_uris": {"ios": "https://dc.lft.to/lastmile_qr_scan", "android": "https://dc.lft.to/lastmile_qr_scan"}}, {"name": "368dcd29b3186efc0c33bf56c23ab076", "lon": -76.97481, "lat": 38.903503666666666, "type": "electric_scooter", "fusion_lon": 0.0, "is_reserved": 0, "bike_id": "368dcd29b3186efc0c33bf56c23ab076", "fusion_lat": 0.0, "is_disabled": 0, "rental_uris": {"ios": "https://dc.lft.to/lastmile_qr_scan", "android": "https://dc.lft.to/lastmile_qr_scan"}}, {"name": "1ebe6ef7fae839957ad10911cd10fa10", "lon": -77.00680333333334, "lat": 38.90013783333333, "type": "electric_scooter", "fusion_lon": 0.0, "is_reserved": 0, "bike_id": "1ebe6ef7fae839957ad10911cd10fa10", "fusion_lat": 0.0, "is_disabled": 0, "rental_uris": {"ios": "https://dc.lft.to/lastmile_qr_scan", "android": "https://dc.lft.to/lastmile_qr_scan"}}, {"name": "6a34e10346f40e3f6776f1d8021dc025", "lon": -77.02695116666666, "lat": 38.9087785, "type": "electric_scooter", "fusion_lon": 0.0, "is_reserved": 0, "bike_id": "6a34e10346f40e3f6776f1d8021dc025", "fusion_lat": 0.0, "is_disabled": 0, "rental_uris": {"ios": "https://dc.lft.to/lastmile_qr_scan", "android": "https://dc.lft.to/lastmile_qr_scan"}}, {"name": "0df97ccf2fda50f3c7803a4bb4863c5c", "lon": -77.040357, "lat": 38.90120683333333, "type": "electric_scooter", "fusion_lon": 0.0, "is_reserved": 0, "bike_id": "0df97ccf2fda50f3c7803a4bb4863c5c", "fusion_lat": 0.0, "is_disabled": 0, "rental_uris": {"ios": "https://dc.lft.to/lastmile_qr_scan", "android": "https://dc.lft.to/lastmile_qr_scan"}}, {"name": "6f61a90c212bee5aed3045e223a2432c", "lon": -77.04040433333333, "lat": 38.918617833333336, "type": "electric_scooter", "fusion_lon": 0.0, "is_reserved": 0, "bike_id": "6f61a90c212bee5aed3045e223a2432c", "fusion_lat": 0.0, "is_disabled": 0, "rental_uris": {"ios": "https://dc.lft.to/lastmile_qr_scan", "android": "https://dc.lft.to/lastmile_qr_scan"}}, {"name": "5ba35d1ae558a091db1afec1f81982d5", "lon": -77.058201, "lat": 38.935105666666665, "type": "electric_scooter", "fusion_lon": 0.0, "is_reserved": 0, "bike_id": "5ba35d1ae558a091db1afec1f81982d5", "fusion_lat": 0.0, "is_disabled": 0, "rental_uris": {"ios": "https://dc.lft.to/lastmile_qr_scan", "android": "https://dc.lft.to/lastmile_qr_scan"}}, {"name": "f1610ed859779929b093bfdcfc9944a6", "lon": -77.02866833333333, "lat": 39.0375145, "type": "electric_scooter", "fusion_lon": 0.0, "is_reserved": 0, "bike_id": "f1610ed859779929b093bfdcfc9944a6", "fusion_lat": 0.0, "is_disabled": 0, "rental_uris": {"ios": "https://dc.lft.to/lastmile_qr_scan", "android": "https://dc.lft.to/lastmile_qr_scan"}}, {"name": "c45d741ecceb27067c4ddc7369902645", "lon": -76.97430716666666, "lat": 38.904507833333334, "type": "electric_scooter", "fusion_lon": 0.0, "is_reserved": 0, "bike_id": "c45d741ecceb27067c4ddc7369902645", "fusion_lat": 0.0, "is_disabled": 0, "rental_uris": {"ios": "https://dc.lft.to/lastmile_qr_scan", "android": "https://dc.lft.to/lastmile_qr_scan"}}, {"name": "d009c7612435eadc85607202d0e71054", "lon": -77.09485416666666, "lat": 39.03045933333333, "type": "electric_bike", "fusion_lon": 0.0, "is_reserved": 0, "bike_id": "d009c7612435eadc85607202d0e71054", "fusion_lat": 0.0, "is_disabled": 0, "rental_uris": {"ios": "https://dc.lft.to/lastmile_qr_scan", "android": "https://dc.lft.to/lastmile_qr_scan"}}, {"name": "b7251d0241156574c738af1482740b38", "lon": -76.98673433333333, "lat": 38.9097635, "type": "electric_scooter", "fusion_lon": 0.0, "is_reserved": 0, "bike_id": "b7251d0241156574c738af1482740b38", "fusion_lat": 0.0, "is_disabled": 0, "rental_uris": {"ios": "https://dc.lft.to/lastmile_qr_scan", "android": "https://dc.lft.to/lastmile_qr_scan"}}, {"name": "ddeb235231c1216a5c42592f175cd17b", "lon": -77.023331, "lat": 38.9247565, "type": "electric_scooter", "fusion_lon": 0.0, "is_reserved": 0, "bike_id": "ddeb235231c1216a5c42592f175cd17b", "fusion_lat": 0.0, "is_disabled": 0, "rental_uris": {"ios": "https://dc.lft.to/lastmile_qr_scan", "android": "https://dc.lft.to/lastmile_qr_scan"}}, {"name": "c2a024575671bf7cde8bef007afad58d", "lon": -76.948769, "lat": 38.895460666666665, "type": "electric_scooter", "fusion_lon": 0.0, "is_reserved": 0, "bike_id": "c2a024575671bf7cde8bef007afad58d", "fusion_lat": 0.0, "is_disabled": 0, "rental_uris": {"ios": "https://dc.lft.to/lastmile_qr_scan", "android": "https://dc.lft.to/lastmile_qr_scan"}}, {"name": "586b4449884b4aff10b5fcf9d8ec943b", "lon": -76.99163666666666, "lat": 38.92082966666667, "type": "electric_scooter", "fusion_lon": 0.0, "is_reserved": 0, "bike_id": "586b4449884b4aff10b5fcf9d8ec943b", "fusion_lat": 0.0, "is_disabled": 0, "rental_uris": {"ios": "https://dc.lft.to/lastmile_qr_scan", "android": "https://dc.lft.to/lastmile_qr_scan"}}, {"name": "2bc6f1e2e16c0cda8b33a5d52b6160cb", "lon": -76.98711283333333, "lat": 38.86698416666667, "type": "electric_scooter", "fusion_lon": 0.0, "is_reserved": 0, "bike_id": "2bc6f1e2e16c0cda8b33a5d52b6160cb", "fusion_lat": 0.0, "is_disabled": 0, "rental_uris": {"ios": "https://dc.lft.to/lastmile_qr_scan", "android": "https://dc.lft.to/lastmile_qr_scan"}}, {"name": "0c1bb139da4b6e4f2b851c8499db6137", "lon": -77.0539615, "lat": 38.92811616666667, "type": "electric_scooter", "fusion_lon": 0.0, "is_reserved": 0, "bike_id": "0c1bb139da4b6e4f2b851c8499db6137", "fusion_lat": 0.0, "is_disabled": 0, "rental_uris": {"ios": "https://dc.lft.to/lastmile_qr_scan", "android": "https://dc.lft.to/lastmile_qr_scan"}}, {"name": "a530d6aa1d68d62ffdb8e0591653d2e7", "lon": -77.01190033333333, "lat": 38.915491, "type": "electric_scooter", "fusion_lon": 0.0, "is_reserved": 0, "bike_id": "a530d6aa1d68d62ffdb8e0591653d2e7", "fusion_lat": 0.0, "is_disabled": 0, "rental_uris": {"ios": "https://dc.lft.to/lastmile_qr_scan", "android": "https://dc.lft.to/lastmile_qr_scan"}}, {"name": "a418548eed7e01cbf0e7baa6f207ad37", "lon": -77.05431933333334, "lat": 38.928277333333334, "type": "electric_scooter", "fusion_lon": 0.0, "is_reserved": 0, "bike_id": "a418548eed7e01cbf0e7baa6f207ad37", "fusion_lat": 0.0, "is_disabled": 0, "rental_uris": {"ios": "https://dc.lft.to/lastmile_qr_scan", "android": "https://dc.lft.to/lastmile_qr_scan"}}, {"name": "009551255516c7ec11d9fd1b4ba1e590", "lon": -77.038639, "lat": 38.945016833333334, "type": "electric_scooter", "fusion_lon": 0.0, "is_reserved": 0, "bike_id": "009551255516c7ec11d9fd1b4ba1e590", "fusion_lat": 0.0, "is_disabled": 0, "rental_uris": {"ios": "https://dc.lft.to/lastmile_qr_scan", "android": "https://dc.lft.to/lastmile_qr_scan"}}, {"name": "5b4a188a9526d204aa1c537ff260cf90", "lon": -77.023683, "lat": 38.892209, "type": "electric_scooter", "fusion_lon": 0.0, "is_reserved": 0, "bike_id": "5b4a188a9526d204aa1c537ff260cf90", "fusion_lat": 0.0, "is_disabled": 0, "rental_uris": {"ios": "https://dc.lft.to/lastmile_qr_scan", "android": "https://dc.lft.to/lastmile_qr_scan"}}, {"name": "321e969ecf10ec328cdda5c67fc16ba5", "lon": -76.9501755, "lat": 38.893872333333334, "type": "electric_scooter", "fusion_lon": 0.0, "is_reserved": 0, "bike_id": "321e969ecf10ec328cdda5c67fc16ba5", "fusion_lat": 0.0, "is_disabled": 0, "rental_uris": {"ios": "https://dc.lft.to/lastmile_qr_scan", "android": "https://dc.lft.to/lastmile_qr_scan"}}, {"name": "9df6ee1471a66f312f67d6f8c30b998c", "lon": -77.03437116666667, "lat": 38.904461, "type": "electric_scooter", "fusion_lon": 0.0, "is_reserved": 0, "bike_id": "9df6ee1471a66f312f67d6f8c30b998c", "fusion_lat": 0.0, "is_disabled": 0, "rental_uris": {"ios": "https://dc.lft.to/lastmile_qr_scan", "android": "https://dc.lft.to/lastmile_qr_scan"}}, {"name": "a5a4dc464e89432ee8ca6075f76fc208", "lon": -76.99065716666667, "lat": 38.86363266666667, "type": "electric_scooter", "fusion_lon": 0.0, "is_reserved": 0, "bike_id": "a5a4dc464e89432ee8ca6075f76fc208", "fusion_lat": 0.0, "is_disabled": 0, "rental_uris": {"ios": "https://dc.lft.to/lastmile_qr_scan", "android": "https://dc.lft.to/lastmile_qr_scan"}}, {"name": "eca12ed6ad8867170d0dec2639b16f75", "lon": -77.05309133333333, "lat": 38.898485666666666, "type": "electric_scooter", "fusion_lon": 0.0, "is_reserved": 0, "bike_id": "eca12ed6ad8867170d0dec2639b16f75", "fusion_lat": 0.0, "is_disabled": 0, "rental_uris": {"ios": "https://dc.lft.to/lastmile_qr_scan", "android": "https://dc.lft.to/lastmile_qr_scan"}}, {"name": "45d79b1bdc9e28f241ceff9ad5af044e", "lon": -76.98351, "lat": 38.915465833333336, "type": "electric_scooter", "fusion_lon": 0.0, "is_reserved": 0, "bike_id": "45d79b1bdc9e28f241ceff9ad5af044e", "fusion_lat": 0.0, "is_disabled": 0, "rental_uris": {"ios": "https://dc.lft.to/lastmile_qr_scan", "android": "https://dc.lft.to/lastmile_qr_scan"}}, {"name": "5715d0975e8513bc9d576b4256a649a2", "lon": -77.0154525, "lat": 38.94415583333333, "type": "electric_bike", "fusion_lon": 0.0, "is_reserved": 0, "bike_id": "5715d0975e8513bc9d576b4256a649a2", "fusion_lat": 0.0, "is_disabled": 0, "rental_uris": {"ios": "https://dc.lft.to/lastmile_qr_scan", "android": "https://dc.lft.to/lastmile_qr_scan"}}, {"name": "c82966dc038d216b1dab3592e212754a", "lon": -77.00754333333333, "lat": 38.9267185, "type": "electric_scooter", "fusion_lon": 0.0, "is_reserved": 0, "bike_id": "c82966dc038d216b1dab3592e212754a", "fusion_lat": 0.0, "is_disabled": 0, "rental_uris": {"ios": "https://dc.lft.to/lastmile_qr_scan", "android": "https://dc.lft.to/lastmile_qr_scan"}}, {"name": "76c6d24cd8eeb421ad798daaac85540a", "lon": -77.129597, "lat": 38.85218066666667, "type": "electric_bike", "fusion_lon": 0.0, "is_reserved": 0, "bike_id": "76c6d24cd8eeb421ad798daaac85540a", "fusion_lat": 0.0, "is_disabled": 0, "rental_uris": {"ios": "https://dc.lft.to/lastmile_qr_scan", "android": "https://dc.lft.to/lastmile_qr_scan"}}, {"name": "eb61aa950f27d41012ffea31caa0cfda", "lon": -77.01918016666667, "lat": 38.92371583333333, "type": "electric_scooter", "fusion_lon": 0.0, "is_reserved": 0, "bike_id": "eb61aa950f27d41012ffea31caa0cfda", "fusion_lat": 0.0, "is_disabled": 0, "rental_uris": {"ios": "https://dc.lft.to/lastmile_qr_scan", "android": "https://dc.lft.to/lastmile_qr_scan"}}, {"name": "7412896dd2f5d4daa9d6a7bb6599b639", "lon": -77.0279715, "lat": 38.93075066666667, "type": "electric_scooter", "fusion_lon": 0.0, "is_reserved": 0, "bike_id": "7412896dd2f5d4daa9d6a7bb6599b639", "fusion_lat": 0.0, "is_disabled": 0, "rental_uris": {"ios": "https://dc.lft.to/lastmile_qr_scan", "android": "https://dc.lft.to/lastmile_qr_scan"}}, {"name": "2279f1df5f30817017a47cb9ef19654e", "lon": -77.043776, "lat": 38.9075975, "type": "electric_scooter", "fusion_lon": 0.0, "is_reserved": 0, "bike_id": "2279f1df5f30817017a47cb9ef19654e", "fusion_lat": 0.0, "is_disabled": 0, "rental_uris": {"ios": "https://dc.lft.to/lastmile_qr_scan", "android": "https://dc.lft.to/lastmile_qr_scan"}}, {"name": "1ac8678bc92833a20f30c8c1f6b80e52", "lon": -77.0762305, "lat": 38.91273416666667, "type": "electric_scooter", "fusion_lon": 0.0, "is_reserved": 0, "bike_id": "1ac8678bc92833a20f30c8c1f6b80e52", "fusion_lat": 0.0, "is_disabled": 0, "rental_uris": {"ios": "https://dc.lft.to/lastmile_qr_scan", "android": "https://dc.lft.to/lastmile_qr_scan"}}, {"name": "00066112e0218a7c42a292fca6fb06a5", "lon": -77.01215166666667, "lat": 38.8641625, "type": "electric_scooter", "fusion_lon": 0.0, "is_reserved": 0, "bike_id": "00066112e0218a7c42a292fca6fb06a5", "fusion_lat": 0.0, "is_disabled": 0, "rental_uris": {"ios": "https://dc.lft.to/lastmile_qr_scan", "android": "https://dc.lft.to/lastmile_qr_scan"}}, {"name": "60ae5d93f053df24408c68c597abdf86", "lon": -77.089355, "lat": 38.8626635, "type": "electric_bike", "fusion_lon": 0.0, "is_reserved": 0, "bike_id": "60ae5d93f053df24408c68c597abdf86", "fusion_lat": 0.0, "is_disabled": 0, "rental_uris": {"ios": "https://dc.lft.to/lastmile_qr_scan", "android": "https://dc.lft.to/lastmile_qr_scan"}}, {"name": "826b9a3495ba86ba7739fdda4659d425", "lon": -77.03245366666667, "lat": 38.90006983333333, "type": "electric_scooter", "fusion_lon": 0.0, "is_reserved": 0, "bike_id": "826b9a3495ba86ba7739fdda4659d425", "fusion_lat": 0.0, "is_disabled": 0, "rental_uris": {"ios": "https://dc.lft.to/lastmile_qr_scan", "android": "https://dc.lft.to/lastmile_qr_scan"}}, {"name": "e95f581627807f8bdd85aa3bbc971def", "lon": -76.99547516666667, "lat": 38.862593, "type": "electric_scooter", "fusion_lon": 0.0, "is_reserved": 0, "bike_id": "e95f581627807f8bdd85aa3bbc971def", "fusion_lat": 0.0, "is_disabled": 0, "rental_uris": {"ios": "https://dc.lft.to/lastmile_qr_scan", "android": "https://dc.lft.to/lastmile_qr_scan"}}, {"name": "0eeafd755a46904657e0dd657c415d7b", "lon": -77.028146, "lat": 38.960793, "type": "electric_scooter", "fusion_lon": 0.0, "is_reserved": 0, "bike_id": "0eeafd755a46904657e0dd657c415d7b", "fusion_lat": 0.0, "is_disabled": 0, "rental_uris": {"ios": "https://dc.lft.to/lastmile_qr_scan", "android": "https://dc.lft.to/lastmile_qr_scan"}}, {"name": "c6ddbe67154166ff26420fc736673cdb", "lon": -77.02118083333333, "lat": 38.9359995, "type": "electric_bike", "fusion_lon": 0.0, "is_reserved": 0, "bike_id": "c6ddbe67154166ff26420fc736673cdb", "fusion_lat": 0.0, "is_disabled": 0, "rental_uris": {"ios": "https://dc.lft.to/lastmile_qr_scan", "android": "https://dc.lft.to/lastmile_qr_scan"}}, {"name": "fcdf2065772e73ab7a0c74eca632fcd7", "lon": -77.00377866666666, "lat": 38.90711066666667, "type": "electric_scooter", "fusion_lon": 0.0, "is_reserved": 0, "bike_id": "fcdf2065772e73ab7a0c74eca632fcd7", "fusion_lat": 0.0, "is_disabled": 0, "rental_uris": {"ios": "https://dc.lft.to/lastmile_qr_scan", "android": "https://dc.lft.to/lastmile_qr_scan"}}, {"name": "44077abed80a46759295e7035e8cc88a", "lon": -77.04397466666667, "lat": 38.920323833333335, "type": "electric_scooter", "fusion_lon": 0.0, "is_reserved": 0, "bike_id": "44077abed80a46759295e7035e8cc88a", "fusion_lat": 0.0, "is_disabled": 0, "rental_uris": {"ios": "https://dc.lft.to/lastmile_qr_scan", "android": "https://dc.lft.to/lastmile_qr_scan"}}, {"name": "a9206282ff2f63ac7317e86e3a2db74a", "lon": -77.006463, "lat": 38.90581366666667, "type": "electric_scooter", "fusion_lon": 0.0, "is_reserved": 0, "bike_id": "a9206282ff2f63ac7317e86e3a2db74a", "fusion_lat": 0.0, "is_disabled": 0, "rental_uris": {"ios": "https://dc.lft.to/lastmile_qr_scan", "android": "https://dc.lft.to/lastmile_qr_scan"}}, {"name": "c5d0a89b58741d181e2bf79fe7369f3e", "lon": -77.0437465, "lat": 38.8984585, "type": "electric_scooter", "fusion_lon": 0.0, "is_reserved": 0, "bike_id": "c5d0a89b58741d181e2bf79fe7369f3e", "fusion_lat": 0.0, "is_disabled": 0, "rental_uris": {"ios": "https://dc.lft.to/lastmile_qr_scan", "android": "https://dc.lft.to/lastmile_qr_scan"}}, {"name": "81ea4a9ea27c5cb0c80709f603ccd4aa", "lon": -77.03591466666667, "lat": 38.91260466666667, "type": "electric_scooter", "fusion_lon": 0.0, "is_reserved": 0, "bike_id": "81ea4a9ea27c5cb0c80709f603ccd4aa", "fusion_lat": 0.0, "is_disabled": 0, "rental_uris": {"ios": "https://dc.lft.to/lastmile_qr_scan", "android": "https://dc.lft.to/lastmile_qr_scan"}}, {"name": "b13b678f40ccb4d79a5b5460a72ff121", "lon": -76.9981005, "lat": 38.90029716666667, "type": "electric_scooter", "fusion_lon": 0.0, "is_reserved": 0, "bike_id": "b13b678f40ccb4d79a5b5460a72ff121", "fusion_lat": 0.0, "is_disabled": 0, "rental_uris": {"ios": "https://dc.lft.to/lastmile_qr_scan", "android": "https://dc.lft.to/lastmile_qr_scan"}}, {"name": "15d010d0c1eb1b52879c888662dd0ff8", "lon": -77.0236425, "lat": 38.92516333333333, "type": "electric_scooter", "fusion_lon": 0.0, "is_reserved": 0, "bike_id": "15d010d0c1eb1b52879c888662dd0ff8", "fusion_lat": 0.0, "is_disabled": 0, "rental_uris": {"ios": "https://dc.lft.to/lastmile_qr_scan", "android": "https://dc.lft.to/lastmile_qr_scan"}}, {"name": "51d7c32dcc344012f97a407e27147118", "lon": -77.00466, "lat": 38.87660866666667, "type": "electric_scooter", "fusion_lon": 0.0, "is_reserved": 0, "bike_id": "51d7c32dcc344012f97a407e27147118", "fusion_lat": 0.0, "is_disabled": 0, "rental_uris": {"ios": "https://dc.lft.to/lastmile_qr_scan", "android": "https://dc.lft.to/lastmile_qr_scan"}}, {"name": "d43a0d46c50a37a7a810fbee33b5b311", "lon": -77.07157183333334, "lat": 38.90781066666667, "type": "electric_bike", "fusion_lon": 0.0, "is_reserved": 0, "bike_id": "d43a0d46c50a37a7a810fbee33b5b311", "fusion_lat": 0.0, "is_disabled": 0, "rental_uris": {"ios": "https://dc.lft.to/lastmile_qr_scan", "android": "https://dc.lft.to/lastmile_qr_scan"}}, {"name": "14f20e3c83bfe8a4fd2f2abfe4cb4bf4", "lon": -77.02684166666667, "lat": 38.912668833333335, "type": "electric_scooter", "fusion_lon": 0.0, "is_reserved": 0, "bike_id": "14f20e3c83bfe8a4fd2f2abfe4cb4bf4", "fusion_lat": 0.0, "is_disabled": 0, "rental_uris": {"ios": "https://dc.lft.to/lastmile_qr_scan", "android": "https://dc.lft.to/lastmile_qr_scan"}}, {"name": "192b676d29c4772858e4647682ada847", "lon": -77.00396183333334, "lat": 38.907739166666666, "type": "electric_scooter", "fusion_lon": 0.0, "is_reserved": 0, "bike_id": "192b676d29c4772858e4647682ada847", "fusion_lat": 0.0, "is_disabled": 0, "rental_uris": {"ios": "https://dc.lft.to/lastmile_qr_scan", "android": "https://dc.lft.to/lastmile_qr_scan"}}, {"name": "859d8230e0eba48051c9bc4a565b76d8", "lon": -76.98716583333334, "lat": 38.86627133333333, "type": "electric_scooter", "fusion_lon": 0.0, "is_reserved": 0, "bike_id": "859d8230e0eba48051c9bc4a565b76d8", "fusion_lat": 0.0, "is_disabled": 0, "rental_uris": {"ios": "https://dc.lft.to/lastmile_qr_scan", "android": "https://dc.lft.to/lastmile_qr_scan"}}, {"name": "c5b16c9c1829114102f87088f25b3246", "lon": -76.98272133333333, "lat": 38.91566566666667, "type": "electric_scooter", "fusion_lon": 0.0, "is_reserved": 0, "bike_id": "c5b16c9c1829114102f87088f25b3246", "fusion_lat": 0.0, "is_disabled": 0, "rental_uris": {"ios": "https://dc.lft.to/lastmile_qr_scan", "android": "https://dc.lft.to/lastmile_qr_scan"}}, {"name": "38891a05141bbed8fc1b10b8713c6453", "lon": -77.0034575, "lat": 38.887033333333335, "type": "electric_scooter", "fusion_lon": 0.0, "is_reserved": 0, "bike_id": "38891a05141bbed8fc1b10b8713c6453", "fusion_lat": 0.0, "is_disabled": 0, "rental_uris": {"ios": "https://dc.lft.to/lastmile_qr_scan", "android": "https://dc.lft.to/lastmile_qr_scan"}}, {"name": "aeea0ccf31cd21f659341c6734ec1254", "lon": -76.95186333333334, "lat": 38.907361, "type": "electric_scooter", "fusion_lon": 0.0, "is_reserved": 0, "bike_id": "aeea0ccf31cd21f659341c6734ec1254", "fusion_lat": 0.0, "is_disabled": 0, "rental_uris": {"ios": "https://dc.lft.to/lastmile_qr_scan", "android": "https://dc.lft.to/lastmile_qr_scan"}}, {"name": "cb4e280d716e1eb2103a1322264d4f5a", "lon": -77.032066, "lat": 38.907891666666664, "type": "electric_scooter", "fusion_lon": 0.0, "is_reserved": 0, "bike_id": "cb4e280d716e1eb2103a1322264d4f5a", "fusion_lat": 0.0, "is_disabled": 0, "rental_uris": {"ios": "https://dc.lft.to/lastmile_qr_scan", "android": "https://dc.lft.to/lastmile_qr_scan"}}, {"name": "1d11ea3f9785f284eba7d7f90c7ddd6a", "lon": -77.08189983333334, "lat": 38.855687333333336, "type": "electric_bike", "fusion_lon": 0.0, "is_reserved": 0, "bike_id": "1d11ea3f9785f284eba7d7f90c7ddd6a", "fusion_lat": 0.0, "is_disabled": 0, "rental_uris": {"ios": "https://dc.lft.to/lastmile_qr_scan", "android": "https://dc.lft.to/lastmile_qr_scan"}}, {"name": "3a070ee417f9d9aff23089efe47f2592", "lon": -77.05140083333333, "lat": 38.90593166666667, "type": "electric_scooter", "fusion_lon": 0.0, "is_reserved": 0, "bike_id": "3a070ee417f9d9aff23089efe47f2592", "fusion_lat": 0.0, "is_disabled": 0, "rental_uris": {"ios": "https://dc.lft.to/lastmile_qr_scan", "android": "https://dc.lft.to/lastmile_qr_scan"}}, {"name": "80e54319b54e4e1ca19b69809875c994", "lon": -76.9895645, "lat": 38.8569555, "type": "electric_scooter", "fusion_lon": 0.0, "is_reserved": 0, "bike_id": "80e54319b54e4e1ca19b69809875c994", "fusion_lat": 0.0, "is_disabled": 0, "rental_uris": {"ios": "https://dc.lft.to/lastmile_qr_scan", "android": "https://dc.lft.to/lastmile_qr_scan"}}, {"name": "643fd95cb33eef6fd442b57c6ac25d04", "lon": -76.99617533333333, "lat": 38.88584683333333, "type": "electric_scooter", "fusion_lon": 0.0, "is_reserved": 0, "bike_id": "643fd95cb33eef6fd442b57c6ac25d04", "fusion_lat": 0.0, "is_disabled": 0, "rental_uris": {"ios": "https://dc.lft.to/lastmile_qr_scan", "android": "https://dc.lft.to/lastmile_qr_scan"}}, {"name": "b1c1a62e2bd4d0e4a0626f8dd3d04ab3", "lon": -76.98992666666666, "lat": 38.86381866666667, "type": "electric_bike", "fusion_lon": 0.0, "is_reserved": 0, "bike_id": "b1c1a62e2bd4d0e4a0626f8dd3d04ab3", "fusion_lat": 0.0, "is_disabled": 0, "rental_uris": {"ios": "https://dc.lft.to/lastmile_qr_scan", "android": "https://dc.lft.to/lastmile_qr_scan"}}, {"name": "7a4737712b4e1fbffcc0a8115f475012", "lon": -77.0587575, "lat": 38.942968666666665, "type": "electric_scooter", "fusion_lon": 0.0, "is_reserved": 0, "bike_id": "7a4737712b4e1fbffcc0a8115f475012", "fusion_lat": 0.0, "is_disabled": 0, "rental_uris": {"ios": "https://dc.lft.to/lastmile_qr_scan", "android": "https://dc.lft.to/lastmile_qr_scan"}}, {"name": "6dc8f81ef02e91532600d9b4a7bc4be1", "lon": -77.0276475, "lat": 38.954254666666664, "type": "electric_scooter", "fusion_lon": 0.0, "is_reserved": 0, "bike_id": "6dc8f81ef02e91532600d9b4a7bc4be1", "fusion_lat": 0.0, "is_disabled": 0, "rental_uris": {"ios": "https://dc.lft.to/lastmile_qr_scan", "android": "https://dc.lft.to/lastmile_qr_scan"}}, {"name": "153ababbe0a387a45a92337389264b47", "lon": -77.02302916666666, "lat": 38.91622383333333, "type": "electric_bike", "fusion_lon": 0.0, "is_reserved": 0, "bike_id": "153ababbe0a387a45a92337389264b47", "fusion_lat": 0.0, "is_disabled": 0, "rental_uris": {"ios": "https://dc.lft.to/lastmile_qr_scan", "android": "https://dc.lft.to/lastmile_qr_scan"}}, {"name": "a79320399b1ab024078bd1cf8c5a87e4", "lon": -77.0200005, "lat": 38.9157335, "type": "electric_scooter", "fusion_lon": 0.0, "is_reserved": 0, "bike_id": "a79320399b1ab024078bd1cf8c5a87e4", "fusion_lat": 0.0, "is_disabled": 0, "rental_uris": {"ios": "https://dc.lft.to/lastmile_qr_scan", "android": "https://dc.lft.to/lastmile_qr_scan"}}, {"name": "73f0b61b963741423dd619ceb4198992", "lon": -77.02633683333333, "lat": 38.9171125, "type": "electric_scooter", "fusion_lon": 0.0, "is_reserved": 0, "bike_id": "73f0b61b963741423dd619ceb4198992", "fusion_lat": 0.0, "is_disabled": 0, "rental_uris": {"ios": "https://dc.lft.to/lastmile_qr_scan", "android": "https://dc.lft.to/lastmile_qr_scan"}}, {"name": "e0e8fbbe13fad48287dc395c47644a85", "lon": -76.9907895, "lat": 38.86235, "type": "electric_bike", "fusion_lon": 0.0, "is_reserved": 0, "bike_id": "e0e8fbbe13fad48287dc395c47644a85", "fusion_lat": 0.0, "is_disabled": 0, "rental_uris": {"ios": "https://dc.lft.to/lastmile_qr_scan", "android": "https://dc.lft.to/lastmile_qr_scan"}}, {"name": "942aec5fb8feb3a47b9b035f64881a0c", "lon": -77.0462095, "lat": 38.902541666666664, "type": "electric_scooter", "fusion_lon": 0.0, "is_reserved": 0, "bike_id": "942aec5fb8feb3a47b9b035f64881a0c", "fusion_lat": 0.0, "is_disabled": 0, "rental_uris": {"ios": "https://dc.lft.to/lastmile_qr_scan", "android": "https://dc.lft.to/lastmile_qr_scan"}}, {"name": "6b6aaf728afef630c1d06b089b65243b", "lon": -76.93737266666666, "lat": 38.8901725, "type": "electric_scooter", "fusion_lon": 0.0, "is_reserved": 0, "bike_id": "6b6aaf728afef630c1d06b089b65243b", "fusion_lat": 0.0, "is_disabled": 0, "rental_uris": {"ios": "https://dc.lft.to/lastmile_qr_scan", "android": "https://dc.lft.to/lastmile_qr_scan"}}, {"name": "e0be9b755a17be994174dfad0971af7d", "lon": -77.03304333333334, "lat": 38.95638133333333, "type": "electric_scooter", "fusion_lon": 0.0, "is_reserved": 0, "bike_id": "e0be9b755a17be994174dfad0971af7d", "fusion_lat": 0.0, "is_disabled": 0, "rental_uris": {"ios": "https://dc.lft.to/lastmile_qr_scan", "android": "https://dc.lft.to/lastmile_qr_scan"}}, {"name": "1defd5a3ac23a02222634bcf0152c413", "lon": -77.03302216666667, "lat": 38.9095925, "type": "electric_scooter", "fusion_lon": 0.0, "is_reserved": 0, "bike_id": "1defd5a3ac23a02222634bcf0152c413", "fusion_lat": 0.0, "is_disabled": 0, "rental_uris": {"ios": "https://dc.lft.to/lastmile_qr_scan", "android": "https://dc.lft.to/lastmile_qr_scan"}}, {"name": "ba13640cb2f34c96abf949f2e39be0ba", "lon": -77.02490916666666, "lat": 38.9375255, "type": "electric_scooter", "fusion_lon": 0.0, "is_reserved": 0, "bike_id": "ba13640cb2f34c96abf949f2e39be0ba", "fusion_lat": 0.0, "is_disabled": 0, "rental_uris": {"ios": "https://dc.lft.to/lastmile_qr_scan", "android": "https://dc.lft.to/lastmile_qr_scan"}}, {"name": "0c773a691f405e84e68bc0c406e3cc99", "lon": -77.02176216666666, "lat": 38.9155035, "type": "electric_scooter", "fusion_lon": 0.0, "is_reserved": 0, "bike_id": "0c773a691f405e84e68bc0c406e3cc99", "fusion_lat": 0.0, "is_disabled": 0, "rental_uris": {"ios": "https://dc.lft.to/lastmile_qr_scan", "android": "https://dc.lft.to/lastmile_qr_scan"}}, {"name": "039a3574132f19693a723768d186839a", "lon": -77.0521755, "lat": 38.9248425, "type": "electric_scooter", "fusion_lon": 0.0, "is_reserved": 0, "bike_id": "039a3574132f19693a723768d186839a", "fusion_lat": 0.0, "is_disabled": 0, "rental_uris": {"ios": "https://dc.lft.to/lastmile_qr_scan", "android": "https://dc.lft.to/lastmile_qr_scan"}}, {"name": "90034e57eee8d03d02c8981a61782110", "lon": -77.05742616666667, "lat": 38.9339035, "type": "electric_scooter", "fusion_lon": 0.0, "is_reserved": 0, "bike_id": "90034e57eee8d03d02c8981a61782110", "fusion_lat": 0.0, "is_disabled": 0, "rental_uris": {"ios": "https://dc.lft.to/lastmile_qr_scan", "android": "https://dc.lft.to/lastmile_qr_scan"}}, {"name": "cc44f816f464be6385ce6590169de41c", "lon": -77.06169333333334, "lat": 38.90521316666667, "type": "electric_bike", "fusion_lon": 0.0, "is_reserved": 0, "bike_id": "cc44f816f464be6385ce6590169de41c", "fusion_lat": 0.0, "is_disabled": 0, "rental_uris": {"ios": "https://dc.lft.to/lastmile_qr_scan", "android": "https://dc.lft.to/lastmile_qr_scan"}}, {"name": "7f108ac5fad7eaf3359cc9fcef92f49a", "lon": -76.94877916666667, "lat": 38.895482333333334, "type": "electric_scooter", "fusion_lon": 0.0, "is_reserved": 0, "bike_id": "7f108ac5fad7eaf3359cc9fcef92f49a", "fusion_lat": 0.0, "is_disabled": 0, "rental_uris": {"ios": "https://dc.lft.to/lastmile_qr_scan", "android": "https://dc.lft.to/lastmile_qr_scan"}}, {"name": "1c9ff95608f92c9c0894659a9797bb19", "lon": -76.99375616666667, "lat": 38.971837, "type": "electric_bike", "fusion_lon": 0.0, "is_reserved": 0, "bike_id": "1c9ff95608f92c9c0894659a9797bb19", "fusion_lat": 0.0, "is_disabled": 0, "rental_uris": {"ios": "https://dc.lft.to/lastmile_qr_scan", "android": "https://dc.lft.to/lastmile_qr_scan"}}, {"name": "011f0606d0f9dc230b5742ef2085f8bd", "lon": -76.99639083333334, "lat": 38.900277833333334, "type": "electric_scooter", "fusion_lon": 0.0, "is_reserved": 0, "bike_id": "011f0606d0f9dc230b5742ef2085f8bd", "fusion_lat": 0.0, "is_disabled": 0, "rental_uris": {"ios": "https://dc.lft.to/lastmile_qr_scan", "android": "https://dc.lft.to/lastmile_qr_scan"}}, {"name": "5690046f213a6ad334d959574e06cd47", "lon": -77.07336683333334, "lat": 38.926091166666666, "type": "electric_scooter", "fusion_lon": 0.0, "is_reserved": 0, "bike_id": "5690046f213a6ad334d959574e06cd47", "fusion_lat": 0.0, "is_disabled": 0, "rental_uris": {"ios": "https://dc.lft.to/lastmile_qr_scan", "android": "https://dc.lft.to/lastmile_qr_scan"}}, {"name": "cd2872c1abe2f2d02bb29d9d2b2e37fe", "lon": -77.03266133333334, "lat": 38.9389135, "type": "electric_scooter", "fusion_lon": 0.0, "is_reserved": 0, "bike_id": "cd2872c1abe2f2d02bb29d9d2b2e37fe", "fusion_lat": 0.0, "is_disabled": 0, "rental_uris": {"ios": "https://dc.lft.to/lastmile_qr_scan", "android": "https://dc.lft.to/lastmile_qr_scan"}}, {"name": "a4f8743f999aee0e2f11ff491bd4b888", "lon": -77.02417566666666, "lat": 38.89633833333333, "type": "electric_scooter", "fusion_lon": 0.0, "is_reserved": 0, "bike_id": "a4f8743f999aee0e2f11ff491bd4b888", "fusion_lat": 0.0, "is_disabled": 0, "rental_uris": {"ios": "https://dc.lft.to/lastmile_qr_scan", "android": "https://dc.lft.to/lastmile_qr_scan"}}, {"name": "bd1e473531c556350d82e10fd8eea0ee", "lon": -77.02326683333334, "lat": 38.93598683333333, "type": "electric_scooter", "fusion_lon": 0.0, "is_reserved": 0, "bike_id": "bd1e473531c556350d82e10fd8eea0ee", "fusion_lat": 0.0, "is_disabled": 0, "rental_uris": {"ios": "https://dc.lft.to/lastmile_qr_scan", "android": "https://dc.lft.to/lastmile_qr_scan"}}, {"name": "32d066579927672c5f4dc515b03ac0bb", "lon": -77.02408716666666, "lat": 38.892543333333336, "type": "electric_scooter", "fusion_lon": 0.0, "is_reserved": 0, "bike_id": "32d066579927672c5f4dc515b03ac0bb", "fusion_lat": 0.0, "is_disabled": 0, "rental_uris": {"ios": "https://dc.lft.to/lastmile_qr_scan", "android": "https://dc.lft.to/lastmile_qr_scan"}}, {"name": "3758fd262544e6bff4c58717c6ed17dc", "lon": -77.02916133333333, "lat": 38.89844983333333, "type": "electric_scooter", "fusion_lon": 0.0, "is_reserved": 0, "bike_id": "3758fd262544e6bff4c58717c6ed17dc", "fusion_lat": 0.0, "is_disabled": 0, "rental_uris": {"ios": "https://dc.lft.to/lastmile_qr_scan", "android": "https://dc.lft.to/lastmile_qr_scan"}}, {"name": "8d9c381c1a98fb002ff74aa1b0fb6a65", "lon": -77.013498, "lat": 38.8991645, "type": "electric_scooter", "fusion_lon": 0.0, "is_reserved": 0, "bike_id": "8d9c381c1a98fb002ff74aa1b0fb6a65", "fusion_lat": 0.0, "is_disabled": 0, "rental_uris": {"ios": "https://dc.lft.to/lastmile_qr_scan", "android": "https://dc.lft.to/lastmile_qr_scan"}}, {"name": "365e106de1741a374d551ba2aa60085c", "lon": -77.04560283333333, "lat": 38.917718666666666, "type": "electric_scooter", "fusion_lon": 0.0, "is_reserved": 0, "bike_id": "365e106de1741a374d551ba2aa60085c", "fusion_lat": 0.0, "is_disabled": 0, "rental_uris": {"ios": "https://dc.lft.to/lastmile_qr_scan", "android": "https://dc.lft.to/lastmile_qr_scan"}}, {"name": "0f7eb418cfc2e7caa360ea84c66b3507", "lon": -77.0628255, "lat": 38.9053915, "type": "electric_bike", "fusion_lon": 0.0, "is_reserved": 0, "bike_id": "0f7eb418cfc2e7caa360ea84c66b3507", "fusion_lat": 0.0, "is_disabled": 0, "rental_uris": {"ios": "https://dc.lft.to/lastmile_qr_scan", "android": "https://dc.lft.to/lastmile_qr_scan"}}, {"name": "3221c35748e23adfaf4da32dc921c3ce", "lon": -77.02468883333333, "lat": 38.932989166666665, "type": "electric_scooter", "fusion_lon": 0.0, "is_reserved": 0, "bike_id": "3221c35748e23adfaf4da32dc921c3ce", "fusion_lat": 0.0, "is_disabled": 0, "rental_uris": {"ios": "https://dc.lft.to/lastmile_qr_scan", "android": "https://dc.lft.to/lastmile_qr_scan"}}, {"name": "a5e2fc1bbb5422320186269707c3799b", "lon": -77.04154633333333, "lat": 38.91952033333333, "type": "electric_scooter", "fusion_lon": 0.0, "is_reserved": 0, "bike_id": "a5e2fc1bbb5422320186269707c3799b", "fusion_lat": 0.0, "is_disabled": 0, "rental_uris": {"ios": "https://dc.lft.to/lastmile_qr_scan", "android": "https://dc.lft.to/lastmile_qr_scan"}}, {"name": "ae8d0bb7c5f24c5dc424aa3402dfe655", "lon": -77.04111883333333, "lat": 38.92796283333333, "type": "electric_scooter", "fusion_lon": 0.0, "is_reserved": 0, "bike_id": "ae8d0bb7c5f24c5dc424aa3402dfe655", "fusion_lat": 0.0, "is_disabled": 0, "rental_uris": {"ios": "https://dc.lft.to/lastmile_qr_scan", "android": "https://dc.lft.to/lastmile_qr_scan"}}, {"name": "bb3ed091782253f03f9378b708d703aa", "lon": -77.00916316666667, "lat": 38.89561916666667, "type": "electric_scooter", "fusion_lon": 0.0, "is_reserved": 0, "bike_id": "bb3ed091782253f03f9378b708d703aa", "fusion_lat": 0.0, "is_disabled": 0, "rental_uris": {"ios": "https://dc.lft.to/lastmile_qr_scan", "android": "https://dc.lft.to/lastmile_qr_scan"}}, {"name": "d2f73a43ab09c5c553427339c51e1770", "lon": -77.0336025, "lat": 38.907026333333334, "type": "electric_scooter", "fusion_lon": 0.0, "is_reserved": 0, "bike_id": "d2f73a43ab09c5c553427339c51e1770", "fusion_lat": 0.0, "is_disabled": 0, "rental_uris": {"ios": "https://dc.lft.to/lastmile_qr_scan", "android": "https://dc.lft.to/lastmile_qr_scan"}}, {"name": "3825a551c5c49eb95786a1bf49077440", "lon": -77.021309, "lat": 38.92414333333333, "type": "electric_scooter", "fusion_lon": 0.0, "is_reserved": 0, "bike_id": "3825a551c5c49eb95786a1bf49077440", "fusion_lat": 0.0, "is_disabled": 0, "rental_uris": {"ios": "https://dc.lft.to/lastmile_qr_scan", "android": "https://dc.lft.to/lastmile_qr_scan"}}, {"name": "5ec7c879f45a32cb1234a1f08d4b399b", "lon": -77.044771, "lat": 38.90865016666667, "type": "electric_scooter", "fusion_lon": 0.0, "is_reserved": 0, "bike_id": "5ec7c879f45a32cb1234a1f08d4b399b", "fusion_lat": 0.0, "is_disabled": 0, "rental_uris": {"ios": "https://dc.lft.to/lastmile_qr_scan", "android": "https://dc.lft.to/lastmile_qr_scan"}}, {"name": "a6cd51c0d3ddebc960acc05a4bccb031", "lon": -77.0366115, "lat": 38.912474333333336, "type": "electric_scooter", "fusion_lon": 0.0, "is_reserved": 0, "bike_id": "a6cd51c0d3ddebc960acc05a4bccb031", "fusion_lat": 0.0, "is_disabled": 0, "rental_uris": {"ios": "https://dc.lft.to/lastmile_qr_scan", "android": "https://dc.lft.to/lastmile_qr_scan"}}, {"name": "4ee097135fea113692562ce5938d060f", "lon": -77.02345366666667, "lat": 38.908553, "type": "electric_scooter", "fusion_lon": 0.0, "is_reserved": 0, "bike_id": "4ee097135fea113692562ce5938d060f", "fusion_lat": 0.0, "is_disabled": 0, "rental_uris": {"ios": "https://dc.lft.to/lastmile_qr_scan", "android": "https://dc.lft.to/lastmile_qr_scan"}}, {"name": "eb73706257a6bb0de672dc798bf0ae69", "lon": -77.02095333333334, "lat": 38.927144166666665, "type": "electric_scooter", "fusion_lon": 0.0, "is_reserved": 0, "bike_id": "eb73706257a6bb0de672dc798bf0ae69", "fusion_lat": 0.0, "is_disabled": 0, "rental_uris": {"ios": "https://dc.lft.to/lastmile_qr_scan", "android": "https://dc.lft.to/lastmile_qr_scan"}}, {"name": "fc8c83f7222bbd869be37c02f3da1d80", "lon": -77.05241233333334, "lat": 38.92355283333333, "type": "electric_scooter", "fusion_lon": 0.0, "is_reserved": 0, "bike_id": "fc8c83f7222bbd869be37c02f3da1d80", "fusion_lat": 0.0, "is_disabled": 0, "rental_uris": {"ios": "https://dc.lft.to/lastmile_qr_scan", "android": "https://dc.lft.to/lastmile_qr_scan"}}, {"name": "40d0560c666ed4989c911156442b4c94", "lon": -76.98349483333334, "lat": 38.915475666666666, "type": "electric_scooter", "fusion_lon": 0.0, "is_reserved": 0, "bike_id": "40d0560c666ed4989c911156442b4c94", "fusion_lat": 0.0, "is_disabled": 0, "rental_uris": {"ios": "https://dc.lft.to/lastmile_qr_scan", "android": "https://dc.lft.to/lastmile_qr_scan"}}, {"name": "82763d1cd47d31f8b9321fe6a03c306d", "lon": -77.0280145, "lat": 38.95394666666667, "type": "electric_scooter", "fusion_lon": 0.0, "is_reserved": 0, "bike_id": "82763d1cd47d31f8b9321fe6a03c306d", "fusion_lat": 0.0, "is_disabled": 0, "rental_uris": {"ios": "https://dc.lft.to/lastmile_qr_scan", "android": "https://dc.lft.to/lastmile_qr_scan"}}, {"name": "32c4a20331c7a6aef6403e511a6c4365", "lon": -77.03546316666667, "lat": 38.927088833333336, "type": "electric_scooter", "fusion_lon": 0.0, "is_reserved": 0, "bike_id": "32c4a20331c7a6aef6403e511a6c4365", "fusion_lat": 0.0, "is_disabled": 0, "rental_uris": {"ios": "https://dc.lft.to/lastmile_qr_scan", "android": "https://dc.lft.to/lastmile_qr_scan"}}, {"name": "c161e6d20eb8952f0766dccca20ecf68", "lon": -77.04244766666666, "lat": 38.9222745, "type": "electric_scooter", "fusion_lon": 0.0, "is_reserved": 0, "bike_id": "c161e6d20eb8952f0766dccca20ecf68", "fusion_lat": 0.0, "is_disabled": 0, "rental_uris": {"ios": "https://dc.lft.to/lastmile_qr_scan", "android": "https://dc.lft.to/lastmile_qr_scan"}}, {"name": "8d8840064e965e6f8ec69e2d0efae876", "lon": -77.04351333333334, "lat": 38.904387166666666, "type": "electric_scooter", "fusion_lon": 0.0, "is_reserved": 0, "bike_id": "8d8840064e965e6f8ec69e2d0efae876", "fusion_lat": 0.0, "is_disabled": 0, "rental_uris": {"ios": "https://dc.lft.to/lastmile_qr_scan", "android": "https://dc.lft.to/lastmile_qr_scan"}}, {"name": "3e1d6fced2d6541fbb0f35507d505a02", "lon": -77.00775916666667, "lat": 38.92671683333333, "type": "electric_scooter", "fusion_lon": 0.0, "is_reserved": 0, "bike_id": "3e1d6fced2d6541fbb0f35507d505a02", "fusion_lat": 0.0, "is_disabled": 0, "rental_uris": {"ios": "https://dc.lft.to/lastmile_qr_scan", "android": "https://dc.lft.to/lastmile_qr_scan"}}, {"name": "d0404e10ce3b2900be3bd6eda90ce5a1", "lon": -77.01995416666666, "lat": 38.930541833333336, "type": "electric_scooter", "fusion_lon": 0.0, "is_reserved": 0, "bike_id": "d0404e10ce3b2900be3bd6eda90ce5a1", "fusion_lat": 0.0, "is_disabled": 0, "rental_uris": {"ios": "https://dc.lft.to/lastmile_qr_scan", "android": "https://dc.lft.to/lastmile_qr_scan"}}, {"name": "aebb38586af07b5a2c23e53e467f3aaa", "lon": -77.0533385, "lat": 38.92800183333333, "type": "electric_scooter", "fusion_lon": 0.0, "is_reserved": 0, "bike_id": "aebb38586af07b5a2c23e53e467f3aaa", "fusion_lat": 0.0, "is_disabled": 0, "rental_uris": {"ios": "https://dc.lft.to/lastmile_qr_scan", "android": "https://dc.lft.to/lastmile_qr_scan"}}, {"name": "a9f30c0d5f6b1fedc33497648c86af7a", "lon": -77.03852666666667, "lat": 38.908756833333335, "type": "electric_scooter", "fusion_lon": 0.0, "is_reserved": 0, "bike_id": "a9f30c0d5f6b1fedc33497648c86af7a", "fusion_lat": 0.0, "is_disabled": 0, "rental_uris": {"ios": "https://dc.lft.to/lastmile_qr_scan", "android": "https://dc.lft.to/lastmile_qr_scan"}}, {"name": "c63dc4a307133f5486aeb7f55f5ce8e0", "lon": -76.9724225, "lat": 38.85454433333334, "type": "electric_bike", "fusion_lon": 0.0, "is_reserved": 0, "bike_id": "c63dc4a307133f5486aeb7f55f5ce8e0", "fusion_lat": 0.0, "is_disabled": 0, "rental_uris": {"ios": "https://dc.lft.to/lastmile_qr_scan", "android": "https://dc.lft.to/lastmile_qr_scan"}}, {"name": "aeb1ca5bdfc7a088cbf8812507b7f2b6", "lon": -77.01047333333334, "lat": 38.89792816666667, "type": "electric_bike", "fusion_lon": 0.0, "is_reserved": 0, "bike_id": "aeb1ca5bdfc7a088cbf8812507b7f2b6", "fusion_lat": 0.0, "is_disabled": 0, "rental_uris": {"ios": "https://dc.lft.to/lastmile_qr_scan", "android": "https://dc.lft.to/lastmile_qr_scan"}}, {"name": "0000e74d31ef93f6fa486de85d83ac47", "lon": -77.0321195, "lat": 38.903268833333335, "type": "electric_scooter", "fusion_lon": 0.0, "is_reserved": 0, "bike_id": "0000e74d31ef93f6fa486de85d83ac47", "fusion_lat": 0.0, "is_disabled": 0, "rental_uris": {"ios": "https://dc.lft.to/lastmile_qr_scan", "android": "https://dc.lft.to/lastmile_qr_scan"}}, {"name": "9168e91d699bb9c92a9ca9ea31dcce8a", "lon": -77.02685683333333, "lat": 38.8960645, "type": "electric_scooter", "fusion_lon": 0.0, "is_reserved": 0, "bike_id": "9168e91d699bb9c92a9ca9ea31dcce8a", "fusion_lat": 0.0, "is_disabled": 0, "rental_uris": {"ios": "https://dc.lft.to/lastmile_qr_scan", "android": "https://dc.lft.to/lastmile_qr_scan"}}, {"name": "73079f8f1f44bb97a650a96cc90d4298", "lon": -77.0223065, "lat": 38.892179, "type": "electric_scooter", "fusion_lon": 0.0, "is_reserved": 0, "bike_id": "73079f8f1f44bb97a650a96cc90d4298", "fusion_lat": 0.0, "is_disabled": 0, "rental_uris": {"ios": "https://dc.lft.to/lastmile_qr_scan", "android": "https://dc.lft.to/lastmile_qr_scan"}}, {"name": "03bca16e15e2b2400bad7c8d0dbb8643", "lon": -77.05127116666667, "lat": 38.900753333333334, "type": "electric_scooter", "fusion_lon": 0.0, "is_reserved": 0, "bike_id": "03bca16e15e2b2400bad7c8d0dbb8643", "fusion_lat": 0.0, "is_disabled": 0, "rental_uris": {"ios": "https://dc.lft.to/lastmile_qr_scan", "android": "https://dc.lft.to/lastmile_qr_scan"}}, {"name": "99b62f8a1816c083a41a4251185d8a4b", "lon": -77.02594316666666, "lat": 38.883706833333335, "type": "electric_scooter", "fusion_lon": 0.0, "is_reserved": 0, "bike_id": "99b62f8a1816c083a41a4251185d8a4b", "fusion_lat": 0.0, "is_disabled": 0, "rental_uris": {"ios": "https://dc.lft.to/lastmile_qr_scan", "android": "https://dc.lft.to/lastmile_qr_scan"}}, {"name": "7effc789faec2221f726935daa21587a", "lon": -77.01033133333334, "lat": 38.92025916666667, "type": "electric_scooter", "fusion_lon": 0.0, "is_reserved": 0, "bike_id": "7effc789faec2221f726935daa21587a", "fusion_lat": 0.0, "is_disabled": 0, "rental_uris": {"ios": "https://dc.lft.to/lastmile_qr_scan", "android": "https://dc.lft.to/lastmile_qr_scan"}}, {"name": "5308b64a65f55b40288d74a055c8bd16", "lon": -77.02709066666667, "lat": 38.90667966666667, "type": "electric_scooter", "fusion_lon": 0.0, "is_reserved": 0, "bike_id": "5308b64a65f55b40288d74a055c8bd16", "fusion_lat": 0.0, "is_disabled": 0, "rental_uris": {"ios": "https://dc.lft.to/lastmile_qr_scan", "android": "https://dc.lft.to/lastmile_qr_scan"}}, {"name": "67ac4ffa459a3ad4c8a34d578a1ccca3", "lon": -76.99641333333334, "lat": 38.900369833333336, "type": "electric_scooter", "fusion_lon": 0.0, "is_reserved": 0, "bike_id": "67ac4ffa459a3ad4c8a34d578a1ccca3", "fusion_lat": 0.0, "is_disabled": 0, "rental_uris": {"ios": "https://dc.lft.to/lastmile_qr_scan", "android": "https://dc.lft.to/lastmile_qr_scan"}}, {"name": "d1daaf886d1287cbb7fb77aa58cdc6d1", "lon": -77.00331516666667, "lat": 38.89212833333333, "type": "electric_scooter", "fusion_lon": 0.0, "is_reserved": 0, "bike_id": "d1daaf886d1287cbb7fb77aa58cdc6d1", "fusion_lat": 0.0, "is_disabled": 0, "rental_uris": {"ios": "https://dc.lft.to/lastmile_qr_scan", "android": "https://dc.lft.to/lastmile_qr_scan"}}, {"name": "7061f0c1fff9f701f9d949476e30df4f", "lon": -77.0225505, "lat": 38.9273655, "type": "electric_scooter", "fusion_lon": 0.0, "is_reserved": 0, "bike_id": "7061f0c1fff9f701f9d949476e30df4f", "fusion_lat": 0.0, "is_disabled": 0, "rental_uris": {"ios": "https://dc.lft.to/lastmile_qr_scan", "android": "https://dc.lft.to/lastmile_qr_scan"}}, {"name": "f6a0794eebb6333027cfed998c83abb4", "lon": -77.045069, "lat": 38.90953983333333, "type": "electric_scooter", "fusion_lon": 0.0, "is_reserved": 0, "bike_id": "f6a0794eebb6333027cfed998c83abb4", "fusion_lat": 0.0, "is_disabled": 0, "rental_uris": {"ios": "https://dc.lft.to/lastmile_qr_scan", "android": "https://dc.lft.to/lastmile_qr_scan"}}, {"name": "5c0688d5dfd14cb104972af1f0f8e947", "lon": -77.02646133333333, "lat": 38.892255166666665, "type": "electric_scooter", "fusion_lon": 0.0, "is_reserved": 0, "bike_id": "5c0688d5dfd14cb104972af1f0f8e947", "fusion_lat": 0.0, "is_disabled": 0, "rental_uris": {"ios": "https://dc.lft.to/lastmile_qr_scan", "android": "https://dc.lft.to/lastmile_qr_scan"}}, {"name": "0800371b3c6a2bf73f6b4fd2c0bfa84a", "lon": -77.034745, "lat": 38.91710116666667, "type": "electric_scooter", "fusion_lon": 0.0, "is_reserved": 0, "bike_id": "0800371b3c6a2bf73f6b4fd2c0bfa84a", "fusion_lat": 0.0, "is_disabled": 0, "rental_uris": {"ios": "https://dc.lft.to/lastmile_qr_scan", "android": "https://dc.lft.to/lastmile_qr_scan"}}, {"name": "d093234f859516aa59df1c625cee0de5", "lon": -77.02001383333334, "lat": 38.92110783333333, "type": "electric_scooter", "fusion_lon": 0.0, "is_reserved": 0, "bike_id": "d093234f859516aa59df1c625cee0de5", "fusion_lat": 0.0, "is_disabled": 0, "rental_uris": {"ios": "https://dc.lft.to/lastmile_qr_scan", "android": "https://dc.lft.to/lastmile_qr_scan"}}, {"name": "d3e971b0d53f67b1487b5f8a7d4e6a24", "lon": -77.03848783333333, "lat": 38.90289716666667, "type": "electric_scooter", "fusion_lon": 0.0, "is_reserved": 0, "bike_id": "d3e971b0d53f67b1487b5f8a7d4e6a24", "fusion_lat": 0.0, "is_disabled": 0, "rental_uris": {"ios": "https://dc.lft.to/lastmile_qr_scan", "android": "https://dc.lft.to/lastmile_qr_scan"}}, {"name": "a16d598a8c45a64696c89fd746fb161f", "lon": -77.062764, "lat": 38.90553416666667, "type": "electric_scooter", "fusion_lon": 0.0, "is_reserved": 0, "bike_id": "a16d598a8c45a64696c89fd746fb161f", "fusion_lat": 0.0, "is_disabled": 0, "rental_uris": {"ios": "https://dc.lft.to/lastmile_qr_scan", "android": "https://dc.lft.to/lastmile_qr_scan"}}, {"name": "4ec30ce29255757e935af4642d972681", "lon": -77.02169033333334, "lat": 38.905602, "type": "electric_scooter", "fusion_lon": 0.0, "is_reserved": 0, "bike_id": "4ec30ce29255757e935af4642d972681", "fusion_lat": 0.0, "is_disabled": 0, "rental_uris": {"ios": "https://dc.lft.to/lastmile_qr_scan", "android": "https://dc.lft.to/lastmile_qr_scan"}}, {"name": "8247b77f6e1613410f9757a8865a51df", "lon": -77.00266, "lat": 38.88754133333333, "type": "electric_scooter", "fusion_lon": 0.0, "is_reserved": 0, "bike_id": "8247b77f6e1613410f9757a8865a51df", "fusion_lat": 0.0, "is_disabled": 0, "rental_uris": {"ios": "https://dc.lft.to/lastmile_qr_scan", "android": "https://dc.lft.to/lastmile_qr_scan"}}, {"name": "1513e4f0a03b9bf15c2aba0dd083c7f6", "lon": -76.99548566666667, "lat": 38.8625565, "type": "electric_scooter", "fusion_lon": 0.0, "is_reserved": 0, "bike_id": "1513e4f0a03b9bf15c2aba0dd083c7f6", "fusion_lat": 0.0, "is_disabled": 0, "rental_uris": {"ios": "https://dc.lft.to/lastmile_qr_scan", "android": "https://dc.lft.to/lastmile_qr_scan"}}, {"name": "db131ece656a1dffbcaea7cbd2edd4cd", "lon": -77.07919, "lat": 38.80229216666667, "type": "electric_bike", "fusion_lon": 0.0, "is_reserved": 0, "bike_id": "db131ece656a1dffbcaea7cbd2edd4cd", "fusion_lat": 0.0, "is_disabled": 0, "rental_uris": {"ios": "https://dc.lft.to/lastmile_qr_scan", "android": "https://dc.lft.to/lastmile_qr_scan"}}, {"name": "09300a1b1dfe778a7e538663483d5073", "lon": -77.051191, "lat": 38.92343133333333, "type": "electric_scooter", "fusion_lon": 0.0, "is_reserved": 0, "bike_id": "09300a1b1dfe778a7e538663483d5073", "fusion_lat": 0.0, "is_disabled": 0, "rental_uris": {"ios": "https://dc.lft.to/lastmile_qr_scan", "android": "https://dc.lft.to/lastmile_qr_scan"}}, {"name": "0299334f49776f335488f8e7445554d0", "lon": -77.04003516666667, "lat": 38.925746833333335, "type": "electric_scooter", "fusion_lon": 0.0, "is_reserved": 0, "bike_id": "0299334f49776f335488f8e7445554d0", "fusion_lat": 0.0, "is_disabled": 0, "rental_uris": {"ios": "https://dc.lft.to/lastmile_qr_scan", "android": "https://dc.lft.to/lastmile_qr_scan"}}, {"name": "e5c94c56c67e37b8d2ba848ce8664153", "lon": -77.024397, "lat": 38.8996105, "type": "electric_scooter", "fusion_lon": 0.0, "is_reserved": 0, "bike_id": "e5c94c56c67e37b8d2ba848ce8664153", "fusion_lat": 0.0, "is_disabled": 0, "rental_uris": {"ios": "https://dc.lft.to/lastmile_qr_scan", "android": "https://dc.lft.to/lastmile_qr_scan"}}, {"name": "f6ea7e3b3d2946f7039c037840fc1480", "lon": -77.16088133333334, "lat": 38.88683616666667, "type": "electric_bike", "fusion_lon": 0.0, "is_reserved": 0, "bike_id": "f6ea7e3b3d2946f7039c037840fc1480", "fusion_lat": 0.0, "is_disabled": 0, "rental_uris": {"ios": "https://dc.lft.to/lastmile_qr_scan", "android": "https://dc.lft.to/lastmile_qr_scan"}}, {"name": "70f7b47db6d4212bfb81bb19d01bece3", "lon": -76.988822, "lat": 38.86659183333333, "type": "electric_scooter", "fusion_lon": 0.0, "is_reserved": 0, "bike_id": "70f7b47db6d4212bfb81bb19d01bece3", "fusion_lat": 0.0, "is_disabled": 0, "rental_uris": {"ios": "https://dc.lft.to/lastmile_qr_scan", "android": "https://dc.lft.to/lastmile_qr_scan"}}, {"name": "f50aec80ac03259d4f6498a1664fa7cc", "lon": -77.00205483333333, "lat": 38.89542566666667, "type": "electric_scooter", "fusion_lon": 0.0, "is_reserved": 0, "bike_id": "f50aec80ac03259d4f6498a1664fa7cc", "fusion_lat": 0.0, "is_disabled": 0, "rental_uris": {"ios": "https://dc.lft.to/lastmile_qr_scan", "android": "https://dc.lft.to/lastmile_qr_scan"}}, {"name": "9fab2f3c8e9551e308b6c2e8e6b40dbd", "lon": -76.9733175, "lat": 38.90411666666667, "type": "electric_scooter", "fusion_lon": 0.0, "is_reserved": 0, "bike_id": "9fab2f3c8e9551e308b6c2e8e6b40dbd", "fusion_lat": 0.0, "is_disabled": 0, "rental_uris": {"ios": "https://dc.lft.to/lastmile_qr_scan", "android": "https://dc.lft.to/lastmile_qr_scan"}}, {"name": "8767d14ef5b001847051b611f412f446", "lon": -77.03324466666666, "lat": 38.921641, "type": "electric_scooter", "fusion_lon": 0.0, "is_reserved": 0, "bike_id": "8767d14ef5b001847051b611f412f446", "fusion_lat": 0.0, "is_disabled": 0, "rental_uris": {"ios": "https://dc.lft.to/lastmile_qr_scan", "android": "https://dc.lft.to/lastmile_qr_scan"}}, {"name": "f1be4f5c2b9966777fbf0f49b56d1bc8", "lon": -76.9869935, "lat": 38.86250183333333, "type": "electric_scooter", "fusion_lon": 0.0, "is_reserved": 0, "bike_id": "f1be4f5c2b9966777fbf0f49b56d1bc8", "fusion_lat": 0.0, "is_disabled": 0, "rental_uris": {"ios": "https://dc.lft.to/lastmile_qr_scan", "android": "https://dc.lft.to/lastmile_qr_scan"}}, {"name": "6019d7fb7774e3103df21a891a14771a", "lon": -77.02712616666666, "lat": 38.9167415, "type": "electric_scooter", "fusion_lon": 0.0, "is_reserved": 0, "bike_id": "6019d7fb7774e3103df21a891a14771a", "fusion_lat": 0.0, "is_disabled": 0, "rental_uris": {"ios": "https://dc.lft.to/lastmile_qr_scan", "android": "https://dc.lft.to/lastmile_qr_scan"}}, {"name": "bc5a0d1de633384097b884f9a49de8a9", "lon": -76.993623, "lat": 38.92841033333333, "type": "electric_scooter", "fusion_lon": 0.0, "is_reserved": 0, "bike_id": "bc5a0d1de633384097b884f9a49de8a9", "fusion_lat": 0.0, "is_disabled": 0, "rental_uris": {"ios": "https://dc.lft.to/lastmile_qr_scan", "android": "https://dc.lft.to/lastmile_qr_scan"}}, {"name": "7b172373ded9b3ca0f1bf09a151d3f34", "lon": -77.0319575, "lat": 38.90784016666667, "type": "electric_scooter", "fusion_lon": 0.0, "is_reserved": 0, "bike_id": "7b172373ded9b3ca0f1bf09a151d3f34", "fusion_lat": 0.0, "is_disabled": 0, "rental_uris": {"ios": "https://dc.lft.to/lastmile_qr_scan", "android": "https://dc.lft.to/lastmile_qr_scan"}},