{"data": {"bikes": [{"rental_uris": {"ios": "https://dc.lft.to/lastmile_qr_scan", "android": "https://dc.lft.to/lastmile_qr_scan"}, "lon": -77.03821816666667, "type": "electric_scooter", "fusion_lat": 0.0, "lat": 38.909650666666664, "name": "ba62f34b9ca377e05199228ea800ae76", "fusion_lon": 0.0, "bike_id": "ba62f34b9ca377e05199228ea800ae76", "is_disabled": 0, "is_reserved": 0}, {"rental_uris": {"ios": "https://dc.lft.to/lastmile_qr_scan", "android": "https://dc.lft.to/lastmile_qr_scan"}, "lon": -77.03169933333334, "type": "electric_scooter", "fusion_lat": 0.0, "lat": 38.883567, "name": "f568ad1608984fa0edf3cff97964913d", "fusion_lon": 0.0, "bike_id": "f568ad1608984fa0edf3cff97964913d", "is_disabled": 0, "is_reserved": 0}, {"rental_uris": {"ios": "https://dc.lft.to/lastmile_qr_scan", "android": "https://dc.lft.to/lastmile_qr_scan"}, "lon": -77.01414283333334, "type": "electric_scooter", "fusion_lat": 0.0, "lat": 38.920199833333335, "name": "14e7850a296135cd88817cf18dea3db5", "fusion_lon": 0.0, "bike_id": "14e7850a296135cd88817cf18dea3db5", "is_disabled": 0, "is_reserved": 0}, {"rental_uris": {"ios": "https://dc.lft.to/lastmile_qr_scan", "android": "https://dc.lft.to/lastmile_qr_scan"}, "lon": -77.02969033333333, "type": "electric_scooter", "fusion_lat": 0.0, "lat": 38.90059883333333, "name": "5145bdec0e73a7335eb666a6deb48ec6", "fusion_lon": 0.0, "bike_id": "5145bdec0e73a7335eb666a6deb48ec6", "is_disabled": 0, "is_reserved": 0}, {"rental_uris": {"ios": "https://dc.lft.to/lastmile_qr_scan", "android": "https://dc.lft.to/lastmile_qr_scan"}, "lon": -77.03281883333334, "type": "electric_scooter", "fusion_lat": 0.0, "lat": 38.92872583333333, "name": "8d81c76e18ff7f74b560b5a7e2180d4f", "fusion_lon": 0.0, "bike_id": "8d81c76e18ff7f74b560b5a7e2180d4f", "is_disabled": 0, "is_reserved": 0}, {"rental_uris": {"ios": "https://dc.lft.to/lastmile_qr_scan", "android": "https://dc.lft.to/lastmile_qr_scan"}, "lon": -76.938832, "type": "electric_scooter", "fusion_lat": 0.0, "lat": 38.90070266666667, "name": "53e2f239bd58de86244831929de9a4b5", "fusion_lon": 0.0, "bike_id": "53e2f239bd58de86244831929de9a4b5", "is_disabled": 0, "is_reserved": 0}, {"rental_uris": {"ios": "https://dc.lft.to/lastmile_qr_scan", "android": "https://dc.lft.to/lastmile_qr_scan"}, "lon": -76.97669366666666, "type": "electric_bike", "fusion_lat": 0.0, "lat": 38.96620633333333, "name": "56550443d52a8a08265d9876eeebe741", "fusion_lon": 0.0, "bike_id": "56550443d52a8a08265d9876eeebe741", "is_disabled": 0, "is_reserved": 0}, {"rental_uris": {"ios": "https://dc.lft.to/lastmile_qr_scan", "android": "https://dc.lft.to/lastmile_qr_scan"}, "lon": -77.03262666666667, "type": "electric_scooter", "fusion_lat": 0.0, "lat": 38.93517583333333, "name": "e0751c4dcf03d1ce36e07f59caf88b77", "fusion_lon": 0.0, "bike_id": "e0751c4dcf03d1ce36e07f59caf88b77", "is_disabled": 0, "is_reserved": 0}, {"rental_uris": {"ios": "https://dc.lft.to/lastmile_qr_scan", "android": "https://dc.lft.to/lastmile_qr_scan"}, "lon": -77.0396295, "type": "electric_scooter", "fusion_lat": 0.0, "lat": 38.919753, "name": "acdec0e2d739c98bea40edb29506a761", "fusion_lon": 0.0, "bike_id": "acdec0e2d739c98bea40edb29506a761", "is_disabled": 0, "is_reserved": 0}, {"rental_uris": {"ios": "https://dc.lft.to/lastmile_qr_scan", "android": "https://dc.lft.to/lastmile_qr_scan"}, "lon": -77.03229116666667, "type": "electric_scooter", "fusion_lat": 0.0, "lat": 38.90037133333333, "name": "210b1cc52176b0fd0e3cb4d00b75047b", "fusion_lon": 0.0, "bike_id": "210b1cc52176b0fd0e3cb4d00b75047b", "is_disabled": 0, "is_reserved": 0}, {"rental_uris": {"ios": "https://dc.lft.to/lastmile_qr_scan", "android": "https://dc.lft.to/lastmile_qr_scan"}, "lon": -77.02136866666666, "type": "electric_scooter", "fusion_lat": 0.0, "lat": 38.89608333333334, "name": "3736901859a8ef7e8e17aae687243c43", "fusion_lon": 0.0, "bike_id": "3736901859a8ef7e8e17aae687243c43", "is_disabled": 0, "is_reserved": 0}, {"rental_uris": {"ios": "https://dc.lft.to/lastmile_qr_scan", "android": "https://dc.lft.to/lastmile_qr_scan"}, "lon": -76.96527333333333, "type": "electric_scooter", "fusion_lat": 0.0, "lat": 38.876212333333335, "name": "91a32286977be7227e3dcecc46d03eec", "fusion_lon": 0.0, "bike_id": "91a32286977be7227e3dcecc46d03eec", "is_disabled": 0, "is_reserved": 0}, {"rental_uris": {"ios": "https://dc.lft.to/lastmile_qr_scan", "android": "https://dc.lft.to/lastmile_qr_scan"}, "lon": -77.03330166666667, "type": "electric_scooter", "fusion_lat": 0.0, "lat": 38.919855166666665, "name": "6f4ea4a70a71dbfd1b868f807fce6a89", "fusion_lon": 0.0, "bike_id": "6f4ea4a70a71dbfd1b868f807fce6a89", "is_disabled": 0, "is_reserved": 0}, {"rental_uris": {"ios": "https://dc.lft.to/lastmile_qr_scan", "android": "https://dc.lft.to/lastmile_qr_scan"}, "lon": -77.0321795, "type": "electric_scooter", "fusion_lat": 0.0, "lat": 38.91698383333333, "name": "07b8fa3f9422762daea2da755914b560", "fusion_lon": 0.0, "bike_id": "07b8fa3f9422762daea2da755914b560", "is_disabled": 0, "is_reserved": 0}, {"rental_uris": {"ios": "https://dc.lft.to/lastmile_qr_scan", "android": "https://dc.lft.to/lastmile_qr_scan"}, "lon": -77.03442283333334, "type": "electric_scooter", "fusion_lat": 0.0, "lat": 38.918188666666666, "name": "91ff63d23413ef75db6291abcd424fcf", "fusion_lon": 0.0, "bike_id": "91ff63d23413ef75db6291abcd424fcf", "is_disabled": 0, "is_reserved": 0}, {"rental_uris": {"ios": "https://dc.lft.to/lastmile_qr_scan", "android": "https://dc.lft.to/lastmile_qr_scan"}, "lon": -77.02183083333334, "type": "electric_scooter", "fusion_lat": 0.0, "lat": 38.916443, "name": "e004a5d6558cc7ce1783eb28123c252f", "fusion_lon": 0.0, "bike_id": "e004a5d6558cc7ce1783eb28123c252f", "is_disabled": 0, "is_reserved": 0}, {"rental_uris": {"ios": "https://dc.lft.to/lastmile_qr_scan", "android": "https://dc.lft.to/lastmile_qr_scan"}, "lon": -77.02132933333333, "type": "electric_bike", "fusion_lat": 0.0, "lat": 38.9163675, "name": "908f41bea0ce8251f2c140e254446a6c", "fusion_lon": 0.0, "bike_id": "908f41bea0ce8251f2c140e254446a6c", "is_disabled": 0, "is_reserved": 0}, {"rental_uris": {"ios": "https://dc.lft.to/lastmile_qr_scan", "android": "https://dc.lft.to/lastmile_qr_scan"}, "lon": -77.01114616666666, "type": "electric_scooter", "fusion_lat": 0.0, "lat": 38.903550833333334, "name": "b306de500bdd529ad722b6b960ca0e11", "fusion_lon": 0.0, "bike_id": "b306de500bdd529ad722b6b960ca0e11", "is_disabled": 0, "is_reserved": 0}, {"rental_uris": {"ios": "https://dc.lft.to/lastmile_qr_scan", "android": "https://dc.lft.to/lastmile_qr_scan"}, "lon": -77.02714566666667, "type": "electric_scooter", "fusion_lat": 0.0, "lat": 38.918111833333334, "name": "1945370f4f833ab04cd4b79cb6ea4927", "fusion_lon": 0.0, "bike_id": "1945370f4f833ab04cd4b79cb6ea4927", "is_disabled": 0, "is_reserved": 0}, {"rental_uris": {"ios": "https://dc.lft.to/lastmile_qr_scan", "android": "https://dc.lft.to/lastmile_qr_scan"}, "lon": -76.94757066666666, "type": "electric_scooter", "fusion_lat": 0.0, "lat": 38.90056933333334, "name": "b2ca390f3e2296c5e067e86d8ecdd4c7", "fusion_lon": 0.0, "bike_id": "b2ca390f3e2296c5e067e86d8ecdd4c7", "is_disabled": 0, "is_reserved": 0}, {"rental_uris": {"ios": "https://dc.lft.to/lastmile_qr_scan", "android": "https://dc.lft.to/lastmile_qr_scan"}, "lon": -76.9637525, "type": "electric_bike", "fusion_lat": 0.0, "lat": 38.94891466666667, "name": "710bf4d19ec9b91b7202d5e7ee68ea28", "fusion_lon": 0.0, "bike_id": "710bf4d19ec9b91b7202d5e7ee68ea28", "is_disabled": 0, "is_reserved": 0}, {"rental_uris": {"ios": "https://dc.lft.to/lastmile_qr_scan", "android": "https://dc.lft.to/lastmile_qr_scan"}, "lon": -77.03193283333333, "type": "electric_scooter", "fusion_lat": 0.0, "lat": 38.90981466666667, "name": "d7e8f43c25c91c3221e1e923b2698720", "fusion_lon": 0.0, "bike_id": "d7e8f43c25c91c3221e1e923b2698720", "is_disabled": 0, "is_reserved": 0}, {"rental_uris": {"ios": "https://dc.lft.to/lastmile_qr_scan", "android": "https://dc.lft.to/lastmile_qr_scan"}, "lon": -77.05472316666666, "type": "electric_scooter", "fusion_lat": 0.0, "lat": 38.9209715, "name": "38db41aaa49f54f4354293da2cd8ada2", "fusion_lon": 0.0, "bike_id": "38db41aaa49f54f4354293da2cd8ada2", "is_disabled": 0, "is_reserved": 0}, {"rental_uris": {"ios": "https://dc.lft.to/lastmile_qr_scan", "android": "https://dc.lft.to/lastmile_qr_scan"}, "lon": -77.04264533333334, "type": "electric_scooter", "fusion_lat": 0.0, "lat": 38.92200966666667, "name": "0ac4dd26f22981391b85d9bf83b9932b", "fusion_lon": 0.0, "bike_id": "0ac4dd26f22981391b85d9bf83b9932b", "is_disabled": 0, "is_reserved": 0}, {"rental_uris": {"ios": "https://dc.lft.to/lastmile_qr_scan", "android": "https://dc.lft.to/lastmile_qr_scan"}, "lon": -76.94176683333333, "type": "electric_scooter", "fusion_lat": 0.0, "lat": 38.882186833333336, "name": "55162fa309b98fb17bf6cd06f9d88c04", "fusion_lon": 0.0, "bike_id": "55162fa309b98fb17bf6cd06f9d88c04", "is_disabled": 0, "is_reserved": 0}, {"rental_uris": {"ios": "https://dc.lft.to/lastmile_qr_scan", "android": "https://dc.lft.to/lastmile_qr_scan"}, "lon": -77.03264216666666, "type": "electric_scooter", "fusion_lat": 0.0, "lat": 38.93514966666667, "name": "449fbe2b3ef180d9d27af96529b5b9cd", "fusion_lon": 0.0, "bike_id": "449fbe2b3ef180d9d27af96529b5b9cd", "is_disabled": 0, "is_reserved": 0}, {"rental_uris": {"ios": "https://dc.lft.to/lastmile_qr_scan", "android": "https://dc.lft.to/lastmile_qr_scan"}, "lon": -77.04446216666666, "type": "electric_scooter", "fusion_lat": 0.0, "lat": 38.91007783333333, "name": "20bbbc2a34c50f0b0bab1a9e981d7f56", "fusion_lon": 0.0, "bike_id": "20bbbc2a34c50f0b0bab1a9e981d7f56", "is_disabled": 0, "is_reserved": 0}, {"rental_uris": {"ios": "https://dc.lft.to/lastmile_qr_scan", "android": "https://dc.lft.to/lastmile_qr_scan"}, "lon": -77.00090083333333, "type": "electric_scooter", "fusion_lat": 0.0, "lat": 38.873751666666664, "name": "c36fd7ef052e427cd781a5e8b805456a", "fusion_lon": 0.0, "bike_id": "c36fd7ef052e427cd781a5e8b805456a", "is_disabled": 0, "is_reserved": 0}, {"rental_uris": {"ios": "https://dc.lft.to/lastmile_qr_scan", "android": "https://dc.lft.to/lastmile_qr_scan"}, "lon": -76.95421233333333, "type": "electric_scooter", "fusion_lat": 0.0, "lat": 38.889886833333335, "name": "40708b0c105f01b2be73aa8bdeca6444", "fusion_lon": 0.0, "bike_id": "40708b0c105f01b2be73aa8bdeca6444", "is_disabled": 0, "is_reserved": 0}, {"rental_uris": {"ios": "https://dc.lft.to/lastmile_qr_scan", "android": "https://dc.lft.to/lastmile_qr_scan"}, "lon": -77.04566166666666, "type": "electric_scooter", "fusion_lat": 0.0, "lat": 38.92136333333333, "name": "74ee0b148c0f0e6448a71e8018133f07", "fusion_lon": 0.0, "bike_id": "74ee0b148c0f0e6448a71e8018133f07", "is_disabled": 0, "is_reserved": 0}, {"rental_uris": {"ios": "https://dc.lft.to/lastmile_qr_scan", "android": "https://dc.lft.to/lastmile_qr_scan"}, "lon": -77.046641, "type": "electric_scooter", "fusion_lat": 0.0, "lat": 38.90970383333333, "name": "e4ab7bc2899c5f2c6f9e0d4462ec8431", "fusion_lon": 0.0, "bike_id": "e4ab7bc2899c5f2c6f9e0d4462ec8431", "is_disabled": 0, "is_reserved": 0}, {"rental_uris": {"ios": "https://dc.lft.to/lastmile_qr_scan", "android": "https://dc.lft.to/lastmile_qr_scan"}, "lon": -76.98716516666667, "type": "electric_scooter", "fusion_lat": 0.0, "lat": 38.86256433333333, "name": "7c2ed4a48c67397a1044129fae7530fb", "fusion_lon": 0.0, "bike_id": "7c2ed4a48c67397a1044129fae7530fb", "is_disabled": 0, "is_reserved": 0}, {"rental_uris": {"ios": "https://dc.lft.to/lastmile_qr_scan", "android": "https://dc.lft.to/lastmile_qr_scan"}, "lon": -77.04095783333334, "type": "electric_scooter", "fusion_lat": 0.0, "lat": 38.923679, "name": "09b4e3081be1de4f99860cab84a8608e", "fusion_lon": 0.0, "bike_id": "09b4e3081be1de4f99860cab84a8608e", "is_disabled": 0, "is_reserved": 0}, {"rental_uris": {"ios": "https://dc.lft.to/lastmile_qr_scan", "android": "https://dc.lft.to/lastmile_qr_scan"}, "lon": -76.98885633333333, "type": "electric_scooter", "fusion_lat": 0.0, "lat": 38.86656033333333, "name": "fae779b4adc805d0872bbbf14f3176bb", "fusion_lon": 0.0, "bike_id": "fae779b4adc805d0872bbbf14f3176bb", "is_disabled": 0, "is_reserved": 0}, {"rental_uris": {"ios": "https://dc.lft.to/lastmile_qr_scan", "android": "https://dc.lft.to/lastmile_qr_scan"}, "lon": -77.020757, "type": "electric_scooter", "fusion_lat": 0.0, "lat": 38.899707166666666, "name": "28801d4e5f19df3d8512d073cc330a3f", "fusion_lon": 0.0, "bike_id": "28801d4e5f19df3d8512d073cc330a3f", "is_disabled": 0, "is_reserved": 0}, {"rental_uris": {"ios": "https://dc.lft.to/lastmile_qr_scan", "android": "https://dc.lft.to/lastmile_qr_scan"}, "lon": -77.01147983333334, "type": "electric_scooter", "fusion_lat": 0.0, "lat": 38.9003115, "name": "12bbda55b54ffd34717be4c68cd734e0", "fusion_lon": 0.0, "bike_id": "12bbda55b54ffd34717be4c68cd734e0", "is_disabled": 0, "is_reserved": 0}, {"rental_uris": {"ios": "https://dc.lft.to/lastmile_qr_scan", "android": "https://dc.lft.to/lastmile_qr_scan"}, "lon": -77.026993, "type": "electric_scooter", "fusion_lat": 0.0, "lat": 38.9083425, "name": "9d5b3dd0f59b626bc7e5a4d5198d5c4e", "fusion_lon": 0.0, "bike_id": "9d5b3dd0f59b626bc7e5a4d5198d5c4e", "is_disabled": 0, "is_reserved": 0}, {"rental_uris": {"ios": "https://dc.lft.to/lastmile_qr_scan", "android": "https://dc.lft.to/lastmile_qr_scan"}, "lon": -77.05806366666667, "type": "electric_scooter", "fusion_lat": 0.0, "lat": 38.900995333333334, "name": "50d1cc357b73fcf158d4ef48450ff8da", "fusion_lon": 0.0, "bike_id": "50d1cc357b73fcf158d4ef48450ff8da", "is_disabled": 0, "is_reserved": 0}, {"rental_uris": {"ios": "https://dc.lft.to/lastmile_qr_scan", "android": "https://dc.lft.to/lastmile_qr_scan"}, "lon": -77.026622, "type": "electric_scooter", "fusion_lat": 0.0, "lat": 38.916933, "name": "c1b64dbc36b3c30eb57b59f4f8a61811", "fusion_lon": 0.0, "bike_id": "c1b64dbc36b3c30eb57b59f4f8a61811", "is_disabled": 0, "is_reserved": 0}, {"rental_uris": {"ios": "https://dc.lft.to/lastmile_qr_scan", "android": "https://dc.lft.to/lastmile_qr_scan"}, "lon": -77.08539383333333, "type": "electric_bike", "fusion_lat": 0.0, "lat": 38.8561925, "name": "8d45fd67c1114d64b761cc9c0f51b5d5", "fusion_lon": 0.0, "bike_id": "8d45fd67c1114d64b761cc9c0f51b5d5", "is_disabled": 0, "is_reserved": 0}, {"rental_uris": {"ios": "https://dc.lft.to/lastmile_qr_scan", "android": "https://dc.lft.to/lastmile_qr_scan"}, "lon": -77.04112766666667, "type": "electric_scooter", "fusion_lat": 0.0, "lat": 38.92957883333333, "name": "aac1ac66774376681bb058bd9bbc72c4", "fusion_lon": 0.0, "bike_id": "aac1ac66774376681bb058bd9bbc72c4", "is_disabled": 0, "is_reserved": 0}, {"rental_uris": {"ios": "https://dc.lft.to/lastmile_qr_scan", "android": "https://dc.lft.to/lastmile_qr_scan"}, "lon": -77.0105355, "type": "electric_scooter", "fusion_lat": 0.0, "lat": 38.87574583333333, "name": "a3c843b6011112484f2a313484a3c8af", "fusion_lon": 0.0, "bike_id": "a3c843b6011112484f2a313484a3c8af", "is_disabled": 0, "is_reserved": 0}, {"rental_uris": {"ios": "https://dc.lft.to/lastmile_qr_scan", "android": "https://dc.lft.to/lastmile_qr_scan"}, "lon": -77.096705, "type": "electric_scooter", "fusion_lat": 0.0, "lat": 38.917643166666664, "name": "d97dd94bb13c501770a2368a4890750d", "fusion_lon": 0.0, "bike_id": "d97dd94bb13c501770a2368a4890750d", "is_disabled": 0, "is_reserved": 0}, {"rental_uris": {"ios": "https://dc.lft.to/lastmile_qr_scan", "android": "https://dc.lft.to/lastmile_qr_scan"}, "lon": -77.038713, "type": "electric_scooter", "fusion_lat": 0.0, "lat": 38.92146116666667, "name": "7a0af31b032ed5154e6005705b4102ef", "fusion_lon": 0.0, "bike_id": "7a0af31b032ed5154e6005705b4102ef", "is_disabled": 0, "is_reserved": 0}, {"rental_uris": {"ios": "https://dc.lft.to/lastmile_qr_scan", "android": "https://dc.lft.to/lastmile_qr_scan"}, "lon": -77.01685333333333, "type": "electric_scooter", "fusion_lat": 0.0, "lat": 38.911464333333335, "name": "fccc0e09b640d015caaffd2bad366cf1", "fusion_lon": 0.0, "bike_id": "fccc0e09b640d015caaffd2bad366cf1", "is_disabled": 0, "is_reserved": 0}, {"rental_uris": {"ios": "https://dc.lft.to/lastmile_qr_scan", "android": "https://dc.lft.to/lastmile_qr_scan"}, "lon": -76.98882633333334, "type": "electric_scooter", "fusion_lat": 0.0, "lat": 38.866499166666664, "name": "167e20d806644e21f51917ad7616826d", "fusion_lon": 0.0, "bike_id": "167e20d806644e21f51917ad7616826d", "is_disabled": 0, "is_reserved": 0}, {"rental_uris": {"ios": "https://dc.lft.to/lastmile_qr_scan", "android": "https://dc.lft.to/lastmile_qr_scan"}, "lon": -77.04692933333334, "type": "electric_scooter", "fusion_lat": 0.0, "lat": 38.895991, "name": "b293a9b445e920f80cf698f41449e2af", "fusion_lon": 0.0, "bike_id": "b293a9b445e920f80cf698f41449e2af", "is_disabled": 0, "is_reserved": 0}, {"rental_uris": {"ios": "https://dc.lft.to/lastmile_qr_scan", "android": "https://dc.lft.to/lastmile_qr_scan"}, "lon": -77.0318185, "type": "electric_scooter", "fusion_lat": 0.0, "lat": 38.9180435, "name": "529320eeba9fb44b9cb09101756ea26f", "fusion_lon": 0.0, "bike_id": "529320eeba9fb44b9cb09101756ea26f", "is_disabled": 0, "is_reserved": 0}, {"rental_uris": {"ios": "https://dc.lft.to/lastmile_qr_scan", "android": "https://dc.lft.to/lastmile_qr_scan"}, "lon": -77.03231266666667, "type": "electric_scooter", "fusion_lat": 0.0, "lat": 38.914054666666665, "name": "c0433fb3d390912413269c7798987b3b", "fusion_lon": 0.0, "bike_id": "c0433fb3d390912413269c7798987b3b", "is_disabled": 0, "is_reserved": 0}, {"rental_uris": {"ios": "https://dc.lft.to/lastmile_qr_scan", "android": "https://dc.lft.to/lastmile_qr_scan"}, "lon": -76.937516, "type": "electric_scooter", "fusion_lat": 0.0, "lat": 38.912824666666666, "name": "9dd1784eed3b0770ba9484010a38f684", "fusion_lon": 0.0, "bike_id": "9dd1784eed3b0770ba9484010a38f684", "is_disabled": 0, "is_reserved": 0}, {"rental_uris": {"ios": "https://dc.lft.to/lastmile_qr_scan", "android": "https://dc.lft.to/lastmile_qr_scan"}, "lon": -76.97703983333334, "type": "electric_scooter", "fusion_lat": 0.0, "lat": 38.902559833333335, "name": "e1f29956de50167ca551407a33e0aa1a", "fusion_lon": 0.0, "bike_id": "e1f29956de50167ca551407a33e0aa1a", "is_disabled": 0, "is_reserved": 0}, {"rental_uris": {"ios": "https://dc.lft.to/lastmile_qr_scan", "android": "https://dc.lft.to/lastmile_qr_scan"}, "lon": -76.9914875, "type": "electric_bike", "fusion_lat": 0.0, "lat": 38.893425, "name": "03d3f46473c9078fc60ce824f91e24e1", "fusion_lon": 0.0, "bike_id": "03d3f46473c9078fc60ce824f91e24e1", "is_disabled": 0, "is_reserved": 0}, {"rental_uris": {"ios": "https://dc.lft.to/lastmile_qr_scan", "android": "https://dc.lft.to/lastmile_qr_scan"}, "lon": -77.02200483333333, "type": "electric_scooter", "fusion_lat": 0.0, "lat": 38.894250666666665, "name": "dd4f2bfa56b60c044a3022aae973fb5b", "fusion_lon": 0.0, "bike_id": "dd4f2bfa56b60c044a3022aae973fb5b", "is_disabled": 0, "is_reserved": 0}, {"rental_uris": {"ios": "https://dc.lft.to/lastmile_qr_scan", "android": "https://dc.lft.to/lastmile_qr_scan"}, "lon": -77.0514175, "type": "electric_scooter", "fusion_lat": 0.0, "lat": 38.902261833333334, "name": "1df823b6f5ab4029571d87811e7630fd", "fusion_lon": 0.0, "bike_id": "1df823b6f5ab4029571d87811e7630fd", "is_disabled": 0, "is_reserved": 0}, {"rental_uris": {"ios": "https://dc.lft.to/lastmile_qr_scan", "android": "https://dc.lft.to/lastmile_qr_scan"}, "lon": -77.02414083333333, "type": "electric_scooter", "fusion_lat": 0.0, "lat": 38.892214833333334, "name": "f20f41350c4fd19880a1a7a30eebf979", "fusion_lon": 0.0, "bike_id": "f20f41350c4fd19880a1a7a30eebf979", "is_disabled": 0, "is_reserved": 0}, {"rental_uris": {"ios": "https://dc.lft.to/lastmile_qr_scan", "android": "https://dc.lft.to/lastmile_qr_scan"}, "lon": -77.0532525, "type": "electric_scooter", "fusion_lat": 0.0, "lat": 38.910599166666664, "name": "de7668cd6ba388aa198fc616a5220b10", "fusion_lon": 0.0, "bike_id": "de7668cd6ba388aa198fc616a5220b10", "is_disabled": 0, "is_reserved": 0}, {"rental_uris": {"ios": "https://dc.lft.to/lastmile_qr_scan", "android": "https://dc.lft.to/lastmile_qr_scan"}, "lon": -77.11200316666667, "type": "electric_bike", "fusion_lat": 0.0, "lat": 38.81302866666667, "name": "50d2683b30ee65b7cb8b86d7aef6d846", "fusion_lon": 0.0, "bike_id": "50d2683b30ee65b7cb8b86d7aef6d846", "is_disabled": 0, "is_reserved": 0}, {"rental_uris": {"ios": "https://dc.lft.to/lastmile_qr_scan", "android": "https://dc.lft.to/lastmile_qr_scan"}, "lon": -77.0464, "type": "electric_scooter", "fusion_lat": 0.0, "lat": 38.89218533333333, "name": "a07902e8bc31037b1209e59f2fad0aaa", "fusion_lon": 0.0, "bike_id": "a07902e8bc31037b1209e59f2fad0aaa", "is_disabled": 0, "is_reserved": 0}, {"rental_uris": {"ios": "https://dc.lft.to/lastmile_qr_scan", "android": "https://dc.lft.to/lastmile_qr_scan"}, "lon": -77.045008, "type": "electric_scooter", "fusion_lat": 0.0, "lat": 38.916194833333336, "name": "9af8058226064a7b4f4418e89055bced", "fusion_lon": 0.0, "bike_id": "9af8058226064a7b4f4418e89055bced", "is_disabled": 0, "is_reserved": 0}, {"rental_uris": {"ios": "https://dc.lft.to/lastmile_qr_scan", "android": "https://dc.lft.to/lastmile_qr_scan"}, "lon": -77.12262066666666, "type": "electric_bike", "fusion_lat": 0.0, "lat": 38.891864, "name": "cf7af8cd71389dc416c509c76f797572", "fusion_lon": 0.0, "bike_id": "cf7af8cd71389dc416c509c76f797572", "is_disabled": 0, "is_reserved": 0}, {"rental_uris": {"ios": "https://dc.lft.to/lastmile_qr_scan", "android": "https://dc.lft.to/lastmile_qr_scan"}, "lon": -76.9352115, "type": "electric_bike", "fusion_lat": 0.0, "lat": 38.955381833333334, "name": "59b662dab980e0a1bd351a792cb8f4bb", "fusion_lon": 0.0, "bike_id": "59b662dab980e0a1bd351a792cb8f4bb", "is_disabled": 0, "is_reserved": 0}, {"rental_uris": {"ios": "https://dc.lft.to/lastmile_qr_scan", "android": "https://dc.lft.to/lastmile_qr_scan"}, "lon": -77.07686583333333, "type": "electric_bike", "fusion_lat": 0.0, "lat": 38.831918333333334, "name": "d51ebf98c964c760481806eede2b42de", "fusion_lon": 0.0, "bike_id": "d51ebf98c964c760481806eede2b42de", "is_disabled": 0, "is_reserved": 0}, {"rental_uris": {"ios": "https://dc.lft.to/lastmile_qr_scan", "android": "https://dc.lft.to/lastmile_qr_scan"}, "lon": -77.04381283333333, "type": "electric_scooter", "fusion_lat": 0.0, "lat": 38.920653333333334, "name": "8189b7aa319f3a17ab6d309d215af01d", "fusion_lon": 0.0, "bike_id": "8189b7aa319f3a17ab6d309d215af01d", "is_disabled": 0, "is_reserved": 0}, {"rental_uris": {"ios": "https://dc.lft.to/lastmile_qr_scan", "android": "https://dc.lft.to/lastmile_qr_scan"}, "lon": -77.02901766666666, "type": "electric_scooter", "fusion_lat": 0.0, "lat": 38.917195666666665, "name": "940ae28e88990d82963a8d3fd32e7fd4", "fusion_lon": 0.0, "bike_id": "940ae28e88990d82963a8d3fd32e7fd4", "is_disabled": 0, "is_reserved": 0}, {"rental_uris": {"ios": "https://dc.lft.to/lastmile_qr_scan", "android": "https://dc.lft.to/lastmile_qr_scan"}, "lon": -77.021778, "type": "electric_scooter", "fusion_lat": 0.0, "lat": 38.9151195, "name": "95a425131659defb506b1b58638d2f85", "fusion_lon": 0.0, "bike_id": "95a425131659defb506b1b58638d2f85", "is_disabled": 0, "is_reserved": 0}, {"rental_uris": {"ios": "https://dc.lft.to/lastmile_qr_scan", "android": "https://dc.lft.to/lastmile_qr_scan"}, "lon": -77.04382616666666, "type": "electric_scooter", "fusion_lat": 0.0, "lat": 38.9166145, "name": "6fc04007c00e14a3329e2499d2e0d87b", "fusion_lon": 0.0, "bike_id": "6fc04007c00e14a3329e2499d2e0d87b", "is_disabled": 0, "is_reserved": 0}, {"rental_uris": {"ios": "https://dc.lft.to/lastmile_qr_scan", "android": "https://dc.lft.to/lastmile_qr_scan"}, "lon": -77.03724316666667, "type": "electric_scooter", "fusion_lat": 0.0, "lat": 38.93353366666667, "name": "865acdef40a725267da86aa9544b396a", "fusion_lon": 0.0, "bike_id": "865acdef40a725267da86aa9544b396a", "is_disabled": 0, "is_reserved": 0}, {"rental_uris": {"ios": "https://dc.lft.to/lastmile_qr_scan", "android": "https://dc.lft.to/lastmile_qr_scan"}, "lon": -77.03226233333334, "type": "electric_scooter", "fusion_lat": 0.0, "lat": 38.9257825, "name": "219294ab12c7d18e8976fe517d66570a", "fusion_lon": 0.0, "bike_id": "219294ab12c7d18e8976fe517d66570a", "is_disabled": 0, "is_reserved": 0}, {"rental_uris": {"ios": "https://dc.lft.to/lastmile_qr_scan", "android": "https://dc.lft.to/lastmile_qr_scan"}, "lon": -76.97817933333333, "type": "electric_scooter", "fusion_lat": 0.0, "lat": 38.90664866666667, "name": "35f2cbe9042a05f0528254649c9a95ba", "fusion_lon": 0.0, "bike_id": "35f2cbe9042a05f0528254649c9a95ba", "is_disabled": 0, "is_reserved": 0}, {"rental_uris": {"ios": "https://dc.lft.to/lastmile_qr_scan", "android": "https://dc.lft.to/lastmile_qr_scan"}, "lon": -77.11800983333333, "type": "electric_bike", "fusion_lat": 0.0, "lat": 38.8983385, "name": "63f2d3e46177e077d8b24fe5337739db", "fusion_lon": 0.0, "bike_id": "63f2d3e46177e077d8b24fe5337739db", "is_disabled": 0, "is_reserved": 0}, {"rental_uris": {"ios": "https://dc.lft.to/lastmile_qr_scan", "android": "https://dc.lft.to/lastmile_qr_scan"}, "lon": -77.02966133333334, "type": "electric_scooter", "fusion_lat": 0.0, "lat": 38.92563033333333, "name": "5beb8f7e73d36a35e0a118223c31b7d1", "fusion_lon": 0.0, "bike_id": "5beb8f7e73d36a35e0a118223c31b7d1", "is_disabled": 0, "is_reserved": 0}, {"rental_uris": {"ios": "https://dc.lft.to/lastmile_qr_scan", "android": "https://dc.lft.to/lastmile_qr_scan"}, "lon": -77.0320435, "type": "electric_scooter", "fusion_lat": 0.0, "lat": 38.90011116666667, "name": "c0746f057651bf7b308b977764dd1689", "fusion_lon": 0.0, "bike_id": "c0746f057651bf7b308b977764dd1689", "is_disabled": 0, "is_reserved": 0}, {"rental_uris": {"ios": "https://dc.lft.to/lastmile_qr_scan", "android": "https://dc.lft.to/lastmile_qr_scan"}, "lon": -77.0124055, "type": "electric_scooter", "fusion_lat": 0.0, "lat": 38.91710533333333, "name": "64a9019c455deee303173d2bfef6bf99", "fusion_lon": 0.0, "bike_id": "64a9019c455deee303173d2bfef6bf99", "is_disabled": 0, "is_reserved": 0}, {"rental_uris": {"ios": "https://dc.lft.to/lastmile_qr_scan", "android": "https://dc.lft.to/lastmile_qr_scan"}, "lon": -76.95467266666667, "type": "electric_bike", "fusion_lat": 0.0, "lat": 38.88641716666667, "name": "feb05c4c792d8aa16b2ff8cc5992d57e", "fusion_lon": 0.0, "bike_id": "feb05c4c792d8aa16b2ff8cc5992d57e", "is_disabled": 0, "is_reserved": 0}, {"rental_uris": {"ios": "https://dc.lft.to/lastmile_qr_scan", "android": "https://dc.lft.to/lastmile_qr_scan"}, "lon": -77.05221116666667, "type": "electric_scooter", "fusion_lat": 0.0, "lat": 38.898055666666664, "name": "ed8bead672b9d083e801e2be1d6e41a8", "fusion_lon": 0.0, "bike_id": "ed8bead672b9d083e801e2be1d6e41a8", "is_disabled": 0, "is_reserved": 0}, {"rental_uris": {"ios": "https://dc.lft.to/lastmile_qr_scan", "android": "https://dc.lft.to/lastmile_qr_scan"}, "lon": -77.04331983333333, "type": "electric_scooter", "fusion_lat": 0.0, "lat": 38.90811983333333, "name": "d9ffec19529b585e630c3be294a0fb25", "fusion_lon": 0.0, "bike_id": "d9ffec19529b585e630c3be294a0fb25", "is_disabled": 0, "is_reserved": 0}, {"rental_uris": {"ios": "https://dc.lft.to/lastmile_qr_scan", "android": "https://dc.lft.to/lastmile_qr_scan"}, "lon": -77.01532716666667, "type": "electric_scooter", "fusion_lat": 0.0, "lat": 38.887364833333336, "name": "449fab03b4ac3878c09c4eec00c8f139", "fusion_lon": 0.0, "bike_id": "449fab03b4ac3878c09c4eec00c8f139", "is_disabled": 0, "is_reserved": 0}, {"rental_uris": {"ios": "https://dc.lft.to/lastmile_qr_scan", "android": "https://dc.lft.to/lastmile_qr_scan"}, "lon": -77.05984583333333, "type": "electric_scooter", "fusion_lat": 0.0, "lat": 38.935451666666665, "name": "e8780dd3a11162e5d9a15acb0fb69cad", "fusion_lon": 0.0, "bike_id": "e8780dd3a11162e5d9a15acb0fb69cad", "is_disabled": 0, "is_reserved": 0}, {"rental_uris": {"ios": "https://dc.lft.to/lastmile_qr_scan", "android": "https://dc.lft.to/lastmile_qr_scan"}, "lon": -77.02694183333334, "type": "electric_scooter", "fusion_lat": 0.0, "lat": 38.916269666666665, "name": "0ed5d582eeab46871aed3b02ebeeb583", "fusion_lon": 0.0, "bike_id": "0ed5d582eeab46871aed3b02ebeeb583", "is_disabled": 0, "is_reserved": 0}, {"rental_uris": {"ios": "https://dc.lft.to/lastmile_qr_scan", "android": "https://dc.lft.to/lastmile_qr_scan"}, "lon": -77.041583, "type": "electric_scooter", "fusion_lat": 0.0, "lat": 38.91419233333333, "name": "abce9b81daadbaff4b913980ae100170", "fusion_lon": 0.0, "bike_id": "abce9b81daadbaff4b913980ae100170", "is_disabled": 0, "is_reserved": 0}, {"rental_uris": {"ios": "https://dc.lft.to/lastmile_qr_scan", "android": "https://dc.lft.to/lastmile_qr_scan"}, "lon": -76.9745785, "type": "electric_scooter", "fusion_lat": 0.0, "lat": 38.8653405, "name": "c5cf4faa7555a127352fdb2900759529", "fusion_lon": 0.0, "bike_id": "c5cf4faa7555a127352fdb2900759529", "is_disabled": 0, "is_reserved": 0}, {"rental_uris": {"ios": "https://dc.lft.to/lastmile_qr_scan", "android": "https://dc.lft.to/lastmile_qr_scan"}, "lon": -77.02273183333334, "type": "electric_scooter", "fusion_lat": 0.0, "lat": 38.91264616666667, "name": "aeb8c97cbe2e51261802e0dd0eff2fd6", "fusion_lon": 0.0, "bike_id": "aeb8c97cbe2e51261802e0dd0eff2fd6", "is_disabled": 0, "is_reserved": 0}, {"rental_uris": {"ios": "https://dc.lft.to/lastmile_qr_scan", "android": "https://dc.lft.to/lastmile_qr_scan"}, "lon": -76.99065466666667, "type": "electric_scooter", "fusion_lat": 0.0, "lat": 38.86352516666667, "name": "ac71ffaf986c951d7bb4e36c3e98e9bd", "fusion_lon": 0.0, "bike_id": "ac71ffaf986c951d7bb4e36c3e98e9bd", "is_disabled": 0, "is_reserved": 0}, {"rental_uris": {"ios": "https://dc.lft.to/lastmile_qr_scan", "android": "https://dc.lft.to/lastmile_qr_scan"}, "lon": -77.034583, "type": "electric_scooter", "fusion_lat": 0.0, "lat": 38.93642766666667, "name": "a5ae9dbfabb0a90c760128c5d1e436e7", "fusion_lon": 0.0, "bike_id": "a5ae9dbfabb0a90c760128c5d1e436e7", "is_disabled": 0, "is_reserved": 0}, {"rental_uris": {"ios": "https://dc.lft.to/lastmile_qr_scan", "android": "https://dc.lft.to/lastmile_qr_scan"}, "lon": -76.97813233333333, "type": "electric_scooter", "fusion_lat": 0.0, "lat": 38.88606633333333, "name": "07b5832ed47f65224d33b2c677649faa", "fusion_lon": 0.0, "bike_id": "07b5832ed47f65224d33b2c677649faa", "is_disabled": 0, "is_reserved": 0}, {"rental_uris": {"ios": "https://dc.lft.to/lastmile_qr_scan", "android": "https://dc.lft.to/lastmile_qr_scan"}, "lon": -76.98792616666667, "type": "electric_bike", "fusion_lat": 0.0, "lat": 38.9041395, "name": "68b24203e25ce5e4e9c39d7ec8dc4fa9", "fusion_lon": 0.0, "bike_id": "68b24203e25ce5e4e9c39d7ec8dc4fa9", "is_disabled": 0, "is_reserved": 0}, {"rental_uris": {"ios": "https://dc.lft.to/lastmile_qr_scan", "android": "https://dc.lft.to/lastmile_qr_scan"}, "lon": -77.0030405, "type": "electric_scooter", "fusion_lat": 0.0, "lat": 38.909065, "name": "fac604996c24cfda4c14e1084041a3dc", "fusion_lon": 0.0, "bike_id": "fac604996c24cfda4c14e1084041a3dc", "is_disabled": 0, "is_reserved": 0}, {"rental_uris": {"ios": "https://dc.lft.to/lastmile_qr_scan", "android": "https://dc.lft.to/lastmile_qr_scan"}, "lon": -77.021083, "type": "electric_scooter", "fusion_lat": 0.0, "lat": 38.922175333333335, "name": "95954881db44f444fa76a059470c8bb3", "fusion_lon": 0.0, "bike_id": "95954881db44f444fa76a059470c8bb3", "is_disabled": 0, "is_reserved": 0}, {"rental_uris": {"ios": "https://dc.lft.to/lastmile_qr_scan", "android": "https://dc.lft.to/lastmile_qr_scan"}, "lon": -77.02833716666666, "type": "electric_scooter", "fusion_lat": 0.0, "lat": 38.9318675, "name": "8df1846068bf3014bbdb27685eb7c165", "fusion_lon": 0.0, "bike_id": "8df1846068bf3014bbdb27685eb7c165", "is_disabled": 0, "is_reserved": 0}, {"rental_uris": {"ios": "https://dc.lft.to/lastmile_qr_scan", "android": "https://dc.lft.to/lastmile_qr_scan"}, "lon": -77.04503833333334, "type": "electric_scooter", "fusion_lat": 0.0, "lat": 38.921352666666664, "name": "fe4406b41812ba24afd3d0307b245735", "fusion_lon": 0.0, "bike_id": "fe4406b41812ba24afd3d0307b245735", "is_disabled": 0, "is_reserved": 0}, {"rental_uris": {"ios": "https://dc.lft.to/lastmile_qr_scan", "android": "https://dc.lft.to/lastmile_qr_scan"}, "lon": -77.03210583333333, "type": "electric_scooter", "fusion_lat": 0.0, "lat": 38.9170045, "name": "f3dcc6cefee0be857c4a73e24ca5f6c2", "fusion_lon": 0.0, "bike_id": "f3dcc6cefee0be857c4a73e24ca5f6c2", "is_disabled": 0, "is_reserved": 0}, {"rental_uris": {"ios": "https://dc.lft.to/lastmile_qr_scan", "android": "https://dc.lft.to/lastmile_qr_scan"}, "lon": -77.11432583333334, "type": "electric_bike", "fusion_lat": 0.0, "lat": 38.852406333333334, "name": "4c8d686c91c35b388201c1335ed95a3d", "fusion_lon": 0.0, "bike_id": "4c8d686c91c35b388201c1335ed95a3d", "is_disabled": 0, "is_reserved": 0}, {"rental_uris": {"ios": "https://dc.lft.to/lastmile_qr_scan", "android": "https://dc.lft.to/lastmile_qr_scan"}, "lon": -76.9841855, "type": "electric_scooter", "fusion_lat": 0.0, "lat": 38.9138595, "name": "a144418ae64b8d3e798776990a368ed9", "fusion_lon": 0.0, "bike_id": "a144418ae64b8d3e798776990a368ed9", "is_disabled": 0, "is_reserved": 0}, {"rental_uris": {"ios": "https://dc.lft.to/lastmile_qr_scan", "android": "https://dc.lft.to/lastmile_qr_scan"}, "lon": -77.032198, "type": "electric_scooter", "fusion_lat": 0.0, "lat": 38.91184366666667, "name": "3701e1f87606bcd95d04d71f40c387f3", "fusion_lon": 0.0, "bike_id": "3701e1f87606bcd95d04d71f40c387f3", "is_disabled": 0, "is_reserved": 0}, {"rental_uris": {"ios": "https://dc.lft.to/lastmile_qr_scan", "android": "https://dc.lft.to/lastmile_qr_scan"}, "lon": -76.96775866666667, "type": "electric_scooter", "fusion_lat": 0.0, "lat": 38.86138033333334, "name": "f6b8318e66056c2c4034ce4ca287d76b", "fusion_lon": 0.0, "bike_id": "f6b8318e66056c2c4034ce4ca287d76b", "is_disabled": 0, "is_reserved": 0}, {"rental_uris": {"ios": "https://dc.lft.to/lastmile_qr_scan", "android": "https://dc.lft.to/lastmile_qr_scan"}, "lon": -77.01414033333333, "type": "electric_scooter", "fusion_lat": 0.0, "lat": 38.92852116666667, "name": "3e899d4ddbe1df78ab2ef03a0b38c9af", "fusion_lon": 0.0, "bike_id": "3e899d4ddbe1df78ab2ef03a0b38c9af", "is_disabled": 0, "is_reserved": 0}, {"rental_uris": {"ios": "https://dc.lft.to/lastmile_qr_scan", "android": "https://dc.lft.to/lastmile_qr_scan"}, "lon": -77.12626266666666, "type": "electric_bike", "fusion_lat": 0.0, "lat": 39.058101, "name": "a77ed2f1da0e480992ce5149c6c3a9d6", "fusion_lon": 0.0, "bike_id": "a77ed2f1da0e480992ce5149c6c3a9d6", "is_disabled": 0, "is_reserved": 0}, {"rental_uris": {"ios": "https://dc.lft.to/lastmile_qr_scan", "android": "https://dc.lft.to/lastmile_qr_scan"}, "lon": -77.00515533333333, "type": "electric_scooter", "fusion_lat": 0.0, "lat": 38.90560933333333, "name": "ef05f7ebd74e74a74fc8b20c8741aa42", "fusion_lon": 0.0, "bike_id": "ef05f7ebd74e74a74fc8b20c8741aa42", "is_disabled": 0, "is_reserved": 0}, {"rental_uris": {"ios": "https://dc.lft.to/lastmile_qr_scan", "android": "https://dc.lft.to/lastmile_qr_scan"}, "lon": -76.98090533333334, "type": "electric_bike", "fusion_lat": 0.0, "lat": 38.953506833333336, "name": "8a7ec1bfe1fbf01146899495e7f1ad73", "fusion_lon": 0.0, "bike_id": "8a7ec1bfe1fbf01146899495e7f1ad73", "is_disabled": 0, "is_reserved": 0}, {"rental_uris": {"ios": "https://dc.lft.to/lastmile_qr_scan", "android": "https://dc.lft.to/lastmile_qr_scan"}, "lon": -76.97832716666667, "type": "electric_bike", "fusion_lat": 0.0, "lat": 38.8460255, "name": "c6ef7e0744d1f0c71077234d42964347", "fusion_lon": 0.0, "bike_id": "c6ef7e0744d1f0c71077234d42964347", "is_disabled": 0, "is_reserved": 0}, {"rental_uris": {"ios": "https://dc.lft.to/lastmile_qr_scan", "android": "https://dc.lft.to/lastmile_qr_scan"}, "lon": -77.17849766666667, "type": "electric_bike", "fusion_lat": 0.0, "lat": 39.0889085, "name": "734ecd144d36d8b3551ac0b9344c71d6", "fusion_lon": 0.0, "bike_id": "734ecd144d36d8b3551ac0b9344c71d6", "is_disabled": 0, "is_reserved": 0}, {"rental_uris": {"ios": "https://dc.lft.to/lastmile_qr_scan", "android": "https://dc.lft.to/lastmile_qr_scan"}, "lon": -77.02953066666667, "type": "electric_scooter", "fusion_lat": 0.0, "lat": 38.91686283333333, "name": "6265b46c1fbac2a592da9e8c1dfbe2a1", "fusion_lon": 0.0, "bike_id": "6265b46c1fbac2a592da9e8c1dfbe2a1", "is_disabled": 0, "is_reserved": 0}, {"rental_uris": {"ios": "https://dc.lft.to/lastmile_qr_scan", "android": "https://dc.lft.to/lastmile_qr_scan"}, "lon": -77.02299516666666, "type": "electric_scooter", "fusion_lat": 0.0, "lat": 38.8787705, "name": "44446b209c3e6e00bb5082fb8059fe42", "fusion_lon": 0.0, "bike_id": "44446b209c3e6e00bb5082fb8059fe42", "is_disabled": 0, "is_reserved": 0}, {"rental_uris": {"ios": "https://dc.lft.to/lastmile_qr_scan", "android": "https://dc.lft.to/lastmile_qr_scan"}, "lon": -77.00491233333334, "type": "electric_scooter", "fusion_lat": 0.0, "lat": 38.8745835, "name": "4b1488889881059a31f450baaac7902c", "fusion_lon": 0.0, "bike_id": "4b1488889881059a31f450baaac7902c", "is_disabled": 0, "is_reserved": 0}, {"rental_uris": {"ios": "https://dc.lft.to/lastmile_qr_scan", "android": "https://dc.lft.to/lastmile_qr_scan"}, "lon": -77.03849533333333, "type": "electric_scooter", "fusion_lat": 0.0, "lat": 38.92020016666667, "name": "b6e8d0634bd4dcb1b7bcc64bc352022c", "fusion_lon": 0.0, "bike_id": "b6e8d0634bd4dcb1b7bcc64bc352022c", "is_disabled": 0, "is_reserved": 0}, {"rental_uris": {"ios": "https://dc.lft.to/lastmile_qr_scan", "android": "https://dc.lft.to/lastmile_qr_scan"}, "lon": -77.04654633333334, "type": "electric_scooter", "fusion_lat": 0.0, "lat": 38.89353416666667, "name": "e6ab835b7968228f34187627bb16807e", "fusion_lon": 0.0, "bike_id": "e6ab835b7968228f34187627bb16807e", "is_disabled": 0, "is_reserved": 0}, {"rental_uris": {"ios": "https://dc.lft.to/lastmile_qr_scan", "android": "https://dc.lft.to/lastmile_qr_scan"}, "lon": -77.02962316666667, "type": "electric_scooter", "fusion_lat": 0.0, "lat": 38.91256416666667, "name": "f4cb38f41f67dd74da1771ca44646e9b", "fusion_lon": 0.0, "bike_id": "f4cb38f41f67dd74da1771ca44646e9b", "is_disabled": 0, "is_reserved": 0}, {"rental_uris": {"ios": "https://dc.lft.to/lastmile_qr_scan", "android": "https://dc.lft.to/lastmile_qr_scan"}, "lon": -77.012947, "type": "electric_bike", "fusion_lat": 0.0, "lat": 38.881191, "name": "2d1c34c69b132dd3639a499b047f4bbe", "fusion_lon": 0.0, "bike_id": "2d1c34c69b132dd3639a499b047f4bbe", "is_disabled": 0, "is_reserved": 0}, {"rental_uris": {"ios": "https://dc.lft.to/lastmile_qr_scan", "android": "https://dc.lft.to/lastmile_qr_scan"}, "lon": -77.04590066666667, "type": "electric_scooter", "fusion_lat": 0.0, "lat": 38.91049983333333, "name": "4f61aa403eae1e48feb87f6cf494130f", "fusion_lon": 0.0, "bike_id": "4f61aa403eae1e48feb87f6cf494130f", "is_disabled": 0, "is_reserved": 0}, {"rental_uris": {"ios": "https://dc.lft.to/lastmile_qr_scan", "android": "https://dc.lft.to/lastmile_qr_scan"}, "lon": -77.02288066666667, "type": "electric_scooter", "fusion_lat": 0.0, "lat": 38.8971455, "name": "d18cf139f99cae572b9416483f933c71", "fusion_lon": 0.0, "bike_id": "d18cf139f99cae572b9416483f933c71", "is_disabled": 0, "is_reserved": 0}, {"rental_uris": {"ios": "https://dc.lft.to/lastmile_qr_scan", "android": "https://dc.lft.to/lastmile_qr_scan"}, "lon": -77.04328233333334, "type": "electric_scooter", "fusion_lat": 0.0, "lat": 38.91872383333333, "name": "ebc52c53e03bd543bfffe8b1fee38dd6", "fusion_lon": 0.0, "bike_id": "ebc52c53e03bd543bfffe8b1fee38dd6", "is_disabled": 0, "is_reserved": 0}, {"rental_uris": {"ios": "https://dc.lft.to/lastmile_qr_scan", "android": "https://dc.lft.to/lastmile_qr_scan"}, "lon": -77.020591, "type": "electric_scooter", "fusion_lat": 0.0, "lat": 38.90847633333333, "name": "d997448e3968a92bb036fcf0b297751e", "fusion_lon": 0.0, "bike_id": "d997448e3968a92bb036fcf0b297751e", "is_disabled": 0, "is_reserved": 0}, {"rental_uris": {"ios": "https://dc.lft.to/lastmile_qr_scan", "android": "https://dc.lft.to/lastmile_qr_scan"}, "lon": -77.0057995, "type": "electric_scooter", "fusion_lat": 0.0, "lat": 38.8449465, "name": "5dc1ab7f5c8fd3e0500bb08eb6971eb1", "fusion_lon": 0.0, "bike_id": "5dc1ab7f5c8fd3e0500bb08eb6971eb1", "is_disabled": 0, "is_reserved": 0}, {"rental_uris": {"ios": "https://dc.lft.to/lastmile_qr_scan", "android": "https://dc.lft.to/lastmile_qr_scan"}, "lon": -77.02156683333334, "type": "electric_scooter", "fusion_lat": 0.0, "lat": 38.92601366666667, "name": "a6c45ea2f76021a43fa031a66e6af63c", "fusion_lon": 0.0, "bike_id": "a6c45ea2f76021a43fa031a66e6af63c", "is_disabled": 0, "is_reserved": 0}, {"rental_uris": {"ios": "https://dc.lft.to/lastmile_qr_scan", "android": "https://dc.lft.to/lastmile_qr_scan"}, "lon": -77.01892816666667, "type": "electric_scooter", "fusion_lat": 0.0, "lat": 38.91186166666667, "name": "070c9d6b955873e9edc9cf5cfeda95ed", "fusion_lon": 0.0, "bike_id": "070c9d6b955873e9edc9cf5cfeda95ed", "is_disabled": 0, "is_reserved": 0}, {"rental_uris": {"ios": "https://dc.lft.to/lastmile_qr_scan", "android": "https://dc.lft.to/lastmile_qr_scan"}, "lon": -77.02651083333333, "type": "electric_scooter", "fusion_lat": 0.0, "lat": 38.984932, "name": "78f493955bcb913fed37c6370e42a9da", "fusion_lon": 0.0, "bike_id": "78f493955bcb913fed37c6370e42a9da", "is_disabled": 0, "is_reserved": 0}, {"rental_uris": {"ios": "https://dc.lft.to/lastmile_qr_scan", "android": "https://dc.lft.to/lastmile_qr_scan"}, "lon": -77.050647, "type": "electric_scooter", "fusion_lat": 0.0, "lat": 38.92359616666667, "name": "74016b324d8a98d6aa8b6716cf3dd815", "fusion_lon": 0.0, "bike_id": "74016b324d8a98d6aa8b6716cf3dd815", "is_disabled": 0, "is_reserved": 0}, {"rental_uris": {"ios": "https://dc.lft.to/lastmile_qr_scan", "android": "https://dc.lft.to/lastmile_qr_scan"}, "lon": -77.03998016666667, "type": "electric_scooter", "fusion_lat": 0.0, "lat": 38.9342245, "name": "141b6e2fcfc857cf13d8adfeb493cb9e", "fusion_lon": 0.0, "bike_id": "141b6e2fcfc857cf13d8adfeb493cb9e", "is_disabled": 0, "is_reserved": 0}, {"rental_uris": {"ios": "https://dc.lft.to/lastmile_qr_scan", "android": "https://dc.lft.to/lastmile_qr_scan"}, "lon": -77.03672766666666, "type": "electric_scooter", "fusion_lat": 0.0, "lat": 38.929919, "name": "4a1cdb6aa45c9cac508f98022d5cc877", "fusion_lon": 0.0, "bike_id": "4a1cdb6aa45c9cac508f98022d5cc877", "is_disabled": 0, "is_reserved": 0}, {"rental_uris": {"ios": "https://dc.lft.to/lastmile_qr_scan", "android": "https://dc.lft.to/lastmile_qr_scan"}, "lon": -77.0224825, "type": "electric_scooter", "fusion_lat": 0.0, "lat": 38.912724833333336, "name": "252f24e43bc51988ad0ef04705aed45e", "fusion_lon": 0.0, "bike_id": "252f24e43bc51988ad0ef04705aed45e", "is_disabled": 0, "is_reserved": 0}, {"rental_uris": {"ios": "https://dc.lft.to/lastmile_qr_scan", "android": "https://dc.lft.to/lastmile_qr_scan"}, "lon": -77.032107, "type": "electric_scooter", "fusion_lat": 0.0, "lat": 38.91199116666667, "name": "e0b0daca21da790e3fd0121547958e28", "fusion_lon": 0.0, "bike_id": "e0b0daca21da790e3fd0121547958e28", "is_disabled": 0, "is_reserved": 0}, {"rental_uris": {"ios": "https://dc.lft.to/lastmile_qr_scan", "android": "https://dc.lft.to/lastmile_qr_scan"}, "lon": -77.0460885, "type": "electric_scooter", "fusion_lat": 0.0, "lat": 38.902415166666664, "name": "26432791c9140f3bc901a0a7cb00223b", "fusion_lon": 0.0, "bike_id": "26432791c9140f3bc901a0a7cb00223b", "is_disabled": 0, "is_reserved": 0}, {"rental_uris": {"ios": "https://dc.lft.to/lastmile_qr_scan", "android": "https://dc.lft.to/lastmile_qr_scan"}, "lon": -77.050362, "type": "electric_scooter", "fusion_lat": 0.0, "lat": 38.89655716666667, "name": "eecea553d2e63fcc56c96252e311ae00", "fusion_lon": 0.0, "bike_id": "eecea553d2e63fcc56c96252e311ae00", "is_disabled": 0, "is_reserved": 0}, {"rental_uris": {"ios": "https://dc.lft.to/lastmile_qr_scan", "android": "https://dc.lft.to/lastmile_qr_scan"}, "lon": -76.97331983333333, "type": "electric_bike", "fusion_lat": 0.0, "lat": 38.850571333333335, "name": "b389eb75ec53ef8cf7dadfaa38edcff1", "fusion_lon": 0.0, "bike_id": "b389eb75ec53ef8cf7dadfaa38edcff1", "is_disabled": 0, "is_reserved": 0}, {"rental_uris": {"ios": "https://dc.lft.to/lastmile_qr_scan", "android": "https://dc.lft.to/lastmile_qr_scan"}, "lon": -77.042817, "type": "electric_bike", "fusion_lat": 0.0, "lat": 38.911068666666665, "name": "faf185426f80b026af772b801aadf272", "fusion_lon": 0.0, "bike_id": "faf185426f80b026af772b801aadf272", "is_disabled": 0, "is_reserved": 0}, {"rental_uris": {"ios": "https://dc.lft.to/lastmile_qr_scan", "android": "https://dc.lft.to/lastmile_qr_scan"}, "lon": -76.97724516666666, "type": "electric_scooter", "fusion_lat": 0.0, "lat": 38.872446333333336, "name": "078e1c74fc6ab1574a5c13f9b6bc7157", "fusion_lon": 0.0, "bike_id": "078e1c74fc6ab1574a5c13f9b6bc7157", "is_disabled": 0, "is_reserved": 0}, {"rental_uris": {"ios": "https://dc.lft.to/lastmile_qr_scan", "android": "https://dc.lft.to/lastmile_qr_scan"}, "lon": -77.046867, "type": "electric_scooter", "fusion_lat": 0.0, "lat": 38.895968833333335, "name": "7015d5a3dba9245ef230b4ce82919a58", "fusion_lon": 0.0, "bike_id": "7015d5a3dba9245ef230b4ce82919a58", "is_disabled": 0, "is_reserved": 0}, {"rental_uris": {"ios": "https://dc.lft.to/lastmile_qr_scan", "android": "https://dc.lft.to/lastmile_qr_scan"}, "lon": -77.054167, "type": "electric_scooter", "fusion_lat": 0.0, "lat": 38.92840266666666, "name": "227fee39b0f4beb0d6d098f168c122f9", "fusion_lon": 0.0, "bike_id": "227fee39b0f4beb0d6d098f168c122f9", "is_disabled": 0, "is_reserved": 0}, {"rental_uris": {"ios": "https://dc.lft.to/lastmile_qr_scan", "android": "https://dc.lft.to/lastmile_qr_scan"}, "lon": -77.022653, "type": "electric_scooter", "fusion_lat": 0.0, "lat": 38.896064333333335, "name": "41392f4f36030835b96dd2a95383882b", "fusion_lon": 0.0, "bike_id": "41392f4f36030835b96dd2a95383882b", "is_disabled": 0, "is_reserved": 0}, {"rental_uris": {"ios": "https://dc.lft.to/lastmile_qr_scan", "android": "https://dc.lft.to/lastmile_qr_scan"}, "lon": -77.04312666666667, "type": "electric_scooter", "fusion_lat": 0.0, "lat": 38.90561833333334, "name": "7e99b690889b3c618938846abd027443", "fusion_lon": 0.0, "bike_id": "7e99b690889b3c618938846abd027443", "is_disabled": 0, "is_reserved": 0}, {"rental_uris": {"ios": "https://dc.lft.to/lastmile_qr_scan", "android": "https://dc.lft.to/lastmile_qr_scan"}, "lon": -76.9914915, "type": "electric_scooter", "fusion_lat": 0.0, "lat": 38.8933395, "name": "914d43db7b83a062df6a75fdfe761368", "fusion_lon": 0.0, "bike_id": "914d43db7b83a062df6a75fdfe761368", "is_disabled": 0, "is_reserved": 0}, {"rental_uris": {"ios": "https://dc.lft.to/lastmile_qr_scan", "android": "https://dc.lft.to/lastmile_qr_scan"}, "lon": -77.04550233333333, "type": "electric_scooter", "fusion_lat": 0.0, "lat": 38.903906666666664, "name": "40d8d1960cf08b4ebca0058cd65bb230", "fusion_lon": 0.0, "bike_id": "40d8d1960cf08b4ebca0058cd65bb230", "is_disabled": 0, "is_reserved": 0}, {"rental_uris": {"ios": "https://dc.lft.to/lastmile_qr_scan", "android": "https://dc.lft.to/lastmile_qr_scan"}, "lon": -77.00157116666666, "type": "electric_scooter", "fusion_lat": 0.0, "lat": 38.872909166666666, "name": "edbbe9589e09091d39b65b091e26ed60", "fusion_lon": 0.0, "bike_id": "edbbe9589e09091d39b65b091e26ed60", "is_disabled": 0, "is_reserved": 0}, {"rental_uris": {"ios": "https://dc.lft.to/lastmile_qr_scan", "android": "https://dc.lft.to/lastmile_qr_scan"}, "lon": -77.01215083333334, "type": "electric_scooter", "fusion_lat": 0.0, "lat": 38.920275333333336, "name": "cf089b0b05f473de87843c1b930c9cda", "fusion_lon": 0.0, "bike_id": "cf089b0b05f473de87843c1b930c9cda", "is_disabled": 0, "is_reserved": 0}, {"rental_uris": {"ios": "https://dc.lft.to/lastmile_qr_scan", "android": "https://dc.lft.to/lastmile_qr_scan"}, "lon": -76.97677716666666, "type": "electric_scooter", "fusion_lat": 0.0, "lat": 38.896165333333336, "name": "14b92e6c478f8a1e106c095a553cd9a3", "fusion_lon": 0.0, "bike_id": "14b92e6c478f8a1e106c095a553cd9a3", "is_disabled": 0, "is_reserved": 0}, {"rental_uris": {"ios": "https://dc.lft.to/lastmile_qr_scan", "android": "https://dc.lft.to/lastmile_qr_scan"}, "lon": -77.02150816666666, "type": "electric_bike", "fusion_lat": 0.0, "lat": 38.973221833333334, "name": "9c1b91be6f5588de42c3c9a8d27fb133", "fusion_lon": 0.0, "bike_id": "9c1b91be6f5588de42c3c9a8d27fb133", "is_disabled": 0, "is_reserved": 0}, {"rental_uris": {"ios": "https://dc.lft.to/lastmile_qr_scan", "android": "https://dc.lft.to/lastmile_qr_scan"}, "lon": -77.02717733333333, "type": "electric_scooter", "fusion_lat": 0.0, "lat": 38.916727333333334, "name": "9ac04828348498a81a3672fba00edfa4", "fusion_lon": 0.0, "bike_id": "9ac04828348498a81a3672fba00edfa4", "is_disabled": 0, "is_reserved": 0}, {"rental_uris": {"ios": "https://dc.lft.to/lastmile_qr_scan", "android": "https://dc.lft.to/lastmile_qr_scan"}, "lon": -76.99432533333334, "type": "electric_scooter", "fusion_lat": 0.0, "lat": 38.900057833333335, "name": "a57bfd67ffaca1167e8958c37d8a7cd4", "fusion_lon": 0.0, "bike_id": "a57bfd67ffaca1167e8958c37d8a7cd4", "is_disabled": 0, "is_reserved": 0}, {"rental_uris": {"ios": "https://dc.lft.to/lastmile_qr_scan", "android": "https://dc.lft.to/lastmile_qr_scan"}, "lon": -77.02460783333333, "type": "electric_scooter", "fusion_lat": 0.0, "lat": 38.916841, "name": "4f843761ca4370125d3be5cb23e24efd", "fusion_lon": 0.0, "bike_id": "4f843761ca4370125d3be5cb23e24efd", "is_disabled": 0, "is_reserved": 0}, {"rental_uris": {"ios": "https://dc.lft.to/lastmile_qr_scan", "android": "https://dc.lft.to/lastmile_qr_scan"}, "lon": -77.043795, "type": "electric_scooter", "fusion_lat": 0.0, "lat": 38.920617166666666, "name": "3d6429a338efe540b6f2538bb8b17bb9", "fusion_lon": 0.0, "bike_id": "3d6429a338efe540b6f2538bb8b17bb9", "is_disabled": 0, "is_reserved": 0}, {"rental_uris": {"ios": "https://dc.lft.to/lastmile_qr_scan", "android": "https://dc.lft.to/lastmile_qr_scan"}, "lon": -77.052932, "type": "electric_scooter", "fusion_lat": 0.0, "lat": 38.91055216666667, "name": "c9a5de9dd564d6f486c582c9646980a2", "fusion_lon": 0.0, "bike_id": "c9a5de9dd564d6f486c582c9646980a2", "is_disabled": 0, "is_reserved": 0}, {"rental_uris": {"ios": "https://dc.lft.to/lastmile_qr_scan", "android": "https://dc.lft.to/lastmile_qr_scan"}, "lon": -77.02205633333334, "type": "electric_scooter", "fusion_lat": 0.0, "lat": 38.916148166666666, "name": "7976685759eb920829736f7142356c48", "fusion_lon": 0.0, "bike_id": "7976685759eb920829736f7142356c48", "is_disabled": 0, "is_reserved": 0}, {"rental_uris": {"ios": "https://dc.lft.to/lastmile_qr_scan", "android": "https://dc.lft.to/lastmile_qr_scan"}, "lon": -77.04568166666667, "type": "electric_scooter", "fusion_lat": 0.0, "lat": 38.914101, "name": "4bde049424fa88c34638d0a3a6ed0fec", "fusion_lon": 0.0, "bike_id": "4bde049424fa88c34638d0a3a6ed0fec", "is_disabled": 0, "is_reserved": 0}, {"rental_uris": {"ios": "https://dc.lft.to/lastmile_qr_scan", "android": "https://dc.lft.to/lastmile_qr_scan"}, "lon": -77.04373916666667, "type": "electric_scooter", "fusion_lat": 0.0, "lat": 38.910493833333334, "name": "8891061d152c1349c5e462773bfa5770", "fusion_lon": 0.0, "bike_id": "8891061d152c1349c5e462773bfa5770", "is_disabled": 0, "is_reserved": 0}, {"rental_uris": {"ios": "https://dc.lft.to/lastmile_qr_scan", "android": "https://dc.lft.to/lastmile_qr_scan"}, "lon": -77.0486115, "type": "electric_scooter", "fusion_lat": 0.0, "lat": 38.906433666666665, "name": "88338528d6d98b76dc49209c652a983d", "fusion_lon": 0.0, "bike_id": "88338528d6d98b76dc49209c652a983d", "is_disabled": 0, "is_reserved": 0}, {"rental_uris": {"ios": "https://dc.lft.to/lastmile_qr_scan", "android": "https://dc.lft.to/lastmile_qr_scan"}, "lon": -76.89536883333334, "type": "electric_bike", "fusion_lat": 0.0, "lat": 38.94552316666667, "name": "f0e9ff2388ae0832657559963089fe69", "fusion_lon": 0.0, "bike_id": "f0e9ff2388ae0832657559963089fe69", "is_disabled": 0, "is_reserved": 0}, {"rental_uris": {"ios": "https://dc.lft.to/lastmile_qr_scan", "android": "https://dc.lft.to/lastmile_qr_scan"}, "lon": -76.9487595, "type": "electric_scooter", "fusion_lat": 0.0, "lat": 38.894775833333334, "name": "38d033ca85d6c256f04971f1031b93a2", "fusion_lon": 0.0, "bike_id": "38d033ca85d6c256f04971f1031b93a2", "is_disabled": 0, "is_reserved": 0}, {"rental_uris": {"ios": "https://dc.lft.to/lastmile_qr_scan", "android": "https://dc.lft.to/lastmile_qr_scan"}, "lon": -77.073069, "type": "electric_scooter", "fusion_lat": 0.0, "lat": 38.9362665, "name": "b834773e6c063b402283e50a47a9b4ba", "fusion_lon": 0.0, "bike_id": "b834773e6c063b402283e50a47a9b4ba", "is_disabled": 0, "is_reserved": 0}, {"rental_uris": {"ios": "https://dc.lft.to/lastmile_qr_scan", "android": "https://dc.lft.to/lastmile_qr_scan"}, "lon": -77.00811383333334, "type": "electric_scooter", "fusion_lat": 0.0, "lat": 38.8765145, "name": "36eb03cb9b371d65cd7539467e86eee6", "fusion_lon": 0.0, "bike_id": "36eb03cb9b371d65cd7539467e86eee6", "is_disabled": 0, "is_reserved": 0}, {"rental_uris": {"ios": "https://dc.lft.to/lastmile_qr_scan", "android": "https://dc.lft.to/lastmile_qr_scan"}, "lon": -77.11222233333334, "type": "electric_bike", "fusion_lat": 0.0, "lat": 38.82867183333333, "name": "0eea05ed793dd4df3703914a0f3e8962", "fusion_lon": 0.0, "bike_id": "0eea05ed793dd4df3703914a0f3e8962", "is_disabled": 0, "is_reserved": 0}, {"rental_uris": {"ios": "https://dc.lft.to/lastmile_qr_scan", "android": "https://dc.lft.to/lastmile_qr_scan"}, "lon": -77.0269855, "type": "electric_scooter", "fusion_lat": 0.0, "lat": 38.908378, "name": "9553ac79dde0b3e9fe95be127cde4c68", "fusion_lon": 0.0, "bike_id": "9553ac79dde0b3e9fe95be127cde4c68", "is_disabled": 0, "is_reserved": 0}, {"rental_uris": {"ios": "https://dc.lft.to/lastmile_qr_scan", "android": "https://dc.lft.to/lastmile_qr_scan"}, "lon": -77.02736816666666, "type": "electric_scooter", "fusion_lat": 0.0, "lat": 38.881521166666666, "name": "bae0749d692e78e4dc2f87f8f04a39a8", "fusion_lon": 0.0, "bike_id": "bae0749d692e78e4dc2f87f8f04a39a8", "is_disabled": 0, "is_reserved": 0}, {"rental_uris": {"ios": "https://dc.lft.to/lastmile_qr_scan", "android": "https://dc.lft.to/lastmile_qr_scan"}, "lon": -76.874977, "type": "electric_bike", "fusion_lat": 0.0, "lat": 38.990854166666665, "name": "ba49843b732f1cfe4486630998b62e00", "fusion_lon": 0.0, "bike_id": "ba49843b732f1cfe4486630998b62e00", "is_disabled": 0, "is_reserved": 0}, {"rental_uris": {"ios": "https://dc.lft.to/lastmile_qr_scan", "android": "https://dc.lft.to/lastmile_qr_scan"}, "lon": -77.02201416666666, "type": "electric_scooter", "fusion_lat": 0.0, "lat": 38.920964166666664, "name": "84c76206de9cb7396a4be056d102b045", "fusion_lon": 0.0, "bike_id": "84c76206de9cb7396a4be056d102b045", "is_disabled": 0, "is_reserved": 0}, {"rental_uris": {"ios": "https://dc.lft.to/lastmile_qr_scan", "android": "https://dc.lft.to/lastmile_qr_scan"}, "lon": -77.0237465, "type": "electric_scooter", "fusion_lat": 0.0, "lat": 38.903706166666666, "name": "e257403c4a1762c76d1ff44fc3f590b7", "fusion_lon": 0.0, "bike_id": "e257403c4a1762c76d1ff44fc3f590b7", "is_disabled": 0, "is_reserved": 0}, {"rental_uris": {"ios": "https://dc.lft.to/lastmile_qr_scan", "android": "https://dc.lft.to/lastmile_qr_scan"}, "lon": -77.05703566666666, "type": "electric_scooter", "fusion_lat": 0.0, "lat": 38.8996605, "name": "1a482f49de56a9f97be1a8e45c19b665", "fusion_lon": 0.0, "bike_id": "1a482f49de56a9f97be1a8e45c19b665", "is_disabled": 0, "is_reserved": 0}, {"rental_uris": {"ios": "https://dc.lft.to/lastmile_qr_scan", "android": "https://dc.lft.to/lastmile_qr_scan"}, "lon": -77.01083633333333, "type": "electric_scooter", "fusion_lat": 0.0, "lat": 38.8940165, "name": "f0926784b9d273d43faac7cfd637affb", "fusion_lon": 0.0, "bike_id": "f0926784b9d273d43faac7cfd637affb", "is_disabled": 0, "is_reserved": 0}, {"rental_uris": {"ios": "https://dc.lft.to/lastmile_qr_scan", "android": "https://dc.lft.to/lastmile_qr_scan"}, "lon": -77.001846, "type": "electric_scooter", "fusion_lat": 0.0, "lat": 38.87365783333333, "name": "2c59c97d41bcd0cb23de754d91c7b90c", "fusion_lon": 0.0, "bike_id": "2c59c97d41bcd0cb23de754d91c7b90c", "is_disabled": 0, "is_reserved": 0}, {"rental_uris": {"ios": "https://dc.lft.to/lastmile_qr_scan", "android": "https://dc.lft.to/lastmile_qr_scan"}, "lon": -77.04740666666666, "type": "electric_scooter", "fusion_lat": 0.0, "lat": 38.9176785, "name": "70848ebe4f85e607bbf618f84f5f2c2d", "fusion_lon": 0.0, "bike_id": "70848ebe4f85e607bbf618f84f5f2c2d", "is_disabled": 0, "is_reserved": 0}, {"rental_uris": {"ios": "https://dc.lft.to/lastmile_qr_scan", "android": "https://dc.lft.to/lastmile_qr_scan"}, "lon": -77.098727, "type": "electric_bike", "fusion_lat": 0.0, "lat": 38.85365483333333, "name": "55db4bcc495d7d18909c57d6b02fd46d", "fusion_lon": 0.0, "bike_id": "55db4bcc495d7d18909c57d6b02fd46d", "is_disabled": 0, "is_reserved": 0}, {"rental_uris": {"ios": "https://dc.lft.to/lastmile_qr_scan", "android": "https://dc.lft.to/lastmile_qr_scan"}, "lon": -77.00603916666667, "type": "electric_scooter", "fusion_lat": 0.0, "lat": 38.90622, "name": "d175373db67a14e4717a913d2006951a", "fusion_lon": 0.0, "bike_id": "d175373db67a14e4717a913d2006951a", "is_disabled": 0, "is_reserved": 0}, {"rental_uris": {"ios": "https://dc.lft.to/lastmile_qr_scan", "android": "https://dc.lft.to/lastmile_qr_scan"}, "lon": -77.02428766666667, "type": "electric_scooter", "fusion_lat": 0.0, "lat": 38.905561166666665, "name": "e2382713717a57a19a17f0e888b55d50", "fusion_lon": 0.0, "bike_id": "e2382713717a57a19a17f0e888b55d50", "is_disabled": 0, "is_reserved": 0}, {"rental_uris": {"ios": "https://dc.lft.to/lastmile_qr_scan", "android": "https://dc.lft.to/lastmile_qr_scan"}, "lon": -77.006041, "type": "electric_scooter", "fusion_lat": 0.0, "lat": 38.90564783333333, "name": "6e91b03a14e3660385217c0b93b60d17", "fusion_lon": 0.0, "bike_id": "6e91b03a14e3660385217c0b93b60d17", "is_disabled": 0, "is_reserved": 0}, {"rental_uris": {"ios": "https://dc.lft.to/lastmile_qr_scan", "android": "https://dc.lft.to/lastmile_qr_scan"}, "lon": -77.03262516666666, "type": "electric_scooter", "fusion_lat": 0.0, "lat": 38.936641333333334, "name": "59e27ccb09f88aa098d1236ff9ac392d", "fusion_lon": 0.0, "bike_id": "59e27ccb09f88aa098d1236ff9ac392d", "is_disabled": 0, "is_reserved": 0}, {"rental_uris": {"ios": "https://dc.lft.to/lastmile_qr_scan", "android": "https://dc.lft.to/lastmile_qr_scan"}, "lon": -77.06938666666667, "type": "electric_scooter", "fusion_lat": 0.0, "lat": 38.905043166666665, "name": "25ecea68c326ee93d303604d712d28c4", "fusion_lon": 0.0, "bike_id": "25ecea68c326ee93d303604d712d28c4", "is_disabled": 0, "is_reserved": 0}, {"rental_uris": {"ios": "https://dc.lft.to/lastmile_qr_scan", "android": "https://dc.lft.to/lastmile_qr_scan"}, "lon": -77.0217995, "type": "electric_scooter", "fusion_lat": 0.0, "lat": 38.89876066666667, "name": "abd82f30d7afb6575e324e950d089424", "fusion_lon": 0.0, "bike_id": "abd82f30d7afb6575e324e950d089424", "is_disabled": 0, "is_reserved": 0}, {"rental_uris": {"ios": "https://dc.lft.to/lastmile_qr_scan", "android": "https://dc.lft.to/lastmile_qr_scan"}, "lon": -77.04446766666666, "type": "electric_scooter", "fusion_lat": 0.0, "lat": 38.9101235, "name": "3cddaac730fb0e5fb21892dd3f6d89a6", "fusion_lon": 0.0, "bike_id": "3cddaac730fb0e5fb21892dd3f6d89a6", "is_disabled": 0, "is_reserved": 0}, {"rental_uris": {"ios": "https://dc.lft.to/lastmile_qr_scan", "android": "https://dc.lft.to/lastmile_qr_scan"}, "lon": -77.03679583333333, "type": "electric_scooter", "fusion_lat": 0.0, "lat": 38.9180375, "name": "0f2281072d6968468a14b99e5bfa92c7", "fusion_lon": 0.0, "bike_id": "0f2281072d6968468a14b99e5bfa92c7", "is_disabled": 0, "is_reserved": 0}, {"rental_uris": {"ios": "https://dc.lft.to/lastmile_qr_scan", "android": "https://dc.lft.to/lastmile_qr_scan"}, "lon": -77.04334766666666, "type": "electric_scooter", "fusion_lat": 0.0, "lat": 38.892243666666666, "name": "6d8131948ea5cacebc297636a0fe5f1f", "fusion_lon": 0.0, "bike_id": "6d8131948ea5cacebc297636a0fe5f1f", "is_disabled": 0, "is_reserved": 0}, {"rental_uris": {"ios": "https://dc.lft.to/lastmile_qr_scan", "android": "https://dc.lft.to/lastmile_qr_scan"}, "lon": -77.02496166666667, "type": "electric_scooter", "fusion_lat": 0.0, "lat": 38.93812366666667, "name": "c2611c388b1ad1c4c3c6872feb6fabbb", "fusion_lon": 0.0, "bike_id": "c2611c388b1ad1c4c3c6872feb6fabbb", "is_disabled": 0, "is_reserved": 0}, {"rental_uris": {"ios": "https://dc.lft.to/lastmile_qr_scan", "android": "https://dc.lft.to/lastmile_qr_scan"}, "lon": -77.03564966666667, "type": "electric_scooter", "fusion_lat": 0.0, "lat": 38.91706166666667, "name": "01ea71ebcdaff8dea9afd69be862d690", "fusion_lon": 0.0, "bike_id": "01ea71ebcdaff8dea9afd69be862d690", "is_disabled": 0, "is_reserved": 0}, {"rental_uris": {"ios": "https://dc.lft.to/lastmile_qr_scan", "android": "https://dc.lft.to/lastmile_qr_scan"}, "lon": -77.01996883333334, "type": "electric_scooter", "fusion_lat": 0.0, "lat": 38.897417833333336, "name": "6cdb8cd489e9fd5e0bb49dfbde61a9f7", "fusion_lon": 0.0, "bike_id": "6cdb8cd489e9fd5e0bb49dfbde61a9f7", "is_disabled": 0, "is_reserved": 0}, {"rental_uris": {"ios": "https://dc.lft.to/lastmile_qr_scan", "android": "https://dc.lft.to/lastmile_qr_scan"}, "lon": -76.99002333333334, "type": "electric_scooter", "fusion_lat": 0.0, "lat": 38.86500516666667, "name": "39d60bb58d8a31020e26e5bcb2711461", "fusion_lon": 0.0, "bike_id": "39d60bb58d8a31020e26e5bcb2711461", "is_disabled": 0, "is_reserved": 0}, {"rental_uris": {"ios": "https://dc.lft.to/lastmile_qr_scan", "android": "https://dc.lft.to/lastmile_qr_scan"}, "lon": -77.0126255, "type": "electric_bike", "fusion_lat": 0.0, "lat": 38.90375933333333, "name": "7ac34280445cb2de326b625da582f8f5", "fusion_lon": 0.0, "bike_id": "7ac34280445cb2de326b625da582f8f5", "is_disabled": 0, "is_reserved": 0}, {"rental_uris": {"ios": "https://dc.lft.to/lastmile_qr_scan", "android": "https://dc.lft.to/lastmile_qr_scan"}, "lon": -77.01560766666667, "type": "electric_scooter", "fusion_lat": 0.0, "lat": 38.88492216666667, "name": "9966d8fef3d2d12e03ffdd6c53c4d1e9", "fusion_lon": 0.0, "bike_id": "9966d8fef3d2d12e03ffdd6c53c4d1e9", "is_disabled": 0, "is_reserved": 0}, {"rental_uris": {"ios": "https://dc.lft.to/lastmile_qr_scan", "android": "https://dc.lft.to/lastmile_qr_scan"}, "lon": -77.01377366666667, "type": "electric_scooter", "fusion_lat": 0.0, "lat": 38.8695665, "name": "05806b9b4fd9c662422e1281d794c749", "fusion_lon": 0.0, "bike_id": "05806b9b4fd9c662422e1281d794c749", "is_disabled": 0, "is_reserved": 0}, {"rental_uris": {"ios": "https://dc.lft.to/lastmile_qr_scan", "android": "https://dc.lft.to/lastmile_qr_scan"}, "lon": -77.03053583333333, "type": "electric_scooter", "fusion_lat": 0.0, "lat": 38.89459033333333, "name": "cf20514af101d8923114df15da042219", "fusion_lon": 0.0, "bike_id": "cf20514af101d8923114df15da042219", "is_disabled": 0, "is_reserved": 0}, {"rental_uris": {"ios": "https://dc.lft.to/lastmile_qr_scan", "android": "https://dc.lft.to/lastmile_qr_scan"}, "lon": -77.01812483333333, "type": "electric_scooter", "fusion_lat": 0.0, "lat": 38.929618166666664, "name": "f223378b21c0bad999db1c2a48590faf", "fusion_lon": 0.0, "bike_id": "f223378b21c0bad999db1c2a48590faf", "is_disabled": 0, "is_reserved": 0}, {"rental_uris": {"ios": "https://dc.lft.to/lastmile_qr_scan", "android": "https://dc.lft.to/lastmile_qr_scan"}, "lon": -77.02746316666666, "type": "electric_scooter", "fusion_lat": 0.0, "lat": 38.90959433333333, "name": "97c412c5cd43312215fd3790da97829b", "fusion_lon": 0.0, "bike_id": "97c412c5cd43312215fd3790da97829b", "is_disabled": 0, "is_reserved": 0}, {"rental_uris": {"ios": "https://dc.lft.to/lastmile_qr_scan", "android": "https://dc.lft.to/lastmile_qr_scan"}, "lon": -77.0181955, "type": "electric_scooter", "fusion_lat": 0.0, "lat": 38.905579333333336, "name": "e74d12fd898ff8f657e6a2952675b4d7", "fusion_lon": 0.0, "bike_id": "e74d12fd898ff8f657e6a2952675b4d7", "is_disabled": 0, "is_reserved": 0}, {"rental_uris": {"ios": "https://dc.lft.to/lastmile_qr_scan", "android": "https://dc.lft.to/lastmile_qr_scan"}, "lon": -76.98511133333334, "type": "electric_scooter", "fusion_lat": 0.0, "lat": 38.900786333333336, "name": "3599bbbbe74a200fc4a35395d4e5d764", "fusion_lon": 0.0, "bike_id": "3599bbbbe74a200fc4a35395d4e5d764", "is_disabled": 0, "is_reserved": 0}, {"rental_uris": {"ios": "https://dc.lft.to/lastmile_qr_scan", "android": "https://dc.lft.to/lastmile_qr_scan"}, "lon": -77.047616, "type": "electric_scooter", "fusion_lat": 0.0, "lat": 38.897322333333335, "name": "2753250a6115d29e4a10ae11f68c576f", "fusion_lon": 0.0, "bike_id": "2753250a6115d29e4a10ae11f68c576f", "is_disabled": 0, "is_reserved": 0}, {"rental_uris": {"ios": "https://dc.lft.to/lastmile_qr_scan", "android": "https://dc.lft.to/lastmile_qr_scan"}, "lon": -77.0435155, "type": "electric_scooter", "fusion_lat": 0.0, "lat": 38.915933833333334, "name": "c5c7bb6c487e6d026dc1ea32d1ea6b32", "fusion_lon": 0.0, "bike_id": "c5c7bb6c487e6d026dc1ea32d1ea6b32", "is_disabled": 0, "is_reserved": 0}, {"rental_uris": {"ios": "https://dc.lft.to/lastmile_qr_scan", "android": "https://dc.lft.to/lastmile_qr_scan"}, "lon": -77.03834383333333, "type": "electric_scooter", "fusion_lat": 0.0, "lat": 38.907765, "name": "7e5334b7fdaaf3852410947249860fd1", "fusion_lon": 0.0, "bike_id": "7e5334b7fdaaf3852410947249860fd1", "is_disabled": 0, "is_reserved": 0}, {"rental_uris": {"ios": "https://dc.lft.to/lastmile_qr_scan", "android": "https://dc.lft.to/lastmile_qr_scan"}, "lon": -77.13093266666667, "type": "electric_bike", "fusion_lat": 0.0, "lat": 38.86158016666667, "name": "5559126408c8e4098d1d0d5d2687e1d1", "fusion_lon": 0.0, "bike_id": "5559126408c8e4098d1d0d5d2687e1d1", "is_disabled": 0, "is_reserved": 0}, {"rental_uris": {"ios": "https://dc.lft.to/lastmile_qr_scan", "android": "https://dc.lft.to/lastmile_qr_scan"}, "lon": -77.008058, "type": "electric_scooter", "fusion_lat": 0.0, "lat": 38.913983333333334, "name": "405201a3f3df8a04015a47a2b5295828", "fusion_lon": 0.0, "bike_id": "405201a3f3df8a04015a47a2b5295828", "is_disabled": 0, "is_reserved": 0}, {"rental_uris": {"ios": "https://dc.lft.to/lastmile_qr_scan", "android": "https://dc.lft.to/lastmile_qr_scan"}, "lon": -77.0227795, "type": "electric_scooter", "fusion_lat": 0.0, "lat": 38.878409833333336, "name": "76a47d71d8fcaa7b57dfe5cf7b557dc5", "fusion_lon": 0.0, "bike_id": "76a47d71d8fcaa7b57dfe5cf7b557dc5", "is_disabled": 0, "is_reserved": 0}, {"rental_uris": {"ios": "https://dc.lft.to/lastmile_qr_scan", "android": "https://dc.lft.to/lastmile_qr_scan"}, "lon": -77.03639983333333, "type": "electric_scooter", "fusion_lat": 0.0, "lat": 38.91732433333333, "name": "14c85ba04a2eb42a58bb01d5dea24a0c", "fusion_lon": 0.0, "bike_id": "14c85ba04a2eb42a58bb01d5dea24a0c", "is_disabled": 0, "is_reserved": 0}, {"rental_uris": {"ios": "https://dc.lft.to/lastmile_qr_scan", "android": "https://dc.lft.to/lastmile_qr_scan"}, "lon": -77.002315, "type": "electric_scooter", "fusion_lat": 0.0, "lat": 38.913274, "name": "c178ecc07205cfe503f3818a79e21b54", "fusion_lon": 0.0, "bike_id": "c178ecc07205cfe503f3818a79e21b54", "is_disabled": 0, "is_reserved": 0}, {"rental_uris": {"ios": "https://dc.lft.to/lastmile_qr_scan", "android": "https://dc.lft.to/lastmile_qr_scan"}, "lon": -77.0265755, "type": "electric_scooter", "fusion_lat": 0.0, "lat": 38.921819, "name": "8682cac524978d2f8609c9836657412d", "fusion_lon": 0.0, "bike_id": "8682cac524978d2f8609c9836657412d", "is_disabled": 0, "is_reserved": 0}, {"rental_uris": {"ios": "https://dc.lft.to/lastmile_qr_scan", "android": "https://dc.lft.to/lastmile_qr_scan"}, "lon": -77.09165266666666, "type": "electric_bike", "fusion_lat": 0.0, "lat": 38.9675675, "name": "8d200325bdafd1d27cbdfdd9f6a33a6c", "fusion_lon": 0.0, "bike_id": "8d200325bdafd1d27cbdfdd9f6a33a6c", "is_disabled": 0, "is_reserved": 0}, {"rental_uris": {"ios": "https://dc.lft.to/lastmile_qr_scan", "android": "https://dc.lft.to/lastmile_qr_scan"}, "lon": -77.03857416666666, "type": "electric_bike", "fusion_lat": 0.0, "lat": 38.912042, "name": "0f84c70cf5f85fb25814dcff3af0b9ca", "fusion_lon": 0.0, "bike_id": "0f84c70cf5f85fb25814dcff3af0b9ca", "is_disabled": 0, "is_reserved": 0}, {"rental_uris": {"ios": "https://dc.lft.to/lastmile_qr_scan", "android": "https://dc.lft.to/lastmile_qr_scan"}, "lon": -77.02320683333333, "type": "electric_scooter", "fusion_lat": 0.0, "lat": 38.883419333333336, "name": "fd1d61548b62ad37ebd132d2fb02ba98", "fusion_lon": 0.0, "bike_id": "fd1d61548b62ad37ebd132d2fb02ba98", "is_disabled": 0, "is_reserved": 0}, {"rental_uris": {"ios": "https://dc.lft.to/lastmile_qr_scan", "android": "https://dc.lft.to/lastmile_qr_scan"}, "lon": -77.03218666666666, "type": "electric_scooter", "fusion_lat": 0.0, "lat": 38.916158833333334, "name": "c93862f593681a91583511a732a34051", "fusion_lon": 0.0, "bike_id": "c93862f593681a91583511a732a34051", "is_disabled": 0, "is_reserved": 0}, {"rental_uris": {"ios": "https://dc.lft.to/lastmile_qr_scan", "android": "https://dc.lft.to/lastmile_qr_scan"}, "lon": -76.94672033333333, "type": "electric_scooter", "fusion_lat": 0.0, "lat": 38.9033625, "name": "62b7171208cb6041c784a6a5edb6418a", "fusion_lon": 0.0, "bike_id": "62b7171208cb6041c784a6a5edb6418a", "is_disabled": 0, "is_reserved": 0}, {"rental_uris": {"ios": "https://dc.lft.to/lastmile_qr_scan", "android": "https://dc.lft.to/lastmile_qr_scan"}, "lon": -77.02381633333333, "type": "electric_scooter", "fusion_lat": 0.0, "lat": 38.898107333333336, "name": "deedf5f77d7a3b6024d9c97d4a4356d3", "fusion_lon": 0.0, "bike_id": "deedf5f77d7a3b6024d9c97d4a4356d3", "is_disabled": 0, "is_reserved": 0}, {"rental_uris": {"ios": "https://dc.lft.to/lastmile_qr_scan", "android": "https://dc.lft.to/lastmile_qr_scan"}, "lon": -77.04286716666667, "type": "electric_scooter", "fusion_lat": 0.0, "lat": 38.90784383333333, "name": "8f38ebd42d24659bb5573e48a9e01c02", "fusion_lon": 0.0, "bike_id": "8f38ebd42d24659bb5573e48a9e01c02", "is_disabled": 0, "is_reserved": 0}, {"rental_uris": {"ios": "https://dc.lft.to/lastmile_qr_scan", "android": "https://dc.lft.to/lastmile_qr_scan"}, "lon": -76.99359683333333, "type": "electric_scooter", "fusion_lat": 0.0, "lat": 38.900352, "name": "4801d213557f07be019637d0ec04063a", "fusion_lon": 0.0, "bike_id": "4801d213557f07be019637d0ec04063a", "is_disabled": 0, "is_reserved": 0}, {"rental_uris": {"ios": "https://dc.lft.to/lastmile_qr_scan", "android": "https://dc.lft.to/lastmile_qr_scan"}, "lon": -76.95763616666666, "type": "electric_bike", "fusion_lat": 0.0, "lat": 38.884208, "name": "05e191af58309e0a9406cb7823f685bf", "fusion_lon": 0.0, "bike_id": "05e191af58309e0a9406cb7823f685bf", "is_disabled": 0, "is_reserved": 0}, {"rental_uris": {"ios": "https://dc.lft.to/lastmile_qr_scan", "android": "https://dc.lft.to/lastmile_qr_scan"}, "lon": -76.87825166666667, "type": "electric_bike", "fusion_lat": 0.0, "lat": 38.992286, "name": "cb513ed363416dcc3ccb230f44f9c22d", "fusion_lon": 0.0, "bike_id": "cb513ed363416dcc3ccb230f44f9c22d", "is_disabled": 0, "is_reserved": 0}, {"rental_uris": {"ios": "https://dc.lft.to/lastmile_qr_scan", "android": "https://dc.lft.to/lastmile_qr_scan"}, "lon": -77.05041583333333, "type": "electric_scooter", "fusion_lat": 0.0, "lat": 38.923609666666664, "name": "4b40dde0311ee341761eaf85274145cd", "fusion_lon": 0.0, "bike_id": "4b40dde0311ee341761eaf85274145cd", "is_disabled": 0, "is_reserved": 0}, {"rental_uris": {"ios": "https://dc.lft.to/lastmile_qr_scan", "android": "https://dc.lft.to/lastmile_qr_scan"}, "lon": -76.99515466666666, "type": "electric_scooter", "fusion_lat": 0.0, "lat": 38.89482816666667, "name": "0f2dda327d3ca8f3be95e9c3fa98b518", "fusion_lon": 0.0, "bike_id": "0f2dda327d3ca8f3be95e9c3fa98b518", "is_disabled": 0, "is_reserved": 0}, {"rental_uris": {"ios": "https://dc.lft.to/lastmile_qr_scan", "android": "https://dc.lft.to/lastmile_qr_scan"}, "lon": -77.0719175, "type": "electric_bike", "fusion_lat": 0.0, "lat": 38.905143, "name": "71b3b0fde5926989ac2aecd852800037", "fusion_lon": 0.0, "bike_id": "71b3b0fde5926989ac2aecd852800037", "is_disabled": 0, "is_reserved": 0}, {"rental_uris": {"ios": "https://dc.lft.to/lastmile_qr_scan", "android": "https://dc.lft.to/lastmile_qr_scan"}, "lon": -77.0184195, "type": "electric_scooter", "fusion_lat": 0.0, "lat": 38.9148425, "name": "dc7280d85b0eb953ddb71e0fb207f99c", "fusion_lon": 0.0, "bike_id": "dc7280d85b0eb953ddb71e0fb207f99c", "is_disabled": 0, "is_reserved": 0}, {"rental_uris": {"ios": "https://dc.lft.to/lastmile_qr_scan", "android": "https://dc.lft.to/lastmile_qr_scan"}, "lon": -76.97653316666667, "type": "electric_scooter", "fusion_lat": 0.0, "lat": 38.89850666666667, "name": "3213e460f0e414686f60bc307fc586f2", "fusion_lon": 0.0, "bike_id": "3213e460f0e414686f60bc307fc586f2", "is_disabled": 0, "is_reserved": 0}, {"rental_uris": {"ios": "https://dc.lft.to/lastmile_qr_scan", "android": "https://dc.lft.to/lastmile_qr_scan"}, "lon": -77.017537, "type": "electric_scooter", "fusion_lat": 0.0, "lat": 38.883077166666666, "name": "5978ed9a57876394c50e7db2ee46b6c7", "fusion_lon": 0.0, "bike_id": "5978ed9a57876394c50e7db2ee46b6c7", "is_disabled": 0, "is_reserved": 0}, {"rental_uris": {"ios": "https://dc.lft.to/lastmile_qr_scan", "android": "https://dc.lft.to/lastmile_qr_scan"}, "lon": -77.01665366666667, "type": "electric_scooter", "fusion_lat": 0.0, "lat": 38.8829695, "name": "c3bd77b31a3c74d47e6e0f65c83caa13", "fusion_lon": 0.0, "bike_id": "c3bd77b31a3c74d47e6e0f65c83caa13", "is_disabled": 0, "is_reserved": 0}, {"rental_uris": {"ios": "https://dc.lft.to/lastmile_qr_scan", "android": "https://dc.lft.to/lastmile_qr_scan"}, "lon": -77.03903483333333, "type": "electric_scooter", "fusion_lat": 0.0, "lat": 38.932672333333336, "name": "712b714f23669dc5583ff1ae373c860a", "fusion_lon": 0.0, "bike_id": "712b714f23669dc5583ff1ae373c860a", "is_disabled": 0, "is_reserved": 0}, {"rental_uris": {"ios": "https://dc.lft.to/lastmile_qr_scan", "android": "https://dc.lft.to/lastmile_qr_scan"}, "lon": -77.03264433333334, "type": "electric_scooter", "fusion_lat": 0.0, "lat": 38.935191833333334, "name": "bbc7a33ebd0fb78c8c2979996baf7650", "fusion_lon": 0.0, "bike_id": "bbc7a33ebd0fb78c8c2979996baf7650", "is_disabled": 0, "is_reserved": 0}, {"rental_uris": {"ios": "https://dc.lft.to/lastmile_qr_scan", "android": "https://dc.lft.to/lastmile_qr_scan"}, "lon": -77.01581566666667, "type": "electric_scooter", "fusion_lat": 0.0, "lat": 38.88488316666667, "name": "27fa836a8b5dc081fe6cd4f4ed0e5acc", "fusion_lon": 0.0, "bike_id": "27fa836a8b5dc081fe6cd4f4ed0e5acc", "is_disabled": 0, "is_reserved": 0}, {"rental_uris": {"ios": "https://dc.lft.to/lastmile_qr_scan", "android": "https://dc.lft.to/lastmile_qr_scan"}, "lon": -77.0035675, "type": "electric_scooter", "fusion_lat": 0.0, "lat": 38.89746016666667, "name": "ce438cb5a7d9dd25d3a5821b269419b5", "fusion_lon": 0.0, "bike_id": "ce438cb5a7d9dd25d3a5821b269419b5", "is_disabled": 0, "is_reserved": 0}, {"rental_uris": {"ios": "https://dc.lft.to/lastmile_qr_scan", "android": "https://dc.lft.to/lastmile_qr_scan"}, "lon": -76.98803583333333, "type": "electric_scooter", "fusion_lat": 0.0, "lat": 38.85152683333333, "name": "16f0ebebd46941d91b678fd77ad67475", "fusion_lon": 0.0, "bike_id": "16f0ebebd46941d91b678fd77ad67475", "is_disabled": 0, "is_reserved": 0}, {"rental_uris": {"ios": "https://dc.lft.to/lastmile_qr_scan", "android": "https://dc.lft.to/lastmile_qr_scan"}, "lon": -76.98655883333333, "type": "electric_scooter", "fusion_lat": 0.0, "lat": 38.8579945, "name": "dff1fa2e2c5746e7d7fcaf09afab8aec", "fusion_lon": 0.0, "bike_id": "dff1fa2e2c5746e7d7fcaf09afab8aec", "is_disabled": 0, "is_reserved": 0}, {"rental_uris": {"ios": "https://dc.lft.to/lastmile_qr_scan", "android": "https://dc.lft.to/lastmile_qr_scan"}, "lon": -77.02481666666667, "type": "electric_scooter", "fusion_lat": 0.0, "lat": 38.9381675, "name": "b26d390838469ac76ee3e4312b5494d4", "fusion_lon": 0.0, "bike_id": "b26d390838469ac76ee3e4312b5494d4", "is_disabled": 0, "is_reserved": 0}, {"rental_uris": {"ios": "https://dc.lft.to/lastmile_qr_scan", "android": "https://dc.lft.to/lastmile_qr_scan"}, "lon": -76.992047, "type": "electric_scooter", "fusion_lat": 0.0, "lat": 38.846750666666665, "name": "71b3e9d8b7f822ac731e16847144a40b", "fusion_lon": 0.0, "bike_id": "71b3e9d8b7f822ac731e16847144a40b", "is_disabled": 0, "is_reserved": 0}, {"rental_uris": {"ios": "https://dc.lft.to/lastmile_qr_scan", "android": "https://dc.lft.to/lastmile_qr_scan"}, "lon": -77.02239433333334, "type": "electric_scooter", "fusion_lat": 0.0, "lat": 38.962167, "name": "4d44da33f0c38d6069240813feed90e0", "fusion_lon": 0.0, "bike_id": "4d44da33f0c38d6069240813feed90e0", "is_disabled": 0, "is_reserved": 0}, {"rental_uris": {"ios": "https://dc.lft.to/lastmile_qr_scan", "android": "https://dc.lft.to/lastmile_qr_scan"}, "lon": -76.98093483333334, "type": "electric_scooter", "fusion_lat": 0.0, "lat": 38.857208666666665, "name": "f74c17c37b2f38728cb7c3fe2cd3fa6b", "fusion_lon": 0.0, "bike_id": "f74c17c37b2f38728cb7c3fe2cd3fa6b", "is_disabled": 0, "is_reserved": 0}, {"rental_uris": {"ios": "https://dc.lft.to/lastmile_qr_scan", "android": "https://dc.lft.to/lastmile_qr_scan"}, "lon": -77.03215266666666, "type": "electric_scooter", "fusion_lat": 0.0, "lat": 38.9161835, "name": "1ba56e9aff5b97f03e6631d56d67d8b8", "fusion_lon": 0.0, "bike_id": "1ba56e9aff5b97f03e6631d56d67d8b8", "is_disabled": 0, "is_reserved": 0}, {"rental_uris": {"ios": "https://dc.lft.to/lastmile_qr_scan", "android": "https://dc.lft.to/lastmile_qr_scan"}, "lon": -77.06402733333333, "type": "electric_bike", "fusion_lat": 0.0, "lat": 38.84346083333333, "name": "153719ff3d6089ea3b6fd92ba4860ee8", "fusion_lon": 0.0, "bike_id": "153719ff3d6089ea3b6fd92ba4860ee8", "is_disabled": 0, "is_reserved": 0}, {"rental_uris": {"ios": "https://dc.lft.to/lastmile_qr_scan", "android": "https://dc.lft.to/lastmile_qr_scan"}, "lon": -77.053876, "type": "electric_scooter", "fusion_lat": 0.0, "lat": 38.90253383333334, "name": "ff25283b78d9204c45c4a3b5a0d1bb39", "fusion_lon": 0.0, "bike_id": "ff25283b78d9204c45c4a3b5a0d1bb39", "is_disabled": 0, "is_reserved": 0}, {"rental_uris": {"ios": "https://dc.lft.to/lastmile_qr_scan", "android": "https://dc.lft.to/lastmile_qr_scan"}, "lon": -77.0319895, "type": "electric_scooter", "fusion_lat": 0.0, "lat": 38.899385333333335, "name": "eaf092ddd5a9691c760a63cb7a9aa9ee", "fusion_lon": 0.0, "bike_id": "eaf092ddd5a9691c760a63cb7a9aa9ee", "is_disabled": 0, "is_reserved": 0}, {"rental_uris": {"ios": "https://dc.lft.to/lastmile_qr_scan", "android": "https://dc.lft.to/lastmile_qr_scan"}, "lon": -76.988692, "type": "electric_scooter", "fusion_lat": 0.0, "lat": 38.832187, "name": "de884a4c19561bfddd025faa9c3f8604", "fusion_lon": 0.0, "bike_id": "de884a4c19561bfddd025faa9c3f8604", "is_disabled": 0, "is_reserved": 0}, {"rental_uris": {"ios": "https://dc.lft.to/lastmile_qr_scan", "android": "https://dc.lft.to/lastmile_qr_scan"}, "lon": -77.01690766666667, "type": "electric_bike", "fusion_lat": 0.0, "lat": 38.975091166666665, "name": "9690bb84cfd7dc30068e2b6b65aa2e66", "fusion_lon": 0.0, "bike_id": "9690bb84cfd7dc30068e2b6b65aa2e66", "is_disabled": 0, "is_reserved": 0}, {"rental_uris": {"ios": "https://dc.lft.to/lastmile_qr_scan", "android": "https://dc.lft.to/lastmile_qr_scan"}, "lon": -77.04267816666666, "type": "electric_scooter", "fusion_lat": 0.0, "lat": 38.895837, "name": "db4ad731935bb5e34f2bb8fefeeaf5f2", "fusion_lon": 0.0, "bike_id": "db4ad731935bb5e34f2bb8fefeeaf5f2", "is_disabled": 0, "is_reserved": 0}, {"rental_uris": {"ios": "https://dc.lft.to/lastmile_qr_scan", "android": "https://dc.lft.to/lastmile_qr_scan"}, "lon": -77.02600966666667, "type": "electric_scooter", "fusion_lat": 0.0, "lat": 38.90617816666666, "name": "66c52193ab979b6236ecbb7ca3ffedb2", "fusion_lon": 0.0, "bike_id": "66c52193ab979b6236ecbb7ca3ffedb2", "is_disabled": 0, "is_reserved": 0}, {"rental_uris": {"ios": "https://dc.lft.to/lastmile_qr_scan", "android": "https://dc.lft.to/lastmile_qr_scan"}, "lon": -77.00656683333334, "type": "electric_scooter", "fusion_lat": 0.0, "lat": 38.944625, "name": "da08337fa51d8b0f9430fa4caf1cc437", "fusion_lon": 0.0, "bike_id": "da08337fa51d8b0f9430fa4caf1cc437", "is_disabled": 0, "is_reserved": 0}, {"rental_uris": {"ios": "https://dc.lft.to/lastmile_qr_scan", "android": "https://dc.lft.to/lastmile_qr_scan"}, "lon": -76.9487975, "type": "electric_scooter", "fusion_lat": 0.0, "lat": 38.895006333333335, "name": "4f4ca7550ce1c60e5a285d8ea93a274f", "fusion_lon": 0.0, "bike_id": "4f4ca7550ce1c60e5a285d8ea93a274f", "is_disabled": 0, "is_reserved": 0}, {"rental_uris": {"ios": "https://dc.lft.to/lastmile_qr_scan", "android": "https://dc.lft.to/lastmile_qr_scan"}, "lon": -77.04354983333333, "type": "electric_scooter", "fusion_lat": 0.0, "lat": 38.915931666666665, "name": "66c7ab55bbfbbd592fabae33d2abbaa1", "fusion_lon": 0.0, "bike_id": "66c7ab55bbfbbd592fabae33d2abbaa1", "is_disabled": 0, "is_reserved": 0}, {"rental_uris": {"ios": "https://dc.lft.to/lastmile_qr_scan", "android": "https://dc.lft.to/lastmile_qr_scan"}, "lon": -77.1068745, "type": "electric_bike", "fusion_lat": 0.0, "lat": 38.93580166666667, "name": "c6537556711f36bb122ded14ee5284b9", "fusion_lon": 0.0, "bike_id": "c6537556711f36bb122ded14ee5284b9", "is_disabled": 0, "is_reserved": 0}, {"rental_uris": {"ios": "https://dc.lft.to/lastmile_qr_scan", "android": "https://dc.lft.to/lastmile_qr_scan"}, "lon": -77.0232255, "type": "electric_scooter", "fusion_lat": 0.0, "lat": 38.93053466666667, "name": "73687a7567275d8fd526e1a26382a9c3", "fusion_lon": 0.0, "bike_id": "73687a7567275d8fd526e1a26382a9c3", "is_disabled": 0, "is_reserved": 0}, {"rental_uris": {"ios": "https://dc.lft.to/lastmile_qr_scan", "android": "https://dc.lft.to/lastmile_qr_scan"}, "lon": -77.0668535, "type": "electric_scooter", "fusion_lat": 0.0, "lat": 38.9051075, "name": "b625cbed2c878cec03298dca3f9cdf71", "fusion_lon": 0.0, "bike_id": "b625cbed2c878cec03298dca3f9cdf71", "is_disabled": 0, "is_reserved": 0}, {"rental_uris": {"ios": "https://dc.lft.to/lastmile_qr_scan", "android": "https://dc.lft.to/lastmile_qr_scan"}, "lon": -77.0433235, "type": "electric_scooter", "fusion_lat": 0.0, "lat": 38.895771333333336, "name": "19b01aacb483402a8bcddf140975ccdb", "fusion_lon": 0.0, "bike_id": "19b01aacb483402a8bcddf140975ccdb", "is_disabled": 0, "is_reserved": 0}, {"rental_uris": {"ios": "https://dc.lft.to/lastmile_qr_scan", "android": "https://dc.lft.to/lastmile_qr_scan"}, "lon": -77.02933133333333, "type": "electric_scooter", "fusion_lat": 0.0, "lat": 38.900436, "name": "8b366fee63dbdd999480f502c4b27ae6", "fusion_lon": 0.0, "bike_id": "8b366fee63dbdd999480f502c4b27ae6", "is_disabled": 0, "is_reserved": 0}, {"rental_uris": {"ios": "https://dc.lft.to/lastmile_qr_scan", "android": "https://dc.lft.to/lastmile_qr_scan"}, "lon": -77.02113116666666, "type": "electric_scooter", "fusion_lat": 0.0, "lat": 38.91604316666667, "name": "6307fd85f91aa5bf8ddb357674826ba6", "fusion_lon": 0.0, "bike_id": "6307fd85f91aa5bf8ddb357674826ba6", "is_disabled": 0, "is_reserved": 0}, {"rental_uris": {"ios": "https://dc.lft.to/lastmile_qr_scan", "android": "https://dc.lft.to/lastmile_qr_scan"}, "lon": -77.03219783333333, "type": "electric_scooter", "fusion_lat": 0.0, "lat": 38.91192366666667, "name": "85a0130631ebcb20d1bc3e98fb6448b4", "fusion_lon": 0.0, "bike_id": "85a0130631ebcb20d1bc3e98fb6448b4", "is_disabled": 0, "is_reserved": 0}, {"rental_uris": {"ios": "https://dc.lft.to/lastmile_qr_scan", "android": "https://dc.lft.to/lastmile_qr_scan"}, "lon": -77.02390333333334, "type": "electric_scooter", "fusion_lat": 0.0, "lat": 38.9179015, "name": "20e22800f62d7d49922cc8bcd425c2b9", "fusion_lon": 0.0, "bike_id": "20e22800f62d7d49922cc8bcd425c2b9", "is_disabled": 0, "is_reserved": 0}, {"rental_uris": {"ios": "https://dc.lft.to/lastmile_qr_scan", "android": "https://dc.lft.to/lastmile_qr_scan"}, "lon": -77.04263733333333, "type": "electric_scooter", "fusion_lat": 0.0, "lat": 38.90283566666667, "name": "8887548257fd8a1574b9d270d4537cb2", "fusion_lon": 0.0, "bike_id": "8887548257fd8a1574b9d270d4537cb2", "is_disabled": 0, "is_reserved": 0}, {"rental_uris": {"ios": "https://dc.lft.to/lastmile_qr_scan", "android": "https://dc.lft.to/lastmile_qr_scan"}, "lon": -77.03270083333334, "type": "electric_scooter", "fusion_lat": 0.0, "lat": 38.92546266666667, "name": "6fc430997037959bccaac6ae8dcd8adb", "fusion_lon": 0.0, "bike_id": "6fc430997037959bccaac6ae8dcd8adb", "is_disabled": 0, "is_reserved": 0}, {"rental_uris": {"ios": "https://dc.lft.to/lastmile_qr_scan", "android": "https://dc.lft.to/lastmile_qr_scan"}, "lon": -77.0189155, "type": "electric_scooter", "fusion_lat": 0.0, "lat": 38.9131315, "name": "e9eb008c252a52462251df6df7079988", "fusion_lon": 0.0, "bike_id": "e9eb008c252a52462251df6df7079988", "is_disabled": 0, "is_reserved": 0}, {"rental_uris": {"ios": "https://dc.lft.to/lastmile_qr_scan", "android": "https://dc.lft.to/lastmile_qr_scan"}, "lon": -77.05178883333333, "type": "electric_scooter", "fusion_lat": 0.0, "lat": 38.924226833333336, "name": "27a1121da95e7e22eac0a8d7c67a21ae", "fusion_lon": 0.0, "bike_id": "27a1121da95e7e22eac0a8d7c67a21ae", "is_disabled": 0, "is_reserved": 0}, {"rental_uris": {"ios": "https://dc.lft.to/lastmile_qr_scan", "android": "https://dc.lft.to/lastmile_qr_scan"}, "lon": -77.02024983333334, "type": "electric_scooter", "fusion_lat": 0.0, "lat": 38.932464, "name": "c416bbbc314f77ae19dc4b7e2482eea8", "fusion_lon": 0.0, "bike_id": "c416bbbc314f77ae19dc4b7e2482eea8", "is_disabled": 0, "is_reserved": 0}, {"rental_uris": {"ios": "https://dc.lft.to/lastmile_qr_scan", "android": "https://dc.lft.to/lastmile_qr_scan"}, "lon": -77.04315916666667, "type": "electric_scooter", "fusion_lat": 0.0, "lat": 38.922036, "name": "ded7e131f42c8b65964f6aaf5aaa082e", "fusion_lon": 0.0, "bike_id": "ded7e131f42c8b65964f6aaf5aaa082e", "is_disabled": 0, "is_reserved": 0}, {"rental_uris": {"ios": "https://dc.lft.to/lastmile_qr_scan", "android": "https://dc.lft.to/lastmile_qr_scan"}, "lon": -77.03766666666667, "type": "electric_scooter", "fusion_lat": 0.0, "lat": 38.92480483333333, "name": "fc00209f972d7006ee3597ddedf7a769", "fusion_lon": 0.0, "bike_id": "fc00209f972d7006ee3597ddedf7a769", "is_disabled": 0, "is_reserved": 0}, {"rental_uris": {"ios": "https://dc.lft.to/lastmile_qr_scan", "android": "https://dc.lft.to/lastmile_qr_scan"}, "lon": -77.02468, "type": "electric_scooter", "fusion_lat": 0.0, "lat": 38.934013666666665, "name": "acf505b9068e782db89b8bbbded7dbf0", "fusion_lon": 0.0, "bike_id": "acf505b9068e782db89b8bbbded7dbf0", "is_disabled": 0, "is_reserved": 0}, {"rental_uris": {"ios": "https://dc.lft.to/lastmile_qr_scan", "android": "https://dc.lft.to/lastmile_qr_scan"}, "lon": -76.99780633333333, "type": "electric_scooter", "fusion_lat": 0.0, "lat": 38.84420583333333, "name": "41e4875a8a1a365ef533fd16d85dfb77", "fusion_lon": 0.0, "bike_id": "41e4875a8a1a365ef533fd16d85dfb77", "is_disabled": 0, "is_reserved": 0}, {"rental_uris": {"ios": "https://dc.lft.to/lastmile_qr_scan", "android": "https://dc.lft.to/lastmile_qr_scan"}, "lon": -76.99599566666667, "type": "electric_scooter", "fusion_lat": 0.0, "lat": 38.84536883333333, "name": "61f895ee480207605577c8a4695210f6", "fusion_lon": 0.0, "bike_id": "61f895ee480207605577c8a4695210f6", "is_disabled": 0, "is_reserved": 0}, {"rental_uris": {"ios": "https://dc.lft.to/lastmile_qr_scan", "android": "https://dc.lft.to/lastmile_qr_scan"}, "lon": -77.01535016666666, "type": "electric_scooter", "fusion_lat": 0.0, "lat": 38.90193983333333, "name": "cc86c61181cb3d09099869769cf81d0f", "fusion_lon": 0.0, "bike_id": "cc86c61181cb3d09099869769cf81d0f", "is_disabled": 0, "is_reserved": 0}, {"rental_uris": {"ios": "https://dc.lft.to/lastmile_qr_scan", "android": "https://dc.lft.to/lastmile_qr_scan"}, "lon": -77.00393666666666, "type": "electric_scooter", "fusion_lat": 0.0, "lat": 38.90801883333334, "name": "73c21244fef2c59a4149365c9b5d72de", "fusion_lon": 0.0, "bike_id": "73c21244fef2c59a4149365c9b5d72de", "is_disabled": 0, "is_reserved": 0}, {"rental_uris": {"ios": "https://dc.lft.to/lastmile_qr_scan", "android": "https://dc.lft.to/lastmile_qr_scan"}, "lon": -77.0384515, "type": "electric_scooter", "fusion_lat": 0.0, "lat": 38.931067166666665, "name": "620d369d253e8a447507c67830badf33", "fusion_lon": 0.0, "bike_id": "620d369d253e8a447507c67830badf33", "is_disabled": 0, "is_reserved": 0}, {"rental_uris": {"ios": "https://dc.lft.to/lastmile_qr_scan", "android": "https://dc.lft.to/lastmile_qr_scan"}, "lon": -77.03865083333334, "type": "electric_scooter", "fusion_lat": 0.0, "lat": 38.90501416666667, "name": "0c3c1761396842108d6e3294605b8500", "fusion_lon": 0.0, "bike_id": "0c3c1761396842108d6e3294605b8500", "is_disabled": 0, "is_reserved": 0}, {"rental_uris": {"ios": "https://dc.lft.to/lastmile_qr_scan", "android": "https://dc.lft.to/lastmile_qr_scan"}, "lon": -77.005116, "type": "electric_scooter", "fusion_lat": 0.0, "lat": 38.90554866666667, "name": "d6b06435d767a2f2563da7fa4e723a70", "fusion_lon": 0.0, "bike_id": "d6b06435d767a2f2563da7fa4e723a70", "is_disabled": 0, "is_reserved": 0}, {"rental_uris": {"ios": "https://dc.lft.to/lastmile_qr_scan", "android": "https://dc.lft.to/lastmile_qr_scan"}, "lon": -77.03899383333334, "type": "electric_scooter", "fusion_lat": 0.0, "lat": 38.93263983333333, "name": "829eabef56607af55d61edc31a44a2fb", "fusion_lon": 0.0, "bike_id": "829eabef56607af55d61edc31a44a2fb", "is_disabled": 0, "is_reserved": 0}, {"rental_uris": {"ios": "https://dc.lft.to/lastmile_qr_scan", "android": "https://dc.lft.to/lastmile_qr_scan"}, "lon": -77.0271425, "type": "electric_scooter", "fusion_lat": 0.0, "lat": 38.9180095, "name": "f3c4e658a150a3d0d9775310f00d3818", "fusion_lon": 0.0, "bike_id": "f3c4e658a150a3d0d9775310f00d3818", "is_disabled": 0, "is_reserved": 0}, {"rental_uris": {"ios": "https://dc.lft.to/lastmile_qr_scan", "android": "https://dc.lft.to/lastmile_qr_scan"}, "lon": -76.98498516666666, "type": "electric_scooter", "fusion_lat": 0.0, "lat": 38.8604295, "name": "a536efe344a81bfc208786023c81edff", "fusion_lon": 0.0, "bike_id": "a536efe344a81bfc208786023c81edff", "is_disabled": 0, "is_reserved": 0}, {"rental_uris": {"ios": "https://dc.lft.to/lastmile_qr_scan", "android": "https://dc.lft.to/lastmile_qr_scan"}, "lon": -77.005372, "type": "electric_bike", "fusion_lat": 0.0, "lat": 38.88027666666667, "name": "ae81cbbe8cdc3510c32f50e9ec41b66c", "fusion_lon": 0.0, "bike_id": "ae81cbbe8cdc3510c32f50e9ec41b66c", "is_disabled": 0, "is_reserved": 0}, {"rental_uris": {"ios": "https://dc.lft.to/lastmile_qr_scan", "android": "https://dc.lft.to/lastmile_qr_scan"}, "lon": -77.02718883333333, "type": "electric_scooter", "fusion_lat": 0.0, "lat": 38.918114333333335, "name": "b99f3d39436f3a7db40d1c21bf9f15f0", "fusion_lon": 0.0, "bike_id": "b99f3d39436f3a7db40d1c21bf9f15f0", "is_disabled": 0, "is_reserved": 0}, {"rental_uris": {"ios": "https://dc.lft.to/lastmile_qr_scan", "android": "https://dc.lft.to/lastmile_qr_scan"}, "lon": -76.97322783333334, "type": "electric_bike", "fusion_lat": 0.0, "lat": 38.90320666666667, "name": "bc5412f83ab4396a215b50e89c1eb1ff", "fusion_lon": 0.0, "bike_id": "bc5412f83ab4396a215b50e89c1eb1ff", "is_disabled": 0, "is_reserved": 0}, {"rental_uris": {"ios": "https://dc.lft.to/lastmile_qr_scan", "android": "https://dc.lft.to/lastmile_qr_scan"}, "lon": -76.97884833333333, "type": "electric_scooter", "fusion_lat": 0.0, "lat": 38.90418416666667, "name": "60f27fd75d73fd96f161944e8e607bb5", "fusion_lon": 0.0, "bike_id": "60f27fd75d73fd96f161944e8e607bb5", "is_disabled": 0, "is_reserved": 0}, {"rental_uris": {"ios": "https://dc.lft.to/lastmile_qr_scan", "android": "https://dc.lft.to/lastmile_qr_scan"}, "lon": -76.98742783333333, "type": "electric_bike", "fusion_lat": 0.0, "lat": 38.857906166666666, "name": "5ebe2cd65607cd108496550ed8021d5d", "fusion_lon": 0.0, "bike_id": "5ebe2cd65607cd108496550ed8021d5d", "is_disabled": 0, "is_reserved": 0}, {"rental_uris": {"ios": "https://dc.lft.to/lastmile_qr_scan", "android": "https://dc.lft.to/lastmile_qr_scan"}, "lon": -77.0114305, "type": "electric_scooter", "fusion_lat": 0.0, "lat": 38.906423, "name": "c6c1ce022c9694f3a6754dbccbe108ee", "fusion_lon": 0.0, "bike_id": "c6c1ce022c9694f3a6754dbccbe108ee", "is_disabled": 0, "is_reserved": 0}, {"rental_uris": {"ios": "https://dc.lft.to/lastmile_qr_scan", "android": "https://dc.lft.to/lastmile_qr_scan"}, "lon": -77.03709933333333, "type": "electric_scooter", "fusion_lat": 0.0, "lat": 38.928320666666664, "name": "d9b2ea84fa70f2c6dcfd719cd4f58d6c", "fusion_lon": 0.0, "bike_id": "d9b2ea84fa70f2c6dcfd719cd4f58d6c", "is_disabled": 0, "is_reserved": 0}, {"rental_uris": {"ios": "https://dc.lft.to/lastmile_qr_scan", "android": "https://dc.lft.to/lastmile_qr_scan"}, "lon": -77.10090833333334, "type": "electric_bike", "fusion_lat": 0.0, "lat": 38.95955716666667, "name": "75b009a8c70638d4e66bdc57a2492505", "fusion_lon": 0.0, "bike_id": "75b009a8c70638d4e66bdc57a2492505", "is_disabled": 0, "is_reserved": 0}, {"rental_uris": {"ios": "https://dc.lft.to/lastmile_qr_scan", "android": "https://dc.lft.to/lastmile_qr_scan"}, "lon": -77.04541633333334, "type": "electric_scooter", "fusion_lat": 0.0, "lat": 38.913220833333334, "name": "a3690e837a6df77a964989ad32a3fcc5", "fusion_lon": 0.0, "bike_id": "a3690e837a6df77a964989ad32a3fcc5", "is_disabled": 0, "is_reserved": 0}, {"rental_uris": {"ios": "https://dc.lft.to/lastmile_qr_scan", "android": "https://dc.lft.to/lastmile_qr_scan"}, "lon": -76.9800685, "type": "electric_bike", "fusion_lat": 0.0, "lat": 38.85312866666666, "name": "cf02760e490930ff024809c7afdc99d2", "fusion_lon": 0.0, "bike_id": "cf02760e490930ff024809c7afdc99d2", "is_disabled": 0, "is_reserved": 0}, {"rental_uris": {"ios": "https://dc.lft.to/lastmile_qr_scan", "android": "https://dc.lft.to/lastmile_qr_scan"}, "lon": -77.068529, "type": "electric_scooter", "fusion_lat": 0.0, "lat": 38.9170235, "name": "72f824cee017c5598f6e4b54efda4447", "fusion_lon": 0.0, "bike_id": "72f824cee017c5598f6e4b54efda4447", "is_disabled": 0, "is_reserved": 0}, {"rental_uris": {"ios": "https://dc.lft.to/lastmile_qr_scan", "android": "https://dc.lft.to/lastmile_qr_scan"}, "lon": -76.9882745, "type": "electric_scooter", "fusion_lat": 0.0, "lat": 38.8802275, "name": "6559807606e86e030a98f221b33a82ef", "fusion_lon": 0.0, "bike_id": "6559807606e86e030a98f221b33a82ef", "is_disabled": 0, "is_reserved": 0}, {"rental_uris": {"ios": "https://dc.lft.to/lastmile_qr_scan", "android": "https://dc.lft.to/lastmile_qr_scan"}, "lon": -77.03510883333334, "type": "electric_scooter", "fusion_lat": 0.0, "lat": 38.931031, "name": "0c521f6a2a77a0c10fac87bcc18fa867", "fusion_lon": 0.0, "bike_id": "0c521f6a2a77a0c10fac87bcc18fa867", "is_disabled": 0, "is_reserved": 0}, {"rental_uris": {"ios": "https://dc.lft.to/lastmile_qr_scan", "android": "https://dc.lft.to/lastmile_qr_scan"}, "lon": -77.03582566666667, "type": "electric_scooter", "fusion_lat": 0.0, "lat": 38.94241383333333, "name": "ef7d33d9861f8b8e7cd95d1cf620225e", "fusion_lon": 0.0, "bike_id": "ef7d33d9861f8b8e7cd95d1cf620225e", "is_disabled": 0, "is_reserved": 0}, {"rental_uris": {"ios": "https://dc.lft.to/lastmile_qr_scan", "android": "https://dc.lft.to/lastmile_qr_scan"}, "lon": -77.06888616666667, "type": "electric_scooter", "fusion_lat": 0.0, "lat": 38.9050545, "name": "c2edda7d8dd28a345804d6bf2e8f6e45", "fusion_lon": 0.0, "bike_id": "c2edda7d8dd28a345804d6bf2e8f6e45", "is_disabled": 0, "is_reserved": 0}, {"rental_uris": {"ios": "https://dc.lft.to/lastmile_qr_scan", "android": "https://dc.lft.to/lastmile_qr_scan"}, "lon": -77.0493665, "type": "electric_scooter", "fusion_lat": 0.0, "lat": 38.908925333333336, "name": "5acb62769b55cde358699434a1a69c46", "fusion_lon": 0.0, "bike_id": "5acb62769b55cde358699434a1a69c46", "is_disabled": 0, "is_reserved": 0}, {"rental_uris": {"ios": "https://dc.lft.to/lastmile_qr_scan", "android": "https://dc.lft.to/lastmile_qr_scan"}, "lon": -77.01306666666666, "type": "electric_scooter", "fusion_lat": 0.0, "lat": 38.90183066666667, "name": "6d51ef50e10d866e82dab13c403dbb04", "fusion_lon": 0.0, "bike_id": "6d51ef50e10d866e82dab13c403dbb04", "is_disabled": 0, "is_reserved": 0}, {"rental_uris": {"ios": "https://dc.lft.to/lastmile_qr_scan", "android": "https://dc.lft.to/lastmile_qr_scan"}, "lon": -77.02172333333333, "type": "electric_scooter", "fusion_lat": 0.0, "lat": 38.898973833333336, "name": "ef6cc13e6836f2f3a091106bd68493fb", "fusion_lon": 0.0, "bike_id": "ef6cc13e6836f2f3a091106bd68493fb", "is_disabled": 0, "is_reserved": 0}, {"rental_uris": {"ios": "https://dc.lft.to/lastmile_qr_scan", "android": "https://dc.lft.to/lastmile_qr_scan"}, "lon": -77.0357485, "type": "electric_scooter", "fusion_lat": 0.0, "lat": 38.9273835, "name": "25e47b234f17e76b23baa30d2a93a7f8", "fusion_lon": 0.0, "bike_id": "25e47b234f17e76b23baa30d2a93a7f8", "is_disabled": 0, "is_reserved": 0}, {"rental_uris": {"ios": "https://dc.lft.to/lastmile_qr_scan", "android": "https://dc.lft.to/lastmile_qr_scan"}, "lon": -77.05696483333334, "type": "electric_scooter", "fusion_lat": 0.0, "lat": 38.90534516666666, "name": "220a6934e0d6275ca976308572ff16c7", "fusion_lon": 0.0, "bike_id": "220a6934e0d6275ca976308572ff16c7", "is_disabled": 0, "is_reserved": 0}, {"rental_uris": {"ios": "https://dc.lft.to/lastmile_qr_scan", "android": "https://dc.lft.to/lastmile_qr_scan"}, "lon": -76.987109, "type": "electric_scooter", "fusion_lat": 0.0, "lat": 38.902651166666665, "name": "caa86038740458ad02047771861cb787", "fusion_lon": 0.0, "bike_id": "caa86038740458ad02047771861cb787", "is_disabled": 0, "is_reserved": 0}, {"rental_uris": {"ios": "https://dc.lft.to/lastmile_qr_scan", "android": "https://dc.lft.to/lastmile_qr_scan"}, "lon": -77.17840466666667, "type": "electric_bike", "fusion_lat": 0.0, "lat": 39.08850966666667, "name": "6a3da5f872d3902a643dda1ad4bd6635", "fusion_lon": 0.0, "bike_id": "6a3da5f872d3902a643dda1ad4bd6635", "is_disabled": 0, "is_reserved": 0}, {"rental_uris": {"ios": "https://dc.lft.to/lastmile_qr_scan", "android": "https://dc.lft.to/lastmile_qr_scan"}, "lon": -76.98902316666667, "type": "electric_scooter", "fusion_lat": 0.0, "lat": 38.866922, "name": "ac8a7fbf99bafbac0ec1ff09a7135135", "fusion_lon": 0.0, "bike_id": "ac8a7fbf99bafbac0ec1ff09a7135135", "is_disabled": 0, "is_reserved": 0}, {"rental_uris": {"ios": "https://dc.lft.to/lastmile_qr_scan", "android": "https://dc.lft.to/lastmile_qr_scan"}, "lon": -77.02136466666667, "type": "electric_scooter", "fusion_lat": 0.0, "lat": 38.91597683333333, "name": "e99b1b8c5834a305f6b9a553eb07a486", "fusion_lon": 0.0, "bike_id": "e99b1b8c5834a305f6b9a553eb07a486", "is_disabled": 0, "is_reserved": 0}, {"rental_uris": {"ios": "https://dc.lft.to/lastmile_qr_scan", "android": "https://dc.lft.to/lastmile_qr_scan"}, "lon": -76.95065266666667, "type": "electric_bike", "fusion_lat": 0.0, "lat": 38.935164666666665, "name": "09999738346c1197455933d79b887d7e", "fusion_lon": 0.0, "bike_id": "09999738346c1197455933d79b887d7e", "is_disabled": 0, "is_reserved": 0}, {"rental_uris": {"ios": "https://dc.lft.to/lastmile_qr_scan", "android": "https://dc.lft.to/lastmile_qr_scan"}, "lon": -77.048871, "type": "electric_bike", "fusion_lat": 0.0, "lat": 38.901015666666666, "name": "070ba56ad15d67a3beae48ccbe70db0c", "fusion_lon": 0.0, "bike_id": "070ba56ad15d67a3beae48ccbe70db0c", "is_disabled": 0, "is_reserved": 0}, {"rental_uris": {"ios": "https://dc.lft.to/lastmile_qr_scan", "android": "https://dc.lft.to/lastmile_qr_scan"}, "lon": -77.04337233333334, "type": "electric_scooter", "fusion_lat": 0.0, "lat": 38.8922175, "name": "4a9d293dc22ef911b2fbcc55da4ccf76", "fusion_lon": 0.0, "bike_id": "4a9d293dc22ef911b2fbcc55da4ccf76", "is_disabled": 0, "is_reserved": 0}, {"rental_uris": {"ios": "https://dc.lft.to/lastmile_qr_scan", "android": "https://dc.lft.to/lastmile_qr_scan"}, "lon": -76.98705866666667, "type": "electric_scooter", "fusion_lat": 0.0, "lat": 38.86535833333333, "name": "7f88a9a3890ddb30a13d10ebd371c5be", "fusion_lon": 0.0, "bike_id": "7f88a9a3890ddb30a13d10ebd371c5be", "is_disabled": 0, "is_reserved": 0},