{"data": {"bikes": [{"lat": 38.930947333333336, "is_disabled": 0, "type": "electric_scooter", "lon": -77.031434, "bike_id": "3536dba3c151d42e757b82cef45c2cbb", "fusion_lat": 0.0, "name": "3536dba3c151d42e757b82cef45c2cbb", "is_reserved": 0, "rental_uris": {"android": "https://dc.lft.to/lastmile_qr_scan", "ios": "https://dc.lft.to/lastmile_qr_scan"}, "fusion_lon": 0.0}, {"lat": 38.939788166666666, "is_disabled": 0, "type": "electric_scooter", "lon": -77.02879983333334, "bike_id": "79db7cd8cf56aa4c004288cfcd4fabd8", "fusion_lat": 0.0, "name": "79db7cd8cf56aa4c004288cfcd4fabd8", "is_reserved": 0, "rental_uris": {"android": "https://dc.lft.to/lastmile_qr_scan", "ios": "https://dc.lft.to/lastmile_qr_scan"}, "fusion_lon": 0.0}, {"lat": 38.90692383333333, "is_disabled": 0, "type": "electric_bike", "lon": -77.03588133333334, "bike_id": "9bde303a1f8adda71a24ba873aceea86", "fusion_lat": 0.0, "name": "9bde303a1f8adda71a24ba873aceea86", "is_reserved": 0, "rental_uris": {"android": "https://dc.lft.to/lastmile_qr_scan", "ios": "https://dc.lft.to/lastmile_qr_scan"}, "fusion_lon": 0.0}, {"lat": 38.90380433333333, "is_disabled": 0, "type": "electric_scooter", "lon": -77.04439883333333, "bike_id": "f9c6e03c0c2740abdcb0435d6753561b", "fusion_lat": 0.0, "name": "f9c6e03c0c2740abdcb0435d6753561b", "is_reserved": 0, "rental_uris": {"android": "https://dc.lft.to/lastmile_qr_scan", "ios": "https://dc.lft.to/lastmile_qr_scan"}, "fusion_lon": 0.0}, {"lat": 38.9240435, "is_disabled": 0, "type": "electric_scooter", "lon": -77.02692316666666, "bike_id": "420eb1634010774f73db2bcbf148585f", "fusion_lat": 0.0, "name": "420eb1634010774f73db2bcbf148585f", "is_reserved": 0, "rental_uris": {"android": "https://dc.lft.to/lastmile_qr_scan", "ios": "https://dc.lft.to/lastmile_qr_scan"}, "fusion_lon": 0.0}, {"lat": 38.898425, "is_disabled": 0, "type": "electric_scooter", "lon": -77.0303175, "bike_id": "9731855000fc4048b828f0ed0ddfb87e", "fusion_lat": 0.0, "name": "9731855000fc4048b828f0ed0ddfb87e", "is_reserved": 0, "rental_uris": {"android": "https://dc.lft.to/lastmile_qr_scan", "ios": "https://dc.lft.to/lastmile_qr_scan"}, "fusion_lon": 0.0}, {"lat": 38.937445333333336, "is_disabled": 0, "type": "electric_scooter", "lon": -77.03617566666667, "bike_id": "d3494004db2fc65b70da19995499829a", "fusion_lat": 0.0, "name": "d3494004db2fc65b70da19995499829a", "is_reserved": 0, "rental_uris": {"android": "https://dc.lft.to/lastmile_qr_scan", "ios": "https://dc.lft.to/lastmile_qr_scan"}, "fusion_lon": 0.0}, {"lat": 38.916207666666665, "is_disabled": 0, "type": "electric_scooter", "lon": -77.03158433333333, "bike_id": "72eee984db78459b965ced4d67f2d868", "fusion_lat": 0.0, "name": "72eee984db78459b965ced4d67f2d868", "is_reserved": 0, "rental_uris": {"android": "https://dc.lft.to/lastmile_qr_scan", "ios": "https://dc.lft.to/lastmile_qr_scan"}, "fusion_lon": 0.0}, {"lat": 38.9409435, "is_disabled": 0, "type": "electric_scooter", "lon": -77.06129733333333, "bike_id": "818b970b9c4a3b1545f628279236e5f1", "fusion_lat": 0.0, "name": "818b970b9c4a3b1545f628279236e5f1", "is_reserved": 0, "rental_uris": {"android": "https://dc.lft.to/lastmile_qr_scan", "ios": "https://dc.lft.to/lastmile_qr_scan"}, "fusion_lon": 0.0}, {"lat": 38.9490575, "is_disabled": 0, "type": "electric_bike", "lon": -76.972364, "bike_id": "63e38516e29ea17712b40afc7e62f206", "fusion_lat": 0.0, "name": "63e38516e29ea17712b40afc7e62f206", "is_reserved": 0, "rental_uris": {"android": "https://dc.lft.to/lastmile_qr_scan", "ios": "https://dc.lft.to/lastmile_qr_scan"}, "fusion_lon": 0.0}, {"lat": 38.923434666666665, "is_disabled": 0, "type": "electric_scooter", "lon": -77.01909883333333, "bike_id": "5b2644a3bdc45f378073d112dd8c46f1", "fusion_lat": 0.0, "name": "5b2644a3bdc45f378073d112dd8c46f1", "is_reserved": 0, "rental_uris": {"android": "https://dc.lft.to/lastmile_qr_scan", "ios": "https://dc.lft.to/lastmile_qr_scan"}, "fusion_lon": 0.0}, {"lat": 38.883459333333334, "is_disabled": 0, "type": "electric_scooter", "lon": -77.0313895, "bike_id": "2818a5cfa50a9c1245447dabfd9c85f5", "fusion_lat": 0.0, "name": "2818a5cfa50a9c1245447dabfd9c85f5", "is_reserved": 0, "rental_uris": {"android": "https://dc.lft.to/lastmile_qr_scan", "ios": "https://dc.lft.to/lastmile_qr_scan"}, "fusion_lon": 0.0}, {"lat": 38.91113083333333, "is_disabled": 0, "type": "electric_scooter", "lon": -77.00233716666666, "bike_id": "b36a4281ec343ac6c50e4894ba53a56d", "fusion_lat": 0.0, "name": "b36a4281ec343ac6c50e4894ba53a56d", "is_reserved": 0, "rental_uris": {"android": "https://dc.lft.to/lastmile_qr_scan", "ios": "https://dc.lft.to/lastmile_qr_scan"}, "fusion_lon": 0.0}, {"lat": 38.8973165, "is_disabled": 0, "type": "electric_scooter", "lon": -77.05521933333333, "bike_id": "d2ba941ddfddc6a46163f954f7461a38", "fusion_lat": 0.0, "name": "d2ba941ddfddc6a46163f954f7461a38", "is_reserved": 0, "rental_uris": {"android": "https://dc.lft.to/lastmile_qr_scan", "ios": "https://dc.lft.to/lastmile_qr_scan"}, "fusion_lon": 0.0}, {"lat": 38.861059166666664, "is_disabled": 0, "type": "electric_scooter", "lon": -76.983545, "bike_id": "a3cd37983271796e665ffdf598694f3a", "fusion_lat": 0.0, "name": "a3cd37983271796e665ffdf598694f3a", "is_reserved": 0, "rental_uris": {"android": "https://dc.lft.to/lastmile_qr_scan", "ios": "https://dc.lft.to/lastmile_qr_scan"}, "fusion_lon": 0.0}, {"lat": 38.9101705, "is_disabled": 0, "type": "electric_scooter", "lon": -76.99384583333334, "bike_id": "cdd38a0d9ad4f642fa8e0fbb3a96b1ea", "fusion_lat": 0.0, "name": "cdd38a0d9ad4f642fa8e0fbb3a96b1ea", "is_reserved": 0, "rental_uris": {"android": "https://dc.lft.to/lastmile_qr_scan", "ios": "https://dc.lft.to/lastmile_qr_scan"}, "fusion_lon": 0.0}, {"lat": 38.9000895, "is_disabled": 0, "type": "electric_scooter", "lon": -77.00116933333334, "bike_id": "22eb7c927fbcad5f5dfce584d46bcdaa", "fusion_lat": 0.0, "name": "22eb7c927fbcad5f5dfce584d46bcdaa", "is_reserved": 0, "rental_uris": {"android": "https://dc.lft.to/lastmile_qr_scan", "ios": "https://dc.lft.to/lastmile_qr_scan"}, "fusion_lon": 0.0}, {"lat": 38.91422083333333, "is_disabled": 0, "type": "electric_scooter", "lon": -77.03814783333333, "bike_id": "4afe3453da7491b88819f79a8173aff5", "fusion_lat": 0.0, "name": "4afe3453da7491b88819f79a8173aff5", "is_reserved": 0, "rental_uris": {"android": "https://dc.lft.to/lastmile_qr_scan", "ios": "https://dc.lft.to/lastmile_qr_scan"}, "fusion_lon": 0.0}, {"lat": 38.900896333333336, "is_disabled": 0, "type": "electric_scooter", "lon": -77.04999266666667, "bike_id": "1064d6d07d21752904749574406f207a", "fusion_lat": 0.0, "name": "1064d6d07d21752904749574406f207a", "is_reserved": 0, "rental_uris": {"android": "https://dc.lft.to/lastmile_qr_scan", "ios": "https://dc.lft.to/lastmile_qr_scan"}, "fusion_lon": 0.0}, {"lat": 38.912708, "is_disabled": 0, "type": "electric_scooter", "lon": -77.00280883333333, "bike_id": "07fdabd54e2cbeeaab1d5fe01c6f8d54", "fusion_lat": 0.0, "name": "07fdabd54e2cbeeaab1d5fe01c6f8d54", "is_reserved": 0, "rental_uris": {"android": "https://dc.lft.to/lastmile_qr_scan", "ios": "https://dc.lft.to/lastmile_qr_scan"}, "fusion_lon": 0.0}, {"lat": 38.91339033333333, "is_disabled": 0, "type": "electric_scooter", "lon": -77.00224033333333, "bike_id": "a8c378cb4d70837f82278ba53600d757", "fusion_lat": 0.0, "name": "a8c378cb4d70837f82278ba53600d757", "is_reserved": 0, "rental_uris": {"android": "https://dc.lft.to/lastmile_qr_scan", "ios": "https://dc.lft.to/lastmile_qr_scan"}, "fusion_lon": 0.0}, {"lat": 38.900250666666665, "is_disabled": 0, "type": "electric_scooter", "lon": -76.9874095, "bike_id": "974179e18f51d59e3c5937177caf1147", "fusion_lat": 0.0, "name": "974179e18f51d59e3c5937177caf1147", "is_reserved": 0, "rental_uris": {"android": "https://dc.lft.to/lastmile_qr_scan", "ios": "https://dc.lft.to/lastmile_qr_scan"}, "fusion_lon": 0.0}, {"lat": 38.93104433333333, "is_disabled": 0, "type": "electric_scooter", "lon": -77.02452433333333, "bike_id": "717409ac23851dc9d2283043d91ee685", "fusion_lat": 0.0, "name": "717409ac23851dc9d2283043d91ee685", "is_reserved": 0, "rental_uris": {"android": "https://dc.lft.to/lastmile_qr_scan", "ios": "https://dc.lft.to/lastmile_qr_scan"}, "fusion_lon": 0.0}, {"lat": 38.92300566666667, "is_disabled": 0, "type": "electric_scooter", "lon": -77.03659266666666, "bike_id": "6a4c236404807697effa142faa111bd5", "fusion_lat": 0.0, "name": "6a4c236404807697effa142faa111bd5", "is_reserved": 0, "rental_uris": {"android": "https://dc.lft.to/lastmile_qr_scan", "ios": "https://dc.lft.to/lastmile_qr_scan"}, "fusion_lon": 0.0}, {"lat": 38.895011833333335, "is_disabled": 0, "type": "electric_scooter", "lon": -77.0112805, "bike_id": "ef9373b6c52aac1fc911be4502c3665e", "fusion_lat": 0.0, "name": "ef9373b6c52aac1fc911be4502c3665e", "is_reserved": 0, "rental_uris": {"android": "https://dc.lft.to/lastmile_qr_scan", "ios": "https://dc.lft.to/lastmile_qr_scan"}, "fusion_lon": 0.0}, {"lat": 38.97314733333333, "is_disabled": 0, "type": "electric_scooter", "lon": -77.0270895, "bike_id": "9e9f0ff1c568c187f0c6ba98c6ba99b7", "fusion_lat": 0.0, "name": "9e9f0ff1c568c187f0c6ba98c6ba99b7", "is_reserved": 0, "rental_uris": {"android": "https://dc.lft.to/lastmile_qr_scan", "ios": "https://dc.lft.to/lastmile_qr_scan"}, "fusion_lon": 0.0}, {"lat": 38.985022, "is_disabled": 0, "type": "electric_bike", "lon": -76.98202833333333, "bike_id": "8c9c631a63c1808501f0532db1b0b19a", "fusion_lat": 0.0, "name": "8c9c631a63c1808501f0532db1b0b19a", "is_reserved": 0, "rental_uris": {"android": "https://dc.lft.to/lastmile_qr_scan", "ios": "https://dc.lft.to/lastmile_qr_scan"}, "fusion_lon": 0.0}, {"lat": 38.8984505, "is_disabled": 0, "type": "electric_scooter", "lon": -77.03950633333334, "bike_id": "6c7322d7654570dc90d025ac8a8da5cb", "fusion_lat": 0.0, "name": "6c7322d7654570dc90d025ac8a8da5cb", "is_reserved": 0, "rental_uris": {"android": "https://dc.lft.to/lastmile_qr_scan", "ios": "https://dc.lft.to/lastmile_qr_scan"}, "fusion_lon": 0.0}, {"lat": 38.9388145, "is_disabled": 0, "type": "electric_scooter", "lon": -77.03285733333334, "bike_id": "d31943dcc62e609b468633c8ad80a156", "fusion_lat": 0.0, "name": "d31943dcc62e609b468633c8ad80a156", "is_reserved": 0, "rental_uris": {"android": "https://dc.lft.to/lastmile_qr_scan", "ios": "https://dc.lft.to/lastmile_qr_scan"}, "fusion_lon": 0.0}, {"lat": 38.82266683333334, "is_disabled": 0, "type": "electric_bike", "lon": -77.05820766666666, "bike_id": "36a3dcb5541ef712f07a581757486505", "fusion_lat": 0.0, "name": "36a3dcb5541ef712f07a581757486505", "is_reserved": 0, "rental_uris": {"android": "https://dc.lft.to/lastmile_qr_scan", "ios": "https://dc.lft.to/lastmile_qr_scan"}, "fusion_lon": 0.0}, {"lat": 38.859002, "is_disabled": 0, "type": "electric_scooter", "lon": -76.99433083333334, "bike_id": "0b0a76e5aee1f1cd6386111c61010b2a", "fusion_lat": 0.0, "name": "0b0a76e5aee1f1cd6386111c61010b2a", "is_reserved": 0, "rental_uris": {"android": "https://dc.lft.to/lastmile_qr_scan", "ios": "https://dc.lft.to/lastmile_qr_scan"}, "fusion_lon": 0.0}, {"lat": 38.90834266666667, "is_disabled": 0, "type": "electric_scooter", "lon": -76.99693083333334, "bike_id": "1380eedea1926c1f40169f64fd90f983", "fusion_lat": 0.0, "name": "1380eedea1926c1f40169f64fd90f983", "is_reserved": 0, "rental_uris": {"android": "https://dc.lft.to/lastmile_qr_scan", "ios": "https://dc.lft.to/lastmile_qr_scan"}, "fusion_lon": 0.0}, {"lat": 38.899618, "is_disabled": 0, "type": "electric_scooter", "lon": -77.02102533333333, "bike_id": "bed9a05ede788861319ed1c1179d0a85", "fusion_lat": 0.0, "name": "bed9a05ede788861319ed1c1179d0a85", "is_reserved": 0, "rental_uris": {"android": "https://dc.lft.to/lastmile_qr_scan", "ios": "https://dc.lft.to/lastmile_qr_scan"}, "fusion_lon": 0.0}, {"lat": 38.902336166666664, "is_disabled": 0, "type": "electric_scooter", "lon": -77.05341666666666, "bike_id": "eebcb8d0ac49b0ea38b9f3687ba37099", "fusion_lat": 0.0, "name": "eebcb8d0ac49b0ea38b9f3687ba37099", "is_reserved": 0, "rental_uris": {"android": "https://dc.lft.to/lastmile_qr_scan", "ios": "https://dc.lft.to/lastmile_qr_scan"}, "fusion_lon": 0.0}, {"lat": 38.89822366666667, "is_disabled": 0, "type": "electric_scooter", "lon": -77.03140616666667, "bike_id": "3d4c53d11ef7b644c401883866bfdb9f", "fusion_lat": 0.0, "name": "3d4c53d11ef7b644c401883866bfdb9f", "is_reserved": 0, "rental_uris": {"android": "https://dc.lft.to/lastmile_qr_scan", "ios": "https://dc.lft.to/lastmile_qr_scan"}, "fusion_lon": 0.0}, {"lat": 38.86997683333333, "is_disabled": 0, "type": "electric_bike", "lon": -76.95982433333333, "bike_id": "4cfa5e50d7c06237e7fda3c46c0902fb", "fusion_lat": 0.0, "name": "4cfa5e50d7c06237e7fda3c46c0902fb", "is_reserved": 0, "rental_uris": {"android": "https://dc.lft.to/lastmile_qr_scan", "ios": "https://dc.lft.to/lastmile_qr_scan"}, "fusion_lon": 0.0}, {"lat": 38.9079035, "is_disabled": 0, "type": "electric_scooter", "lon": -77.03666533333333, "bike_id": "3d569ec66bace89f11c72613f2d1289a", "fusion_lat": 0.0, "name": "3d569ec66bace89f11c72613f2d1289a", "is_reserved": 0, "rental_uris": {"android": "https://dc.lft.to/lastmile_qr_scan", "ios": "https://dc.lft.to/lastmile_qr_scan"}, "fusion_lon": 0.0}, {"lat": 38.90964483333333, "is_disabled": 0, "type": "electric_bike", "lon": -77.03564733333333, "bike_id": "cbbda445fef0aea949e4eff5a2282b12", "fusion_lat": 0.0, "name": "cbbda445fef0aea949e4eff5a2282b12", "is_reserved": 0, "rental_uris": {"android": "https://dc.lft.to/lastmile_qr_scan", "ios": "https://dc.lft.to/lastmile_qr_scan"}, "fusion_lon": 0.0}, {"lat": 38.88733166666667, "is_disabled": 0, "type": "electric_scooter", "lon": -77.032275, "bike_id": "7f78daf0335ef7f20297a074b76ab009", "fusion_lat": 0.0, "name": "7f78daf0335ef7f20297a074b76ab009", "is_reserved": 0, "rental_uris": {"android": "https://dc.lft.to/lastmile_qr_scan", "ios": "https://dc.lft.to/lastmile_qr_scan"}, "fusion_lon": 0.0}, {"lat": 38.86660583333333, "is_disabled": 0, "type": "electric_scooter", "lon": -76.990114, "bike_id": "c708d0477f6221289054886a33e59fb6", "fusion_lat": 0.0, "name": "c708d0477f6221289054886a33e59fb6", "is_reserved": 0, "rental_uris": {"android": "https://dc.lft.to/lastmile_qr_scan", "ios": "https://dc.lft.to/lastmile_qr_scan"}, "fusion_lon": 0.0}, {"lat": 38.90831566666667, "is_disabled": 0, "type": "electric_scooter", "lon": -76.94147766666667, "bike_id": "ae9914157f22deceb45f67a27be9d9af", "fusion_lat": 0.0, "name": "ae9914157f22deceb45f67a27be9d9af", "is_reserved": 0, "rental_uris": {"android": "https://dc.lft.to/lastmile_qr_scan", "ios": "https://dc.lft.to/lastmile_qr_scan"}, "fusion_lon": 0.0}, {"lat": 38.92158766666667, "is_disabled": 0, "type": "electric_scooter", "lon": -77.042253, "bike_id": "1f91d90542fc1f5f4289dd7f64b8c786", "fusion_lat": 0.0, "name": "1f91d90542fc1f5f4289dd7f64b8c786", "is_reserved": 0, "rental_uris": {"android": "https://dc.lft.to/lastmile_qr_scan", "ios": "https://dc.lft.to/lastmile_qr_scan"}, "fusion_lon": 0.0}, {"lat": 38.92481933333333, "is_disabled": 0, "type": "electric_scooter", "lon": -77.02723816666666, "bike_id": "f10705dec441ef2adf2d4208cda7742c", "fusion_lat": 0.0, "name": "f10705dec441ef2adf2d4208cda7742c", "is_reserved": 0, "rental_uris": {"android": "https://dc.lft.to/lastmile_qr_scan", "ios": "https://dc.lft.to/lastmile_qr_scan"}, "fusion_lon": 0.0}, {"lat": 38.91726116666667, "is_disabled": 0, "type": "electric_scooter", "lon": -77.040917, "bike_id": "8938007906f89b956702d0c50307b29e", "fusion_lat": 0.0, "name": "8938007906f89b956702d0c50307b29e", "is_reserved": 0, "rental_uris": {"android": "https://dc.lft.to/lastmile_qr_scan", "ios": "https://dc.lft.to/lastmile_qr_scan"}, "fusion_lon": 0.0}, {"lat": 38.915975333333336, "is_disabled": 0, "type": "electric_scooter", "lon": -77.02126333333334, "bike_id": "6ef0f8986019a9263b0e6af9c4bf411e", "fusion_lat": 0.0, "name": "6ef0f8986019a9263b0e6af9c4bf411e", "is_reserved": 0, "rental_uris": {"android": "https://dc.lft.to/lastmile_qr_scan", "ios": "https://dc.lft.to/lastmile_qr_scan"}, "fusion_lon": 0.0}, {"lat": 38.896257, "is_disabled": 0, "type": "electric_scooter", "lon": -77.02175433333333, "bike_id": "e41bf186d41fa52d6c7514b3e03eef19", "fusion_lat": 0.0, "name": "e41bf186d41fa52d6c7514b3e03eef19", "is_reserved": 0, "rental_uris": {"android": "https://dc.lft.to/lastmile_qr_scan", "ios": "https://dc.lft.to/lastmile_qr_scan"}, "fusion_lon": 0.0}, {"lat": 38.933570333333336, "is_disabled": 0, "type": "electric_scooter", "lon": -77.07175233333334, "bike_id": "be79a58474e6a431aedb361681bb9842", "fusion_lat": 0.0, "name": "be79a58474e6a431aedb361681bb9842", "is_reserved": 0, "rental_uris": {"android": "https://dc.lft.to/lastmile_qr_scan", "ios": "https://dc.lft.to/lastmile_qr_scan"}, "fusion_lon": 0.0}, {"lat": 38.8999365, "is_disabled": 0, "type": "electric_bike", "lon": -76.98115183333333, "bike_id": "342ee50f7df59392861dcaa54db1e3c7", "fusion_lat": 0.0, "name": "342ee50f7df59392861dcaa54db1e3c7", "is_reserved": 0, "rental_uris": {"android": "https://dc.lft.to/lastmile_qr_scan", "ios": "https://dc.lft.to/lastmile_qr_scan"}, "fusion_lon": 0.0}, {"lat": 38.9037495, "is_disabled": 0, "type": "electric_scooter", "lon": -77.02911383333333, "bike_id": "baff305b59e3c264cd594082d46f6b9c", "fusion_lat": 0.0, "name": "baff305b59e3c264cd594082d46f6b9c", "is_reserved": 0, "rental_uris": {"android": "https://dc.lft.to/lastmile_qr_scan", "ios": "https://dc.lft.to/lastmile_qr_scan"}, "fusion_lon": 0.0}, {"lat": 38.927582666666666, "is_disabled": 0, "type": "electric_scooter", "lon": -77.00593333333333, "bike_id": "fa87a6c418f3da59ca84d625893ef2b5", "fusion_lat": 0.0, "name": "fa87a6c418f3da59ca84d625893ef2b5", "is_reserved": 0, "rental_uris": {"android": "https://dc.lft.to/lastmile_qr_scan", "ios": "https://dc.lft.to/lastmile_qr_scan"}, "fusion_lon": 0.0}, {"lat": 38.933236666666666, "is_disabled": 0, "type": "electric_scooter", "lon": -77.029277, "bike_id": "f40fd307c2210411d2e059a923c3ccc4", "fusion_lat": 0.0, "name": "f40fd307c2210411d2e059a923c3ccc4", "is_reserved": 0, "rental_uris": {"android": "https://dc.lft.to/lastmile_qr_scan", "ios": "https://dc.lft.to/lastmile_qr_scan"}, "fusion_lon": 0.0}, {"lat": 38.90007416666667, "is_disabled": 0, "type": "electric_scooter", "lon": -76.92227833333334, "bike_id": "dd70a54f31bae756c7773e1d3290aa76", "fusion_lat": 0.0, "name": "dd70a54f31bae756c7773e1d3290aa76", "is_reserved": 0, "rental_uris": {"android": "https://dc.lft.to/lastmile_qr_scan", "ios": "https://dc.lft.to/lastmile_qr_scan"}, "fusion_lon": 0.0}, {"lat": 38.9096075, "is_disabled": 0, "type": "electric_scooter", "lon": -77.03472766666667, "bike_id": "c2082cd6ba212ac594de53e0a05d2aaa", "fusion_lat": 0.0, "name": "c2082cd6ba212ac594de53e0a05d2aaa", "is_reserved": 0, "rental_uris": {"android": "https://dc.lft.to/lastmile_qr_scan", "ios": "https://dc.lft.to/lastmile_qr_scan"}, "fusion_lon": 0.0}, {"lat": 38.962564666666665, "is_disabled": 0, "type": "electric_scooter", "lon": -77.03821983333333, "bike_id": "1f60a98a1328da4c1aab950caaa4f598", "fusion_lat": 0.0, "name": "1f60a98a1328da4c1aab950caaa4f598", "is_reserved": 0, "rental_uris": {"android": "https://dc.lft.to/lastmile_qr_scan", "ios": "https://dc.lft.to/lastmile_qr_scan"}, "fusion_lon": 0.0}, {"lat": 38.908521666666665, "is_disabled": 0, "type": "electric_scooter", "lon": -77.02406366666666, "bike_id": "319d39b43191b769e952da32da93f002", "fusion_lat": 0.0, "name": "319d39b43191b769e952da32da93f002", "is_reserved": 0, "rental_uris": {"android": "https://dc.lft.to/lastmile_qr_scan", "ios": "https://dc.lft.to/lastmile_qr_scan"}, "fusion_lon": 0.0}, {"lat": 38.913507333333335, "is_disabled": 0, "type": "electric_scooter", "lon": -77.03183616666666, "bike_id": "8925be788b38bf2ae78ba8dfad611fb5", "fusion_lat": 0.0, "name": "8925be788b38bf2ae78ba8dfad611fb5", "is_reserved": 0, "rental_uris": {"android": "https://dc.lft.to/lastmile_qr_scan", "ios": "https://dc.lft.to/lastmile_qr_scan"}, "fusion_lon": 0.0}, {"lat": 38.92329683333333, "is_disabled": 0, "type": "electric_scooter", "lon": -77.0357445, "bike_id": "7f9df4a3e911621a618cefb1fe995adf", "fusion_lat": 0.0, "name": "7f9df4a3e911621a618cefb1fe995adf", "is_reserved": 0, "rental_uris": {"android": "https://dc.lft.to/lastmile_qr_scan", "ios": "https://dc.lft.to/lastmile_qr_scan"}, "fusion_lon": 0.0}, {"lat": 38.92153866666666, "is_disabled": 0, "type": "electric_scooter", "lon": -76.96923666666666, "bike_id": "8ed85bc9793815f1d72c5ad5c83f658b", "fusion_lat": 0.0, "name": "8ed85bc9793815f1d72c5ad5c83f658b", "is_reserved": 0, "rental_uris": {"android": "https://dc.lft.to/lastmile_qr_scan", "ios": "https://dc.lft.to/lastmile_qr_scan"}, "fusion_lon": 0.0}, {"lat": 38.902924166666665, "is_disabled": 0, "type": "electric_scooter", "lon": -77.01741583333333, "bike_id": "fd1a00757e1e217492cfdc8d5b7dd544", "fusion_lat": 0.0, "name": "fd1a00757e1e217492cfdc8d5b7dd544", "is_reserved": 0, "rental_uris": {"android": "https://dc.lft.to/lastmile_qr_scan", "ios": "https://dc.lft.to/lastmile_qr_scan"}, "fusion_lon": 0.0}, {"lat": 38.9205875, "is_disabled": 0, "type": "electric_scooter", "lon": -77.02370933333333, "bike_id": "7851805e316c8f7d7ceb4875ea4ac0e2", "fusion_lat": 0.0, "name": "7851805e316c8f7d7ceb4875ea4ac0e2", "is_reserved": 0, "rental_uris": {"android": "https://dc.lft.to/lastmile_qr_scan", "ios": "https://dc.lft.to/lastmile_qr_scan"}, "fusion_lon": 0.0}, {"lat": 38.86166516666667, "is_disabled": 0, "type": "electric_bike", "lon": -76.95065983333333, "bike_id": "0ae6e91312387afbf568ce86ae0b0ead", "fusion_lat": 0.0, "name": "0ae6e91312387afbf568ce86ae0b0ead", "is_reserved": 0, "rental_uris": {"android": "https://dc.lft.to/lastmile_qr_scan", "ios": "https://dc.lft.to/lastmile_qr_scan"}, "fusion_lon": 0.0}, {"lat": 38.8969335, "is_disabled": 0, "type": "electric_scooter", "lon": -77.02416033333333, "bike_id": "0a7f06f7cf165d0476048231ccfadbaf", "fusion_lat": 0.0, "name": "0a7f06f7cf165d0476048231ccfadbaf", "is_reserved": 0, "rental_uris": {"android": "https://dc.lft.to/lastmile_qr_scan", "ios": "https://dc.lft.to/lastmile_qr_scan"}, "fusion_lon": 0.0}, {"lat": 38.88767966666666, "is_disabled": 0, "type": "electric_scooter", "lon": -76.9559825, "bike_id": "1c2897cf26cebac5cebabdf23e6a4c2c", "fusion_lat": 0.0, "name": "1c2897cf26cebac5cebabdf23e6a4c2c", "is_reserved": 0, "rental_uris": {"android": "https://dc.lft.to/lastmile_qr_scan", "ios": "https://dc.lft.to/lastmile_qr_scan"}, "fusion_lon": 0.0}, {"lat": 38.89225316666667, "is_disabled": 0, "type": "electric_scooter", "lon": -77.04862716666666, "bike_id": "2a907c08c3ff317a843cf55f8634daf3", "fusion_lat": 0.0, "name": "2a907c08c3ff317a843cf55f8634daf3", "is_reserved": 0, "rental_uris": {"android": "https://dc.lft.to/lastmile_qr_scan", "ios": "https://dc.lft.to/lastmile_qr_scan"}, "fusion_lon": 0.0}, {"lat": 38.89227616666667, "is_disabled": 0, "type": "electric_scooter", "lon": -77.04862116666666, "bike_id": "caf7ea04bd6bf808ada7f559f84122ea", "fusion_lat": 0.0, "name": "caf7ea04bd6bf808ada7f559f84122ea", "is_reserved": 0, "rental_uris": {"android": "https://dc.lft.to/lastmile_qr_scan", "ios": "https://dc.lft.to/lastmile_qr_scan"}, "fusion_lon": 0.0}, {"lat": 38.899846, "is_disabled": 0, "type": "electric_scooter", "lon": -77.02162783333333, "bike_id": "d410f62ed48a4aa80a63636bf8ae4465", "fusion_lat": 0.0, "name": "d410f62ed48a4aa80a63636bf8ae4465", "is_reserved": 0, "rental_uris": {"android": "https://dc.lft.to/lastmile_qr_scan", "ios": "https://dc.lft.to/lastmile_qr_scan"}, "fusion_lon": 0.0}, {"lat": 38.905334333333336, "is_disabled": 0, "type": "electric_scooter", "lon": -77.05928016666667, "bike_id": "f03f5734ee53383a9fbf2c2f39290264", "fusion_lat": 0.0, "name": "f03f5734ee53383a9fbf2c2f39290264", "is_reserved": 0, "rental_uris": {"android": "https://dc.lft.to/lastmile_qr_scan", "ios": "https://dc.lft.to/lastmile_qr_scan"}, "fusion_lon": 0.0}, {"lat": 38.9211515, "is_disabled": 0, "type": "electric_scooter", "lon": -77.0420165, "bike_id": "fdb4231554282170a16c21af27f5dfc7", "fusion_lat": 0.0, "name": "fdb4231554282170a16c21af27f5dfc7", "is_reserved": 0, "rental_uris": {"android": "https://dc.lft.to/lastmile_qr_scan", "ios": "https://dc.lft.to/lastmile_qr_scan"}, "fusion_lon": 0.0}, {"lat": 38.904981, "is_disabled": 0, "type": "electric_scooter", "lon": -77.0013415, "bike_id": "32eca0c1fa59b99ace909610902ad641", "fusion_lat": 0.0, "name": "32eca0c1fa59b99ace909610902ad641", "is_reserved": 0, "rental_uris": {"android": "https://dc.lft.to/lastmile_qr_scan", "ios": "https://dc.lft.to/lastmile_qr_scan"}, "fusion_lon": 0.0}, {"lat": 38.917715666666666, "is_disabled": 0, "type": "electric_scooter", "lon": -77.01500433333334, "bike_id": "075f59f642bcff890770a689b421b601", "fusion_lat": 0.0, "name": "075f59f642bcff890770a689b421b601", "is_reserved": 0, "rental_uris": {"android": "https://dc.lft.to/lastmile_qr_scan", "ios": "https://dc.lft.to/lastmile_qr_scan"}, "fusion_lon": 0.0}, {"lat": 38.89648283333333, "is_disabled": 0, "type": "electric_scooter", "lon": -77.0078245, "bike_id": "28a6875d8477a00e77136e49c3a46b67", "fusion_lat": 0.0, "name": "28a6875d8477a00e77136e49c3a46b67", "is_reserved": 0, "rental_uris": {"android": "https://dc.lft.to/lastmile_qr_scan", "ios": "https://dc.lft.to/lastmile_qr_scan"}, "fusion_lon": 0.0}, {"lat": 38.931072666666665, "is_disabled": 0, "type": "electric_scooter", "lon": -76.96722683333333, "bike_id": "89ec2e902baac4ae0a2e51bb3a27a627", "fusion_lat": 0.0, "name": "89ec2e902baac4ae0a2e51bb3a27a627", "is_reserved": 0, "rental_uris": {"android": "https://dc.lft.to/lastmile_qr_scan", "ios": "https://dc.lft.to/lastmile_qr_scan"}, "fusion_lon": 0.0}, {"lat": 38.91702816666667, "is_disabled": 0, "type": "electric_scooter", "lon": -77.0327085, "bike_id": "295b3faaf228fcac22f4280154bb940f", "fusion_lat": 0.0, "name": "295b3faaf228fcac22f4280154bb940f", "is_reserved": 0, "rental_uris": {"android": "https://dc.lft.to/lastmile_qr_scan", "ios": "https://dc.lft.to/lastmile_qr_scan"}, "fusion_lon": 0.0}, {"lat": 38.90548016666666, "is_disabled": 0, "type": "electric_scooter", "lon": -77.005676, "bike_id": "9bc4a86ad847ca0e9f244620b95b576f", "fusion_lat": 0.0, "name": "9bc4a86ad847ca0e9f244620b95b576f", "is_reserved": 0, "rental_uris": {"android": "https://dc.lft.to/lastmile_qr_scan", "ios": "https://dc.lft.to/lastmile_qr_scan"}, "fusion_lon": 0.0}, {"lat": 38.8627935, "is_disabled": 0, "type": "electric_scooter", "lon": -76.992336, "bike_id": "e6c89cb6df062b2d5062b28b54da2a7e", "fusion_lat": 0.0, "name": "e6c89cb6df062b2d5062b28b54da2a7e", "is_reserved": 0, "rental_uris": {"android": "https://dc.lft.to/lastmile_qr_scan", "ios": "https://dc.lft.to/lastmile_qr_scan"}, "fusion_lon": 0.0}, {"lat": 38.9046995, "is_disabled": 0, "type": "electric_scooter", "lon": -77.0294145, "bike_id": "17733bd58022ec28585d9315629a6522", "fusion_lat": 0.0, "name": "17733bd58022ec28585d9315629a6522", "is_reserved": 0, "rental_uris": {"android": "https://dc.lft.to/lastmile_qr_scan", "ios": "https://dc.lft.to/lastmile_qr_scan"}, "fusion_lon": 0.0}, {"lat": 38.949422, "is_disabled": 0, "type": "electric_scooter", "lon": -77.020178, "bike_id": "7fcbb95456ad7ef3ff16ad2d25c51f47", "fusion_lat": 0.0, "name": "7fcbb95456ad7ef3ff16ad2d25c51f47", "is_reserved": 0, "rental_uris": {"android": "https://dc.lft.to/lastmile_qr_scan", "ios": "https://dc.lft.to/lastmile_qr_scan"}, "fusion_lon": 0.0}, {"lat": 38.931455666666665, "is_disabled": 0, "type": "electric_scooter", "lon": -77.02821933333334, "bike_id": "7e15c8adc7f347b978a476118871fdb6", "fusion_lat": 0.0, "name": "7e15c8adc7f347b978a476118871fdb6", "is_reserved": 0, "rental_uris": {"android": "https://dc.lft.to/lastmile_qr_scan", "ios": "https://dc.lft.to/lastmile_qr_scan"}, "fusion_lon": 0.0}, {"lat": 38.918402666666665, "is_disabled": 0, "type": "electric_scooter", "lon": -77.03212133333334, "bike_id": "e7143613b4801e7080799096e61ae7a2", "fusion_lat": 0.0, "name": "e7143613b4801e7080799096e61ae7a2", "is_reserved": 0, "rental_uris": {"android": "https://dc.lft.to/lastmile_qr_scan", "ios": "https://dc.lft.to/lastmile_qr_scan"}, "fusion_lon": 0.0}, {"lat": 38.93571816666667, "is_disabled": 0, "type": "electric_scooter", "lon": -77.0326425, "bike_id": "b92f8e5a4b5f15ffc1eb717785c122f1", "fusion_lat": 0.0, "name": "b92f8e5a4b5f15ffc1eb717785c122f1", "is_reserved": 0, "rental_uris": {"android": "https://dc.lft.to/lastmile_qr_scan", "ios": "https://dc.lft.to/lastmile_qr_scan"}, "fusion_lon": 0.0}, {"lat": 38.90492166666667, "is_disabled": 0, "type": "electric_scooter", "lon": -77.0573395, "bike_id": "863dbe05590e641194ded71a447b8280", "fusion_lat": 0.0, "name": "863dbe05590e641194ded71a447b8280", "is_reserved": 0, "rental_uris": {"android": "https://dc.lft.to/lastmile_qr_scan", "ios": "https://dc.lft.to/lastmile_qr_scan"}, "fusion_lon": 0.0}, {"lat": 38.872120833333334, "is_disabled": 0, "type": "electric_bike", "lon": -77.015246, "bike_id": "2af52320a24f05ee056a2e7ef7ecf4b4", "fusion_lat": 0.0, "name": "2af52320a24f05ee056a2e7ef7ecf4b4", "is_reserved": 0, "rental_uris": {"android": "https://dc.lft.to/lastmile_qr_scan", "ios": "https://dc.lft.to/lastmile_qr_scan"}, "fusion_lon": 0.0}, {"lat": 38.90970683333333, "is_disabled": 0, "type": "electric_scooter", "lon": -77.0451245, "bike_id": "bba32848c35bb4a6d950be718195dbf0", "fusion_lat": 0.0, "name": "bba32848c35bb4a6d950be718195dbf0", "is_reserved": 0, "rental_uris": {"android": "https://dc.lft.to/lastmile_qr_scan", "ios": "https://dc.lft.to/lastmile_qr_scan"}, "fusion_lon": 0.0}, {"lat": 39.030507166666666, "is_disabled": 0, "type": "electric_bike", "lon": -77.09474483333334, "bike_id": "c09ab04ef64adeecd62f9132f4d5d25c", "fusion_lat": 0.0, "name": "c09ab04ef64adeecd62f9132f4d5d25c", "is_reserved": 0, "rental_uris": {"android": "https://dc.lft.to/lastmile_qr_scan", "ios": "https://dc.lft.to/lastmile_qr_scan"}, "fusion_lon": 0.0}, {"lat": 38.92185216666667, "is_disabled": 0, "type": "electric_scooter", "lon": -77.04231866666667, "bike_id": "56b95fb3ac9332cce543f3484bcad31f", "fusion_lat": 0.0, "name": "56b95fb3ac9332cce543f3484bcad31f", "is_reserved": 0, "rental_uris": {"android": "https://dc.lft.to/lastmile_qr_scan", "ios": "https://dc.lft.to/lastmile_qr_scan"}, "fusion_lon": 0.0}, {"lat": 38.901348166666665, "is_disabled": 0, "type": "electric_scooter", "lon": -77.000653, "bike_id": "75119fa330eac9b6b2fe6119d390b80f", "fusion_lat": 0.0, "name": "75119fa330eac9b6b2fe6119d390b80f", "is_reserved": 0, "rental_uris": {"android": "https://dc.lft.to/lastmile_qr_scan", "ios": "https://dc.lft.to/lastmile_qr_scan"}, "fusion_lon": 0.0}, {"lat": 38.9007835, "is_disabled": 0, "type": "electric_scooter", "lon": -77.053105, "bike_id": "987edcf3a2cbe79d4937327a18aaa172", "fusion_lat": 0.0, "name": "987edcf3a2cbe79d4937327a18aaa172", "is_reserved": 0, "rental_uris": {"android": "https://dc.lft.to/lastmile_qr_scan", "ios": "https://dc.lft.to/lastmile_qr_scan"}, "fusion_lon": 0.0}, {"lat": 38.9463665, "is_disabled": 0, "type": "electric_scooter", "lon": -77.01845383333334, "bike_id": "d07c3a6fc2c53935b9f854481684d799", "fusion_lat": 0.0, "name": "d07c3a6fc2c53935b9f854481684d799", "is_reserved": 0, "rental_uris": {"android": "https://dc.lft.to/lastmile_qr_scan", "ios": "https://dc.lft.to/lastmile_qr_scan"}, "fusion_lon": 0.0}, {"lat": 38.88702816666667, "is_disabled": 0, "type": "electric_scooter", "lon": -77.00151766666667, "bike_id": "e1263027636b609eb4547cb0a5746ae6", "fusion_lat": 0.0, "name": "e1263027636b609eb4547cb0a5746ae6", "is_reserved": 0, "rental_uris": {"android": "https://dc.lft.to/lastmile_qr_scan", "ios": "https://dc.lft.to/lastmile_qr_scan"}, "fusion_lon": 0.0}, {"lat": 38.929032, "is_disabled": 0, "type": "electric_scooter", "lon": -77.03257266666667, "bike_id": "bb71a84346c4620b084249d43e28d3c7", "fusion_lat": 0.0, "name": "bb71a84346c4620b084249d43e28d3c7", "is_reserved": 0, "rental_uris": {"android": "https://dc.lft.to/lastmile_qr_scan", "ios": "https://dc.lft.to/lastmile_qr_scan"}, "fusion_lon": 0.0}, {"lat": 38.9368025, "is_disabled": 0, "type": "electric_scooter", "lon": -77.03574033333334, "bike_id": "cadc378c356fafaf74f140abdb9b6734", "fusion_lat": 0.0, "name": "cadc378c356fafaf74f140abdb9b6734", "is_reserved": 0, "rental_uris": {"android": "https://dc.lft.to/lastmile_qr_scan", "ios": "https://dc.lft.to/lastmile_qr_scan"}, "fusion_lon": 0.0}, {"lat": 38.930248, "is_disabled": 0, "type": "electric_scooter", "lon": -77.02792716666667, "bike_id": "00b72c715eb6eac329887884f35a1d28", "fusion_lat": 0.0, "name": "00b72c715eb6eac329887884f35a1d28", "is_reserved": 0, "rental_uris": {"android": "https://dc.lft.to/lastmile_qr_scan", "ios": "https://dc.lft.to/lastmile_qr_scan"}, "fusion_lon": 0.0}, {"lat": 38.89518966666667, "is_disabled": 0, "type": "electric_scooter", "lon": -77.04361866666666, "bike_id": "2b9e7e61d6b018135f022558310fb1b3", "fusion_lat": 0.0, "name": "2b9e7e61d6b018135f022558310fb1b3", "is_reserved": 0, "rental_uris": {"android": "https://dc.lft.to/lastmile_qr_scan", "ios": "https://dc.lft.to/lastmile_qr_scan"}, "fusion_lon": 0.0}, {"lat": 38.922003, "is_disabled": 0, "type": "electric_scooter", "lon": -77.0425295, "bike_id": "fab6f75b0b0b93672f362ec65d6f3ef7", "fusion_lat": 0.0, "name": "fab6f75b0b0b93672f362ec65d6f3ef7", "is_reserved": 0, "rental_uris": {"android": "https://dc.lft.to/lastmile_qr_scan", "ios": "https://dc.lft.to/lastmile_qr_scan"}, "fusion_lon": 0.0}, {"lat": 38.92905233333333, "is_disabled": 0, "type": "electric_scooter", "lon": -77.0326625, "bike_id": "df443721fac6e881255f87f43cb074ba", "fusion_lat": 0.0, "name": "df443721fac6e881255f87f43cb074ba", "is_reserved": 0, "rental_uris": {"android": "https://dc.lft.to/lastmile_qr_scan", "ios": "https://dc.lft.to/lastmile_qr_scan"}, "fusion_lon": 0.0}, {"lat": 38.90558166666667, "is_disabled": 0, "type": "electric_scooter", "lon": -77.04654, "bike_id": "57d869c802718c3bc1d36d4dcee44f72", "fusion_lat": 0.0, "name": "57d869c802718c3bc1d36d4dcee44f72", "is_reserved": 0, "rental_uris": {"android": "https://dc.lft.to/lastmile_qr_scan", "ios": "https://dc.lft.to/lastmile_qr_scan"}, "fusion_lon": 0.0}, {"lat": 38.92329066666667, "is_disabled": 0, "type": "electric_scooter", "lon": -77.03902216666667, "bike_id": "243aee53afe0df88b02e1fb8d98e3ad2", "fusion_lat": 0.0, "name": "243aee53afe0df88b02e1fb8d98e3ad2", "is_reserved": 0, "rental_uris": {"android": "https://dc.lft.to/lastmile_qr_scan", "ios": "https://dc.lft.to/lastmile_qr_scan"}, "fusion_lon": 0.0}, {"lat": 38.89284216666667, "is_disabled": 0, "type": "electric_scooter", "lon": -77.0502985, "bike_id": "cb3981833090d2eb9dc709495a368451", "fusion_lat": 0.0, "name": "cb3981833090d2eb9dc709495a368451", "is_reserved": 0, "rental_uris": {"android": "https://dc.lft.to/lastmile_qr_scan", "ios": "https://dc.lft.to/lastmile_qr_scan"}, "fusion_lon": 0.0}, {"lat": 38.91846366666667, "is_disabled": 0, "type": "electric_scooter", "lon": -76.96538266666667, "bike_id": "fe5d946786a5f826d529c51043c41586", "fusion_lat": 0.0, "name": "fe5d946786a5f826d529c51043c41586", "is_reserved": 0, "rental_uris": {"android": "https://dc.lft.to/lastmile_qr_scan", "ios": "https://dc.lft.to/lastmile_qr_scan"}, "fusion_lon": 0.0}, {"lat": 38.919926833333335, "is_disabled": 0, "type": "electric_scooter", "lon": -77.04150616666666, "bike_id": "776639302e1dd9bf99949b8574105ac5", "fusion_lat": 0.0, "name": "776639302e1dd9bf99949b8574105ac5", "is_reserved": 0, "rental_uris": {"android": "https://dc.lft.to/lastmile_qr_scan", "ios": "https://dc.lft.to/lastmile_qr_scan"}, "fusion_lon": 0.0}, {"lat": 38.895113333333335, "is_disabled": 0, "type": "electric_scooter", "lon": -77.02745283333333, "bike_id": "eff4819897fd9799b19699f4f677d49c", "fusion_lat": 0.0, "name": "eff4819897fd9799b19699f4f677d49c", "is_reserved": 0, "rental_uris": {"android": "https://dc.lft.to/lastmile_qr_scan", "ios": "https://dc.lft.to/lastmile_qr_scan"}, "fusion_lon": 0.0}, {"lat": 38.923137833333335, "is_disabled": 0, "type": "electric_bike", "lon": -77.03659716666667, "bike_id": "2a1c8a8ae5292219959dcdc4b7cc5685", "fusion_lat": 0.0, "name": "2a1c8a8ae5292219959dcdc4b7cc5685", "is_reserved": 0, "rental_uris": {"android": "https://dc.lft.to/lastmile_qr_scan", "ios": "https://dc.lft.to/lastmile_qr_scan"}, "fusion_lon": 0.0}, {"lat": 38.8463045, "is_disabled": 0, "type": "electric_bike", "lon": -77.069325, "bike_id": "b5c26477a95b8c2aa943e265e4b00953", "fusion_lat": 0.0, "name": "b5c26477a95b8c2aa943e265e4b00953", "is_reserved": 0, "rental_uris": {"android": "https://dc.lft.to/lastmile_qr_scan", "ios": "https://dc.lft.to/lastmile_qr_scan"}, "fusion_lon": 0.0}, {"lat": 38.9186385, "is_disabled": 0, "type": "electric_scooter", "lon": -77.02429033333334, "bike_id": "743058f6d7343c4f423afa703f0330c9", "fusion_lat": 0.0, "name": "743058f6d7343c4f423afa703f0330c9", "is_reserved": 0, "rental_uris": {"android": "https://dc.lft.to/lastmile_qr_scan", "ios": "https://dc.lft.to/lastmile_qr_scan"}, "fusion_lon": 0.0}, {"lat": 38.92386333333334, "is_disabled": 0, "type": "electric_scooter", "lon": -77.030722, "bike_id": "f4afb24bee8448c978e788334d2b01c8", "fusion_lat": 0.0, "name": "f4afb24bee8448c978e788334d2b01c8", "is_reserved": 0, "rental_uris": {"android": "https://dc.lft.to/lastmile_qr_scan", "ios": "https://dc.lft.to/lastmile_qr_scan"}, "fusion_lon": 0.0}, {"lat": 38.89227316666667, "is_disabled": 0, "type": "electric_scooter", "lon": -77.02642583333333, "bike_id": "58ede4f56645cfc036b40392f457d0b2", "fusion_lat": 0.0, "name": "58ede4f56645cfc036b40392f457d0b2", "is_reserved": 0, "rental_uris": {"android": "https://dc.lft.to/lastmile_qr_scan", "ios": "https://dc.lft.to/lastmile_qr_scan"}, "fusion_lon": 0.0}, {"lat": 38.926328833333336, "is_disabled": 0, "type": "electric_scooter", "lon": -77.03785233333333, "bike_id": "da2c9249c7a4427b212bd99a0b2ff0a6", "fusion_lat": 0.0, "name": "da2c9249c7a4427b212bd99a0b2ff0a6", "is_reserved": 0, "rental_uris": {"android": "https://dc.lft.to/lastmile_qr_scan", "ios": "https://dc.lft.to/lastmile_qr_scan"}, "fusion_lon": 0.0}, {"lat": 38.902922, "is_disabled": 0, "type": "electric_scooter", "lon": -77.05327433333333, "bike_id": "f7b3689618c969391cc778965a1bcc24", "fusion_lat": 0.0, "name": "f7b3689618c969391cc778965a1bcc24", "is_reserved": 0, "rental_uris": {"android": "https://dc.lft.to/lastmile_qr_scan", "ios": "https://dc.lft.to/lastmile_qr_scan"}, "fusion_lon": 0.0}, {"lat": 38.9023735, "is_disabled": 0, "type": "electric_scooter", "lon": -77.02812533333334, "bike_id": "d5f3395fb8c781862eb4f87daf18beee", "fusion_lat": 0.0, "name": "d5f3395fb8c781862eb4f87daf18beee", "is_reserved": 0, "rental_uris": {"android": "https://dc.lft.to/lastmile_qr_scan", "ios": "https://dc.lft.to/lastmile_qr_scan"}, "fusion_lon": 0.0}, {"lat": 38.9105525, "is_disabled": 0, "type": "electric_scooter", "lon": -77.01522933333334, "bike_id": "18816d82ed614a749c47074f5c06287e", "fusion_lat": 0.0, "name": "18816d82ed614a749c47074f5c06287e", "is_reserved": 0, "rental_uris": {"android": "https://dc.lft.to/lastmile_qr_scan", "ios": "https://dc.lft.to/lastmile_qr_scan"}, "fusion_lon": 0.0}, {"lat": 38.899593833333334, "is_disabled": 0, "type": "electric_scooter", "lon": -77.051737, "bike_id": "5a9015af21cbdd80dcad4611a681507b", "fusion_lat": 0.0, "name": "5a9015af21cbdd80dcad4611a681507b", "is_reserved": 0, "rental_uris": {"android": "https://dc.lft.to/lastmile_qr_scan", "ios": "https://dc.lft.to/lastmile_qr_scan"}, "fusion_lon": 0.0}, {"lat": 38.897418333333334, "is_disabled": 0, "type": "electric_scooter", "lon": -77.04681916666667, "bike_id": "44b67cd1c633fc475e3ab54d4aa872bc", "fusion_lat": 0.0, "name": "44b67cd1c633fc475e3ab54d4aa872bc", "is_reserved": 0, "rental_uris": {"android": "https://dc.lft.to/lastmile_qr_scan", "ios": "https://dc.lft.to/lastmile_qr_scan"}, "fusion_lon": 0.0}, {"lat": 38.92419833333334, "is_disabled": 0, "type": "electric_scooter", "lon": -77.04443233333333, "bike_id": "cc087e639d6990faa779a9e63c3d763e", "fusion_lat": 0.0, "name": "cc087e639d6990faa779a9e63c3d763e", "is_reserved": 0, "rental_uris": {"android": "https://dc.lft.to/lastmile_qr_scan", "ios": "https://dc.lft.to/lastmile_qr_scan"}, "fusion_lon": 0.0}, {"lat": 38.90820566666667, "is_disabled": 0, "type": "electric_scooter", "lon": -76.98559983333334, "bike_id": "5f77c4d0ec2ac3d22e3a66ed94955460", "fusion_lat": 0.0, "name": "5f77c4d0ec2ac3d22e3a66ed94955460", "is_reserved": 0, "rental_uris": {"android": "https://dc.lft.to/lastmile_qr_scan", "ios": "https://dc.lft.to/lastmile_qr_scan"}, "fusion_lon": 0.0}, {"lat": 38.946066333333334, "is_disabled": 0, "type": "electric_scooter", "lon": -77.0297735, "bike_id": "48c1f0ba006ee92242f09b87833dfb8e", "fusion_lat": 0.0, "name": "48c1f0ba006ee92242f09b87833dfb8e", "is_reserved": 0, "rental_uris": {"android": "https://dc.lft.to/lastmile_qr_scan", "ios": "https://dc.lft.to/lastmile_qr_scan"}, "fusion_lon": 0.0}, {"lat": 38.865167166666666, "is_disabled": 0, "type": "electric_scooter", "lon": -76.97419066666667, "bike_id": "f25a456b6a743fafef29b84494f2753a", "fusion_lat": 0.0, "name": "f25a456b6a743fafef29b84494f2753a", "is_reserved": 0, "rental_uris": {"android": "https://dc.lft.to/lastmile_qr_scan", "ios": "https://dc.lft.to/lastmile_qr_scan"}, "fusion_lon": 0.0}, {"lat": 38.89987, "is_disabled": 0, "type": "electric_scooter", "lon": -77.05082616666667, "bike_id": "e3037223cafd66ec9a42dcf7a1290535", "fusion_lat": 0.0, "name": "e3037223cafd66ec9a42dcf7a1290535", "is_reserved": 0, "rental_uris": {"android": "https://dc.lft.to/lastmile_qr_scan", "ios": "https://dc.lft.to/lastmile_qr_scan"}, "fusion_lon": 0.0}, {"lat": 38.874771333333335, "is_disabled": 0, "type": "electric_scooter", "lon": -77.01071383333333, "bike_id": "792cb0dac4385e1a0d0a50cd3e2f8e0a", "fusion_lat": 0.0, "name": "792cb0dac4385e1a0d0a50cd3e2f8e0a", "is_reserved": 0, "rental_uris": {"android": "https://dc.lft.to/lastmile_qr_scan", "ios": "https://dc.lft.to/lastmile_qr_scan"}, "fusion_lon": 0.0}, {"lat": 38.926871, "is_disabled": 0, "type": "electric_scooter", "lon": -77.05102366666667, "bike_id": "4d9fb52f3bcab382f2c326920f47d307", "fusion_lat": 0.0, "name": "4d9fb52f3bcab382f2c326920f47d307", "is_reserved": 0, "rental_uris": {"android": "https://dc.lft.to/lastmile_qr_scan", "ios": "https://dc.lft.to/lastmile_qr_scan"}, "fusion_lon": 0.0}, {"lat": 38.914184666666664, "is_disabled": 0, "type": "electric_scooter", "lon": -77.03069416666666, "bike_id": "f272ae8ebfc9c8bd91be7f7fa60acb92", "fusion_lat": 0.0, "name": "f272ae8ebfc9c8bd91be7f7fa60acb92", "is_reserved": 0, "rental_uris": {"android": "https://dc.lft.to/lastmile_qr_scan", "ios": "https://dc.lft.to/lastmile_qr_scan"}, "fusion_lon": 0.0}, {"lat": 38.957870666666665, "is_disabled": 0, "type": "electric_scooter", "lon": -77.02462466666667, "bike_id": "047fe5d204898f2aeb47d1621612bfd5", "fusion_lat": 0.0, "name": "047fe5d204898f2aeb47d1621612bfd5", "is_reserved": 0, "rental_uris": {"android": "https://dc.lft.to/lastmile_qr_scan", "ios": "https://dc.lft.to/lastmile_qr_scan"}, "fusion_lon": 0.0}, {"lat": 38.8805735, "is_disabled": 0, "type": "electric_scooter", "lon": -77.017694, "bike_id": "b7dcc418c996a2a7dde7a8026c58e6cc", "fusion_lat": 0.0, "name": "b7dcc418c996a2a7dde7a8026c58e6cc", "is_reserved": 0, "rental_uris": {"android": "https://dc.lft.to/lastmile_qr_scan", "ios": "https://dc.lft.to/lastmile_qr_scan"}, "fusion_lon": 0.0}, {"lat": 38.9191185, "is_disabled": 0, "type": "electric_bike", "lon": -77.046218, "bike_id": "21329249a2d28a0063636f610106d78a", "fusion_lat": 0.0, "name": "21329249a2d28a0063636f610106d78a", "is_reserved": 0, "rental_uris": {"android": "https://dc.lft.to/lastmile_qr_scan", "ios": "https://dc.lft.to/lastmile_qr_scan"}, "fusion_lon": 0.0}, {"lat": 38.921948666666665, "is_disabled": 0, "type": "electric_scooter", "lon": -77.0423675, "bike_id": "137bae95d0b4c1a2de0f4b17db5a8a0f", "fusion_lat": 0.0, "name": "137bae95d0b4c1a2de0f4b17db5a8a0f", "is_reserved": 0, "rental_uris": {"android": "https://dc.lft.to/lastmile_qr_scan", "ios": "https://dc.lft.to/lastmile_qr_scan"}, "fusion_lon": 0.0}, {"lat": 38.84295266666667, "is_disabled": 0, "type": "electric_scooter", "lon": -76.99946183333333, "bike_id": "52ae0d54ccbc4fb3b6cbe37aec0b34a8", "fusion_lat": 0.0, "name": "52ae0d54ccbc4fb3b6cbe37aec0b34a8", "is_reserved": 0, "rental_uris": {"android": "https://dc.lft.to/lastmile_qr_scan", "ios": "https://dc.lft.to/lastmile_qr_scan"}, "fusion_lon": 0.0}, {"lat": 38.86349883333333, "is_disabled": 0, "type": "electric_scooter", "lon": -76.98998383333333, "bike_id": "ba8b3cb241be12c88ef07b44ecdbdd1a", "fusion_lat": 0.0, "name": "ba8b3cb241be12c88ef07b44ecdbdd1a", "is_reserved": 0, "rental_uris": {"android": "https://dc.lft.to/lastmile_qr_scan", "ios": "https://dc.lft.to/lastmile_qr_scan"}, "fusion_lon": 0.0}, {"lat": 38.95557616666667, "is_disabled": 0, "type": "electric_bike", "lon": -76.93548683333333, "bike_id": "28076ffa4484f63e9b81bde50d28b45c", "fusion_lat": 0.0, "name": "28076ffa4484f63e9b81bde50d28b45c", "is_reserved": 0, "rental_uris": {"android": "https://dc.lft.to/lastmile_qr_scan", "ios": "https://dc.lft.to/lastmile_qr_scan"}, "fusion_lon": 0.0}, {"lat": 38.9047275, "is_disabled": 0, "type": "electric_scooter", "lon": -77.03092233333334, "bike_id": "dbca9d1b1987da89d051127a44eb0dbb", "fusion_lat": 0.0, "name": "dbca9d1b1987da89d051127a44eb0dbb", "is_reserved": 0, "rental_uris": {"android": "https://dc.lft.to/lastmile_qr_scan", "ios": "https://dc.lft.to/lastmile_qr_scan"}, "fusion_lon": 0.0}, {"lat": 38.9321185, "is_disabled": 0, "type": "electric_bike", "lon": -77.07823866666666, "bike_id": "3451833434dce5a3d0fba1f8b7766dcb", "fusion_lat": 0.0, "name": "3451833434dce5a3d0fba1f8b7766dcb", "is_reserved": 0, "rental_uris": {"android": "https://dc.lft.to/lastmile_qr_scan", "ios": "https://dc.lft.to/lastmile_qr_scan"}, "fusion_lon": 0.0}, {"lat": 38.899175, "is_disabled": 0, "type": "electric_scooter", "lon": -76.93381616666667, "bike_id": "33673827fab6a27bae4994ab579692c8", "fusion_lat": 0.0, "name": "33673827fab6a27bae4994ab579692c8", "is_reserved": 0, "rental_uris": {"android": "https://dc.lft.to/lastmile_qr_scan", "ios": "https://dc.lft.to/lastmile_qr_scan"}, "fusion_lon": 0.0}, {"lat": 38.9248525, "is_disabled": 0, "type": "electric_scooter", "lon": -77.02649483333333, "bike_id": "d2cd979c25285e7564385a24d2c6b551", "fusion_lat": 0.0, "name": "d2cd979c25285e7564385a24d2c6b551", "is_reserved": 0, "rental_uris": {"android": "https://dc.lft.to/lastmile_qr_scan", "ios": "https://dc.lft.to/lastmile_qr_scan"}, "fusion_lon": 0.0}, {"lat": 38.90491466666667, "is_disabled": 0, "type": "electric_scooter", "lon": -77.0200315, "bike_id": "49cd761dc57417cd410102efd6e06d83", "fusion_lat": 0.0, "name": "49cd761dc57417cd410102efd6e06d83", "is_reserved": 0, "rental_uris": {"android": "https://dc.lft.to/lastmile_qr_scan", "ios": "https://dc.lft.to/lastmile_qr_scan"}, "fusion_lon": 0.0}, {"lat": 38.883999333333335, "is_disabled": 0, "type": "electric_scooter", "lon": -77.01904866666666, "bike_id": "d9a650dd1318531af31cdef7c5f1e473", "fusion_lat": 0.0, "name": "d9a650dd1318531af31cdef7c5f1e473", "is_reserved": 0, "rental_uris": {"android": "https://dc.lft.to/lastmile_qr_scan", "ios": "https://dc.lft.to/lastmile_qr_scan"}, "fusion_lon": 0.0}, {"lat": 38.909236666666665, "is_disabled": 0, "type": "electric_scooter", "lon": -77.03645533333334, "bike_id": "915cef4d158cc869d84b203e3ddedd42", "fusion_lat": 0.0, "name": "915cef4d158cc869d84b203e3ddedd42", "is_reserved": 0, "rental_uris": {"android": "https://dc.lft.to/lastmile_qr_scan", "ios": "https://dc.lft.to/lastmile_qr_scan"}, "fusion_lon": 0.0}, {"lat": 38.86891216666667, "is_disabled": 0, "type": "electric_scooter", "lon": -76.98311016666666, "bike_id": "c65bc82c3f626ddf2ebe550102d69520", "fusion_lat": 0.0, "name": "c65bc82c3f626ddf2ebe550102d69520", "is_reserved": 0, "rental_uris": {"android": "https://dc.lft.to/lastmile_qr_scan", "ios": "https://dc.lft.to/lastmile_qr_scan"}, "fusion_lon": 0.0}, {"lat": 38.9311645, "is_disabled": 0, "type": "electric_scooter", "lon": -77.03807033333334, "bike_id": "0324461aa9e6597cbd2c1ef7cf83b875", "fusion_lat": 0.0, "name": "0324461aa9e6597cbd2c1ef7cf83b875", "is_reserved": 0, "rental_uris": {"android": "https://dc.lft.to/lastmile_qr_scan", "ios": "https://dc.lft.to/lastmile_qr_scan"}, "fusion_lon": 0.0}, {"lat": 38.904964666666665, "is_disabled": 0, "type": "electric_scooter", "lon": -76.98710416666667, "bike_id": "8ebec26bce1bf03f1a073c1484665685", "fusion_lat": 0.0, "name": "8ebec26bce1bf03f1a073c1484665685", "is_reserved": 0, "rental_uris": {"android": "https://dc.lft.to/lastmile_qr_scan", "ios": "https://dc.lft.to/lastmile_qr_scan"}, "fusion_lon": 0.0}, {"lat": 38.9444585, "is_disabled": 0, "type": "electric_scooter", "lon": -77.06344, "bike_id": "667ac601561b501d970b4505a34d5d60", "fusion_lat": 0.0, "name": "667ac601561b501d970b4505a34d5d60", "is_reserved": 0, "rental_uris": {"android": "https://dc.lft.to/lastmile_qr_scan", "ios": "https://dc.lft.to/lastmile_qr_scan"}, "fusion_lon": 0.0}, {"lat": 38.8734135, "is_disabled": 0, "type": "electric_scooter", "lon": -76.99165583333334, "bike_id": "cc38977bcd98c6b97e75940d63648b33", "fusion_lat": 0.0, "name": "cc38977bcd98c6b97e75940d63648b33", "is_reserved": 0, "rental_uris": {"android": "https://dc.lft.to/lastmile_qr_scan", "ios": "https://dc.lft.to/lastmile_qr_scan"}, "fusion_lon": 0.0}, {"lat": 38.92112133333333, "is_disabled": 0, "type": "electric_scooter", "lon": -77.04199666666666, "bike_id": "f7e7f4bdefbd81542c57bf9718b64eba", "fusion_lat": 0.0, "name": "f7e7f4bdefbd81542c57bf9718b64eba", "is_reserved": 0, "rental_uris": {"android": "https://dc.lft.to/lastmile_qr_scan", "ios": "https://dc.lft.to/lastmile_qr_scan"}, "fusion_lon": 0.0}, {"lat": 38.9389225, "is_disabled": 0, "type": "electric_scooter", "lon": -77.0281865, "bike_id": "91c16625d3dcb630389af13f9daeba74", "fusion_lat": 0.0, "name": "91c16625d3dcb630389af13f9daeba74", "is_reserved": 0, "rental_uris": {"android": "https://dc.lft.to/lastmile_qr_scan", "ios": "https://dc.lft.to/lastmile_qr_scan"}, "fusion_lon": 0.0}, {"lat": 38.92347083333333, "is_disabled": 0, "type": "electric_scooter", "lon": -77.05116116666666, "bike_id": "0e1cb13dcc1c5d920f03260098f652d9", "fusion_lat": 0.0, "name": "0e1cb13dcc1c5d920f03260098f652d9", "is_reserved": 0, "rental_uris": {"android": "https://dc.lft.to/lastmile_qr_scan", "ios": "https://dc.lft.to/lastmile_qr_scan"}, "fusion_lon": 0.0}, {"lat": 38.896015166666665, "is_disabled": 0, "type": "electric_scooter", "lon": -77.02912366666666, "bike_id": "484f240d79dd8282cbfa7d9e7be1f3cb", "fusion_lat": 0.0, "name": "484f240d79dd8282cbfa7d9e7be1f3cb", "is_reserved": 0, "rental_uris": {"android": "https://dc.lft.to/lastmile_qr_scan", "ios": "https://dc.lft.to/lastmile_qr_scan"}, "fusion_lon": 0.0}, {"lat": 38.90639316666667, "is_disabled": 0, "type": "electric_scooter", "lon": -77.008652, "bike_id": "60785083425589f5b081f0183c1e5cfd", "fusion_lat": 0.0, "name": "60785083425589f5b081f0183c1e5cfd", "is_reserved": 0, "rental_uris": {"android": "https://dc.lft.to/lastmile_qr_scan", "ios": "https://dc.lft.to/lastmile_qr_scan"}, "fusion_lon": 0.0}, {"lat": 38.903713833333335, "is_disabled": 0, "type": "electric_scooter", "lon": -77.01762283333333, "bike_id": "d20425ff20ba55907d7ce8982524be49", "fusion_lat": 0.0, "name": "d20425ff20ba55907d7ce8982524be49", "is_reserved": 0, "rental_uris": {"android": "https://dc.lft.to/lastmile_qr_scan", "ios": "https://dc.lft.to/lastmile_qr_scan"}, "fusion_lon": 0.0}, {"lat": 38.91196133333333, "is_disabled": 0, "type": "electric_scooter", "lon": -77.0384595, "bike_id": "7ea136218642c192f31c2f0747896698", "fusion_lat": 0.0, "name": "7ea136218642c192f31c2f0747896698", "is_reserved": 0, "rental_uris": {"android": "https://dc.lft.to/lastmile_qr_scan", "ios": "https://dc.lft.to/lastmile_qr_scan"}, "fusion_lon": 0.0}, {"lat": 39.08862633333333, "is_disabled": 0, "type": "electric_bike", "lon": -77.178437, "bike_id": "04d2754c4ea6453f3ba2c9d09701880c", "fusion_lat": 0.0, "name": "04d2754c4ea6453f3ba2c9d09701880c", "is_reserved": 0, "rental_uris": {"android": "https://dc.lft.to/lastmile_qr_scan", "ios": "https://dc.lft.to/lastmile_qr_scan"}, "fusion_lon": 0.0}, {"lat": 38.917752666666665, "is_disabled": 0, "type": "electric_scooter", "lon": -77.028802, "bike_id": "4aa2bef09d483e981ca7edc04cb22ef6", "fusion_lat": 0.0, "name": "4aa2bef09d483e981ca7edc04cb22ef6", "is_reserved": 0, "rental_uris": {"android": "https://dc.lft.to/lastmile_qr_scan", "ios": "https://dc.lft.to/lastmile_qr_scan"}, "fusion_lon": 0.0}, {"lat": 38.87910566666667, "is_disabled": 0, "type": "electric_scooter", "lon": -77.02229616666666, "bike_id": "aaaf65dfca5c8c2217c8a9f956a097a1", "fusion_lat": 0.0, "name": "aaaf65dfca5c8c2217c8a9f956a097a1", "is_reserved": 0, "rental_uris": {"android": "https://dc.lft.to/lastmile_qr_scan", "ios": "https://dc.lft.to/lastmile_qr_scan"}, "fusion_lon": 0.0}, {"lat": 38.905023166666666, "is_disabled": 0, "type": "electric_scooter", "lon": -77.043421, "bike_id": "bd9639dbc830b2366b90a4524e547bb3", "fusion_lat": 0.0, "name": "bd9639dbc830b2366b90a4524e547bb3", "is_reserved": 0, "rental_uris": {"android": "https://dc.lft.to/lastmile_qr_scan", "ios": "https://dc.lft.to/lastmile_qr_scan"}, "fusion_lon": 0.0}, {"lat": 38.928532833333335, "is_disabled": 0, "type": "electric_bike", "lon": -77.222138, "bike_id": "a6b8cc08ada5a6dfe0e5cd8e1b1f7538", "fusion_lat": 0.0, "name": "a6b8cc08ada5a6dfe0e5cd8e1b1f7538", "is_reserved": 0, "rental_uris": {"android": "https://dc.lft.to/lastmile_qr_scan", "ios": "https://dc.lft.to/lastmile_qr_scan"}, "fusion_lon": 0.0}, {"lat": 38.983708, "is_disabled": 0, "type": "electric_scooter", "lon": -77.02644166666667, "bike_id": "df884d77ac98df4a5c390fc8bcbcf0c1", "fusion_lat": 0.0, "name": "df884d77ac98df4a5c390fc8bcbcf0c1", "is_reserved": 0, "rental_uris": {"android": "https://dc.lft.to/lastmile_qr_scan", "ios": "https://dc.lft.to/lastmile_qr_scan"}, "fusion_lon": 0.0}, {"lat": 38.9026875, "is_disabled": 0, "type": "electric_scooter", "lon": -77.02820133333333, "bike_id": "cd2a8402214ac0525b8b91d22c2bbf5f", "fusion_lat": 0.0, "name": "cd2a8402214ac0525b8b91d22c2bbf5f", "is_reserved": 0, "rental_uris": {"android": "https://dc.lft.to/lastmile_qr_scan", "ios": "https://dc.lft.to/lastmile_qr_scan"}, "fusion_lon": 0.0}, {"lat": 38.9239245, "is_disabled": 0, "type": "electric_bike", "lon": -77.0401565, "bike_id": "a57932086e953470deea71f7165bff46", "fusion_lat": 0.0, "name": "a57932086e953470deea71f7165bff46", "is_reserved": 0, "rental_uris": {"android": "https://dc.lft.to/lastmile_qr_scan", "ios": "https://dc.lft.to/lastmile_qr_scan"}, "fusion_lon": 0.0}, {"lat": 38.902607, "is_disabled": 0, "type": "electric_scooter", "lon": -77.01840833333333, "bike_id": "8ffb576531a4025dcae53dd266b8c86d", "fusion_lat": 0.0, "name": "8ffb576531a4025dcae53dd266b8c86d", "is_reserved": 0, "rental_uris": {"android": "https://dc.lft.to/lastmile_qr_scan", "ios": "https://dc.lft.to/lastmile_qr_scan"}, "fusion_lon": 0.0}, {"lat": 38.95246933333333, "is_disabled": 0, "type": "electric_bike", "lon": -76.98239866666667, "bike_id": "e29e31330d0140995e64c04925afd266", "fusion_lat": 0.0, "name": "e29e31330d0140995e64c04925afd266", "is_reserved": 0, "rental_uris": {"android": "https://dc.lft.to/lastmile_qr_scan", "ios": "https://dc.lft.to/lastmile_qr_scan"}, "fusion_lon": 0.0}, {"lat": 38.91077266666667, "is_disabled": 0, "type": "electric_scooter", "lon": -77.01631516666667, "bike_id": "7074a02f5179980f8d71964203495bb0", "fusion_lat": 0.0, "name": "7074a02f5179980f8d71964203495bb0", "is_reserved": 0, "rental_uris": {"android": "https://dc.lft.to/lastmile_qr_scan", "ios": "https://dc.lft.to/lastmile_qr_scan"}, "fusion_lon": 0.0}, {"lat": 38.900768666666664, "is_disabled": 0, "type": "electric_scooter", "lon": -77.00723816666667, "bike_id": "9613e021aa288ac3c21b25280e4f7356", "fusion_lat": 0.0, "name": "9613e021aa288ac3c21b25280e4f7356", "is_reserved": 0, "rental_uris": {"android": "https://dc.lft.to/lastmile_qr_scan", "ios": "https://dc.lft.to/lastmile_qr_scan"}, "fusion_lon": 0.0}, {"lat": 38.92036866666667, "is_disabled": 0, "type": "electric_scooter", "lon": -77.04407066666667, "bike_id": "38ab9fb0e486563d1e2d8fe49bdd5aee", "fusion_lat": 0.0, "name": "38ab9fb0e486563d1e2d8fe49bdd5aee", "is_reserved": 0, "rental_uris": {"android": "https://dc.lft.to/lastmile_qr_scan", "ios": "https://dc.lft.to/lastmile_qr_scan"}, "fusion_lon": 0.0}, {"lat": 38.896371, "is_disabled": 0, "type": "electric_scooter", "lon": -77.03181116666667, "bike_id": "14bb1cdb56ceac50dbf19ef38f3bc858", "fusion_lat": 0.0, "name": "14bb1cdb56ceac50dbf19ef38f3bc858", "is_reserved": 0, "rental_uris": {"android": "https://dc.lft.to/lastmile_qr_scan", "ios": "https://dc.lft.to/lastmile_qr_scan"}, "fusion_lon": 0.0}, {"lat": 38.852231333333336, "is_disabled": 0, "type": "electric_bike", "lon": -77.12958216666667, "bike_id": "d3183047fef83975aa08ce84880e6604", "fusion_lat": 0.0, "name": "d3183047fef83975aa08ce84880e6604", "is_reserved": 0, "rental_uris": {"android": "https://dc.lft.to/lastmile_qr_scan", "ios": "https://dc.lft.to/lastmile_qr_scan"}, "fusion_lon": 0.0}, {"lat": 38.9017955, "is_disabled": 0, "type": "electric_scooter", "lon": -77.0323915, "bike_id": "ad0d1f809c8f834764bdc750f462a068", "fusion_lat": 0.0, "name": "ad0d1f809c8f834764bdc750f462a068", "is_reserved": 0, "rental_uris": {"android": "https://dc.lft.to/lastmile_qr_scan", "ios": "https://dc.lft.to/lastmile_qr_scan"}, "fusion_lon": 0.0}, {"lat": 38.92796216666667, "is_disabled": 0, "type": "electric_scooter", "lon": -77.03149066666667, "bike_id": "a761616f24aa4b8cf43b69e30eecc552", "fusion_lat": 0.0, "name": "a761616f24aa4b8cf43b69e30eecc552", "is_reserved": 0, "rental_uris": {"android": "https://dc.lft.to/lastmile_qr_scan", "ios": "https://dc.lft.to/lastmile_qr_scan"}, "fusion_lon": 0.0}, {"lat": 38.962209333333334, "is_disabled": 0, "type": "electric_bike", "lon": -77.0277845, "bike_id": "eea52f373df611ed3d89085d5ce0c3d2", "fusion_lat": 0.0, "name": "eea52f373df611ed3d89085d5ce0c3d2", "is_reserved": 0, "rental_uris": {"android": "https://dc.lft.to/lastmile_qr_scan", "ios": "https://dc.lft.to/lastmile_qr_scan"}, "fusion_lon": 0.0}, {"lat": 38.91986566666667, "is_disabled": 0, "type": "electric_scooter", "lon": -77.04163116666666, "bike_id": "3695c9463234ace68f5ec9b077d30978", "fusion_lat": 0.0, "name": "3695c9463234ace68f5ec9b077d30978", "is_reserved": 0, "rental_uris": {"android": "https://dc.lft.to/lastmile_qr_scan", "ios": "https://dc.lft.to/lastmile_qr_scan"}, "fusion_lon": 0.0}, {"lat": 38.92170466666666, "is_disabled": 0, "type": "electric_scooter", "lon": -77.05135783333333, "bike_id": "ac0f94200bac009718e633d34f477315", "fusion_lat": 0.0, "name": "ac0f94200bac009718e633d34f477315", "is_reserved": 0, "rental_uris": {"android": "https://dc.lft.to/lastmile_qr_scan", "ios": "https://dc.lft.to/lastmile_qr_scan"}, "fusion_lon": 0.0}, {"lat": 38.934610166666666, "is_disabled": 0, "type": "electric_scooter", "lon": -77.03233683333333, "bike_id": "908f0c24c42e925cc4dc815931148559", "fusion_lat": 0.0, "name": "908f0c24c42e925cc4dc815931148559", "is_reserved": 0, "rental_uris": {"android": "https://dc.lft.to/lastmile_qr_scan", "ios": "https://dc.lft.to/lastmile_qr_scan"}, "fusion_lon": 0.0}, {"lat": 38.985988666666664, "is_disabled": 0, "type": "electric_bike", "lon": -77.0375335, "bike_id": "d9d376abede46da26155355e56de94ee", "fusion_lat": 0.0, "name": "d9d376abede46da26155355e56de94ee", "is_reserved": 0, "rental_uris": {"android": "https://dc.lft.to/lastmile_qr_scan", "ios": "https://dc.lft.to/lastmile_qr_scan"}, "fusion_lon": 0.0}, {"lat": 38.911207, "is_disabled": 0, "type": "electric_bike", "lon": -76.98564866666666, "bike_id": "628aa9717d0812cc2610be075722b6ff", "fusion_lat": 0.0, "name": "628aa9717d0812cc2610be075722b6ff", "is_reserved": 0, "rental_uris": {"android": "https://dc.lft.to/lastmile_qr_scan", "ios": "https://dc.lft.to/lastmile_qr_scan"}, "fusion_lon": 0.0}, {"lat": 38.8991135, "is_disabled": 0, "type": "electric_scooter", "lon": -77.00349316666667, "bike_id": "c54afc3abb843c79b71dbb9be5b137ea", "fusion_lat": 0.0, "name": "c54afc3abb843c79b71dbb9be5b137ea", "is_reserved": 0, "rental_uris": {"android": "https://dc.lft.to/lastmile_qr_scan", "ios": "https://dc.lft.to/lastmile_qr_scan"}, "fusion_lon": 0.0}, {"lat": 38.92339666666667, "is_disabled": 0, "type": "electric_scooter", "lon": -77.0446285, "bike_id": "a6b712df6219d0891793b7ad88676ec7", "fusion_lat": 0.0, "name": "a6b712df6219d0891793b7ad88676ec7", "is_reserved": 0, "rental_uris": {"android": "https://dc.lft.to/lastmile_qr_scan", "ios": "https://dc.lft.to/lastmile_qr_scan"}, "fusion_lon": 0.0}, {"lat": 38.865976, "is_disabled": 0, "type": "electric_bike", "lon": -76.9322685, "bike_id": "a22bffd6b1d2e7da3657f726cdd7133a", "fusion_lat": 0.0, "name": "a22bffd6b1d2e7da3657f726cdd7133a", "is_reserved": 0, "rental_uris": {"android": "https://dc.lft.to/lastmile_qr_scan", "ios": "https://dc.lft.to/lastmile_qr_scan"}, "fusion_lon": 0.0}, {"lat": 38.90407583333333, "is_disabled": 0, "type": "electric_scooter", "lon": -77.0404185, "bike_id": "269ac1ca16603915fa54eb6a04b61dbb", "fusion_lat": 0.0, "name": "269ac1ca16603915fa54eb6a04b61dbb", "is_reserved": 0, "rental_uris": {"android": "https://dc.lft.to/lastmile_qr_scan", "ios": "https://dc.lft.to/lastmile_qr_scan"}, "fusion_lon": 0.0}, {"lat": 38.916486166666665, "is_disabled": 0, "type": "electric_scooter", "lon": -77.04296333333333, "bike_id": "329504349b086171179db5ef9f089ded", "fusion_lat": 0.0, "name": "329504349b086171179db5ef9f089ded", "is_reserved": 0, "rental_uris": {"android": "https://dc.lft.to/lastmile_qr_scan", "ios": "https://dc.lft.to/lastmile_qr_scan"}, "fusion_lon": 0.0}, {"lat": 38.906502, "is_disabled": 0, "type": "electric_scooter", "lon": -77.012016, "bike_id": "fbe9f27e59ba089b012a7e20e7da70e5", "fusion_lat": 0.0, "name": "fbe9f27e59ba089b012a7e20e7da70e5", "is_reserved": 0, "rental_uris": {"android": "https://dc.lft.to/lastmile_qr_scan", "ios": "https://dc.lft.to/lastmile_qr_scan"}, "fusion_lon": 0.0}, {"lat": 38.90697016666667, "is_disabled": 0, "type": "electric_scooter", "lon": -77.04366916666666, "bike_id": "9410aa0ac053059a36ead7d23d9d5fde", "fusion_lat": 0.0, "name": "9410aa0ac053059a36ead7d23d9d5fde", "is_reserved": 0, "rental_uris": {"android": "https://dc.lft.to/lastmile_qr_scan", "ios": "https://dc.lft.to/lastmile_qr_scan"}, "fusion_lon": 0.0}, {"lat": 38.90391916666667, "is_disabled": 0, "type": "electric_scooter", "lon": -77.0386135, "bike_id": "a901e8cf71b981d98a866a74409e10c2", "fusion_lat": 0.0, "name": "a901e8cf71b981d98a866a74409e10c2", "is_reserved": 0, "rental_uris": {"android": "https://dc.lft.to/lastmile_qr_scan", "ios": "https://dc.lft.to/lastmile_qr_scan"}, "fusion_lon": 0.0}, {"lat": 38.905211666666666, "is_disabled": 0, "type": "electric_scooter", "lon": -77.06441366666667, "bike_id": "81b474803123a2e6e761f3d00dd0928d", "fusion_lat": 0.0, "name": "81b474803123a2e6e761f3d00dd0928d", "is_reserved": 0, "rental_uris": {"android": "https://dc.lft.to/lastmile_qr_scan", "ios": "https://dc.lft.to/lastmile_qr_scan"}, "fusion_lon": 0.0}, {"lat": 38.90249516666667, "is_disabled": 0, "type": "electric_scooter", "lon": -77.02050483333333, "bike_id": "7a65b8fa13382094d50d5c4e7f98badc", "fusion_lat": 0.0, "name": "7a65b8fa13382094d50d5c4e7f98badc", "is_reserved": 0, "rental_uris": {"android": "https://dc.lft.to/lastmile_qr_scan", "ios": "https://dc.lft.to/lastmile_qr_scan"}, "fusion_lon": 0.0}, {"lat": 38.934158833333335, "is_disabled": 0, "type": "electric_scooter", "lon": -77.02040083333333, "bike_id": "cc3da2a0c2c60ebe4ba3bc55c59e12a1", "fusion_lat": 0.0, "name": "cc3da2a0c2c60ebe4ba3bc55c59e12a1", "is_reserved": 0, "rental_uris": {"android": "https://dc.lft.to/lastmile_qr_scan", "ios": "https://dc.lft.to/lastmile_qr_scan"}, "fusion_lon": 0.0}, {"lat": 38.952109166666666, "is_disabled": 0, "type": "electric_scooter", "lon": -77.06890466666667, "bike_id": "0fbb0f5ab9e22c2edee26d20f91377cc", "fusion_lat": 0.0, "name": "0fbb0f5ab9e22c2edee26d20f91377cc", "is_reserved": 0, "rental_uris": {"android": "https://dc.lft.to/lastmile_qr_scan", "ios": "https://dc.lft.to/lastmile_qr_scan"}, "fusion_lon": 0.0}, {"lat": 38.87151083333333, "is_disabled": 0, "type": "electric_bike", "lon": -76.93668916666667, "bike_id": "9dad7ba82a047a8d148bb4429bca1342", "fusion_lat": 0.0, "name": "9dad7ba82a047a8d148bb4429bca1342", "is_reserved": 0, "rental_uris": {"android": "https://dc.lft.to/lastmile_qr_scan", "ios": "https://dc.lft.to/lastmile_qr_scan"}, "fusion_lon": 0.0}, {"lat": 38.9317755, "is_disabled": 0, "type": "electric_scooter", "lon": -77.02816466666667, "bike_id": "d4f3f49d31d1062843ccd8aa9a3e2172", "fusion_lat": 0.0, "name": "d4f3f49d31d1062843ccd8aa9a3e2172", "is_reserved": 0, "rental_uris": {"android": "https://dc.lft.to/lastmile_qr_scan", "ios": "https://dc.lft.to/lastmile_qr_scan"}, "fusion_lon": 0.0}, {"lat": 38.919346833333336, "is_disabled": 0, "type": "electric_scooter", "lon": -77.04150633333333, "bike_id": "aec3ace4618a191bbe8ed147ca9514a9", "fusion_lat": 0.0, "name": "aec3ace4618a191bbe8ed147ca9514a9", "is_reserved": 0, "rental_uris": {"android": "https://dc.lft.to/lastmile_qr_scan", "ios": "https://dc.lft.to/lastmile_qr_scan"}, "fusion_lon": 0.0}, {"lat": 38.908176, "is_disabled": 0, "type": "electric_scooter", "lon": -76.99710233333333, "bike_id": "e5562c6cdf5b6d7db59a582541f5be66", "fusion_lat": 0.0, "name": "e5562c6cdf5b6d7db59a582541f5be66", "is_reserved": 0, "rental_uris": {"android": "https://dc.lft.to/lastmile_qr_scan", "ios": "https://dc.lft.to/lastmile_qr_scan"}, "fusion_lon": 0.0}, {"lat": 38.96625616666667, "is_disabled": 0, "type": "electric_bike", "lon": -76.9766805, "bike_id": "2780c5c63a56bb756b6076c3d4d1a6db", "fusion_lat": 0.0, "name": "2780c5c63a56bb756b6076c3d4d1a6db", "is_reserved": 0, "rental_uris": {"android": "https://dc.lft.to/lastmile_qr_scan", "ios": "https://dc.lft.to/lastmile_qr_scan"}, "fusion_lon": 0.0}, {"lat": 38.9508015, "is_disabled": 0, "type": "electric_bike", "lon": -77.0119285, "bike_id": "29be9e62eb03c45a5bf7e0c441f221f3", "fusion_lat": 0.0, "name": "29be9e62eb03c45a5bf7e0c441f221f3", "is_reserved": 0, "rental_uris": {"android": "https://dc.lft.to/lastmile_qr_scan", "ios": "https://dc.lft.to/lastmile_qr_scan"}, "fusion_lon": 0.0}, {"lat": 38.90008266666667, "is_disabled": 0, "type": "electric_scooter", "lon": -77.0061835, "bike_id": "5f2ea4d41db481d6920eba4c8fba251d", "fusion_lat": 0.0, "name": "5f2ea4d41db481d6920eba4c8fba251d", "is_reserved": 0, "rental_uris": {"android": "https://dc.lft.to/lastmile_qr_scan", "ios": "https://dc.lft.to/lastmile_qr_scan"}, "fusion_lon": 0.0}, {"lat": 38.935833833333334, "is_disabled": 0, "type": "electric_bike", "lon": -77.10683933333334, "bike_id": "7572416c8dd96656ac1a3e57adb8d17f", "fusion_lat": 0.0, "name": "7572416c8dd96656ac1a3e57adb8d17f", "is_reserved": 0, "rental_uris": {"android": "https://dc.lft.to/lastmile_qr_scan", "ios": "https://dc.lft.to/lastmile_qr_scan"}, "fusion_lon": 0.0}, {"lat": 38.944310333333334, "is_disabled": 0, "type": "electric_scooter", "lon": -77.06303066666666, "bike_id": "872496eff2558006df490d111b742c30", "fusion_lat": 0.0, "name": "872496eff2558006df490d111b742c30", "is_reserved": 0, "rental_uris": {"android": "https://dc.lft.to/lastmile_qr_scan", "ios": "https://dc.lft.to/lastmile_qr_scan"}, "fusion_lon": 0.0}, {"lat": 38.92361616666667, "is_disabled": 0, "type": "electric_scooter", "lon": -77.04150283333334, "bike_id": "c2cc997d932094991bd44c853adf5857", "fusion_lat": 0.0, "name": "c2cc997d932094991bd44c853adf5857", "is_reserved": 0, "rental_uris": {"android": "https://dc.lft.to/lastmile_qr_scan", "ios": "https://dc.lft.to/lastmile_qr_scan"}, "fusion_lon": 0.0}, {"lat": 38.888878166666665, "is_disabled": 0, "type": "electric_scooter", "lon": -76.93155183333333, "bike_id": "993a31d10b59e98b071716a785634a3b", "fusion_lat": 0.0, "name": "993a31d10b59e98b071716a785634a3b", "is_reserved": 0, "rental_uris": {"android": "https://dc.lft.to/lastmile_qr_scan", "ios": "https://dc.lft.to/lastmile_qr_scan"}, "fusion_lon": 0.0}, {"lat": 38.9003855, "is_disabled": 0, "type": "electric_scooter", "lon": -76.99039683333334, "bike_id": "4b5b8119735b2305bdd357e5cf2d3caa", "fusion_lat": 0.0, "name": "4b5b8119735b2305bdd357e5cf2d3caa", "is_reserved": 0, "rental_uris": {"android": "https://dc.lft.to/lastmile_qr_scan", "ios": "https://dc.lft.to/lastmile_qr_scan"}, "fusion_lon": 0.0}, {"lat": 38.919883166666665, "is_disabled": 0, "type": "electric_scooter", "lon": -77.01211883333333, "bike_id": "6ab14e5c60721cc2f743dd45969afe6c", "fusion_lat": 0.0, "name": "6ab14e5c60721cc2f743dd45969afe6c", "is_reserved": 0, "rental_uris": {"android": "https://dc.lft.to/lastmile_qr_scan", "ios": "https://dc.lft.to/lastmile_qr_scan"}, "fusion_lon": 0.0}, {"lat": 38.8831655, "is_disabled": 0, "type": "electric_scooter", "lon": -77.009381, "bike_id": "2d5a35d7ef5c96d9949e434113e5df07", "fusion_lat": 0.0, "name": "2d5a35d7ef5c96d9949e434113e5df07", "is_reserved": 0, "rental_uris": {"android": "https://dc.lft.to/lastmile_qr_scan", "ios": "https://dc.lft.to/lastmile_qr_scan"}, "fusion_lon": 0.0}, {"lat": 38.92257733333334, "is_disabled": 0, "type": "electric_scooter", "lon": -77.01970766666666, "bike_id": "5766956c16dabe02b56d167f740c1e76", "fusion_lat": 0.0, "name": "5766956c16dabe02b56d167f740c1e76", "is_reserved": 0, "rental_uris": {"android": "https://dc.lft.to/lastmile_qr_scan", "ios": "https://dc.lft.to/lastmile_qr_scan"}, "fusion_lon": 0.0}, {"lat": 38.930748, "is_disabled": 0, "type": "electric_scooter", "lon": -77.02173483333333, "bike_id": "6e97dd98f1c1a4a4782c4382aa02aa21", "fusion_lat": 0.0, "name": "6e97dd98f1c1a4a4782c4382aa02aa21", "is_reserved": 0, "rental_uris": {"android": "https://dc.lft.to/lastmile_qr_scan", "ios": "https://dc.lft.to/lastmile_qr_scan"}, "fusion_lon": 0.0}, {"lat": 38.91594216666667, "is_disabled": 0, "type": "electric_bike", "lon": -77.03179766666666, "bike_id": "5ec09c074dd62c2f4d4d44f4c6efbae1", "fusion_lat": 0.0, "name": "5ec09c074dd62c2f4d4d44f4c6efbae1", "is_reserved": 0, "rental_uris": {"android": "https://dc.lft.to/lastmile_qr_scan", "ios": "https://dc.lft.to/lastmile_qr_scan"}, "fusion_lon": 0.0}, {"lat": 38.91780716666667, "is_disabled": 0, "type": "electric_scooter", "lon": -77.04098333333333, "bike_id": "6b050143a0f5a3184f4744f387170c3d", "fusion_lat": 0.0, "name": "6b050143a0f5a3184f4744f387170c3d", "is_reserved": 0, "rental_uris": {"android": "https://dc.lft.to/lastmile_qr_scan", "ios": "https://dc.lft.to/lastmile_qr_scan"}, "fusion_lon": 0.0}, {"lat": 38.91602116666667, "is_disabled": 0, "type": "electric_scooter", "lon": -77.0238815, "bike_id": "5124fade969467f16925e6b6b346d978", "fusion_lat": 0.0, "name": "5124fade969467f16925e6b6b346d978", "is_reserved": 0, "rental_uris": {"android": "https://dc.lft.to/lastmile_qr_scan", "ios": "https://dc.lft.to/lastmile_qr_scan"}, "fusion_lon": 0.0}, {"lat": 38.91405266666666, "is_disabled": 0, "type": "electric_scooter", "lon": -77.020574, "bike_id": "fe3c5b2590be568c13285e01bddf34c8", "fusion_lat": 0.0, "name": "fe3c5b2590be568c13285e01bddf34c8", "is_reserved": 0, "rental_uris": {"android": "https://dc.lft.to/lastmile_qr_scan", "ios": "https://dc.lft.to/lastmile_qr_scan"}, "fusion_lon": 0.0}, {"lat": 38.91988216666667, "is_disabled": 0, "type": "electric_scooter", "lon": -76.973028, "bike_id": "f3a70acec2ee7cca71e46a5ca53ed997", "fusion_lat": 0.0, "name": "f3a70acec2ee7cca71e46a5ca53ed997", "is_reserved": 0, "rental_uris": {"android": "https://dc.lft.to/lastmile_qr_scan", "ios": "https://dc.lft.to/lastmile_qr_scan"}, "fusion_lon": 0.0}, {"lat": 38.96561716666667, "is_disabled": 0, "type": "electric_bike", "lon": -77.02296716666666, "bike_id": "b6d8eaf356cd658d3e06a48858105c82", "fusion_lat": 0.0, "name": "b6d8eaf356cd658d3e06a48858105c82", "is_reserved": 0, "rental_uris": {"android": "https://dc.lft.to/lastmile_qr_scan", "ios": "https://dc.lft.to/lastmile_qr_scan"}, "fusion_lon": 0.0}, {"lat": 38.908707666666665, "is_disabled": 0, "type": "electric_scooter", "lon": -77.04655, "bike_id": "178b1c31dc79a8f3f4548ea8fe34d6ea", "fusion_lat": 0.0, "name": "178b1c31dc79a8f3f4548ea8fe34d6ea", "is_reserved": 0, "rental_uris": {"android": "https://dc.lft.to/lastmile_qr_scan", "ios": "https://dc.lft.to/lastmile_qr_scan"}, "fusion_lon": 0.0}, {"lat": 38.8597825, "is_disabled": 0, "type": "electric_bike", "lon": -77.056249, "bike_id": "68ffb976b34de455697ac62d3effab0b", "fusion_lat": 0.0, "name": "68ffb976b34de455697ac62d3effab0b", "is_reserved": 0, "rental_uris": {"android": "https://dc.lft.to/lastmile_qr_scan", "ios": "https://dc.lft.to/lastmile_qr_scan"}, "fusion_lon": 0.0}, {"lat": 38.928797833333334, "is_disabled": 0, "type": "electric_bike", "lon": -77.03686816666666, "bike_id": "99be298558c7c6799e758e33eec9b5ef", "fusion_lat": 0.0, "name": "99be298558c7c6799e758e33eec9b5ef", "is_reserved": 0, "rental_uris": {"android": "https://dc.lft.to/lastmile_qr_scan", "ios": "https://dc.lft.to/lastmile_qr_scan"}, "fusion_lon": 0.0}, {"lat": 38.96023533333333, "is_disabled": 0, "type": "electric_bike", "lon": -77.01723583333333, "bike_id": "3aa72c55396a4ef665da05ffe4683cd1", "fusion_lat": 0.0, "name": "3aa72c55396a4ef665da05ffe4683cd1", "is_reserved": 0, "rental_uris": {"android": "https://dc.lft.to/lastmile_qr_scan", "ios": "https://dc.lft.to/lastmile_qr_scan"}, "fusion_lon": 0.0}, {"lat": 39.02933566666667, "is_disabled": 0, "type": "electric_bike", "lon": -77.0492565, "bike_id": "4942794956cd4f756291d64ee4c6d449", "fusion_lat": 0.0, "name": "4942794956cd4f756291d64ee4c6d449", "is_reserved": 0, "rental_uris": {"android": "https://dc.lft.to/lastmile_qr_scan", "ios": "https://dc.lft.to/lastmile_qr_scan"}, "fusion_lon": 0.0}, {"lat": 38.91720683333333, "is_disabled": 0, "type": "electric_scooter", "lon": -77.04102033333334, "bike_id": "eac3b2bdfe033db138609c74d9c06d7d", "fusion_lat": 0.0, "name": "eac3b2bdfe033db138609c74d9c06d7d", "is_reserved": 0, "rental_uris": {"android": "https://dc.lft.to/lastmile_qr_scan", "ios": "https://dc.lft.to/lastmile_qr_scan"}, "fusion_lon": 0.0}, {"lat": 38.884682833333336, "is_disabled": 0, "type": "electric_scooter", "lon": -76.99263216666667, "bike_id": "62f9783490dbaf48de2b971e7060f3bc", "fusion_lat": 0.0, "name": "62f9783490dbaf48de2b971e7060f3bc", "is_reserved": 0, "rental_uris": {"android": "https://dc.lft.to/lastmile_qr_scan", "ios": "https://dc.lft.to/lastmile_qr_scan"}, "fusion_lon": 0.0}, {"lat": 38.950764166666666, "is_disabled": 0, "type": "electric_scooter", "lon": -77.0087575, "bike_id": "b5a4d2cf43839223f5ece25f38d886f2", "fusion_lat": 0.0, "name": "b5a4d2cf43839223f5ece25f38d886f2", "is_reserved": 0, "rental_uris": {"android": "https://dc.lft.to/lastmile_qr_scan", "ios": "https://dc.lft.to/lastmile_qr_scan"}, "fusion_lon": 0.0}, {"lat": 38.87582166666667, "is_disabled": 0, "type": "electric_scooter", "lon": -77.01311866666667, "bike_id": "0800db3aff42ac2ad8541f8ffa3f2632", "fusion_lat": 0.0, "name": "0800db3aff42ac2ad8541f8ffa3f2632", "is_reserved": 0, "rental_uris": {"android": "https://dc.lft.to/lastmile_qr_scan", "ios": "https://dc.lft.to/lastmile_qr_scan"}, "fusion_lon": 0.0}, {"lat": 38.89994266666667, "is_disabled": 0, "type": "electric_scooter", "lon": -77.02276716666667, "bike_id": "d6f0727725742f80c22cb7b658e53fc8", "fusion_lat": 0.0, "name": "d6f0727725742f80c22cb7b658e53fc8", "is_reserved": 0, "rental_uris": {"android": "https://dc.lft.to/lastmile_qr_scan", "ios": "https://dc.lft.to/lastmile_qr_scan"}, "fusion_lon": 0.0}, {"lat": 38.880810333333336, "is_disabled": 0, "type": "electric_scooter", "lon": -76.98533183333333, "bike_id": "570d3208945ec246a70a1609616f10af", "fusion_lat": 0.0, "name": "570d3208945ec246a70a1609616f10af", "is_reserved": 0, "rental_uris": {"android": "https://dc.lft.to/lastmile_qr_scan", "ios": "https://dc.lft.to/lastmile_qr_scan"}, "fusion_lon": 0.0}, {"lat": 38.92352533333333, "is_disabled": 0, "type": "electric_scooter", "lon": -77.03361666666666, "bike_id": "e55f0b31a1ec8309e711bc47908f33b3", "fusion_lat": 0.0, "name": "e55f0b31a1ec8309e711bc47908f33b3", "is_reserved": 0, "rental_uris": {"android": "https://dc.lft.to/lastmile_qr_scan", "ios": "https://dc.lft.to/lastmile_qr_scan"}, "fusion_lon": 0.0}, {"lat": 38.876653833333336, "is_disabled": 0, "type": "electric_scooter", "lon": -77.004068, "bike_id": "5cb9b06d5d333d75f9ce0b901f551a93", "fusion_lat": 0.0, "name": "5cb9b06d5d333d75f9ce0b901f551a93", "is_reserved": 0, "rental_uris": {"android": "https://dc.lft.to/lastmile_qr_scan", "ios": "https://dc.lft.to/lastmile_qr_scan"}, "fusion_lon": 0.0}, {"lat": 38.91989133333333, "is_disabled": 0, "type": "electric_scooter", "lon": -76.9730995, "bike_id": "03c25e3badb83fdb2c942f2a325035ed", "fusion_lat": 0.0, "name": "03c25e3badb83fdb2c942f2a325035ed", "is_reserved": 0, "rental_uris": {"android": "https://dc.lft.to/lastmile_qr_scan", "ios": "https://dc.lft.to/lastmile_qr_scan"}, "fusion_lon": 0.0}, {"lat": 38.959279333333335, "is_disabled": 0, "type": "electric_bike", "lon": -77.03122083333334, "bike_id": "d380318a4d526046e2be4cb40b097aae", "fusion_lat": 0.0, "name": "d380318a4d526046e2be4cb40b097aae", "is_reserved": 0, "rental_uris": {"android": "https://dc.lft.to/lastmile_qr_scan", "ios": "https://dc.lft.to/lastmile_qr_scan"}, "fusion_lon": 0.0}, {"lat": 38.90866466666667, "is_disabled": 0, "type": "electric_bike", "lon": -77.0806655, "bike_id": "e66ced3c305002814ad04a1ef48a06d6", "fusion_lat": 0.0, "name": "e66ced3c305002814ad04a1ef48a06d6", "is_reserved": 0, "rental_uris": {"android": "https://dc.lft.to/lastmile_qr_scan", "ios": "https://dc.lft.to/lastmile_qr_scan"}, "fusion_lon": 0.0}, {"lat": 38.954052833333336, "is_disabled": 0, "type": "electric_scooter", "lon": -77.02748416666667, "bike_id": "5d85e6d6b2f10129c784e32544bbe004", "fusion_lat": 0.0, "name": "5d85e6d6b2f10129c784e32544bbe004", "is_reserved": 0, "rental_uris": {"android": "https://dc.lft.to/lastmile_qr_scan", "ios": "https://dc.lft.to/lastmile_qr_scan"}, "fusion_lon": 0.0}, {"lat": 38.95198633333333, "is_disabled": 0, "type": "electric_bike", "lon": -76.9672225, "bike_id": "16553c534f983e833c9f1d607d93554b", "fusion_lat": 0.0, "name": "16553c534f983e833c9f1d607d93554b", "is_reserved": 0, "rental_uris": {"android": "https://dc.lft.to/lastmile_qr_scan", "ios": "https://dc.lft.to/lastmile_qr_scan"}, "fusion_lon": 0.0}, {"lat": 38.92797316666667, "is_disabled": 0, "type": "electric_scooter", "lon": -77.0552145, "bike_id": "7dbffeae607bee407f9c8e1561ed4171", "fusion_lat": 0.0, "name": "7dbffeae607bee407f9c8e1561ed4171", "is_reserved": 0, "rental_uris": {"android": "https://dc.lft.to/lastmile_qr_scan", "ios": "https://dc.lft.to/lastmile_qr_scan"}, "fusion_lon": 0.0}, {"lat": 38.90102066666667, "is_disabled": 0, "type": "electric_scooter", "lon": -76.9848125, "bike_id": "3ba9131cfe75c5b596e163e5af1f4dc8", "fusion_lat": 0.0, "name": "3ba9131cfe75c5b596e163e5af1f4dc8", "is_reserved": 0, "rental_uris": {"android": "https://dc.lft.to/lastmile_qr_scan", "ios": "https://dc.lft.to/lastmile_qr_scan"}, "fusion_lon": 0.0}, {"lat": 38.9331315, "is_disabled": 0, "type": "electric_scooter", "lon": -77.03282316666666, "bike_id": "aee44b4030ba2fe453d558340bd13fdf", "fusion_lat": 0.0, "name": "aee44b4030ba2fe453d558340bd13fdf", "is_reserved": 0, "rental_uris": {"android": "https://dc.lft.to/lastmile_qr_scan", "ios": "https://dc.lft.to/lastmile_qr_scan"}, "fusion_lon": 0.0}, {"lat": 38.90363, "is_disabled": 0, "type": "electric_scooter", "lon": -77.01093833333333, "bike_id": "33c48f95be18ff3111b1e45541acdd54", "fusion_lat": 0.0, "name": "33c48f95be18ff3111b1e45541acdd54", "is_reserved": 0, "rental_uris": {"android": "https://dc.lft.to/lastmile_qr_scan", "ios": "https://dc.lft.to/lastmile_qr_scan"}, "fusion_lon": 0.0}, {"lat": 39.000152, "is_disabled": 0, "type": "electric_bike", "lon": -76.9107375, "bike_id": "f49ec80a595d0dcd07211b6fed2bd328", "fusion_lat": 0.0, "name": "f49ec80a595d0dcd07211b6fed2bd328", "is_reserved": 0, "rental_uris": {"android": "https://dc.lft.to/lastmile_qr_scan", "ios": "https://dc.lft.to/lastmile_qr_scan"}, "fusion_lon": 0.0}, {"lat": 38.901523, "is_disabled": 0, "type": "electric_scooter", "lon": -77.04168716666666, "bike_id": "0372080c57ef9d576deb9dbd985d2b18", "fusion_lat": 0.0, "name": "0372080c57ef9d576deb9dbd985d2b18", "is_reserved": 0, "rental_uris": {"android": "https://dc.lft.to/lastmile_qr_scan", "ios": "https://dc.lft.to/lastmile_qr_scan"}, "fusion_lon": 0.0}, {"lat": 38.906905, "is_disabled": 0, "type": "electric_scooter", "lon": -77.0635815, "bike_id": "9873d4ab00833cf548e20bcf9e7ead2d", "fusion_lat": 0.0, "name": "9873d4ab00833cf548e20bcf9e7ead2d", "is_reserved": 0, "rental_uris": {"android": "https://dc.lft.to/lastmile_qr_scan", "ios": "https://dc.lft.to/lastmile_qr_scan"}, "fusion_lon": 0.0}, {"lat": 38.853208, "is_disabled": 0, "type": "electric_bike", "lon": -76.980055, "bike_id": "0ff9072480ac5217978d9e2c1219158d", "fusion_lat": 0.0, "name": "0ff9072480ac5217978d9e2c1219158d", "is_reserved": 0, "rental_uris": {"android": "https://dc.lft.to/lastmile_qr_scan", "ios": "https://dc.lft.to/lastmile_qr_scan"}, "fusion_lon": 0.0}, {"lat": 38.86396666666667, "is_disabled": 0, "type": "electric_bike", "lon": -76.98984466666667, "bike_id": "e4683b2a16ff56d37dfad8944485b37a", "fusion_lat": 0.0, "name": "e4683b2a16ff56d37dfad8944485b37a", "is_reserved": 0, "rental_uris": {"android": "https://dc.lft.to/lastmile_qr_scan", "ios": "https://dc.lft.to/lastmile_qr_scan"}, "fusion_lon": 0.0}, {"lat": 38.930810666666666, "is_disabled": 0, "type": "electric_scooter", "lon": -77.02792733333334, "bike_id": "1ac507cc8d612334523247df643b062d", "fusion_lat": 0.0, "name": "1ac507cc8d612334523247df643b062d", "is_reserved": 0, "rental_uris": {"android": "https://dc.lft.to/lastmile_qr_scan", "ios": "https://dc.lft.to/lastmile_qr_scan"}, "fusion_lon": 0.0}, {"lat": 38.9072435, "is_disabled": 0, "type": "electric_scooter", "lon": -77.03990183333333, "bike_id": "91612e4f390bad312767477368c35096", "fusion_lat": 0.0, "name": "91612e4f390bad312767477368c35096", "is_reserved": 0, "rental_uris": {"android": "https://dc.lft.to/lastmile_qr_scan", "ios": "https://dc.lft.to/lastmile_qr_scan"}, "fusion_lon": 0.0}, {"lat": 38.9284125, "is_disabled": 0, "type": "electric_scooter", "lon": -77.05420033333333, "bike_id": "2997c5897ca500a2b2e86b5cf9568aa6", "fusion_lat": 0.0, "name": "2997c5897ca500a2b2e86b5cf9568aa6", "is_reserved": 0, "rental_uris": {"android": "https://dc.lft.to/lastmile_qr_scan", "ios": "https://dc.lft.to/lastmile_qr_scan"}, "fusion_lon": 0.0}, {"lat": 38.932297, "is_disabled": 0, "type": "electric_scooter", "lon": -77.033892, "bike_id": "99b54680a04a2438b418d24cc2d8965b", "fusion_lat": 0.0, "name": "99b54680a04a2438b418d24cc2d8965b", "is_reserved": 0, "rental_uris": {"android": "https://dc.lft.to/lastmile_qr_scan", "ios": "https://dc.lft.to/lastmile_qr_scan"}, "fusion_lon": 0.0}, {"lat": 38.91577983333333, "is_disabled": 0, "type": "electric_scooter", "lon": -77.05017016666666, "bike_id": "13a99c8337ffba048bc9ec463d3f3ad0", "fusion_lat": 0.0, "name": "13a99c8337ffba048bc9ec463d3f3ad0", "is_reserved": 0, "rental_uris": {"android": "https://dc.lft.to/lastmile_qr_scan", "ios": "https://dc.lft.to/lastmile_qr_scan"}, "fusion_lon": 0.0}, {"lat": 38.92105516666667, "is_disabled": 0, "type": "electric_scooter", "lon": -77.04689216666667, "bike_id": "218442b8acbb2be910d999b5be74463d", "fusion_lat": 0.0, "name": "218442b8acbb2be910d999b5be74463d", "is_reserved": 0, "rental_uris": {"android": "https://dc.lft.to/lastmile_qr_scan", "ios": "https://dc.lft.to/lastmile_qr_scan"}, "fusion_lon": 0.0}, {"lat": 38.884945333333334, "is_disabled": 0, "type": "electric_scooter", "lon": -77.00707616666666, "bike_id": "73d622a37839e468777a174d4398f5c0", "fusion_lat": 0.0, "name": "73d622a37839e468777a174d4398f5c0", "is_reserved": 0, "rental_uris": {"android": "https://dc.lft.to/lastmile_qr_scan", "ios": "https://dc.lft.to/lastmile_qr_scan"}, "fusion_lon": 0.0}, {"lat": 38.905189666666665, "is_disabled": 0, "type": "electric_scooter", "lon": -77.034588, "bike_id": "ef9f842686aa524998460b3f41b27e6a", "fusion_lat": 0.0, "name": "ef9f842686aa524998460b3f41b27e6a", "is_reserved": 0, "rental_uris": {"android": "https://dc.lft.to/lastmile_qr_scan", "ios": "https://dc.lft.to/lastmile_qr_scan"}, "fusion_lon": 0.0}, {"lat": 38.9282295, "is_disabled": 0, "type": "electric_scooter", "lon": -77.022558, "bike_id": "9bbf177eb295b1cbf80529b10212d4f2", "fusion_lat": 0.0, "name": "9bbf177eb295b1cbf80529b10212d4f2", "is_reserved": 0, "rental_uris": {"android": "https://dc.lft.to/lastmile_qr_scan", "ios": "https://dc.lft.to/lastmile_qr_scan"}, "fusion_lon": 0.0}, {"lat": 38.89539033333333, "is_disabled": 0, "type": "electric_scooter", "lon": -76.948876, "bike_id": "81a564dcde13e984b3360ec46b9db56c", "fusion_lat": 0.0, "name": "81a564dcde13e984b3360ec46b9db56c", "is_reserved": 0, "rental_uris": {"android": "https://dc.lft.to/lastmile_qr_scan", "ios": "https://dc.lft.to/lastmile_qr_scan"}, "fusion_lon": 0.0}, {"lat": 38.87247416666666, "is_disabled": 0, "type": "electric_scooter", "lon": -76.9772125, "bike_id": "b865b09333eee08bb9b40dd6b23be7a6", "fusion_lat": 0.0, "name": "b865b09333eee08bb9b40dd6b23be7a6", "is_reserved": 0, "rental_uris": {"android": "https://dc.lft.to/lastmile_qr_scan", "ios": "https://dc.lft.to/lastmile_qr_scan"}, "fusion_lon": 0.0}, {"lat": 38.943259, "is_disabled": 0, "type": "electric_scooter", "lon": -77.06134066666667, "bike_id": "5df2292f02556c749d9b501cfd127d4b", "fusion_lat": 0.0, "name": "5df2292f02556c749d9b501cfd127d4b", "is_reserved": 0, "rental_uris": {"android": "https://dc.lft.to/lastmile_qr_scan", "ios": "https://dc.lft.to/lastmile_qr_scan"}, "fusion_lon": 0.0}, {"lat": 38.9072045, "is_disabled": 0, "type": "electric_scooter", "lon": -76.99819116666667, "bike_id": "1e94826dbd49df1ab428a10d334f6d19", "fusion_lat": 0.0, "name": "1e94826dbd49df1ab428a10d334f6d19", "is_reserved": 0, "rental_uris": {"android": "https://dc.lft.to/lastmile_qr_scan", "ios": "https://dc.lft.to/lastmile_qr_scan"}, "fusion_lon": 0.0}, {"lat": 38.90804933333333, "is_disabled": 0, "type": "electric_scooter", "lon": -77.0317145, "bike_id": "5baca991e217e627fa6dc8efca198733", "fusion_lat": 0.0, "name": "5baca991e217e627fa6dc8efca198733", "is_reserved": 0, "rental_uris": {"android": "https://dc.lft.to/lastmile_qr_scan", "ios": "https://dc.lft.to/lastmile_qr_scan"}, "fusion_lon": 0.0}, {"lat": 38.93309033333333, "is_disabled": 0, "type": "electric_scooter", "lon": -77.0345045, "bike_id": "3f5ea51c794071daa8f2b2c8e52faad1", "fusion_lat": 0.0, "name": "3f5ea51c794071daa8f2b2c8e52faad1", "is_reserved": 0, "rental_uris": {"android": "https://dc.lft.to/lastmile_qr_scan", "ios": "https://dc.lft.to/lastmile_qr_scan"}, "fusion_lon": 0.0}, {"lat": 38.913586, "is_disabled": 0, "type": "electric_scooter", "lon": -77.02181766666666, "bike_id": "ca680910ac16770dec0501d344554913", "fusion_lat": 0.0, "name": "ca680910ac16770dec0501d344554913", "is_reserved": 0, "rental_uris": {"android": "https://dc.lft.to/lastmile_qr_scan", "ios": "https://dc.lft.to/lastmile_qr_scan"}, "fusion_lon": 0.0}, {"lat": 38.91330333333333, "is_disabled": 0, "type": "electric_scooter", "lon": -77.04816316666667, "bike_id": "0aabcd8904a327fed9663f1557d64f8b", "fusion_lat": 0.0, "name": "0aabcd8904a327fed9663f1557d64f8b", "is_reserved": 0, "rental_uris": {"android": "https://dc.lft.to/lastmile_qr_scan", "ios": "https://dc.lft.to/lastmile_qr_scan"}, "fusion_lon": 0.0}, {"lat": 38.9097575, "is_disabled": 0, "type": "electric_scooter", "lon": -77.04513683333333, "bike_id": "62307c3a3f821b74a2d4812671933bbf", "fusion_lat": 0.0, "name": "62307c3a3f821b74a2d4812671933bbf", "is_reserved": 0, "rental_uris": {"android": "https://dc.lft.to/lastmile_qr_scan", "ios": "https://dc.lft.to/lastmile_qr_scan"}, "fusion_lon": 0.0}, {"lat": 38.908356833333336, "is_disabled": 0, "type": "electric_scooter", "lon": -76.999675, "bike_id": "f8f43d49bfaa8285a1271439c78e082c", "fusion_lat": 0.0, "name": "f8f43d49bfaa8285a1271439c78e082c", "is_reserved": 0, "rental_uris": {"android": "https://dc.lft.to/lastmile_qr_scan", "ios": "https://dc.lft.to/lastmile_qr_scan"}, "fusion_lon": 0.0}, {"lat": 38.89411233333333, "is_disabled": 0, "type": "electric_scooter", "lon": -76.95659683333334, "bike_id": "4c558be939e3a88ec82019ff311b6794", "fusion_lat": 0.0, "name": "4c558be939e3a88ec82019ff311b6794", "is_reserved": 0, "rental_uris": {"android": "https://dc.lft.to/lastmile_qr_scan", "ios": "https://dc.lft.to/lastmile_qr_scan"}, "fusion_lon": 0.0}, {"lat": 38.902834666666664, "is_disabled": 0, "type": "electric_scooter", "lon": -77.04600133333334, "bike_id": "bd386b439104e11de122049b26ffbe6a", "fusion_lat": 0.0, "name": "bd386b439104e11de122049b26ffbe6a", "is_reserved": 0, "rental_uris": {"android": "https://dc.lft.to/lastmile_qr_scan", "ios": "https://dc.lft.to/lastmile_qr_scan"}, "fusion_lon": 0.0}, {"lat": 38.909237, "is_disabled": 0, "type": "electric_scooter", "lon": -76.998954, "bike_id": "1f644ee317a816a2b4860931437a617c", "fusion_lat": 0.0, "name": "1f644ee317a816a2b4860931437a617c", "is_reserved": 0, "rental_uris": {"android": "https://dc.lft.to/lastmile_qr_scan", "ios": "https://dc.lft.to/lastmile_qr_scan"}, "fusion_lon": 0.0}, {"lat": 38.9302065, "is_disabled": 0, "type": "electric_scooter", "lon": -77.01300816666667, "bike_id": "60dad4c96036d1c3046ceacfb20180fe", "fusion_lat": 0.0, "name": "60dad4c96036d1c3046ceacfb20180fe", "is_reserved": 0, "rental_uris": {"android": "https://dc.lft.to/lastmile_qr_scan", "ios": "https://dc.lft.to/lastmile_qr_scan"}, "fusion_lon": 0.0}, {"lat": 38.91825816666667, "is_disabled": 0, "type": "electric_scooter", "lon": -77.0121095, "bike_id": "ab1911bfe03704c91fd0be3904a886a0", "fusion_lat": 0.0, "name": "ab1911bfe03704c91fd0be3904a886a0", "is_reserved": 0, "rental_uris": {"android": "https://dc.lft.to/lastmile_qr_scan", "ios": "https://dc.lft.to/lastmile_qr_scan"}, "fusion_lon": 0.0}, {"lat": 38.91826483333333, "is_disabled": 0, "type": "electric_scooter", "lon": -77.03184616666667, "bike_id": "32c65681e5618d3758251d11e1e0209d", "fusion_lat": 0.0, "name": "32c65681e5618d3758251d11e1e0209d", "is_reserved": 0, "rental_uris": {"android": "https://dc.lft.to/lastmile_qr_scan", "ios": "https://dc.lft.to/lastmile_qr_scan"}, "fusion_lon": 0.0}, {"lat": 38.91679283333333, "is_disabled": 0, "type": "electric_scooter", "lon": -77.02947183333333, "bike_id": "99104bc57af84d880db7eeef76997066", "fusion_lat": 0.0, "name": "99104bc57af84d880db7eeef76997066", "is_reserved": 0, "rental_uris": {"android": "https://dc.lft.to/lastmile_qr_scan", "ios": "https://dc.lft.to/lastmile_qr_scan"}, "fusion_lon": 0.0}, {"lat": 38.9580645, "is_disabled": 0, "type": "electric_scooter", "lon": -77.03160083333333, "bike_id": "c4f9e5edf4cf66aceaee3bc86a2dec6f", "fusion_lat": 0.0, "name": "c4f9e5edf4cf66aceaee3bc86a2dec6f", "is_reserved": 0, "rental_uris": {"android": "https://dc.lft.to/lastmile_qr_scan", "ios": "https://dc.lft.to/lastmile_qr_scan"}, "fusion_lon": 0.0}, {"lat": 38.8545455, "is_disabled": 0, "type": "electric_scooter", "lon": -76.9857975, "bike_id": "b8338640b3f240499d3ed6d9b4776a55", "fusion_lat": 0.0, "name": "b8338640b3f240499d3ed6d9b4776a55", "is_reserved": 0, "rental_uris": {"android": "https://dc.lft.to/lastmile_qr_scan", "ios": "https://dc.lft.to/lastmile_qr_scan"}, "fusion_lon": 0.0}, {"lat": 38.895066666666665, "is_disabled": 0, "type": "electric_scooter", "lon": -77.0219005, "bike_id": "804dee31f246c8c712d1fee7afa01ae0", "fusion_lat": 0.0, "name": "804dee31f246c8c712d1fee7afa01ae0", "is_reserved": 0, "rental_uris": {"android": "https://dc.lft.to/lastmile_qr_scan", "ios": "https://dc.lft.to/lastmile_qr_scan"}, "fusion_lon": 0.0}, {"lat": 38.889730166666666, "is_disabled": 0, "type": "electric_scooter", "lon": -76.97934883333333, "bike_id": "dd8c179df642610c840c0d900517887b", "fusion_lat": 0.0, "name": "dd8c179df642610c840c0d900517887b", "is_reserved": 0, "rental_uris": {"android": "https://dc.lft.to/lastmile_qr_scan", "ios": "https://dc.lft.to/lastmile_qr_scan"}, "fusion_lon": 0.0}, {"lat": 38.91744033333333, "is_disabled": 0, "type": "electric_scooter", "lon": -77.02120116666667, "bike_id": "df5d38e3c6acd9e3c013e9749bf63f6e", "fusion_lat": 0.0, "name": "df5d38e3c6acd9e3c013e9749bf63f6e", "is_reserved": 0, "rental_uris": {"android": "https://dc.lft.to/lastmile_qr_scan", "ios": "https://dc.lft.to/lastmile_qr_scan"}, "fusion_lon": 0.0}, {"lat": 38.8645505, "is_disabled": 0, "type": "electric_bike", "lon": -76.945459, "bike_id": "e1d181fa9244d783b964a5d6c631d6a7", "fusion_lat": 0.0, "name": "e1d181fa9244d783b964a5d6c631d6a7", "is_reserved": 0, "rental_uris": {"android": "https://dc.lft.to/lastmile_qr_scan", "ios": "https://dc.lft.to/lastmile_qr_scan"}, "fusion_lon": 0.0}, {"lat": 38.871484333333335, "is_disabled": 0, "type": "electric_bike", "lon": -76.93700583333333, "bike_id": "4eb8cb8000c67d72ade447a73e12abfd", "fusion_lat": 0.0, "name": "4eb8cb8000c67d72ade447a73e12abfd", "is_reserved": 0, "rental_uris": {"android": "https://dc.lft.to/lastmile_qr_scan", "ios": "https://dc.lft.to/lastmile_qr_scan"}, "fusion_lon": 0.0}, {"lat": 38.9237565, "is_disabled": 0, "type": "electric_scooter", "lon": -77.04096766666666, "bike_id": "47213ee374669a0097d4626abad6da3c", "fusion_lat": 0.0, "name": "47213ee374669a0097d4626abad6da3c", "is_reserved": 0, "rental_uris": {"android": "https://dc.lft.to/lastmile_qr_scan", "ios": "https://dc.lft.to/lastmile_qr_scan"}, "fusion_lon": 0.0}, {"lat": 38.941807, "is_disabled": 0, "type": "electric_scooter", "lon": -77.03652233333334, "bike_id": "516b2ba559615517786cc6ec4fd176bd", "fusion_lat": 0.0, "name": "516b2ba559615517786cc6ec4fd176bd", "is_reserved": 0, "rental_uris": {"android": "https://dc.lft.to/lastmile_qr_scan", "ios": "https://dc.lft.to/lastmile_qr_scan"}, "fusion_lon": 0.0}, {"lat": 38.87066633333333, "is_disabled": 0, "type": "electric_scooter", "lon": -77.00839066666667, "bike_id": "aa7be42cfc8519f46fff764f2c16c1d1", "fusion_lat": 0.0, "name": "aa7be42cfc8519f46fff764f2c16c1d1", "is_reserved": 0, "rental_uris": {"android": "https://dc.lft.to/lastmile_qr_scan", "ios": "https://dc.lft.to/lastmile_qr_scan"}, "fusion_lon": 0.0}, {"lat": 38.865285666666665, "is_disabled": 0, "type": "electric_scooter", "lon": -76.99028916666667, "bike_id": "9546562f08c7c038c8e751b34110461f", "fusion_lat": 0.0, "name": "9546562f08c7c038c8e751b34110461f", "is_reserved": 0, "rental_uris": {"android": "https://dc.lft.to/lastmile_qr_scan", "ios": "https://dc.lft.to/lastmile_qr_scan"}, "fusion_lon": 0.0}, {"lat": 38.8962575, "is_disabled": 0, "type": "electric_scooter", "lon": -77.03210183333333, "bike_id": "d106a9432b28a9001a296bb35207bbcb", "fusion_lat": 0.0, "name": "d106a9432b28a9001a296bb35207bbcb", "is_reserved": 0, "rental_uris": {"android": "https://dc.lft.to/lastmile_qr_scan", "ios": "https://dc.lft.to/lastmile_qr_scan"}, "fusion_lon": 0.0}, {"lat": 38.8621365, "is_disabled": 0, "type": "electric_bike", "lon": -76.9977725, "bike_id": "fa3ac8c157f82f31e208f16e30a7fc6b", "fusion_lat": 0.0, "name": "fa3ac8c157f82f31e208f16e30a7fc6b", "is_reserved": 0, "rental_uris": {"android": "https://dc.lft.to/lastmile_qr_scan", "ios": "https://dc.lft.to/lastmile_qr_scan"}, "fusion_lon": 0.0}, {"lat": 38.901571, "is_disabled": 0, "type": "electric_scooter", "lon": -77.04833333333333, "bike_id": "9213b2ef1133310d7f453546779e1f50", "fusion_lat": 0.0, "name": "9213b2ef1133310d7f453546779e1f50", "is_reserved": 0, "rental_uris": {"android": "https://dc.lft.to/lastmile_qr_scan", "ios": "https://dc.lft.to/lastmile_qr_scan"}, "fusion_lon": 0.0}, {"lat": 38.91415116666667, "is_disabled": 0, "type": "electric_scooter", "lon": -77.01117816666667, "bike_id": "422a5d77ffd6c8894a72f934051b0284", "fusion_lat": 0.0, "name": "422a5d77ffd6c8894a72f934051b0284", "is_reserved": 0, "rental_uris": {"android": "https://dc.lft.to/lastmile_qr_scan", "ios": "https://dc.lft.to/lastmile_qr_scan"}, "fusion_lon": 0.0}, {"lat": 39.034335166666665, "is_disabled": 0, "type": "electric_bike", "lon": -77.04310566666666, "bike_id": "9af99fff10d51763bd118110add58ed8", "fusion_lat": 0.0, "name": "9af99fff10d51763bd118110add58ed8", "is_reserved": 0, "rental_uris": {"android": "https://dc.lft.to/lastmile_qr_scan", "ios": "https://dc.lft.to/lastmile_qr_scan"}, "fusion_lon": 0.0}, {"lat": 38.9065175, "is_disabled": 0, "type": "electric_scooter", "lon": -77.0345615, "bike_id": "d8e782f914cfe4a1be5eda72a0af46a8", "fusion_lat": 0.0, "name": "d8e782f914cfe4a1be5eda72a0af46a8", "is_reserved": 0, "rental_uris": {"android": "https://dc.lft.to/lastmile_qr_scan", "ios": "https://dc.lft.to/lastmile_qr_scan"}, "fusion_lon": 0.0}, {"lat": 38.9326795, "is_disabled": 0, "type": "electric_scooter", "lon": -77.01878333333333, "bike_id": "ea43db5eaa2eb8fa5f3af94ba9b74b04", "fusion_lat": 0.0, "name": "ea43db5eaa2eb8fa5f3af94ba9b74b04", "is_reserved": 0, "rental_uris": {"android": "https://dc.lft.to/lastmile_qr_scan", "ios": "https://dc.lft.to/lastmile_qr_scan"}, "fusion_lon": 0.0}, {"lat": 38.916979833333336, "is_disabled": 0, "type": "electric_scooter", "lon": -77.02440933333334, "bike_id": "e7b0476a1c865f28aa338257a90416dd", "fusion_lat": 0.0, "name": "e7b0476a1c865f28aa338257a90416dd", "is_reserved": 0, "rental_uris": {"android": "https://dc.lft.to/lastmile_qr_scan", "ios": "https://dc.lft.to/lastmile_qr_scan"}, "fusion_lon": 0.0}, {"lat": 38.89772133333334, "is_disabled": 0, "type": "electric_scooter", "lon": -77.03206733333333, "bike_id": "d8ff9de1efa94317cc46e4ee21c8b318", "fusion_lat": 0.0, "name": "d8ff9de1efa94317cc46e4ee21c8b318", "is_reserved": 0, "rental_uris": {"android": "https://dc.lft.to/lastmile_qr_scan", "ios": "https://dc.lft.to/lastmile_qr_scan"}, "fusion_lon": 0.0}, {"lat": 38.91191216666667, "is_disabled": 0, "type": "electric_scooter", "lon": -77.03835666666667, "bike_id": "3bb5a0342c3d65e3a1150b888a0b3b79", "fusion_lat": 0.0, "name": "3bb5a0342c3d65e3a1150b888a0b3b79", "is_reserved": 0, "rental_uris": {"android": "https://dc.lft.to/lastmile_qr_scan", "ios": "https://dc.lft.to/lastmile_qr_scan"}, "fusion_lon": 0.0}, {"lat": 38.91339933333333, "is_disabled": 0, "type": "electric_scooter", "lon": -77.039878, "bike_id": "1247941ed49d601f2edafe7631a02c4a", "fusion_lat": 0.0, "name": "1247941ed49d601f2edafe7631a02c4a", "is_reserved": 0, "rental_uris": {"android": "https://dc.lft.to/lastmile_qr_scan", "ios": "https://dc.lft.to/lastmile_qr_scan"}, "fusion_lon": 0.0}, {"lat": 38.91038016666667, "is_disabled": 0, "type": "electric_scooter", "lon": -77.0384575, "bike_id": "93ad51eae59205c32ca9751a59332685", "fusion_lat": 0.0, "name": "93ad51eae59205c32ca9751a59332685", "is_reserved": 0, "rental_uris": {"android": "https://dc.lft.to/lastmile_qr_scan", "ios": "https://dc.lft.to/lastmile_qr_scan"}, "fusion_lon": 0.0}, {"lat": 38.97327766666667, "is_disabled": 0, "type": "electric_bike", "lon": -77.02146366666666, "bike_id": "dcfc46c6c4e8480fd48ebb65ce411b43", "fusion_lat": 0.0, "name": "dcfc46c6c4e8480fd48ebb65ce411b43", "is_reserved": 0, "rental_uris": {"android": "https://dc.lft.to/lastmile_qr_scan", "ios": "https://dc.lft.to/lastmile_qr_scan"}, "fusion_lon": 0.0}, {"lat": 38.879447166666665, "is_disabled": 0, "type": "electric_bike", "lon": -76.9837945, "bike_id": "b6409013df0f84c8ddb778b2c99ddcf1", "fusion_lat": 0.0, "name": "b6409013df0f84c8ddb778b2c99ddcf1", "is_reserved": 0, "rental_uris": {"android": "https://dc.lft.to/lastmile_qr_scan", "ios": "https://dc.lft.to/lastmile_qr_scan"}, "fusion_lon": 0.0}, {"lat": 38.922939166666666, "is_disabled": 0, "type": "electric_scooter", "lon": -77.042186, "bike_id": "dc1973de1387eb539b886170addb41af", "fusion_lat": 0.0, "name": "dc1973de1387eb539b886170addb41af", "is_reserved": 0, "rental_uris": {"android": "https://dc.lft.to/lastmile_qr_scan", "ios": "https://dc.lft.to/lastmile_qr_scan"}, "fusion_lon": 0.0},