{"data": {"bikes": [{"is_reserved": 0, "type": "electric_scooter", "bike_id": "001720435d3745a3fccdac15e0834909", "lat": 38.88280533333333, "lon": -76.99489783333334, "rental_uris": {"android": "https://dc.lft.to/lastmile_qr_scan", "ios": "https://dc.lft.to/lastmile_qr_scan"}, "is_disabled": 0, "fusion_lat": 0.0, "name": "001720435d3745a3fccdac15e0834909", "fusion_lon": 0.0}, {"is_reserved": 0, "type": "electric_scooter", "bike_id": "3653c341014679d2f6ab15747a219063", "lat": 38.90080016666667, "lon": -76.925731, "rental_uris": {"android": "https://dc.lft.to/lastmile_qr_scan", "ios": "https://dc.lft.to/lastmile_qr_scan"}, "is_disabled": 0, "fusion_lat": 0.0, "name": "3653c341014679d2f6ab15747a219063", "fusion_lon": 0.0}, {"is_reserved": 0, "type": "electric_bike", "bike_id": "dea61e8693c9a2869fc36312fb986db0", "lat": 38.9453865, "lon": -77.34457, "rental_uris": {"android": "https://dc.lft.to/lastmile_qr_scan", "ios": "https://dc.lft.to/lastmile_qr_scan"}, "is_disabled": 0, "fusion_lat": 0.0, "name": "dea61e8693c9a2869fc36312fb986db0", "fusion_lon": 0.0}, {"is_reserved": 0, "type": "electric_bike", "bike_id": "eff756d10ee79a252a1d7733bc60a45d", "lat": 39.084343, "lon": -76.95151233333333, "rental_uris": {"android": "https://dc.lft.to/lastmile_qr_scan", "ios": "https://dc.lft.to/lastmile_qr_scan"}, "is_disabled": 0, "fusion_lat": 0.0, "name": "eff756d10ee79a252a1d7733bc60a45d", "fusion_lon": 0.0}, {"is_reserved": 0, "type": "electric_scooter", "bike_id": "fd7c4c26b095c816519b6a0f970afa3c", "lat": 38.90863066666667, "lon": -77.04745416666667, "rental_uris": {"android": "https://dc.lft.to/lastmile_qr_scan", "ios": "https://dc.lft.to/lastmile_qr_scan"}, "is_disabled": 0, "fusion_lat": 0.0, "name": "fd7c4c26b095c816519b6a0f970afa3c", "fusion_lon": 0.0}, {"is_reserved": 0, "type": "electric_bike", "bike_id": "5627481c13d3cf126fc9827a217d873f", "lat": 38.819422333333335, "lon": -77.00207783333333, "rental_uris": {"android": "https://dc.lft.to/lastmile_qr_scan", "ios": "https://dc.lft.to/lastmile_qr_scan"}, "is_disabled": 0, "fusion_lat": 0.0, "name": "5627481c13d3cf126fc9827a217d873f", "fusion_lon": 0.0}, {"is_reserved": 0, "type": "electric_scooter", "bike_id": "e67e3d903bcf16fff0fc28324b57d067", "lat": 38.907999833333335, "lon": -77.04480783333334, "rental_uris": {"android": "https://dc.lft.to/lastmile_qr_scan", "ios": "https://dc.lft.to/lastmile_qr_scan"}, "is_disabled": 0, "fusion_lat": 0.0, "name": "e67e3d903bcf16fff0fc28324b57d067", "fusion_lon": 0.0}, {"is_reserved": 0, "type": "electric_scooter", "bike_id": "ff40bf22640b6380a2fcbd1a164f3417", "lat": 38.934569, "lon": -77.0209155, "rental_uris": {"android": "https://dc.lft.to/lastmile_qr_scan", "ios": "https://dc.lft.to/lastmile_qr_scan"}, "is_disabled": 0, "fusion_lat": 0.0, "name": "ff40bf22640b6380a2fcbd1a164f3417", "fusion_lon": 0.0}, {"is_reserved": 0, "type": "electric_scooter", "bike_id": "a671207f7d479ced5df8ea09d4d0c79a", "lat": 38.88989683333333, "lon": -76.99301266666667, "rental_uris": {"android": "https://dc.lft.to/lastmile_qr_scan", "ios": "https://dc.lft.to/lastmile_qr_scan"}, "is_disabled": 0, "fusion_lat": 0.0, "name": "a671207f7d479ced5df8ea09d4d0c79a", "fusion_lon": 0.0}, {"is_reserved": 0, "type": "electric_scooter", "bike_id": "961d515291043efd5fd7227a8bfbe9eb", "lat": 38.89687266666667, "lon": -77.04342833333334, "rental_uris": {"android": "https://dc.lft.to/lastmile_qr_scan", "ios": "https://dc.lft.to/lastmile_qr_scan"}, "is_disabled": 0, "fusion_lat": 0.0, "name": "961d515291043efd5fd7227a8bfbe9eb", "fusion_lon": 0.0}, {"is_reserved": 0, "type": "electric_scooter", "bike_id": "d4e88e6c8cec8ab4da26fdec3f2305ba", "lat": 38.903172, "lon": -77.01085566666667, "rental_uris": {"android": "https://dc.lft.to/lastmile_qr_scan", "ios": "https://dc.lft.to/lastmile_qr_scan"}, "is_disabled": 0, "fusion_lat": 0.0, "name": "d4e88e6c8cec8ab4da26fdec3f2305ba", "fusion_lon": 0.0}, {"is_reserved": 0, "type": "electric_scooter", "bike_id": "d243518ebeb18b3b65517e28bb32312f", "lat": 38.919210166666666, "lon": -77.009846, "rental_uris": {"android": "https://dc.lft.to/lastmile_qr_scan", "ios": "https://dc.lft.to/lastmile_qr_scan"}, "is_disabled": 0, "fusion_lat": 0.0, "name": "d243518ebeb18b3b65517e28bb32312f", "fusion_lon": 0.0}, {"is_reserved": 0, "type": "electric_scooter", "bike_id": "1a51a0060237a4c5bee530607290b38a", "lat": 38.89192533333333, "lon": -77.022314, "rental_uris": {"android": "https://dc.lft.to/lastmile_qr_scan", "ios": "https://dc.lft.to/lastmile_qr_scan"}, "is_disabled": 0, "fusion_lat": 0.0, "name": "1a51a0060237a4c5bee530607290b38a", "fusion_lon": 0.0}, {"is_reserved": 0, "type": "electric_scooter", "bike_id": "dfe1b1aecd30e7747dd0d0cdf9733f1b", "lat": 38.91755283333333, "lon": -77.00450216666667, "rental_uris": {"android": "https://dc.lft.to/lastmile_qr_scan", "ios": "https://dc.lft.to/lastmile_qr_scan"}, "is_disabled": 0, "fusion_lat": 0.0, "name": "dfe1b1aecd30e7747dd0d0cdf9733f1b", "fusion_lon": 0.0}, {"is_reserved": 0, "type": "electric_scooter", "bike_id": "c09dbcf6d3682a7bc0696ee07233961f", "lat": 38.9268615, "lon": -77.03236516666666, "rental_uris": {"android": "https://dc.lft.to/lastmile_qr_scan", "ios": "https://dc.lft.to/lastmile_qr_scan"}, "is_disabled": 0, "fusion_lat": 0.0, "name": "c09dbcf6d3682a7bc0696ee07233961f", "fusion_lon": 0.0}, {"is_reserved": 0, "type": "electric_scooter", "bike_id": "bb62d24f6a98bcdd3b2d93286bf0be70", "lat": 38.88280066666667, "lon": -77.02379366666666, "rental_uris": {"android": "https://dc.lft.to/lastmile_qr_scan", "ios": "https://dc.lft.to/lastmile_qr_scan"}, "is_disabled": 0, "fusion_lat": 0.0, "name": "bb62d24f6a98bcdd3b2d93286bf0be70", "fusion_lon": 0.0}, {"is_reserved": 0, "type": "electric_bike", "bike_id": "6563f65bf25d8dc84497b983c0c1e5b7", "lat": 38.9203465, "lon": -76.97965466666666, "rental_uris": {"android": "https://dc.lft.to/lastmile_qr_scan", "ios": "https://dc.lft.to/lastmile_qr_scan"}, "is_disabled": 0, "fusion_lat": 0.0, "name": "6563f65bf25d8dc84497b983c0c1e5b7", "fusion_lon": 0.0}, {"is_reserved": 0, "type": "electric_scooter", "bike_id": "513bc92c17b528d494faee1119fd608e", "lat": 38.892211833333334, "lon": -77.04366266666666, "rental_uris": {"android": "https://dc.lft.to/lastmile_qr_scan", "ios": "https://dc.lft.to/lastmile_qr_scan"}, "is_disabled": 0, "fusion_lat": 0.0, "name": "513bc92c17b528d494faee1119fd608e", "fusion_lon": 0.0}, {"is_reserved": 0, "type": "electric_bike", "bike_id": "fa380b82961733558cb15ddcddcb0e3f", "lat": 38.92066116666667, "lon": -76.99584033333333, "rental_uris": {"android": "https://dc.lft.to/lastmile_qr_scan", "ios": "https://dc.lft.to/lastmile_qr_scan"}, "is_disabled": 0, "fusion_lat": 0.0, "name": "fa380b82961733558cb15ddcddcb0e3f", "fusion_lon": 0.0}, {"is_reserved": 0, "type": "electric_bike", "bike_id": "8d63745793d6fe5e4723a7a9d998a747", "lat": 38.91703916666667, "lon": -77.05721933333334, "rental_uris": {"android": "https://dc.lft.to/lastmile_qr_scan", "ios": "https://dc.lft.to/lastmile_qr_scan"}, "is_disabled": 0, "fusion_lat": 0.0, "name": "8d63745793d6fe5e4723a7a9d998a747", "fusion_lon": 0.0}, {"is_reserved": 0, "type": "electric_scooter", "bike_id": "0acb7da7c4e0e55375d01676741335f7", "lat": 38.89718, "lon": -77.007987, "rental_uris": {"android": "https://dc.lft.to/lastmile_qr_scan", "ios": "https://dc.lft.to/lastmile_qr_scan"}, "is_disabled": 0, "fusion_lat": 0.0, "name": "0acb7da7c4e0e55375d01676741335f7", "fusion_lon": 0.0}, {"is_reserved": 0, "type": "electric_scooter", "bike_id": "78ea51ba340e844ccdc8ce3fc9a6b7fe", "lat": 38.915546, "lon": -77.02118483333334, "rental_uris": {"android": "https://dc.lft.to/lastmile_qr_scan", "ios": "https://dc.lft.to/lastmile_qr_scan"}, "is_disabled": 0, "fusion_lat": 0.0, "name": "78ea51ba340e844ccdc8ce3fc9a6b7fe", "fusion_lon": 0.0}, {"is_reserved": 0, "type": "electric_scooter", "bike_id": "2722320963283c812ecc6e00a9fcd623", "lat": 38.90382833333334, "lon": -77.05348683333334, "rental_uris": {"android": "https://dc.lft.to/lastmile_qr_scan", "ios": "https://dc.lft.to/lastmile_qr_scan"}, "is_disabled": 0, "fusion_lat": 0.0, "name": "2722320963283c812ecc6e00a9fcd623", "fusion_lon": 0.0}, {"is_reserved": 0, "type": "electric_scooter", "bike_id": "af9a88192684fee0509c021ff48dd0aa", "lat": 38.94040316666667, "lon": -77.02902616666667, "rental_uris": {"android": "https://dc.lft.to/lastmile_qr_scan", "ios": "https://dc.lft.to/lastmile_qr_scan"}, "is_disabled": 0, "fusion_lat": 0.0, "name": "af9a88192684fee0509c021ff48dd0aa", "fusion_lon": 0.0}, {"is_reserved": 0, "type": "electric_scooter", "bike_id": "3ef3da590f77b4f01458d93921bd1536", "lat": 38.90030616666667, "lon": -77.04045166666667, "rental_uris": {"android": "https://dc.lft.to/lastmile_qr_scan", "ios": "https://dc.lft.to/lastmile_qr_scan"}, "is_disabled": 0, "fusion_lat": 0.0, "name": "3ef3da590f77b4f01458d93921bd1536", "fusion_lon": 0.0}, {"is_reserved": 0, "type": "electric_scooter", "bike_id": "826b306e7d6eccb97cd4ed73dfafcb8f", "lat": 38.92272333333333, "lon": -77.0402805, "rental_uris": {"android": "https://dc.lft.to/lastmile_qr_scan", "ios": "https://dc.lft.to/lastmile_qr_scan"}, "is_disabled": 0, "fusion_lat": 0.0, "name": "826b306e7d6eccb97cd4ed73dfafcb8f", "fusion_lon": 0.0}, {"is_reserved": 0, "type": "electric_scooter", "bike_id": "d61e2bf98ef1344ac265ac3cb8215298", "lat": 38.874777, "lon": -77.000401, "rental_uris": {"android": "https://dc.lft.to/lastmile_qr_scan", "ios": "https://dc.lft.to/lastmile_qr_scan"}, "is_disabled": 0, "fusion_lat": 0.0, "name": "d61e2bf98ef1344ac265ac3cb8215298", "fusion_lon": 0.0}, {"is_reserved": 0, "type": "electric_scooter", "bike_id": "84ca8fc124983df469a629834bb75ee1", "lat": 38.92485083333333, "lon": -77.03186566666666, "rental_uris": {"android": "https://dc.lft.to/lastmile_qr_scan", "ios": "https://dc.lft.to/lastmile_qr_scan"}, "is_disabled": 0, "fusion_lat": 0.0, "name": "84ca8fc124983df469a629834bb75ee1", "fusion_lon": 0.0}, {"is_reserved": 0, "type": "electric_scooter", "bike_id": "b3405d4e07b1b67674413b989d623314", "lat": 38.97374516666667, "lon": -77.018175, "rental_uris": {"android": "https://dc.lft.to/lastmile_qr_scan", "ios": "https://dc.lft.to/lastmile_qr_scan"}, "is_disabled": 0, "fusion_lat": 0.0, "name": "b3405d4e07b1b67674413b989d623314", "fusion_lon": 0.0}, {"is_reserved": 0, "type": "electric_scooter", "bike_id": "33b1967c86f7857396501eef0acceeae", "lat": 38.9283485, "lon": -77.00607083333334, "rental_uris": {"android": "https://dc.lft.to/lastmile_qr_scan", "ios": "https://dc.lft.to/lastmile_qr_scan"}, "is_disabled": 0, "fusion_lat": 0.0, "name": "33b1967c86f7857396501eef0acceeae", "fusion_lon": 0.0}, {"is_reserved": 0, "type": "electric_scooter", "bike_id": "42ac4ae9bc48099fd7ebde8c69784fe2", "lat": 38.9209565, "lon": -77.04693483333334, "rental_uris": {"android": "https://dc.lft.to/lastmile_qr_scan", "ios": "https://dc.lft.to/lastmile_qr_scan"}, "is_disabled": 0, "fusion_lat": 0.0, "name": "42ac4ae9bc48099fd7ebde8c69784fe2", "fusion_lon": 0.0}, {"is_reserved": 0, "type": "electric_scooter", "bike_id": "bae8ddae04bc66f0b0d34439dc1d6b2f", "lat": 38.901323166666664, "lon": -77.0314315, "rental_uris": {"android": "https://dc.lft.to/lastmile_qr_scan", "ios": "https://dc.lft.to/lastmile_qr_scan"}, "is_disabled": 0, "fusion_lat": 0.0, "name": "bae8ddae04bc66f0b0d34439dc1d6b2f", "fusion_lon": 0.0}, {"is_reserved": 0, "type": "electric_scooter", "bike_id": "c56b0f239122c22e595a3a92d0c7978f", "lat": 38.93390083333333, "lon": -77.02385133333334, "rental_uris": {"android": "https://dc.lft.to/lastmile_qr_scan", "ios": "https://dc.lft.to/lastmile_qr_scan"}, "is_disabled": 0, "fusion_lat": 0.0, "name": "c56b0f239122c22e595a3a92d0c7978f", "fusion_lon": 0.0}, {"is_reserved": 0, "type": "electric_scooter", "bike_id": "bacaf5ed8c0d1729045d2e336f746734", "lat": 38.907005, "lon": -77.03446466666666, "rental_uris": {"android": "https://dc.lft.to/lastmile_qr_scan", "ios": "https://dc.lft.to/lastmile_qr_scan"}, "is_disabled": 0, "fusion_lat": 0.0, "name": "bacaf5ed8c0d1729045d2e336f746734", "fusion_lon": 0.0}, {"is_reserved": 0, "type": "electric_bike", "bike_id": "41464d350f279ea58a95aec86064eb5c", "lat": 38.839347333333336, "lon": -77.07907516666667, "rental_uris": {"android": "https://dc.lft.to/lastmile_qr_scan", "ios": "https://dc.lft.to/lastmile_qr_scan"}, "is_disabled": 0, "fusion_lat": 0.0, "name": "41464d350f279ea58a95aec86064eb5c", "fusion_lon": 0.0}, {"is_reserved": 0, "type": "electric_scooter", "bike_id": "193cd07f539853f98e45ebeb1dc365b8", "lat": 38.9054285, "lon": -77.05698816666667, "rental_uris": {"android": "https://dc.lft.to/lastmile_qr_scan", "ios": "https://dc.lft.to/lastmile_qr_scan"}, "is_disabled": 0, "fusion_lat": 0.0, "name": "193cd07f539853f98e45ebeb1dc365b8", "fusion_lon": 0.0}, {"is_reserved": 0, "type": "electric_scooter", "bike_id": "d2a208301c69bb285bbf1b7ab242ac86", "lat": 38.8768285, "lon": -76.9962775, "rental_uris": {"android": "https://dc.lft.to/lastmile_qr_scan", "ios": "https://dc.lft.to/lastmile_qr_scan"}, "is_disabled": 0, "fusion_lat": 0.0, "name": "d2a208301c69bb285bbf1b7ab242ac86", "fusion_lon": 0.0}, {"is_reserved": 0, "type": "electric_scooter", "bike_id": "b12b1b8f84b24ec9bd8e0efd57b6bd8e", "lat": 38.91938833333333, "lon": -77.03638216666667, "rental_uris": {"android": "https://dc.lft.to/lastmile_qr_scan", "ios": "https://dc.lft.to/lastmile_qr_scan"}, "is_disabled": 0, "fusion_lat": 0.0, "name": "b12b1b8f84b24ec9bd8e0efd57b6bd8e", "fusion_lon": 0.0}, {"is_reserved": 0, "type": "electric_scooter", "bike_id": "24bf10eb47d60d2b02fb11f9af07a195", "lat": 38.89876533333333, "lon": -77.03977533333334, "rental_uris": {"android": "https://dc.lft.to/lastmile_qr_scan", "ios": "https://dc.lft.to/lastmile_qr_scan"}, "is_disabled": 0, "fusion_lat": 0.0, "name": "24bf10eb47d60d2b02fb11f9af07a195", "fusion_lon": 0.0}, {"is_reserved": 0, "type": "electric_scooter", "bike_id": "3083aa9e1690901a0d0482f7765fc780", "lat": 38.9050535, "lon": -77.06850333333334, "rental_uris": {"android": "https://dc.lft.to/lastmile_qr_scan", "ios": "https://dc.lft.to/lastmile_qr_scan"}, "is_disabled": 0, "fusion_lat": 0.0, "name": "3083aa9e1690901a0d0482f7765fc780", "fusion_lon": 0.0}, {"is_reserved": 0, "type": "electric_scooter", "bike_id": "48680b617f923e395bf739eebddd0f15", "lat": 38.900011166666665, "lon": -77.0306135, "rental_uris": {"android": "https://dc.lft.to/lastmile_qr_scan", "ios": "https://dc.lft.to/lastmile_qr_scan"}, "is_disabled": 0, "fusion_lat": 0.0, "name": "48680b617f923e395bf739eebddd0f15", "fusion_lon": 0.0}, {"is_reserved": 0, "type": "electric_scooter", "bike_id": "3fc4095639ac087ec0a4d05652560146", "lat": 38.91944983333333, "lon": -77.028873, "rental_uris": {"android": "https://dc.lft.to/lastmile_qr_scan", "ios": "https://dc.lft.to/lastmile_qr_scan"}, "is_disabled": 0, "fusion_lat": 0.0, "name": "3fc4095639ac087ec0a4d05652560146", "fusion_lon": 0.0}, {"is_reserved": 0, "type": "electric_scooter", "bike_id": "86d0169917c3bdd0158599bf8a998cdc", "lat": 38.9211995, "lon": -77.03184916666666, "rental_uris": {"android": "https://dc.lft.to/lastmile_qr_scan", "ios": "https://dc.lft.to/lastmile_qr_scan"}, "is_disabled": 0, "fusion_lat": 0.0, "name": "86d0169917c3bdd0158599bf8a998cdc", "fusion_lon": 0.0}, {"is_reserved": 0, "type": "electric_scooter", "bike_id": "aef3b0a3b059c8ec54d18fadda7fd2aa", "lat": 38.940288, "lon": -77.02523183333334, "rental_uris": {"android": "https://dc.lft.to/lastmile_qr_scan", "ios": "https://dc.lft.to/lastmile_qr_scan"}, "is_disabled": 0, "fusion_lat": 0.0, "name": "aef3b0a3b059c8ec54d18fadda7fd2aa", "fusion_lon": 0.0}, {"is_reserved": 0, "type": "electric_bike", "bike_id": "588259e04860c7e20c0699d63b76c461", "lat": 38.90693066666667, "lon": -76.95255616666667, "rental_uris": {"android": "https://dc.lft.to/lastmile_qr_scan", "ios": "https://dc.lft.to/lastmile_qr_scan"}, "is_disabled": 0, "fusion_lat": 0.0, "name": "588259e04860c7e20c0699d63b76c461", "fusion_lon": 0.0}, {"is_reserved": 0, "type": "electric_scooter", "bike_id": "0a1868f21b83e04b282cdb360b3f876d", "lat": 38.9397955, "lon": -77.05477966666666, "rental_uris": {"android": "https://dc.lft.to/lastmile_qr_scan", "ios": "https://dc.lft.to/lastmile_qr_scan"}, "is_disabled": 0, "fusion_lat": 0.0, "name": "0a1868f21b83e04b282cdb360b3f876d", "fusion_lon": 0.0}, {"is_reserved": 0, "type": "electric_scooter", "bike_id": "127343b4a11f3b006eeeecf2d3ada4c0", "lat": 38.91671816666667, "lon": -77.0319355, "rental_uris": {"android": "https://dc.lft.to/lastmile_qr_scan", "ios": "https://dc.lft.to/lastmile_qr_scan"}, "is_disabled": 0, "fusion_lat": 0.0, "name": "127343b4a11f3b006eeeecf2d3ada4c0", "fusion_lon": 0.0}, {"is_reserved": 0, "type": "electric_scooter", "bike_id": "3929de00edc9fae63d4ef0afbad9346a", "lat": 38.92866566666667, "lon": -77.05660483333334, "rental_uris": {"android": "https://dc.lft.to/lastmile_qr_scan", "ios": "https://dc.lft.to/lastmile_qr_scan"}, "is_disabled": 0, "fusion_lat": 0.0, "name": "3929de00edc9fae63d4ef0afbad9346a", "fusion_lon": 0.0}, {"is_reserved": 0, "type": "electric_scooter", "bike_id": "d55cca26fdc2d4f2a02e3f8e495d90fb", "lat": 38.917927666666664, "lon": -77.0270275, "rental_uris": {"android": "https://dc.lft.to/lastmile_qr_scan", "ios": "https://dc.lft.to/lastmile_qr_scan"}, "is_disabled": 0, "fusion_lat": 0.0, "name": "d55cca26fdc2d4f2a02e3f8e495d90fb", "fusion_lon": 0.0}, {"is_reserved": 0, "type": "electric_scooter", "bike_id": "bee4698ef533e92b661800a084039fd7", "lat": 38.9264835, "lon": -77.027035, "rental_uris": {"android": "https://dc.lft.to/lastmile_qr_scan", "ios": "https://dc.lft.to/lastmile_qr_scan"}, "is_disabled": 0, "fusion_lat": 0.0, "name": "bee4698ef533e92b661800a084039fd7", "fusion_lon": 0.0}, {"is_reserved": 0, "type": "electric_scooter", "bike_id": "f6f7a5ea265c564039f9842894ea91a7", "lat": 38.919899, "lon": -77.01782166666666, "rental_uris": {"android": "https://dc.lft.to/lastmile_qr_scan", "ios": "https://dc.lft.to/lastmile_qr_scan"}, "is_disabled": 0, "fusion_lat": 0.0, "name": "f6f7a5ea265c564039f9842894ea91a7", "fusion_lon": 0.0}, {"is_reserved": 0, "type": "electric_scooter", "bike_id": "c78ca3f6a1434839ae7bb2be43ae9d84", "lat": 38.91708833333333, "lon": -77.0386045, "rental_uris": {"android": "https://dc.lft.to/lastmile_qr_scan", "ios": "https://dc.lft.to/lastmile_qr_scan"}, "is_disabled": 0, "fusion_lat": 0.0, "name": "c78ca3f6a1434839ae7bb2be43ae9d84", "fusion_lon": 0.0}, {"is_reserved": 0, "type": "electric_scooter", "bike_id": "6f89e633b4208288eef0cdd187afe8ea", "lat": 38.920316666666665, "lon": -77.01855233333333, "rental_uris": {"android": "https://dc.lft.to/lastmile_qr_scan", "ios": "https://dc.lft.to/lastmile_qr_scan"}, "is_disabled": 0, "fusion_lat": 0.0, "name": "6f89e633b4208288eef0cdd187afe8ea", "fusion_lon": 0.0}, {"is_reserved": 0, "type": "electric_scooter", "bike_id": "1c5ea74dd9f618a52fffcc3eb6f28a95", "lat": 38.8749145, "lon": -77.00062016666666, "rental_uris": {"android": "https://dc.lft.to/lastmile_qr_scan", "ios": "https://dc.lft.to/lastmile_qr_scan"}, "is_disabled": 0, "fusion_lat": 0.0, "name": "1c5ea74dd9f618a52fffcc3eb6f28a95", "fusion_lon": 0.0}, {"is_reserved": 0, "type": "electric_scooter", "bike_id": "b22a7a135a835540f6252dea24e31926", "lat": 38.895453333333336, "lon": -76.98339983333334, "rental_uris": {"android": "https://dc.lft.to/lastmile_qr_scan", "ios": "https://dc.lft.to/lastmile_qr_scan"}, "is_disabled": 0, "fusion_lat": 0.0, "name": "b22a7a135a835540f6252dea24e31926", "fusion_lon": 0.0}, {"is_reserved": 0, "type": "electric_bike", "bike_id": "99e7477cdfeb8e58a3fc9047a122091e", "lat": 38.80731983333333, "lon": -76.992559, "rental_uris": {"android": "https://dc.lft.to/lastmile_qr_scan", "ios": "https://dc.lft.to/lastmile_qr_scan"}, "is_disabled": 0, "fusion_lat": 0.0, "name": "99e7477cdfeb8e58a3fc9047a122091e", "fusion_lon": 0.0}, {"is_reserved": 0, "type": "electric_scooter", "bike_id": "6732de5ac3c01273307600b2f4432027", "lat": 38.89897233333333, "lon": -77.00345483333334, "rental_uris": {"android": "https://dc.lft.to/lastmile_qr_scan", "ios": "https://dc.lft.to/lastmile_qr_scan"}, "is_disabled": 0, "fusion_lat": 0.0, "name": "6732de5ac3c01273307600b2f4432027", "fusion_lon": 0.0}, {"is_reserved": 0, "type": "electric_scooter", "bike_id": "240e4596200d1d7f272d12bbceaefade", "lat": 38.922489166666665, "lon": -77.0288615, "rental_uris": {"android": "https://dc.lft.to/lastmile_qr_scan", "ios": "https://dc.lft.to/lastmile_qr_scan"}, "is_disabled": 0, "fusion_lat": 0.0, "name": "240e4596200d1d7f272d12bbceaefade", "fusion_lon": 0.0}, {"is_reserved": 0, "type": "electric_scooter", "bike_id": "bc8bbcf903aed08115a09698fa9edd10", "lat": 38.921109, "lon": -77.02194616666667, "rental_uris": {"android": "https://dc.lft.to/lastmile_qr_scan", "ios": "https://dc.lft.to/lastmile_qr_scan"}, "is_disabled": 0, "fusion_lat": 0.0, "name": "bc8bbcf903aed08115a09698fa9edd10", "fusion_lon": 0.0}, {"is_reserved": 0, "type": "electric_scooter", "bike_id": "d035f95bb527e8d724fd92d23ae35774", "lat": 38.90140483333333, "lon": -77.02808483333334, "rental_uris": {"android": "https://dc.lft.to/lastmile_qr_scan", "ios": "https://dc.lft.to/lastmile_qr_scan"}, "is_disabled": 0, "fusion_lat": 0.0, "name": "d035f95bb527e8d724fd92d23ae35774", "fusion_lon": 0.0}, {"is_reserved": 0, "type": "electric_scooter", "bike_id": "ed0b041b415b21a6a2c4fe646233c4f3", "lat": 38.905439333333334, "lon": -77.05698666666666, "rental_uris": {"android": "https://dc.lft.to/lastmile_qr_scan", "ios": "https://dc.lft.to/lastmile_qr_scan"}, "is_disabled": 0, "fusion_lat": 0.0, "name": "ed0b041b415b21a6a2c4fe646233c4f3", "fusion_lon": 0.0}, {"is_reserved": 0, "type": "electric_scooter", "bike_id": "4dafe2ba85af924c7df4e30b704bad35", "lat": 38.872128333333336, "lon": -77.01545866666666, "rental_uris": {"android": "https://dc.lft.to/lastmile_qr_scan", "ios": "https://dc.lft.to/lastmile_qr_scan"}, "is_disabled": 0, "fusion_lat": 0.0, "name": "4dafe2ba85af924c7df4e30b704bad35", "fusion_lon": 0.0}, {"is_reserved": 0, "type": "electric_scooter", "bike_id": "f00799c1e73040ffb8b5abd110c82cf7", "lat": 38.89712933333333, "lon": -77.05362533333333, "rental_uris": {"android": "https://dc.lft.to/lastmile_qr_scan", "ios": "https://dc.lft.to/lastmile_qr_scan"}, "is_disabled": 0, "fusion_lat": 0.0, "name": "f00799c1e73040ffb8b5abd110c82cf7", "fusion_lon": 0.0}, {"is_reserved": 0, "type": "electric_bike", "bike_id": "4a475018d4dbea6a827f9bf3a8ffb3f5", "lat": 38.882880166666666, "lon": -76.93404016666666, "rental_uris": {"android": "https://dc.lft.to/lastmile_qr_scan", "ios": "https://dc.lft.to/lastmile_qr_scan"}, "is_disabled": 0, "fusion_lat": 0.0, "name": "4a475018d4dbea6a827f9bf3a8ffb3f5", "fusion_lon": 0.0}, {"is_reserved": 0, "type": "electric_scooter", "bike_id": "068c2abdb320c2727948dc807f1f73e5", "lat": 38.916368166666665, "lon": -77.04821666666666, "rental_uris": {"android": "https://dc.lft.to/lastmile_qr_scan", "ios": "https://dc.lft.to/lastmile_qr_scan"}, "is_disabled": 0, "fusion_lat": 0.0, "name": "068c2abdb320c2727948dc807f1f73e5", "fusion_lon": 0.0}, {"is_reserved": 0, "type": "electric_scooter", "bike_id": "508043db118116fd2224bfc44204f7dd", "lat": 38.9018035, "lon": -76.92894466666667, "rental_uris": {"android": "https://dc.lft.to/lastmile_qr_scan", "ios": "https://dc.lft.to/lastmile_qr_scan"}, "is_disabled": 0, "fusion_lat": 0.0, "name": "508043db118116fd2224bfc44204f7dd", "fusion_lon": 0.0}, {"is_reserved": 0, "type": "electric_scooter", "bike_id": "3600ee492621d0a4e5800e3601169f88", "lat": 38.914160333333335, "lon": -77.0188215, "rental_uris": {"android": "https://dc.lft.to/lastmile_qr_scan", "ios": "https://dc.lft.to/lastmile_qr_scan"}, "is_disabled": 0, "fusion_lat": 0.0, "name": "3600ee492621d0a4e5800e3601169f88", "fusion_lon": 0.0}, {"is_reserved": 0, "type": "electric_bike", "bike_id": "1bd48d8c175de46815d0613364b9e222", "lat": 38.98179316666667, "lon": -76.98212283333334, "rental_uris": {"android": "https://dc.lft.to/lastmile_qr_scan", "ios": "https://dc.lft.to/lastmile_qr_scan"}, "is_disabled": 0, "fusion_lat": 0.0, "name": "1bd48d8c175de46815d0613364b9e222", "fusion_lon": 0.0}, {"is_reserved": 0, "type": "electric_scooter", "bike_id": "704bb21c7588d5865d57acc584c029df", "lat": 38.93115266666667, "lon": -77.03031116666666, "rental_uris": {"android": "https://dc.lft.to/lastmile_qr_scan", "ios": "https://dc.lft.to/lastmile_qr_scan"}, "is_disabled": 0, "fusion_lat": 0.0, "name": "704bb21c7588d5865d57acc584c029df", "fusion_lon": 0.0}, {"is_reserved": 0, "type": "electric_scooter", "bike_id": "6b0d8f19a73d0a7e674492b416259147", "lat": 38.91799816666666, "lon": -77.02698683333334, "rental_uris": {"android": "https://dc.lft.to/lastmile_qr_scan", "ios": "https://dc.lft.to/lastmile_qr_scan"}, "is_disabled": 0, "fusion_lat": 0.0, "name": "6b0d8f19a73d0a7e674492b416259147", "fusion_lon": 0.0}, {"is_reserved": 0, "type": "electric_scooter", "bike_id": "66aabe67b520d4a26d24c79527267e66", "lat": 38.901151, "lon": -77.03368266666666, "rental_uris": {"android": "https://dc.lft.to/lastmile_qr_scan", "ios": "https://dc.lft.to/lastmile_qr_scan"}, "is_disabled": 0, "fusion_lat": 0.0, "name": "66aabe67b520d4a26d24c79527267e66", "fusion_lon": 0.0}, {"is_reserved": 0, "type": "electric_scooter", "bike_id": "ee7c0040b14c5beef6a8cb58d6a7de72", "lat": 38.871599833333335, "lon": -77.01353033333334, "rental_uris": {"android": "https://dc.lft.to/lastmile_qr_scan", "ios": "https://dc.lft.to/lastmile_qr_scan"}, "is_disabled": 0, "fusion_lat": 0.0, "name": "ee7c0040b14c5beef6a8cb58d6a7de72", "fusion_lon": 0.0}, {"is_reserved": 0, "type": "electric_scooter", "bike_id": "71f0c79d2432d8828e1c8a1cf2db82f5", "lat": 38.90593533333333, "lon": -77.03441716666667, "rental_uris": {"android": "https://dc.lft.to/lastmile_qr_scan", "ios": "https://dc.lft.to/lastmile_qr_scan"}, "is_disabled": 0, "fusion_lat": 0.0, "name": "71f0c79d2432d8828e1c8a1cf2db82f5", "fusion_lon": 0.0}, {"is_reserved": 0, "type": "electric_scooter", "bike_id": "058a5ccacf1bf618df4e994299c8e26d", "lat": 38.93654, "lon": -77.03670416666667, "rental_uris": {"android": "https://dc.lft.to/lastmile_qr_scan", "ios": "https://dc.lft.to/lastmile_qr_scan"}, "is_disabled": 0, "fusion_lat": 0.0, "name": "058a5ccacf1bf618df4e994299c8e26d", "fusion_lon": 0.0}, {"is_reserved": 0, "type": "electric_scooter", "bike_id": "560f7695b1131b2d4ab1c3f89480ed54", "lat": 38.925649166666666, "lon": -76.9700365, "rental_uris": {"android": "https://dc.lft.to/lastmile_qr_scan", "ios": "https://dc.lft.to/lastmile_qr_scan"}, "is_disabled": 0, "fusion_lat": 0.0, "name": "560f7695b1131b2d4ab1c3f89480ed54", "fusion_lon": 0.0}, {"is_reserved": 0, "type": "electric_scooter", "bike_id": "dd12273d760f8b00440a7843f7b7b07d", "lat": 38.903580166666664, "lon": -77.03180816666666, "rental_uris": {"android": "https://dc.lft.to/lastmile_qr_scan", "ios": "https://dc.lft.to/lastmile_qr_scan"}, "is_disabled": 0, "fusion_lat": 0.0, "name": "dd12273d760f8b00440a7843f7b7b07d", "fusion_lon": 0.0}, {"is_reserved": 0, "type": "electric_scooter", "bike_id": "d9d58be27c2cfb0e59a59962af3c535a", "lat": 38.900913, "lon": -76.9833815, "rental_uris": {"android": "https://dc.lft.to/lastmile_qr_scan", "ios": "https://dc.lft.to/lastmile_qr_scan"}, "is_disabled": 0, "fusion_lat": 0.0, "name": "d9d58be27c2cfb0e59a59962af3c535a", "fusion_lon": 0.0}, {"is_reserved": 0, "type": "electric_scooter", "bike_id": "2422c65a043b90583d2d5cf49196cdb5", "lat": 38.929293, "lon": -77.02010033333333, "rental_uris": {"android": "https://dc.lft.to/lastmile_qr_scan", "ios": "https://dc.lft.to/lastmile_qr_scan"}, "is_disabled": 0, "fusion_lat": 0.0, "name": "2422c65a043b90583d2d5cf49196cdb5", "fusion_lon": 0.0}, {"is_reserved": 0, "type": "electric_scooter", "bike_id": "a8e481d5959211e0ef84ac801097abe7", "lat": 38.892469166666665, "lon": -77.03349916666667, "rental_uris": {"android": "https://dc.lft.to/lastmile_qr_scan", "ios": "https://dc.lft.to/lastmile_qr_scan"}, "is_disabled": 0, "fusion_lat": 0.0, "name": "a8e481d5959211e0ef84ac801097abe7", "fusion_lon": 0.0}, {"is_reserved": 0, "type": "electric_scooter", "bike_id": "057b6230c881752da4ef9541c0c74716", "lat": 38.940568166666665, "lon": -77.02500466666666, "rental_uris": {"android": "https://dc.lft.to/lastmile_qr_scan", "ios": "https://dc.lft.to/lastmile_qr_scan"}, "is_disabled": 0, "fusion_lat": 0.0, "name": "057b6230c881752da4ef9541c0c74716", "fusion_lon": 0.0}, {"is_reserved": 0, "type": "electric_scooter", "bike_id": "093ab2fffb8a43e1b77039670efeeda7", "lat": 38.893886, "lon": -76.9230775, "rental_uris": {"android": "https://dc.lft.to/lastmile_qr_scan", "ios": "https://dc.lft.to/lastmile_qr_scan"}, "is_disabled": 0, "fusion_lat": 0.0, "name": "093ab2fffb8a43e1b77039670efeeda7", "fusion_lon": 0.0}, {"is_reserved": 0, "type": "electric_scooter", "bike_id": "b7bfa4899dbd7920107fd0ffa94ffe43", "lat": 38.8861175, "lon": -77.01980233333333, "rental_uris": {"android": "https://dc.lft.to/lastmile_qr_scan", "ios": "https://dc.lft.to/lastmile_qr_scan"}, "is_disabled": 0, "fusion_lat": 0.0, "name": "b7bfa4899dbd7920107fd0ffa94ffe43", "fusion_lon": 0.0}, {"is_reserved": 0, "type": "electric_bike", "bike_id": "0e89e39b159eb701d0d56f3025ee3bda", "lat": 38.92597833333333, "lon": -77.02437316666666, "rental_uris": {"android": "https://dc.lft.to/lastmile_qr_scan", "ios": "https://dc.lft.to/lastmile_qr_scan"}, "is_disabled": 0, "fusion_lat": 0.0, "name": "0e89e39b159eb701d0d56f3025ee3bda", "fusion_lon": 0.0}, {"is_reserved": 0, "type": "electric_bike", "bike_id": "acfdaa462e63c9139a3876e6cd05214d", "lat": 38.925494, "lon": -77.00130883333334, "rental_uris": {"android": "https://dc.lft.to/lastmile_qr_scan", "ios": "https://dc.lft.to/lastmile_qr_scan"}, "is_disabled": 0, "fusion_lat": 0.0, "name": "acfdaa462e63c9139a3876e6cd05214d", "fusion_lon": 0.0}, {"is_reserved": 0, "type": "electric_scooter", "bike_id": "a24fa2e87d99383c242453be25abe2c9", "lat": 38.9314585, "lon": -77.02994783333334, "rental_uris": {"android": "https://dc.lft.to/lastmile_qr_scan", "ios": "https://dc.lft.to/lastmile_qr_scan"}, "is_disabled": 0, "fusion_lat": 0.0, "name": "a24fa2e87d99383c242453be25abe2c9", "fusion_lon": 0.0}, {"is_reserved": 0, "type": "electric_scooter", "bike_id": "f0c281ca109bc5161db8daf8d9e61f62", "lat": 38.91411816666667, "lon": -77.03169333333334, "rental_uris": {"android": "https://dc.lft.to/lastmile_qr_scan", "ios": "https://dc.lft.to/lastmile_qr_scan"}, "is_disabled": 0, "fusion_lat": 0.0, "name": "f0c281ca109bc5161db8daf8d9e61f62", "fusion_lon": 0.0}, {"is_reserved": 0, "type": "electric_scooter", "bike_id": "d5ef200fb0234e22bbf3dd4896e0befc", "lat": 38.92457683333333, "lon": -77.02044333333333, "rental_uris": {"android": "https://dc.lft.to/lastmile_qr_scan", "ios": "https://dc.lft.to/lastmile_qr_scan"}, "is_disabled": 0, "fusion_lat": 0.0, "name": "d5ef200fb0234e22bbf3dd4896e0befc", "fusion_lon": 0.0}, {"is_reserved": 0, "type": "electric_bike", "bike_id": "7261f9b66a232cc2c7874d04218586b4", "lat": 39.00441283333333, "lon": -76.901346, "rental_uris": {"android": "https://dc.lft.to/lastmile_qr_scan", "ios": "https://dc.lft.to/lastmile_qr_scan"}, "is_disabled": 0, "fusion_lat": 0.0, "name": "7261f9b66a232cc2c7874d04218586b4", "fusion_lon": 0.0}, {"is_reserved": 0, "type": "electric_bike", "bike_id": "e822f3bd3ba3f067f29c8d938f48b46d", "lat": 38.85420333333333, "lon": -77.08369, "rental_uris": {"android": "https://dc.lft.to/lastmile_qr_scan", "ios": "https://dc.lft.to/lastmile_qr_scan"}, "is_disabled": 0, "fusion_lat": 0.0, "name": "e822f3bd3ba3f067f29c8d938f48b46d", "fusion_lon": 0.0}, {"is_reserved": 0, "type": "electric_scooter", "bike_id": "340cec286887c869771d7e43357e1ef6", "lat": 38.91364983333333, "lon": -77.02738066666667, "rental_uris": {"android": "https://dc.lft.to/lastmile_qr_scan", "ios": "https://dc.lft.to/lastmile_qr_scan"}, "is_disabled": 0, "fusion_lat": 0.0, "name": "340cec286887c869771d7e43357e1ef6", "fusion_lon": 0.0}, {"is_reserved": 0, "type": "electric_bike", "bike_id": "6ba5bccb1962b789c9f9ac35a10ce05f", "lat": 38.870323, "lon": -77.2291795, "rental_uris": {"android": "https://dc.lft.to/lastmile_qr_scan", "ios": "https://dc.lft.to/lastmile_qr_scan"}, "is_disabled": 0, "fusion_lat": 0.0, "name": "6ba5bccb1962b789c9f9ac35a10ce05f", "fusion_lon": 0.0}, {"is_reserved": 0, "type": "electric_scooter", "bike_id": "a2c1a58e453acf0c72d2d6c61d51130d", "lat": 38.93198483333333, "lon": -77.01959866666667, "rental_uris": {"android": "https://dc.lft.to/lastmile_qr_scan", "ios": "https://dc.lft.to/lastmile_qr_scan"}, "is_disabled": 0, "fusion_lat": 0.0, "name": "a2c1a58e453acf0c72d2d6c61d51130d", "fusion_lon": 0.0}, {"is_reserved": 0, "type": "electric_scooter", "bike_id": "d5fdd298c88d900d9c070fedee82bd28", "lat": 38.9238855, "lon": -77.025799, "rental_uris": {"android": "https://dc.lft.to/lastmile_qr_scan", "ios": "https://dc.lft.to/lastmile_qr_scan"}, "is_disabled": 0, "fusion_lat": 0.0, "name": "d5fdd298c88d900d9c070fedee82bd28", "fusion_lon": 0.0}, {"is_reserved": 0, "type": "electric_scooter", "bike_id": "2d7d79d1d87fb4c15927c16a86954ee1", "lat": 38.89634916666667, "lon": -76.92801416666667, "rental_uris": {"android": "https://dc.lft.to/lastmile_qr_scan", "ios": "https://dc.lft.to/lastmile_qr_scan"}, "is_disabled": 0, "fusion_lat": 0.0, "name": "2d7d79d1d87fb4c15927c16a86954ee1", "fusion_lon": 0.0}, {"is_reserved": 0, "type": "electric_bike", "bike_id": "cc0db0532ca0cae2e5d8c54acfe5d0db", "lat": 38.924354666666666, "lon": -77.05733166666667, "rental_uris": {"android": "https://dc.lft.to/lastmile_qr_scan", "ios": "https://dc.lft.to/lastmile_qr_scan"}, "is_disabled": 0, "fusion_lat": 0.0, "name": "cc0db0532ca0cae2e5d8c54acfe5d0db", "fusion_lon": 0.0}, {"is_reserved": 0, "type": "electric_bike", "bike_id": "e9f7726d1ceb7c90f0752d660f2cfc7b", "lat": 38.94263016666667, "lon": -76.99074716666667, "rental_uris": {"android": "https://dc.lft.to/lastmile_qr_scan", "ios": "https://dc.lft.to/lastmile_qr_scan"}, "is_disabled": 0, "fusion_lat": 0.0, "name": "e9f7726d1ceb7c90f0752d660f2cfc7b", "fusion_lon": 0.0}, {"is_reserved": 0, "type": "electric_scooter", "bike_id": "a17f440a24e9b9f49546e829c9b5a09c", "lat": 38.9126465, "lon": -77.015591, "rental_uris": {"android": "https://dc.lft.to/lastmile_qr_scan", "ios": "https://dc.lft.to/lastmile_qr_scan"}, "is_disabled": 0, "fusion_lat": 0.0, "name": "a17f440a24e9b9f49546e829c9b5a09c", "fusion_lon": 0.0}, {"is_reserved": 0, "type": "electric_scooter", "bike_id": "7aae2c308d4bf1b7002e215adec53da4", "lat": 38.927458333333334, "lon": -77.02535383333333, "rental_uris": {"android": "https://dc.lft.to/lastmile_qr_scan", "ios": "https://dc.lft.to/lastmile_qr_scan"}, "is_disabled": 0, "fusion_lat": 0.0, "name": "7aae2c308d4bf1b7002e215adec53da4", "fusion_lon": 0.0}, {"is_reserved": 0, "type": "electric_scooter", "bike_id": "e856a91eb44fa672e1dc2c343efd021a", "lat": 38.95912966666667, "lon": -77.000151, "rental_uris": {"android": "https://dc.lft.to/lastmile_qr_scan", "ios": "https://dc.lft.to/lastmile_qr_scan"}, "is_disabled": 0, "fusion_lat": 0.0, "name": "e856a91eb44fa672e1dc2c343efd021a", "fusion_lon": 0.0}, {"is_reserved": 0, "type": "electric_scooter", "bike_id": "43a3d662ffff762d34df5f50407318ba", "lat": 38.91496, "lon": -77.04562033333333, "rental_uris": {"android": "https://dc.lft.to/lastmile_qr_scan", "ios": "https://dc.lft.to/lastmile_qr_scan"}, "is_disabled": 0, "fusion_lat": 0.0, "name": "43a3d662ffff762d34df5f50407318ba", "fusion_lon": 0.0}, {"is_reserved": 0, "type": "electric_scooter", "bike_id": "c70da51f300634554f2e2c6623772b93", "lat": 38.90734283333333, "lon": -77.01089783333333, "rental_uris": {"android": "https://dc.lft.to/lastmile_qr_scan", "ios": "https://dc.lft.to/lastmile_qr_scan"}, "is_disabled": 0, "fusion_lat": 0.0, "name": "c70da51f300634554f2e2c6623772b93", "fusion_lon": 0.0}, {"is_reserved": 0, "type": "electric_bike", "bike_id": "9b3de27f44f881a4ea71ca0fbc098a15", "lat": 38.928835, "lon": -77.03375116666666, "rental_uris": {"android": "https://dc.lft.to/lastmile_qr_scan", "ios": "https://dc.lft.to/lastmile_qr_scan"}, "is_disabled": 0, "fusion_lat": 0.0, "name": "9b3de27f44f881a4ea71ca0fbc098a15", "fusion_lon": 0.0}, {"is_reserved": 0, "type": "electric_bike", "bike_id": "4e60f2c0c94e2c25a4796a65dad4e822", "lat": 38.924492666666666, "lon": -77.01921283333333, "rental_uris": {"android": "https://dc.lft.to/lastmile_qr_scan", "ios": "https://dc.lft.to/lastmile_qr_scan"}, "is_disabled": 0, "fusion_lat": 0.0, "name": "4e60f2c0c94e2c25a4796a65dad4e822", "fusion_lon": 0.0}, {"is_reserved": 0, "type": "electric_scooter", "bike_id": "e82863975103138831a2d5e89852e244", "lat": 38.91413, "lon": -77.0221655, "rental_uris": {"android": "https://dc.lft.to/lastmile_qr_scan", "ios": "https://dc.lft.to/lastmile_qr_scan"}, "is_disabled": 0, "fusion_lat": 0.0, "name": "e82863975103138831a2d5e89852e244", "fusion_lon": 0.0}, {"is_reserved": 0, "type": "electric_scooter", "bike_id": "5dd1b8ac74585a1aac1c946b02d05f2b", "lat": 38.92386333333334, "lon": -77.02964983333334, "rental_uris": {"android": "https://dc.lft.to/lastmile_qr_scan", "ios": "https://dc.lft.to/lastmile_qr_scan"}, "is_disabled": 0, "fusion_lat": 0.0, "name": "5dd1b8ac74585a1aac1c946b02d05f2b", "fusion_lon": 0.0}, {"is_reserved": 0, "type": "electric_scooter", "bike_id": "ed940d5577b5c2de7c442aebe06eaa27", "lat": 38.897366, "lon": -77.029762, "rental_uris": {"android": "https://dc.lft.to/lastmile_qr_scan", "ios": "https://dc.lft.to/lastmile_qr_scan"}, "is_disabled": 0, "fusion_lat": 0.0, "name": "ed940d5577b5c2de7c442aebe06eaa27", "fusion_lon": 0.0}, {"is_reserved": 0, "type": "electric_bike", "bike_id": "37b2f3810cd0348896039a5f1480cb64", "lat": 38.82042366666667, "lon": -77.0536755, "rental_uris": {"android": "https://dc.lft.to/lastmile_qr_scan", "ios": "https://dc.lft.to/lastmile_qr_scan"}, "is_disabled": 0, "fusion_lat": 0.0, "name": "37b2f3810cd0348896039a5f1480cb64", "fusion_lon": 0.0}, {"is_reserved": 0, "type": "electric_scooter", "bike_id": "2032044a8345d128e4fc0cbc8755771e", "lat": 38.896009, "lon": -77.0221015, "rental_uris": {"android": "https://dc.lft.to/lastmile_qr_scan", "ios": "https://dc.lft.to/lastmile_qr_scan"}, "is_disabled": 0, "fusion_lat": 0.0, "name": "2032044a8345d128e4fc0cbc8755771e", "fusion_lon": 0.0}, {"is_reserved": 0, "type": "electric_scooter", "bike_id": "99b080e8e7b369e5e7df08430d825ea8", "lat": 38.9336305, "lon": -77.02734566666666, "rental_uris": {"android": "https://dc.lft.to/lastmile_qr_scan", "ios": "https://dc.lft.to/lastmile_qr_scan"}, "is_disabled": 0, "fusion_lat": 0.0, "name": "99b080e8e7b369e5e7df08430d825ea8", "fusion_lon": 0.0}, {"is_reserved": 0, "type": "electric_scooter", "bike_id": "2d09b7fd2c22ca36e5fb3254f33585c8", "lat": 38.920264333333336, "lon": -77.0372985, "rental_uris": {"android": "https://dc.lft.to/lastmile_qr_scan", "ios": "https://dc.lft.to/lastmile_qr_scan"}, "is_disabled": 0, "fusion_lat": 0.0, "name": "2d09b7fd2c22ca36e5fb3254f33585c8", "fusion_lon": 0.0}, {"is_reserved": 0, "type": "electric_scooter", "bike_id": "8c52abd7ae4e81c1c5f25a99296291e3", "lat": 38.93257633333333, "lon": -77.03845733333333, "rental_uris": {"android": "https://dc.lft.to/lastmile_qr_scan", "ios": "https://dc.lft.to/lastmile_qr_scan"}, "is_disabled": 0, "fusion_lat": 0.0, "name": "8c52abd7ae4e81c1c5f25a99296291e3", "fusion_lon": 0.0}, {"is_reserved": 0, "type": "electric_scooter", "bike_id": "3c46bd2d2f0038712237a3930bea3eb8", "lat": 38.898900166666664, "lon": -76.99364066666666, "rental_uris": {"android": "https://dc.lft.to/lastmile_qr_scan", "ios": "https://dc.lft.to/lastmile_qr_scan"}, "is_disabled": 0, "fusion_lat": 0.0, "name": "3c46bd2d2f0038712237a3930bea3eb8", "fusion_lon": 0.0}, {"is_reserved": 0, "type": "electric_scooter", "bike_id": "8779f1a2b00abb280a2847e01ab3ee3f", "lat": 38.883961, "lon": -77.02997516666667, "rental_uris": {"android": "https://dc.lft.to/lastmile_qr_scan", "ios": "https://dc.lft.to/lastmile_qr_scan"}, "is_disabled": 0, "fusion_lat": 0.0, "name": "8779f1a2b00abb280a2847e01ab3ee3f", "fusion_lon": 0.0}, {"is_reserved": 0, "type": "electric_scooter", "bike_id": "88c8ecb1617fd628388524dae69a2618", "lat": 38.92858533333333, "lon": -77.03279233333333, "rental_uris": {"android": "https://dc.lft.to/lastmile_qr_scan", "ios": "https://dc.lft.to/lastmile_qr_scan"}, "is_disabled": 0, "fusion_lat": 0.0, "name": "88c8ecb1617fd628388524dae69a2618", "fusion_lon": 0.0}, {"is_reserved": 0, "type": "electric_scooter", "bike_id": "2ab2ac3ccb75ed3528faa157ff60efa9", "lat": 38.933971166666666, "lon": -77.028436, "rental_uris": {"android": "https://dc.lft.to/lastmile_qr_scan", "ios": "https://dc.lft.to/lastmile_qr_scan"}, "is_disabled": 0, "fusion_lat": 0.0, "name": "2ab2ac3ccb75ed3528faa157ff60efa9", "fusion_lon": 0.0}, {"is_reserved": 0, "type": "electric_scooter", "bike_id": "061e8e0b25083cded0b77505902a1873", "lat": 38.89235266666667, "lon": -77.04484716666667, "rental_uris": {"android": "https://dc.lft.to/lastmile_qr_scan", "ios": "https://dc.lft.to/lastmile_qr_scan"}, "is_disabled": 0, "fusion_lat": 0.0, "name": "061e8e0b25083cded0b77505902a1873", "fusion_lon": 0.0}, {"is_reserved": 0, "type": "electric_bike", "bike_id": "cb2bdc30cd430e9b50076f9bd7e63905", "lat": 38.94514916666667, "lon": -77.00679283333334, "rental_uris": {"android": "https://dc.lft.to/lastmile_qr_scan", "ios": "https://dc.lft.to/lastmile_qr_scan"}, "is_disabled": 0, "fusion_lat": 0.0, "name": "cb2bdc30cd430e9b50076f9bd7e63905", "fusion_lon": 0.0}, {"is_reserved": 0, "type": "electric_scooter", "bike_id": "22b66983cbfd20604da82d34c19bdae4", "lat": 38.902251, "lon": -77.028625, "rental_uris": {"android": "https://dc.lft.to/lastmile_qr_scan", "ios": "https://dc.lft.to/lastmile_qr_scan"}, "is_disabled": 0, "fusion_lat": 0.0, "name": "22b66983cbfd20604da82d34c19bdae4", "fusion_lon": 0.0}, {"is_reserved": 0, "type": "electric_bike", "bike_id": "2c5f77aad10a8538090d39d877e1cc28", "lat": 38.877339, "lon": -77.11853766666667, "rental_uris": {"android": "https://dc.lft.to/lastmile_qr_scan", "ios": "https://dc.lft.to/lastmile_qr_scan"}, "is_disabled": 0, "fusion_lat": 0.0, "name": "2c5f77aad10a8538090d39d877e1cc28", "fusion_lon": 0.0}, {"is_reserved": 0, "type": "electric_scooter", "bike_id": "7e910a980447c51b1e21a431bd7fc85e", "lat": 38.9206715, "lon": -77.0230495, "rental_uris": {"android": "https://dc.lft.to/lastmile_qr_scan", "ios": "https://dc.lft.to/lastmile_qr_scan"}, "is_disabled": 0, "fusion_lat": 0.0, "name": "7e910a980447c51b1e21a431bd7fc85e", "fusion_lon": 0.0}, {"is_reserved": 0, "type": "electric_scooter", "bike_id": "f37b0066f85fd0c08088d5f473c95a69", "lat": 38.9337435, "lon": -77.03466916666666, "rental_uris": {"android": "https://dc.lft.to/lastmile_qr_scan", "ios": "https://dc.lft.to/lastmile_qr_scan"}, "is_disabled": 0, "fusion_lat": 0.0, "name": "f37b0066f85fd0c08088d5f473c95a69", "fusion_lon": 0.0}, {"is_reserved": 0, "type": "electric_scooter", "bike_id": "c56ca7465757de4f616d77ae7e6b0a64", "lat": 38.93247066666667, "lon": -77.0327785, "rental_uris": {"android": "https://dc.lft.to/lastmile_qr_scan", "ios": "https://dc.lft.to/lastmile_qr_scan"}, "is_disabled": 0, "fusion_lat": 0.0, "name": "c56ca7465757de4f616d77ae7e6b0a64", "fusion_lon": 0.0}, {"is_reserved": 0, "type": "electric_scooter", "bike_id": "922296b37ae236b71d14107d88b7d95b", "lat": 38.906859833333336, "lon": -77.0272225, "rental_uris": {"android": "https://dc.lft.to/lastmile_qr_scan", "ios": "https://dc.lft.to/lastmile_qr_scan"}, "is_disabled": 0, "fusion_lat": 0.0, "name": "922296b37ae236b71d14107d88b7d95b", "fusion_lon": 0.0}, {"is_reserved": 0, "type": "electric_scooter", "bike_id": "98de5ddb60f09ca5033bb1fa6254797e", "lat": 38.95152383333333, "lon": -77.01870866666667, "rental_uris": {"android": "https://dc.lft.to/lastmile_qr_scan", "ios": "https://dc.lft.to/lastmile_qr_scan"}, "is_disabled": 0, "fusion_lat": 0.0, "name": "98de5ddb60f09ca5033bb1fa6254797e", "fusion_lon": 0.0}, {"is_reserved": 0, "type": "electric_scooter", "bike_id": "81f4629edf8fd8e73b4f93b7c2813339", "lat": 38.903969000000004, "lon": -77.02740733333333, "rental_uris": {"android": "https://dc.lft.to/lastmile_qr_scan", "ios": "https://dc.lft.to/lastmile_qr_scan"}, "is_disabled": 0, "fusion_lat": 0.0, "name": "81f4629edf8fd8e73b4f93b7c2813339", "fusion_lon": 0.0}, {"is_reserved": 0, "type": "electric_scooter", "bike_id": "9b0519e87fc142980ce869d305c0d22a", "lat": 38.94320183333333, "lon": -77.07584433333334, "rental_uris": {"android": "https://dc.lft.to/lastmile_qr_scan", "ios": "https://dc.lft.to/lastmile_qr_scan"}, "is_disabled": 0, "fusion_lat": 0.0, "name": "9b0519e87fc142980ce869d305c0d22a", "fusion_lon": 0.0}, {"is_reserved": 0, "type": "electric_scooter", "bike_id": "bb3aeb989ed48e8997f11bb393f62c68", "lat": 38.901696666666666, "lon": -77.01909833333333, "rental_uris": {"android": "https://dc.lft.to/lastmile_qr_scan", "ios": "https://dc.lft.to/lastmile_qr_scan"}, "is_disabled": 0, "fusion_lat": 0.0, "name": "bb3aeb989ed48e8997f11bb393f62c68", "fusion_lon": 0.0}, {"is_reserved": 0, "type": "electric_scooter", "bike_id": "36521f9991220ed3ab21425dce8a6546", "lat": 38.907979166666664, "lon": -77.00951083333334, "rental_uris": {"android": "https://dc.lft.to/lastmile_qr_scan", "ios": "https://dc.lft.to/lastmile_qr_scan"}, "is_disabled": 0, "fusion_lat": 0.0, "name": "36521f9991220ed3ab21425dce8a6546", "fusion_lon": 0.0}, {"is_reserved": 0, "type": "electric_scooter", "bike_id": "eeeabb0ba2805a638e3a1aac5cc8bb04", "lat": 38.90042183333333, "lon": -77.01789966666666, "rental_uris": {"android": "https://dc.lft.to/lastmile_qr_scan", "ios": "https://dc.lft.to/lastmile_qr_scan"}, "is_disabled": 0, "fusion_lat": 0.0, "name": "eeeabb0ba2805a638e3a1aac5cc8bb04", "fusion_lon": 0.0}, {"is_reserved": 0, "type": "electric_scooter", "bike_id": "d2c0a986b579d52dd9cf555324baaf6a", "lat": 38.926612166666665, "lon": -77.03619116666667, "rental_uris": {"android": "https://dc.lft.to/lastmile_qr_scan", "ios": "https://dc.lft.to/lastmile_qr_scan"}, "is_disabled": 0, "fusion_lat": 0.0, "name": "d2c0a986b579d52dd9cf555324baaf6a", "fusion_lon": 0.0}, {"is_reserved": 0, "type": "electric_scooter", "bike_id": "1c85fd678db04d1f680eb43384b4ce9f", "lat": 38.9169295, "lon": -77.05299466666666, "rental_uris": {"android": "https://dc.lft.to/lastmile_qr_scan", "ios": "https://dc.lft.to/lastmile_qr_scan"}, "is_disabled": 0, "fusion_lat": 0.0, "name": "1c85fd678db04d1f680eb43384b4ce9f", "fusion_lon": 0.0}, {"is_reserved": 0, "type": "electric_scooter", "bike_id": "8689c19c294e1babdc4708a9d8f53263", "lat": 38.93372983333333, "lon": -77.02029833333333, "rental_uris": {"android": "https://dc.lft.to/lastmile_qr_scan", "ios": "https://dc.lft.to/lastmile_qr_scan"}, "is_disabled": 0, "fusion_lat": 0.0, "name": "8689c19c294e1babdc4708a9d8f53263", "fusion_lon": 0.0}, {"is_reserved": 0, "type": "electric_scooter", "bike_id": "ec170c27ce8c9f7bc89e076f81bce143", "lat": 38.907921, "lon": -77.0020665, "rental_uris": {"android": "https://dc.lft.to/lastmile_qr_scan", "ios": "https://dc.lft.to/lastmile_qr_scan"}, "is_disabled": 0, "fusion_lat": 0.0, "name": "ec170c27ce8c9f7bc89e076f81bce143", "fusion_lon": 0.0}, {"is_reserved": 0, "type": "electric_scooter", "bike_id": "5f9087355a81da2ae612f5082a9328ab", "lat": 38.91076316666667, "lon": -77.016088, "rental_uris": {"android": "https://dc.lft.to/lastmile_qr_scan", "ios": "https://dc.lft.to/lastmile_qr_scan"}, "is_disabled": 0, "fusion_lat": 0.0, "name": "5f9087355a81da2ae612f5082a9328ab", "fusion_lon": 0.0}, {"is_reserved": 0, "type": "electric_scooter", "bike_id": "374c3e0dd33acd6ddcffe3f5143c43ee", "lat": 38.91823766666667, "lon": -77.03171316666666, "rental_uris": {"android": "https://dc.lft.to/lastmile_qr_scan", "ios": "https://dc.lft.to/lastmile_qr_scan"}, "is_disabled": 0, "fusion_lat": 0.0, "name": "374c3e0dd33acd6ddcffe3f5143c43ee", "fusion_lon": 0.0}, {"is_reserved": 0, "type": "electric_scooter", "bike_id": "90731a15139fb6fcd34ebc49ae53f277", "lat": 38.935058166666664, "lon": -77.0428165, "rental_uris": {"android": "https://dc.lft.to/lastmile_qr_scan", "ios": "https://dc.lft.to/lastmile_qr_scan"}, "is_disabled": 0, "fusion_lat": 0.0, "name": "90731a15139fb6fcd34ebc49ae53f277", "fusion_lon": 0.0}, {"is_reserved": 0, "type": "electric_scooter", "bike_id": "4cbe5657dbadf0a0d8475a6d70e55409", "lat": 38.902501666666666, "lon": -77.01853583333333, "rental_uris": {"android": "https://dc.lft.to/lastmile_qr_scan", "ios": "https://dc.lft.to/lastmile_qr_scan"}, "is_disabled": 0, "fusion_lat": 0.0, "name": "4cbe5657dbadf0a0d8475a6d70e55409", "fusion_lon": 0.0}, {"is_reserved": 0, "type": "electric_scooter", "bike_id": "5a17322b9a3eb9d4eb02d2408bcbefa2", "lat": 38.904434333333334, "lon": -76.99622766666667, "rental_uris": {"android": "https://dc.lft.to/lastmile_qr_scan", "ios": "https://dc.lft.to/lastmile_qr_scan"}, "is_disabled": 0, "fusion_lat": 0.0, "name": "5a17322b9a3eb9d4eb02d2408bcbefa2", "fusion_lon": 0.0}, {"is_reserved": 0, "type": "electric_scooter", "bike_id": "b5ddb84f3a9acbb20e9dd3ca6f01980f", "lat": 38.8748555, "lon": -77.00035083333333, "rental_uris": {"android": "https://dc.lft.to/lastmile_qr_scan", "ios": "https://dc.lft.to/lastmile_qr_scan"}, "is_disabled": 0, "fusion_lat": 0.0, "name": "b5ddb84f3a9acbb20e9dd3ca6f01980f", "fusion_lon": 0.0}, {"is_reserved": 0, "type": "electric_scooter", "bike_id": "fbedb43cc913b7c0fa496953931f6d5d", "lat": 38.87705316666667, "lon": -77.01857483333333, "rental_uris": {"android": "https://dc.lft.to/lastmile_qr_scan", "ios": "https://dc.lft.to/lastmile_qr_scan"}, "is_disabled": 0, "fusion_lat": 0.0, "name": "fbedb43cc913b7c0fa496953931f6d5d", "fusion_lon": 0.0}, {"is_reserved": 0, "type": "electric_scooter", "bike_id": "359e784d249dff2316aba36f65147974", "lat": 38.856512, "lon": -76.99677333333334, "rental_uris": {"android": "https://dc.lft.to/lastmile_qr_scan", "ios": "https://dc.lft.to/lastmile_qr_scan"}, "is_disabled": 0, "fusion_lat": 0.0, "name": "359e784d249dff2316aba36f65147974", "fusion_lon": 0.0}, {"is_reserved": 0, "type": "electric_bike", "bike_id": "95dd1f17086cf0c6cbf8313a6401b59f", "lat": 38.89460233333333, "lon": -77.10365316666666, "rental_uris": {"android": "https://dc.lft.to/lastmile_qr_scan", "ios": "https://dc.lft.to/lastmile_qr_scan"}, "is_disabled": 0, "fusion_lat": 0.0, "name": "95dd1f17086cf0c6cbf8313a6401b59f", "fusion_lon": 0.0}, {"is_reserved": 0, "type": "electric_scooter", "bike_id": "3016e63df9a72858c12b551d791dfd18", "lat": 38.928282, "lon": -77.0551295, "rental_uris": {"android": "https://dc.lft.to/lastmile_qr_scan", "ios": "https://dc.lft.to/lastmile_qr_scan"}, "is_disabled": 0, "fusion_lat": 0.0, "name": "3016e63df9a72858c12b551d791dfd18", "fusion_lon": 0.0}, {"is_reserved": 0, "type": "electric_scooter", "bike_id": "5f60d64b86dbc266a69ecd07da03b8da", "lat": 38.900168666666666, "lon": -76.98829166666667, "rental_uris": {"android": "https://dc.lft.to/lastmile_qr_scan", "ios": "https://dc.lft.to/lastmile_qr_scan"}, "is_disabled": 0, "fusion_lat": 0.0, "name": "5f60d64b86dbc266a69ecd07da03b8da", "fusion_lon": 0.0}, {"is_reserved": 0, "type": "electric_scooter", "bike_id": "b80ba33209bc6c041d962ae4d4bf19c5", "lat": 38.92397966666667, "lon": -77.05046233333333, "rental_uris": {"android": "https://dc.lft.to/lastmile_qr_scan", "ios": "https://dc.lft.to/lastmile_qr_scan"}, "is_disabled": 0, "fusion_lat": 0.0, "name": "b80ba33209bc6c041d962ae4d4bf19c5", "fusion_lon": 0.0}, {"is_reserved": 0, "type": "electric_scooter", "bike_id": "719d4d3befaaa8f936bad04135dba301", "lat": 38.903791, "lon": -77.03150466666666, "rental_uris": {"android": "https://dc.lft.to/lastmile_qr_scan", "ios": "https://dc.lft.to/lastmile_qr_scan"}, "is_disabled": 0, "fusion_lat": 0.0, "name": "719d4d3befaaa8f936bad04135dba301", "fusion_lon": 0.0}, {"is_reserved": 0, "type": "electric_scooter", "bike_id": "96e57fa9b903da870faf32602001bb1d", "lat": 38.92547866666666, "lon": -76.9995355, "rental_uris": {"android": "https://dc.lft.to/lastmile_qr_scan", "ios": "https://dc.lft.to/lastmile_qr_scan"}, "is_disabled": 0, "fusion_lat": 0.0, "name": "96e57fa9b903da870faf32602001bb1d", "fusion_lon": 0.0}, {"is_reserved": 0, "type": "electric_scooter", "bike_id": "41cc50453212d1abce677022403252b0", "lat": 38.9179375, "lon": -77.02704066666666, "rental_uris": {"android": "https://dc.lft.to/lastmile_qr_scan", "ios": "https://dc.lft.to/lastmile_qr_scan"}, "is_disabled": 0, "fusion_lat": 0.0, "name": "41cc50453212d1abce677022403252b0", "fusion_lon": 0.0}, {"is_reserved": 0, "type": "electric_scooter", "bike_id": "b1521946c6f27cc681a664ac94295aef", "lat": 38.92001466666667, "lon": -77.03188816666666, "rental_uris": {"android": "https://dc.lft.to/lastmile_qr_scan", "ios": "https://dc.lft.to/lastmile_qr_scan"}, "is_disabled": 0, "fusion_lat": 0.0, "name": "b1521946c6f27cc681a664ac94295aef", "fusion_lon": 0.0}, {"is_reserved": 0, "type": "electric_scooter", "bike_id": "b2e93a0f58a57e0e4f66808618aa8c59", "lat": 38.900671833333334, "lon": -77.01611716666666, "rental_uris": {"android": "https://dc.lft.to/lastmile_qr_scan", "ios": "https://dc.lft.to/lastmile_qr_scan"}, "is_disabled": 0, "fusion_lat": 0.0, "name": "b2e93a0f58a57e0e4f66808618aa8c59", "fusion_lon": 0.0}, {"is_reserved": 0, "type": "electric_scooter", "bike_id": "662086a445dedf7c7eb0b16289ca11a6", "lat": 38.91954116666667, "lon": -77.04459566666667, "rental_uris": {"android": "https://dc.lft.to/lastmile_qr_scan", "ios": "https://dc.lft.to/lastmile_qr_scan"}, "is_disabled": 0, "fusion_lat": 0.0, "name": "662086a445dedf7c7eb0b16289ca11a6", "fusion_lon": 0.0}, {"is_reserved": 0, "type": "electric_scooter", "bike_id": "8b306d6690da99595f6795d783369ef6", "lat": 38.8922035, "lon": -77.031512, "rental_uris": {"android": "https://dc.lft.to/lastmile_qr_scan", "ios": "https://dc.lft.to/lastmile_qr_scan"}, "is_disabled": 0, "fusion_lat": 0.0, "name": "8b306d6690da99595f6795d783369ef6", "fusion_lon": 0.0}, {"is_reserved": 0, "type": "electric_scooter", "bike_id": "3961a791593904ab84dd36252cbeeae3", "lat": 38.896628166666666, "lon": -77.01186233333334, "rental_uris": {"android": "https://dc.lft.to/lastmile_qr_scan", "ios": "https://dc.lft.to/lastmile_qr_scan"}, "is_disabled": 0, "fusion_lat": 0.0, "name": "3961a791593904ab84dd36252cbeeae3", "fusion_lon": 0.0}, {"is_reserved": 0, "type": "electric_scooter", "bike_id": "b81f7b5a7b5c5941cb940ebf7bcf10af", "lat": 38.905463833333336, "lon": -77.00593783333333, "rental_uris": {"android": "https://dc.lft.to/lastmile_qr_scan", "ios": "https://dc.lft.to/lastmile_qr_scan"}, "is_disabled": 0, "fusion_lat": 0.0, "name": "b81f7b5a7b5c5941cb940ebf7bcf10af", "fusion_lon": 0.0}, {"is_reserved": 0, "type": "electric_scooter", "bike_id": "4ce04e5e0970d363930c6fa823a94616", "lat": 38.903893, "lon": -77.01615766666667, "rental_uris": {"android": "https://dc.lft.to/lastmile_qr_scan", "ios": "https://dc.lft.to/lastmile_qr_scan"}, "is_disabled": 0, "fusion_lat": 0.0, "name": "4ce04e5e0970d363930c6fa823a94616", "fusion_lon": 0.0}, {"is_reserved": 0, "type": "electric_bike", "bike_id": "ae6ed4460262af08ffa31e2074cc82b0", "lat": 38.836305833333334, "lon": -77.0028375, "rental_uris": {"android": "https://dc.lft.to/lastmile_qr_scan", "ios": "https://dc.lft.to/lastmile_qr_scan"}, "is_disabled": 0, "fusion_lat": 0.0, "name": "ae6ed4460262af08ffa31e2074cc82b0", "fusion_lon": 0.0}, {"is_reserved": 0, "type": "electric_scooter", "bike_id": "4aa0896f193817a413e82e1a4d9a6a89", "lat": 38.93129116666667, "lon": -77.023084, "rental_uris": {"android": "https://dc.lft.to/lastmile_qr_scan", "ios": "https://dc.lft.to/lastmile_qr_scan"}, "is_disabled": 0, "fusion_lat": 0.0, "name": "4aa0896f193817a413e82e1a4d9a6a89", "fusion_lon": 0.0}, {"is_reserved": 0, "type": "electric_scooter", "bike_id": "3ce1599da01819a3fdc6e78a6b508df5", "lat": 38.96026, "lon": -77.071581, "rental_uris": {"android": "https://dc.lft.to/lastmile_qr_scan", "ios": "https://dc.lft.to/lastmile_qr_scan"}, "is_disabled": 0, "fusion_lat": 0.0, "name": "3ce1599da01819a3fdc6e78a6b508df5", "fusion_lon": 0.0}, {"is_reserved": 0, "type": "electric_scooter", "bike_id": "a559daa6f4eaff56b7284a9e16f2886e", "lat": 38.9233545, "lon": -77.05678183333333, "rental_uris": {"android": "https://dc.lft.to/lastmile_qr_scan", "ios": "https://dc.lft.to/lastmile_qr_scan"}, "is_disabled": 0, "fusion_lat": 0.0, "name": "a559daa6f4eaff56b7284a9e16f2886e", "fusion_lon": 0.0}, {"is_reserved": 0, "type": "electric_scooter", "bike_id": "0e499b52736975c1e1d4d34c58a97342", "lat": 38.933550333333336, "lon": -77.03425666666666, "rental_uris": {"android": "https://dc.lft.to/lastmile_qr_scan", "ios": "https://dc.lft.to/lastmile_qr_scan"}, "is_disabled": 0, "fusion_lat": 0.0, "name": "0e499b52736975c1e1d4d34c58a97342", "fusion_lon": 0.0}, {"is_reserved": 0, "type": "electric_scooter", "bike_id": "c40b0727bdc63bf10314222e6b770b2f", "lat": 38.8981175, "lon": -77.02368816666667, "rental_uris": {"android": "https://dc.lft.to/lastmile_qr_scan", "ios": "https://dc.lft.to/lastmile_qr_scan"}, "is_disabled": 0, "fusion_lat": 0.0, "name": "c40b0727bdc63bf10314222e6b770b2f", "fusion_lon": 0.0}, {"is_reserved": 0, "type": "electric_scooter", "bike_id": "0318ca6b9b8bd46df0a60325127708be", "lat": 38.91913733333333, "lon": -77.04810916666666, "rental_uris": {"android": "https://dc.lft.to/lastmile_qr_scan", "ios": "https://dc.lft.to/lastmile_qr_scan"}, "is_disabled": 0, "fusion_lat": 0.0, "name": "0318ca6b9b8bd46df0a60325127708be", "fusion_lon": 0.0}, {"is_reserved": 0, "type": "electric_bike", "bike_id": "1bb1e1a20ccb73fb32d9f5af88bc7730", "lat": 38.94473983333334, "lon": -76.98689633333333, "rental_uris": {"android": "https://dc.lft.to/lastmile_qr_scan", "ios": "https://dc.lft.to/lastmile_qr_scan"}, "is_disabled": 0, "fusion_lat": 0.0, "name": "1bb1e1a20ccb73fb32d9f5af88bc7730", "fusion_lon": 0.0}, {"is_reserved": 0, "type": "electric_scooter", "bike_id": "c2f50a2a537850601213b7e5824b7ca9", "lat": 38.88251916666667, "lon": -77.00624466666666, "rental_uris": {"android": "https://dc.lft.to/lastmile_qr_scan", "ios": "https://dc.lft.to/lastmile_qr_scan"}, "is_disabled": 0, "fusion_lat": 0.0, "name": "c2f50a2a537850601213b7e5824b7ca9", "fusion_lon": 0.0}, {"is_reserved": 0, "type": "electric_bike", "bike_id": "b58b58cd1ec8499825053490dbbd85e7", "lat": 39.000294, "lon": -77.04742016666667, "rental_uris": {"android": "https://dc.lft.to/lastmile_qr_scan", "ios": "https://dc.lft.to/lastmile_qr_scan"}, "is_disabled": 0, "fusion_lat": 0.0, "name": "b58b58cd1ec8499825053490dbbd85e7", "fusion_lon": 0.0}, {"is_reserved": 0, "type": "electric_scooter", "bike_id": "059f1d3c7c4b2335e0cac4da0cc11d3f", "lat": 38.932514166666664, "lon": -77.03232366666667, "rental_uris": {"android": "https://dc.lft.to/lastmile_qr_scan", "ios": "https://dc.lft.to/lastmile_qr_scan"}, "is_disabled": 0, "fusion_lat": 0.0, "name": "059f1d3c7c4b2335e0cac4da0cc11d3f", "fusion_lon": 0.0}, {"is_reserved": 0, "type": "electric_scooter", "bike_id": "328f16ffe57b292c6e9bccbbc8c3fbe7", "lat": 38.9042105, "lon": -77.03264716666666, "rental_uris": {"android": "https://dc.lft.to/lastmile_qr_scan", "ios": "https://dc.lft.to/lastmile_qr_scan"}, "is_disabled": 0, "fusion_lat": 0.0, "name": "328f16ffe57b292c6e9bccbbc8c3fbe7", "fusion_lon": 0.0}, {"is_reserved": 0, "type": "electric_scooter", "bike_id": "10abfa95df30a0611b616b23e6449639", "lat": 38.892249666666665, "lon": -77.04336066666667, "rental_uris": {"android": "https://dc.lft.to/lastmile_qr_scan", "ios": "https://dc.lft.to/lastmile_qr_scan"}, "is_disabled": 0, "fusion_lat": 0.0, "name": "10abfa95df30a0611b616b23e6449639", "fusion_lon": 0.0}, {"is_reserved": 0, "type": "electric_scooter", "bike_id": "531459362210ddf21b97d9b7375b74a5", "lat": 38.90864766666667, "lon": -77.01020183333333, "rental_uris": {"android": "https://dc.lft.to/lastmile_qr_scan", "ios": "https://dc.lft.to/lastmile_qr_scan"}, "is_disabled": 0, "fusion_lat": 0.0, "name": "531459362210ddf21b97d9b7375b74a5", "fusion_lon": 0.0}, {"is_reserved": 0, "type": "electric_scooter", "bike_id": "6cb9a7337bd82a87dd612be7647247c9", "lat": 38.921593666666666, "lon": -77.03510166666666, "rental_uris": {"android": "https://dc.lft.to/lastmile_qr_scan", "ios": "https://dc.lft.to/lastmile_qr_scan"}, "is_disabled": 0, "fusion_lat": 0.0, "name": "6cb9a7337bd82a87dd612be7647247c9", "fusion_lon": 0.0}, {"is_reserved": 0, "type": "electric_scooter", "bike_id": "97768759edd8363bfa6df0039e85d33b", "lat": 38.907295166666664, "lon": -77.01130466666666, "rental_uris": {"android": "https://dc.lft.to/lastmile_qr_scan", "ios": "https://dc.lft.to/lastmile_qr_scan"}, "is_disabled": 0, "fusion_lat": 0.0, "name": "97768759edd8363bfa6df0039e85d33b", "fusion_lon": 0.0}, {"is_reserved": 0, "type": "electric_scooter", "bike_id": "8d29d1be3ffe1b8023333fca6664b992", "lat": 38.93002583333333, "lon": -77.0380245, "rental_uris": {"android": "https://dc.lft.to/lastmile_qr_scan", "ios": "https://dc.lft.to/lastmile_qr_scan"}, "is_disabled": 0, "fusion_lat": 0.0, "name": "8d29d1be3ffe1b8023333fca6664b992", "fusion_lon": 0.0}, {"is_reserved": 0, "type": "electric_bike", "bike_id": "07cf238467b5855c42f218c9fceabf42", "lat": 38.892884, "lon": -76.9761725, "rental_uris": {"android": "https://dc.lft.to/lastmile_qr_scan", "ios": "https://dc.lft.to/lastmile_qr_scan"}, "is_disabled": 0, "fusion_lat": 0.0, "name": "07cf238467b5855c42f218c9fceabf42", "fusion_lon": 0.0}, {"is_reserved": 0, "type": "electric_scooter", "bike_id": "e80a2ff52db5821aa219a565e8adfba3", "lat": 38.904669, "lon": -77.007271, "rental_uris": {"android": "https://dc.lft.to/lastmile_qr_scan", "ios": "https://dc.lft.to/lastmile_qr_scan"}, "is_disabled": 0, "fusion_lat": 0.0, "name": "e80a2ff52db5821aa219a565e8adfba3", "fusion_lon": 0.0}, {"is_reserved": 0, "type": "electric_scooter", "bike_id": "3058c4f45b3ecc7aea8b870977720d83", "lat": 38.92146783333333, "lon": -77.03405333333333, "rental_uris": {"android": "https://dc.lft.to/lastmile_qr_scan", "ios": "https://dc.lft.to/lastmile_qr_scan"}, "is_disabled": 0, "fusion_lat": 0.0, "name": "3058c4f45b3ecc7aea8b870977720d83", "fusion_lon": 0.0}, {"is_reserved": 0, "type": "electric_scooter", "bike_id": "7d16ede7b764a753bd90827553e14a1f", "lat": 38.912651833333335, "lon": -77.038679, "rental_uris": {"android": "https://dc.lft.to/lastmile_qr_scan", "ios": "https://dc.lft.to/lastmile_qr_scan"}, "is_disabled": 0, "fusion_lat": 0.0, "name": "7d16ede7b764a753bd90827553e14a1f", "fusion_lon": 0.0}, {"is_reserved": 0, "type": "electric_scooter", "bike_id": "b9e85c8d4fdec439fbdc2462cba371b5", "lat": 38.918283333333335, "lon": -77.04546416666666, "rental_uris": {"android": "https://dc.lft.to/lastmile_qr_scan", "ios": "https://dc.lft.to/lastmile_qr_scan"}, "is_disabled": 0, "fusion_lat": 0.0, "name": "b9e85c8d4fdec439fbdc2462cba371b5", "fusion_lon": 0.0}, {"is_reserved": 0, "type": "electric_scooter", "bike_id": "45ba6c0e414862dfcc8a2433f3655687", "lat": 38.914156, "lon": -77.01877166666667, "rental_uris": {"android": "https://dc.lft.to/lastmile_qr_scan", "ios": "https://dc.lft.to/lastmile_qr_scan"}, "is_disabled": 0, "fusion_lat": 0.0, "name": "45ba6c0e414862dfcc8a2433f3655687", "fusion_lon": 0.0}, {"is_reserved": 0, "type": "electric_scooter", "bike_id": "b241699aef9452bb0f396283dfdfc7a2", "lat": 38.9150215, "lon": -77.00341916666666, "rental_uris": {"android": "https://dc.lft.to/lastmile_qr_scan", "ios": "https://dc.lft.to/lastmile_qr_scan"}, "is_disabled": 0, "fusion_lat": 0.0, "name": "b241699aef9452bb0f396283dfdfc7a2", "fusion_lon": 0.0}, {"is_reserved": 0, "type": "electric_scooter", "bike_id": "99d938cb217b60b80045f2351edd0211", "lat": 38.92507766666667, "lon": -77.02168833333333, "rental_uris": {"android": "https://dc.lft.to/lastmile_qr_scan", "ios": "https://dc.lft.to/lastmile_qr_scan"}, "is_disabled": 0, "fusion_lat": 0.0, "name": "99d938cb217b60b80045f2351edd0211", "fusion_lon": 0.0}, {"is_reserved": 0, "type": "electric_scooter", "bike_id": "af3f03fe621fd0698a577fcd700e0bce", "lat": 38.895937333333336, "lon": -76.92987816666667, "rental_uris": {"android": "https://dc.lft.to/lastmile_qr_scan", "ios": "https://dc.lft.to/lastmile_qr_scan"}, "is_disabled": 0, "fusion_lat": 0.0, "name": "af3f03fe621fd0698a577fcd700e0bce", "fusion_lon": 0.0}, {"is_reserved": 0, "type": "electric_bike", "bike_id": "e491f319a2d1c1bda5e4858e1ae31d76", "lat": 38.909849, "lon": -76.98516516666666, "rental_uris": {"android": "https://dc.lft.to/lastmile_qr_scan", "ios": "https://dc.lft.to/lastmile_qr_scan"}, "is_disabled": 0, "fusion_lat": 0.0, "name": "e491f319a2d1c1bda5e4858e1ae31d76", "fusion_lon": 0.0}, {"is_reserved": 0, "type": "electric_scooter", "bike_id": "6047949cbbcc1483c591f2ae4516f55a", "lat": 38.905327166666666, "lon": -76.98829033333334, "rental_uris": {"android": "https://dc.lft.to/lastmile_qr_scan", "ios": "https://dc.lft.to/lastmile_qr_scan"}, "is_disabled": 0, "fusion_lat": 0.0, "name": "6047949cbbcc1483c591f2ae4516f55a", "fusion_lon": 0.0}, {"is_reserved": 0, "type": "electric_scooter", "bike_id": "0ba975ca9cc95dafdac287836ecbae9c", "lat": 38.902786166666665, "lon": -77.01753983333333, "rental_uris": {"android": "https://dc.lft.to/lastmile_qr_scan", "ios": "https://dc.lft.to/lastmile_qr_scan"}, "is_disabled": 0, "fusion_lat": 0.0, "name": "0ba975ca9cc95dafdac287836ecbae9c", "fusion_lon": 0.0}, {"is_reserved": 0, "type": "electric_bike", "bike_id": "f353a538ae7c7fcae40220b9bb5458ad", "lat": 38.949100666666666, "lon": -77.024259, "rental_uris": {"android": "https://dc.lft.to/lastmile_qr_scan", "ios": "https://dc.lft.to/lastmile_qr_scan"}, "is_disabled": 0, "fusion_lat": 0.0, "name": "f353a538ae7c7fcae40220b9bb5458ad", "fusion_lon": 0.0}, {"is_reserved": 0, "type": "electric_scooter", "bike_id": "73225a05c8a5710aa9317ad7efb9a7cc", "lat": 38.899626833333336, "lon": -77.02641116666666, "rental_uris": {"android": "https://dc.lft.to/lastmile_qr_scan", "ios": "https://dc.lft.to/lastmile_qr_scan"}, "is_disabled": 0, "fusion_lat": 0.0, "name": "73225a05c8a5710aa9317ad7efb9a7cc", "fusion_lon": 0.0}, {"is_reserved": 0, "type": "electric_scooter", "bike_id": "402cedb08a1af026864ec5d2c8274c85", "lat": 38.90375683333333, "lon": -77.041742, "rental_uris": {"android": "https://dc.lft.to/lastmile_qr_scan", "ios": "https://dc.lft.to/lastmile_qr_scan"}, "is_disabled": 0, "fusion_lat": 0.0, "name": "402cedb08a1af026864ec5d2c8274c85", "fusion_lon": 0.0}, {"is_reserved": 0, "type": "electric_scooter", "bike_id": "7cd5e9961ff999237ff97109d7779644", "lat": 38.907244666666664, "lon": -77.04883266666667, "rental_uris": {"android": "https://dc.lft.to/lastmile_qr_scan", "ios": "https://dc.lft.to/lastmile_qr_scan"}, "is_disabled": 0, "fusion_lat": 0.0, "name": "7cd5e9961ff999237ff97109d7779644", "fusion_lon": 0.0}, {"is_reserved": 0, "type": "electric_scooter", "bike_id": "d9966db04820ee0369e92bd13e4ed0ac", "lat": 38.92765283333333, "lon": -77.02885266666667, "rental_uris": {"android": "https://dc.lft.to/lastmile_qr_scan", "ios": "https://dc.lft.to/lastmile_qr_scan"}, "is_disabled": 0, "fusion_lat": 0.0, "name": "d9966db04820ee0369e92bd13e4ed0ac", "fusion_lon": 0.0}, {"is_reserved": 0, "type": "electric_scooter", "bike_id": "ad5b4b05f8f90c4eeb642ac9cf93ab27", "lat": 38.8482175, "lon": -76.9781865, "rental_uris": {"android": "https://dc.lft.to/lastmile_qr_scan", "ios": "https://dc.lft.to/lastmile_qr_scan"}, "is_disabled": 0, "fusion_lat": 0.0, "name": "ad5b4b05f8f90c4eeb642ac9cf93ab27", "fusion_lon": 0.0}, {"is_reserved": 0, "type": "electric_scooter", "bike_id": "80813a004d7f72576aaa892d8e64b4dc", "lat": 38.9262575, "lon": -77.0378475, "rental_uris": {"android": "https://dc.lft.to/lastmile_qr_scan", "ios": "https://dc.lft.to/lastmile_qr_scan"}, "is_disabled": 0, "fusion_lat": 0.0, "name": "80813a004d7f72576aaa892d8e64b4dc", "fusion_lon": 0.0}, {"is_reserved": 0, "type": "electric_scooter", "bike_id": "e056f2c026fc634db925f473b8ee3489", "lat": 38.925494, "lon": -77.03259533333333, "rental_uris": {"android": "https://dc.lft.to/lastmile_qr_scan", "ios": "https://dc.lft.to/lastmile_qr_scan"}, "is_disabled": 0, "fusion_lat": 0.0, "name": "e056f2c026fc634db925f473b8ee3489", "fusion_lon": 0.0}, {"is_reserved": 0, "type": "electric_bike", "bike_id": "a86058f04ef55d9b737840961d2dc648", "lat": 38.8038465, "lon": -76.98813383333334, "rental_uris": {"android": "https://dc.lft.to/lastmile_qr_scan", "ios": "https://dc.lft.to/lastmile_qr_scan"}, "is_disabled": 0, "fusion_lat": 0.0, "name": "a86058f04ef55d9b737840961d2dc648", "fusion_lon": 0.0}, {"is_reserved": 0, "type": "electric_scooter", "bike_id": "f393aa00fe1fa1396845974052dff509", "lat": 38.89219516666667, "lon": -77.03152883333334, "rental_uris": {"android": "https://dc.lft.to/lastmile_qr_scan", "ios": "https://dc.lft.to/lastmile_qr_scan"}, "is_disabled": 0, "fusion_lat": 0.0, "name": "f393aa00fe1fa1396845974052dff509", "fusion_lon": 0.0}, {"is_reserved": 0, "type": "electric_scooter", "bike_id": "17635ef81f9c29661646946bd2af692f", "lat": 38.934066, "lon": -77.0399105, "rental_uris": {"android": "https://dc.lft.to/lastmile_qr_scan", "ios": "https://dc.lft.to/lastmile_qr_scan"}, "is_disabled": 0, "fusion_lat": 0.0, "name": "17635ef81f9c29661646946bd2af692f", "fusion_lon": 0.0}, {"is_reserved": 0, "type": "electric_scooter", "bike_id": "3bf933277015b177157788909e6b4a9b", "lat": 38.9096915, "lon": -77.00773816666667, "rental_uris": {"android": "https://dc.lft.to/lastmile_qr_scan", "ios": "https://dc.lft.to/lastmile_qr_scan"}, "is_disabled": 0, "fusion_lat": 0.0, "name": "3bf933277015b177157788909e6b4a9b", "fusion_lon": 0.0}, {"is_reserved": 0, "type": "electric_scooter", "bike_id": "320dd7520fbed8f568948727ef287ff9", "lat": 38.91940683333333, "lon": -77.04797566666667, "rental_uris": {"android": "https://dc.lft.to/lastmile_qr_scan", "ios": "https://dc.lft.to/lastmile_qr_scan"}, "is_disabled": 0, "fusion_lat": 0.0, "name": "320dd7520fbed8f568948727ef287ff9", "fusion_lon": 0.0}, {"is_reserved": 0, "type": "electric_scooter", "bike_id": "a0af9577356496f8c63ae418ba0b2044", "lat": 38.9157215, "lon": -77.0366365, "rental_uris": {"android": "https://dc.lft.to/lastmile_qr_scan", "ios": "https://dc.lft.to/lastmile_qr_scan"}, "is_disabled": 0, "fusion_lat": 0.0, "name": "a0af9577356496f8c63ae418ba0b2044", "fusion_lon": 0.0}, {"is_reserved": 0, "type": "electric_scooter", "bike_id": "2ada22ed809eb81fb4b6051663ba4fdf", "lat": 38.93085583333333, "lon": -77.02807733333333, "rental_uris": {"android": "https://dc.lft.to/lastmile_qr_scan", "ios": "https://dc.lft.to/lastmile_qr_scan"}, "is_disabled": 0, "fusion_lat": 0.0, "name": "2ada22ed809eb81fb4b6051663ba4fdf", "fusion_lon": 0.0}, {"is_reserved": 0, "type": "electric_scooter", "bike_id": "e77a6771ff3dcf7b887af9125b58869b", "lat": 38.918788166666666, "lon": -77.03567083333333, "rental_uris": {"android": "https://dc.lft.to/lastmile_qr_scan", "ios": "https://dc.lft.to/lastmile_qr_scan"}, "is_disabled": 0, "fusion_lat": 0.0, "name": "e77a6771ff3dcf7b887af9125b58869b", "fusion_lon": 0.0}, {"is_reserved": 0, "type": "electric_scooter", "bike_id": "ffc00a691f96038dce599c4a20d437fd", "lat": 38.8981925, "lon": -77.02479033333333, "rental_uris": {"android": "https://dc.lft.to/lastmile_qr_scan", "ios": "https://dc.lft.to/lastmile_qr_scan"}, "is_disabled": 0, "fusion_lat": 0.0, "name": "ffc00a691f96038dce599c4a20d437fd", "fusion_lon": 0.0}, {"is_reserved": 0, "type": "electric_bike", "bike_id": "374accb3375870992a1ba005b758e7c3", "lat": 38.86263816666667, "lon": -76.98348933333334, "rental_uris": {"android": "https://dc.lft.to/lastmile_qr_scan", "ios": "https://dc.lft.to/lastmile_qr_scan"}, "is_disabled": 0, "fusion_lat": 0.0, "name": "374accb3375870992a1ba005b758e7c3", "fusion_lon": 0.0}, {"is_reserved": 0, "type": "electric_scooter", "bike_id": "d882a5d59d89c9759fada173a700716b", "lat": 38.88725183333333, "lon": -76.98384966666667, "rental_uris": {"android": "https://dc.lft.to/lastmile_qr_scan", "ios": "https://dc.lft.to/lastmile_qr_scan"}, "is_disabled": 0, "fusion_lat": 0.0, "name": "d882a5d59d89c9759fada173a700716b", "fusion_lon": 0.0}, {"is_reserved": 0, "type": "electric_scooter", "bike_id": "f326a1c8aaf8c55fb248bcd4604e060d", "lat": 38.899874, "lon": -77.02278316666667, "rental_uris": {"android": "https://dc.lft.to/lastmile_qr_scan", "ios": "https://dc.lft.to/lastmile_qr_scan"}, "is_disabled": 0, "fusion_lat": 0.0, "name": "f326a1c8aaf8c55fb248bcd4604e060d", "fusion_lon": 0.0}, {"is_reserved": 0, "type": "electric_scooter", "bike_id": "6598f5096f44f139cadcfd0cde1ba4a7", "lat": 38.90034716666667, "lon": -76.99156316666667, "rental_uris": {"android": "https://dc.lft.to/lastmile_qr_scan", "ios": "https://dc.lft.to/lastmile_qr_scan"}, "is_disabled": 0, "fusion_lat": 0.0, "name": "6598f5096f44f139cadcfd0cde1ba4a7", "fusion_lon": 0.0}, {"is_reserved": 0, "type": "electric_scooter", "bike_id": "daffc47bcffad729b29b7556831ba8fc", "lat": 38.892211333333336, "lon": -77.02318016666666, "rental_uris": {"android": "https://dc.lft.to/lastmile_qr_scan", "ios": "https://dc.lft.to/lastmile_qr_scan"}, "is_disabled": 0, "fusion_lat": 0.0, "name": "daffc47bcffad729b29b7556831ba8fc", "fusion_lon": 0.0}, {"is_reserved": 0, "type": "electric_bike", "bike_id": "0b22681391670bfd556d23a13dbb3555", "lat": 38.951263, "lon": -76.96591366666667, "rental_uris": {"android": "https://dc.lft.to/lastmile_qr_scan", "ios": "https://dc.lft.to/lastmile_qr_scan"}, "is_disabled": 0, "fusion_lat": 0.0, "name": "0b22681391670bfd556d23a13dbb3555", "fusion_lon": 0.0}, {"is_reserved": 0, "type": "electric_scooter", "bike_id": "471970e02fd5db34c820bb028f9f8a70", "lat": 38.930990666666666, "lon": -77.03449316666666, "rental_uris": {"android": "https://dc.lft.to/lastmile_qr_scan", "ios": "https://dc.lft.to/lastmile_qr_scan"}, "is_disabled": 0, "fusion_lat": 0.0, "name": "471970e02fd5db34c820bb028f9f8a70", "fusion_lon": 0.0}, {"is_reserved": 0, "type": "electric_scooter", "bike_id": "80b8b45a00c7eb9cbd0c52a6c8a782f4", "lat": 38.89929016666667, "lon": -77.03184716666667, "rental_uris": {"android": "https://dc.lft.to/lastmile_qr_scan", "ios": "https://dc.lft.to/lastmile_qr_scan"}, "is_disabled": 0, "fusion_lat": 0.0, "name": "80b8b45a00c7eb9cbd0c52a6c8a782f4", "fusion_lon": 0.0}, {"is_reserved": 0, "type": "electric_scooter", "bike_id": "efd0affb2c78161c56dcf148286ea1f1", "lat": 38.89364883333333, "lon": -76.94107483333333, "rental_uris": {"android": "https://dc.lft.to/lastmile_qr_scan", "ios": "https://dc.lft.to/lastmile_qr_scan"}, "is_disabled": 0, "fusion_lat": 0.0, "name": "efd0affb2c78161c56dcf148286ea1f1", "fusion_lon": 0.0}, {"is_reserved": 0, "type": "electric_scooter", "bike_id": "9e49c1c240aa50d7a474095d3485f5ac", "lat": 38.929632833333336, "lon": -77.02342366666667, "rental_uris": {"android": "https://dc.lft.to/lastmile_qr_scan", "ios": "https://dc.lft.to/lastmile_qr_scan"}, "is_disabled": 0, "fusion_lat": 0.0, "name": "9e49c1c240aa50d7a474095d3485f5ac", "fusion_lon": 0.0}, {"is_reserved": 0, "type": "electric_scooter", "bike_id": "8420395aff656d954b40f9ec4aeb6baf", "lat": 38.9226825, "lon": -76.99772333333334, "rental_uris": {"android": "https://dc.lft.to/lastmile_qr_scan", "ios": "https://dc.lft.to/lastmile_qr_scan"}, "is_disabled": 0, "fusion_lat": 0.0, "name": "8420395aff656d954b40f9ec4aeb6baf", "fusion_lon": 0.0}, {"is_reserved": 0, "type": "electric_scooter", "bike_id": "5f387ffd5c3d1af5e4a8816c9112a27d", "lat": 38.9473115, "lon": -77.02461183333334, "rental_uris": {"android": "https://dc.lft.to/lastmile_qr_scan", "ios": "https://dc.lft.to/lastmile_qr_scan"}, "is_disabled": 0, "fusion_lat": 0.0, "name": "5f387ffd5c3d1af5e4a8816c9112a27d", "fusion_lon": 0.0}, {"is_reserved": 0, "type": "electric_scooter", "bike_id": "c9f5d1837ca35fdf753630918ca245a9", "lat": 38.933753333333335, "lon": -77.05721483333333, "rental_uris": {"android": "https://dc.lft.to/lastmile_qr_scan", "ios": "https://dc.lft.to/lastmile_qr_scan"}, "is_disabled": 0, "fusion_lat": 0.0, "name": "c9f5d1837ca35fdf753630918ca245a9", "fusion_lon": 0.0}, {"is_reserved": 0, "type": "electric_scooter", "bike_id": "92e48856bfd926cd8c64483564aa5fd3", "lat": 38.9224015, "lon": -77.02124333333333, "rental_uris": {"android": "https://dc.lft.to/lastmile_qr_scan", "ios": "https://dc.lft.to/lastmile_qr_scan"}, "is_disabled": 0, "fusion_lat": 0.0, "name": "92e48856bfd926cd8c64483564aa5fd3", "fusion_lon": 0.0}, {"is_reserved": 0, "type": "electric_scooter", "bike_id": "8dea1b52a0f6f5608a3bc0f1e64e78cc", "lat": 38.911876166666666, "lon": -77.00495633333334, "rental_uris": {"android": "https://dc.lft.to/lastmile_qr_scan", "ios": "https://dc.lft.to/lastmile_qr_scan"}, "is_disabled": 0, "fusion_lat": 0.0, "name": "8dea1b52a0f6f5608a3bc0f1e64e78cc", "fusion_lon": 0.0}, {"is_reserved": 0, "type": "electric_scooter", "bike_id": "5073f7315c1f8072c351f604dc667bec", "lat": 38.92566583333333, "lon": -76.9700765, "rental_uris": {"android": "https://dc.lft.to/lastmile_qr_scan", "ios": "https://dc.lft.to/lastmile_qr_scan"}, "is_disabled": 0, "fusion_lat": 0.0, "name": "5073f7315c1f8072c351f604dc667bec", "fusion_lon": 0.0}, {"is_reserved": 0, "type": "electric_scooter", "bike_id": "c77bea62a92901078a2110bbf7cf2847", "lat": 38.9233025, "lon": -77.03619933333333, "rental_uris": {"android": "https://dc.lft.to/lastmile_qr_scan", "ios": "https://dc.lft.to/lastmile_qr_scan"}, "is_disabled": 0, "fusion_lat": 0.0, "name": "c77bea62a92901078a2110bbf7cf2847", "fusion_lon": 0.0}, {"is_reserved": 0, "type": "electric_scooter", "bike_id": "0986b649de17bff1bba986d40fe24857", "lat": 38.90022733333333, "lon": -77.01191433333334, "rental_uris": {"android": "https://dc.lft.to/lastmile_qr_scan", "ios": "https://dc.lft.to/lastmile_qr_scan"}, "is_disabled": 0, "fusion_lat": 0.0, "name": "0986b649de17bff1bba986d40fe24857", "fusion_lon": 0.0}, {"is_reserved": 0, "type": "electric_bike", "bike_id": "7e8602216c0fc8368495efa2574617bd", "lat": 38.8839025, "lon": -76.95451133333333, "rental_uris": {"android": "https://dc.lft.to/lastmile_qr_scan", "ios": "https://dc.lft.to/lastmile_qr_scan"}, "is_disabled": 0, "fusion_lat": 0.0, "name": "7e8602216c0fc8368495efa2574617bd", "fusion_lon": 0.0}, {"is_reserved": 0, "type": "electric_scooter", "bike_id": "bd3c0ed1e9ea2bcdfd46fa7506753d22", "lat": 38.90520166666667, "lon": -77.05844566666667, "rental_uris": {"android": "https://dc.lft.to/lastmile_qr_scan", "ios": "https://dc.lft.to/lastmile_qr_scan"}, "is_disabled": 0, "fusion_lat": 0.0, "name": "bd3c0ed1e9ea2bcdfd46fa7506753d22", "fusion_lon": 0.0}, {"is_reserved": 0, "type": "electric_scooter", "bike_id": "c5c069557e46452f31f80b07f142ba67", "lat": 38.9023705, "lon": -77.01635933333333, "rental_uris": {"android": "https://dc.lft.to/lastmile_qr_scan", "ios": "https://dc.lft.to/lastmile_qr_scan"}, "is_disabled": 0, "fusion_lat": 0.0, "name": "c5c069557e46452f31f80b07f142ba67", "fusion_lon": 0.0}, {"is_reserved": 0, "type": "electric_bike", "bike_id": "121e7cad9b0819fa332d747fd8e17d11", "lat": 38.832324, "lon": -76.94627633333333, "rental_uris": {"android": "https://dc.lft.to/lastmile_qr_scan", "ios": "https://dc.lft.to/lastmile_qr_scan"}, "is_disabled": 0, "fusion_lat": 0.0, "name": "121e7cad9b0819fa332d747fd8e17d11", "fusion_lon": 0.0}, {"is_reserved": 0, "type": "electric_scooter", "bike_id": "5bf362972660a3027ab7553a345475ff", "lat": 38.90801283333333, "lon": -77.0347055, "rental_uris": {"android": "https://dc.lft.to/lastmile_qr_scan", "ios": "https://dc.lft.to/lastmile_qr_scan"}, "is_disabled": 0, "fusion_lat": 0.0, "name": "5bf362972660a3027ab7553a345475ff", "fusion_lon": 0.0}, {"is_reserved": 0, "type": "electric_bike", "bike_id": "b8a22d7eb404479fe40580a6447b4b3b", "lat": 38.82336016666667, "lon": -77.05821466666667, "rental_uris": {"android": "https://dc.lft.to/lastmile_qr_scan", "ios": "https://dc.lft.to/lastmile_qr_scan"}, "is_disabled": 0, "fusion_lat": 0.0, "name": "b8a22d7eb404479fe40580a6447b4b3b", "fusion_lon": 0.0}, {"is_reserved": 0, "type": "electric_scooter", "bike_id": "11ccb26322b81088ee8a5c79e1bdccf0", "lat": 38.90751616666667, "lon": -76.99874566666666, "rental_uris": {"android": "https://dc.lft.to/lastmile_qr_scan", "ios": "https://dc.lft.to/lastmile_qr_scan"}, "is_disabled": 0, "fusion_lat": 0.0, "name": "11ccb26322b81088ee8a5c79e1bdccf0", "fusion_lon": 0.0}, {"is_reserved": 0, "type": "electric_scooter", "bike_id": "ea1af609ec548d5f9dab35a335d0c0e8", "lat": 38.900111333333335, "lon": -77.00673916666666, "rental_uris": {"android": "https://dc.lft.to/lastmile_qr_scan", "ios": "https://dc.lft.to/lastmile_qr_scan"}, "is_disabled": 0, "fusion_lat": 0.0, "name": "ea1af609ec548d5f9dab35a335d0c0e8", "fusion_lon": 0.0}, {"is_reserved": 0, "type": "electric_scooter", "bike_id": "df45658b894c67865d8f6a28df6b2cff", "lat": 38.924314333333335, "lon": -77.0203565, "rental_uris": {"android": "https://dc.lft.to/lastmile_qr_scan", "ios": "https://dc.lft.to/lastmile_qr_scan"}, "is_disabled": 0, "fusion_lat": 0.0, "name": "df45658b894c67865d8f6a28df6b2cff", "fusion_lon": 0.0}, {"is_reserved": 0, "type": "electric_bike", "bike_id": "8f74bdd62d30c0b0b546463bd8103c2b", "lat": 38.92114866666667, "lon": -76.98877516666667, "rental_uris": {"android": "https://dc.lft.to/lastmile_qr_scan", "ios": "https://dc.lft.to/lastmile_qr_scan"}, "is_disabled": 0, "fusion_lat": 0.0, "name": "8f74bdd62d30c0b0b546463bd8103c2b", "fusion_lon": 0.0}, {"is_reserved": 0, "type": "electric_scooter", "bike_id": "db5bc3b124f0677d06c1013be0c5de0c", "lat": 38.918214166666665, "lon": -77.04522683333333, "rental_uris": {"android": "https://dc.lft.to/lastmile_qr_scan", "ios": "https://dc.lft.to/lastmile_qr_scan"}, "is_disabled": 0, "fusion_lat": 0.0, "name": "db5bc3b124f0677d06c1013be0c5de0c", "fusion_lon": 0.0}, {"is_reserved": 0, "type": "electric_scooter", "bike_id": "6b407289566cabb0869d4fae7c524b3d", "lat": 38.9202405, "lon": -77.01853716666666, "rental_uris": {"android": "https://dc.lft.to/lastmile_qr_scan", "ios": "https://dc.lft.to/lastmile_qr_scan"}, "is_disabled": 0, "fusion_lat": 0.0, "name": "6b407289566cabb0869d4fae7c524b3d", "fusion_lon": 0.0}, {"is_reserved": 0, "type": "electric_scooter", "bike_id": "60d935e7b4d49d2c260a058fb23e390e", "lat": 38.89808283333333, "lon": -76.99499566666667, "rental_uris": {"android": "https://dc.lft.to/lastmile_qr_scan", "ios": "https://dc.lft.to/lastmile_qr_scan"}, "is_disabled": 0, "fusion_lat": 0.0, "name": "60d935e7b4d49d2c260a058fb23e390e", "fusion_lon": 0.0}, {"is_reserved": 0, "type": "electric_bike", "bike_id": "3a38acfe9f2e8450480c204a2b6d46d1", "lat": 38.95846516666667, "lon": -76.9857705, "rental_uris": {"android": "https://dc.lft.to/lastmile_qr_scan", "ios": "https://dc.lft.to/lastmile_qr_scan"}, "is_disabled": 0, "fusion_lat": 0.0, "name": "3a38acfe9f2e8450480c204a2b6d46d1", "fusion_lon": 0.0}, {"is_reserved": 0, "type": "electric_scooter", "bike_id": "f11b4aed11ebc6b580955389d668d660", "lat": 38.941761, "lon": -77.025658, "rental_uris": {"android": "https://dc.lft.to/lastmile_qr_scan", "ios": "https://dc.lft.to/lastmile_qr_scan"}, "is_disabled": 0, "fusion_lat": 0.0, "name": "f11b4aed11ebc6b580955389d668d660", "fusion_lon": 0.0}, {"is_reserved": 0, "type": "electric_scooter", "bike_id": "3b047f4b1d21444cb7a7c1e824745474", "lat": 38.907570166666666, "lon": -77.00768766666667, "rental_uris": {"android": "https://dc.lft.to/lastmile_qr_scan", "ios": "https://dc.lft.to/lastmile_qr_scan"}, "is_disabled": 0, "fusion_lat": 0.0, "name": "3b047f4b1d21444cb7a7c1e824745474", "fusion_lon": 0.0}, {"is_reserved": 0, "type": "electric_scooter", "bike_id": "22ed25d53a2ce6dc9bcbaa1e0196f50e", "lat": 38.92155283333334, "lon": -77.03328016666667, "rental_uris": {"android": "https://dc.lft.to/lastmile_qr_scan", "ios": "https://dc.lft.to/lastmile_qr_scan"}, "is_disabled": 0, "fusion_lat": 0.0, "name": "22ed25d53a2ce6dc9bcbaa1e0196f50e", "fusion_lon": 0.0}, {"is_reserved": 0, "type": "electric_scooter", "bike_id": "d8b9b66dd38e5c3c5a2b0932b2dd7aa8", "lat": 38.907285, "lon": -77.03203433333333, "rental_uris": {"android": "https://dc.lft.to/lastmile_qr_scan", "ios": "https://dc.lft.to/lastmile_qr_scan"}, "is_disabled": 0, "fusion_lat": 0.0, "name": "d8b9b66dd38e5c3c5a2b0932b2dd7aa8", "fusion_lon": 0.0}, {"is_reserved": 0, "type": "electric_bike", "bike_id": "88740ca9be1989760c7a369e4d5fcd8b", "lat": 38.91223016666667, "lon": -77.066002, "rental_uris": {"android": "https://dc.lft.to/lastmile_qr_scan", "ios": "https://dc.lft.to/lastmile_qr_scan"}, "is_disabled": 0, "fusion_lat": 0.0, "name": "88740ca9be1989760c7a369e4d5fcd8b", "fusion_lon": 0.0}, {"is_reserved": 0, "type": "electric_scooter", "bike_id": "3c82b71c7c69b29df25597ae1c77c6dc", "lat": 38.914589666666664, "lon": -77.00210583333333, "rental_uris": {"android": "https://dc.lft.to/lastmile_qr_scan", "ios": "https://dc.lft.to/lastmile_qr_scan"}, "is_disabled": 0, "fusion_lat": 0.0, "name": "3c82b71c7c69b29df25597ae1c77c6dc", "fusion_lon": 0.0}, {"is_reserved": 0, "type": "electric_scooter", "bike_id": "c9a0ff322587f308f1869aeb96f47422", "lat": 38.91920133333333, "lon": -77.03583133333333, "rental_uris": {"android": "https://dc.lft.to/lastmile_qr_scan", "ios": "https://dc.lft.to/lastmile_qr_scan"}, "is_disabled": 0, "fusion_lat": 0.0, "name": "c9a0ff322587f308f1869aeb96f47422", "fusion_lon": 0.0}, {"is_reserved": 0, "type": "electric_scooter", "bike_id": "4ab8142dcfc37ecc7d3959f2e61e09d6", "lat": 38.898853833333334, "lon": -77.033207, "rental_uris": {"android": "https://dc.lft.to/lastmile_qr_scan", "ios": "https://dc.lft.to/lastmile_qr_scan"}, "is_disabled": 0, "fusion_lat": 0.0, "name": "4ab8142dcfc37ecc7d3959f2e61e09d6", "fusion_lon": 0.0}, {"is_reserved": 0, "type": "electric_scooter", "bike_id": "2f14806fd6c114c3c9b13dbfb694eb57", "lat": 38.907310333333335, "lon": -77.0449575, "rental_uris": {"android": "https://dc.lft.to/lastmile_qr_scan", "ios": "https://dc.lft.to/lastmile_qr_scan"}, "is_disabled": 0, "fusion_lat": 0.0, "name": "2f14806fd6c114c3c9b13dbfb694eb57", "fusion_lon": 0.0}, {"is_reserved": 0, "type": "electric_scooter", "bike_id": "780ac6439e8f0da21fd8bbed608f3c99", "lat": 38.898584166666666, "lon": -77.019689, "rental_uris": {"android": "https://dc.lft.to/lastmile_qr_scan", "ios": "https://dc.lft.to/lastmile_qr_scan"}, "is_disabled": 0, "fusion_lat": 0.0, "name": "780ac6439e8f0da21fd8bbed608f3c99", "fusion_lon": 0.0}, {"is_reserved": 0, "type": "electric_scooter", "bike_id": "007f3098db0f7331438e2dca4a8c933a", "lat": 38.8898815, "lon": -77.00154166666667, "rental_uris": {"android": "https://dc.lft.to/lastmile_qr_scan", "ios": "https://dc.lft.to/lastmile_qr_scan"}, "is_disabled": 0, "fusion_lat": 0.0, "name": "007f3098db0f7331438e2dca4a8c933a", "fusion_lon": 0.0}, {"is_reserved": 0, "type": "electric_scooter", "bike_id": "2cb6bd17eac75e59ea5c9eebf107f161", "lat": 38.907162166666666, "lon": -77.0475665, "rental_uris": {"android": "https://dc.lft.to/lastmile_qr_scan", "ios": "https://dc.lft.to/lastmile_qr_scan"}, "is_disabled": 0, "fusion_lat": 0.0, "name": "2cb6bd17eac75e59ea5c9eebf107f161", "fusion_lon": 0.0}, {"is_reserved": 0, "type": "electric_scooter", "bike_id": "407e34caedef2c339c7b80c0e5b28ac6", "lat": 38.929118, "lon": -77.0219335, "rental_uris": {"android": "https://dc.lft.to/lastmile_qr_scan", "ios": "https://dc.lft.to/lastmile_qr_scan"}, "is_disabled": 0, "fusion_lat": 0.0, "name": "407e34caedef2c339c7b80c0e5b28ac6", "fusion_lon": 0.0}, {"is_reserved": 0, "type": "electric_scooter", "bike_id": "b254e01bb42d8dd860edf9b180779450", "lat": 38.92442483333333, "lon": -77.04033416666667, "rental_uris": {"android": "https://dc.lft.to/lastmile_qr_scan", "ios": "https://dc.lft.to/lastmile_qr_scan"}, "is_disabled": 0, "fusion_lat": 0.0, "name": "b254e01bb42d8dd860edf9b180779450", "fusion_lon": 0.0}, {"is_reserved": 0, "type": "electric_scooter", "bike_id": "1c02a73c464746c7b7b22868f31592fd", "lat": 38.89766633333333, "lon": -77.02694433333333, "rental_uris": {"android": "https://dc.lft.to/lastmile_qr_scan", "ios": "https://dc.lft.to/lastmile_qr_scan"}, "is_disabled": 0, "fusion_lat": 0.0, "name": "1c02a73c464746c7b7b22868f31592fd", "fusion_lon": 0.0}, {"is_reserved": 0, "type": "electric_scooter", "bike_id": "905cc6e8c25f71e7f6c9745fa365ea19", "lat": 38.92581883333333, "lon": -77.0294025, "rental_uris": {"android": "https://dc.lft.to/lastmile_qr_scan", "ios": "https://dc.lft.to/lastmile_qr_scan"}, "is_disabled": 0, "fusion_lat": 0.0, "name": "905cc6e8c25f71e7f6c9745fa365ea19", "fusion_lon": 0.0}, {"is_reserved": 0, "type": "electric_scooter", "bike_id": "0e70ffd6ce1e53cbaddca816ad2f3dad", "lat": 38.89722866666666, "lon": -77.021658, "rental_uris": {"android": "https://dc.lft.to/lastmile_qr_scan", "ios": "https://dc.lft.to/lastmile_qr_scan"}, "is_disabled": 0, "fusion_lat": 0.0, "name": "0e70ffd6ce1e53cbaddca816ad2f3dad", "fusion_lon": 0.0}, {"is_reserved": 0, "type": "electric_scooter", "bike_id": "f1e86ef6430cdc5ca3b6980758b9cb7b", "lat": 38.89975666666667, "lon": -77.02219583333333, "rental_uris": {"android": "https://dc.lft.to/lastmile_qr_scan", "ios": "https://dc.lft.to/lastmile_qr_scan"}, "is_disabled": 0, "fusion_lat": 0.0, "name": "f1e86ef6430cdc5ca3b6980758b9cb7b", "fusion_lon": 0.0}, {"is_reserved": 0, "type": "electric_scooter", "bike_id": "1e7312adefa601e787bf991cbca533a1", "lat": 38.91414116666667, "lon": -77.027268, "rental_uris": {"android": "https://dc.lft.to/lastmile_qr_scan", "ios": "https://dc.lft.to/lastmile_qr_scan"}, "is_disabled": 0, "fusion_lat": 0.0, "name": "1e7312adefa601e787bf991cbca533a1", "fusion_lon": 0.0}, {"is_reserved": 0, "type": "electric_scooter", "bike_id": "cd2c18f47faa3c2990d5116686c0e308", "lat": 38.950903333333336, "lon": -77.02535983333334, "rental_uris": {"android": "https://dc.lft.to/lastmile_qr_scan", "ios": "https://dc.lft.to/lastmile_qr_scan"}, "is_disabled": 0, "fusion_lat": 0.0, "name": "cd2c18f47faa3c2990d5116686c0e308", "fusion_lon": 0.0}, {"is_reserved": 0, "type": "electric_scooter", "bike_id": "4e3ded23443b5a34835b9226164b38da", "lat": 38.93023816666667, "lon": -77.03784133333333, "rental_uris": {"android": "https://dc.lft.to/lastmile_qr_scan", "ios": "https://dc.lft.to/lastmile_qr_scan"}, "is_disabled": 0, "fusion_lat": 0.0, "name": "4e3ded23443b5a34835b9226164b38da", "fusion_lon": 0.0}, {"is_reserved": 0, "type": "electric_scooter", "bike_id": "5c6d0d5498ba82261e3ac6793c776a9c", "lat": 38.93464483333333, "lon": -77.027672, "rental_uris": {"android": "https://dc.lft.to/lastmile_qr_scan", "ios": "https://dc.lft.to/lastmile_qr_scan"}, "is_disabled": 0, "fusion_lat": 0.0, "name": "5c6d0d5498ba82261e3ac6793c776a9c", "fusion_lon": 0.0}, {"is_reserved": 0, "type": "electric_scooter", "bike_id": "a2089d0f33537853792a84efd03e270a", "lat": 38.9156305, "lon": -77.02969866666666, "rental_uris": {"android": "https://dc.lft.to/lastmile_qr_scan", "ios": "https://dc.lft.to/lastmile_qr_scan"}, "is_disabled": 0, "fusion_lat": 0.0, "name": "a2089d0f33537853792a84efd03e270a", "fusion_lon": 0.0}, {"is_reserved": 0, "type": "electric_scooter", "bike_id": "fa275415278d991c0cb18d2075581139", "lat": 38.9287045, "lon": -77.0344575, "rental_uris": {"android": "https://dc.lft.to/lastmile_qr_scan", "ios": "https://dc.lft.to/lastmile_qr_scan"}, "is_disabled": 0, "fusion_lat": 0.0, "name": "fa275415278d991c0cb18d2075581139", "fusion_lon": 0.0}, {"is_reserved": 0, "type": "electric_bike", "bike_id": "4f395fe49ae8d06e2f177a79c0889321", "lat": 38.9080395, "lon": -77.0238155, "rental_uris": {"android": "https://dc.lft.to/lastmile_qr_scan", "ios": "https://dc.lft.to/lastmile_qr_scan"}, "is_disabled": 0, "fusion_lat": 0.0, "name": "4f395fe49ae8d06e2f177a79c0889321", "fusion_lon": 0.0}, {"is_reserved": 0, "type": "electric_scooter", "bike_id": "da2ce8cd97a73597fdd85a79dc74107c", "lat": 38.89949516666667, "lon": -77.05398333333333, "rental_uris": {"android": "https://dc.lft.to/lastmile_qr_scan", "ios": "https://dc.lft.to/lastmile_qr_scan"}, "is_disabled": 0, "fusion_lat": 0.0, "name": "da2ce8cd97a73597fdd85a79dc74107c", "fusion_lon": 0.0}, {"is_reserved": 0, "type": "electric_scooter", "bike_id": "14ab60c6aa042863286a6d5805ba096b", "lat": 38.887488, "lon": -77.017381, "rental_uris": {"android": "https://dc.lft.to/lastmile_qr_scan", "ios": "https://dc.lft.to/lastmile_qr_scan"}, "is_disabled": 0, "fusion_lat": 0.0, "name": "14ab60c6aa042863286a6d5805ba096b", "fusion_lon": 0.0}, {"is_reserved": 0, "type": "electric_scooter", "bike_id": "2ccf683f94f1b7b8faf87b21ad7a21c1", "lat": 38.905647, "lon": -76.99783416666666, "rental_uris": {"android": "https://dc.lft.to/lastmile_qr_scan", "ios": "https://dc.lft.to/lastmile_qr_scan"}, "is_disabled": 0, "fusion_lat": 0.0, "name": "2ccf683f94f1b7b8faf87b21ad7a21c1", "fusion_lon": 0.0}, {"is_reserved": 0, "type": "electric_bike", "bike_id": "5a178b9fb5aa65bdca33b4f29f861f5d", "lat": 38.95598966666667, "lon": -76.99538683333333, "rental_uris": {"android": "https://dc.lft.to/lastmile_qr_scan", "ios": "https://dc.lft.to/lastmile_qr_scan"}, "is_disabled": 0, "fusion_lat": 0.0, "name": "5a178b9fb5aa65bdca33b4f29f861f5d", "fusion_lon": 0.0}, {"is_reserved": 0, "type": "electric_scooter", "bike_id": "2a046f0c1e02f6f7ba22aefc3d289eca", "lat": 38.94001433333333, "lon": -77.02737766666667, "rental_uris": {"android": "https://dc.lft.to/lastmile_qr_scan", "ios": "https://dc.lft.to/lastmile_qr_scan"}, "is_disabled": 0, "fusion_lat": 0.0, "name": "2a046f0c1e02f6f7ba22aefc3d289eca", "fusion_lon": 0.0}, {"is_reserved": 0, "type": "electric_scooter", "bike_id": "252f5f3d56fcb7ad787cff70cd43baf2", "lat": 38.909577666666664, "lon": -77.03260033333333, "rental_uris": {"android": "https://dc.lft.to/lastmile_qr_scan", "ios": "https://dc.lft.to/lastmile_qr_scan"}, "is_disabled": 0, "fusion_lat": 0.0, "name": "252f5f3d56fcb7ad787cff70cd43baf2", "fusion_lon": 0.0}, {"is_reserved": 0, "type": "electric_scooter", "bike_id": "ceb80d670befa73484ee86c9e73e4ca2", "lat": 38.90081266666667, "lon": -77.016153, "rental_uris": {"android": "https://dc.lft.to/lastmile_qr_scan", "ios": "https://dc.lft.to/lastmile_qr_scan"}, "is_disabled": 0, "fusion_lat": 0.0, "name": "ceb80d670befa73484ee86c9e73e4ca2", "fusion_lon": 0.0}, {"is_reserved": 0, "type": "electric_scooter", "bike_id": "3812d02990df1f9bc3b3196a41ce1dc0", "lat": 38.937847166666664, "lon": -77.074577, "rental_uris": {"android": "https://dc.lft.to/lastmile_qr_scan", "ios": "https://dc.lft.to/lastmile_qr_scan"}, "is_disabled": 0, "fusion_lat": 0.0, "name": "3812d02990df1f9bc3b3196a41ce1dc0", "fusion_lon": 0.0}, {"is_reserved": 0, "type": "electric_scooter", "bike_id": "d3ca495ed685f2d5910ab3e6877631ee", "lat": 38.9245125, "lon": -77.02035466666666, "rental_uris": {"android": "https://dc.lft.to/lastmile_qr_scan", "ios": "https://dc.lft.to/lastmile_qr_scan"}, "is_disabled": 0, "fusion_lat": 0.0, "name": "d3ca495ed685f2d5910ab3e6877631ee", "fusion_lon": 0.0}, {"is_reserved": 0, "type": "electric_scooter", "bike_id": "10c84bf32502918bf2b0a7a2ec563417", "lat": 38.911116666666665, "lon": -77.00373966666666, "rental_uris": {"android": "https://dc.lft.to/lastmile_qr_scan", "ios": "https://dc.lft.to/lastmile_qr_scan"}, "is_disabled": 0, "fusion_lat": 0.0, "name": "10c84bf32502918bf2b0a7a2ec563417", "fusion_lon": 0.0}, {"is_reserved": 0, "type": "electric_scooter", "bike_id": "3d23eaa0997d3d397278b28446c9bc10", "lat": 38.9123805, "lon": -77.038496, "rental_uris": {"android": "https://dc.lft.to/lastmile_qr_scan", "ios": "https://dc.lft.to/lastmile_qr_scan"}, "is_disabled": 0, "fusion_lat": 0.0, "name": "3d23eaa0997d3d397278b28446c9bc10", "fusion_lon": 0.0}, {"is_reserved": 0, "type": "electric_scooter", "bike_id": "27aa2ba9e6040ae246dee71a6545a814", "lat": 38.94978116666667, "lon": -77.02448683333333, "rental_uris": {"android": "https://dc.lft.to/lastmile_qr_scan", "ios": "https://dc.lft.to/lastmile_qr_scan"}, "is_disabled": 0, "fusion_lat": 0.0, "name": "27aa2ba9e6040ae246dee71a6545a814", "fusion_lon": 0.0}, {"is_reserved": 0, "type": "electric_scooter", "bike_id": "ae7e87723377e4713cbcc4f0fdb77ab1", "lat": 38.92855866666667, "lon": -77.02997083333334, "rental_uris": {"android": "https://dc.lft.to/lastmile_qr_scan", "ios": "https://dc.lft.to/lastmile_qr_scan"}, "is_disabled": 0, "fusion_lat": 0.0, "name": "ae7e87723377e4713cbcc4f0fdb77ab1", "fusion_lon": 0.0}, {"is_reserved": 0, "type": "electric_scooter", "bike_id": "3160798fad0e25fd2f46813b38b46b87", "lat": 38.873043833333334, "lon": -77.01557583333333, "rental_uris": {"android": "https://dc.lft.to/lastmile_qr_scan", "ios": "https://dc.lft.to/lastmile_qr_scan"}, "is_disabled": 0, "fusion_lat": 0.0, "name": "3160798fad0e25fd2f46813b38b46b87", "fusion_lon": 0.0}, {"is_reserved": 0, "type": "electric_scooter", "bike_id": "d0e70ef85d0dc8ca721a2000fe7e2481", "lat": 38.88609533333333, "lon": -76.99658516666666, "rental_uris": {"android": "https://dc.lft.to/lastmile_qr_scan", "ios": "https://dc.lft.to/lastmile_qr_scan"}, "is_disabled": 0, "fusion_lat": 0.0, "name": "d0e70ef85d0dc8ca721a2000fe7e2481", "fusion_lon": 0.0}, {"is_reserved": 0, "type": "electric_scooter", "bike_id": "154a352a075d76686ad89280fe3f70f6", "lat": 38.919882333333334, "lon": -77.03215966666667, "rental_uris": {"android": "https://dc.lft.to/lastmile_qr_scan", "ios": "https://dc.lft.to/lastmile_qr_scan"}, "is_disabled": 0, "fusion_lat": 0.0, "name": "154a352a075d76686ad89280fe3f70f6", "fusion_lon": 0.0}, {"is_reserved": 0, "type": "electric_scooter", "bike_id": "a0636edf478f3972f79dabea9194b9c0", "lat": 38.892748, "lon": -76.92924483333333, "rental_uris": {"android": "https://dc.lft.to/lastmile_qr_scan", "ios": "https://dc.lft.to/lastmile_qr_scan"}, "is_disabled": 0, "fusion_lat": 0.0, "name": "a0636edf478f3972f79dabea9194b9c0", "fusion_lon": 0.0}, {"is_reserved": 0, "type": "electric_scooter", "bike_id": "a675c66d60a7bf220e018cddc08d3e5d", "lat": 38.923776833333335, "lon": -77.02799616666667, "rental_uris": {"android": "https://dc.lft.to/lastmile_qr_scan", "ios": "https://dc.lft.to/lastmile_qr_scan"}, "is_disabled": 0, "fusion_lat": 0.0, "name": "a675c66d60a7bf220e018cddc08d3e5d", "fusion_lon": 0.0}, {"is_reserved": 0, "type": "electric_scooter", "bike_id": "dc850b2d97398a59f450a2b14dfd3b51", "lat": 38.894391666666664, "lon": -76.98002733333334, "rental_uris": {"android": "https://dc.lft.to/lastmile_qr_scan", "ios": "https://dc.lft.to/lastmile_qr_scan"}, "is_disabled": 0, "fusion_lat": 0.0, "name": "dc850b2d97398a59f450a2b14dfd3b51", "fusion_lon": 0.0}, {"is_reserved": 0, "type": "electric_scooter", "bike_id": "7fed84758329f3e00a920db5631c2cba", "lat": 38.92149783333333, "lon": -77.035118, "rental_uris": {"android": "https://dc.lft.to/lastmile_qr_scan", "ios": "https://dc.lft.to/lastmile_qr_scan"}, "is_disabled": 0, "fusion_lat": 0.0, "name": "7fed84758329f3e00a920db5631c2cba", "fusion_lon": 0.0}, {"is_reserved": 0, "type": "electric_scooter", "bike_id": "f10392e6a9475709685415018d9b05c6", "lat": 38.91091433333333, "lon": -77.04242033333334, "rental_uris": {"android": "https://dc.lft.to/lastmile_qr_scan", "ios": "https://dc.lft.to/lastmile_qr_scan"}, "is_disabled": 0, "fusion_lat": 0.0, "name": "f10392e6a9475709685415018d9b05c6", "fusion_lon": 0.0}, {"is_reserved": 0, "type": "electric_scooter", "bike_id": "10f181157bf73b62a85b84433cc2deaa", "lat": 38.92462916666667, "lon": -77.02037916666667, "rental_uris": {"android": "https://dc.lft.to/lastmile_qr_scan", "ios": "https://dc.lft.to/lastmile_qr_scan"}, "is_disabled": 0, "fusion_lat": 0.0, "name": "10f181157bf73b62a85b84433cc2deaa", "fusion_lon": 0.0}, {"is_reserved": 0, "type": "electric_scooter", "bike_id": "f2b4e69ff16f9011af719cb96cf70c05", "lat": 38.933256666666665, "lon": -77.02913433333333, "rental_uris": {"android": "https://dc.lft.to/lastmile_qr_scan", "ios": "https://dc.lft.to/lastmile_qr_scan"}, "is_disabled": 0, "fusion_lat": 0.0, "name": "f2b4e69ff16f9011af719cb96cf70c05", "fusion_lon": 0.0}, {"is_reserved": 0, "type": "electric_scooter", "bike_id": "0484579de8248bc14ac6e28a598d1f8a", "lat": 38.919003833333335, "lon": -77.04793916666667, "rental_uris": {"android": "https://dc.lft.to/lastmile_qr_scan", "ios": "https://dc.lft.to/lastmile_qr_scan"}, "is_disabled": 0, "fusion_lat": 0.0, "name": "0484579de8248bc14ac6e28a598d1f8a", "fusion_lon": 0.0},