{"data": {"bikes": [{"type": "electric_scooter", "name": "10b02e5768a405bf30bb6f535c2825d8", "rental_uris": {"ios": "https://dc.lft.to/lastmile_qr_scan", "android": "https://dc.lft.to/lastmile_qr_scan"}, "fusion_lon": 0.0, "lat": 38.91712616666667, "is_disabled": 0, "bike_id": "10b02e5768a405bf30bb6f535c2825d8", "fusion_lat": 0.0, "is_reserved": 0, "lon": -77.01204266666667}, {"type": "electric_scooter", "name": "ef9b6db1c35b2cef898b6ea08c9fa936", "rental_uris": {"ios": "https://dc.lft.to/lastmile_qr_scan", "android": "https://dc.lft.to/lastmile_qr_scan"}, "fusion_lon": 0.0, "lat": 38.9033015, "is_disabled": 0, "bike_id": "ef9b6db1c35b2cef898b6ea08c9fa936", "fusion_lat": 0.0, "is_reserved": 0, "lon": -77.0445385}, {"type": "electric_bike", "name": "8c0eadfc4174f3c256eb8d8d07dd0e7a", "rental_uris": {"ios": "https://dc.lft.to/lastmile_qr_scan", "android": "https://dc.lft.to/lastmile_qr_scan"}, "fusion_lon": 0.0, "lat": 38.908467, "is_disabled": 0, "bike_id": "8c0eadfc4174f3c256eb8d8d07dd0e7a", "fusion_lat": 0.0, "is_reserved": 0, "lon": -77.05491183333334}, {"type": "electric_scooter", "name": "9692669dd6979d645f2e0781a5cba7f7", "rental_uris": {"ios": "https://dc.lft.to/lastmile_qr_scan", "android": "https://dc.lft.to/lastmile_qr_scan"}, "fusion_lon": 0.0, "lat": 38.89496116666667, "is_disabled": 0, "bike_id": "9692669dd6979d645f2e0781a5cba7f7", "fusion_lat": 0.0, "is_reserved": 0, "lon": -77.01540933333334}, {"type": "electric_scooter", "name": "db6a5fee010e35d6c6154499f4b09bd1", "rental_uris": {"ios": "https://dc.lft.to/lastmile_qr_scan", "android": "https://dc.lft.to/lastmile_qr_scan"}, "fusion_lon": 0.0, "lat": 38.93747666666667, "is_disabled": 0, "bike_id": "db6a5fee010e35d6c6154499f4b09bd1", "fusion_lat": 0.0, "is_reserved": 0, "lon": -77.03617366666667}, {"type": "electric_scooter", "name": "9f576db061cce05e13f60318a0d1c86f", "rental_uris": {"ios": "https://dc.lft.to/lastmile_qr_scan", "android": "https://dc.lft.to/lastmile_qr_scan"}, "fusion_lon": 0.0, "lat": 38.8961515, "is_disabled": 0, "bike_id": "9f576db061cce05e13f60318a0d1c86f", "fusion_lat": 0.0, "is_reserved": 0, "lon": -77.02960416666667}, {"type": "electric_scooter", "name": "22073b1e928a3d111cb7bdc72e5dc8af", "rental_uris": {"ios": "https://dc.lft.to/lastmile_qr_scan", "android": "https://dc.lft.to/lastmile_qr_scan"}, "fusion_lon": 0.0, "lat": 38.918746, "is_disabled": 0, "bike_id": "22073b1e928a3d111cb7bdc72e5dc8af", "fusion_lat": 0.0, "is_reserved": 0, "lon": -77.04068716666667}, {"type": "electric_scooter", "name": "3354eb7ea195a0e007da2b3712879175", "rental_uris": {"ios": "https://dc.lft.to/lastmile_qr_scan", "android": "https://dc.lft.to/lastmile_qr_scan"}, "fusion_lon": 0.0, "lat": 38.93186933333333, "is_disabled": 0, "bike_id": "3354eb7ea195a0e007da2b3712879175", "fusion_lat": 0.0, "is_reserved": 0, "lon": -77.04299533333334}, {"type": "electric_scooter", "name": "652d043a207bb9d9a45867b605e879c5", "rental_uris": {"ios": "https://dc.lft.to/lastmile_qr_scan", "android": "https://dc.lft.to/lastmile_qr_scan"}, "fusion_lon": 0.0, "lat": 38.919131, "is_disabled": 0, "bike_id": "652d043a207bb9d9a45867b605e879c5", "fusion_lat": 0.0, "is_reserved": 0, "lon": -77.0247095}, {"type": "electric_scooter", "name": "a35cc81159ea3a84fe1330293269a1c2", "rental_uris": {"ios": "https://dc.lft.to/lastmile_qr_scan", "android": "https://dc.lft.to/lastmile_qr_scan"}, "fusion_lon": 0.0, "lat": 38.8923495, "is_disabled": 0, "bike_id": "a35cc81159ea3a84fe1330293269a1c2", "fusion_lat": 0.0, "is_reserved": 0, "lon": -77.0500275}, {"type": "electric_scooter", "name": "2aa1bfb8183dee6bc8c0cae9254a3434", "rental_uris": {"ios": "https://dc.lft.to/lastmile_qr_scan", "android": "https://dc.lft.to/lastmile_qr_scan"}, "fusion_lon": 0.0, "lat": 38.90828066666667, "is_disabled": 0, "bike_id": "2aa1bfb8183dee6bc8c0cae9254a3434", "fusion_lat": 0.0, "is_reserved": 0, "lon": -77.05489233333333}, {"type": "electric_scooter", "name": "972360582efb9e42d4f56834af6e9163", "rental_uris": {"ios": "https://dc.lft.to/lastmile_qr_scan", "android": "https://dc.lft.to/lastmile_qr_scan"}, "fusion_lon": 0.0, "lat": 38.9224845, "is_disabled": 0, "bike_id": "972360582efb9e42d4f56834af6e9163", "fusion_lat": 0.0, "is_reserved": 0, "lon": -77.02811983333334}, {"type": "electric_scooter", "name": "a3970ed605e96a0640436ceaa16261e1", "rental_uris": {"ios": "https://dc.lft.to/lastmile_qr_scan", "android": "https://dc.lft.to/lastmile_qr_scan"}, "fusion_lon": 0.0, "lat": 38.88453533333333, "is_disabled": 0, "bike_id": "a3970ed605e96a0640436ceaa16261e1", "fusion_lat": 0.0, "is_reserved": 0, "lon": -76.99838633333333}, {"type": "electric_scooter", "name": "2d4fb83e9c0b5d219cedd387a5fc946e", "rental_uris": {"ios": "https://dc.lft.to/lastmile_qr_scan", "android": "https://dc.lft.to/lastmile_qr_scan"}, "fusion_lon": 0.0, "lat": 38.93885566666667, "is_disabled": 0, "bike_id": "2d4fb83e9c0b5d219cedd387a5fc946e", "fusion_lat": 0.0, "is_reserved": 0, "lon": -77.02465716666667}, {"type": "electric_scooter", "name": "c0f727aaa74bf04fec38cb809845cc37", "rental_uris": {"ios": "https://dc.lft.to/lastmile_qr_scan", "android": "https://dc.lft.to/lastmile_qr_scan"}, "fusion_lon": 0.0, "lat": 38.901231, "is_disabled": 0, "bike_id": "c0f727aaa74bf04fec38cb809845cc37", "fusion_lat": 0.0, "is_reserved": 0, "lon": -77.0197765}, {"type": "electric_scooter", "name": "253ecf1aa280d73f13abadcee968907e", "rental_uris": {"ios": "https://dc.lft.to/lastmile_qr_scan", "android": "https://dc.lft.to/lastmile_qr_scan"}, "fusion_lon": 0.0, "lat": 38.9528475, "is_disabled": 0, "bike_id": "253ecf1aa280d73f13abadcee968907e", "fusion_lat": 0.0, "is_reserved": 0, "lon": -77.0179945}, {"type": "electric_scooter", "name": "f3d93ae0d0fb97eb93e1ae615b44dff2", "rental_uris": {"ios": "https://dc.lft.to/lastmile_qr_scan", "android": "https://dc.lft.to/lastmile_qr_scan"}, "fusion_lon": 0.0, "lat": 38.89730383333333, "is_disabled": 0, "bike_id": "f3d93ae0d0fb97eb93e1ae615b44dff2", "fusion_lat": 0.0, "is_reserved": 0, "lon": -76.94702833333334}, {"type": "electric_scooter", "name": "03f22e6972245710be9843a053180dc0", "rental_uris": {"ios": "https://dc.lft.to/lastmile_qr_scan", "android": "https://dc.lft.to/lastmile_qr_scan"}, "fusion_lon": 0.0, "lat": 38.9010755, "is_disabled": 0, "bike_id": "03f22e6972245710be9843a053180dc0", "fusion_lat": 0.0, "is_reserved": 0, "lon": -77.01775}, {"type": "electric_scooter", "name": "3793df60a5a071a1ef43bce06c3346cb", "rental_uris": {"ios": "https://dc.lft.to/lastmile_qr_scan", "android": "https://dc.lft.to/lastmile_qr_scan"}, "fusion_lon": 0.0, "lat": 38.92858483333333, "is_disabled": 0, "bike_id": "3793df60a5a071a1ef43bce06c3346cb", "fusion_lat": 0.0, "is_reserved": 0, "lon": -77.03500866666667}, {"type": "electric_scooter", "name": "e2ee67c3b7757b8a7a8b1f3f2d6eed06", "rental_uris": {"ios": "https://dc.lft.to/lastmile_qr_scan", "android": "https://dc.lft.to/lastmile_qr_scan"}, "fusion_lon": 0.0, "lat": 38.9126105, "is_disabled": 0, "bike_id": "e2ee67c3b7757b8a7a8b1f3f2d6eed06", "fusion_lat": 0.0, "is_reserved": 0, "lon": -77.04739866666667}, {"type": "electric_scooter", "name": "842bf9de9d69abc8619c8a966ee2f1e4", "rental_uris": {"ios": "https://dc.lft.to/lastmile_qr_scan", "android": "https://dc.lft.to/lastmile_qr_scan"}, "fusion_lon": 0.0, "lat": 38.906768166666666, "is_disabled": 0, "bike_id": "842bf9de9d69abc8619c8a966ee2f1e4", "fusion_lat": 0.0, "is_reserved": 0, "lon": -77.03781866666667}, {"type": "electric_scooter", "name": "695624135f44fb53ce49d9978953a033", "rental_uris": {"ios": "https://dc.lft.to/lastmile_qr_scan", "android": "https://dc.lft.to/lastmile_qr_scan"}, "fusion_lon": 0.0, "lat": 38.90952933333333, "is_disabled": 0, "bike_id": "695624135f44fb53ce49d9978953a033", "fusion_lat": 0.0, "is_reserved": 0, "lon": -77.06437016666666}, {"type": "electric_scooter", "name": "3e8f838d6dfa306154e080cf86f95233", "rental_uris": {"ios": "https://dc.lft.to/lastmile_qr_scan", "android": "https://dc.lft.to/lastmile_qr_scan"}, "fusion_lon": 0.0, "lat": 38.857210333333335, "is_disabled": 0, "bike_id": "3e8f838d6dfa306154e080cf86f95233", "fusion_lat": 0.0, "is_reserved": 0, "lon": -76.9809855}, {"type": "electric_scooter", "name": "286493dd9b043ffcc2c0a499756d0c00", "rental_uris": {"ios": "https://dc.lft.to/lastmile_qr_scan", "android": "https://dc.lft.to/lastmile_qr_scan"}, "fusion_lon": 0.0, "lat": 38.863913333333336, "is_disabled": 0, "bike_id": "286493dd9b043ffcc2c0a499756d0c00", "fusion_lat": 0.0, "is_reserved": 0, "lon": -76.99041333333334}, {"type": "electric_scooter", "name": "3db09c2d338306c93354a7c4a80b9f56", "rental_uris": {"ios": "https://dc.lft.to/lastmile_qr_scan", "android": "https://dc.lft.to/lastmile_qr_scan"}, "fusion_lon": 0.0, "lat": 38.899547166666665, "is_disabled": 0, "bike_id": "3db09c2d338306c93354a7c4a80b9f56", "fusion_lat": 0.0, "is_reserved": 0, "lon": -77.029915}, {"type": "electric_bike", "name": "37626e4e28c7b66a0d3b1e0ecd9f05f2", "rental_uris": {"ios": "https://dc.lft.to/lastmile_qr_scan", "android": "https://dc.lft.to/lastmile_qr_scan"}, "fusion_lon": 0.0, "lat": 38.88404933333333, "is_disabled": 0, "bike_id": "37626e4e28c7b66a0d3b1e0ecd9f05f2", "fusion_lat": 0.0, "is_reserved": 0, "lon": -76.96051966666667}, {"type": "electric_scooter", "name": "7c26f8585aaefedf9c923d4d90e8df07", "rental_uris": {"ios": "https://dc.lft.to/lastmile_qr_scan", "android": "https://dc.lft.to/lastmile_qr_scan"}, "fusion_lon": 0.0, "lat": 38.9041065, "is_disabled": 0, "bike_id": "7c26f8585aaefedf9c923d4d90e8df07", "fusion_lat": 0.0, "is_reserved": 0, "lon": -76.973306}, {"type": "electric_scooter", "name": "f6b23a558f93190105f4eccc1aa631a9", "rental_uris": {"ios": "https://dc.lft.to/lastmile_qr_scan", "android": "https://dc.lft.to/lastmile_qr_scan"}, "fusion_lon": 0.0, "lat": 38.907908, "is_disabled": 0, "bike_id": "f6b23a558f93190105f4eccc1aa631a9", "fusion_lat": 0.0, "is_reserved": 0, "lon": -77.03998116666666}, {"type": "electric_scooter", "name": "b5e72b5385e37c297226274659f0296a", "rental_uris": {"ios": "https://dc.lft.to/lastmile_qr_scan", "android": "https://dc.lft.to/lastmile_qr_scan"}, "fusion_lon": 0.0, "lat": 38.91718766666666, "is_disabled": 0, "bike_id": "b5e72b5385e37c297226274659f0296a", "fusion_lat": 0.0, "is_reserved": 0, "lon": -77.03471566666667}, {"type": "electric_scooter", "name": "61c70bff46d9210e9f7de9bbafee78b8", "rental_uris": {"ios": "https://dc.lft.to/lastmile_qr_scan", "android": "https://dc.lft.to/lastmile_qr_scan"}, "fusion_lon": 0.0, "lat": 38.928797833333334, "is_disabled": 0, "bike_id": "61c70bff46d9210e9f7de9bbafee78b8", "fusion_lat": 0.0, "is_reserved": 0, "lon": -77.02706233333333}, {"type": "electric_scooter", "name": "f5c0bbc970dad7851ce32b4e2928b2f4", "rental_uris": {"ios": "https://dc.lft.to/lastmile_qr_scan", "android": "https://dc.lft.to/lastmile_qr_scan"}, "fusion_lon": 0.0, "lat": 38.907947, "is_disabled": 0, "bike_id": "f5c0bbc970dad7851ce32b4e2928b2f4", "fusion_lat": 0.0, "is_reserved": 0, "lon": -77.043357}, {"type": "electric_scooter", "name": "a8220b1f223228800ae3c5d911515593", "rental_uris": {"ios": "https://dc.lft.to/lastmile_qr_scan", "android": "https://dc.lft.to/lastmile_qr_scan"}, "fusion_lon": 0.0, "lat": 38.91567666666667, "is_disabled": 0, "bike_id": "a8220b1f223228800ae3c5d911515593", "fusion_lat": 0.0, "is_reserved": 0, "lon": -77.03851583333334}, {"type": "electric_scooter", "name": "b41d0aed4cb658732e48050d65b62689", "rental_uris": {"ios": "https://dc.lft.to/lastmile_qr_scan", "android": "https://dc.lft.to/lastmile_qr_scan"}, "fusion_lon": 0.0, "lat": 38.90102433333333, "is_disabled": 0, "bike_id": "b41d0aed4cb658732e48050d65b62689", "fusion_lat": 0.0, "is_reserved": 0, "lon": -77.0237945}, {"type": "electric_scooter", "name": "a44df8afc12fdadf6a2f60158234a5fb", "rental_uris": {"ios": "https://dc.lft.to/lastmile_qr_scan", "android": "https://dc.lft.to/lastmile_qr_scan"}, "fusion_lon": 0.0, "lat": 38.92465766666667, "is_disabled": 0, "bike_id": "a44df8afc12fdadf6a2f60158234a5fb", "fusion_lat": 0.0, "is_reserved": 0, "lon": -77.05233816666667}, {"type": "electric_scooter", "name": "48f1f12a4fc15dc2de90720a3b21e083", "rental_uris": {"ios": "https://dc.lft.to/lastmile_qr_scan", "android": "https://dc.lft.to/lastmile_qr_scan"}, "fusion_lon": 0.0, "lat": 38.909812333333335, "is_disabled": 0, "bike_id": "48f1f12a4fc15dc2de90720a3b21e083", "fusion_lat": 0.0, "is_reserved": 0, "lon": -77.03446783333334}, {"type": "electric_scooter", "name": "322d97276717b4922e81b965551b656b", "rental_uris": {"ios": "https://dc.lft.to/lastmile_qr_scan", "android": "https://dc.lft.to/lastmile_qr_scan"}, "fusion_lon": 0.0, "lat": 38.8982525, "is_disabled": 0, "bike_id": "322d97276717b4922e81b965551b656b", "fusion_lat": 0.0, "is_reserved": 0, "lon": -77.03159733333334}, {"type": "electric_scooter", "name": "4c0eb575e48b3fd8790e74261d50e270", "rental_uris": {"ios": "https://dc.lft.to/lastmile_qr_scan", "android": "https://dc.lft.to/lastmile_qr_scan"}, "fusion_lon": 0.0, "lat": 38.913168166666665, "is_disabled": 0, "bike_id": "4c0eb575e48b3fd8790e74261d50e270", "fusion_lat": 0.0, "is_reserved": 0, "lon": -77.0151265}, {"type": "electric_scooter", "name": "504dbaf6a1e35d296f08bd0ef4a70b4e", "rental_uris": {"ios": "https://dc.lft.to/lastmile_qr_scan", "android": "https://dc.lft.to/lastmile_qr_scan"}, "fusion_lon": 0.0, "lat": 38.90864366666667, "is_disabled": 0, "bike_id": "504dbaf6a1e35d296f08bd0ef4a70b4e", "fusion_lat": 0.0, "is_reserved": 0, "lon": -76.9979655}, {"type": "electric_scooter", "name": "063a825423d418e524e3e5c5ee109170", "rental_uris": {"ios": "https://dc.lft.to/lastmile_qr_scan", "android": "https://dc.lft.to/lastmile_qr_scan"}, "fusion_lon": 0.0, "lat": 38.90262416666667, "is_disabled": 0, "bike_id": "063a825423d418e524e3e5c5ee109170", "fusion_lat": 0.0, "is_reserved": 0, "lon": -76.97452883333334}, {"type": "electric_scooter", "name": "9a92798ff3ff0f22494e0a9e6481a544", "rental_uris": {"ios": "https://dc.lft.to/lastmile_qr_scan", "android": "https://dc.lft.to/lastmile_qr_scan"}, "fusion_lon": 0.0, "lat": 38.91111, "is_disabled": 0, "bike_id": "9a92798ff3ff0f22494e0a9e6481a544", "fusion_lat": 0.0, "is_reserved": 0, "lon": -77.04226616666666}, {"type": "electric_bike", "name": "cc4229236461132669013f9e3698b014", "rental_uris": {"ios": "https://dc.lft.to/lastmile_qr_scan", "android": "https://dc.lft.to/lastmile_qr_scan"}, "fusion_lon": 0.0, "lat": 38.87139783333333, "is_disabled": 0, "bike_id": "cc4229236461132669013f9e3698b014", "fusion_lat": 0.0, "is_reserved": 0, "lon": -77.10027233333334}, {"type": "electric_scooter", "name": "afcc0c7a4461c7ff41ef422ad19e4b0b", "rental_uris": {"ios": "https://dc.lft.to/lastmile_qr_scan", "android": "https://dc.lft.to/lastmile_qr_scan"}, "fusion_lon": 0.0, "lat": 38.892251, "is_disabled": 0, "bike_id": "afcc0c7a4461c7ff41ef422ad19e4b0b", "fusion_lat": 0.0, "is_reserved": 0, "lon": -77.047733}, {"type": "electric_scooter", "name": "1ae5cebca9c38033b283a3af9cc0ab62", "rental_uris": {"ios": "https://dc.lft.to/lastmile_qr_scan", "android": "https://dc.lft.to/lastmile_qr_scan"}, "fusion_lon": 0.0, "lat": 38.899582, "is_disabled": 0, "bike_id": "1ae5cebca9c38033b283a3af9cc0ab62", "fusion_lat": 0.0, "is_reserved": 0, "lon": -77.04179416666666}, {"type": "electric_scooter", "name": "7b2a3bffc59bdaafc9f983f580cd9c74", "rental_uris": {"ios": "https://dc.lft.to/lastmile_qr_scan", "android": "https://dc.lft.to/lastmile_qr_scan"}, "fusion_lon": 0.0, "lat": 38.923194333333335, "is_disabled": 0, "bike_id": "7b2a3bffc59bdaafc9f983f580cd9c74", "fusion_lat": 0.0, "is_reserved": 0, "lon": -77.04183666666667}, {"type": "electric_scooter", "name": "e73b8d850a1639a7849cbd9ea9796355", "rental_uris": {"ios": "https://dc.lft.to/lastmile_qr_scan", "android": "https://dc.lft.to/lastmile_qr_scan"}, "fusion_lon": 0.0, "lat": 38.882610666666665, "is_disabled": 0, "bike_id": "e73b8d850a1639a7849cbd9ea9796355", "fusion_lat": 0.0, "is_reserved": 0, "lon": -76.99488483333333}, {"type": "electric_scooter", "name": "1371bf82abeffa712ff21a004bc31a3c", "rental_uris": {"ios": "https://dc.lft.to/lastmile_qr_scan", "android": "https://dc.lft.to/lastmile_qr_scan"}, "fusion_lon": 0.0, "lat": 38.89233516666667, "is_disabled": 0, "bike_id": "1371bf82abeffa712ff21a004bc31a3c", "fusion_lat": 0.0, "is_reserved": 0, "lon": -77.04511083333334}, {"type": "electric_scooter", "name": "3d81752df607584c697b555732ed10b6", "rental_uris": {"ios": "https://dc.lft.to/lastmile_qr_scan", "android": "https://dc.lft.to/lastmile_qr_scan"}, "fusion_lon": 0.0, "lat": 38.86559483333333, "is_disabled": 0, "bike_id": "3d81752df607584c697b555732ed10b6", "fusion_lat": 0.0, "is_reserved": 0, "lon": -76.9835215}, {"type": "electric_scooter", "name": "b442bd279a7813398e99d11b7fb66799", "rental_uris": {"ios": "https://dc.lft.to/lastmile_qr_scan", "android": "https://dc.lft.to/lastmile_qr_scan"}, "fusion_lon": 0.0, "lat": 38.907529333333336, "is_disabled": 0, "bike_id": "b442bd279a7813398e99d11b7fb66799", "fusion_lat": 0.0, "is_reserved": 0, "lon": -77.04339933333333}, {"type": "electric_scooter", "name": "0b31bae5186504a91ff90795d9d8a14a", "rental_uris": {"ios": "https://dc.lft.to/lastmile_qr_scan", "android": "https://dc.lft.to/lastmile_qr_scan"}, "fusion_lon": 0.0, "lat": 38.92032566666666, "is_disabled": 0, "bike_id": "0b31bae5186504a91ff90795d9d8a14a", "fusion_lat": 0.0, "is_reserved": 0, "lon": -77.01291683333334}, {"type": "electric_scooter", "name": "7d63ffa87ca5d1cb210f9c0f3238db5b", "rental_uris": {"ios": "https://dc.lft.to/lastmile_qr_scan", "android": "https://dc.lft.to/lastmile_qr_scan"}, "fusion_lon": 0.0, "lat": 38.91255783333333, "is_disabled": 0, "bike_id": "7d63ffa87ca5d1cb210f9c0f3238db5b", "fusion_lat": 0.0, "is_reserved": 0, "lon": -77.0451235}, {"type": "electric_scooter", "name": "42653ccf0997728ee5b4252170143397", "rental_uris": {"ios": "https://dc.lft.to/lastmile_qr_scan", "android": "https://dc.lft.to/lastmile_qr_scan"}, "fusion_lon": 0.0, "lat": 38.87764083333333, "is_disabled": 0, "bike_id": "42653ccf0997728ee5b4252170143397", "fusion_lat": 0.0, "is_reserved": 0, "lon": -77.00712183333333}, {"type": "electric_scooter", "name": "abcead48f34463d96fa5c22fadf3a0c9", "rental_uris": {"ios": "https://dc.lft.to/lastmile_qr_scan", "android": "https://dc.lft.to/lastmile_qr_scan"}, "fusion_lon": 0.0, "lat": 38.905322, "is_disabled": 0, "bike_id": "abcead48f34463d96fa5c22fadf3a0c9", "fusion_lat": 0.0, "is_reserved": 0, "lon": -77.048748}, {"type": "electric_scooter", "name": "6b7ff5b61108986fc9887f71a5fc2dba", "rental_uris": {"ios": "https://dc.lft.to/lastmile_qr_scan", "android": "https://dc.lft.to/lastmile_qr_scan"}, "fusion_lon": 0.0, "lat": 38.884471833333336, "is_disabled": 0, "bike_id": "6b7ff5b61108986fc9887f71a5fc2dba", "fusion_lat": 0.0, "is_reserved": 0, "lon": -76.99623083333333}, {"type": "electric_scooter", "name": "ce803c0c712afbb7b49484f10c7f7be2", "rental_uris": {"ios": "https://dc.lft.to/lastmile_qr_scan", "android": "https://dc.lft.to/lastmile_qr_scan"}, "fusion_lon": 0.0, "lat": 38.887374333333334, "is_disabled": 0, "bike_id": "ce803c0c712afbb7b49484f10c7f7be2", "fusion_lat": 0.0, "is_reserved": 0, "lon": -77.025773}, {"type": "electric_scooter", "name": "5db5398c933a32ded5a38761b1aa18ac", "rental_uris": {"ios": "https://dc.lft.to/lastmile_qr_scan", "android": "https://dc.lft.to/lastmile_qr_scan"}, "fusion_lon": 0.0, "lat": 38.89858266666667, "is_disabled": 0, "bike_id": "5db5398c933a32ded5a38761b1aa18ac", "fusion_lat": 0.0, "is_reserved": 0, "lon": -77.02858716666667}, {"type": "electric_scooter", "name": "0102bc014082dd5b8106549b3a0c4f2f", "rental_uris": {"ios": "https://dc.lft.to/lastmile_qr_scan", "android": "https://dc.lft.to/lastmile_qr_scan"}, "fusion_lon": 0.0, "lat": 38.901807166666664, "is_disabled": 0, "bike_id": "0102bc014082dd5b8106549b3a0c4f2f", "fusion_lat": 0.0, "is_reserved": 0, "lon": -76.94148966666667}, {"type": "electric_scooter", "name": "52d56105a7ca0bc92f592a0609bc901d", "rental_uris": {"ios": "https://dc.lft.to/lastmile_qr_scan", "android": "https://dc.lft.to/lastmile_qr_scan"}, "fusion_lon": 0.0, "lat": 38.9137725, "is_disabled": 0, "bike_id": "52d56105a7ca0bc92f592a0609bc901d", "fusion_lat": 0.0, "is_reserved": 0, "lon": -77.0183525}, {"type": "electric_scooter", "name": "08a7188ff9905185d89fd64dee251235", "rental_uris": {"ios": "https://dc.lft.to/lastmile_qr_scan", "android": "https://dc.lft.to/lastmile_qr_scan"}, "fusion_lon": 0.0, "lat": 38.920491166666665, "is_disabled": 0, "bike_id": "08a7188ff9905185d89fd64dee251235", "fusion_lat": 0.0, "is_reserved": 0, "lon": -77.025743}, {"type": "electric_bike", "name": "9484e5ac7059f836b5195c7f0e2f4aae", "rental_uris": {"ios": "https://dc.lft.to/lastmile_qr_scan", "android": "https://dc.lft.to/lastmile_qr_scan"}, "fusion_lon": 0.0, "lat": 38.891631, "is_disabled": 0, "bike_id": "9484e5ac7059f836b5195c7f0e2f4aae", "fusion_lat": 0.0, "is_reserved": 0, "lon": -77.00468833333333}, {"type": "electric_scooter", "name": "5d5e7f9cec789af39b0d68061ca01186", "rental_uris": {"ios": "https://dc.lft.to/lastmile_qr_scan", "android": "https://dc.lft.to/lastmile_qr_scan"}, "fusion_lon": 0.0, "lat": 38.92070983333333, "is_disabled": 0, "bike_id": "5d5e7f9cec789af39b0d68061ca01186", "fusion_lat": 0.0, "is_reserved": 0, "lon": -77.04379866666666}, {"type": "electric_scooter", "name": "68cddb7195149cdee297e8ca743619a7", "rental_uris": {"ios": "https://dc.lft.to/lastmile_qr_scan", "android": "https://dc.lft.to/lastmile_qr_scan"}, "fusion_lon": 0.0, "lat": 38.8961985, "is_disabled": 0, "bike_id": "68cddb7195149cdee297e8ca743619a7", "fusion_lat": 0.0, "is_reserved": 0, "lon": -76.97967833333334}, {"type": "electric_scooter", "name": "fe7f960082043be33706e9300c5ee774", "rental_uris": {"ios": "https://dc.lft.to/lastmile_qr_scan", "android": "https://dc.lft.to/lastmile_qr_scan"}, "fusion_lon": 0.0, "lat": 38.90137516666667, "is_disabled": 0, "bike_id": "fe7f960082043be33706e9300c5ee774", "fusion_lat": 0.0, "is_reserved": 0, "lon": -77.03623083333333}, {"type": "electric_scooter", "name": "46dc9627dcba6b189d170c0025c63d49", "rental_uris": {"ios": "https://dc.lft.to/lastmile_qr_scan", "android": "https://dc.lft.to/lastmile_qr_scan"}, "fusion_lon": 0.0, "lat": 38.90144983333333, "is_disabled": 0, "bike_id": "46dc9627dcba6b189d170c0025c63d49", "fusion_lat": 0.0, "is_reserved": 0, "lon": -76.989589}, {"type": "electric_scooter", "name": "1c136f7c9a658539ede15cef0cc9765f", "rental_uris": {"ios": "https://dc.lft.to/lastmile_qr_scan", "android": "https://dc.lft.to/lastmile_qr_scan"}, "fusion_lon": 0.0, "lat": 38.89621966666667, "is_disabled": 0, "bike_id": "1c136f7c9a658539ede15cef0cc9765f", "fusion_lat": 0.0, "is_reserved": 0, "lon": -76.99333033333333}, {"type": "electric_scooter", "name": "9194b5279756dee975a4e3d9de15e7c1", "rental_uris": {"ios": "https://dc.lft.to/lastmile_qr_scan", "android": "https://dc.lft.to/lastmile_qr_scan"}, "fusion_lon": 0.0, "lat": 38.9101665, "is_disabled": 0, "bike_id": "9194b5279756dee975a4e3d9de15e7c1", "fusion_lat": 0.0, "is_reserved": 0, "lon": -77.02203716666666}, {"type": "electric_scooter", "name": "339e3dc4f848897de08544a076120b22", "rental_uris": {"ios": "https://dc.lft.to/lastmile_qr_scan", "android": "https://dc.lft.to/lastmile_qr_scan"}, "fusion_lon": 0.0, "lat": 38.90019783333334, "is_disabled": 0, "bike_id": "339e3dc4f848897de08544a076120b22", "fusion_lat": 0.0, "is_reserved": 0, "lon": -77.02731433333334}, {"type": "electric_scooter", "name": "144386c3a1e836bd1ff201338b752b1b", "rental_uris": {"ios": "https://dc.lft.to/lastmile_qr_scan", "android": "https://dc.lft.to/lastmile_qr_scan"}, "fusion_lon": 0.0, "lat": 38.90385333333333, "is_disabled": 0, "bike_id": "144386c3a1e836bd1ff201338b752b1b", "fusion_lat": 0.0, "is_reserved": 0, "lon": -77.04366116666667}, {"type": "electric_scooter", "name": "24b4cf1dcf151f81179cc90ee4d93eca", "rental_uris": {"ios": "https://dc.lft.to/lastmile_qr_scan", "android": "https://dc.lft.to/lastmile_qr_scan"}, "fusion_lon": 0.0, "lat": 38.929556833333336, "is_disabled": 0, "bike_id": "24b4cf1dcf151f81179cc90ee4d93eca", "fusion_lat": 0.0, "is_reserved": 0, "lon": -77.04404066666666}, {"type": "electric_bike", "name": "5af2deb25681430eff1b26e3629fe5f9", "rental_uris": {"ios": "https://dc.lft.to/lastmile_qr_scan", "android": "https://dc.lft.to/lastmile_qr_scan"}, "fusion_lon": 0.0, "lat": 38.9423215, "is_disabled": 0, "bike_id": "5af2deb25681430eff1b26e3629fe5f9", "fusion_lat": 0.0, "is_reserved": 0, "lon": -76.96583066666666}, {"type": "electric_scooter", "name": "430adf0d47a92206a05aaa9d1e6e9d83", "rental_uris": {"ios": "https://dc.lft.to/lastmile_qr_scan", "android": "https://dc.lft.to/lastmile_qr_scan"}, "fusion_lon": 0.0, "lat": 38.9205425, "is_disabled": 0, "bike_id": "430adf0d47a92206a05aaa9d1e6e9d83", "fusion_lat": 0.0, "is_reserved": 0, "lon": -77.02576966666666}, {"type": "electric_scooter", "name": "ba69a8e1d5ead930ab42622823075aa6", "rental_uris": {"ios": "https://dc.lft.to/lastmile_qr_scan", "android": "https://dc.lft.to/lastmile_qr_scan"}, "fusion_lon": 0.0, "lat": 38.85552766666667, "is_disabled": 0, "bike_id": "ba69a8e1d5ead930ab42622823075aa6", "fusion_lat": 0.0, "is_reserved": 0, "lon": -76.9875635}, {"type": "electric_scooter", "name": "346c1802341ce1fa1871739916d5559a", "rental_uris": {"ios": "https://dc.lft.to/lastmile_qr_scan", "android": "https://dc.lft.to/lastmile_qr_scan"}, "fusion_lon": 0.0, "lat": 38.9230015, "is_disabled": 0, "bike_id": "346c1802341ce1fa1871739916d5559a", "fusion_lat": 0.0, "is_reserved": 0, "lon": -77.04270466666667}, {"type": "electric_scooter", "name": "e35e50249f991c70ae9d1fcb9ab68ed0", "rental_uris": {"ios": "https://dc.lft.to/lastmile_qr_scan", "android": "https://dc.lft.to/lastmile_qr_scan"}, "fusion_lon": 0.0, "lat": 38.909483333333334, "is_disabled": 0, "bike_id": "e35e50249f991c70ae9d1fcb9ab68ed0", "fusion_lat": 0.0, "is_reserved": 0, "lon": -77.02818016666667}, {"type": "electric_scooter", "name": "48c2991860b8456254cf7474607b9b55", "rental_uris": {"ios": "https://dc.lft.to/lastmile_qr_scan", "android": "https://dc.lft.to/lastmile_qr_scan"}, "fusion_lon": 0.0, "lat": 38.90617183333333, "is_disabled": 0, "bike_id": "48c2991860b8456254cf7474607b9b55", "fusion_lat": 0.0, "is_reserved": 0, "lon": -77.0037555}, {"type": "electric_scooter", "name": "067fb6008b8b31e096710d9f80941d25", "rental_uris": {"ios": "https://dc.lft.to/lastmile_qr_scan", "android": "https://dc.lft.to/lastmile_qr_scan"}, "fusion_lon": 0.0, "lat": 38.90117266666667, "is_disabled": 0, "bike_id": "067fb6008b8b31e096710d9f80941d25", "fusion_lat": 0.0, "is_reserved": 0, "lon": -77.0449125}, {"type": "electric_scooter", "name": "d87d91594bc76616efa74943eb6a3c8f", "rental_uris": {"ios": "https://dc.lft.to/lastmile_qr_scan", "android": "https://dc.lft.to/lastmile_qr_scan"}, "fusion_lon": 0.0, "lat": 38.9224175, "is_disabled": 0, "bike_id": "d87d91594bc76616efa74943eb6a3c8f", "fusion_lat": 0.0, "is_reserved": 0, "lon": -77.02093466666666}, {"type": "electric_scooter", "name": "b79c74871565041d90c22a85ae35e71e", "rental_uris": {"ios": "https://dc.lft.to/lastmile_qr_scan", "android": "https://dc.lft.to/lastmile_qr_scan"}, "fusion_lon": 0.0, "lat": 38.92509016666666, "is_disabled": 0, "bike_id": "b79c74871565041d90c22a85ae35e71e", "fusion_lat": 0.0, "is_reserved": 0, "lon": -77.002359}, {"type": "electric_scooter", "name": "239e109d19ae949c243ff3f5a91c2497", "rental_uris": {"ios": "https://dc.lft.to/lastmile_qr_scan", "android": "https://dc.lft.to/lastmile_qr_scan"}, "fusion_lon": 0.0, "lat": 38.897171666666665, "is_disabled": 0, "bike_id": "239e109d19ae949c243ff3f5a91c2497", "fusion_lat": 0.0, "is_reserved": 0, "lon": -77.04333333333334}, {"type": "electric_scooter", "name": "4a2c6919effd27feb1ea459e45e667d0", "rental_uris": {"ios": "https://dc.lft.to/lastmile_qr_scan", "android": "https://dc.lft.to/lastmile_qr_scan"}, "fusion_lon": 0.0, "lat": 38.92319583333333, "is_disabled": 0, "bike_id": "4a2c6919effd27feb1ea459e45e667d0", "fusion_lat": 0.0, "is_reserved": 0, "lon": -77.03910666666667}, {"type": "electric_bike", "name": "561d47c63b7d75e529646964ea49abfa", "rental_uris": {"ios": "https://dc.lft.to/lastmile_qr_scan", "android": "https://dc.lft.to/lastmile_qr_scan"}, "fusion_lon": 0.0, "lat": 38.840849, "is_disabled": 0, "bike_id": "561d47c63b7d75e529646964ea49abfa", "fusion_lat": 0.0, "is_reserved": 0, "lon": -76.970275}, {"type": "electric_scooter", "name": "058d0ff26236440ae72bd7a2ad770bda", "rental_uris": {"ios": "https://dc.lft.to/lastmile_qr_scan", "android": "https://dc.lft.to/lastmile_qr_scan"}, "fusion_lon": 0.0, "lat": 38.91992483333333, "is_disabled": 0, "bike_id": "058d0ff26236440ae72bd7a2ad770bda", "fusion_lat": 0.0, "is_reserved": 0, "lon": -76.9730395}, {"type": "electric_scooter", "name": "3c1555e7381cd8c4f8eb57a95a37d3a0", "rental_uris": {"ios": "https://dc.lft.to/lastmile_qr_scan", "android": "https://dc.lft.to/lastmile_qr_scan"}, "fusion_lon": 0.0, "lat": 38.8974565, "is_disabled": 0, "bike_id": "3c1555e7381cd8c4f8eb57a95a37d3a0", "fusion_lat": 0.0, "is_reserved": 0, "lon": -77.00920083333334}, {"type": "electric_scooter", "name": "6999389de877e49d54cac055909adaa7", "rental_uris": {"ios": "https://dc.lft.to/lastmile_qr_scan", "android": "https://dc.lft.to/lastmile_qr_scan"}, "fusion_lon": 0.0, "lat": 38.89745033333333, "is_disabled": 0, "bike_id": "6999389de877e49d54cac055909adaa7", "fusion_lat": 0.0, "is_reserved": 0, "lon": -77.04592116666667}, {"type": "electric_bike", "name": "fc6dadd1f51407025edd996f492a61db", "rental_uris": {"ios": "https://dc.lft.to/lastmile_qr_scan", "android": "https://dc.lft.to/lastmile_qr_scan"}, "fusion_lon": 0.0, "lat": 38.883654666666665, "is_disabled": 0, "bike_id": "fc6dadd1f51407025edd996f492a61db", "fusion_lat": 0.0, "is_reserved": 0, "lon": -76.98215233333333}, {"type": "electric_scooter", "name": "ede3bb269c69769f640d515db982986f", "rental_uris": {"ios": "https://dc.lft.to/lastmile_qr_scan", "android": "https://dc.lft.to/lastmile_qr_scan"}, "fusion_lon": 0.0, "lat": 38.88343866666666, "is_disabled": 0, "bike_id": "ede3bb269c69769f640d515db982986f", "fusion_lat": 0.0, "is_reserved": 0, "lon": -77.01776083333333}, {"type": "electric_scooter", "name": "d03400730f5949529969c9d35e4a510f", "rental_uris": {"ios": "https://dc.lft.to/lastmile_qr_scan", "android": "https://dc.lft.to/lastmile_qr_scan"}, "fusion_lon": 0.0, "lat": 38.903173333333335, "is_disabled": 0, "bike_id": "d03400730f5949529969c9d35e4a510f", "fusion_lat": 0.0, "is_reserved": 0, "lon": -77.06013083333333}, {"type": "electric_scooter", "name": "265b8c0856675e1c7b775921d8956ee9", "rental_uris": {"ios": "https://dc.lft.to/lastmile_qr_scan", "android": "https://dc.lft.to/lastmile_qr_scan"}, "fusion_lon": 0.0, "lat": 38.95636583333334, "is_disabled": 0, "bike_id": "265b8c0856675e1c7b775921d8956ee9", "fusion_lat": 0.0, "is_reserved": 0, "lon": -77.03302183333334}, {"type": "electric_scooter", "name": "514ffc12d95fa000fa4df2a0df85b898", "rental_uris": {"ios": "https://dc.lft.to/lastmile_qr_scan", "android": "https://dc.lft.to/lastmile_qr_scan"}, "fusion_lon": 0.0, "lat": 38.9021415, "is_disabled": 0, "bike_id": "514ffc12d95fa000fa4df2a0df85b898", "fusion_lat": 0.0, "is_reserved": 0, "lon": -77.02762233333333}, {"type": "electric_scooter", "name": "403c975f6aebb3cefc64d2db21923ebd", "rental_uris": {"ios": "https://dc.lft.to/lastmile_qr_scan", "android": "https://dc.lft.to/lastmile_qr_scan"}, "fusion_lon": 0.0, "lat": 38.906694, "is_disabled": 0, "bike_id": "403c975f6aebb3cefc64d2db21923ebd", "fusion_lat": 0.0, "is_reserved": 0, "lon": -77.02711266666667}, {"type": "electric_scooter", "name": "37146a890b6703aa3eb4f4e94e74e2af", "rental_uris": {"ios": "https://dc.lft.to/lastmile_qr_scan", "android": "https://dc.lft.to/lastmile_qr_scan"}, "fusion_lon": 0.0, "lat": 38.89832766666667, "is_disabled": 0, "bike_id": "37146a890b6703aa3eb4f4e94e74e2af", "fusion_lat": 0.0, "is_reserved": 0, "lon": -77.03164283333334}, {"type": "electric_scooter", "name": "b2c4c3f137787acaffcfd04e3367088a", "rental_uris": {"ios": "https://dc.lft.to/lastmile_qr_scan", "android": "https://dc.lft.to/lastmile_qr_scan"}, "fusion_lon": 0.0, "lat": 38.91123783333333, "is_disabled": 0, "bike_id": "b2c4c3f137787acaffcfd04e3367088a", "fusion_lat": 0.0, "is_reserved": 0, "lon": -77.04457966666666}, {"type": "electric_scooter", "name": "2aede002cc8f148f328678623829425a", "rental_uris": {"ios": "https://dc.lft.to/lastmile_qr_scan", "android": "https://dc.lft.to/lastmile_qr_scan"}, "fusion_lon": 0.0, "lat": 38.92291733333333, "is_disabled": 0, "bike_id": "2aede002cc8f148f328678623829425a", "fusion_lat": 0.0, "is_reserved": 0, "lon": -77.03193816666666}, {"type": "electric_scooter", "name": "7d20bfc33529e2a813072ed98d2c2ee4", "rental_uris": {"ios": "https://dc.lft.to/lastmile_qr_scan", "android": "https://dc.lft.to/lastmile_qr_scan"}, "fusion_lon": 0.0, "lat": 38.9180825, "is_disabled": 0, "bike_id": "7d20bfc33529e2a813072ed98d2c2ee4", "fusion_lat": 0.0, "is_reserved": 0, "lon": -77.02819683333334}, {"type": "electric_scooter", "name": "0353c089d521f913abe637a3744707ab", "rental_uris": {"ios": "https://dc.lft.to/lastmile_qr_scan", "android": "https://dc.lft.to/lastmile_qr_scan"}, "fusion_lon": 0.0, "lat": 38.9177315, "is_disabled": 0, "bike_id": "0353c089d521f913abe637a3744707ab", "fusion_lat": 0.0, "is_reserved": 0, "lon": -77.04104266666667}, {"type": "electric_bike", "name": "0974372586c7e764d9aa7f0be94d2a05", "rental_uris": {"ios": "https://dc.lft.to/lastmile_qr_scan", "android": "https://dc.lft.to/lastmile_qr_scan"}, "fusion_lon": 0.0, "lat": 38.92460666666667, "is_disabled": 0, "bike_id": "0974372586c7e764d9aa7f0be94d2a05", "fusion_lat": 0.0, "is_reserved": 0, "lon": -77.0673515}, {"type": "electric_scooter", "name": "9589031298a1aee3c5b894d109f202c5", "rental_uris": {"ios": "https://dc.lft.to/lastmile_qr_scan", "android": "https://dc.lft.to/lastmile_qr_scan"}, "fusion_lon": 0.0, "lat": 38.88737483333333, "is_disabled": 0, "bike_id": "9589031298a1aee3c5b894d109f202c5", "fusion_lat": 0.0, "is_reserved": 0, "lon": -77.02582616666666}, {"type": "electric_scooter", "name": "18677d91f23f428d43591c8b247515c1", "rental_uris": {"ios": "https://dc.lft.to/lastmile_qr_scan", "android": "https://dc.lft.to/lastmile_qr_scan"}, "fusion_lon": 0.0, "lat": 38.878888, "is_disabled": 0, "bike_id": "18677d91f23f428d43591c8b247515c1", "fusion_lat": 0.0, "is_reserved": 0, "lon": -77.02315233333333}, {"type": "electric_scooter", "name": "a89c7a8ba7937cf0955de92b2fd0a0ef", "rental_uris": {"ios": "https://dc.lft.to/lastmile_qr_scan", "android": "https://dc.lft.to/lastmile_qr_scan"}, "fusion_lon": 0.0, "lat": 38.902652833333335, "is_disabled": 0, "bike_id": "a89c7a8ba7937cf0955de92b2fd0a0ef", "fusion_lat": 0.0, "is_reserved": 0, "lon": -77.034336}, {"type": "electric_scooter", "name": "043beb4449ca30f0a2aa7e4f11c6eb7f", "rental_uris": {"ios": "https://dc.lft.to/lastmile_qr_scan", "android": "https://dc.lft.to/lastmile_qr_scan"}, "fusion_lon": 0.0, "lat": 38.87504766666667, "is_disabled": 0, "bike_id": "043beb4449ca30f0a2aa7e4f11c6eb7f", "fusion_lat": 0.0, "is_reserved": 0, "lon": -77.00073983333333}, {"type": "electric_scooter", "name": "8909456a2ae20283ec1e0dd7929754cb", "rental_uris": {"ios": "https://dc.lft.to/lastmile_qr_scan", "android": "https://dc.lft.to/lastmile_qr_scan"}, "fusion_lon": 0.0, "lat": 38.907256833333335, "is_disabled": 0, "bike_id": "8909456a2ae20283ec1e0dd7929754cb", "fusion_lat": 0.0, "is_reserved": 0, "lon": -77.02544}, {"type": "electric_scooter", "name": "09c9af07939ddb70fd0207f0d64ef647", "rental_uris": {"ios": "https://dc.lft.to/lastmile_qr_scan", "android": "https://dc.lft.to/lastmile_qr_scan"}, "fusion_lon": 0.0, "lat": 38.92049, "is_disabled": 0, "bike_id": "09c9af07939ddb70fd0207f0d64ef647", "fusion_lat": 0.0, "is_reserved": 0, "lon": -77.00208416666666}, {"type": "electric_scooter", "name": "9aa96515a15ce52392dc5f8842cc12dd", "rental_uris": {"ios": "https://dc.lft.to/lastmile_qr_scan", "android": "https://dc.lft.to/lastmile_qr_scan"}, "fusion_lon": 0.0, "lat": 38.892202, "is_disabled": 0, "bike_id": "9aa96515a15ce52392dc5f8842cc12dd", "fusion_lat": 0.0, "is_reserved": 0, "lon": -77.02227683333334}, {"type": "electric_scooter", "name": "650b0ebf06baff75f47a3b8d87bfe117", "rental_uris": {"ios": "https://dc.lft.to/lastmile_qr_scan", "android": "https://dc.lft.to/lastmile_qr_scan"}, "fusion_lon": 0.0, "lat": 38.876174, "is_disabled": 0, "bike_id": "650b0ebf06baff75f47a3b8d87bfe117", "fusion_lat": 0.0, "is_reserved": 0, "lon": -76.96568883333333}, {"type": "electric_scooter", "name": "83c94ac2e6ea54f934d6a23672252bb0", "rental_uris": {"ios": "https://dc.lft.to/lastmile_qr_scan", "android": "https://dc.lft.to/lastmile_qr_scan"}, "fusion_lon": 0.0, "lat": 38.901897166666664, "is_disabled": 0, "bike_id": "83c94ac2e6ea54f934d6a23672252bb0", "fusion_lat": 0.0, "is_reserved": 0, "lon": -76.92902033333333}, {"type": "electric_scooter", "name": "8ed576859678e46572fff76982d59044", "rental_uris": {"ios": "https://dc.lft.to/lastmile_qr_scan", "android": "https://dc.lft.to/lastmile_qr_scan"}, "fusion_lon": 0.0, "lat": 38.91425816666667, "is_disabled": 0, "bike_id": "8ed576859678e46572fff76982d59044", "fusion_lat": 0.0, "is_reserved": 0, "lon": -77.03813483333333}, {"type": "electric_scooter", "name": "362c1f36fb2270a9203b200bddebe075", "rental_uris": {"ios": "https://dc.lft.to/lastmile_qr_scan", "android": "https://dc.lft.to/lastmile_qr_scan"}, "fusion_lon": 0.0, "lat": 38.892266, "is_disabled": 0, "bike_id": "362c1f36fb2270a9203b200bddebe075", "fusion_lat": 0.0, "is_reserved": 0, "lon": -77.04804733333333}, {"type": "electric_scooter", "name": "c384cc6af9a9e09c35808b0150d0bdf8", "rental_uris": {"ios": "https://dc.lft.to/lastmile_qr_scan", "android": "https://dc.lft.to/lastmile_qr_scan"}, "fusion_lon": 0.0, "lat": 38.88636416666667, "is_disabled": 0, "bike_id": "c384cc6af9a9e09c35808b0150d0bdf8", "fusion_lat": 0.0, "is_reserved": 0, "lon": -76.92587783333333}, {"type": "electric_scooter", "name": "06454aaaa580934c2e1e06e645bb2539", "rental_uris": {"ios": "https://dc.lft.to/lastmile_qr_scan", "android": "https://dc.lft.to/lastmile_qr_scan"}, "fusion_lon": 0.0, "lat": 38.928344, "is_disabled": 0, "bike_id": "06454aaaa580934c2e1e06e645bb2539", "fusion_lat": 0.0, "is_reserved": 0, "lon": -77.05441316666666}, {"type": "electric_bike", "name": "14d9be20c68e0866da82d351d88a6790", "rental_uris": {"ios": "https://dc.lft.to/lastmile_qr_scan", "android": "https://dc.lft.to/lastmile_qr_scan"}, "fusion_lon": 0.0, "lat": 38.85516166666667, "is_disabled": 0, "bike_id": "14d9be20c68e0866da82d351d88a6790", "fusion_lat": 0.0, "is_reserved": 0, "lon": -77.10537433333333}, {"type": "electric_scooter", "name": "b2596f04a37881a49807e4d3d9544181", "rental_uris": {"ios": "https://dc.lft.to/lastmile_qr_scan", "android": "https://dc.lft.to/lastmile_qr_scan"}, "fusion_lon": 0.0, "lat": 38.91696866666667, "is_disabled": 0, "bike_id": "b2596f04a37881a49807e4d3d9544181", "fusion_lat": 0.0, "is_reserved": 0, "lon": -77.0315685}, {"type": "electric_scooter", "name": "525076cf88f4b2b24d27f18377b63ab0", "rental_uris": {"ios": "https://dc.lft.to/lastmile_qr_scan", "android": "https://dc.lft.to/lastmile_qr_scan"}, "fusion_lon": 0.0, "lat": 38.902429, "is_disabled": 0, "bike_id": "525076cf88f4b2b24d27f18377b63ab0", "fusion_lat": 0.0, "is_reserved": 0, "lon": -77.00201433333334}, {"type": "electric_scooter", "name": "6211e3bbbdf3fba7c0dd4dcb4544417f", "rental_uris": {"ios": "https://dc.lft.to/lastmile_qr_scan", "android": "https://dc.lft.to/lastmile_qr_scan"}, "fusion_lon": 0.0, "lat": 38.94474616666667, "is_disabled": 0, "bike_id": "6211e3bbbdf3fba7c0dd4dcb4544417f", "fusion_lat": 0.0, "is_reserved": 0, "lon": -77.02357933333333}, {"type": "electric_scooter", "name": "3f0d34216aaf00c60e05b94183efeb71", "rental_uris": {"ios": "https://dc.lft.to/lastmile_qr_scan", "android": "https://dc.lft.to/lastmile_qr_scan"}, "fusion_lon": 0.0, "lat": 38.932531, "is_disabled": 0, "bike_id": "3f0d34216aaf00c60e05b94183efeb71", "fusion_lat": 0.0, "is_reserved": 0, "lon": -76.99589116666667}, {"type": "electric_scooter", "name": "94c16319a214785dd1b7346bd66f53c9", "rental_uris": {"ios": "https://dc.lft.to/lastmile_qr_scan", "android": "https://dc.lft.to/lastmile_qr_scan"}, "fusion_lon": 0.0, "lat": 38.91695166666667, "is_disabled": 0, "bike_id": "94c16319a214785dd1b7346bd66f53c9", "fusion_lat": 0.0, "is_reserved": 0, "lon": -77.02596466666667}, {"type": "electric_scooter", "name": "d0df98062186ebcf277f01030888ff56", "rental_uris": {"ios": "https://dc.lft.to/lastmile_qr_scan", "android": "https://dc.lft.to/lastmile_qr_scan"}, "fusion_lon": 0.0, "lat": 38.8922285, "is_disabled": 0, "bike_id": "d0df98062186ebcf277f01030888ff56", "fusion_lat": 0.0, "is_reserved": 0, "lon": -77.02221516666667}, {"type": "electric_bike", "name": "ea2f1ab53df5c6b657c72cb3977995f4", "rental_uris": {"ios": "https://dc.lft.to/lastmile_qr_scan", "android": "https://dc.lft.to/lastmile_qr_scan"}, "fusion_lon": 0.0, "lat": 38.94824783333333, "is_disabled": 0, "bike_id": "ea2f1ab53df5c6b657c72cb3977995f4", "fusion_lat": 0.0, "is_reserved": 0, "lon": -77.02945733333334}, {"type": "electric_scooter", "name": "6c7e21df013f8920ce182f574a168671", "rental_uris": {"ios": "https://dc.lft.to/lastmile_qr_scan", "android": "https://dc.lft.to/lastmile_qr_scan"}, "fusion_lon": 0.0, "lat": 38.92869983333333, "is_disabled": 0, "bike_id": "6c7e21df013f8920ce182f574a168671", "fusion_lat": 0.0, "is_reserved": 0, "lon": -77.03289433333333}, {"type": "electric_bike", "name": "86db3a9bd50be80118e74bcac5954121", "rental_uris": {"ios": "https://dc.lft.to/lastmile_qr_scan", "android": "https://dc.lft.to/lastmile_qr_scan"}, "fusion_lon": 0.0, "lat": 39.01078733333333, "is_disabled": 0, "bike_id": "86db3a9bd50be80118e74bcac5954121", "fusion_lat": 0.0, "is_reserved": 0, "lon": -76.910641}, {"type": "electric_scooter", "name": "87626a180a67024436d78186bc0112c2", "rental_uris": {"ios": "https://dc.lft.to/lastmile_qr_scan", "android": "https://dc.lft.to/lastmile_qr_scan"}, "fusion_lon": 0.0, "lat": 38.923336, "is_disabled": 0, "bike_id": "87626a180a67024436d78186bc0112c2", "fusion_lat": 0.0, "is_reserved": 0, "lon": -77.019539}, {"type": "electric_scooter", "name": "b7a95a895aef7771420421a1c6d16733", "rental_uris": {"ios": "https://dc.lft.to/lastmile_qr_scan", "android": "https://dc.lft.to/lastmile_qr_scan"}, "fusion_lon": 0.0, "lat": 38.91126166666667, "is_disabled": 0, "bike_id": "b7a95a895aef7771420421a1c6d16733", "fusion_lat": 0.0, "is_reserved": 0, "lon": -77.033123}, {"type": "electric_scooter", "name": "17e5fc7584c9dd0c87856380008ff233", "rental_uris": {"ios": "https://dc.lft.to/lastmile_qr_scan", "android": "https://dc.lft.to/lastmile_qr_scan"}, "fusion_lon": 0.0, "lat": 38.89848966666667, "is_disabled": 0, "bike_id": "17e5fc7584c9dd0c87856380008ff233", "fusion_lat": 0.0, "is_reserved": 0, "lon": -77.0188575}, {"type": "electric_scooter", "name": "23ddb1e1b20d45dd8125097caa2be5da", "rental_uris": {"ios": "https://dc.lft.to/lastmile_qr_scan", "android": "https://dc.lft.to/lastmile_qr_scan"}, "fusion_lon": 0.0, "lat": 38.935121333333335, "is_disabled": 0, "bike_id": "23ddb1e1b20d45dd8125097caa2be5da", "fusion_lat": 0.0, "is_reserved": 0, "lon": -77.05832083333334}, {"type": "electric_scooter", "name": "253c8e2f77c81ed726605694b9d73937", "rental_uris": {"ios": "https://dc.lft.to/lastmile_qr_scan", "android": "https://dc.lft.to/lastmile_qr_scan"}, "fusion_lon": 0.0, "lat": 38.898459333333335, "is_disabled": 0, "bike_id": "253c8e2f77c81ed726605694b9d73937", "fusion_lat": 0.0, "is_reserved": 0, "lon": -77.01271416666667}, {"type": "electric_scooter", "name": "f8e763093030ea6ccb61d061d2e9ea53", "rental_uris": {"ios": "https://dc.lft.to/lastmile_qr_scan", "android": "https://dc.lft.to/lastmile_qr_scan"}, "fusion_lon": 0.0, "lat": 38.933264333333334, "is_disabled": 0, "bike_id": "f8e763093030ea6ccb61d061d2e9ea53", "fusion_lat": 0.0, "is_reserved": 0, "lon": -77.03433333333334}, {"type": "electric_scooter", "name": "0597864a9398955968a061aa08615849", "rental_uris": {"ios": "https://dc.lft.to/lastmile_qr_scan", "android": "https://dc.lft.to/lastmile_qr_scan"}, "fusion_lon": 0.0, "lat": 38.87684083333333, "is_disabled": 0, "bike_id": "0597864a9398955968a061aa08615849", "fusion_lat": 0.0, "is_reserved": 0, "lon": -77.007597}, {"type": "electric_scooter", "name": "3c8dcfafc56c11302e78e852e524d110", "rental_uris": {"ios": "https://dc.lft.to/lastmile_qr_scan", "android": "https://dc.lft.to/lastmile_qr_scan"}, "fusion_lon": 0.0, "lat": 38.9097245, "is_disabled": 0, "bike_id": "3c8dcfafc56c11302e78e852e524d110", "fusion_lat": 0.0, "is_reserved": 0, "lon": -77.03274916666666}, {"type": "electric_scooter", "name": "cfabb7e31f85bbbd5963621ed246d5b5", "rental_uris": {"ios": "https://dc.lft.to/lastmile_qr_scan", "android": "https://dc.lft.to/lastmile_qr_scan"}, "fusion_lon": 0.0, "lat": 38.8771655, "is_disabled": 0, "bike_id": "cfabb7e31f85bbbd5963621ed246d5b5", "fusion_lat": 0.0, "is_reserved": 0, "lon": -77.00426583333333}, {"type": "electric_scooter", "name": "0b1d40093a63dc28e362e06dd0ebda66", "rental_uris": {"ios": "https://dc.lft.to/lastmile_qr_scan", "android": "https://dc.lft.to/lastmile_qr_scan"}, "fusion_lon": 0.0, "lat": 38.89536416666667, "is_disabled": 0, "bike_id": "0b1d40093a63dc28e362e06dd0ebda66", "fusion_lat": 0.0, "is_reserved": 0, "lon": -77.04847283333334}, {"type": "electric_bike", "name": "24243f40a790b934bee3e8d5db5d2ad7", "rental_uris": {"ios": "https://dc.lft.to/lastmile_qr_scan", "android": "https://dc.lft.to/lastmile_qr_scan"}, "fusion_lon": 0.0, "lat": 38.86452383333334, "is_disabled": 0, "bike_id": "24243f40a790b934bee3e8d5db5d2ad7", "fusion_lat": 0.0, "is_reserved": 0, "lon": -77.10684466666666}, {"type": "electric_scooter", "name": "364a036d14eccd2984ca522731deeecb", "rental_uris": {"ios": "https://dc.lft.to/lastmile_qr_scan", "android": "https://dc.lft.to/lastmile_qr_scan"}, "fusion_lon": 0.0, "lat": 38.923252833333336, "is_disabled": 0, "bike_id": "364a036d14eccd2984ca522731deeecb", "fusion_lat": 0.0, "is_reserved": 0, "lon": -77.04302083333333}, {"type": "electric_scooter", "name": "066bff19c72fd19e61bc5ce5d4f1a2d6", "rental_uris": {"ios": "https://dc.lft.to/lastmile_qr_scan", "android": "https://dc.lft.to/lastmile_qr_scan"}, "fusion_lon": 0.0, "lat": 38.90878766666667, "is_disabled": 0, "bike_id": "066bff19c72fd19e61bc5ce5d4f1a2d6", "fusion_lat": 0.0, "is_reserved": 0, "lon": -77.026941}, {"type": "electric_scooter", "name": "b8808e8245ba5ae774c121e86c14a402", "rental_uris": {"ios": "https://dc.lft.to/lastmile_qr_scan", "android": "https://dc.lft.to/lastmile_qr_scan"}, "fusion_lon": 0.0, "lat": 38.902643833333336, "is_disabled": 0, "bike_id": "b8808e8245ba5ae774c121e86c14a402", "fusion_lat": 0.0, "is_reserved": 0, "lon": -77.043553}, {"type": "electric_scooter", "name": "ff667e14ca2872e827eef25360d6a121", "rental_uris": {"ios": "https://dc.lft.to/lastmile_qr_scan", "android": "https://dc.lft.to/lastmile_qr_scan"}, "fusion_lon": 0.0, "lat": 38.876616, "is_disabled": 0, "bike_id": "ff667e14ca2872e827eef25360d6a121", "fusion_lat": 0.0, "is_reserved": 0, "lon": -77.01614633333334}, {"type": "electric_scooter", "name": "f9fc18e5141a1d4e11d279a0d7984e77", "rental_uris": {"ios": "https://dc.lft.to/lastmile_qr_scan", "android": "https://dc.lft.to/lastmile_qr_scan"}, "fusion_lon": 0.0, "lat": 38.877163833333334, "is_disabled": 0, "bike_id": "f9fc18e5141a1d4e11d279a0d7984e77", "fusion_lat": 0.0, "is_reserved": 0, "lon": -77.00433116666666}, {"type": "electric_scooter", "name": "2857a865dbef2e3391d8177e3cee8de7", "rental_uris": {"ios": "https://dc.lft.to/lastmile_qr_scan", "android": "https://dc.lft.to/lastmile_qr_scan"}, "fusion_lon": 0.0, "lat": 38.919286666666665, "is_disabled": 0, "bike_id": "2857a865dbef2e3391d8177e3cee8de7", "fusion_lat": 0.0, "is_reserved": 0, "lon": -77.00981166666666}, {"type": "electric_scooter", "name": "b0ade972fe51abb0ee64fbfbe54167bc", "rental_uris": {"ios": "https://dc.lft.to/lastmile_qr_scan", "android": "https://dc.lft.to/lastmile_qr_scan"}, "fusion_lon": 0.0, "lat": 38.88750266666667, "is_disabled": 0, "bike_id": "b0ade972fe51abb0ee64fbfbe54167bc", "fusion_lat": 0.0, "is_reserved": 0, "lon": -77.02842116666666}, {"type": "electric_scooter", "name": "2fc44b1cb8a23ee895fc5e2eb105ce95", "rental_uris": {"ios": "https://dc.lft.to/lastmile_qr_scan", "android": "https://dc.lft.to/lastmile_qr_scan"}, "fusion_lon": 0.0, "lat": 38.941659, "is_disabled": 0, "bike_id": "2fc44b1cb8a23ee895fc5e2eb105ce95", "fusion_lat": 0.0, "is_reserved": 0, "lon": -77.0926965}, {"type": "electric_scooter", "name": "e9a2f5ff36dbea28cd97d9c295ddf1af", "rental_uris": {"ios": "https://dc.lft.to/lastmile_qr_scan", "android": "https://dc.lft.to/lastmile_qr_scan"}, "fusion_lon": 0.0, "lat": 38.920537833333334, "is_disabled": 0, "bike_id": "e9a2f5ff36dbea28cd97d9c295ddf1af", "fusion_lat": 0.0, "is_reserved": 0, "lon": -77.04183666666667}, {"type": "electric_scooter", "name": "6d9c25216fe36dd6a98e8f9304b5235e", "rental_uris": {"ios": "https://dc.lft.to/lastmile_qr_scan", "android": "https://dc.lft.to/lastmile_qr_scan"}, "fusion_lon": 0.0, "lat": 38.9063305, "is_disabled": 0, "bike_id": "6d9c25216fe36dd6a98e8f9304b5235e", "fusion_lat": 0.0, "is_reserved": 0, "lon": -77.010116}, {"type": "electric_scooter", "name": "61f5e3ea5f839240aa77af6081749dfe", "rental_uris": {"ios": "https://dc.lft.to/lastmile_qr_scan", "android": "https://dc.lft.to/lastmile_qr_scan"}, "fusion_lon": 0.0, "lat": 38.916295833333336, "is_disabled": 0, "bike_id": "61f5e3ea5f839240aa77af6081749dfe", "fusion_lat": 0.0, "is_reserved": 0, "lon": -77.03146016666666}, {"type": "electric_scooter", "name": "a190af5f4906ebdf8cd7823dfd960026", "rental_uris": {"ios": "https://dc.lft.to/lastmile_qr_scan", "android": "https://dc.lft.to/lastmile_qr_scan"}, "fusion_lon": 0.0, "lat": 38.934349166666664, "is_disabled": 0, "bike_id": "a190af5f4906ebdf8cd7823dfd960026", "fusion_lat": 0.0, "is_reserved": 0, "lon": -77.05584383333333}, {"type": "electric_bike", "name": "b3b1954dc8a8cfc1840f5980ccfcfc94", "rental_uris": {"ios": "https://dc.lft.to/lastmile_qr_scan", "android": "https://dc.lft.to/lastmile_qr_scan"}, "fusion_lon": 0.0, "lat": 38.98773633333333, "is_disabled": 0, "bike_id": "b3b1954dc8a8cfc1840f5980ccfcfc94", "fusion_lat": 0.0, "is_reserved": 0, "lon": -77.14053116666666}, {"type": "electric_scooter", "name": "113e8705c1784035b34640beae34f020", "rental_uris": {"ios": "https://dc.lft.to/lastmile_qr_scan", "android": "https://dc.lft.to/lastmile_qr_scan"}, "fusion_lon": 0.0, "lat": 38.905848666666664, "is_disabled": 0, "bike_id": "113e8705c1784035b34640beae34f020", "fusion_lat": 0.0, "is_reserved": 0, "lon": -77.02211816666667}, {"type": "electric_scooter", "name": "f59ab3e88ba036025218bd49aab6b6c6", "rental_uris": {"ios": "https://dc.lft.to/lastmile_qr_scan", "android": "https://dc.lft.to/lastmile_qr_scan"}, "fusion_lon": 0.0, "lat": 38.91575516666666, "is_disabled": 0, "bike_id": "f59ab3e88ba036025218bd49aab6b6c6", "fusion_lat": 0.0, "is_reserved": 0, "lon": -77.03853416666666}, {"type": "electric_scooter", "name": "bfe0cf32cd8fd358b210de450e9f37c2", "rental_uris": {"ios": "https://dc.lft.to/lastmile_qr_scan", "android": "https://dc.lft.to/lastmile_qr_scan"}, "fusion_lon": 0.0, "lat": 38.942756833333334, "is_disabled": 0, "bike_id": "bfe0cf32cd8fd358b210de450e9f37c2", "fusion_lat": 0.0, "is_reserved": 0, "lon": -77.03259483333333}, {"type": "electric_scooter", "name": "2a9a5b3ada90be80fe61dec16c78c1c1", "rental_uris": {"ios": "https://dc.lft.to/lastmile_qr_scan", "android": "https://dc.lft.to/lastmile_qr_scan"}, "fusion_lon": 0.0, "lat": 38.920728, "is_disabled": 0, "bike_id": "2a9a5b3ada90be80fe61dec16c78c1c1", "fusion_lat": 0.0, "is_reserved": 0, "lon": -77.03794616666667}, {"type": "electric_scooter", "name": "27bdd939e9e43d00c682a94b397822cd", "rental_uris": {"ios": "https://dc.lft.to/lastmile_qr_scan", "android": "https://dc.lft.to/lastmile_qr_scan"}, "fusion_lon": 0.0, "lat": 38.8724625, "is_disabled": 0, "bike_id": "27bdd939e9e43d00c682a94b397822cd", "fusion_lat": 0.0, "is_reserved": 0, "lon": -76.97726866666666}, {"type": "electric_bike", "name": "d5f3391ba88bf18872294a28f99ef802", "rental_uris": {"ios": "https://dc.lft.to/lastmile_qr_scan", "android": "https://dc.lft.to/lastmile_qr_scan"}, "fusion_lon": 0.0, "lat": 38.9097715, "is_disabled": 0, "bike_id": "d5f3391ba88bf18872294a28f99ef802", "fusion_lat": 0.0, "is_reserved": 0, "lon": -77.04519966666666}, {"type": "electric_scooter", "name": "5f68be2e724a8922e49dfc0f938f25dd", "rental_uris": {"ios": "https://dc.lft.to/lastmile_qr_scan", "android": "https://dc.lft.to/lastmile_qr_scan"}, "fusion_lon": 0.0, "lat": 38.90412933333333, "is_disabled": 0, "bike_id": "5f68be2e724a8922e49dfc0f938f25dd", "fusion_lat": 0.0, "is_reserved": 0, "lon": -76.9732645}, {"type": "electric_scooter", "name": "4d467e8c065e93f2610f7e317ec1187b", "rental_uris": {"ios": "https://dc.lft.to/lastmile_qr_scan", "android": "https://dc.lft.to/lastmile_qr_scan"}, "fusion_lon": 0.0, "lat": 38.884923666666666, "is_disabled": 0, "bike_id": "4d467e8c065e93f2610f7e317ec1187b", "fusion_lat": 0.0, "is_reserved": 0, "lon": -77.00709783333333}, {"type": "electric_scooter", "name": "c007ec1538a13aefeea00e544f73aed5", "rental_uris": {"ios": "https://dc.lft.to/lastmile_qr_scan", "android": "https://dc.lft.to/lastmile_qr_scan"}, "fusion_lon": 0.0, "lat": 38.90531516666667, "is_disabled": 0, "bike_id": "c007ec1538a13aefeea00e544f73aed5", "fusion_lat": 0.0, "is_reserved": 0, "lon": -77.06308066666666}, {"type": "electric_scooter", "name": "1a2ebdc2a42a2b901d7e2f3947b8662d", "rental_uris": {"ios": "https://dc.lft.to/lastmile_qr_scan", "android": "https://dc.lft.to/lastmile_qr_scan"}, "fusion_lon": 0.0, "lat": 38.90264916666667, "is_disabled": 0, "bike_id": "1a2ebdc2a42a2b901d7e2f3947b8662d", "fusion_lat": 0.0, "is_reserved": 0, "lon": -77.035125}, {"type": "electric_scooter", "name": "de10e72f331cb634b1d8af4927fad525", "rental_uris": {"ios": "https://dc.lft.to/lastmile_qr_scan", "android": "https://dc.lft.to/lastmile_qr_scan"}, "fusion_lon": 0.0, "lat": 38.897357666666664, "is_disabled": 0, "bike_id": "de10e72f331cb634b1d8af4927fad525", "fusion_lat": 0.0, "is_reserved": 0, "lon": -77.04853783333333}, {"type": "electric_scooter", "name": "7bc6e2b05ad97141f4aa7d87d2012d15", "rental_uris": {"ios": "https://dc.lft.to/lastmile_qr_scan", "android": "https://dc.lft.to/lastmile_qr_scan"}, "fusion_lon": 0.0, "lat": 38.910379166666665, "is_disabled": 0, "bike_id": "7bc6e2b05ad97141f4aa7d87d2012d15", "fusion_lat": 0.0, "is_reserved": 0, "lon": -77.0337355}, {"type": "electric_bike", "name": "5b87b170eec11d2a49d5f430904ed732", "rental_uris": {"ios": "https://dc.lft.to/lastmile_qr_scan", "android": "https://dc.lft.to/lastmile_qr_scan"}, "fusion_lon": 0.0, "lat": 38.855062833333335, "is_disabled": 0, "bike_id": "5b87b170eec11d2a49d5f430904ed732", "fusion_lat": 0.0, "is_reserved": 0, "lon": -77.12007716666666}, {"type": "electric_scooter", "name": "d1dc0e30edf2662ad46bf0ac0f96c8b3", "rental_uris": {"ios": "https://dc.lft.to/lastmile_qr_scan", "android": "https://dc.lft.to/lastmile_qr_scan"}, "fusion_lon": 0.0, "lat": 38.92048716666667, "is_disabled": 0, "bike_id": "d1dc0e30edf2662ad46bf0ac0f96c8b3", "fusion_lat": 0.0, "is_reserved": 0, "lon": -77.02575416666667}, {"type": "electric_scooter", "name": "cf764602a8ea11d9d39500caa2afbd25", "rental_uris": {"ios": "https://dc.lft.to/lastmile_qr_scan", "android": "https://dc.lft.to/lastmile_qr_scan"}, "fusion_lon": 0.0, "lat": 38.916730666666666, "is_disabled": 0, "bike_id": "cf764602a8ea11d9d39500caa2afbd25", "fusion_lat": 0.0, "is_reserved": 0, "lon": -77.02722233333333}, {"type": "electric_bike", "name": "e5d8a040e1fe2c26c3b540c2cfdae6fb", "rental_uris": {"ios": "https://dc.lft.to/lastmile_qr_scan", "android": "https://dc.lft.to/lastmile_qr_scan"}, "fusion_lon": 0.0, "lat": 38.857876166666664, "is_disabled": 0, "bike_id": "e5d8a040e1fe2c26c3b540c2cfdae6fb", "fusion_lat": 0.0, "is_reserved": 0, "lon": -77.12021516666667}, {"type": "electric_bike", "name": "f71747ec0b7348d4b3f041ae7cb55673", "rental_uris": {"ios": "https://dc.lft.to/lastmile_qr_scan", "android": "https://dc.lft.to/lastmile_qr_scan"}, "fusion_lon": 0.0, "lat": 38.99228433333333, "is_disabled": 0, "bike_id": "f71747ec0b7348d4b3f041ae7cb55673", "fusion_lat": 0.0, "is_reserved": 0, "lon": -76.9441615}, {"type": "electric_scooter", "name": "31e997ea21e7aa5009837bbd998b0327", "rental_uris": {"ios": "https://dc.lft.to/lastmile_qr_scan", "android": "https://dc.lft.to/lastmile_qr_scan"}, "fusion_lon": 0.0, "lat": 38.8983115, "is_disabled": 0, "bike_id": "31e997ea21e7aa5009837bbd998b0327", "fusion_lat": 0.0, "is_reserved": 0, "lon": -77.03321816666667}, {"type": "electric_scooter", "name": "599bf8bad2ebb60d7da201b8ff527670", "rental_uris": {"ios": "https://dc.lft.to/lastmile_qr_scan", "android": "https://dc.lft.to/lastmile_qr_scan"}, "fusion_lon": 0.0, "lat": 38.96480483333333, "is_disabled": 0, "bike_id": "599bf8bad2ebb60d7da201b8ff527670", "fusion_lat": 0.0, "is_reserved": 0, "lon": -77.0118605}, {"type": "electric_scooter", "name": "14506b25adfa68b885aba2d3f0200ce3", "rental_uris": {"ios": "https://dc.lft.to/lastmile_qr_scan", "android": "https://dc.lft.to/lastmile_qr_scan"}, "fusion_lon": 0.0, "lat": 38.89211, "is_disabled": 0, "bike_id": "14506b25adfa68b885aba2d3f0200ce3", "fusion_lat": 0.0, "is_reserved": 0, "lon": -76.95694866666666}, {"type": "electric_scooter", "name": "31f2c4f0ef4aa37affb5d4e64fa2d299", "rental_uris": {"ios": "https://dc.lft.to/lastmile_qr_scan", "android": "https://dc.lft.to/lastmile_qr_scan"}, "fusion_lon": 0.0, "lat": 38.918462166666664, "is_disabled": 0, "bike_id": "31f2c4f0ef4aa37affb5d4e64fa2d299", "fusion_lat": 0.0, "is_reserved": 0, "lon": -77.0403175}, {"type": "electric_scooter", "name": "b1ab33cb2d9f38b223994496d69f1a50", "rental_uris": {"ios": "https://dc.lft.to/lastmile_qr_scan", "android": "https://dc.lft.to/lastmile_qr_scan"}, "fusion_lon": 0.0, "lat": 38.895115, "is_disabled": 0, "bike_id": "b1ab33cb2d9f38b223994496d69f1a50", "fusion_lat": 0.0, "is_reserved": 0, "lon": -77.02597716666666}, {"type": "electric_scooter", "name": "f62a6869cffb9a86aeee249cb9c42f53", "rental_uris": {"ios": "https://dc.lft.to/lastmile_qr_scan", "android": "https://dc.lft.to/lastmile_qr_scan"}, "fusion_lon": 0.0, "lat": 38.8859415, "is_disabled": 0, "bike_id": "f62a6869cffb9a86aeee249cb9c42f53", "fusion_lat": 0.0, "is_reserved": 0, "lon": -77.0171895}, {"type": "electric_scooter", "name": "91f200a7018e565cfce29f02747f1107", "rental_uris": {"ios": "https://dc.lft.to/lastmile_qr_scan", "android": "https://dc.lft.to/lastmile_qr_scan"}, "fusion_lon": 0.0, "lat": 38.923536, "is_disabled": 0, "bike_id": "91f200a7018e565cfce29f02747f1107", "fusion_lat": 0.0, "is_reserved": 0, "lon": -77.04341133333334}, {"type": "electric_scooter", "name": "df78ef220c297e3f7583640a4bf3fda3", "rental_uris": {"ios": "https://dc.lft.to/lastmile_qr_scan", "android": "https://dc.lft.to/lastmile_qr_scan"}, "fusion_lon": 0.0, "lat": 38.9172795, "is_disabled": 0, "bike_id": "df78ef220c297e3f7583640a4bf3fda3", "fusion_lat": 0.0, "is_reserved": 0, "lon": -77.0259965}, {"type": "electric_scooter", "name": "a653241c1e40070e4d8acc9146cf53ad", "rental_uris": {"ios": "https://dc.lft.to/lastmile_qr_scan", "android": "https://dc.lft.to/lastmile_qr_scan"}, "fusion_lon": 0.0, "lat": 38.89808633333333, "is_disabled": 0, "bike_id": "a653241c1e40070e4d8acc9146cf53ad", "fusion_lat": 0.0, "is_reserved": 0, "lon": -77.02828483333333}, {"type": "electric_scooter", "name": "08ffa0db17286fb93f2fbcfd99491782", "rental_uris": {"ios": "https://dc.lft.to/lastmile_qr_scan", "android": "https://dc.lft.to/lastmile_qr_scan"}, "fusion_lon": 0.0, "lat": 38.934036166666665, "is_disabled": 0, "bike_id": "08ffa0db17286fb93f2fbcfd99491782", "fusion_lat": 0.0, "is_reserved": 0, "lon": -77.05743616666666}, {"type": "electric_scooter", "name": "6917eff2e641150bea5941388c157b7a", "rental_uris": {"ios": "https://dc.lft.to/lastmile_qr_scan", "android": "https://dc.lft.to/lastmile_qr_scan"}, "fusion_lon": 0.0, "lat": 38.909753, "is_disabled": 0, "bike_id": "6917eff2e641150bea5941388c157b7a", "fusion_lat": 0.0, "is_reserved": 0, "lon": -77.03439}, {"type": "electric_scooter", "name": "271a36c9638625b59c1bb40402af6739", "rental_uris": {"ios": "https://dc.lft.to/lastmile_qr_scan", "android": "https://dc.lft.to/lastmile_qr_scan"}, "fusion_lon": 0.0, "lat": 38.916158333333335, "is_disabled": 0, "bike_id": "271a36c9638625b59c1bb40402af6739", "fusion_lat": 0.0, "is_reserved": 0, "lon": -77.04621383333334}, {"type": "electric_scooter", "name": "171f4c69fc8e9c67096c3ef3d3363d66", "rental_uris": {"ios": "https://dc.lft.to/lastmile_qr_scan", "android": "https://dc.lft.to/lastmile_qr_scan"}, "fusion_lon": 0.0, "lat": 38.91416316666667, "is_disabled": 0, "bike_id": "171f4c69fc8e9c67096c3ef3d3363d66", "fusion_lat": 0.0, "is_reserved": 0, "lon": -77.02359783333333}, {"type": "electric_scooter", "name": "236bba7c942fcb9faefba961e269ccef", "rental_uris": {"ios": "https://dc.lft.to/lastmile_qr_scan", "android": "https://dc.lft.to/lastmile_qr_scan"}, "fusion_lon": 0.0, "lat": 38.89680283333333, "is_disabled": 0, "bike_id": "236bba7c942fcb9faefba961e269ccef", "fusion_lat": 0.0, "is_reserved": 0, "lon": -77.005176}, {"type": "electric_scooter", "name": "ecbec7e76becde5beaeed4d5718fcd30", "rental_uris": {"ios": "https://dc.lft.to/lastmile_qr_scan", "android": "https://dc.lft.to/lastmile_qr_scan"}, "fusion_lon": 0.0, "lat": 38.924179333333335, "is_disabled": 0, "bike_id": "ecbec7e76becde5beaeed4d5718fcd30", "fusion_lat": 0.0, "is_reserved": 0, "lon": -77.02032633333333}, {"type": "electric_scooter", "name": "34050c8a4210d39b95468c0cb20fc81c", "rental_uris": {"ios": "https://dc.lft.to/lastmile_qr_scan", "android": "https://dc.lft.to/lastmile_qr_scan"}, "fusion_lon": 0.0, "lat": 38.9106105, "is_disabled": 0, "bike_id": "34050c8a4210d39b95468c0cb20fc81c", "fusion_lat": 0.0, "is_reserved": 0, "lon": -77.0409115}, {"type": "electric_scooter", "name": "5a230002e6589b784345bd8ef087d1ad", "rental_uris": {"ios": "https://dc.lft.to/lastmile_qr_scan", "android": "https://dc.lft.to/lastmile_qr_scan"}, "fusion_lon": 0.0, "lat": 38.864625, "is_disabled": 0, "bike_id": "5a230002e6589b784345bd8ef087d1ad", "fusion_lat": 0.0, "is_reserved": 0, "lon": -77.01257716666667}, {"type": "electric_scooter", "name": "3a903d29c3c163cf5997a262cb5c8661", "rental_uris": {"ios": "https://dc.lft.to/lastmile_qr_scan", "android": "https://dc.lft.to/lastmile_qr_scan"}, "fusion_lon": 0.0, "lat": 38.9171575, "is_disabled": 0, "bike_id": "3a903d29c3c163cf5997a262cb5c8661", "fusion_lat": 0.0, "is_reserved": 0, "lon": -77.0344745}, {"type": "electric_scooter", "name": "7bfe7991c00a149b3b920b5aa8ee05a0", "rental_uris": {"ios": "https://dc.lft.to/lastmile_qr_scan", "android": "https://dc.lft.to/lastmile_qr_scan"}, "fusion_lon": 0.0, "lat": 38.905791, "is_disabled": 0, "bike_id": "7bfe7991c00a149b3b920b5aa8ee05a0", "fusion_lat": 0.0, "is_reserved": 0, "lon": -77.0344945}, {"type": "electric_scooter", "name": "1ba0f82abcf382bafc87b05f05e0dc89", "rental_uris": {"ios": "https://dc.lft.to/lastmile_qr_scan", "android": "https://dc.lft.to/lastmile_qr_scan"}, "fusion_lon": 0.0, "lat": 38.9001575, "is_disabled": 0, "bike_id": "1ba0f82abcf382bafc87b05f05e0dc89", "fusion_lat": 0.0, "is_reserved": 0, "lon": -77.00673116666667}, {"type": "electric_scooter", "name": "e5daa6144e6dbd46f0250252e1a695d3", "rental_uris": {"ios": "https://dc.lft.to/lastmile_qr_scan", "android": "https://dc.lft.to/lastmile_qr_scan"}, "fusion_lon": 0.0, "lat": 38.88772066666667, "is_disabled": 0, "bike_id": "e5daa6144e6dbd46f0250252e1a695d3", "fusion_lat": 0.0, "is_reserved": 0, "lon": -76.9775015}, {"type": "electric_scooter", "name": "40e99bcff2183df403d10e732d1b4bbf", "rental_uris": {"ios": "https://dc.lft.to/lastmile_qr_scan", "android": "https://dc.lft.to/lastmile_qr_scan"}, "fusion_lon": 0.0, "lat": 38.91889233333333, "is_disabled": 0, "bike_id": "40e99bcff2183df403d10e732d1b4bbf", "fusion_lat": 0.0, "is_reserved": 0, "lon": -77.04312833333333}, {"type": "electric_scooter", "name": "f3d3d7343e3c1f111cda1df016fb1c9c", "rental_uris": {"ios": "https://dc.lft.to/lastmile_qr_scan", "android": "https://dc.lft.to/lastmile_qr_scan"}, "fusion_lon": 0.0, "lat": 38.91008933333333, "is_disabled": 0, "bike_id": "f3d3d7343e3c1f111cda1df016fb1c9c", "fusion_lat": 0.0, "is_reserved": 0, "lon": -76.99410966666667}, {"type": "electric_scooter", "name": "b26378e18e150991c3cbfa33992cffc5", "rental_uris": {"ios": "https://dc.lft.to/lastmile_qr_scan", "android": "https://dc.lft.to/lastmile_qr_scan"}, "fusion_lon": 0.0, "lat": 38.9003735, "is_disabled": 0, "bike_id": "b26378e18e150991c3cbfa33992cffc5", "fusion_lat": 0.0, "is_reserved": 0, "lon": -77.01305166666667}, {"type": "electric_scooter", "name": "200f40b4c6cc586a9c9cb53273608b32", "rental_uris": {"ios": "https://dc.lft.to/lastmile_qr_scan", "android": "https://dc.lft.to/lastmile_qr_scan"}, "fusion_lon": 0.0, "lat": 38.92324333333333, "is_disabled": 0, "bike_id": "200f40b4c6cc586a9c9cb53273608b32", "fusion_lat": 0.0, "is_reserved": 0, "lon": -77.0410595}, {"type": "electric_scooter", "name": "8ac7c5c0913cc1ad80bd3484aa404b8a", "rental_uris": {"ios": "https://dc.lft.to/lastmile_qr_scan", "android": "https://dc.lft.to/lastmile_qr_scan"}, "fusion_lon": 0.0, "lat": 38.91494333333333, "is_disabled": 0, "bike_id": "8ac7c5c0913cc1ad80bd3484aa404b8a", "fusion_lat": 0.0, "is_reserved": 0, "lon": -77.04834866666667}, {"type": "electric_bike", "name": "0e51c4a2fc1161fc72c457482adc439c", "rental_uris": {"ios": "https://dc.lft.to/lastmile_qr_scan", "android": "https://dc.lft.to/lastmile_qr_scan"}, "fusion_lon": 0.0, "lat": 38.865184666666664, "is_disabled": 0, "bike_id": "0e51c4a2fc1161fc72c457482adc439c", "fusion_lat": 0.0, "is_reserved": 0, "lon": -77.12939666666666}, {"type": "electric_scooter", "name": "c0dfaedafca52905327708dc62d81a2e", "rental_uris": {"ios": "https://dc.lft.to/lastmile_qr_scan", "android": "https://dc.lft.to/lastmile_qr_scan"}, "fusion_lon": 0.0, "lat": 38.8936845, "is_disabled": 0, "bike_id": "c0dfaedafca52905327708dc62d81a2e", "fusion_lat": 0.0, "is_reserved": 0, "lon": -76.925912}, {"type": "electric_bike", "name": "dde12dba8ee5db665ec374c836d9da82", "rental_uris": {"ios": "https://dc.lft.to/lastmile_qr_scan", "android": "https://dc.lft.to/lastmile_qr_scan"}, "fusion_lon": 0.0, "lat": 38.824633, "is_disabled": 0, "bike_id": "dde12dba8ee5db665ec374c836d9da82", "fusion_lat": 0.0, "is_reserved": 0, "lon": -77.00791766666667}, {"type": "electric_scooter", "name": "c8c3d47e3f8d20e9366382dae6cfe650", "rental_uris": {"ios": "https://dc.lft.to/lastmile_qr_scan", "android": "https://dc.lft.to/lastmile_qr_scan"}, "fusion_lon": 0.0, "lat": 38.912748666666666, "is_disabled": 0, "bike_id": "c8c3d47e3f8d20e9366382dae6cfe650", "fusion_lat": 0.0, "is_reserved": 0, "lon": -77.04845833333333}, {"type": "electric_scooter", "name": "c17091b224717efa1c9f70c51748b6af", "rental_uris": {"ios": "https://dc.lft.to/lastmile_qr_scan", "android": "https://dc.lft.to/lastmile_qr_scan"}, "fusion_lon": 0.0, "lat": 38.89599416666667, "is_disabled": 0, "bike_id": "c17091b224717efa1c9f70c51748b6af", "fusion_lat": 0.0, "is_reserved": 0, "lon": -77.025845}, {"type": "electric_scooter", "name": "547f3d80ec8b9fddd43b5f8cd883da28", "rental_uris": {"ios": "https://dc.lft.to/lastmile_qr_scan", "android": "https://dc.lft.to/lastmile_qr_scan"}, "fusion_lon": 0.0, "lat": 38.9491825, "is_disabled": 0, "bike_id": "547f3d80ec8b9fddd43b5f8cd883da28", "fusion_lat": 0.0, "is_reserved": 0, "lon": -77.0662225}, {"type": "electric_scooter", "name": "50ac70b1d8c16004f6b30b26f38cbd02", "rental_uris": {"ios": "https://dc.lft.to/lastmile_qr_scan", "android": "https://dc.lft.to/lastmile_qr_scan"}, "fusion_lon": 0.0, "lat": 38.9057735, "is_disabled": 0, "bike_id": "50ac70b1d8c16004f6b30b26f38cbd02", "fusion_lat": 0.0, "is_reserved": 0, "lon": -77.04069583333333}, {"type": "electric_scooter", "name": "06dc4842e58f7cce4e9d8ad6056309ee", "rental_uris": {"ios": "https://dc.lft.to/lastmile_qr_scan", "android": "https://dc.lft.to/lastmile_qr_scan"}, "fusion_lon": 0.0, "lat": 38.909549166666665, "is_disabled": 0, "bike_id": "06dc4842e58f7cce4e9d8ad6056309ee", "fusion_lat": 0.0, "is_reserved": 0, "lon": -76.98535016666666}, {"type": "electric_scooter", "name": "d3d7b542d6581a6ea47c04fbdc91f3df", "rental_uris": {"ios": "https://dc.lft.to/lastmile_qr_scan", "android": "https://dc.lft.to/lastmile_qr_scan"}, "fusion_lon": 0.0, "lat": 38.91707783333333, "is_disabled": 0, "bike_id": "d3d7b542d6581a6ea47c04fbdc91f3df", "fusion_lat": 0.0, "is_reserved": 0, "lon": -77.04211133333334}, {"type": "electric_scooter", "name": "4bce1dad40a4a44ba93184b0618d1cfc", "rental_uris": {"ios": "https://dc.lft.to/lastmile_qr_scan", "android": "https://dc.lft.to/lastmile_qr_scan"}, "fusion_lon": 0.0, "lat": 38.92367183333333, "is_disabled": 0, "bike_id": "4bce1dad40a4a44ba93184b0618d1cfc", "fusion_lat": 0.0, "is_reserved": 0, "lon": -77.050541}, {"type": "electric_scooter", "name": "9127b9c405bbebec38f89569c2501d23", "rental_uris": {"ios": "https://dc.lft.to/lastmile_qr_scan", "android": "https://dc.lft.to/lastmile_qr_scan"}, "fusion_lon": 0.0, "lat": 38.90973266666666, "is_disabled": 0, "bike_id": "9127b9c405bbebec38f89569c2501d23", "fusion_lat": 0.0, "is_reserved": 0, "lon": -77.033729}, {"type": "electric_scooter", "name": "dde9203bb346a9defbdc6766d7c1887a", "rental_uris": {"ios": "https://dc.lft.to/lastmile_qr_scan", "android": "https://dc.lft.to/lastmile_qr_scan"}, "fusion_lon": 0.0, "lat": 38.89337666666667, "is_disabled": 0, "bike_id": "dde9203bb346a9defbdc6766d7c1887a", "fusion_lat": 0.0, "is_reserved": 0, "lon": -77.02253283333333}, {"type": "electric_scooter", "name": "a3c8f811250cde97989aa24634bbf18a", "rental_uris": {"ios": "https://dc.lft.to/lastmile_qr_scan", "android": "https://dc.lft.to/lastmile_qr_scan"}, "fusion_lon": 0.0, "lat": 38.922501833333335, "is_disabled": 0, "bike_id": "a3c8f811250cde97989aa24634bbf18a", "fusion_lat": 0.0, "is_reserved": 0, "lon": -77.080797}, {"type": "electric_scooter", "name": "97a10a46cbb7f651ee0083b848e61d31", "rental_uris": {"ios": "https://dc.lft.to/lastmile_qr_scan", "android": "https://dc.lft.to/lastmile_qr_scan"}, "fusion_lon": 0.0, "lat": 38.9418965, "is_disabled": 0, "bike_id": "97a10a46cbb7f651ee0083b848e61d31", "fusion_lat": 0.0, "is_reserved": 0, "lon": -77.02406833333333}, {"type": "electric_scooter", "name": "e4542209ce1d5539f94d85c70e6b5b6d", "rental_uris": {"ios": "https://dc.lft.to/lastmile_qr_scan", "android": "https://dc.lft.to/lastmile_qr_scan"}, "fusion_lon": 0.0, "lat": 38.905059, "is_disabled": 0, "bike_id": "e4542209ce1d5539f94d85c70e6b5b6d", "fusion_lat": 0.0, "is_reserved": 0, "lon": -77.01978}, {"type": "electric_scooter", "name": "2b5a9d81f00e3280365b6a97939e5985", "rental_uris": {"ios": "https://dc.lft.to/lastmile_qr_scan", "android": "https://dc.lft.to/lastmile_qr_scan"}, "fusion_lon": 0.0, "lat": 38.901894166666665, "is_disabled": 0, "bike_id": "2b5a9d81f00e3280365b6a97939e5985", "fusion_lat": 0.0, "is_reserved": 0, "lon": -77.01620816666667}, {"type": "electric_scooter", "name": "1dab426393a0be24ef4e853e12614087", "rental_uris": {"ios": "https://dc.lft.to/lastmile_qr_scan", "android": "https://dc.lft.to/lastmile_qr_scan"}, "fusion_lon": 0.0, "lat": 38.90427566666666, "is_disabled": 0, "bike_id": "1dab426393a0be24ef4e853e12614087", "fusion_lat": 0.0, "is_reserved": 0, "lon": -77.02418}, {"type": "electric_scooter", "name": "139288bb79225b22896a63a9fd8a9f27", "rental_uris": {"ios": "https://dc.lft.to/lastmile_qr_scan", "android": "https://dc.lft.to/lastmile_qr_scan"}, "fusion_lon": 0.0, "lat": 38.913075166666665, "is_disabled": 0, "bike_id": "139288bb79225b22896a63a9fd8a9f27", "fusion_lat": 0.0, "is_reserved": 0, "lon": -77.03190783333334}, {"type": "electric_scooter", "name": "3b3a83d85c133dc51fdf552c85155c48", "rental_uris": {"ios": "https://dc.lft.to/lastmile_qr_scan", "android": "https://dc.lft.to/lastmile_qr_scan"}, "fusion_lon": 0.0, "lat": 38.89831866666667, "is_disabled": 0, "bike_id": "3b3a83d85c133dc51fdf552c85155c48", "fusion_lat": 0.0, "is_reserved": 0, "lon": -77.04828066666667}, {"type": "electric_scooter", "name": "d332c82ab29f163cdf69e85f8dfc42f5", "rental_uris": {"ios": "https://dc.lft.to/lastmile_qr_scan", "android": "https://dc.lft.to/lastmile_qr_scan"}, "fusion_lon": 0.0, "lat": 38.93476833333333, "is_disabled": 0, "bike_id": "d332c82ab29f163cdf69e85f8dfc42f5", "fusion_lat": 0.0, "is_reserved": 0, "lon": -77.02969083333333}, {"type": "electric_scooter", "name": "038414d83a4f836a41cff36d28fee256", "rental_uris": {"ios": "https://dc.lft.to/lastmile_qr_scan", "android": "https://dc.lft.to/lastmile_qr_scan"}, "fusion_lon": 0.0, "lat": 38.905315333333334, "is_disabled": 0, "bike_id": "038414d83a4f836a41cff36d28fee256", "fusion_lat": 0.0, "is_reserved": 0, "lon": -77.04174483333334}, {"type": "electric_scooter", "name": "93bc31fcf8f90d5da6a3f63f07f69d50", "rental_uris": {"ios": "https://dc.lft.to/lastmile_qr_scan", "android": "https://dc.lft.to/lastmile_qr_scan"}, "fusion_lon": 0.0, "lat": 38.949720166666665, "is_disabled": 0, "bike_id": "93bc31fcf8f90d5da6a3f63f07f69d50", "fusion_lat": 0.0, "is_reserved": 0, "lon": -77.07523233333333}, {"type": "electric_scooter", "name": "db223f9a931b21a8923ca871ace332b9", "rental_uris": {"ios": "https://dc.lft.to/lastmile_qr_scan", "android": "https://dc.lft.to/lastmile_qr_scan"}, "fusion_lon": 0.0, "lat": 38.88395216666667, "is_disabled": 0, "bike_id": "db223f9a931b21a8923ca871ace332b9", "fusion_lat": 0.0, "is_reserved": 0, "lon": -76.930465}, {"type": "electric_scooter", "name": "f49601633c2607a4289ac2fe6b65fbf2", "rental_uris": {"ios": "https://dc.lft.to/lastmile_qr_scan", "android": "https://dc.lft.to/lastmile_qr_scan"}, "fusion_lon": 0.0, "lat": 38.9099755, "is_disabled": 0, "bike_id": "f49601633c2607a4289ac2fe6b65fbf2", "fusion_lat": 0.0, "is_reserved": 0, "lon": -77.02686166666666}, {"type": "electric_scooter", "name": "4a3f098f37ef8713e02dce5610788746", "rental_uris": {"ios": "https://dc.lft.to/lastmile_qr_scan", "android": "https://dc.lft.to/lastmile_qr_scan"}, "fusion_lon": 0.0, "lat": 38.90682133333333, "is_disabled": 0, "bike_id": "4a3f098f37ef8713e02dce5610788746", "fusion_lat": 0.0, "is_reserved": 0, "lon": -77.0376565}, {"type": "electric_scooter", "name": "9ec6716027550a08007d8c0cea5f733f", "rental_uris": {"ios": "https://dc.lft.to/lastmile_qr_scan", "android": "https://dc.lft.to/lastmile_qr_scan"}, "fusion_lon": 0.0, "lat": 38.88776633333333, "is_disabled": 0, "bike_id": "9ec6716027550a08007d8c0cea5f733f", "fusion_lat": 0.0, "is_reserved": 0, "lon": -76.977497}, {"type": "electric_scooter", "name": "304c4bbe3cec723cc5d4c768ed62bd4a", "rental_uris": {"ios": "https://dc.lft.to/lastmile_qr_scan", "android": "https://dc.lft.to/lastmile_qr_scan"}, "fusion_lon": 0.0, "lat": 38.90012983333333, "is_disabled": 0, "bike_id": "304c4bbe3cec723cc5d4c768ed62bd4a", "fusion_lat": 0.0, "is_reserved": 0, "lon": -77.04101566666667}, {"type": "electric_scooter", "name": "83f0f099928fa8a345ed79b9cb45afdd", "rental_uris": {"ios": "https://dc.lft.to/lastmile_qr_scan", "android": "https://dc.lft.to/lastmile_qr_scan"}, "fusion_lon": 0.0, "lat": 38.922123666666664, "is_disabled": 0, "bike_id": "83f0f099928fa8a345ed79b9cb45afdd", "fusion_lat": 0.0, "is_reserved": 0, "lon": -77.0413635}, {"type": "electric_scooter", "name": "357fe53b825a54ec5dc7406084d98bc1", "rental_uris": {"ios": "https://dc.lft.to/lastmile_qr_scan", "android": "https://dc.lft.to/lastmile_qr_scan"}, "fusion_lon": 0.0, "lat": 38.94458366666667, "is_disabled": 0, "bike_id": "357fe53b825a54ec5dc7406084d98bc1", "fusion_lat": 0.0, "is_reserved": 0, "lon": -77.02338733333333}, {"type": "electric_scooter", "name": "57ea122c02303790b6cf15d55fd07841", "rental_uris": {"ios": "https://dc.lft.to/lastmile_qr_scan", "android": "https://dc.lft.to/lastmile_qr_scan"}, "fusion_lon": 0.0, "lat": 38.976346166666666, "is_disabled": 0, "bike_id": "57ea122c02303790b6cf15d55fd07841", "fusion_lat": 0.0, "is_reserved": 0, "lon": -77.01566116666666}, {"type": "electric_scooter", "name": "4a2add80e003e52eb63544e203560215", "rental_uris": {"ios": "https://dc.lft.to/lastmile_qr_scan", "android": "https://dc.lft.to/lastmile_qr_scan"}, "fusion_lon": 0.0, "lat": 38.897226, "is_disabled": 0, "bike_id": "4a2add80e003e52eb63544e203560215", "fusion_lat": 0.0, "is_reserved": 0, "lon": -77.0079445}, {"type": "electric_scooter", "name": "72605ba180d7f0c149f649eea446e0a3", "rental_uris": {"ios": "https://dc.lft.to/lastmile_qr_scan", "android": "https://dc.lft.to/lastmile_qr_scan"}, "fusion_lon": 0.0, "lat": 38.90148033333333, "is_disabled": 0, "bike_id": "72605ba180d7f0c149f649eea446e0a3", "fusion_lat": 0.0, "is_reserved": 0, "lon": -77.0370505}, {"type": "electric_scooter", "name": "eee186299141ecc6fcf06be2cc089d74", "rental_uris": {"ios": "https://dc.lft.to/lastmile_qr_scan", "android": "https://dc.lft.to/lastmile_qr_scan"}, "fusion_lon": 0.0, "lat": 38.91686033333333, "is_disabled": 0, "bike_id": "eee186299141ecc6fcf06be2cc089d74", "fusion_lat": 0.0, "is_reserved": 0, "lon": -77.04141033333333}, {"type": "electric_scooter", "name": "19819f4d6da9f8294ce037c981ade2cb", "rental_uris": {"ios": "https://dc.lft.to/lastmile_qr_scan", "android": "https://dc.lft.to/lastmile_qr_scan"}, "fusion_lon": 0.0, "lat": 38.8923605, "is_disabled": 0, "bike_id": "19819f4d6da9f8294ce037c981ade2cb", "fusion_lat": 0.0, "is_reserved": 0, "lon": -77.02825066666666}, {"type": "electric_bike", "name": "130f1150ed506064b9df63bbba8ee8b2", "rental_uris": {"ios": "https://dc.lft.to/lastmile_qr_scan", "android": "https://dc.lft.to/lastmile_qr_scan"}, "fusion_lon": 0.0, "lat": 38.94161316666667, "is_disabled": 0, "bike_id": "130f1150ed506064b9df63bbba8ee8b2", "fusion_lat": 0.0, "is_reserved": 0, "lon": -77.001997}, {"type": "electric_scooter", "name": "279cc373414ea21850fd9159422d5710", "rental_uris": {"ios": "https://dc.lft.to/lastmile_qr_scan", "android": "https://dc.lft.to/lastmile_qr_scan"}, "fusion_lon": 0.0, "lat": 38.933163666666665, "is_disabled": 0, "bike_id": "279cc373414ea21850fd9159422d5710", "fusion_lat": 0.0, "is_reserved": 0, "lon": -77.024013}, {"type": "electric_scooter", "name": "7c45aedf41463f4f0edf87b6a4eaba5d", "rental_uris": {"ios": "https://dc.lft.to/lastmile_qr_scan", "android": "https://dc.lft.to/lastmile_qr_scan"}, "fusion_lon": 0.0, "lat": 38.9210435, "is_disabled": 0, "bike_id": "7c45aedf41463f4f0edf87b6a4eaba5d", "fusion_lat": 0.0, "is_reserved": 0, "lon": -77.07467466666667}, {"type": "electric_scooter", "name": "ff4b93823d3810402ef2942f4f5bdfae", "rental_uris": {"ios": "https://dc.lft.to/lastmile_qr_scan", "android": "https://dc.lft.to/lastmile_qr_scan"}, "fusion_lon": 0.0, "lat": 38.92973966666667, "is_disabled": 0, "bike_id": "ff4b93823d3810402ef2942f4f5bdfae", "fusion_lat": 0.0, "is_reserved": 0, "lon": -77.0281515}, {"type": "electric_scooter", "name": "c8da3429f1e10ac503e47b90dc4c8756", "rental_uris": {"ios": "https://dc.lft.to/lastmile_qr_scan", "android": "https://dc.lft.to/lastmile_qr_scan"}, "fusion_lon": 0.0, "lat": 38.9159955, "is_disabled": 0, "bike_id": "c8da3429f1e10ac503e47b90dc4c8756", "fusion_lat": 0.0, "is_reserved": 0, "lon": -77.04520233333334}, {"type": "electric_scooter", "name": "c46f6beb9d161ad6953efd9b84f6f3e6", "rental_uris": {"ios": "https://dc.lft.to/lastmile_qr_scan", "android": "https://dc.lft.to/lastmile_qr_scan"}, "fusion_lon": 0.0, "lat": 38.86509516666667, "is_disabled": 0, "bike_id": "c46f6beb9d161ad6953efd9b84f6f3e6", "fusion_lat": 0.0, "is_reserved": 0, "lon": -76.99007133333333}, {"type": "electric_scooter", "name": "441c170de6538212e006afa3d534a466", "rental_uris": {"ios": "https://dc.lft.to/lastmile_qr_scan", "android": "https://dc.lft.to/lastmile_qr_scan"}, "fusion_lon": 0.0, "lat": 38.932793833333335, "is_disabled": 0, "bike_id": "441c170de6538212e006afa3d534a466", "fusion_lat": 0.0, "is_reserved": 0, "lon": -77.04537416666666}, {"type": "electric_scooter", "name": "fc911b71e95c6652dfce372b547f9394", "rental_uris": {"ios": "https://dc.lft.to/lastmile_qr_scan", "android": "https://dc.lft.to/lastmile_qr_scan"}, "fusion_lon": 0.0, "lat": 38.855841166666664, "is_disabled": 0, "bike_id": "fc911b71e95c6652dfce372b547f9394", "fusion_lat": 0.0, "is_reserved": 0, "lon": -76.96652633333333}, {"type": "electric_scooter", "name": "4eefd27319d446e503a1db257504f564", "rental_uris": {"ios": "https://dc.lft.to/lastmile_qr_scan", "android": "https://dc.lft.to/lastmile_qr_scan"}, "fusion_lon": 0.0, "lat": 38.9051305, "is_disabled": 0, "bike_id": "4eefd27319d446e503a1db257504f564", "fusion_lat": 0.0, "is_reserved": 0, "lon": -77.04913466666666}, {"type": "electric_scooter", "name": "d5a9a0ecac2a8b70d10e65f3139e5905", "rental_uris": {"ios": "https://dc.lft.to/lastmile_qr_scan", "android": "https://dc.lft.to/lastmile_qr_scan"}, "fusion_lon": 0.0, "lat": 38.93255716666667, "is_disabled": 0, "bike_id": "d5a9a0ecac2a8b70d10e65f3139e5905", "fusion_lat": 0.0, "is_reserved": 0, "lon": -77.03855933333334}, {"type": "electric_scooter", "name": "a86127298a88a9fda45b275523b52b6c", "rental_uris": {"ios": "https://dc.lft.to/lastmile_qr_scan", "android": "https://dc.lft.to/lastmile_qr_scan"}, "fusion_lon": 0.0, "lat": 38.92373116666667, "is_disabled": 0, "bike_id": "a86127298a88a9fda45b275523b52b6c", "fusion_lat": 0.0, "is_reserved": 0, "lon": -77.05028633333333}, {"type": "electric_scooter", "name": "c1c2c8c04343e6e23a131e9bcabbf90c", "rental_uris": {"ios": "https://dc.lft.to/lastmile_qr_scan", "android": "https://dc.lft.to/lastmile_qr_scan"}, "fusion_lon": 0.0, "lat": 38.93441, "is_disabled": 0, "bike_id": "c1c2c8c04343e6e23a131e9bcabbf90c", "fusion_lat": 0.0, "is_reserved": 0, "lon": -77.03452133333333}, {"type": "electric_scooter", "name": "68cc96a6c1d4098a9e56cf414532c520", "rental_uris": {"ios": "https://dc.lft.to/lastmile_qr_scan", "android": "https://dc.lft.to/lastmile_qr_scan"}, "fusion_lon": 0.0, "lat": 38.903254, "is_disabled": 0, "bike_id": "68cc96a6c1d4098a9e56cf414532c520", "fusion_lat": 0.0, "is_reserved": 0, "lon": -77.044864}, {"type": "electric_bike", "name": "2cfeb41091b36e8a7025138109500646", "rental_uris": {"ios": "https://dc.lft.to/lastmile_qr_scan", "android": "https://dc.lft.to/lastmile_qr_scan"}, "fusion_lon": 0.0, "lat": 38.9482295, "is_disabled": 0, "bike_id": "2cfeb41091b36e8a7025138109500646", "fusion_lat": 0.0, "is_reserved": 0, "lon": -77.02979116666667}, {"type": "electric_scooter", "name": "e762dfe97ac44ac20bca2359863ebf83", "rental_uris": {"ios": "https://dc.lft.to/lastmile_qr_scan", "android": "https://dc.lft.to/lastmile_qr_scan"}, "fusion_lon": 0.0, "lat": 38.919193166666666, "is_disabled": 0, "bike_id": "e762dfe97ac44ac20bca2359863ebf83", "fusion_lat": 0.0, "is_reserved": 0, "lon": -77.0446675}, {"type": "electric_scooter", "name": "3f9f479df9b46c8876df611541d34e9e", "rental_uris": {"ios": "https://dc.lft.to/lastmile_qr_scan", "android": "https://dc.lft.to/lastmile_qr_scan"}, "fusion_lon": 0.0, "lat": 38.899247, "is_disabled": 0, "bike_id": "3f9f479df9b46c8876df611541d34e9e", "fusion_lat": 0.0, "is_reserved": 0, "lon": -76.98537266666666}, {"type": "electric_scooter", "name": "180e1c1bc1acf72f599d4921df40854e", "rental_uris": {"ios": "https://dc.lft.to/lastmile_qr_scan", "android": "https://dc.lft.to/lastmile_qr_scan"}, "fusion_lon": 0.0, "lat": 38.91706516666667, "is_disabled": 0, "bike_id": "180e1c1bc1acf72f599d4921df40854e", "fusion_lat": 0.0, "is_reserved": 0, "lon": -77.02887516666667}, {"type": "electric_scooter", "name": "2127b816f4208c6af56a956e2168b119", "rental_uris": {"ios": "https://dc.lft.to/lastmile_qr_scan", "android": "https://dc.lft.to/lastmile_qr_scan"}, "fusion_lon": 0.0, "lat": 38.928821166666665, "is_disabled": 0, "bike_id": "2127b816f4208c6af56a956e2168b119", "fusion_lat": 0.0, "is_reserved": 0, "lon": -77.03512516666666}, {"type": "electric_scooter", "name": "e7bd3c956701d9acab2e460357366d7f", "rental_uris": {"ios": "https://dc.lft.to/lastmile_qr_scan", "android": "https://dc.lft.to/lastmile_qr_scan"}, "fusion_lon": 0.0, "lat": 38.91539433333333, "is_disabled": 0, "bike_id": "e7bd3c956701d9acab2e460357366d7f", "fusion_lat": 0.0, "is_reserved": 0, "lon": -77.0122115}, {"type": "electric_scooter", "name": "2e8ccf0edeccdfb2e9e6618c260f11e1", "rental_uris": {"ios": "https://dc.lft.to/lastmile_qr_scan", "android": "https://dc.lft.to/lastmile_qr_scan"}, "fusion_lon": 0.0, "lat": 38.90975866666667, "is_disabled": 0, "bike_id": "2e8ccf0edeccdfb2e9e6618c260f11e1", "fusion_lat": 0.0, "is_reserved": 0, "lon": -77.03215266666666}, {"type": "electric_scooter", "name": "d5819da5afcae5f64f70513ce3d9d2dc", "rental_uris": {"ios": "https://dc.lft.to/lastmile_qr_scan", "android": "https://dc.lft.to/lastmile_qr_scan"}, "fusion_lon": 0.0, "lat": 38.91597383333333, "is_disabled": 0, "bike_id": "d5819da5afcae5f64f70513ce3d9d2dc", "fusion_lat": 0.0, "is_reserved": 0, "lon": -76.97979016666666}, {"type": "electric_scooter", "name": "b508e91c0bb274f9ed71d08bba6bf26c", "rental_uris": {"ios": "https://dc.lft.to/lastmile_qr_scan", "android": "https://dc.lft.to/lastmile_qr_scan"}, "fusion_lon": 0.0, "lat": 38.8570265, "is_disabled": 0, "bike_id": "b508e91c0bb274f9ed71d08bba6bf26c", "fusion_lat": 0.0, "is_reserved": 0, "lon": -76.99600616666666}, {"type": "electric_scooter", "name": "b4a346860dcfa12405bc1b8d2c896bde", "rental_uris": {"ios": "https://dc.lft.to/lastmile_qr_scan", "android": "https://dc.lft.to/lastmile_qr_scan"}, "fusion_lon": 0.0, "lat": 38.88715366666667, "is_disabled": 0, "bike_id": "b4a346860dcfa12405bc1b8d2c896bde", "fusion_lat": 0.0, "is_reserved": 0, "lon": -77.02209483333333}, {"type": "electric_scooter", "name": "a4a8ba67d2db7c8035aa1cfece3d6c5c", "rental_uris": {"ios": "https://dc.lft.to/lastmile_qr_scan", "android": "https://dc.lft.to/lastmile_qr_scan"}, "fusion_lon": 0.0, "lat": 38.912578833333335, "is_disabled": 0, "bike_id": "a4a8ba67d2db7c8035aa1cfece3d6c5c", "fusion_lat": 0.0, "is_reserved": 0, "lon": -77.04440016666666}, {"type": "electric_scooter", "name": "7d49e97733aa6c5c31e5b06d686c7087", "rental_uris": {"ios": "https://dc.lft.to/lastmile_qr_scan", "android": "https://dc.lft.to/lastmile_qr_scan"}, "fusion_lon": 0.0, "lat": 38.90202016666667, "is_disabled": 0, "bike_id": "7d49e97733aa6c5c31e5b06d686c7087", "fusion_lat": 0.0, "is_reserved": 0, "lon": -77.02767066666667}, {"type": "electric_scooter", "name": "e7e482f98f419adb987b586babe8a9cc", "rental_uris": {"ios": "https://dc.lft.to/lastmile_qr_scan", "android": "https://dc.lft.to/lastmile_qr_scan"}, "fusion_lon": 0.0, "lat": 38.92940516666667, "is_disabled": 0, "bike_id": "e7e482f98f419adb987b586babe8a9cc", "fusion_lat": 0.0, "is_reserved": 0, "lon": -77.03288316666666}, {"type": "electric_scooter", "name": "1e796e53fdd8a98aadb753896730d046", "rental_uris": {"ios": "https://dc.lft.to/lastmile_qr_scan", "android": "https://dc.lft.to/lastmile_qr_scan"}, "fusion_lon": 0.0, "lat": 38.909794, "is_disabled": 0, "bike_id": "1e796e53fdd8a98aadb753896730d046", "fusion_lat": 0.0, "is_reserved": 0, "lon": -77.01943366666667}, {"type": "electric_scooter", "name": "e8f0fa2bb918ce18e081c7e5787f70bc", "rental_uris": {"ios": "https://dc.lft.to/lastmile_qr_scan", "android": "https://dc.lft.to/lastmile_qr_scan"}, "fusion_lon": 0.0, "lat": 38.929837, "is_disabled": 0, "bike_id": "e8f0fa2bb918ce18e081c7e5787f70bc", "fusion_lat": 0.0, "is_reserved": 0, "lon": -77.01050066666667}, {"type": "electric_scooter", "name": "496acb8b49b0a4516e4f2522a491ba44", "rental_uris": {"ios": "https://dc.lft.to/lastmile_qr_scan", "android": "https://dc.lft.to/lastmile_qr_scan"}, "fusion_lon": 0.0, "lat": 38.89762, "is_disabled": 0, "bike_id": "496acb8b49b0a4516e4f2522a491ba44", "fusion_lat": 0.0, "is_reserved": 0, "lon": -77.0302135}, {"type": "electric_scooter", "name": "780c61777a6eee007d2cc094969952db", "rental_uris": {"ios": "https://dc.lft.to/lastmile_qr_scan", "android": "https://dc.lft.to/lastmile_qr_scan"}, "fusion_lon": 0.0, "lat": 38.919320166666665, "is_disabled": 0, "bike_id": "780c61777a6eee007d2cc094969952db", "fusion_lat": 0.0, "is_reserved": 0, "lon": -77.023439}, {"type": "electric_scooter", "name": "9c3e0fd260c151b940f43bf8e8f3bbfd", "rental_uris": {"ios": "https://dc.lft.to/lastmile_qr_scan", "android": "https://dc.lft.to/lastmile_qr_scan"}, "fusion_lon": 0.0, "lat": 38.95939083333333, "is_disabled": 0, "bike_id": "9c3e0fd260c151b940f43bf8e8f3bbfd", "fusion_lat": 0.0, "is_reserved": 0, "lon": -77.03116266666666}, {"type": "electric_scooter", "name": "3d5652647d4da32f460ea2a0334b2d29", "rental_uris": {"ios": "https://dc.lft.to/lastmile_qr_scan", "android": "https://dc.lft.to/lastmile_qr_scan"}, "fusion_lon": 0.0, "lat": 38.91231833333333, "is_disabled": 0, "bike_id": "3d5652647d4da32f460ea2a0334b2d29", "fusion_lat": 0.0, "is_reserved": 0, "lon": -77.03809466666667}, {"type": "electric_scooter", "name": "37bb678d5928062f6234b9b722858e88", "rental_uris": {"ios": "https://dc.lft.to/lastmile_qr_scan", "android": "https://dc.lft.to/lastmile_qr_scan"}, "fusion_lon": 0.0, "lat": 38.918253, "is_disabled": 0, "bike_id": "37bb678d5928062f6234b9b722858e88", "fusion_lat": 0.0, "is_reserved": 0, "lon": -77.0417345}, {"type": "electric_bike", "name": "b0e723a259d07402062edf11c711c896", "rental_uris": {"ios": "https://dc.lft.to/lastmile_qr_scan", "android": "https://dc.lft.to/lastmile_qr_scan"}, "fusion_lon": 0.0, "lat": 38.84510066666667, "is_disabled": 0, "bike_id": "b0e723a259d07402062edf11c711c896", "fusion_lat": 0.0, "is_reserved": 0, "lon": -76.99350133333333}, {"type": "electric_bike", "name": "8d30d52b8e0506cc3b66f70e7e903727", "rental_uris": {"ios": "https://dc.lft.to/lastmile_qr_scan", "android": "https://dc.lft.to/lastmile_qr_scan"}, "fusion_lon": 0.0, "lat": 38.80019733333334, "is_disabled": 0, "bike_id": "8d30d52b8e0506cc3b66f70e7e903727", "fusion_lat": 0.0, "is_reserved": 0, "lon": -77.0548565}, {"type": "electric_scooter", "name": "a452418a91e26ac7608a436e861e8518", "rental_uris": {"ios": "https://dc.lft.to/lastmile_qr_scan", "android": "https://dc.lft.to/lastmile_qr_scan"}, "fusion_lon": 0.0, "lat": 38.928463, "is_disabled": 0, "bike_id": "a452418a91e26ac7608a436e861e8518", "fusion_lat": 0.0, "is_reserved": 0, "lon": -76.9960045}, {"type": "electric_scooter", "name": "e32279450870ebc1bf574ddea34b4e4f", "rental_uris": {"ios": "https://dc.lft.to/lastmile_qr_scan", "android": "https://dc.lft.to/lastmile_qr_scan"}, "fusion_lon": 0.0, "lat": 38.918905, "is_disabled": 0, "bike_id": "e32279450870ebc1bf574ddea34b4e4f", "fusion_lat": 0.0, "is_reserved": 0, "lon": -77.04129566666667}, {"type": "electric_scooter", "name": "3d5c16a015b817c36b8e829f3015d518", "rental_uris": {"ios": "https://dc.lft.to/lastmile_qr_scan", "android": "https://dc.lft.to/lastmile_qr_scan"}, "fusion_lon": 0.0, "lat": 38.9110945, "is_disabled": 0, "bike_id": "3d5c16a015b817c36b8e829f3015d518", "fusion_lat": 0.0, "is_reserved": 0, "lon": -77.02716933333333}, {"type": "electric_scooter", "name": "43673bf3fdb7b1bdca7a41b849c859e6", "rental_uris": {"ios": "https://dc.lft.to/lastmile_qr_scan", "android": "https://dc.lft.to/lastmile_qr_scan"}, "fusion_lon": 0.0, "lat": 38.902916166666664, "is_disabled": 0, "bike_id": "43673bf3fdb7b1bdca7a41b849c859e6", "fusion_lat": 0.0, "is_reserved": 0, "lon": -77.03851083333333}, {"type": "electric_scooter", "name": "d71771f38dba484fea1238bd4628b6bf", "rental_uris": {"ios": "https://dc.lft.to/lastmile_qr_scan", "android": "https://dc.lft.to/lastmile_qr_scan"}, "fusion_lon": 0.0, "lat": 38.922246333333334, "is_disabled": 0, "bike_id": "d71771f38dba484fea1238bd4628b6bf", "fusion_lat": 0.0, "is_reserved": 0, "lon": -77.0221165}, {"type": "electric_scooter", "name": "1f6716f067fdd9f69dbb2f3a508d8339", "rental_uris": {"ios": "https://dc.lft.to/lastmile_qr_scan", "android": "https://dc.lft.to/lastmile_qr_scan"}, "fusion_lon": 0.0, "lat": 38.90651066666667, "is_disabled": 0, "bike_id": "1f6716f067fdd9f69dbb2f3a508d8339", "fusion_lat": 0.0, "is_reserved": 0, "lon": -77.03464766666667}, {"type": "electric_scooter", "name": "6485ddae0120be2afb59a2693fed83bd", "rental_uris": {"ios": "https://dc.lft.to/lastmile_qr_scan", "android": "https://dc.lft.to/lastmile_qr_scan"}, "fusion_lon": 0.0, "lat": 38.905013833333335, "is_disabled": 0, "bike_id": "6485ddae0120be2afb59a2693fed83bd", "fusion_lat": 0.0, "is_reserved": 0, "lon": -77.04352066666667}, {"type": "electric_scooter", "name": "fdcf58f2d1f25e0a2f1f7e3b72a5c851", "rental_uris": {"ios": "https://dc.lft.to/lastmile_qr_scan", "android": "https://dc.lft.to/lastmile_qr_scan"}, "fusion_lon": 0.0, "lat": 38.914323, "is_disabled": 0, "bike_id": "fdcf58f2d1f25e0a2f1f7e3b72a5c851", "fusion_lat": 0.0, "is_reserved": 0, "lon": -77.03180716666667}, {"type": "electric_scooter", "name": "55a7e5506fc9ddbc48be185114d6d7bc", "rental_uris": {"ios": "https://dc.lft.to/lastmile_qr_scan", "android": "https://dc.lft.to/lastmile_qr_scan"}, "fusion_lon": 0.0, "lat": 38.91491966666667, "is_disabled": 0, "bike_id": "55a7e5506fc9ddbc48be185114d6d7bc", "fusion_lat": 0.0, "is_reserved": 0, "lon": -77.0416075}, {"type": "electric_scooter", "name": "e3f6baebdef9607acfb5461e305c39bf", "rental_uris": {"ios": "https://dc.lft.to/lastmile_qr_scan", "android": "https://dc.lft.to/lastmile_qr_scan"}, "fusion_lon": 0.0, "lat": 38.916895, "is_disabled": 0, "bike_id": "e3f6baebdef9607acfb5461e305c39bf", "fusion_lat": 0.0, "is_reserved": 0, "lon": -77.04139016666667}, {"type": "electric_scooter", "name": "616b74decbc14a311d4da5509e2f7c03", "rental_uris": {"ios": "https://dc.lft.to/lastmile_qr_scan", "android": "https://dc.lft.to/lastmile_qr_scan"}, "fusion_lon": 0.0, "lat": 38.89296216666666, "is_disabled": 0, "bike_id": "616b74decbc14a311d4da5509e2f7c03", "fusion_lat": 0.0, "is_reserved": 0, "lon": -76.94978566666667}, {"type": "electric_scooter", "name": "4ec624b43f87d7847c96f7a0eb4145ba", "rental_uris": {"ios": "https://dc.lft.to/lastmile_qr_scan", "android": "https://dc.lft.to/lastmile_qr_scan"}, "fusion_lon": 0.0, "lat": 38.905262666666665, "is_disabled": 0, "bike_id": "4ec624b43f87d7847c96f7a0eb4145ba", "fusion_lat": 0.0, "is_reserved": 0, "lon": -77.04172}, {"type": "electric_scooter", "name": "525d419bee40c031b23cdd3f6dad3b15", "rental_uris": {"ios": "https://dc.lft.to/lastmile_qr_scan", "android": "https://dc.lft.to/lastmile_qr_scan"}, "fusion_lon": 0.0, "lat": 38.864462833333334, "is_disabled": 0, "bike_id": "525d419bee40c031b23cdd3f6dad3b15", "fusion_lat": 0.0, "is_reserved": 0, "lon": -76.97995083333333}, {"type": "electric_scooter", "name": "d536ac898e3b3a7ff7b819947cfb8c67", "rental_uris": {"ios": "https://dc.lft.to/lastmile_qr_scan", "android": "https://dc.lft.to/lastmile_qr_scan"}, "fusion_lon": 0.0, "lat": 38.875854833333335, "is_disabled": 0, "bike_id": "d536ac898e3b3a7ff7b819947cfb8c67", "fusion_lat": 0.0, "is_reserved": 0, "lon": -77.00416666666666}, {"type": "electric_scooter", "name": "2bec8ef2cbc5ef2b5e4fbb6ad9a46151", "rental_uris": {"ios": "https://dc.lft.to/lastmile_qr_scan", "android": "https://dc.lft.to/lastmile_qr_scan"}, "fusion_lon": 0.0, "lat": 38.881045666666665, "is_disabled": 0, "bike_id": "2bec8ef2cbc5ef2b5e4fbb6ad9a46151", "fusion_lat": 0.0, "is_reserved": 0, "lon": -77.0087015}, {"type": "electric_scooter", "name": "89fe881afaa2f7bfdd61fe51ab68de8f", "rental_uris": {"ios": "https://dc.lft.to/lastmile_qr_scan", "android": "https://dc.lft.to/lastmile_qr_scan"}, "fusion_lon": 0.0, "lat": 38.93519883333333, "is_disabled": 0, "bike_id": "89fe881afaa2f7bfdd61fe51ab68de8f", "fusion_lat": 0.0, "is_reserved": 0, "lon": -77.03290083333333}, {"type": "electric_scooter", "name": "be67965de81b28d49baf4a910e8d0bd5", "rental_uris": {"ios": "https://dc.lft.to/lastmile_qr_scan", "android": "https://dc.lft.to/lastmile_qr_scan"}, "fusion_lon": 0.0, "lat": 38.90991866666667, "is_disabled": 0, "bike_id": "be67965de81b28d49baf4a910e8d0bd5", "fusion_lat": 0.0, "is_reserved": 0, "lon": -77.0329925}, {"type": "electric_scooter", "name": "9b4b35c3a7007d6a0fe255c79303d99d", "rental_uris": {"ios": "https://dc.lft.to/lastmile_qr_scan", "android": "https://dc.lft.to/lastmile_qr_scan"}, "fusion_lon": 0.0, "lat": 38.90272383333333, "is_disabled": 0, "bike_id": "9b4b35c3a7007d6a0fe255c79303d99d", "fusion_lat": 0.0, "is_reserved": 0, "lon": -77.03358983333334}, {"type": "electric_scooter", "name": "7e7642cdc478ea818e35e0ce7d78e0a8", "rental_uris": {"ios": "https://dc.lft.to/lastmile_qr_scan", "android": "https://dc.lft.to/lastmile_qr_scan"}, "fusion_lon": 0.0, "lat": 38.9208265, "is_disabled": 0, "bike_id": "7e7642cdc478ea818e35e0ce7d78e0a8", "fusion_lat": 0.0, "is_reserved": 0, "lon": -77.01826666666666}, {"type": "electric_scooter", "name": "1af6bc4b32c493238de9f8a286a6ddf1", "rental_uris": {"ios": "https://dc.lft.to/lastmile_qr_scan", "android": "https://dc.lft.to/lastmile_qr_scan"}, "fusion_lon": 0.0, "lat": 38.84733683333333, "is_disabled": 0, "bike_id": "1af6bc4b32c493238de9f8a286a6ddf1", "fusion_lat": 0.0, "is_reserved": 0, "lon": -76.98248683333334}, {"type": "electric_scooter", "name": "12d6ed98680093b9ff2d87cf5038510b", "rental_uris": {"ios": "https://dc.lft.to/lastmile_qr_scan", "android": "https://dc.lft.to/lastmile_qr_scan"}, "fusion_lon": 0.0, "lat": 38.9048585, "is_disabled": 0, "bike_id": "12d6ed98680093b9ff2d87cf5038510b", "fusion_lat": 0.0, "is_reserved": 0, "lon": -77.0434805}, {"type": "electric_bike", "name": "4217ab9c69333c06b659117c7a2c6f20", "rental_uris": {"ios": "https://dc.lft.to/lastmile_qr_scan", "android": "https://dc.lft.to/lastmile_qr_scan"}, "fusion_lon": 0.0, "lat": 38.83553166666667, "is_disabled": 0, "bike_id": "4217ab9c69333c06b659117c7a2c6f20", "fusion_lat": 0.0, "is_reserved": 0, "lon": -76.98731466666666}, {"type": "electric_scooter", "name": "bff37e764d177c63c4a6528866446213", "rental_uris": {"ios": "https://dc.lft.to/lastmile_qr_scan", "android": "https://dc.lft.to/lastmile_qr_scan"}, "fusion_lon": 0.0, "lat": 38.902787000000004, "is_disabled": 0, "bike_id": "bff37e764d177c63c4a6528866446213", "fusion_lat": 0.0, "is_reserved": 0, "lon": -77.0176685}, {"type": "electric_scooter", "name": "4fb770147c89be56a93d512a8701040b", "rental_uris": {"ios": "https://dc.lft.to/lastmile_qr_scan", "android": "https://dc.lft.to/lastmile_qr_scan"}, "fusion_lon": 0.0, "lat": 38.927604, "is_disabled": 0, "bike_id": "4fb770147c89be56a93d512a8701040b", "fusion_lat": 0.0, "is_reserved": 0, "lon": -77.0327665}, {"type": "electric_scooter", "name": "8aaa939c2336808b78cdc08d1104338f", "rental_uris": {"ios": "https://dc.lft.to/lastmile_qr_scan", "android": "https://dc.lft.to/lastmile_qr_scan"}, "fusion_lon": 0.0, "lat": 38.93433983333333, "is_disabled": 0, "bike_id": "8aaa939c2336808b78cdc08d1104338f", "fusion_lat": 0.0, "is_reserved": 0, "lon": -77.04000266666667}, {"type": "electric_scooter", "name": "66f1e14787715d4b04c6c451477cbba1", "rental_uris": {"ios": "https://dc.lft.to/lastmile_qr_scan", "android": "https://dc.lft.to/lastmile_qr_scan"}, "fusion_lon": 0.0, "lat": 38.907754, "is_disabled": 0, "bike_id": "66f1e14787715d4b04c6c451477cbba1", "fusion_lat": 0.0, "is_reserved": 0, "lon": -77.0424825}, {"type": "electric_scooter", "name": "08296882d54bf9199afd7cd4a9d3b78d", "rental_uris": {"ios": "https://dc.lft.to/lastmile_qr_scan", "android": "https://dc.lft.to/lastmile_qr_scan"}, "fusion_lon": 0.0, "lat": 38.928410166666666, "is_disabled": 0, "bike_id": "08296882d54bf9199afd7cd4a9d3b78d", "fusion_lat": 0.0, "is_reserved": 0, "lon": -77.03652683333334}, {"type": "electric_scooter", "name": "d92d6b01b758f4033be72d334f3e956d", "rental_uris": {"ios": "https://dc.lft.to/lastmile_qr_scan", "android": "https://dc.lft.to/lastmile_qr_scan"}, "fusion_lon": 0.0, "lat": 38.890086333333336, "is_disabled": 0, "bike_id": "d92d6b01b758f4033be72d334f3e956d", "fusion_lat": 0.0, "is_reserved": 0, "lon": -76.93744066666666},