{"data": {"bikes": [{"rental_uris": {"ios": "https://dc.lft.to/lastmile_qr_scan", "android": "https://dc.lft.to/lastmile_qr_scan"}, "fusion_lat": 0.0, "name": "7aa863cc26c550344707a255b5337a6c", "bike_id": "7aa863cc26c550344707a255b5337a6c", "is_disabled": 0, "type": "electric_scooter", "lat": 38.86359733333333, "lon": -76.990562, "is_reserved": 0, "fusion_lon": 0.0}, {"rental_uris": {"ios": "https://dc.lft.to/lastmile_qr_scan", "android": "https://dc.lft.to/lastmile_qr_scan"}, "fusion_lat": 0.0, "name": "580e22594264b2bfc8528f6c10219e78", "bike_id": "580e22594264b2bfc8528f6c10219e78", "is_disabled": 0, "type": "electric_scooter", "lat": 38.892544, "lon": -77.04667433333333, "is_reserved": 0, "fusion_lon": 0.0}, {"rental_uris": {"ios": "https://dc.lft.to/lastmile_qr_scan", "android": "https://dc.lft.to/lastmile_qr_scan"}, "fusion_lat": 0.0, "name": "1e152408c6bda7cd3da9d9fa42f387df", "bike_id": "1e152408c6bda7cd3da9d9fa42f387df", "is_disabled": 0, "type": "electric_scooter", "lat": 38.90242816666667, "lon": -77.018048, "is_reserved": 0, "fusion_lon": 0.0}, {"rental_uris": {"ios": "https://dc.lft.to/lastmile_qr_scan", "android": "https://dc.lft.to/lastmile_qr_scan"}, "fusion_lat": 0.0, "name": "6013e47425b78525e0562ad60b2df724", "bike_id": "6013e47425b78525e0562ad60b2df724", "is_disabled": 0, "type": "electric_scooter", "lat": 38.91878666666667, "lon": -77.022048, "is_reserved": 0, "fusion_lon": 0.0}, {"rental_uris": {"ios": "https://dc.lft.to/lastmile_qr_scan", "android": "https://dc.lft.to/lastmile_qr_scan"}, "fusion_lat": 0.0, "name": "a4acaebd6f746b42213768685d44ae7e", "bike_id": "a4acaebd6f746b42213768685d44ae7e", "is_disabled": 0, "type": "electric_scooter", "lat": 38.95427683333333, "lon": -77.02762766666666, "is_reserved": 0, "fusion_lon": 0.0}, {"rental_uris": {"ios": "https://dc.lft.to/lastmile_qr_scan", "android": "https://dc.lft.to/lastmile_qr_scan"}, "fusion_lat": 0.0, "name": "f47f50ad212e7263cff416de9bf8670d", "bike_id": "f47f50ad212e7263cff416de9bf8670d", "is_disabled": 0, "type": "electric_bike", "lat": 38.80680516666666, "lon": -77.08119033333334, "is_reserved": 0, "fusion_lon": 0.0}, {"rental_uris": {"ios": "https://dc.lft.to/lastmile_qr_scan", "android": "https://dc.lft.to/lastmile_qr_scan"}, "fusion_lat": 0.0, "name": "b8366472ecd7aed91c8eac24429f015c", "bike_id": "b8366472ecd7aed91c8eac24429f015c", "is_disabled": 0, "type": "electric_scooter", "lat": 38.892317, "lon": -77.0499905, "is_reserved": 0, "fusion_lon": 0.0}, {"rental_uris": {"ios": "https://dc.lft.to/lastmile_qr_scan", "android": "https://dc.lft.to/lastmile_qr_scan"}, "fusion_lat": 0.0, "name": "a0253162a241b05eb13985933ab2b60b", "bike_id": "a0253162a241b05eb13985933ab2b60b", "is_disabled": 0, "type": "electric_scooter", "lat": 38.92325116666667, "lon": -77.02130133333333, "is_reserved": 0, "fusion_lon": 0.0}, {"rental_uris": {"ios": "https://dc.lft.to/lastmile_qr_scan", "android": "https://dc.lft.to/lastmile_qr_scan"}, "fusion_lat": 0.0, "name": "b96bd3f170286de5f4aaa762c2cc0f79", "bike_id": "b96bd3f170286de5f4aaa762c2cc0f79", "is_disabled": 0, "type": "electric_scooter", "lat": 38.9111895, "lon": -77.04359766666667, "is_reserved": 0, "fusion_lon": 0.0}, {"rental_uris": {"ios": "https://dc.lft.to/lastmile_qr_scan", "android": "https://dc.lft.to/lastmile_qr_scan"}, "fusion_lat": 0.0, "name": "5b20d26044e39d75f63509149d64826a", "bike_id": "5b20d26044e39d75f63509149d64826a", "is_disabled": 0, "type": "electric_scooter", "lat": 38.938879, "lon": -77.02486716666667, "is_reserved": 0, "fusion_lon": 0.0}, {"rental_uris": {"ios": "https://dc.lft.to/lastmile_qr_scan", "android": "https://dc.lft.to/lastmile_qr_scan"}, "fusion_lat": 0.0, "name": "dd94d6473df5ba2a36aea8570f8169af", "bike_id": "dd94d6473df5ba2a36aea8570f8169af", "is_disabled": 0, "type": "electric_scooter", "lat": 38.923520833333335, "lon": -77.05310433333334, "is_reserved": 0, "fusion_lon": 0.0}, {"rental_uris": {"ios": "https://dc.lft.to/lastmile_qr_scan", "android": "https://dc.lft.to/lastmile_qr_scan"}, "fusion_lat": 0.0, "name": "a67730fdc523fa269b065936fbedc079", "bike_id": "a67730fdc523fa269b065936fbedc079", "is_disabled": 0, "type": "electric_scooter", "lat": 38.91928583333333, "lon": -77.031764, "is_reserved": 0, "fusion_lon": 0.0}, {"rental_uris": {"ios": "https://dc.lft.to/lastmile_qr_scan", "android": "https://dc.lft.to/lastmile_qr_scan"}, "fusion_lat": 0.0, "name": "be402d6dec3725922fc2b3c988decb94", "bike_id": "be402d6dec3725922fc2b3c988decb94", "is_disabled": 0, "type": "electric_scooter", "lat": 38.88251116666667, "lon": -76.99506966666667, "is_reserved": 0, "fusion_lon": 0.0}, {"rental_uris": {"ios": "https://dc.lft.to/lastmile_qr_scan", "android": "https://dc.lft.to/lastmile_qr_scan"}, "fusion_lat": 0.0, "name": "ebfafc7e5a6c3b4f9ec549632a62d6e9", "bike_id": "ebfafc7e5a6c3b4f9ec549632a62d6e9", "is_disabled": 0, "type": "electric_scooter", "lat": 38.921463, "lon": -77.043586, "is_reserved": 0, "fusion_lon": 0.0}, {"rental_uris": {"ios": "https://dc.lft.to/lastmile_qr_scan", "android": "https://dc.lft.to/lastmile_qr_scan"}, "fusion_lat": 0.0, "name": "098c64009c9480d8cc04c9a550b51d28", "bike_id": "098c64009c9480d8cc04c9a550b51d28", "is_disabled": 0, "type": "electric_scooter", "lat": 38.92477133333333, "lon": -77.0315835, "is_reserved": 0, "fusion_lon": 0.0}, {"rental_uris": {"ios": "https://dc.lft.to/lastmile_qr_scan", "android": "https://dc.lft.to/lastmile_qr_scan"}, "fusion_lat": 0.0, "name": "0854959ac0dab0ebd21bd174bf566832", "bike_id": "0854959ac0dab0ebd21bd174bf566832", "is_disabled": 0, "type": "electric_scooter", "lat": 38.89881183333333, "lon": -76.93178616666667, "is_reserved": 0, "fusion_lon": 0.0}, {"rental_uris": {"ios": "https://dc.lft.to/lastmile_qr_scan", "android": "https://dc.lft.to/lastmile_qr_scan"}, "fusion_lat": 0.0, "name": "2af2df15cec0cce26e73a1f3232b4442", "bike_id": "2af2df15cec0cce26e73a1f3232b4442", "is_disabled": 0, "type": "electric_scooter", "lat": 38.883459333333334, "lon": -77.01543683333334, "is_reserved": 0, "fusion_lon": 0.0}, {"rental_uris": {"ios": "https://dc.lft.to/lastmile_qr_scan", "android": "https://dc.lft.to/lastmile_qr_scan"}, "fusion_lat": 0.0, "name": "d58da439abe14a6f469863471cfe9064", "bike_id": "d58da439abe14a6f469863471cfe9064", "is_disabled": 0, "type": "electric_scooter", "lat": 38.844302666666664, "lon": -76.99775133333333, "is_reserved": 0, "fusion_lon": 0.0}, {"rental_uris": {"ios": "https://dc.lft.to/lastmile_qr_scan", "android": "https://dc.lft.to/lastmile_qr_scan"}, "fusion_lat": 0.0, "name": "0632147db8d323ada32ca672b772039d", "bike_id": "0632147db8d323ada32ca672b772039d", "is_disabled": 0, "type": "electric_scooter", "lat": 38.86886616666666, "lon": -76.98314066666667, "is_reserved": 0, "fusion_lon": 0.0}, {"rental_uris": {"ios": "https://dc.lft.to/lastmile_qr_scan", "android": "https://dc.lft.to/lastmile_qr_scan"}, "fusion_lat": 0.0, "name": "66a24b947f2fdd4d8a3036affaca42e9", "bike_id": "66a24b947f2fdd4d8a3036affaca42e9", "is_disabled": 0, "type": "electric_scooter", "lat": 38.9244125, "lon": -77.02152166666667, "is_reserved": 0, "fusion_lon": 0.0}, {"rental_uris": {"ios": "https://dc.lft.to/lastmile_qr_scan", "android": "https://dc.lft.to/lastmile_qr_scan"}, "fusion_lat": 0.0, "name": "68a8372329e51775cc96a1b9f28183e7", "bike_id": "68a8372329e51775cc96a1b9f28183e7", "is_disabled": 0, "type": "electric_scooter", "lat": 38.92041116666667, "lon": -77.02993316666667, "is_reserved": 0, "fusion_lon": 0.0}, {"rental_uris": {"ios": "https://dc.lft.to/lastmile_qr_scan", "android": "https://dc.lft.to/lastmile_qr_scan"}, "fusion_lat": 0.0, "name": "44e29ad5e23dbc0df843ffaeac435971", "bike_id": "44e29ad5e23dbc0df843ffaeac435971", "is_disabled": 0, "type": "electric_scooter", "lat": 38.887301666666666, "lon": -77.02827866666667, "is_reserved": 0, "fusion_lon": 0.0}, {"rental_uris": {"ios": "https://dc.lft.to/lastmile_qr_scan", "android": "https://dc.lft.to/lastmile_qr_scan"}, "fusion_lat": 0.0, "name": "0ad7023ca64dfb9a09910042f517c9b5", "bike_id": "0ad7023ca64dfb9a09910042f517c9b5", "is_disabled": 0, "type": "electric_scooter", "lat": 38.9235965, "lon": -77.05128066666667, "is_reserved": 0, "fusion_lon": 0.0}, {"rental_uris": {"ios": "https://dc.lft.to/lastmile_qr_scan", "android": "https://dc.lft.to/lastmile_qr_scan"}, "fusion_lat": 0.0, "name": "9895a79fce718e9ad2a323ae64c3755e", "bike_id": "9895a79fce718e9ad2a323ae64c3755e", "is_disabled": 0, "type": "electric_bike", "lat": 38.827896, "lon": -77.00913166666666, "is_reserved": 0, "fusion_lon": 0.0}, {"rental_uris": {"ios": "https://dc.lft.to/lastmile_qr_scan", "android": "https://dc.lft.to/lastmile_qr_scan"}, "fusion_lat": 0.0, "name": "2f19a006f605d0b996abe2b1e0b4b9c0", "bike_id": "2f19a006f605d0b996abe2b1e0b4b9c0", "is_disabled": 0, "type": "electric_scooter", "lat": 38.90440133333333, "lon": -76.98264383333333, "is_reserved": 0, "fusion_lon": 0.0}, {"rental_uris": {"ios": "https://dc.lft.to/lastmile_qr_scan", "android": "https://dc.lft.to/lastmile_qr_scan"}, "fusion_lat": 0.0, "name": "d93a6727c415ec5de39121f413a47be8", "bike_id": "d93a6727c415ec5de39121f413a47be8", "is_disabled": 0, "type": "electric_scooter", "lat": 38.95619516666667, "lon": -77.02765733333334, "is_reserved": 0, "fusion_lon": 0.0}, {"rental_uris": {"ios": "https://dc.lft.to/lastmile_qr_scan", "android": "https://dc.lft.to/lastmile_qr_scan"}, "fusion_lat": 0.0, "name": "04b5de60a3222a75192b5529d3bda3ea", "bike_id": "04b5de60a3222a75192b5529d3bda3ea", "is_disabled": 0, "type": "electric_scooter", "lat": 38.866650166666666, "lon": -76.9851205, "is_reserved": 0, "fusion_lon": 0.0}, {"rental_uris": {"ios": "https://dc.lft.to/lastmile_qr_scan", "android": "https://dc.lft.to/lastmile_qr_scan"}, "fusion_lat": 0.0, "name": "b7e0b41a5f71f175cb64990f55680a3d", "bike_id": "b7e0b41a5f71f175cb64990f55680a3d", "is_disabled": 0, "type": "electric_scooter", "lat": 38.893563, "lon": -77.04186883333334, "is_reserved": 0, "fusion_lon": 0.0}, {"rental_uris": {"ios": "https://dc.lft.to/lastmile_qr_scan", "android": "https://dc.lft.to/lastmile_qr_scan"}, "fusion_lat": 0.0, "name": "1b2bfcd0cda3059fb156fc1f241bdc98", "bike_id": "1b2bfcd0cda3059fb156fc1f241bdc98", "is_disabled": 0, "type": "electric_scooter", "lat": 38.923267833333334, "lon": -77.02132116666667, "is_reserved": 0, "fusion_lon": 0.0}, {"rental_uris": {"ios": "https://dc.lft.to/lastmile_qr_scan", "android": "https://dc.lft.to/lastmile_qr_scan"}, "fusion_lat": 0.0, "name": "445ef7f6f5f364a3754f3b97e2c6737a", "bike_id": "445ef7f6f5f364a3754f3b97e2c6737a", "is_disabled": 0, "type": "electric_scooter", "lat": 38.909576666666666, "lon": -77.02582333333334, "is_reserved": 0, "fusion_lon": 0.0}, {"rental_uris": {"ios": "https://dc.lft.to/lastmile_qr_scan", "android": "https://dc.lft.to/lastmile_qr_scan"}, "fusion_lat": 0.0, "name": "53edef201a3f630c3bd4a1f1d99e0fa4", "bike_id": "53edef201a3f630c3bd4a1f1d99e0fa4", "is_disabled": 0, "type": "electric_scooter", "lat": 38.91545333333333, "lon": -77.046376, "is_reserved": 0, "fusion_lon": 0.0}, {"rental_uris": {"ios": "https://dc.lft.to/lastmile_qr_scan", "android": "https://dc.lft.to/lastmile_qr_scan"}, "fusion_lat": 0.0, "name": "4f9f9128cdf5e7fcfdacf4693d1daffe", "bike_id": "4f9f9128cdf5e7fcfdacf4693d1daffe", "is_disabled": 0, "type": "electric_scooter", "lat": 38.907794333333335, "lon": -77.032085, "is_reserved": 0, "fusion_lon": 0.0}, {"rental_uris": {"ios": "https://dc.lft.to/lastmile_qr_scan", "android": "https://dc.lft.to/lastmile_qr_scan"}, "fusion_lat": 0.0, "name": "d5fde32d8e734c5a37df68dbbad8540d", "bike_id": "d5fde32d8e734c5a37df68dbbad8540d", "is_disabled": 0, "type": "electric_bike", "lat": 38.931822, "lon": -77.02352583333334, "is_reserved": 0, "fusion_lon": 0.0}, {"rental_uris": {"ios": "https://dc.lft.to/lastmile_qr_scan", "android": "https://dc.lft.to/lastmile_qr_scan"}, "fusion_lat": 0.0, "name": "eb233bc58d04827bf9609dd02807ba78", "bike_id": "eb233bc58d04827bf9609dd02807ba78", "is_disabled": 0, "type": "electric_scooter", "lat": 38.92370533333333, "lon": -77.019105, "is_reserved": 0, "fusion_lon": 0.0}, {"rental_uris": {"ios": "https://dc.lft.to/lastmile_qr_scan", "android": "https://dc.lft.to/lastmile_qr_scan"}, "fusion_lat": 0.0, "name": "3fe2da6415024c7e1067a5f744a73123", "bike_id": "3fe2da6415024c7e1067a5f744a73123", "is_disabled": 0, "type": "electric_scooter", "lat": 38.89759216666667, "lon": -76.94179366666667, "is_reserved": 0, "fusion_lon": 0.0}, {"rental_uris": {"ios": "https://dc.lft.to/lastmile_qr_scan", "android": "https://dc.lft.to/lastmile_qr_scan"}, "fusion_lat": 0.0, "name": "d595baedf39764e55dde771bc1ec4488", "bike_id": "d595baedf39764e55dde771bc1ec4488", "is_disabled": 0, "type": "electric_scooter", "lat": 38.909997833333335, "lon": -77.04010033333333, "is_reserved": 0, "fusion_lon": 0.0}, {"rental_uris": {"ios": "https://dc.lft.to/lastmile_qr_scan", "android": "https://dc.lft.to/lastmile_qr_scan"}, "fusion_lat": 0.0, "name": "6eff0faa137152b8f58dfe7b314d606e", "bike_id": "6eff0faa137152b8f58dfe7b314d606e", "is_disabled": 0, "type": "electric_scooter", "lat": 38.9110145, "lon": -77.00372166666666, "is_reserved": 0, "fusion_lon": 0.0}, {"rental_uris": {"ios": "https://dc.lft.to/lastmile_qr_scan", "android": "https://dc.lft.to/lastmile_qr_scan"}, "fusion_lat": 0.0, "name": "9ce1d6834b89c19841d7d5725c282bbe", "bike_id": "9ce1d6834b89c19841d7d5725c282bbe", "is_disabled": 0, "type": "electric_scooter", "lat": 38.92241966666667, "lon": -77.03420666666666, "is_reserved": 0, "fusion_lon": 0.0}, {"rental_uris": {"ios": "https://dc.lft.to/lastmile_qr_scan", "android": "https://dc.lft.to/lastmile_qr_scan"}, "fusion_lat": 0.0, "name": "f350216c478cc1faacc96ee9def43884", "bike_id": "f350216c478cc1faacc96ee9def43884", "is_disabled": 0, "type": "electric_scooter", "lat": 38.901282, "lon": -76.99738733333334, "is_reserved": 0, "fusion_lon": 0.0}, {"rental_uris": {"ios": "https://dc.lft.to/lastmile_qr_scan", "android": "https://dc.lft.to/lastmile_qr_scan"}, "fusion_lat": 0.0, "name": "b6cc1d10bbc9b52e6e4f08ac862f9363", "bike_id": "b6cc1d10bbc9b52e6e4f08ac862f9363", "is_disabled": 0, "type": "electric_bike", "lat": 38.85517983333333, "lon": -77.12061366666667, "is_reserved": 0, "fusion_lon": 0.0}, {"rental_uris": {"ios": "https://dc.lft.to/lastmile_qr_scan", "android": "https://dc.lft.to/lastmile_qr_scan"}, "fusion_lat": 0.0, "name": "ea8da3e9d987764c6ae80991f8ecd655", "bike_id": "ea8da3e9d987764c6ae80991f8ecd655", "is_disabled": 0, "type": "electric_scooter", "lat": 38.9122655, "lon": -77.04504216666666, "is_reserved": 0, "fusion_lon": 0.0}, {"rental_uris": {"ios": "https://dc.lft.to/lastmile_qr_scan", "android": "https://dc.lft.to/lastmile_qr_scan"}, "fusion_lat": 0.0, "name": "f29ef96c70dbee1703a02b69ccd761f7", "bike_id": "f29ef96c70dbee1703a02b69ccd761f7", "is_disabled": 0, "type": "electric_scooter", "lat": 38.88739733333333, "lon": -77.0286265, "is_reserved": 0, "fusion_lon": 0.0}, {"rental_uris": {"ios": "https://dc.lft.to/lastmile_qr_scan", "android": "https://dc.lft.to/lastmile_qr_scan"}, "fusion_lat": 0.0, "name": "39f2ee1cdc3722982773c890f407dba9", "bike_id": "39f2ee1cdc3722982773c890f407dba9", "is_disabled": 0, "type": "electric_scooter", "lat": 38.91677816666667, "lon": -77.02382233333333, "is_reserved": 0, "fusion_lon": 0.0}, {"rental_uris": {"ios": "https://dc.lft.to/lastmile_qr_scan", "android": "https://dc.lft.to/lastmile_qr_scan"}, "fusion_lat": 0.0, "name": "cb4bb03286055f431a5018e2c6792529", "bike_id": "cb4bb03286055f431a5018e2c6792529", "is_disabled": 0, "type": "electric_scooter", "lat": 38.91045316666667, "lon": -77.04367283333333, "is_reserved": 0, "fusion_lon": 0.0}, {"rental_uris": {"ios": "https://dc.lft.to/lastmile_qr_scan", "android": "https://dc.lft.to/lastmile_qr_scan"}, "fusion_lat": 0.0, "name": "cfbf1aeaea5d72d9fc90299f32e933f0", "bike_id": "cfbf1aeaea5d72d9fc90299f32e933f0", "is_disabled": 0, "type": "electric_scooter", "lat": 38.93745216666667, "lon": -77.03453533333334, "is_reserved": 0, "fusion_lon": 0.0}, {"rental_uris": {"ios": "https://dc.lft.to/lastmile_qr_scan", "android": "https://dc.lft.to/lastmile_qr_scan"}, "fusion_lat": 0.0, "name": "0d920005ee994e8b8dba81f455fb7c3b", "bike_id": "0d920005ee994e8b8dba81f455fb7c3b", "is_disabled": 0, "type": "electric_scooter", "lat": 38.933432, "lon": -77.0726405, "is_reserved": 0, "fusion_lon": 0.0}, {"rental_uris": {"ios": "https://dc.lft.to/lastmile_qr_scan", "android": "https://dc.lft.to/lastmile_qr_scan"}, "fusion_lat": 0.0, "name": "2151ad13b1e195d231c85cd8a7930e94", "bike_id": "2151ad13b1e195d231c85cd8a7930e94", "is_disabled": 0, "type": "electric_scooter", "lat": 38.91226566666667, "lon": -77.03191, "is_reserved": 0, "fusion_lon": 0.0}, {"rental_uris": {"ios": "https://dc.lft.to/lastmile_qr_scan", "android": "https://dc.lft.to/lastmile_qr_scan"}, "fusion_lat": 0.0, "name": "0ba0e6235000f178b651347fe3e4f489", "bike_id": "0ba0e6235000f178b651347fe3e4f489", "is_disabled": 0, "type": "electric_scooter", "lat": 38.893534833333334, "lon": -77.0033955, "is_reserved": 0, "fusion_lon": 0.0}, {"rental_uris": {"ios": "https://dc.lft.to/lastmile_qr_scan", "android": "https://dc.lft.to/lastmile_qr_scan"}, "fusion_lat": 0.0, "name": "0118c8b1de125da70ab7d8b340ece261", "bike_id": "0118c8b1de125da70ab7d8b340ece261", "is_disabled": 0, "type": "electric_scooter", "lat": 38.90680366666667, "lon": -77.02700583333333, "is_reserved": 0, "fusion_lon": 0.0}, {"rental_uris": {"ios": "https://dc.lft.to/lastmile_qr_scan", "android": "https://dc.lft.to/lastmile_qr_scan"}, "fusion_lat": 0.0, "name": "b9c269c87c348b8f1c40704b7d19cb7b", "bike_id": "b9c269c87c348b8f1c40704b7d19cb7b", "is_disabled": 0, "type": "electric_scooter", "lat": 38.88738266666667, "lon": -77.01535716666666, "is_reserved": 0, "fusion_lon": 0.0}, {"rental_uris": {"ios": "https://dc.lft.to/lastmile_qr_scan", "android": "https://dc.lft.to/lastmile_qr_scan"}, "fusion_lat": 0.0, "name": "2ea84d38c8366971f951fc069c0d121b", "bike_id": "2ea84d38c8366971f951fc069c0d121b", "is_disabled": 0, "type": "electric_scooter", "lat": 38.8972725, "lon": -77.043418, "is_reserved": 0, "fusion_lon": 0.0}, {"rental_uris": {"ios": "https://dc.lft.to/lastmile_qr_scan", "android": "https://dc.lft.to/lastmile_qr_scan"}, "fusion_lat": 0.0, "name": "390555bfa9d80dee1425654694520cf1", "bike_id": "390555bfa9d80dee1425654694520cf1", "is_disabled": 0, "type": "electric_scooter", "lat": 38.929263666666664, "lon": -77.03761266666666, "is_reserved": 0, "fusion_lon": 0.0}, {"rental_uris": {"ios": "https://dc.lft.to/lastmile_qr_scan", "android": "https://dc.lft.to/lastmile_qr_scan"}, "fusion_lat": 0.0, "name": "c36b3df13cd1897d5ed263af0ce33e81", "bike_id": "c36b3df13cd1897d5ed263af0ce33e81", "is_disabled": 0, "type": "electric_scooter", "lat": 38.85677416666667, "lon": -76.981706, "is_reserved": 0, "fusion_lon": 0.0}, {"rental_uris": {"ios": "https://dc.lft.to/lastmile_qr_scan", "android": "https://dc.lft.to/lastmile_qr_scan"}, "fusion_lat": 0.0, "name": "c659a1a430d639cae6335cecf5b95034", "bike_id": "c659a1a430d639cae6335cecf5b95034", "is_disabled": 0, "type": "electric_scooter", "lat": 38.92041483333333, "lon": -77.04190733333333, "is_reserved": 0, "fusion_lon": 0.0}, {"rental_uris": {"ios": "https://dc.lft.to/lastmile_qr_scan", "android": "https://dc.lft.to/lastmile_qr_scan"}, "fusion_lat": 0.0, "name": "1f67ce902518949b3270c0d459df68c7", "bike_id": "1f67ce902518949b3270c0d459df68c7", "is_disabled": 0, "type": "electric_scooter", "lat": 38.9068515, "lon": -77.027175, "is_reserved": 0, "fusion_lon": 0.0}, {"rental_uris": {"ios": "https://dc.lft.to/lastmile_qr_scan", "android": "https://dc.lft.to/lastmile_qr_scan"}, "fusion_lat": 0.0, "name": "4c51cbdcfb50c4278ee4665ebc6bf960", "bike_id": "4c51cbdcfb50c4278ee4665ebc6bf960", "is_disabled": 0, "type": "electric_scooter", "lat": 38.91743966666667, "lon": -77.02398733333334, "is_reserved": 0, "fusion_lon": 0.0}, {"rental_uris": {"ios": "https://dc.lft.to/lastmile_qr_scan", "android": "https://dc.lft.to/lastmile_qr_scan"}, "fusion_lat": 0.0, "name": "c6a1d3d220076db9169dd2b9a78a5a40", "bike_id": "c6a1d3d220076db9169dd2b9a78a5a40", "is_disabled": 0, "type": "electric_scooter", "lat": 38.91565633333333, "lon": -77.01204566666667, "is_reserved": 0, "fusion_lon": 0.0}, {"rental_uris": {"ios": "https://dc.lft.to/lastmile_qr_scan", "android": "https://dc.lft.to/lastmile_qr_scan"}, "fusion_lat": 0.0, "name": "6082027f96b2776939530d0a62797e3a", "bike_id": "6082027f96b2776939530d0a62797e3a", "is_disabled": 0, "type": "electric_scooter", "lat": 38.934277, "lon": -77.040013, "is_reserved": 0, "fusion_lon": 0.0}, {"rental_uris": {"ios": "https://dc.lft.to/lastmile_qr_scan", "android": "https://dc.lft.to/lastmile_qr_scan"}, "fusion_lat": 0.0, "name": "dad23d52bacc0cfed843b61c1e401470", "bike_id": "dad23d52bacc0cfed843b61c1e401470", "is_disabled": 0, "type": "electric_scooter", "lat": 38.9316925, "lon": -77.03636166666666, "is_reserved": 0, "fusion_lon": 0.0}, {"rental_uris": {"ios": "https://dc.lft.to/lastmile_qr_scan", "android": "https://dc.lft.to/lastmile_qr_scan"}, "fusion_lat": 0.0, "name": "bc9f6d4b52a6f65f6b653ac6b1f45e82", "bike_id": "bc9f6d4b52a6f65f6b653ac6b1f45e82", "is_disabled": 0, "type": "electric_scooter", "lat": 38.92135483333333, "lon": -77.01912066666667, "is_reserved": 0, "fusion_lon": 0.0}, {"rental_uris": {"ios": "https://dc.lft.to/lastmile_qr_scan", "android": "https://dc.lft.to/lastmile_qr_scan"}, "fusion_lat": 0.0, "name": "e594196f369aa556415d4902e7fd4ac2", "bike_id": "e594196f369aa556415d4902e7fd4ac2", "is_disabled": 0, "type": "electric_scooter", "lat": 38.94038833333333, "lon": -76.99632966666667, "is_reserved": 0, "fusion_lon": 0.0}, {"rental_uris": {"ios": "https://dc.lft.to/lastmile_qr_scan", "android": "https://dc.lft.to/lastmile_qr_scan"}, "fusion_lat": 0.0, "name": "5f8223862dde741d9b98d3f332ac016a", "bike_id": "5f8223862dde741d9b98d3f332ac016a", "is_disabled": 0, "type": "electric_scooter", "lat": 38.919889833333336, "lon": -77.0329315, "is_reserved": 0, "fusion_lon": 0.0}, {"rental_uris": {"ios": "https://dc.lft.to/lastmile_qr_scan", "android": "https://dc.lft.to/lastmile_qr_scan"}, "fusion_lat": 0.0, "name": "ec1555507c76c45ab63f04cabba3195f", "bike_id": "ec1555507c76c45ab63f04cabba3195f", "is_disabled": 0, "type": "electric_scooter", "lat": 38.896284333333334, "lon": -77.05021616666667, "is_reserved": 0, "fusion_lon": 0.0}, {"rental_uris": {"ios": "https://dc.lft.to/lastmile_qr_scan", "android": "https://dc.lft.to/lastmile_qr_scan"}, "fusion_lat": 0.0, "name": "5ced5ca51bde954aee5c3d29c7e1388a", "bike_id": "5ced5ca51bde954aee5c3d29c7e1388a", "is_disabled": 0, "type": "electric_scooter", "lat": 38.892428833333334, "lon": -77.03954966666667, "is_reserved": 0, "fusion_lon": 0.0}, {"rental_uris": {"ios": "https://dc.lft.to/lastmile_qr_scan", "android": "https://dc.lft.to/lastmile_qr_scan"}, "fusion_lat": 0.0, "name": "5d615e9e2dba0220efcbd30e47e1b736", "bike_id": "5d615e9e2dba0220efcbd30e47e1b736", "is_disabled": 0, "type": "electric_scooter", "lat": 38.89499266666667, "lon": -76.94876866666667, "is_reserved": 0, "fusion_lon": 0.0}, {"rental_uris": {"ios": "https://dc.lft.to/lastmile_qr_scan", "android": "https://dc.lft.to/lastmile_qr_scan"}, "fusion_lat": 0.0, "name": "e02f039631359ebd44dc3df1e8ff1278", "bike_id": "e02f039631359ebd44dc3df1e8ff1278", "is_disabled": 0, "type": "electric_scooter", "lat": 38.93464783333334, "lon": -77.072712, "is_reserved": 0, "fusion_lon": 0.0}, {"rental_uris": {"ios": "https://dc.lft.to/lastmile_qr_scan", "android": "https://dc.lft.to/lastmile_qr_scan"}, "fusion_lat": 0.0, "name": "17883d2db37f6c56ab2c83b1cfed66bd", "bike_id": "17883d2db37f6c56ab2c83b1cfed66bd", "is_disabled": 0, "type": "electric_scooter", "lat": 38.92205233333333, "lon": -77.03897916666666, "is_reserved": 0, "fusion_lon": 0.0}, {"rental_uris": {"ios": "https://dc.lft.to/lastmile_qr_scan", "android": "https://dc.lft.to/lastmile_qr_scan"}, "fusion_lat": 0.0, "name": "b777682a0e2a2f5a6fc45e491547ffd4", "bike_id": "b777682a0e2a2f5a6fc45e491547ffd4", "is_disabled": 0, "type": "electric_scooter", "lat": 38.93203166666667, "lon": -77.03853883333333, "is_reserved": 0, "fusion_lon": 0.0}, {"rental_uris": {"ios": "https://dc.lft.to/lastmile_qr_scan", "android": "https://dc.lft.to/lastmile_qr_scan"}, "fusion_lat": 0.0, "name": "6f15410c51cac4ac8f5887f3633f5711", "bike_id": "6f15410c51cac4ac8f5887f3633f5711", "is_disabled": 0, "type": "electric_scooter", "lat": 38.92802316666667, "lon": -77.05396633333334, "is_reserved": 0, "fusion_lon": 0.0}, {"rental_uris": {"ios": "https://dc.lft.to/lastmile_qr_scan", "android": "https://dc.lft.to/lastmile_qr_scan"}, "fusion_lat": 0.0, "name": "1579d882d574ba1afe8a1e37ef7ff6d4", "bike_id": "1579d882d574ba1afe8a1e37ef7ff6d4", "is_disabled": 0, "type": "electric_scooter", "lat": 38.90942016666666, "lon": -77.05937766666666, "is_reserved": 0, "fusion_lon": 0.0}, {"rental_uris": {"ios": "https://dc.lft.to/lastmile_qr_scan", "android": "https://dc.lft.to/lastmile_qr_scan"}, "fusion_lat": 0.0, "name": "cf446645dd785d79c1023d56eff0d52b", "bike_id": "cf446645dd785d79c1023d56eff0d52b", "is_disabled": 0, "type": "electric_scooter", "lat": 38.91706533333333, "lon": -77.03882716666666, "is_reserved": 0, "fusion_lon": 0.0}, {"rental_uris": {"ios": "https://dc.lft.to/lastmile_qr_scan", "android": "https://dc.lft.to/lastmile_qr_scan"}, "fusion_lat": 0.0, "name": "58989f8f77df282378dd3a50a4a46a16", "bike_id": "58989f8f77df282378dd3a50a4a46a16", "is_disabled": 0, "type": "electric_scooter", "lat": 38.91810383333333, "lon": -77.03122066666667, "is_reserved": 0, "fusion_lon": 0.0}, {"rental_uris": {"ios": "https://dc.lft.to/lastmile_qr_scan", "android": "https://dc.lft.to/lastmile_qr_scan"}, "fusion_lat": 0.0, "name": "5ac3b89b5a4dc5d394d937d0b01d289e", "bike_id": "5ac3b89b5a4dc5d394d937d0b01d289e", "is_disabled": 0, "type": "electric_scooter", "lat": 38.9205625, "lon": -77.032987, "is_reserved": 0, "fusion_lon": 0.0}, {"rental_uris": {"ios": "https://dc.lft.to/lastmile_qr_scan", "android": "https://dc.lft.to/lastmile_qr_scan"}, "fusion_lat": 0.0, "name": "f933831eb9f8db51c4f8fdbafd68b874", "bike_id": "f933831eb9f8db51c4f8fdbafd68b874", "is_disabled": 0, "type": "electric_scooter", "lat": 38.9147145, "lon": -77.02560183333334, "is_reserved": 0, "fusion_lon": 0.0}, {"rental_uris": {"ios": "https://dc.lft.to/lastmile_qr_scan", "android": "https://dc.lft.to/lastmile_qr_scan"}, "fusion_lat": 0.0, "name": "6fe98c4bce780c17659ec5c84f09b9fc", "bike_id": "6fe98c4bce780c17659ec5c84f09b9fc", "is_disabled": 0, "type": "electric_scooter", "lat": 38.92140583333333, "lon": -77.043463, "is_reserved": 0, "fusion_lon": 0.0}, {"rental_uris": {"ios": "https://dc.lft.to/lastmile_qr_scan", "android": "https://dc.lft.to/lastmile_qr_scan"}, "fusion_lat": 0.0, "name": "75e7d7da8e413356b4b221d6a28489b6", "bike_id": "75e7d7da8e413356b4b221d6a28489b6", "is_disabled": 0, "type": "electric_scooter", "lat": 38.926138333333334, "lon": -77.0216275, "is_reserved": 0, "fusion_lon": 0.0}, {"rental_uris": {"ios": "https://dc.lft.to/lastmile_qr_scan", "android": "https://dc.lft.to/lastmile_qr_scan"}, "fusion_lat": 0.0, "name": "6525aa565b91ae4894a84cfc01aa71a0", "bike_id": "6525aa565b91ae4894a84cfc01aa71a0", "is_disabled": 0, "type": "electric_scooter", "lat": 38.90621733333333, "lon": -77.02180316666667, "is_reserved": 0, "fusion_lon": 0.0}, {"rental_uris": {"ios": "https://dc.lft.to/lastmile_qr_scan", "android": "https://dc.lft.to/lastmile_qr_scan"}, "fusion_lat": 0.0, "name": "e4904f32b1a327ff74960889242ff405", "bike_id": "e4904f32b1a327ff74960889242ff405", "is_disabled": 0, "type": "electric_scooter", "lat": 38.90590516666666, "lon": -77.0059995, "is_reserved": 0, "fusion_lon": 0.0}, {"rental_uris": {"ios": "https://dc.lft.to/lastmile_qr_scan", "android": "https://dc.lft.to/lastmile_qr_scan"}, "fusion_lat": 0.0, "name": "618b49f8d5003b5e2f4f7eea0c1bd549", "bike_id": "618b49f8d5003b5e2f4f7eea0c1bd549", "is_disabled": 0, "type": "electric_scooter", "lat": 38.93957783333333, "lon": -77.0276975, "is_reserved": 0, "fusion_lon": 0.0}, {"rental_uris": {"ios": "https://dc.lft.to/lastmile_qr_scan", "android": "https://dc.lft.to/lastmile_qr_scan"}, "fusion_lat": 0.0, "name": "b2a5cd8855ddbaad2852b9a036565041", "bike_id": "b2a5cd8855ddbaad2852b9a036565041", "is_disabled": 0, "type": "electric_scooter", "lat": 38.909733333333335, "lon": -77.026972, "is_reserved": 0, "fusion_lon": 0.0}, {"rental_uris": {"ios": "https://dc.lft.to/lastmile_qr_scan", "android": "https://dc.lft.to/lastmile_qr_scan"}, "fusion_lat": 0.0, "name": "f23137a824e3b671dcfbf08903b9e61f", "bike_id": "f23137a824e3b671dcfbf08903b9e61f", "is_disabled": 0, "type": "electric_scooter", "lat": 38.892309, "lon": -77.03179366666667, "is_reserved": 0, "fusion_lon": 0.0}, {"rental_uris": {"ios": "https://dc.lft.to/lastmile_qr_scan", "android": "https://dc.lft.to/lastmile_qr_scan"}, "fusion_lat": 0.0, "name": "6d44a1d30c348def95750a2a3fe6902f", "bike_id": "6d44a1d30c348def95750a2a3fe6902f", "is_disabled": 0, "type": "electric_scooter", "lat": 38.90276033333333, "lon": -77.03867483333333, "is_reserved": 0, "fusion_lon": 0.0}, {"rental_uris": {"ios": "https://dc.lft.to/lastmile_qr_scan", "android": "https://dc.lft.to/lastmile_qr_scan"}, "fusion_lat": 0.0, "name": "425ac2ead9fc461c1ea4d13d8c5b0924", "bike_id": "425ac2ead9fc461c1ea4d13d8c5b0924", "is_disabled": 0, "type": "electric_scooter", "lat": 38.9154935, "lon": -77.0256225, "is_reserved": 0, "fusion_lon": 0.0}, {"rental_uris": {"ios": "https://dc.lft.to/lastmile_qr_scan", "android": "https://dc.lft.to/lastmile_qr_scan"}, "fusion_lat": 0.0, "name": "badbbb38fb380c9bed1ebcca6f471039", "bike_id": "badbbb38fb380c9bed1ebcca6f471039", "is_disabled": 0, "type": "electric_scooter", "lat": 38.903580833333336, "lon": -77.03180183333333, "is_reserved": 0, "fusion_lon": 0.0}, {"rental_uris": {"ios": "https://dc.lft.to/lastmile_qr_scan", "android": "https://dc.lft.to/lastmile_qr_scan"}, "fusion_lat": 0.0, "name": "4aea3f3235f7f6ee2f6e1d366fa3de3d", "bike_id": "4aea3f3235f7f6ee2f6e1d366fa3de3d", "is_disabled": 0, "type": "electric_scooter", "lat": 38.9160145, "lon": -77.02577183333334, "is_reserved": 0, "fusion_lon": 0.0}, {"rental_uris": {"ios": "https://dc.lft.to/lastmile_qr_scan", "android": "https://dc.lft.to/lastmile_qr_scan"}, "fusion_lat": 0.0, "name": "f66df60d24a379fd24852d5023ff3bcf", "bike_id": "f66df60d24a379fd24852d5023ff3bcf", "is_disabled": 0, "type": "electric_scooter", "lat": 38.92526683333333, "lon": -77.05253166666667, "is_reserved": 0, "fusion_lon": 0.0}, {"rental_uris": {"ios": "https://dc.lft.to/lastmile_qr_scan", "android": "https://dc.lft.to/lastmile_qr_scan"}, "fusion_lat": 0.0, "name": "28f4c9923dcbb43cc247e87cf7f0c18d", "bike_id": "28f4c9923dcbb43cc247e87cf7f0c18d", "is_disabled": 0, "type": "electric_scooter", "lat": 38.93578983333333, "lon": -77.03756333333334, "is_reserved": 0, "fusion_lon": 0.0}, {"rental_uris": {"ios": "https://dc.lft.to/lastmile_qr_scan", "android": "https://dc.lft.to/lastmile_qr_scan"}, "fusion_lat": 0.0, "name": "87407f3c2be6dfa0395ebedad06fbe0d", "bike_id": "87407f3c2be6dfa0395ebedad06fbe0d", "is_disabled": 0, "type": "electric_scooter", "lat": 38.92080166666667, "lon": -77.04205533333334, "is_reserved": 0, "fusion_lon": 0.0}, {"rental_uris": {"ios": "https://dc.lft.to/lastmile_qr_scan", "android": "https://dc.lft.to/lastmile_qr_scan"}, "fusion_lat": 0.0, "name": "94d88a7434b43ff43d0f04d41560dc56", "bike_id": "94d88a7434b43ff43d0f04d41560dc56", "is_disabled": 0, "type": "electric_scooter", "lat": 38.90277366666667, "lon": -77.0344295, "is_reserved": 0, "fusion_lon": 0.0}, {"rental_uris": {"ios": "https://dc.lft.to/lastmile_qr_scan", "android": "https://dc.lft.to/lastmile_qr_scan"}, "fusion_lat": 0.0, "name": "8f9ce31abdeadb1230dd55db1dbe6ee6", "bike_id": "8f9ce31abdeadb1230dd55db1dbe6ee6", "is_disabled": 0, "type": "electric_scooter", "lat": 38.93252016666667, "lon": -76.99524666666667, "is_reserved": 0, "fusion_lon": 0.0}, {"rental_uris": {"ios": "https://dc.lft.to/lastmile_qr_scan", "android": "https://dc.lft.to/lastmile_qr_scan"}, "fusion_lat": 0.0, "name": "c3d5922f93821adf05805ee00cb0c7c5", "bike_id": "c3d5922f93821adf05805ee00cb0c7c5", "is_disabled": 0, "type": "electric_scooter", "lat": 38.908121, "lon": -77.03835466666666, "is_reserved": 0, "fusion_lon": 0.0}, {"rental_uris": {"ios": "https://dc.lft.to/lastmile_qr_scan", "android": "https://dc.lft.to/lastmile_qr_scan"}, "fusion_lat": 0.0, "name": "7e21fcb54fe06c673a29909fff165ac8", "bike_id": "7e21fcb54fe06c673a29909fff165ac8", "is_disabled": 0, "type": "electric_bike", "lat": 38.953194833333335, "lon": -77.0157795, "is_reserved": 0, "fusion_lon": 0.0}, {"rental_uris": {"ios": "https://dc.lft.to/lastmile_qr_scan", "android": "https://dc.lft.to/lastmile_qr_scan"}, "fusion_lat": 0.0, "name": "81927b51371649049a25a2a747bc4dca", "bike_id": "81927b51371649049a25a2a747bc4dca", "is_disabled": 0, "type": "electric_scooter", "lat": 38.8811955, "lon": -77.01657533333334, "is_reserved": 0, "fusion_lon": 0.0}, {"rental_uris": {"ios": "https://dc.lft.to/lastmile_qr_scan", "android": "https://dc.lft.to/lastmile_qr_scan"}, "fusion_lat": 0.0, "name": "c04f2d6cf52c7009bcca718ef4f46c8a", "bike_id": "c04f2d6cf52c7009bcca718ef4f46c8a", "is_disabled": 0, "type": "electric_scooter", "lat": 38.921494, "lon": -77.035118, "is_reserved": 0, "fusion_lon": 0.0}, {"rental_uris": {"ios": "https://dc.lft.to/lastmile_qr_scan", "android": "https://dc.lft.to/lastmile_qr_scan"}, "fusion_lat": 0.0, "name": "8f3bee5a0c49156868e06317a5989ee7", "bike_id": "8f3bee5a0c49156868e06317a5989ee7", "is_disabled": 0, "type": "electric_scooter", "lat": 38.876878166666664, "lon": -77.01759, "is_reserved": 0, "fusion_lon": 0.0}, {"rental_uris": {"ios": "https://dc.lft.to/lastmile_qr_scan", "android": "https://dc.lft.to/lastmile_qr_scan"}, "fusion_lat": 0.0, "name": "43eb81d3471027f0d317d990d36512fc", "bike_id": "43eb81d3471027f0d317d990d36512fc", "is_disabled": 0, "type": "electric_scooter", "lat": 38.921659166666664, "lon": -76.993908, "is_reserved": 0, "fusion_lon": 0.0}, {"rental_uris": {"ios": "https://dc.lft.to/lastmile_qr_scan", "android": "https://dc.lft.to/lastmile_qr_scan"}, "fusion_lat": 0.0, "name": "a8bd8a61f1a89ed7fa227d53ed94fb87", "bike_id": "a8bd8a61f1a89ed7fa227d53ed94fb87", "is_disabled": 0, "type": "electric_scooter", "lat": 38.92261466666667, "lon": -77.04026516666667, "is_reserved": 0, "fusion_lon": 0.0}, {"rental_uris": {"ios": "https://dc.lft.to/lastmile_qr_scan", "android": "https://dc.lft.to/lastmile_qr_scan"}, "fusion_lat": 0.0, "name": "fa7a7f1c02a2d25891ae0acce81e536b", "bike_id": "fa7a7f1c02a2d25891ae0acce81e536b", "is_disabled": 0, "type": "electric_scooter", "lat": 38.91758633333333, "lon": -77.03209733333334, "is_reserved": 0, "fusion_lon": 0.0}, {"rental_uris": {"ios": "https://dc.lft.to/lastmile_qr_scan", "android": "https://dc.lft.to/lastmile_qr_scan"}, "fusion_lat": 0.0, "name": "75c044dab43ced71b8c8c60ada503b44", "bike_id": "75c044dab43ced71b8c8c60ada503b44", "is_disabled": 0, "type": "electric_bike", "lat": 38.81936416666667, "lon": -77.00205566666666, "is_reserved": 0, "fusion_lon": 0.0}, {"rental_uris": {"ios": "https://dc.lft.to/lastmile_qr_scan", "android": "https://dc.lft.to/lastmile_qr_scan"}, "fusion_lat": 0.0, "name": "e5516630687fbfa20aa19c0f86455012", "bike_id": "e5516630687fbfa20aa19c0f86455012", "is_disabled": 0, "type": "electric_scooter", "lat": 38.926436, "lon": -77.02516766666666, "is_reserved": 0, "fusion_lon": 0.0}, {"rental_uris": {"ios": "https://dc.lft.to/lastmile_qr_scan", "android": "https://dc.lft.to/lastmile_qr_scan"}, "fusion_lat": 0.0, "name": "90f33dd970df801a99482944cc124b24", "bike_id": "90f33dd970df801a99482944cc124b24", "is_disabled": 0, "type": "electric_bike", "lat": 38.804992666666664, "lon": -77.0413165, "is_reserved": 0, "fusion_lon": 0.0}, {"rental_uris": {"ios": "https://dc.lft.to/lastmile_qr_scan", "android": "https://dc.lft.to/lastmile_qr_scan"}, "fusion_lat": 0.0, "name": "bb8510ac245c976bcfeee56a8421dc1d", "bike_id": "bb8510ac245c976bcfeee56a8421dc1d", "is_disabled": 0, "type": "electric_scooter", "lat": 38.900234166666664, "lon": -77.00691966666666, "is_reserved": 0, "fusion_lon": 0.0}, {"rental_uris": {"ios": "https://dc.lft.to/lastmile_qr_scan", "android": "https://dc.lft.to/lastmile_qr_scan"}, "fusion_lat": 0.0, "name": "7a5bf85741271298a511d2a339463083", "bike_id": "7a5bf85741271298a511d2a339463083", "is_disabled": 0, "type": "electric_scooter", "lat": 38.90588266666666, "lon": -77.04118166666666, "is_reserved": 0, "fusion_lon": 0.0}, {"rental_uris": {"ios": "https://dc.lft.to/lastmile_qr_scan", "android": "https://dc.lft.to/lastmile_qr_scan"}, "fusion_lat": 0.0, "name": "1c20ba853fac51bc6c82415301687fa0", "bike_id": "1c20ba853fac51bc6c82415301687fa0", "is_disabled": 0, "type": "electric_scooter", "lat": 38.89216416666667, "lon": -77.04366816666666, "is_reserved": 0, "fusion_lon": 0.0}, {"rental_uris": {"ios": "https://dc.lft.to/lastmile_qr_scan", "android": "https://dc.lft.to/lastmile_qr_scan"}, "fusion_lat": 0.0, "name": "1c2cf1ba022b6055884533d5622ba13d", "bike_id": "1c2cf1ba022b6055884533d5622ba13d", "is_disabled": 0, "type": "electric_scooter", "lat": 38.91744416666667, "lon": -77.02382466666667, "is_reserved": 0, "fusion_lon": 0.0}, {"rental_uris": {"ios": "https://dc.lft.to/lastmile_qr_scan", "android": "https://dc.lft.to/lastmile_qr_scan"}, "fusion_lat": 0.0, "name": "8f77f00bbdcb4d332e9f678a555d6a5d", "bike_id": "8f77f00bbdcb4d332e9f678a555d6a5d", "is_disabled": 0, "type": "electric_scooter", "lat": 38.9117885, "lon": -77.04843816666667, "is_reserved": 0, "fusion_lon": 0.0}, {"rental_uris": {"ios": "https://dc.lft.to/lastmile_qr_scan", "android": "https://dc.lft.to/lastmile_qr_scan"}, "fusion_lat": 0.0, "name": "9948db767d8732c7d5d4128e06982baf", "bike_id": "9948db767d8732c7d5d4128e06982baf", "is_disabled": 0, "type": "electric_scooter", "lat": 38.9154565, "lon": -77.0230365, "is_reserved": 0, "fusion_lon": 0.0}, {"rental_uris": {"ios": "https://dc.lft.to/lastmile_qr_scan", "android": "https://dc.lft.to/lastmile_qr_scan"}, "fusion_lat": 0.0, "name": "5b884d0f25fe0440055c7cd87dc9f5ce", "bike_id": "5b884d0f25fe0440055c7cd87dc9f5ce", "is_disabled": 0, "type": "electric_scooter", "lat": 38.92873083333333, "lon": -77.0323265, "is_reserved": 0, "fusion_lon": 0.0}, {"rental_uris": {"ios": "https://dc.lft.to/lastmile_qr_scan", "android": "https://dc.lft.to/lastmile_qr_scan"}, "fusion_lat": 0.0, "name": "7cf556af3783a7ccb700403a64f762c4", "bike_id": "7cf556af3783a7ccb700403a64f762c4", "is_disabled": 0, "type": "electric_scooter", "lat": 38.88677833333333, "lon": -77.011903, "is_reserved": 0, "fusion_lon": 0.0}, {"rental_uris": {"ios": "https://dc.lft.to/lastmile_qr_scan", "android": "https://dc.lft.to/lastmile_qr_scan"}, "fusion_lat": 0.0, "name": "c5aecde4dcbe22379f3a0b1cb6456b92", "bike_id": "c5aecde4dcbe22379f3a0b1cb6456b92", "is_disabled": 0, "type": "electric_scooter", "lat": 38.92138583333333, "lon": -77.041366, "is_reserved": 0, "fusion_lon": 0.0}, {"rental_uris": {"ios": "https://dc.lft.to/lastmile_qr_scan", "android": "https://dc.lft.to/lastmile_qr_scan"}, "fusion_lat": 0.0, "name": "352716b259a0a8bc9445242e2b523405", "bike_id": "352716b259a0a8bc9445242e2b523405", "is_disabled": 0, "type": "electric_scooter", "lat": 38.9083815, "lon": -77.0549545, "is_reserved": 0, "fusion_lon": 0.0}, {"rental_uris": {"ios": "https://dc.lft.to/lastmile_qr_scan", "android": "https://dc.lft.to/lastmile_qr_scan"}, "fusion_lat": 0.0, "name": "73fc1bb3ddcac730921bbac9cb22ed81", "bike_id": "73fc1bb3ddcac730921bbac9cb22ed81", "is_disabled": 0, "type": "electric_scooter", "lat": 38.9073075, "lon": -77.00332366666666, "is_reserved": 0, "fusion_lon": 0.0}, {"rental_uris": {"ios": "https://dc.lft.to/lastmile_qr_scan", "android": "https://dc.lft.to/lastmile_qr_scan"}, "fusion_lat": 0.0, "name": "a9ce4936b211f5531cf9f7d83d95e8af", "bike_id": "a9ce4936b211f5531cf9f7d83d95e8af", "is_disabled": 0, "type": "electric_scooter", "lat": 38.9061605, "lon": -77.02596966666667, "is_reserved": 0, "fusion_lon": 0.0}, {"rental_uris": {"ios": "https://dc.lft.to/lastmile_qr_scan", "android": "https://dc.lft.to/lastmile_qr_scan"}, "fusion_lat": 0.0, "name": "2beec667abce2c2692ef135bb5ffe73a", "bike_id": "2beec667abce2c2692ef135bb5ffe73a", "is_disabled": 0, "type": "electric_scooter", "lat": 38.895001666666666, "lon": -76.94879016666667, "is_reserved": 0, "fusion_lon": 0.0}, {"rental_uris": {"ios": "https://dc.lft.to/lastmile_qr_scan", "android": "https://dc.lft.to/lastmile_qr_scan"}, "fusion_lat": 0.0, "name": "ec3535509c3fd49a4049a140c9af7187", "bike_id": "ec3535509c3fd49a4049a140c9af7187", "is_disabled": 0, "type": "electric_scooter", "lat": 38.907268333333334, "lon": -77.012135, "is_reserved": 0, "fusion_lon": 0.0}, {"rental_uris": {"ios": "https://dc.lft.to/lastmile_qr_scan", "android": "https://dc.lft.to/lastmile_qr_scan"}, "fusion_lat": 0.0, "name": "1b7900ccb90f18acc2e2426263330ed9", "bike_id": "1b7900ccb90f18acc2e2426263330ed9", "is_disabled": 0, "type": "electric_scooter", "lat": 38.919251, "lon": -77.03179116666666, "is_reserved": 0, "fusion_lon": 0.0}, {"rental_uris": {"ios": "https://dc.lft.to/lastmile_qr_scan", "android": "https://dc.lft.to/lastmile_qr_scan"}, "fusion_lat": 0.0, "name": "de7d2cd954ce12711c06062c72be532e", "bike_id": "de7d2cd954ce12711c06062c72be532e", "is_disabled": 0, "type": "electric_bike", "lat": 38.95267916666667, "lon": -77.06987966666667, "is_reserved": 0, "fusion_lon": 0.0}, {"rental_uris": {"ios": "https://dc.lft.to/lastmile_qr_scan", "android": "https://dc.lft.to/lastmile_qr_scan"}, "fusion_lat": 0.0, "name": "d909a9bc162fb9ac1a9db2282a5279f9", "bike_id": "d909a9bc162fb9ac1a9db2282a5279f9", "is_disabled": 0, "type": "electric_scooter", "lat": 38.907769333333334, "lon": -77.0426905, "is_reserved": 0, "fusion_lon": 0.0}, {"rental_uris": {"ios": "https://dc.lft.to/lastmile_qr_scan", "android": "https://dc.lft.to/lastmile_qr_scan"}, "fusion_lat": 0.0, "name": "a53d883adf7c53c2ea970ae67db8b148", "bike_id": "a53d883adf7c53c2ea970ae67db8b148", "is_disabled": 0, "type": "electric_scooter", "lat": 38.898436, "lon": -76.94633783333333, "is_reserved": 0, "fusion_lon": 0.0}, {"rental_uris": {"ios": "https://dc.lft.to/lastmile_qr_scan", "android": "https://dc.lft.to/lastmile_qr_scan"}, "fusion_lat": 0.0, "name": "361d5fd021033c26ca5bad4ed626e9ef", "bike_id": "361d5fd021033c26ca5bad4ed626e9ef", "is_disabled": 0, "type": "electric_bike", "lat": 38.893531, "lon": -77.1873995, "is_reserved": 0, "fusion_lon": 0.0}, {"rental_uris": {"ios": "https://dc.lft.to/lastmile_qr_scan", "android": "https://dc.lft.to/lastmile_qr_scan"}, "fusion_lat": 0.0, "name": "6ca68e903f94e16a02c863a395d2afbc", "bike_id": "6ca68e903f94e16a02c863a395d2afbc", "is_disabled": 0, "type": "electric_scooter", "lat": 38.90962616666667, "lon": -77.03277466666667, "is_reserved": 0, "fusion_lon": 0.0}, {"rental_uris": {"ios": "https://dc.lft.to/lastmile_qr_scan", "android": "https://dc.lft.to/lastmile_qr_scan"}, "fusion_lat": 0.0, "name": "21516db36114ca9c0d11d7428a274748", "bike_id": "21516db36114ca9c0d11d7428a274748", "is_disabled": 0, "type": "electric_scooter", "lat": 38.9360555, "lon": -77.05858533333334, "is_reserved": 0, "fusion_lon": 0.0}, {"rental_uris": {"ios": "https://dc.lft.to/lastmile_qr_scan", "android": "https://dc.lft.to/lastmile_qr_scan"}, "fusion_lat": 0.0, "name": "93ec919f73751d16b0cfc80927fca76d", "bike_id": "93ec919f73751d16b0cfc80927fca76d", "is_disabled": 0, "type": "electric_scooter", "lat": 38.899339, "lon": -77.03291566666667, "is_reserved": 0, "fusion_lon": 0.0}, {"rental_uris": {"ios": "https://dc.lft.to/lastmile_qr_scan", "android": "https://dc.lft.to/lastmile_qr_scan"}, "fusion_lat": 0.0, "name": "77e88d42815d28770f7d3e7aa9f571e8", "bike_id": "77e88d42815d28770f7d3e7aa9f571e8", "is_disabled": 0, "type": "electric_scooter", "lat": 38.881432333333336, "lon": -77.013153, "is_reserved": 0, "fusion_lon": 0.0}, {"rental_uris": {"ios": "https://dc.lft.to/lastmile_qr_scan", "android": "https://dc.lft.to/lastmile_qr_scan"}, "fusion_lat": 0.0, "name": "b38f2588b2fc20a47ffda5bbab002b61", "bike_id": "b38f2588b2fc20a47ffda5bbab002b61", "is_disabled": 0, "type": "electric_scooter", "lat": 38.90957566666667, "lon": -77.044906, "is_reserved": 0, "fusion_lon": 0.0}, {"rental_uris": {"ios": "https://dc.lft.to/lastmile_qr_scan", "android": "https://dc.lft.to/lastmile_qr_scan"}, "fusion_lat": 0.0, "name": "667f733fc3c72184b4489635e035ab71", "bike_id": "667f733fc3c72184b4489635e035ab71", "is_disabled": 0, "type": "electric_scooter", "lat": 38.932369, "lon": -77.038559, "is_reserved": 0, "fusion_lon": 0.0}, {"rental_uris": {"ios": "https://dc.lft.to/lastmile_qr_scan", "android": "https://dc.lft.to/lastmile_qr_scan"}, "fusion_lat": 0.0, "name": "5df741dcdea05196d1972f66dea87ff9", "bike_id": "5df741dcdea05196d1972f66dea87ff9", "is_disabled": 0, "type": "electric_scooter", "lat": 38.91723833333333, "lon": -77.03662233333333, "is_reserved": 0, "fusion_lon": 0.0}, {"rental_uris": {"ios": "https://dc.lft.to/lastmile_qr_scan", "android": "https://dc.lft.to/lastmile_qr_scan"}, "fusion_lat": 0.0, "name": "4fa0ca473c3bd1cca66f99e153ab87a9", "bike_id": "4fa0ca473c3bd1cca66f99e153ab87a9", "is_disabled": 0, "type": "electric_scooter", "lat": 38.9155975, "lon": -77.03871283333334, "is_reserved": 0, "fusion_lon": 0.0}, {"rental_uris": {"ios": "https://dc.lft.to/lastmile_qr_scan", "android": "https://dc.lft.to/lastmile_qr_scan"}, "fusion_lat": 0.0, "name": "d28a25acf2c5b0b5ab267cf8adb966e9", "bike_id": "d28a25acf2c5b0b5ab267cf8adb966e9", "is_disabled": 0, "type": "electric_scooter", "lat": 38.892193166666665, "lon": -77.0436375, "is_reserved": 0, "fusion_lon": 0.0}, {"rental_uris": {"ios": "https://dc.lft.to/lastmile_qr_scan", "android": "https://dc.lft.to/lastmile_qr_scan"}, "fusion_lat": 0.0, "name": "5ec7a9f20b947f38eb18ccd4ce8c12a7", "bike_id": "5ec7a9f20b947f38eb18ccd4ce8c12a7", "is_disabled": 0, "type": "electric_bike", "lat": 39.015686, "lon": -77.04420866666666, "is_reserved": 0, "fusion_lon": 0.0}, {"rental_uris": {"ios": "https://dc.lft.to/lastmile_qr_scan", "android": "https://dc.lft.to/lastmile_qr_scan"}, "fusion_lat": 0.0, "name": "99637d85fa5c8a7b70743faef126ca93", "bike_id": "99637d85fa5c8a7b70743faef126ca93", "is_disabled": 0, "type": "electric_scooter", "lat": 38.9001115, "lon": -77.03225733333333, "is_reserved": 0, "fusion_lon": 0.0}, {"rental_uris": {"ios": "https://dc.lft.to/lastmile_qr_scan", "android": "https://dc.lft.to/lastmile_qr_scan"}, "fusion_lat": 0.0, "name": "9fe0c5fb333b64181c3506a8c8bba8ea", "bike_id": "9fe0c5fb333b64181c3506a8c8bba8ea", "is_disabled": 0, "type": "electric_scooter", "lat": 38.91774183333333, "lon": -77.023393, "is_reserved": 0, "fusion_lon": 0.0}, {"rental_uris": {"ios": "https://dc.lft.to/lastmile_qr_scan", "android": "https://dc.lft.to/lastmile_qr_scan"}, "fusion_lat": 0.0, "name": "d2bc2cb0c310b5914741436448a4320c", "bike_id": "d2bc2cb0c310b5914741436448a4320c", "is_disabled": 0, "type": "electric_bike", "lat": 39.030493166666666, "lon": -77.0948225, "is_reserved": 0, "fusion_lon": 0.0}, {"rental_uris": {"ios": "https://dc.lft.to/lastmile_qr_scan", "android": "https://dc.lft.to/lastmile_qr_scan"}, "fusion_lat": 0.0, "name": "922d8616fdcc55dc4241a759b28d6fd0", "bike_id": "922d8616fdcc55dc4241a759b28d6fd0", "is_disabled": 0, "type": "electric_scooter", "lat": 38.921406166666664, "lon": -77.07304366666666, "is_reserved": 0, "fusion_lon": 0.0}, {"rental_uris": {"ios": "https://dc.lft.to/lastmile_qr_scan", "android": "https://dc.lft.to/lastmile_qr_scan"}, "fusion_lat": 0.0, "name": "72b9cc58390192802404a12692c0f315", "bike_id": "72b9cc58390192802404a12692c0f315", "is_disabled": 0, "type": "electric_scooter", "lat": 38.91737416666667, "lon": -77.0238945, "is_reserved": 0, "fusion_lon": 0.0}, {"rental_uris": {"ios": "https://dc.lft.to/lastmile_qr_scan", "android": "https://dc.lft.to/lastmile_qr_scan"}, "fusion_lat": 0.0, "name": "0d4f229ce7d2467626334f9eff7d2ebf", "bike_id": "0d4f229ce7d2467626334f9eff7d2ebf", "is_disabled": 0, "type": "electric_scooter", "lat": 38.90347033333333, "lon": -77.046747, "is_reserved": 0, "fusion_lon": 0.0}, {"rental_uris": {"ios": "https://dc.lft.to/lastmile_qr_scan", "android": "https://dc.lft.to/lastmile_qr_scan"}, "fusion_lat": 0.0, "name": "f83c22d95d6d679f316a7495e91326b4", "bike_id": "f83c22d95d6d679f316a7495e91326b4", "is_disabled": 0, "type": "electric_scooter", "lat": 38.904105333333334, "lon": -76.97334316666667, "is_reserved": 0, "fusion_lon": 0.0}, {"rental_uris": {"ios": "https://dc.lft.to/lastmile_qr_scan", "android": "https://dc.lft.to/lastmile_qr_scan"}, "fusion_lat": 0.0, "name": "58d8c99996e6455c6bebc4c37f22981a", "bike_id": "58d8c99996e6455c6bebc4c37f22981a", "is_disabled": 0, "type": "electric_scooter", "lat": 38.9247615, "lon": -77.03559116666666, "is_reserved": 0, "fusion_lon": 0.0}, {"rental_uris": {"ios": "https://dc.lft.to/lastmile_qr_scan", "android": "https://dc.lft.to/lastmile_qr_scan"}, "fusion_lat": 0.0, "name": "4411f74bc1d31bafd4e1b52b05efe755", "bike_id": "4411f74bc1d31bafd4e1b52b05efe755", "is_disabled": 0, "type": "electric_scooter", "lat": 38.87568866666667, "lon": -77.0208525, "is_reserved": 0, "fusion_lon": 0.0}, {"rental_uris": {"ios": "https://dc.lft.to/lastmile_qr_scan", "android": "https://dc.lft.to/lastmile_qr_scan"}, "fusion_lat": 0.0, "name": "4985930198634006513373e7170da572", "bike_id": "4985930198634006513373e7170da572", "is_disabled": 0, "type": "electric_scooter", "lat": 38.913409, "lon": -77.04884933333334, "is_reserved": 0, "fusion_lon": 0.0}, {"rental_uris": {"ios": "https://dc.lft.to/lastmile_qr_scan", "android": "https://dc.lft.to/lastmile_qr_scan"}, "fusion_lat": 0.0, "name": "4ea8483219918354df6d4f948247014d", "bike_id": "4ea8483219918354df6d4f948247014d", "is_disabled": 0, "type": "electric_scooter", "lat": 38.88427683333333, "lon": -77.03053466666667, "is_reserved": 0, "fusion_lon": 0.0}, {"rental_uris": {"ios": "https://dc.lft.to/lastmile_qr_scan", "android": "https://dc.lft.to/lastmile_qr_scan"}, "fusion_lat": 0.0, "name": "babffa8ca0d9489f0702231eba7dad8f", "bike_id": "babffa8ca0d9489f0702231eba7dad8f", "is_disabled": 0, "type": "electric_scooter", "lat": 38.91811716666667, "lon": -77.02718183333333, "is_reserved": 0, "fusion_lon": 0.0}, {"rental_uris": {"ios": "https://dc.lft.to/lastmile_qr_scan", "android": "https://dc.lft.to/lastmile_qr_scan"}, "fusion_lat": 0.0, "name": "c6809348d2d7caafbc1b214d939aad67", "bike_id": "c6809348d2d7caafbc1b214d939aad67", "is_disabled": 0, "type": "electric_scooter", "lat": 38.9039405, "lon": -76.98942183333334, "is_reserved": 0, "fusion_lon": 0.0}, {"rental_uris": {"ios": "https://dc.lft.to/lastmile_qr_scan", "android": "https://dc.lft.to/lastmile_qr_scan"}, "fusion_lat": 0.0, "name": "c8f3c791fc9b1f64126b8ea72a873acd", "bike_id": "c8f3c791fc9b1f64126b8ea72a873acd", "is_disabled": 0, "type": "electric_scooter", "lat": 38.893972833333336, "lon": -77.0500365, "is_reserved": 0, "fusion_lon": 0.0}, {"rental_uris": {"ios": "https://dc.lft.to/lastmile_qr_scan", "android": "https://dc.lft.to/lastmile_qr_scan"}, "fusion_lat": 0.0, "name": "f28e440015345d7733f75439d80abe1d", "bike_id": "f28e440015345d7733f75439d80abe1d", "is_disabled": 0, "type": "electric_scooter", "lat": 38.916809, "lon": -77.0297415, "is_reserved": 0, "fusion_lon": 0.0}, {"rental_uris": {"ios": "https://dc.lft.to/lastmile_qr_scan", "android": "https://dc.lft.to/lastmile_qr_scan"}, "fusion_lat": 0.0, "name": "73f2a38d768a1c4c3d6f0632e44b1a7f", "bike_id": "73f2a38d768a1c4c3d6f0632e44b1a7f", "is_disabled": 0, "type": "electric_scooter", "lat": 38.920603666666665, "lon": -76.99525733333333, "is_reserved": 0, "fusion_lon": 0.0}, {"rental_uris": {"ios": "https://dc.lft.to/lastmile_qr_scan", "android": "https://dc.lft.to/lastmile_qr_scan"}, "fusion_lat": 0.0, "name": "199860320da6e716364add5d5a1f9419", "bike_id": "199860320da6e716364add5d5a1f9419", "is_disabled": 0, "type": "electric_scooter", "lat": 38.87794616666667, "lon": -77.00119516666666, "is_reserved": 0, "fusion_lon": 0.0}, {"rental_uris": {"ios": "https://dc.lft.to/lastmile_qr_scan", "android": "https://dc.lft.to/lastmile_qr_scan"}, "fusion_lat": 0.0, "name": "3be9a091afacd8f7f575f6737ee750eb", "bike_id": "3be9a091afacd8f7f575f6737ee750eb", "is_disabled": 0, "type": "electric_scooter", "lat": 38.88742333333333, "lon": -77.0213035, "is_reserved": 0, "fusion_lon": 0.0}, {"rental_uris": {"ios": "https://dc.lft.to/lastmile_qr_scan", "android": "https://dc.lft.to/lastmile_qr_scan"}, "fusion_lat": 0.0, "name": "1cd53026cbf492b7698e9db16bbcdcca", "bike_id": "1cd53026cbf492b7698e9db16bbcdcca", "is_disabled": 0, "type": "electric_scooter", "lat": 38.90668333333333, "lon": -77.02707633333333, "is_reserved": 0, "fusion_lon": 0.0}, {"rental_uris": {"ios": "https://dc.lft.to/lastmile_qr_scan", "android": "https://dc.lft.to/lastmile_qr_scan"}, "fusion_lat": 0.0, "name": "6756d774f744d87947e73997d068137b", "bike_id": "6756d774f744d87947e73997d068137b", "is_disabled": 0, "type": "electric_scooter", "lat": 38.900351666666666, "lon": -76.98837933333333, "is_reserved": 0, "fusion_lon": 0.0}, {"rental_uris": {"ios": "https://dc.lft.to/lastmile_qr_scan", "android": "https://dc.lft.to/lastmile_qr_scan"}, "fusion_lat": 0.0, "name": "54708ac1d1cfb6b75d3f6e47621d42e2", "bike_id": "54708ac1d1cfb6b75d3f6e47621d42e2", "is_disabled": 0, "type": "electric_bike", "lat": 38.928931166666665, "lon": -77.10599316666666, "is_reserved": 0, "fusion_lon": 0.0}, {"rental_uris": {"ios": "https://dc.lft.to/lastmile_qr_scan", "android": "https://dc.lft.to/lastmile_qr_scan"}, "fusion_lat": 0.0, "name": "b20e07526e4aa8f795715f0e117a7a14", "bike_id": "b20e07526e4aa8f795715f0e117a7a14", "is_disabled": 0, "type": "electric_scooter", "lat": 38.887767, "lon": -76.95533483333334, "is_reserved": 0, "fusion_lon": 0.0}, {"rental_uris": {"ios": "https://dc.lft.to/lastmile_qr_scan", "android": "https://dc.lft.to/lastmile_qr_scan"}, "fusion_lat": 0.0, "name": "bfe48a8fc20c3aec08e1f7b9a14b7efe", "bike_id": "bfe48a8fc20c3aec08e1f7b9a14b7efe", "is_disabled": 0, "type": "electric_scooter", "lat": 38.900996666666664, "lon": -77.03382316666666, "is_reserved": 0, "fusion_lon": 0.0}, {"rental_uris": {"ios": "https://dc.lft.to/lastmile_qr_scan", "android": "https://dc.lft.to/lastmile_qr_scan"}, "fusion_lat": 0.0, "name": "67c7832f8adc13ecd3c10f25093ebd9f", "bike_id": "67c7832f8adc13ecd3c10f25093ebd9f", "is_disabled": 0, "type": "electric_scooter", "lat": 38.92441866666667, "lon": -77.04028416666667, "is_reserved": 0, "fusion_lon": 0.0}, {"rental_uris": {"ios": "https://dc.lft.to/lastmile_qr_scan", "android": "https://dc.lft.to/lastmile_qr_scan"}, "fusion_lat": 0.0, "name": "4e5388180147e3752fa891e5135ea789", "bike_id": "4e5388180147e3752fa891e5135ea789", "is_disabled": 0, "type": "electric_scooter", "lat": 38.844269833333335, "lon": -76.997774, "is_reserved": 0, "fusion_lon": 0.0}, {"rental_uris": {"ios": "https://dc.lft.to/lastmile_qr_scan", "android": "https://dc.lft.to/lastmile_qr_scan"}, "fusion_lat": 0.0, "name": "06dba33ed4b2120030079f96318a2a5e", "bike_id": "06dba33ed4b2120030079f96318a2a5e", "is_disabled": 0, "type": "electric_scooter", "lat": 38.89737683333333, "lon": -77.02627566666666, "is_reserved": 0, "fusion_lon": 0.0}, {"rental_uris": {"ios": "https://dc.lft.to/lastmile_qr_scan", "android": "https://dc.lft.to/lastmile_qr_scan"}, "fusion_lat": 0.0, "name": "02320cba1c128fe9454ed03ec59d3ca4", "bike_id": "02320cba1c128fe9454ed03ec59d3ca4", "is_disabled": 0, "type": "electric_scooter", "lat": 38.88430783333333, "lon": -76.95752983333334, "is_reserved": 0, "fusion_lon": 0.0}, {"rental_uris": {"ios": "https://dc.lft.to/lastmile_qr_scan", "android": "https://dc.lft.to/lastmile_qr_scan"}, "fusion_lat": 0.0, "name": "46bdbdfe495abb9081bddd77b1e0f718", "bike_id": "46bdbdfe495abb9081bddd77b1e0f718", "is_disabled": 0, "type": "electric_scooter", "lat": 38.914127, "lon": -77.04048483333334, "is_reserved": 0, "fusion_lon": 0.0}, {"rental_uris": {"ios": "https://dc.lft.to/lastmile_qr_scan", "android": "https://dc.lft.to/lastmile_qr_scan"}, "fusion_lat": 0.0, "name": "c9e821c2b6eac2136c113f1c8345e0a8", "bike_id": "c9e821c2b6eac2136c113f1c8345e0a8", "is_disabled": 0, "type": "electric_scooter", "lat": 38.92317516666667, "lon": -77.04205683333333, "is_reserved": 0, "fusion_lon": 0.0}, {"rental_uris": {"ios": "https://dc.lft.to/lastmile_qr_scan", "android": "https://dc.lft.to/lastmile_qr_scan"}, "fusion_lat": 0.0, "name": "f387aec6c339a6ce03a97028714203d0", "bike_id": "f387aec6c339a6ce03a97028714203d0", "is_disabled": 0, "type": "electric_scooter", "lat": 38.91706416666667, "lon": -77.01136033333333, "is_reserved": 0, "fusion_lon": 0.0}, {"rental_uris": {"ios": "https://dc.lft.to/lastmile_qr_scan", "android": "https://dc.lft.to/lastmile_qr_scan"}, "fusion_lat": 0.0, "name": "a4d9e377b3f45d4374c915bacabd42da", "bike_id": "a4d9e377b3f45d4374c915bacabd42da", "is_disabled": 0, "type": "electric_scooter", "lat": 38.91161966666667, "lon": -77.04482766666666, "is_reserved": 0, "fusion_lon": 0.0}, {"rental_uris": {"ios": "https://dc.lft.to/lastmile_qr_scan", "android": "https://dc.lft.to/lastmile_qr_scan"}, "fusion_lat": 0.0, "name": "82da407a54a6c3022dd8a79ba7365b63", "bike_id": "82da407a54a6c3022dd8a79ba7365b63", "is_disabled": 0, "type": "electric_scooter", "lat": 38.905736833333336, "lon": -77.007168, "is_reserved": 0, "fusion_lon": 0.0}, {"rental_uris": {"ios": "https://dc.lft.to/lastmile_qr_scan", "android": "https://dc.lft.to/lastmile_qr_scan"}, "fusion_lat": 0.0, "name": "ff5858e38ce41c1d1a710c88c5821027", "bike_id": "ff5858e38ce41c1d1a710c88c5821027", "is_disabled": 0, "type": "electric_scooter", "lat": 38.93021, "lon": -77.05529333333334, "is_reserved": 0, "fusion_lon": 0.0}, {"rental_uris": {"ios": "https://dc.lft.to/lastmile_qr_scan", "android": "https://dc.lft.to/lastmile_qr_scan"}, "fusion_lat": 0.0, "name": "ab99e412086fe5a148bc0aca8cc7cb0e", "bike_id": "ab99e412086fe5a148bc0aca8cc7cb0e", "is_disabled": 0, "type": "electric_scooter", "lat": 38.914677, "lon": -77.01788683333334, "is_reserved": 0, "fusion_lon": 0.0}, {"rental_uris": {"ios": "https://dc.lft.to/lastmile_qr_scan", "android": "https://dc.lft.to/lastmile_qr_scan"}, "fusion_lat": 0.0, "name": "29e599488ff043a600b7193e62eda207", "bike_id": "29e599488ff043a600b7193e62eda207", "is_disabled": 0, "type": "electric_scooter", "lat": 38.90963266666667, "lon": -77.034735, "is_reserved": 0, "fusion_lon": 0.0}, {"rental_uris": {"ios": "https://dc.lft.to/lastmile_qr_scan", "android": "https://dc.lft.to/lastmile_qr_scan"}, "fusion_lat": 0.0, "name": "bcc27473c5e21282f98dd8608ce72b4b", "bike_id": "bcc27473c5e21282f98dd8608ce72b4b", "is_disabled": 0, "type": "electric_scooter", "lat": 38.93358883333333, "lon": -77.0274865, "is_reserved": 0, "fusion_lon": 0.0}, {"rental_uris": {"ios": "https://dc.lft.to/lastmile_qr_scan", "android": "https://dc.lft.to/lastmile_qr_scan"}, "fusion_lat": 0.0, "name": "2dad9f4bc60b9ccf352b8918735de452", "bike_id": "2dad9f4bc60b9ccf352b8918735de452", "is_disabled": 0, "type": "electric_scooter", "lat": 38.905793, "lon": -77.00609033333333, "is_reserved": 0, "fusion_lon": 0.0}, {"rental_uris": {"ios": "https://dc.lft.to/lastmile_qr_scan", "android": "https://dc.lft.to/lastmile_qr_scan"}, "fusion_lat": 0.0, "name": "2bc253306e5f2ae747a67fa636f972c8", "bike_id": "2bc253306e5f2ae747a67fa636f972c8", "is_disabled": 0, "type": "electric_scooter", "lat": 38.923699166666665, "lon": -77.05148033333333, "is_reserved": 0, "fusion_lon": 0.0}, {"rental_uris": {"ios": "https://dc.lft.to/lastmile_qr_scan", "android": "https://dc.lft.to/lastmile_qr_scan"}, "fusion_lat": 0.0, "name": "7fc53e4fd79ecbee796795c93cc8477f", "bike_id": "7fc53e4fd79ecbee796795c93cc8477f", "is_disabled": 0, "type": "electric_scooter", "lat": 38.926302666666665, "lon": -77.03544266666667, "is_reserved": 0, "fusion_lon": 0.0}, {"rental_uris": {"ios": "https://dc.lft.to/lastmile_qr_scan", "android": "https://dc.lft.to/lastmile_qr_scan"}, "fusion_lat": 0.0, "name": "925b329ce17bfe337c5458af3c520dce", "bike_id": "925b329ce17bfe337c5458af3c520dce", "is_disabled": 0, "type": "electric_scooter", "lat": 38.89239583333333, "lon": -77.0466065, "is_reserved": 0, "fusion_lon": 0.0}, {"rental_uris": {"ios": "https://dc.lft.to/lastmile_qr_scan", "android": "https://dc.lft.to/lastmile_qr_scan"}, "fusion_lat": 0.0, "name": "b98fca5885b8b9487e6a08fb61aa256f", "bike_id": "b98fca5885b8b9487e6a08fb61aa256f", "is_disabled": 0, "type": "electric_scooter", "lat": 38.91685316666667, "lon": -77.0228705, "is_reserved": 0, "fusion_lon": 0.0}, {"rental_uris": {"ios": "https://dc.lft.to/lastmile_qr_scan", "android": "https://dc.lft.to/lastmile_qr_scan"}, "fusion_lat": 0.0, "name": "ab26ab0bf99d2c325ec89100d482b5d0", "bike_id": "ab26ab0bf99d2c325ec89100d482b5d0", "is_disabled": 0, "type": "electric_scooter", "lat": 38.936052833333335, "lon": -77.05857566666667, "is_reserved": 0, "fusion_lon": 0.0}, {"rental_uris": {"ios": "https://dc.lft.to/lastmile_qr_scan", "android": "https://dc.lft.to/lastmile_qr_scan"}, "fusion_lat": 0.0, "name": "75241b8363df54127ada70ef7f4eea3d", "bike_id": "75241b8363df54127ada70ef7f4eea3d", "is_disabled": 0, "type": "electric_scooter", "lat": 38.94956, "lon": -77.02721633333333, "is_reserved": 0, "fusion_lon": 0.0}, {"rental_uris": {"ios": "https://dc.lft.to/lastmile_qr_scan", "android": "https://dc.lft.to/lastmile_qr_scan"}, "fusion_lat": 0.0, "name": "b237efd002b154f8ad7f91af6bc95e47", "bike_id": "b237efd002b154f8ad7f91af6bc95e47", "is_disabled": 0, "type": "electric_scooter", "lat": 38.937163166666664, "lon": -77.0241505, "is_reserved": 0, "fusion_lon": 0.0}, {"rental_uris": {"ios": "https://dc.lft.to/lastmile_qr_scan", "android": "https://dc.lft.to/lastmile_qr_scan"}, "fusion_lat": 0.0, "name": "64674a1a2bc20ffcc1a7644e10527ad7", "bike_id": "64674a1a2bc20ffcc1a7644e10527ad7", "is_disabled": 0, "type": "electric_scooter", "lat": 38.94953066666667, "lon": -77.02723383333333, "is_reserved": 0, "fusion_lon": 0.0}, {"rental_uris": {"ios": "https://dc.lft.to/lastmile_qr_scan", "android": "https://dc.lft.to/lastmile_qr_scan"}, "fusion_lat": 0.0, "name": "389ad8c2e1c00b5d273aa97c3c7ab50a", "bike_id": "389ad8c2e1c00b5d273aa97c3c7ab50a", "is_disabled": 0, "type": "electric_bike", "lat": 38.877296666666666, "lon": -76.98108633333334, "is_reserved": 0, "fusion_lon": 0.0}, {"rental_uris": {"ios": "https://dc.lft.to/lastmile_qr_scan", "android": "https://dc.lft.to/lastmile_qr_scan"}, "fusion_lat": 0.0, "name": "6971ddc83f5eeb750b70a4ec5d93f2a9", "bike_id": "6971ddc83f5eeb750b70a4ec5d93f2a9", "is_disabled": 0, "type": "electric_scooter", "lat": 38.892203, "lon": -77.03164233333334, "is_reserved": 0, "fusion_lon": 0.0}, {"rental_uris": {"ios": "https://dc.lft.to/lastmile_qr_scan", "android": "https://dc.lft.to/lastmile_qr_scan"}, "fusion_lat": 0.0, "name": "9acce790b9b5ebade3da4d9d6d6ba9d8", "bike_id": "9acce790b9b5ebade3da4d9d6d6ba9d8", "is_disabled": 0, "type": "electric_scooter", "lat": 38.892296, "lon": -77.013639, "is_reserved": 0, "fusion_lon": 0.0}, {"rental_uris": {"ios": "https://dc.lft.to/lastmile_qr_scan", "android": "https://dc.lft.to/lastmile_qr_scan"}, "fusion_lat": 0.0, "name": "2f3e0fa8ba556fb004e8adf856487dee", "bike_id": "2f3e0fa8ba556fb004e8adf856487dee", "is_disabled": 0, "type": "electric_scooter", "lat": 38.9031135, "lon": -77.02439433333333, "is_reserved": 0, "fusion_lon": 0.0}, {"rental_uris": {"ios": "https://dc.lft.to/lastmile_qr_scan", "android": "https://dc.lft.to/lastmile_qr_scan"}, "fusion_lat": 0.0, "name": "979af5f3757952016ae43c8c2943039b", "bike_id": "979af5f3757952016ae43c8c2943039b", "is_disabled": 0, "type": "electric_scooter", "lat": 38.91630383333333, "lon": -77.02590166666667, "is_reserved": 0, "fusion_lon": 0.0}, {"rental_uris": {"ios": "https://dc.lft.to/lastmile_qr_scan", "android": "https://dc.lft.to/lastmile_qr_scan"}, "fusion_lat": 0.0, "name": "473de45a214f9b020244495610a2d974", "bike_id": "473de45a214f9b020244495610a2d974", "is_disabled": 0, "type": "electric_scooter", "lat": 38.961674333333335, "lon": -77.02802716666666, "is_reserved": 0, "fusion_lon": 0.0}, {"rental_uris": {"ios": "https://dc.lft.to/lastmile_qr_scan", "android": "https://dc.lft.to/lastmile_qr_scan"}, "fusion_lat": 0.0, "name": "19067fd208be964d34335ae5c431cd8e", "bike_id": "19067fd208be964d34335ae5c431cd8e", "is_disabled": 0, "type": "electric_scooter", "lat": 38.91562866666666, "lon": -77.03142816666667, "is_reserved": 0, "fusion_lon": 0.0}, {"rental_uris": {"ios": "https://dc.lft.to/lastmile_qr_scan", "android": "https://dc.lft.to/lastmile_qr_scan"}, "fusion_lat": 0.0, "name": "a92e13ef05cffef2bcb3f8d277e83ee8", "bike_id": "a92e13ef05cffef2bcb3f8d277e83ee8", "is_disabled": 0, "type": "electric_scooter", "lat": 38.8962925, "lon": -77.031629, "is_reserved": 0, "fusion_lon": 0.0}, {"rental_uris": {"ios": "https://dc.lft.to/lastmile_qr_scan", "android": "https://dc.lft.to/lastmile_qr_scan"}, "fusion_lat": 0.0, "name": "84091175feb548a15ac7c0b40e0e76bc", "bike_id": "84091175feb548a15ac7c0b40e0e76bc", "is_disabled": 0, "type": "electric_bike", "lat": 39.062949, "lon": -77.04981216666667, "is_reserved": 0, "fusion_lon": 0.0}, {"rental_uris": {"ios": "https://dc.lft.to/lastmile_qr_scan", "android": "https://dc.lft.to/lastmile_qr_scan"}, "fusion_lat": 0.0, "name": "c4668c9345bdc2592448cab1d80b0aa2", "bike_id": "c4668c9345bdc2592448cab1d80b0aa2", "is_disabled": 0, "type": "electric_bike", "lat": 38.85766233333333, "lon": -76.98764016666667, "is_reserved": 0, "fusion_lon": 0.0}, {"rental_uris": {"ios": "https://dc.lft.to/lastmile_qr_scan", "android": "https://dc.lft.to/lastmile_qr_scan"}, "fusion_lat": 0.0, "name": "2dccd8cf7a6f9b198c0e744deb08e23b", "bike_id": "2dccd8cf7a6f9b198c0e744deb08e23b", "is_disabled": 0, "type": "electric_scooter", "lat": 38.885137666666665, "lon": -77.00246116666666, "is_reserved": 0, "fusion_lon": 0.0}, {"rental_uris": {"ios": "https://dc.lft.to/lastmile_qr_scan", "android": "https://dc.lft.to/lastmile_qr_scan"}, "fusion_lat": 0.0, "name": "a0c9ee05e657dd0cece4fc2172c92a16", "bike_id": "a0c9ee05e657dd0cece4fc2172c92a16", "is_disabled": 0, "type": "electric_scooter", "lat": 38.906404333333334, "lon": -77.006226, "is_reserved": 0, "fusion_lon": 0.0}, {"rental_uris": {"ios": "https://dc.lft.to/lastmile_qr_scan", "android": "https://dc.lft.to/lastmile_qr_scan"}, "fusion_lat": 0.0, "name": "4c348442cef240c900c3038f78b16d3c", "bike_id": "4c348442cef240c900c3038f78b16d3c", "is_disabled": 0, "type": "electric_scooter", "lat": 38.8669805, "lon": -76.98085933333333, "is_reserved": 0, "fusion_lon": 0.0}, {"rental_uris": {"ios": "https://dc.lft.to/lastmile_qr_scan", "android": "https://dc.lft.to/lastmile_qr_scan"}, "fusion_lat": 0.0, "name": "b5b93e2f0615595cefd2c8e6d598a990", "bike_id": "b5b93e2f0615595cefd2c8e6d598a990", "is_disabled": 0, "type": "electric_scooter", "lat": 38.881210333333335, "lon": -77.01644966666667, "is_reserved": 0, "fusion_lon": 0.0}, {"rental_uris": {"ios": "https://dc.lft.to/lastmile_qr_scan", "android": "https://dc.lft.to/lastmile_qr_scan"}, "fusion_lat": 0.0, "name": "0a57de10c7b097501a57b950ea1a5075", "bike_id": "0a57de10c7b097501a57b950ea1a5075", "is_disabled": 0, "type": "electric_scooter", "lat": 38.926961166666665, "lon": -77.05230783333333, "is_reserved": 0, "fusion_lon": 0.0}, {"rental_uris": {"ios": "https://dc.lft.to/lastmile_qr_scan", "android": "https://dc.lft.to/lastmile_qr_scan"}, "fusion_lat": 0.0, "name": "267e238176f688e27f3d59c1db385253", "bike_id": "267e238176f688e27f3d59c1db385253", "is_disabled": 0, "type": "electric_scooter", "lat": 38.925773666666664, "lon": -77.02570716666666, "is_reserved": 0, "fusion_lon": 0.0}, {"rental_uris": {"ios": "https://dc.lft.to/lastmile_qr_scan", "android": "https://dc.lft.to/lastmile_qr_scan"}, "fusion_lat": 0.0, "name": "b3989360546eb02d3f3e17d74654ad89", "bike_id": "b3989360546eb02d3f3e17d74654ad89", "is_disabled": 0, "type": "electric_scooter", "lat": 38.870734666666664, "lon": -76.96861016666666, "is_reserved": 0, "fusion_lon": 0.0}, {"rental_uris": {"ios": "https://dc.lft.to/lastmile_qr_scan", "android": "https://dc.lft.to/lastmile_qr_scan"}, "fusion_lat": 0.0, "name": "9f58c342bd17609f3a4c6022a068ec47", "bike_id": "9f58c342bd17609f3a4c6022a068ec47", "is_disabled": 0, "type": "electric_scooter", "lat": 38.908537333333335, "lon": -77.04615833333334, "is_reserved": 0, "fusion_lon": 0.0}, {"rental_uris": {"ios": "https://dc.lft.to/lastmile_qr_scan", "android": "https://dc.lft.to/lastmile_qr_scan"}, "fusion_lat": 0.0, "name": "5ee1a71ddd0583bd1e2304acb7bc9806", "bike_id": "5ee1a71ddd0583bd1e2304acb7bc9806", "is_disabled": 0, "type": "electric_scooter", "lat": 38.863586833333336, "lon": -76.9905365, "is_reserved": 0, "fusion_lon": 0.0}, {"rental_uris": {"ios": "https://dc.lft.to/lastmile_qr_scan", "android": "https://dc.lft.to/lastmile_qr_scan"}, "fusion_lat": 0.0, "name": "643d4d0138bdb862621f03c6708df6e8", "bike_id": "643d4d0138bdb862621f03c6708df6e8", "is_disabled": 0, "type": "electric_scooter", "lat": 38.86239783333333, "lon": -76.99493883333334, "is_reserved": 0, "fusion_lon": 0.0}, {"rental_uris": {"ios": "https://dc.lft.to/lastmile_qr_scan", "android": "https://dc.lft.to/lastmile_qr_scan"}, "fusion_lat": 0.0, "name": "6da056003c7db18b9b9c2353c7569f0c", "bike_id": "6da056003c7db18b9b9c2353c7569f0c", "is_disabled": 0, "type": "electric_scooter", "lat": 38.84429766666667, "lon": -76.997812, "is_reserved": 0, "fusion_lon": 0.0}, {"rental_uris": {"ios": "https://dc.lft.to/lastmile_qr_scan", "android": "https://dc.lft.to/lastmile_qr_scan"}, "fusion_lat": 0.0, "name": "c6230aafad7e102b22148dc6ca6d2800", "bike_id": "c6230aafad7e102b22148dc6ca6d2800", "is_disabled": 0, "type": "electric_scooter", "lat": 38.916823, "lon": -77.029703, "is_reserved": 0, "fusion_lon": 0.0}, {"rental_uris": {"ios": "https://dc.lft.to/lastmile_qr_scan", "android": "https://dc.lft.to/lastmile_qr_scan"}, "fusion_lat": 0.0, "name": "7d2d21858920a6abc2ddafe45e97630e", "bike_id": "7d2d21858920a6abc2ddafe45e97630e", "is_disabled": 0, "type": "electric_scooter", "lat": 38.9142885, "lon": -77.028135, "is_reserved": 0, "fusion_lon": 0.0}, {"rental_uris": {"ios": "https://dc.lft.to/lastmile_qr_scan", "android": "https://dc.lft.to/lastmile_qr_scan"}, "fusion_lat": 0.0, "name": "33a438126d2c4df7e79abf5c8b739ed7", "bike_id": "33a438126d2c4df7e79abf5c8b739ed7", "is_disabled": 0, "type": "electric_scooter", "lat": 38.91689783333333, "lon": -77.02598516666667, "is_reserved": 0, "fusion_lon": 0.0}, {"rental_uris": {"ios": "https://dc.lft.to/lastmile_qr_scan", "android": "https://dc.lft.to/lastmile_qr_scan"}, "fusion_lat": 0.0, "name": "af7e0a05cabc09dfa37f1205e63b7612", "bike_id": "af7e0a05cabc09dfa37f1205e63b7612", "is_disabled": 0, "type": "electric_scooter", "lat": 38.90274183333333, "lon": -77.03678816666667, "is_reserved": 0, "fusion_lon": 0.0}, {"rental_uris": {"ios": "https://dc.lft.to/lastmile_qr_scan", "android": "https://dc.lft.to/lastmile_qr_scan"}, "fusion_lat": 0.0, "name": "fe41b6443e6ead13792b5be674b0f8dc", "bike_id": "fe41b6443e6ead13792b5be674b0f8dc", "is_disabled": 0, "type": "electric_scooter", "lat": 38.88266333333333, "lon": -76.9948045, "is_reserved": 0, "fusion_lon": 0.0}, {"rental_uris": {"ios": "https://dc.lft.to/lastmile_qr_scan", "android": "https://dc.lft.to/lastmile_qr_scan"}, "fusion_lat": 0.0, "name": "d1441f7db6e1c45d5abe5bace621ef13", "bike_id": "d1441f7db6e1c45d5abe5bace621ef13", "is_disabled": 0, "type": "electric_scooter", "lat": 38.89722733333333, "lon": -77.0249765, "is_reserved": 0, "fusion_lon": 0.0}, {"rental_uris": {"ios": "https://dc.lft.to/lastmile_qr_scan", "android": "https://dc.lft.to/lastmile_qr_scan"}, "fusion_lat": 0.0, "name": "66a8258d5d840f1d8af00eb64f5f3d71", "bike_id": "66a8258d5d840f1d8af00eb64f5f3d71", "is_disabled": 0, "type": "electric_scooter", "lat": 38.908449166666664, "lon": -77.02070333333333, "is_reserved": 0, "fusion_lon": 0.0}, {"rental_uris": {"ios": "https://dc.lft.to/lastmile_qr_scan", "android": "https://dc.lft.to/lastmile_qr_scan"}, "fusion_lat": 0.0, "name": "d9c120536cb1bab9f352afeee755606c", "bike_id": "d9c120536cb1bab9f352afeee755606c", "is_disabled": 0, "type": "electric_scooter", "lat": 38.93357616666667, "lon": -77.05721233333334, "is_reserved": 0, "fusion_lon": 0.0}, {"rental_uris": {"ios": "https://dc.lft.to/lastmile_qr_scan", "android": "https://dc.lft.to/lastmile_qr_scan"}, "fusion_lat": 0.0, "name": "6f3c6eec467f04d1883c5eae0496d00e", "bike_id": "6f3c6eec467f04d1883c5eae0496d00e", "is_disabled": 0, "type": "electric_scooter", "lat": 38.91694483333333, "lon": -77.03499116666667, "is_reserved": 0, "fusion_lon": 0.0}, {"rental_uris": {"ios": "https://dc.lft.to/lastmile_qr_scan", "android": "https://dc.lft.to/lastmile_qr_scan"}, "fusion_lat": 0.0, "name": "6326405819d436371b2d4faab5e20bdf", "bike_id": "6326405819d436371b2d4faab5e20bdf", "is_disabled": 0, "type": "electric_scooter", "lat": 38.9342085, "lon": -77.0555465, "is_reserved": 0, "fusion_lon": 0.0}, {"rental_uris": {"ios": "https://dc.lft.to/lastmile_qr_scan", "android": "https://dc.lft.to/lastmile_qr_scan"}, "fusion_lat": 0.0, "name": "9356c43fd82da59ffe5decf8e764c3f0", "bike_id": "9356c43fd82da59ffe5decf8e764c3f0", "is_disabled": 0, "type": "electric_scooter", "lat": 38.911266166666664, "lon": -77.026948, "is_reserved": 0, "fusion_lon": 0.0}, {"rental_uris": {"ios": "https://dc.lft.to/lastmile_qr_scan", "android": "https://dc.lft.to/lastmile_qr_scan"}, "fusion_lat": 0.0, "name": "b47c2bd746ed77605e70c35ddd1fa341", "bike_id": "b47c2bd746ed77605e70c35ddd1fa341", "is_disabled": 0, "type": "electric_scooter", "lat": 38.914644333333335, "lon": -77.02191883333333, "is_reserved": 0, "fusion_lon": 0.0}, {"rental_uris": {"ios": "https://dc.lft.to/lastmile_qr_scan", "android": "https://dc.lft.to/lastmile_qr_scan"}, "fusion_lat": 0.0, "name": "bca390c3a621e7b7a202838a900829dd", "bike_id": "bca390c3a621e7b7a202838a900829dd", "is_disabled": 0, "type": "electric_scooter", "lat": 38.90649116666667, "lon": -77.008781, "is_reserved": 0, "fusion_lon": 0.0}, {"rental_uris": {"ios": "https://dc.lft.to/lastmile_qr_scan", "android": "https://dc.lft.to/lastmile_qr_scan"}, "fusion_lat": 0.0, "name": "ebde48466462096fe3a3ea7cc93413a0", "bike_id": "ebde48466462096fe3a3ea7cc93413a0", "is_disabled": 0, "type": "electric_bike", "lat": 38.813373166666665, "lon": -77.04934416666667, "is_reserved": 0, "fusion_lon": 0.0}, {"rental_uris": {"ios": "https://dc.lft.to/lastmile_qr_scan", "android": "https://dc.lft.to/lastmile_qr_scan"}, "fusion_lat": 0.0, "name": "55a3dca0608a4990ba803e9aae7d8734", "bike_id": "55a3dca0608a4990ba803e9aae7d8734", "is_disabled": 0, "type": "electric_scooter", "lat": 38.87673916666667, "lon": -77.01758733333334, "is_reserved": 0, "fusion_lon": 0.0}, {"rental_uris": {"ios": "https://dc.lft.to/lastmile_qr_scan", "android": "https://dc.lft.to/lastmile_qr_scan"}, "fusion_lat": 0.0, "name": "084ea43e94cf6c780a501852ca395cbb", "bike_id": "084ea43e94cf6c780a501852ca395cbb", "is_disabled": 0, "type": "electric_scooter", "lat": 38.90665116666667, "lon": -77.0269815, "is_reserved": 0, "fusion_lon": 0.0}, {"rental_uris": {"ios": "https://dc.lft.to/lastmile_qr_scan", "android": "https://dc.lft.to/lastmile_qr_scan"}, "fusion_lat": 0.0, "name": "1d03cbdcdd1bac02828d83726d798729", "bike_id": "1d03cbdcdd1bac02828d83726d798729", "is_disabled": 0, "type": "electric_scooter", "lat": 38.885721833333335, "lon": -76.91906433333334, "is_reserved": 0, "fusion_lon": 0.0}, {"rental_uris": {"ios": "https://dc.lft.to/lastmile_qr_scan", "android": "https://dc.lft.to/lastmile_qr_scan"}, "fusion_lat": 0.0, "name": "f90a720139b4d00e124ebf675dc25ab2", "bike_id": "f90a720139b4d00e124ebf675dc25ab2", "is_disabled": 0, "type": "electric_scooter", "lat": 38.90683966666667, "lon": -77.03808566666666, "is_reserved": 0, "fusion_lon": 0.0}, {"rental_uris": {"ios": "https://dc.lft.to/lastmile_qr_scan", "android": "https://dc.lft.to/lastmile_qr_scan"}, "fusion_lat": 0.0, "name": "1ef74c6a61c97b718636026eb5219383", "bike_id": "1ef74c6a61c97b718636026eb5219383", "is_disabled": 0, "type": "electric_scooter", "lat": 38.9167745, "lon": -77.02970683333334, "is_reserved": 0, "fusion_lon": 0.0}, {"rental_uris": {"ios": "https://dc.lft.to/lastmile_qr_scan", "android": "https://dc.lft.to/lastmile_qr_scan"}, "fusion_lat": 0.0, "name": "35b21960c6d5df5b4747b24e9fb76ee2", "bike_id": "35b21960c6d5df5b4747b24e9fb76ee2", "is_disabled": 0, "type": "electric_scooter", "lat": 38.91266133333333, "lon": -77.03655716666667, "is_reserved": 0, "fusion_lon": 0.0}, {"rental_uris": {"ios": "https://dc.lft.to/lastmile_qr_scan", "android": "https://dc.lft.to/lastmile_qr_scan"}, "fusion_lat": 0.0, "name": "2d75d12d905e320fa1a80f72b77bdcda", "bike_id": "2d75d12d905e320fa1a80f72b77bdcda", "is_disabled": 0, "type": "electric_scooter", "lat": 38.9382725, "lon": -76.9861705, "is_reserved": 0, "fusion_lon": 0.0}, {"rental_uris": {"ios": "https://dc.lft.to/lastmile_qr_scan", "android": "https://dc.lft.to/lastmile_qr_scan"}, "fusion_lat": 0.0, "name": "6a9e99e9ad70dc62d20133e336eb457e", "bike_id": "6a9e99e9ad70dc62d20133e336eb457e", "is_disabled": 0, "type": "electric_scooter", "lat": 38.910495833333336, "lon": -77.04364833333334, "is_reserved": 0, "fusion_lon": 0.0}, {"rental_uris": {"ios": "https://dc.lft.to/lastmile_qr_scan", "android": "https://dc.lft.to/lastmile_qr_scan"}, "fusion_lat": 0.0, "name": "cb5db39635349f771263f1b21c515d62", "bike_id": "cb5db39635349f771263f1b21c515d62", "is_disabled": 0, "type": "electric_scooter", "lat": 38.89221716666667, "lon": -77.04803516666666, "is_reserved": 0, "fusion_lon": 0.0}, {"rental_uris": {"ios": "https://dc.lft.to/lastmile_qr_scan", "android": "https://dc.lft.to/lastmile_qr_scan"}, "fusion_lat": 0.0, "name": "eec4293ab9182d65ff6b35a8a4b50cd2", "bike_id": "eec4293ab9182d65ff6b35a8a4b50cd2", "is_disabled": 0, "type": "electric_scooter", "lat": 38.91525, "lon": -77.01850633333333, "is_reserved": 0, "fusion_lon": 0.0}, {"rental_uris": {"ios": "https://dc.lft.to/lastmile_qr_scan", "android": "https://dc.lft.to/lastmile_qr_scan"}, "fusion_lat": 0.0, "name": "46649edebb6ed7e4ae838924b06355ac", "bike_id": "46649edebb6ed7e4ae838924b06355ac", "is_disabled": 0, "type": "electric_scooter", "lat": 38.902164666666664, "lon": -77.01759766666666, "is_reserved": 0, "fusion_lon": 0.0}, {"rental_uris": {"ios": "https://dc.lft.to/lastmile_qr_scan", "android": "https://dc.lft.to/lastmile_qr_scan"}, "fusion_lat": 0.0, "name": "b26502a4a326e5757d0189a4393668c0", "bike_id": "b26502a4a326e5757d0189a4393668c0", "is_disabled": 0, "type": "electric_scooter", "lat": 38.90911166666667, "lon": -76.99791933333333, "is_reserved": 0, "fusion_lon": 0.0}, {"rental_uris": {"ios": "https://dc.lft.to/lastmile_qr_scan", "android": "https://dc.lft.to/lastmile_qr_scan"}, "fusion_lat": 0.0, "name": "e610a55f967ab0867d81e8d7daffe797", "bike_id": "e610a55f967ab0867d81e8d7daffe797", "is_disabled": 0, "type": "electric_scooter", "lat": 38.9156665, "lon": -77.02513, "is_reserved": 0, "fusion_lon": 0.0}, {"rental_uris": {"ios": "https://dc.lft.to/lastmile_qr_scan", "android": "https://dc.lft.to/lastmile_qr_scan"}, "fusion_lat": 0.0, "name": "7b6cd8837751c3f7064cd0b02410c631", "bike_id": "7b6cd8837751c3f7064cd0b02410c631", "is_disabled": 0, "type": "electric_scooter", "lat": 38.94955, "lon": -77.0272315, "is_reserved": 0, "fusion_lon": 0.0}, {"rental_uris": {"ios": "https://dc.lft.to/lastmile_qr_scan", "android": "https://dc.lft.to/lastmile_qr_scan"}, "fusion_lat": 0.0, "name": "41cf11593b55c4a31d251597e0e6d79d", "bike_id": "41cf11593b55c4a31d251597e0e6d79d", "is_disabled": 0, "type": "electric_scooter", "lat": 38.916964166666666, "lon": -77.02675416666666, "is_reserved": 0, "fusion_lon": 0.0}, {"rental_uris": {"ios": "https://dc.lft.to/lastmile_qr_scan", "android": "https://dc.lft.to/lastmile_qr_scan"}, "fusion_lat": 0.0, "name": "58d68ae3212bdf4a35a7b78a6a55c87d", "bike_id": "58d68ae3212bdf4a35a7b78a6a55c87d", "is_disabled": 0, "type": "electric_scooter", "lat": 38.90272483333333, "lon": -77.05811466666667, "is_reserved": 0, "fusion_lon": 0.0}, {"rental_uris": {"ios": "https://dc.lft.to/lastmile_qr_scan", "android": "https://dc.lft.to/lastmile_qr_scan"}, "fusion_lat": 0.0, "name": "7f858899cb78450f7b98407b2760fef6", "bike_id": "7f858899cb78450f7b98407b2760fef6", "is_disabled": 0, "type": "electric_scooter", "lat": 38.935226166666666, "lon": -77.07284233333333, "is_reserved": 0, "fusion_lon": 0.0}, {"rental_uris": {"ios": "https://dc.lft.to/lastmile_qr_scan", "android": "https://dc.lft.to/lastmile_qr_scan"}, "fusion_lat": 0.0, "name": "b15eb62903b8a7f98d291a56aab86c7a", "bike_id": "b15eb62903b8a7f98d291a56aab86c7a", "is_disabled": 0, "type": "electric_scooter", "lat": 38.90443066666667, "lon": -77.03256516666667, "is_reserved": 0, "fusion_lon": 0.0}, {"rental_uris": {"ios": "https://dc.lft.to/lastmile_qr_scan", "android": "https://dc.lft.to/lastmile_qr_scan"}, "fusion_lat": 0.0, "name": "d810c9f1d563111600c2515ce22cd3c2", "bike_id": "d810c9f1d563111600c2515ce22cd3c2", "is_disabled": 0, "type": "electric_bike", "lat": 38.8402825, "lon": -76.97582133333333, "is_reserved": 0, "fusion_lon": 0.0}, {"rental_uris": {"ios": "https://dc.lft.to/lastmile_qr_scan", "android": "https://dc.lft.to/lastmile_qr_scan"}, "fusion_lat": 0.0, "name": "83b5e41d7dc0fcdc568ff87c8b8fd768", "bike_id": "83b5e41d7dc0fcdc568ff87c8b8fd768", "is_disabled": 0, "type": "electric_scooter", "lat": 38.891965, "lon": -77.00311166666667, "is_reserved": 0, "fusion_lon": 0.0}, {"rental_uris": {"ios": "https://dc.lft.to/lastmile_qr_scan", "android": "https://dc.lft.to/lastmile_qr_scan"}, "fusion_lat": 0.0, "name": "aaa625cc8aa0b5e2c1c640fc8834bb54", "bike_id": "aaa625cc8aa0b5e2c1c640fc8834bb54", "is_disabled": 0, "type": "electric_scooter", "lat": 38.9035355, "lon": -77.01097766666666, "is_reserved": 0, "fusion_lon": 0.0}, {"rental_uris": {"ios": "https://dc.lft.to/lastmile_qr_scan", "android": "https://dc.lft.to/lastmile_qr_scan"}, "fusion_lat": 0.0, "name": "c72df0ef8fedb7889626e109e84d8502", "bike_id": "c72df0ef8fedb7889626e109e84d8502", "is_disabled": 0, "type": "electric_scooter", "lat": 38.916839833333334, "lon": -77.03768916666667, "is_reserved": 0, "fusion_lon": 0.0}, {"rental_uris": {"ios": "https://dc.lft.to/lastmile_qr_scan", "android": "https://dc.lft.to/lastmile_qr_scan"}, "fusion_lat": 0.0, "name": "10ef078d76823c0fe3ba7d5c2223630b", "bike_id": "10ef078d76823c0fe3ba7d5c2223630b", "is_disabled": 0, "type": "electric_scooter", "lat": 38.89514416666667, "lon": -76.93047116666666, "is_reserved": 0, "fusion_lon": 0.0}, {"rental_uris": {"ios": "https://dc.lft.to/lastmile_qr_scan", "android": "https://dc.lft.to/lastmile_qr_scan"}, "fusion_lat": 0.0, "name": "8c92ff9faa0508d5b4904340cbff0d6f", "bike_id": "8c92ff9faa0508d5b4904340cbff0d6f", "is_disabled": 0, "type": "electric_scooter", "lat": 38.91687783333333, "lon": -77.02814966666666, "is_reserved": 0, "fusion_lon": 0.0}, {"rental_uris": {"ios": "https://dc.lft.to/lastmile_qr_scan", "android": "https://dc.lft.to/lastmile_qr_scan"}, "fusion_lat": 0.0, "name": "9442f480d938b729634186a1a5d41131", "bike_id": "9442f480d938b729634186a1a5d41131", "is_disabled": 0, "type": "electric_scooter", "lat": 38.88125866666667, "lon": -77.02685433333333, "is_reserved": 0, "fusion_lon": 0.0}, {"rental_uris": {"ios": "https://dc.lft.to/lastmile_qr_scan", "android": "https://dc.lft.to/lastmile_qr_scan"}, "fusion_lat": 0.0, "name": "24c4dac86ac06c68a31a2e6967d8d675", "bike_id": "24c4dac86ac06c68a31a2e6967d8d675", "is_disabled": 0, "type": "electric_scooter", "lat": 38.87627416666667, "lon": -76.96529616666666, "is_reserved": 0, "fusion_lon": 0.0}, {"rental_uris": {"ios": "https://dc.lft.to/lastmile_qr_scan", "android": "https://dc.lft.to/lastmile_qr_scan"}, "fusion_lat": 0.0, "name": "b21847ac8a75de22ad8563abf8e93a54", "bike_id": "b21847ac8a75de22ad8563abf8e93a54", "is_disabled": 0, "type": "electric_scooter", "lat": 38.954253333333334, "lon": -77.0275795, "is_reserved": 0, "fusion_lon": 0.0}, {"rental_uris": {"ios": "https://dc.lft.to/lastmile_qr_scan", "android": "https://dc.lft.to/lastmile_qr_scan"}, "fusion_lat": 0.0, "name": "96fc150d342c4585e34a8129deaca382", "bike_id": "96fc150d342c4585e34a8129deaca382", "is_disabled": 0, "type": "electric_scooter", "lat": 38.92470016666667, "lon": -77.05235966666666, "is_reserved": 0, "fusion_lon": 0.0}, {"rental_uris": {"ios": "https://dc.lft.to/lastmile_qr_scan", "android": "https://dc.lft.to/lastmile_qr_scan"}, "fusion_lat": 0.0, "name": "2f52b846f552c8ae2c111eef8f711c9d", "bike_id": "2f52b846f552c8ae2c111eef8f711c9d", "is_disabled": 0, "type": "electric_scooter", "lat": 38.90022233333333, "lon": -76.995655, "is_reserved": 0, "fusion_lon": 0.0}, {"rental_uris": {"ios": "https://dc.lft.to/lastmile_qr_scan", "android": "https://dc.lft.to/lastmile_qr_scan"}, "fusion_lat": 0.0, "name": "bbe1db4505757d782e2cfdb0d2672af5", "bike_id": "bbe1db4505757d782e2cfdb0d2672af5", "is_disabled": 0, "type": "electric_scooter", "lat": 38.892178666666666, "lon": -77.04332316666667, "is_reserved": 0, "fusion_lon": 0.0}, {"rental_uris": {"ios": "https://dc.lft.to/lastmile_qr_scan", "android": "https://dc.lft.to/lastmile_qr_scan"}, "fusion_lat": 0.0, "name": "d38052326121f5c1da357c1f3ecdc71a", "bike_id": "d38052326121f5c1da357c1f3ecdc71a", "is_disabled": 0, "type": "electric_scooter", "lat": 38.90521666666667, "lon": -77.06608983333334, "is_reserved": 0, "fusion_lon": 0.0}, {"rental_uris": {"ios": "https://dc.lft.to/lastmile_qr_scan", "android": "https://dc.lft.to/lastmile_qr_scan"}, "fusion_lat": 0.0, "name": "85529286e35cdc5eabe806d5c3c9a037", "bike_id": "85529286e35cdc5eabe806d5c3c9a037", "is_disabled": 0, "type": "electric_scooter", "lat": 38.907832666666664, "lon": -77.038588, "is_reserved": 0, "fusion_lon": 0.0}, {"rental_uris": {"ios": "https://dc.lft.to/lastmile_qr_scan", "android": "https://dc.lft.to/lastmile_qr_scan"}, "fusion_lat": 0.0, "name": "1f1d67f1a4063224ed7f0c3d527dad8f", "bike_id": "1f1d67f1a4063224ed7f0c3d527dad8f", "is_disabled": 0, "type": "electric_scooter", "lat": 38.923639, "lon": -77.05128866666666, "is_reserved": 0, "fusion_lon": 0.0}, {"rental_uris": {"ios": "https://dc.lft.to/lastmile_qr_scan", "android": "https://dc.lft.to/lastmile_qr_scan"}, "fusion_lat": 0.0, "name": "240afbd2584d6245114d6adbeb42c461", "bike_id": "240afbd2584d6245114d6adbeb42c461", "is_disabled": 0, "type": "electric_scooter", "lat": 38.92056816666667, "lon": -77.04201833333333, "is_reserved": 0, "fusion_lon": 0.0}, {"rental_uris": {"ios": "https://dc.lft.to/lastmile_qr_scan", "android": "https://dc.lft.to/lastmile_qr_scan"}, "fusion_lat": 0.0, "name": "0a57f9dfc92a96b8d29043d74d83582b", "bike_id": "0a57f9dfc92a96b8d29043d74d83582b", "is_disabled": 0, "type": "electric_bike", "lat": 38.91588133333333, "lon": -76.97880516666666, "is_reserved": 0, "fusion_lon": 0.0}, {"rental_uris": {"ios": "https://dc.lft.to/lastmile_qr_scan", "android": "https://dc.lft.to/lastmile_qr_scan"}, "fusion_lat": 0.0, "name": "1b07ba7eca1628997b809785eebce2dc", "bike_id": "1b07ba7eca1628997b809785eebce2dc", "is_disabled": 0, "type": "electric_scooter", "lat": 38.90676416666667, "lon": -77.02696716666667, "is_reserved": 0, "fusion_lon": 0.0}, {"rental_uris": {"ios": "https://dc.lft.to/lastmile_qr_scan", "android": "https://dc.lft.to/lastmile_qr_scan"}, "fusion_lat": 0.0, "name": "87360a7a1f67f3e4e627b9859e77e208", "bike_id": "87360a7a1f67f3e4e627b9859e77e208", "is_disabled": 0, "type": "electric_bike", "lat": 38.9468425, "lon": -77.02055433333334, "is_reserved": 0, "fusion_lon": 0.0}, {"rental_uris": {"ios": "https://dc.lft.to/lastmile_qr_scan", "android": "https://dc.lft.to/lastmile_qr_scan"}, "fusion_lat": 0.0, "name": "9b0fe707ac74fac07b4b6e136abd9880", "bike_id": "9b0fe707ac74fac07b4b6e136abd9880", "is_disabled": 0, "type": "electric_scooter", "lat": 38.89978833333333, "lon": -76.93991816666667, "is_reserved": 0, "fusion_lon": 0.0}, {"rental_uris": {"ios": "https://dc.lft.to/lastmile_qr_scan", "android": "https://dc.lft.to/lastmile_qr_scan"}, "fusion_lat": 0.0, "name": "cd4bf7a1489c37cf5b6d7ff1ff3d9380", "bike_id": "cd4bf7a1489c37cf5b6d7ff1ff3d9380", "is_disabled": 0, "type": "electric_bike", "lat": 38.874794, "lon": -76.96523916666666, "is_reserved": 0, "fusion_lon": 0.0}, {"rental_uris": {"ios": "https://dc.lft.to/lastmile_qr_scan", "android": "https://dc.lft.to/lastmile_qr_scan"}, "fusion_lat": 0.0, "name": "5213df7aee0e8039543f3ab2e23c616a", "bike_id": "5213df7aee0e8039543f3ab2e23c616a", "is_disabled": 0, "type": "electric_scooter", "lat": 38.914048666666666, "lon": -77.02420466666666, "is_reserved": 0, "fusion_lon": 0.0}, {"rental_uris": {"ios": "https://dc.lft.to/lastmile_qr_scan", "android": "https://dc.lft.to/lastmile_qr_scan"}, "fusion_lat": 0.0, "name": "394a3cd4ec4bd578de8946bc8d27da32", "bike_id": "394a3cd4ec4bd578de8946bc8d27da32", "is_disabled": 0, "type": "electric_scooter", "lat": 38.9231805, "lon": -77.03684733333333, "is_reserved": 0, "fusion_lon": 0.0}, {"rental_uris": {"ios": "https://dc.lft.to/lastmile_qr_scan", "android": "https://dc.lft.to/lastmile_qr_scan"}, "fusion_lat": 0.0, "name": "a389add89b5a2a134a0c72eb335e0847", "bike_id": "a389add89b5a2a134a0c72eb335e0847", "is_disabled": 0, "type": "electric_bike", "lat": 38.92854883333333, "lon": -77.2221495, "is_reserved": 0, "fusion_lon": 0.0}, {"rental_uris": {"ios": "https://dc.lft.to/lastmile_qr_scan", "android": "https://dc.lft.to/lastmile_qr_scan"}, "fusion_lat": 0.0, "name": "3d1d2d630627728ab43620e21ccfafca", "bike_id": "3d1d2d630627728ab43620e21ccfafca", "is_disabled": 0, "type": "electric_scooter", "lat": 38.9278755, "lon": -77.03149566666667, "is_reserved": 0, "fusion_lon": 0.0}, {"rental_uris": {"ios": "https://dc.lft.to/lastmile_qr_scan", "android": "https://dc.lft.to/lastmile_qr_scan"}, "fusion_lat": 0.0, "name": "589a6772b482e6af1442538e0537fb88", "bike_id": "589a6772b482e6af1442538e0537fb88", "is_disabled": 0, "type": "electric_bike", "lat": 39.088583666666665, "lon": -77.17841133333333, "is_reserved": 0, "fusion_lon": 0.0}, {"rental_uris": {"ios": "https://dc.lft.to/lastmile_qr_scan", "android": "https://dc.lft.to/lastmile_qr_scan"}, "fusion_lat": 0.0, "name": "71f76f5f522bb45541b45c995c14722d", "bike_id": "71f76f5f522bb45541b45c995c14722d", "is_disabled": 0, "type": "electric_scooter", "lat": 38.9396865, "lon": -77.03259466666667, "is_reserved": 0, "fusion_lon": 0.0}, {"rental_uris": {"ios": "https://dc.lft.to/lastmile_qr_scan", "android": "https://dc.lft.to/lastmile_qr_scan"}, "fusion_lat": 0.0, "name": "8fc84074109e220e33783fbb52defc75", "bike_id": "8fc84074109e220e33783fbb52defc75", "is_disabled": 0, "type": "electric_scooter", "lat": 38.9165705, "lon": -77.02178166666667, "is_reserved": 0, "fusion_lon": 0.0}, {"rental_uris": {"ios": "https://dc.lft.to/lastmile_qr_scan", "android": "https://dc.lft.to/lastmile_qr_scan"}, "fusion_lat": 0.0, "name": "18e28beff7c9e0071e2276d6e9a693fe", "bike_id": "18e28beff7c9e0071e2276d6e9a693fe", "is_disabled": 0, "type": "electric_scooter", "lat": 38.90676033333333, "lon": -77.0367225, "is_reserved": 0, "fusion_lon": 0.0}, {"rental_uris": {"ios": "https://dc.lft.to/lastmile_qr_scan", "android": "https://dc.lft.to/lastmile_qr_scan"}, "fusion_lat": 0.0, "name": "bf4d0d81c14295f161ffb9ec9b010e54", "bike_id": "bf4d0d81c14295f161ffb9ec9b010e54", "is_disabled": 0, "type": "electric_scooter", "lat": 38.900363666666664, "lon": -77.00196533333333, "is_reserved": 0, "fusion_lon": 0.0}, {"rental_uris": {"ios": "https://dc.lft.to/lastmile_qr_scan", "android": "https://dc.lft.to/lastmile_qr_scan"}, "fusion_lat": 0.0, "name": "71f00b5c52b96469d17c9f66bb632d77", "bike_id": "71f00b5c52b96469d17c9f66bb632d77", "is_disabled": 0, "type": "electric_scooter", "lat": 38.926506333333336, "lon": -77.0244205, "is_reserved": 0, "fusion_lon": 0.0}, {"rental_uris": {"ios": "https://dc.lft.to/lastmile_qr_scan", "android": "https://dc.lft.to/lastmile_qr_scan"}, "fusion_lat": 0.0, "name": "7f0f611811ce67bbd611a0078f7c2bdf", "bike_id": "7f0f611811ce67bbd611a0078f7c2bdf", "is_disabled": 0, "type": "electric_scooter", "lat": 38.86115816666667, "lon": -76.9837115, "is_reserved": 0, "fusion_lon": 0.0}, {"rental_uris": {"ios": "https://dc.lft.to/lastmile_qr_scan", "android": "https://dc.lft.to/lastmile_qr_scan"}, "fusion_lat": 0.0, "name": "915b26b1a5037a421fa7bfd48670cf30", "bike_id": "915b26b1a5037a421fa7bfd48670cf30", "is_disabled": 0, "type": "electric_bike", "lat": 38.90622166666667, "lon": -77.02410633333334, "is_reserved": 0, "fusion_lon": 0.0}, {"rental_uris": {"ios": "https://dc.lft.to/lastmile_qr_scan", "android": "https://dc.lft.to/lastmile_qr_scan"}, "fusion_lat": 0.0, "name": "91b67a183c705e63304fc4031e9ce9bf", "bike_id": "91b67a183c705e63304fc4031e9ce9bf", "is_disabled": 0, "type": "electric_scooter", "lat": 38.90063, "lon": -77.00211016666667, "is_reserved": 0, "fusion_lon": 0.0}, {"rental_uris": {"ios": "https://dc.lft.to/lastmile_qr_scan", "android": "https://dc.lft.to/lastmile_qr_scan"}, "fusion_lat": 0.0, "name": "c092b9020cdf77f9b2d6e6b756d5a263", "bike_id": "c092b9020cdf77f9b2d6e6b756d5a263", "is_disabled": 0, "type": "electric_scooter", "lat": 38.91553666666667, "lon": -77.02208866666666, "is_reserved": 0, "fusion_lon": 0.0}, {"rental_uris": {"ios": "https://dc.lft.to/lastmile_qr_scan", "android": "https://dc.lft.to/lastmile_qr_scan"}, "fusion_lat": 0.0, "name": "459262a2f88e531c076cfcc7c98a0222", "bike_id": "459262a2f88e531c076cfcc7c98a0222", "is_disabled": 0, "type": "electric_scooter", "lat": 38.90978366666667, "lon": -77.03178483333333, "is_reserved": 0, "fusion_lon": 0.0}, {"rental_uris": {"ios": "https://dc.lft.to/lastmile_qr_scan", "android": "https://dc.lft.to/lastmile_qr_scan"}, "fusion_lat": 0.0, "name": "9ff7b9a60b19035168d4cacb9bd5b489", "bike_id": "9ff7b9a60b19035168d4cacb9bd5b489", "is_disabled": 0, "type": "electric_scooter", "lat": 38.8767405, "lon": -77.018002, "is_reserved": 0, "fusion_lon": 0.0}, {"rental_uris": {"ios": "https://dc.lft.to/lastmile_qr_scan", "android": "https://dc.lft.to/lastmile_qr_scan"}, "fusion_lat": 0.0, "name": "614cb266f73ddaa19358bbbb7a134c9d", "bike_id": "614cb266f73ddaa19358bbbb7a134c9d", "is_disabled": 0, "type": "electric_scooter", "lat": 38.91852333333333, "lon": -77.04032483333333, "is_reserved": 0, "fusion_lon": 0.0}, {"rental_uris": {"ios": "https://dc.lft.to/lastmile_qr_scan", "android": "https://dc.lft.to/lastmile_qr_scan"}, "fusion_lat": 0.0, "name": "68bebd4eee0b3d6f16a01d0ed317c4c5", "bike_id": "68bebd4eee0b3d6f16a01d0ed317c4c5", "is_disabled": 0, "type": "electric_bike", "lat": 38.985028, "lon": -76.98207466666666, "is_reserved": 0, "fusion_lon": 0.0}, {"rental_uris": {"ios": "https://dc.lft.to/lastmile_qr_scan", "android": "https://dc.lft.to/lastmile_qr_scan"}, "fusion_lat": 0.0, "name": "57472bddb2c3450f5606153ffb7f46eb", "bike_id": "57472bddb2c3450f5606153ffb7f46eb", "is_disabled": 0, "type": "electric_bike", "lat": 38.90521066666667, "lon": -77.0436445, "is_reserved": 0, "fusion_lon": 0.0}, {"rental_uris": {"ios": "https://dc.lft.to/lastmile_qr_scan", "android": "https://dc.lft.to/lastmile_qr_scan"}, "fusion_lat": 0.0, "name": "41f25a90c81d5a0548eecd0ca94c72e2", "bike_id": "41f25a90c81d5a0548eecd0ca94c72e2", "is_disabled": 0, "type": "electric_scooter", "lat": 38.95934733333333, "lon": -77.03129716666666, "is_reserved": 0, "fusion_lon": 0.0}, {"rental_uris": {"ios": "https://dc.lft.to/lastmile_qr_scan", "android": "https://dc.lft.to/lastmile_qr_scan"}, "fusion_lat": 0.0, "name": "1c85f3504cd8f36e7edb74cd4104d4d1", "bike_id": "1c85f3504cd8f36e7edb74cd4104d4d1", "is_disabled": 0, "type": "electric_scooter", "lat": 38.9469795, "lon": -77.02170616666666, "is_reserved": 0, "fusion_lon": 0.0}, {"rental_uris": {"ios": "https://dc.lft.to/lastmile_qr_scan", "android": "https://dc.lft.to/lastmile_qr_scan"}, "fusion_lat": 0.0, "name": "77a36d66b876bce7406020c6fefe6d4b", "bike_id": "77a36d66b876bce7406020c6fefe6d4b", "is_disabled": 0, "type": "electric_scooter", "lat": 38.9171215, "lon": -77.02569666666666, "is_reserved": 0, "fusion_lon": 0.0}, {"rental_uris": {"ios": "https://dc.lft.to/lastmile_qr_scan", "android": "https://dc.lft.to/lastmile_qr_scan"}, "fusion_lat": 0.0, "name": "18fae4dfbb584bb352f1018a5a7d66ce", "bike_id": "18fae4dfbb584bb352f1018a5a7d66ce", "is_disabled": 0, "type": "electric_scooter", "lat": 38.892311, "lon": -77.05003033333334, "is_reserved": 0, "fusion_lon": 0.0}, {"rental_uris": {"ios": "https://dc.lft.to/lastmile_qr_scan", "android": "https://dc.lft.to/lastmile_qr_scan"}, "fusion_lat": 0.0, "name": "1a4c78d9d75c38e4f0bf8686c9f6bbdb", "bike_id": "1a4c78d9d75c38e4f0bf8686c9f6bbdb", "is_disabled": 0, "type": "electric_scooter", "lat": 38.897115, "lon": -77.02673, "is_reserved": 0, "fusion_lon": 0.0}, {"rental_uris": {"ios": "https://dc.lft.to/lastmile_qr_scan", "android": "https://dc.lft.to/lastmile_qr_scan"}, "fusion_lat": 0.0, "name": "d709445455384897e36a1065c254741d", "bike_id": "d709445455384897e36a1065c254741d", "is_disabled": 0, "type": "electric_bike", "lat": 38.905613, "lon": -76.9979455, "is_reserved": 0, "fusion_lon": 0.0}, {"rental_uris": {"ios": "https://dc.lft.to/lastmile_qr_scan", "android": "https://dc.lft.to/lastmile_qr_scan"}, "fusion_lat": 0.0, "name": "fcf182e95d665a343e78b4b606d6063c", "bike_id": "fcf182e95d665a343e78b4b606d6063c", "is_disabled": 0, "type": "electric_scooter", "lat": 38.894515, "lon": -76.978111, "is_reserved": 0, "fusion_lon": 0.0}, {"rental_uris": {"ios": "https://dc.lft.to/lastmile_qr_scan", "android": "https://dc.lft.to/lastmile_qr_scan"}, "fusion_lat": 0.0, "name": "6c1f47aedfa0afd88d10f0e60eac4418", "bike_id": "6c1f47aedfa0afd88d10f0e60eac4418", "is_disabled": 0, "type": "electric_scooter", "lat": 38.913011833333336, "lon": -77.03215233333333, "is_reserved": 0, "fusion_lon": 0.0}, {"rental_uris": {"ios": "https://dc.lft.to/lastmile_qr_scan", "android": "https://dc.lft.to/lastmile_qr_scan"}, "fusion_lat": 0.0, "name": "d33fee99a624937acb600a936bfcde9c", "bike_id": "d33fee99a624937acb600a936bfcde9c", "is_disabled": 0, "type": "electric_scooter", "lat": 38.92748116666667, "lon": -77.02482883333333, "is_reserved": 0, "fusion_lon": 0.0}, {"rental_uris": {"ios": "https://dc.lft.to/lastmile_qr_scan", "android": "https://dc.lft.to/lastmile_qr_scan"}, "fusion_lat": 0.0, "name": "412f2eeae4ff88b42b919cd72b861ffe", "bike_id": "412f2eeae4ff88b42b919cd72b861ffe", "is_disabled": 0, "type": "electric_scooter", "lat": 38.89298766666667, "lon": -77.02182583333334, "is_reserved": 0, "fusion_lon": 0.0}, {"rental_uris": {"ios": "https://dc.lft.to/lastmile_qr_scan", "android": "https://dc.lft.to/lastmile_qr_scan"}, "fusion_lat": 0.0, "name": "302f24c5f573b45631b52d7c63d206c0", "bike_id": "302f24c5f573b45631b52d7c63d206c0", "is_disabled": 0, "type": "electric_bike", "lat": 38.8057465, "lon": -77.06862116666667, "is_reserved": 0, "fusion_lon": 0.0}, {"rental_uris": {"ios": "https://dc.lft.to/lastmile_qr_scan", "android": "https://dc.lft.to/lastmile_qr_scan"}, "fusion_lat": 0.0, "name": "a90af49961998788452a1a5f1d84194c", "bike_id": "a90af49961998788452a1a5f1d84194c", "is_disabled": 0, "type": "electric_bike", "lat": 38.98270633333333, "lon": -77.01776466666666, "is_reserved": 0, "fusion_lon": 0.0}, {"rental_uris": {"ios": "https://dc.lft.to/lastmile_qr_scan", "android": "https://dc.lft.to/lastmile_qr_scan"}, "fusion_lat": 0.0, "name": "c6a3846f5e4ba54a98ec3e05291d6e45", "bike_id": "c6a3846f5e4ba54a98ec3e05291d6e45", "is_disabled": 0, "type": "electric_scooter", "lat": 38.90726216666667, "lon": -77.0298485, "is_reserved": 0, "fusion_lon": 0.0}, {"rental_uris": {"ios": "https://dc.lft.to/lastmile_qr_scan", "android": "https://dc.lft.to/lastmile_qr_scan"}, "fusion_lat": 0.0, "name": "0f2adcb593487c6923c5a4bf0e0b60af", "bike_id": "0f2adcb593487c6923c5a4bf0e0b60af", "is_disabled": 0, "type": "electric_scooter", "lat": 38.92339183333333, "lon": -77.05054033333333, "is_reserved": 0, "fusion_lon": 0.0},