{"data": {"bikes": [{"name": "3a0fc31479b9a77c7ecce302350e1e2e", "type": "electric_scooter", "lat": 38.902297, "is_reserved": 0, "lon": -77.01637866666667, "fusion_lon": 0.0, "is_disabled": 0, "fusion_lat": 0.0, "bike_id": "3a0fc31479b9a77c7ecce302350e1e2e", "rental_uris": {"ios": "https://dc.lft.to/lastmile_qr_scan", "android": "https://dc.lft.to/lastmile_qr_scan"}}, {"name": "e876a729899626fc1e6dfdc0411f9450", "type": "electric_scooter", "lat": 38.91871916666667, "is_reserved": 0, "lon": -77.0162275, "fusion_lon": 0.0, "is_disabled": 0, "fusion_lat": 0.0, "bike_id": "e876a729899626fc1e6dfdc0411f9450", "rental_uris": {"ios": "https://dc.lft.to/lastmile_qr_scan", "android": "https://dc.lft.to/lastmile_qr_scan"}}, {"name": "7eb59cf3542669467cab1c84175bd856", "type": "electric_scooter", "lat": 38.9056385, "is_reserved": 0, "lon": -77.00250733333333, "fusion_lon": 0.0, "is_disabled": 0, "fusion_lat": 0.0, "bike_id": "7eb59cf3542669467cab1c84175bd856", "rental_uris": {"ios": "https://dc.lft.to/lastmile_qr_scan", "android": "https://dc.lft.to/lastmile_qr_scan"}}, {"name": "14e8ce170a2d5ab37bf2304d4b2f2ed2", "type": "electric_scooter", "lat": 38.913310333333335, "is_reserved": 0, "lon": -77.04869366666667, "fusion_lon": 0.0, "is_disabled": 0, "fusion_lat": 0.0, "bike_id": "14e8ce170a2d5ab37bf2304d4b2f2ed2", "rental_uris": {"ios": "https://dc.lft.to/lastmile_qr_scan", "android": "https://dc.lft.to/lastmile_qr_scan"}}, {"name": "68ade14340f214331695f358e2aa0974", "type": "electric_scooter", "lat": 38.89866716666667, "is_reserved": 0, "lon": -77.02622866666667, "fusion_lon": 0.0, "is_disabled": 0, "fusion_lat": 0.0, "bike_id": "68ade14340f214331695f358e2aa0974", "rental_uris": {"ios": "https://dc.lft.to/lastmile_qr_scan", "android": "https://dc.lft.to/lastmile_qr_scan"}}, {"name": "c2eacb69d3141ca096e92a0e0103bf3c", "type": "electric_bike", "lat": 38.97083383333333, "is_reserved": 0, "lon": -77.06960333333333, "fusion_lon": 0.0, "is_disabled": 0, "fusion_lat": 0.0, "bike_id": "c2eacb69d3141ca096e92a0e0103bf3c", "rental_uris": {"ios": "https://dc.lft.to/lastmile_qr_scan", "android": "https://dc.lft.to/lastmile_qr_scan"}}, {"name": "7ea0791b6adbcc510be39b1c671ff89b", "type": "electric_scooter", "lat": 38.93888116666667, "is_reserved": 0, "lon": -77.024667, "fusion_lon": 0.0, "is_disabled": 0, "fusion_lat": 0.0, "bike_id": "7ea0791b6adbcc510be39b1c671ff89b", "rental_uris": {"ios": "https://dc.lft.to/lastmile_qr_scan", "android": "https://dc.lft.to/lastmile_qr_scan"}}, {"name": "acf85cffdee0812473d9bb099b8bb7b7", "type": "electric_scooter", "lat": 38.926312, "is_reserved": 0, "lon": -77.03785566666667, "fusion_lon": 0.0, "is_disabled": 0, "fusion_lat": 0.0, "bike_id": "acf85cffdee0812473d9bb099b8bb7b7", "rental_uris": {"ios": "https://dc.lft.to/lastmile_qr_scan", "android": "https://dc.lft.to/lastmile_qr_scan"}}, {"name": "b4756d8d23fccdfb162f88a0499d541e", "type": "electric_scooter", "lat": 38.925818, "is_reserved": 0, "lon": -77.00471966666667, "fusion_lon": 0.0, "is_disabled": 0, "fusion_lat": 0.0, "bike_id": "b4756d8d23fccdfb162f88a0499d541e", "rental_uris": {"ios": "https://dc.lft.to/lastmile_qr_scan", "android": "https://dc.lft.to/lastmile_qr_scan"}}, {"name": "65f3f4bfb1a9238a2caa49b886c7b667", "type": "electric_scooter", "lat": 38.93140016666667, "is_reserved": 0, "lon": -77.03848566666667, "fusion_lon": 0.0, "is_disabled": 0, "fusion_lat": 0.0, "bike_id": "65f3f4bfb1a9238a2caa49b886c7b667", "rental_uris": {"ios": "https://dc.lft.to/lastmile_qr_scan", "android": "https://dc.lft.to/lastmile_qr_scan"}}, {"name": "a4a2ea2727c85a2b34a8a63090c5e47b", "type": "electric_scooter", "lat": 38.902424, "is_reserved": 0, "lon": -77.04607083333333, "fusion_lon": 0.0, "is_disabled": 0, "fusion_lat": 0.0, "bike_id": "a4a2ea2727c85a2b34a8a63090c5e47b", "rental_uris": {"ios": "https://dc.lft.to/lastmile_qr_scan", "android": "https://dc.lft.to/lastmile_qr_scan"}}, {"name": "f180d8789cfb61fded1907c22d0816c7", "type": "electric_scooter", "lat": 38.87709533333334, "is_reserved": 0, "lon": -76.99384716666667, "fusion_lon": 0.0, "is_disabled": 0, "fusion_lat": 0.0, "bike_id": "f180d8789cfb61fded1907c22d0816c7", "rental_uris": {"ios": "https://dc.lft.to/lastmile_qr_scan", "android": "https://dc.lft.to/lastmile_qr_scan"}}, {"name": "af3727b1a47d08df16bcbe66b7b16ef5", "type": "electric_scooter", "lat": 38.89872966666667, "is_reserved": 0, "lon": -77.03276066666666, "fusion_lon": 0.0, "is_disabled": 0, "fusion_lat": 0.0, "bike_id": "af3727b1a47d08df16bcbe66b7b16ef5", "rental_uris": {"ios": "https://dc.lft.to/lastmile_qr_scan", "android": "https://dc.lft.to/lastmile_qr_scan"}}, {"name": "5936fd9c03a400222113e718bd74c67a", "type": "electric_scooter", "lat": 38.88767383333333, "is_reserved": 0, "lon": -76.92712483333334, "fusion_lon": 0.0, "is_disabled": 0, "fusion_lat": 0.0, "bike_id": "5936fd9c03a400222113e718bd74c67a", "rental_uris": {"ios": "https://dc.lft.to/lastmile_qr_scan", "android": "https://dc.lft.to/lastmile_qr_scan"}}, {"name": "a263fa89fb67d8beeaf8250aa08ee5cb", "type": "electric_scooter", "lat": 38.906554666666665, "is_reserved": 0, "lon": -77.0114735, "fusion_lon": 0.0, "is_disabled": 0, "fusion_lat": 0.0, "bike_id": "a263fa89fb67d8beeaf8250aa08ee5cb", "rental_uris": {"ios": "https://dc.lft.to/lastmile_qr_scan", "android": "https://dc.lft.to/lastmile_qr_scan"}}, {"name": "e6c36b021c581e10c15fd1619cf12df5", "type": "electric_scooter", "lat": 38.913391833333336, "is_reserved": 0, "lon": -77.00220433333334, "fusion_lon": 0.0, "is_disabled": 0, "fusion_lat": 0.0, "bike_id": "e6c36b021c581e10c15fd1619cf12df5", "rental_uris": {"ios": "https://dc.lft.to/lastmile_qr_scan", "android": "https://dc.lft.to/lastmile_qr_scan"}}, {"name": "6e518aa6031a7cdd0520884154ba0a89", "type": "electric_scooter", "lat": 38.894913, "is_reserved": 0, "lon": -77.01118033333333, "fusion_lon": 0.0, "is_disabled": 0, "fusion_lat": 0.0, "bike_id": "6e518aa6031a7cdd0520884154ba0a89", "rental_uris": {"ios": "https://dc.lft.to/lastmile_qr_scan", "android": "https://dc.lft.to/lastmile_qr_scan"}}, {"name": "ca8e61471b561a07db4063907fc7269d", "type": "electric_scooter", "lat": 38.908081, "is_reserved": 0, "lon": -77.038679, "fusion_lon": 0.0, "is_disabled": 0, "fusion_lat": 0.0, "bike_id": "ca8e61471b561a07db4063907fc7269d", "rental_uris": {"ios": "https://dc.lft.to/lastmile_qr_scan", "android": "https://dc.lft.to/lastmile_qr_scan"}}, {"name": "feaae9de1577eaabeafb7cb1e75bcc2f", "type": "electric_scooter", "lat": 38.898317166666665, "is_reserved": 0, "lon": -76.94630983333333, "fusion_lon": 0.0, "is_disabled": 0, "fusion_lat": 0.0, "bike_id": "feaae9de1577eaabeafb7cb1e75bcc2f", "rental_uris": {"ios": "https://dc.lft.to/lastmile_qr_scan", "android": "https://dc.lft.to/lastmile_qr_scan"}}, {"name": "fcaf62dbff260e49e531766107dc488e", "type": "electric_scooter", "lat": 38.924202666666666, "is_reserved": 0, "lon": -77.01948033333333, "fusion_lon": 0.0, "is_disabled": 0, "fusion_lat": 0.0, "bike_id": "fcaf62dbff260e49e531766107dc488e", "rental_uris": {"ios": "https://dc.lft.to/lastmile_qr_scan", "android": "https://dc.lft.to/lastmile_qr_scan"}}, {"name": "920b2cc2b928f21e6e097d0c549970e3", "type": "electric_scooter", "lat": 38.8635265, "is_reserved": 0, "lon": -76.99060333333334, "fusion_lon": 0.0, "is_disabled": 0, "fusion_lat": 0.0, "bike_id": "920b2cc2b928f21e6e097d0c549970e3", "rental_uris": {"ios": "https://dc.lft.to/lastmile_qr_scan", "android": "https://dc.lft.to/lastmile_qr_scan"}}, {"name": "7d6c4358a81da19fe7f898bf14244b26", "type": "electric_scooter", "lat": 38.920584833333336, "is_reserved": 0, "lon": -77.04252616666666, "fusion_lon": 0.0, "is_disabled": 0, "fusion_lat": 0.0, "bike_id": "7d6c4358a81da19fe7f898bf14244b26", "rental_uris": {"ios": "https://dc.lft.to/lastmile_qr_scan", "android": "https://dc.lft.to/lastmile_qr_scan"}}, {"name": "bc9aa67b1d7761234861e87dd90c6aa4", "type": "electric_scooter", "lat": 38.904463, "is_reserved": 0, "lon": -77.0487065, "fusion_lon": 0.0, "is_disabled": 0, "fusion_lat": 0.0, "bike_id": "bc9aa67b1d7761234861e87dd90c6aa4", "rental_uris": {"ios": "https://dc.lft.to/lastmile_qr_scan", "android": "https://dc.lft.to/lastmile_qr_scan"}}, {"name": "485abcc2f4a1fd6fb19fd84df473130d", "type": "electric_scooter", "lat": 38.92769233333333, "is_reserved": 0, "lon": -77.02649916666667, "fusion_lon": 0.0, "is_disabled": 0, "fusion_lat": 0.0, "bike_id": "485abcc2f4a1fd6fb19fd84df473130d", "rental_uris": {"ios": "https://dc.lft.to/lastmile_qr_scan", "android": "https://dc.lft.to/lastmile_qr_scan"}}, {"name": "ca05e7efc0fc9e9b1ac94166132b236a", "type": "electric_scooter", "lat": 38.917064833333335, "is_reserved": 0, "lon": -77.0268315, "fusion_lon": 0.0, "is_disabled": 0, "fusion_lat": 0.0, "bike_id": "ca05e7efc0fc9e9b1ac94166132b236a", "rental_uris": {"ios": "https://dc.lft.to/lastmile_qr_scan", "android": "https://dc.lft.to/lastmile_qr_scan"}}, {"name": "0543021d81f561b356f519ef21df08eb", "type": "electric_scooter", "lat": 38.9203595, "is_reserved": 0, "lon": -77.041889, "fusion_lon": 0.0, "is_disabled": 0, "fusion_lat": 0.0, "bike_id": "0543021d81f561b356f519ef21df08eb", "rental_uris": {"ios": "https://dc.lft.to/lastmile_qr_scan", "android": "https://dc.lft.to/lastmile_qr_scan"}}, {"name": "d78501222e79b4d844357a2a71a00091", "type": "electric_bike", "lat": 38.954805, "is_reserved": 0, "lon": -77.08238883333334, "fusion_lon": 0.0, "is_disabled": 0, "fusion_lat": 0.0, "bike_id": "d78501222e79b4d844357a2a71a00091", "rental_uris": {"ios": "https://dc.lft.to/lastmile_qr_scan", "android": "https://dc.lft.to/lastmile_qr_scan"}}, {"name": "6059b9a741314ed1306e2399fa9aebb2", "type": "electric_scooter", "lat": 38.9259795, "is_reserved": 0, "lon": -77.0048385, "fusion_lon": 0.0, "is_disabled": 0, "fusion_lat": 0.0, "bike_id": "6059b9a741314ed1306e2399fa9aebb2", "rental_uris": {"ios": "https://dc.lft.to/lastmile_qr_scan", "android": "https://dc.lft.to/lastmile_qr_scan"}}, {"name": "bfde6223ddc2235f762d243dc66358b5", "type": "electric_scooter", "lat": 38.928750666666666, "is_reserved": 0, "lon": -77.041239, "fusion_lon": 0.0, "is_disabled": 0, "fusion_lat": 0.0, "bike_id": "bfde6223ddc2235f762d243dc66358b5", "rental_uris": {"ios": "https://dc.lft.to/lastmile_qr_scan", "android": "https://dc.lft.to/lastmile_qr_scan"}}, {"name": "b2aea09146353cc75798a6a5b3c0209b", "type": "electric_scooter", "lat": 38.909503666666666, "is_reserved": 0, "lon": -77.0432205, "fusion_lon": 0.0, "is_disabled": 0, "fusion_lat": 0.0, "bike_id": "b2aea09146353cc75798a6a5b3c0209b", "rental_uris": {"ios": "https://dc.lft.to/lastmile_qr_scan", "android": "https://dc.lft.to/lastmile_qr_scan"}}, {"name": "27e744f1e2f3eeb29e5a43135355c523", "type": "electric_scooter", "lat": 38.91594033333333, "is_reserved": 0, "lon": -76.983627, "fusion_lon": 0.0, "is_disabled": 0, "fusion_lat": 0.0, "bike_id": "27e744f1e2f3eeb29e5a43135355c523", "rental_uris": {"ios": "https://dc.lft.to/lastmile_qr_scan", "android": "https://dc.lft.to/lastmile_qr_scan"}}, {"name": "6209d4fdef94939df263bd33090cf288", "type": "electric_bike", "lat": 38.8713665, "is_reserved": 0, "lon": -76.93727133333333, "fusion_lon": 0.0, "is_disabled": 0, "fusion_lat": 0.0, "bike_id": "6209d4fdef94939df263bd33090cf288", "rental_uris": {"ios": "https://dc.lft.to/lastmile_qr_scan", "android": "https://dc.lft.to/lastmile_qr_scan"}}, {"name": "c031aedae312fb4e984f29ade56e1bbb", "type": "electric_scooter", "lat": 38.92986616666666, "is_reserved": 0, "lon": -77.07941583333333, "fusion_lon": 0.0, "is_disabled": 0, "fusion_lat": 0.0, "bike_id": "c031aedae312fb4e984f29ade56e1bbb", "rental_uris": {"ios": "https://dc.lft.to/lastmile_qr_scan", "android": "https://dc.lft.to/lastmile_qr_scan"}}, {"name": "e47e3c180d84ba0b0bd1ce3b86fc86d2", "type": "electric_scooter", "lat": 38.924833, "is_reserved": 0, "lon": -77.02710783333333, "fusion_lon": 0.0, "is_disabled": 0, "fusion_lat": 0.0, "bike_id": "e47e3c180d84ba0b0bd1ce3b86fc86d2", "rental_uris": {"ios": "https://dc.lft.to/lastmile_qr_scan", "android": "https://dc.lft.to/lastmile_qr_scan"}}, {"name": "a00205f05ad51010d0a818aad85537f0", "type": "electric_scooter", "lat": 38.94130883333333, "is_reserved": 0, "lon": -77.0154595, "fusion_lon": 0.0, "is_disabled": 0, "fusion_lat": 0.0, "bike_id": "a00205f05ad51010d0a818aad85537f0", "rental_uris": {"ios": "https://dc.lft.to/lastmile_qr_scan", "android": "https://dc.lft.to/lastmile_qr_scan"}}, {"name": "fe29afd1da2bf07c1210f5888815d601", "type": "electric_scooter", "lat": 38.909651833333335, "is_reserved": 0, "lon": -77.03385316666666, "fusion_lon": 0.0, "is_disabled": 0, "fusion_lat": 0.0, "bike_id": "fe29afd1da2bf07c1210f5888815d601", "rental_uris": {"ios": "https://dc.lft.to/lastmile_qr_scan", "android": "https://dc.lft.to/lastmile_qr_scan"}}, {"name": "6f6ac0e434be35be0b1f01060af447b5", "type": "electric_scooter", "lat": 38.89810716666667, "is_reserved": 0, "lon": -77.03296583333334, "fusion_lon": 0.0, "is_disabled": 0, "fusion_lat": 0.0, "bike_id": "6f6ac0e434be35be0b1f01060af447b5", "rental_uris": {"ios": "https://dc.lft.to/lastmile_qr_scan", "android": "https://dc.lft.to/lastmile_qr_scan"}}, {"name": "f6dcf0254ecc35072e0a784c1603174e", "type": "electric_bike", "lat": 38.832362, "is_reserved": 0, "lon": -76.94623666666666, "fusion_lon": 0.0, "is_disabled": 0, "fusion_lat": 0.0, "bike_id": "f6dcf0254ecc35072e0a784c1603174e", "rental_uris": {"ios": "https://dc.lft.to/lastmile_qr_scan", "android": "https://dc.lft.to/lastmile_qr_scan"}}, {"name": "fa238717ebc1ad8af2781ffa080d835c", "type": "electric_scooter", "lat": 38.92163733333334, "is_reserved": 0, "lon": -77.0325705, "fusion_lon": 0.0, "is_disabled": 0, "fusion_lat": 0.0, "bike_id": "fa238717ebc1ad8af2781ffa080d835c", "rental_uris": {"ios": "https://dc.lft.to/lastmile_qr_scan", "android": "https://dc.lft.to/lastmile_qr_scan"}}, {"name": "f20c3eee7d6cc13ab6097c4682821a09", "type": "electric_scooter", "lat": 38.92446183333333, "is_reserved": 0, "lon": -76.9933395, "fusion_lon": 0.0, "is_disabled": 0, "fusion_lat": 0.0, "bike_id": "f20c3eee7d6cc13ab6097c4682821a09", "rental_uris": {"ios": "https://dc.lft.to/lastmile_qr_scan", "android": "https://dc.lft.to/lastmile_qr_scan"}}, {"name": "3baa7e0420c06a9b3a92f8e771f0f969", "type": "electric_scooter", "lat": 38.915572166666664, "is_reserved": 0, "lon": -77.04610433333333, "fusion_lon": 0.0, "is_disabled": 0, "fusion_lat": 0.0, "bike_id": "3baa7e0420c06a9b3a92f8e771f0f969", "rental_uris": {"ios": "https://dc.lft.to/lastmile_qr_scan", "android": "https://dc.lft.to/lastmile_qr_scan"}}, {"name": "5f37bb4250773c02eb4ef5b20cdb5e5f", "type": "electric_scooter", "lat": 38.912591, "is_reserved": 0, "lon": -77.03324466666666, "fusion_lon": 0.0, "is_disabled": 0, "fusion_lat": 0.0, "bike_id": "5f37bb4250773c02eb4ef5b20cdb5e5f", "rental_uris": {"ios": "https://dc.lft.to/lastmile_qr_scan", "android": "https://dc.lft.to/lastmile_qr_scan"}}, {"name": "2643838a65243e7890889d013a84c371", "type": "electric_scooter", "lat": 38.90890616666667, "is_reserved": 0, "lon": -77.00569533333334, "fusion_lon": 0.0, "is_disabled": 0, "fusion_lat": 0.0, "bike_id": "2643838a65243e7890889d013a84c371", "rental_uris": {"ios": "https://dc.lft.to/lastmile_qr_scan", "android": "https://dc.lft.to/lastmile_qr_scan"}}, {"name": "84f202cb6521056598f89df8c4c37730", "type": "electric_scooter", "lat": 38.895148166666665, "is_reserved": 0, "lon": -77.02280566666667, "fusion_lon": 0.0, "is_disabled": 0, "fusion_lat": 0.0, "bike_id": "84f202cb6521056598f89df8c4c37730", "rental_uris": {"ios": "https://dc.lft.to/lastmile_qr_scan", "android": "https://dc.lft.to/lastmile_qr_scan"}}, {"name": "271b2adeda0abd7ff1ef31168a4b5092", "type": "electric_scooter", "lat": 38.898773166666665, "is_reserved": 0, "lon": -76.93157033333334, "fusion_lon": 0.0, "is_disabled": 0, "fusion_lat": 0.0, "bike_id": "271b2adeda0abd7ff1ef31168a4b5092", "rental_uris": {"ios": "https://dc.lft.to/lastmile_qr_scan", "android": "https://dc.lft.to/lastmile_qr_scan"}}, {"name": "477b3480180177b973a9d050932bc14c", "type": "electric_scooter", "lat": 38.94394416666667, "is_reserved": 0, "lon": -77.03891266666666, "fusion_lon": 0.0, "is_disabled": 0, "fusion_lat": 0.0, "bike_id": "477b3480180177b973a9d050932bc14c", "rental_uris": {"ios": "https://dc.lft.to/lastmile_qr_scan", "android": "https://dc.lft.to/lastmile_qr_scan"}}, {"name": "5d278f602044324703a0458a6464068d", "type": "electric_scooter", "lat": 38.90561233333333, "is_reserved": 0, "lon": -77.02810333333333, "fusion_lon": 0.0, "is_disabled": 0, "fusion_lat": 0.0, "bike_id": "5d278f602044324703a0458a6464068d", "rental_uris": {"ios": "https://dc.lft.to/lastmile_qr_scan", "android": "https://dc.lft.to/lastmile_qr_scan"}}, {"name": "6a8b989dbd0df1ba455cd6c5129254e6", "type": "electric_scooter", "lat": 38.927505, "is_reserved": 0, "lon": -77.0241895, "fusion_lon": 0.0, "is_disabled": 0, "fusion_lat": 0.0, "bike_id": "6a8b989dbd0df1ba455cd6c5129254e6", "rental_uris": {"ios": "https://dc.lft.to/lastmile_qr_scan", "android": "https://dc.lft.to/lastmile_qr_scan"}}, {"name": "17ba856ad37d1932c55834b00d1880a9", "type": "electric_scooter", "lat": 38.91901216666667, "is_reserved": 0, "lon": -77.0417245, "fusion_lon": 0.0, "is_disabled": 0, "fusion_lat": 0.0, "bike_id": "17ba856ad37d1932c55834b00d1880a9", "rental_uris": {"ios": "https://dc.lft.to/lastmile_qr_scan", "android": "https://dc.lft.to/lastmile_qr_scan"}}, {"name": "7d13cd130f5b05645f3f83de7e40a0ed", "type": "electric_scooter", "lat": 38.917317, "is_reserved": 0, "lon": -77.01024683333333, "fusion_lon": 0.0, "is_disabled": 0, "fusion_lat": 0.0, "bike_id": "7d13cd130f5b05645f3f83de7e40a0ed", "rental_uris": {"ios": "https://dc.lft.to/lastmile_qr_scan", "android": "https://dc.lft.to/lastmile_qr_scan"}}, {"name": "80570989aecd1e0d831235a16303e8f8", "type": "electric_bike", "lat": 38.9612405, "is_reserved": 0, "lon": -77.03272266666667, "fusion_lon": 0.0, "is_disabled": 0, "fusion_lat": 0.0, "bike_id": "80570989aecd1e0d831235a16303e8f8", "rental_uris": {"ios": "https://dc.lft.to/lastmile_qr_scan", "android": "https://dc.lft.to/lastmile_qr_scan"}}, {"name": "36b231c0a9dcd7cde17cb86191568dae", "type": "electric_scooter", "lat": 38.9228735, "is_reserved": 0, "lon": -77.042546, "fusion_lon": 0.0, "is_disabled": 0, "fusion_lat": 0.0, "bike_id": "36b231c0a9dcd7cde17cb86191568dae", "rental_uris": {"ios": "https://dc.lft.to/lastmile_qr_scan", "android": "https://dc.lft.to/lastmile_qr_scan"}}, {"name": "4adaf1cebb66db92406ede1c7688d8e0", "type": "electric_scooter", "lat": 38.8981655, "is_reserved": 0, "lon": -77.03298516666666, "fusion_lon": 0.0, "is_disabled": 0, "fusion_lat": 0.0, "bike_id": "4adaf1cebb66db92406ede1c7688d8e0", "rental_uris": {"ios": "https://dc.lft.to/lastmile_qr_scan", "android": "https://dc.lft.to/lastmile_qr_scan"}}, {"name": "6508b81e1e0931795ed7dcb19fd19bf2", "type": "electric_scooter", "lat": 38.89345216666667, "is_reserved": 0, "lon": -76.99149766666666, "fusion_lon": 0.0, "is_disabled": 0, "fusion_lat": 0.0, "bike_id": "6508b81e1e0931795ed7dcb19fd19bf2", "rental_uris": {"ios": "https://dc.lft.to/lastmile_qr_scan", "android": "https://dc.lft.to/lastmile_qr_scan"}}, {"name": "c3356ff268c82cf793340b6146e5b21e", "type": "electric_scooter", "lat": 38.8841165, "is_reserved": 0, "lon": -77.01740383333333, "fusion_lon": 0.0, "is_disabled": 0, "fusion_lat": 0.0, "bike_id": "c3356ff268c82cf793340b6146e5b21e", "rental_uris": {"ios": "https://dc.lft.to/lastmile_qr_scan", "android": "https://dc.lft.to/lastmile_qr_scan"}}, {"name": "8ff3721801c2e9e84e0bbac8a83f2aeb", "type": "electric_scooter", "lat": 38.932025, "is_reserved": 0, "lon": -77.03849616666666, "fusion_lon": 0.0, "is_disabled": 0, "fusion_lat": 0.0, "bike_id": "8ff3721801c2e9e84e0bbac8a83f2aeb", "rental_uris": {"ios": "https://dc.lft.to/lastmile_qr_scan", "android": "https://dc.lft.to/lastmile_qr_scan"}}, {"name": "2e10e722dbd98e30a517b5f34c857390", "type": "electric_scooter", "lat": 38.90368383333333, "is_reserved": 0, "lon": -77.038688, "fusion_lon": 0.0, "is_disabled": 0, "fusion_lat": 0.0, "bike_id": "2e10e722dbd98e30a517b5f34c857390", "rental_uris": {"ios": "https://dc.lft.to/lastmile_qr_scan", "android": "https://dc.lft.to/lastmile_qr_scan"}}, {"name": "7652d7d972ba74fc675ce297167247ac", "type": "electric_scooter", "lat": 38.924671833333335, "is_reserved": 0, "lon": -77.028315, "fusion_lon": 0.0, "is_disabled": 0, "fusion_lat": 0.0, "bike_id": "7652d7d972ba74fc675ce297167247ac", "rental_uris": {"ios": "https://dc.lft.to/lastmile_qr_scan", "android": "https://dc.lft.to/lastmile_qr_scan"}}, {"name": "b26b12b5e9766157d3853f14ff0fa9e6", "type": "electric_scooter", "lat": 38.928692166666664, "is_reserved": 0, "lon": -77.0347545, "fusion_lon": 0.0, "is_disabled": 0, "fusion_lat": 0.0, "bike_id": "b26b12b5e9766157d3853f14ff0fa9e6", "rental_uris": {"ios": "https://dc.lft.to/lastmile_qr_scan", "android": "https://dc.lft.to/lastmile_qr_scan"}}, {"name": "012e63e3a16d45640d6e91cb4c0c9ac4", "type": "electric_scooter", "lat": 38.89475933333333, "is_reserved": 0, "lon": -76.99534783333333, "fusion_lon": 0.0, "is_disabled": 0, "fusion_lat": 0.0, "bike_id": "012e63e3a16d45640d6e91cb4c0c9ac4", "rental_uris": {"ios": "https://dc.lft.to/lastmile_qr_scan", "android": "https://dc.lft.to/lastmile_qr_scan"}}, {"name": "682dc8a8f29c05b830dd9a0cb11eda5f", "type": "electric_scooter", "lat": 38.87914133333334, "is_reserved": 0, "lon": -77.01733683333333, "fusion_lon": 0.0, "is_disabled": 0, "fusion_lat": 0.0, "bike_id": "682dc8a8f29c05b830dd9a0cb11eda5f", "rental_uris": {"ios": "https://dc.lft.to/lastmile_qr_scan", "android": "https://dc.lft.to/lastmile_qr_scan"}}, {"name": "e190387ebfd2f8a23ae46ab00f76b15a", "type": "electric_scooter", "lat": 38.893905333333336, "is_reserved": 0, "lon": -77.0235525, "fusion_lon": 0.0, "is_disabled": 0, "fusion_lat": 0.0, "bike_id": "e190387ebfd2f8a23ae46ab00f76b15a", "rental_uris": {"ios": "https://dc.lft.to/lastmile_qr_scan", "android": "https://dc.lft.to/lastmile_qr_scan"}}, {"name": "4b4ba2b3f7b4d8226537a5da91cc61d1", "type": "electric_bike", "lat": 38.990903333333335, "is_reserved": 0, "lon": -76.87495733333333, "fusion_lon": 0.0, "is_disabled": 0, "fusion_lat": 0.0, "bike_id": "4b4ba2b3f7b4d8226537a5da91cc61d1", "rental_uris": {"ios": "https://dc.lft.to/lastmile_qr_scan", "android": "https://dc.lft.to/lastmile_qr_scan"}}, {"name": "06df0c3435c47e3b35c3ca3ef6f0cc2c", "type": "electric_scooter", "lat": 38.91712366666667, "is_reserved": 0, "lon": -77.03858466666667, "fusion_lon": 0.0, "is_disabled": 0, "fusion_lat": 0.0, "bike_id": "06df0c3435c47e3b35c3ca3ef6f0cc2c", "rental_uris": {"ios": "https://dc.lft.to/lastmile_qr_scan", "android": "https://dc.lft.to/lastmile_qr_scan"}}, {"name": "261ba350b46b4407cc1a20b8a5886d7d", "type": "electric_scooter", "lat": 38.90536983333333, "is_reserved": 0, "lon": -77.05925433333333, "fusion_lon": 0.0, "is_disabled": 0, "fusion_lat": 0.0, "bike_id": "261ba350b46b4407cc1a20b8a5886d7d", "rental_uris": {"ios": "https://dc.lft.to/lastmile_qr_scan", "android": "https://dc.lft.to/lastmile_qr_scan"}}, {"name": "2317d630ff80d2dcbc609cdfe8110c24", "type": "electric_bike", "lat": 38.828741, "is_reserved": 0, "lon": -77.1121985, "fusion_lon": 0.0, "is_disabled": 0, "fusion_lat": 0.0, "bike_id": "2317d630ff80d2dcbc609cdfe8110c24", "rental_uris": {"ios": "https://dc.lft.to/lastmile_qr_scan", "android": "https://dc.lft.to/lastmile_qr_scan"}}, {"name": "c2e07f6d0ed0ec41a84ba8cb9d4fbb4a", "type": "electric_scooter", "lat": 38.919138333333336, "is_reserved": 0, "lon": -77.03124766666667, "fusion_lon": 0.0, "is_disabled": 0, "fusion_lat": 0.0, "bike_id": "c2e07f6d0ed0ec41a84ba8cb9d4fbb4a", "rental_uris": {"ios": "https://dc.lft.to/lastmile_qr_scan", "android": "https://dc.lft.to/lastmile_qr_scan"}}, {"name": "abe330f5381d17a42a7677cd05c83b9a", "type": "electric_scooter", "lat": 38.90002033333333, "is_reserved": 0, "lon": -77.01126033333334, "fusion_lon": 0.0, "is_disabled": 0, "fusion_lat": 0.0, "bike_id": "abe330f5381d17a42a7677cd05c83b9a", "rental_uris": {"ios": "https://dc.lft.to/lastmile_qr_scan", "android": "https://dc.lft.to/lastmile_qr_scan"}}, {"name": "2cd02906a27cd5fd08a836c91b0b9b27", "type": "electric_scooter", "lat": 38.876333, "is_reserved": 0, "lon": -77.00915266666667, "fusion_lon": 0.0, "is_disabled": 0, "fusion_lat": 0.0, "bike_id": "2cd02906a27cd5fd08a836c91b0b9b27", "rental_uris": {"ios": "https://dc.lft.to/lastmile_qr_scan", "android": "https://dc.lft.to/lastmile_qr_scan"}}, {"name": "166c1edf38fca59dc1cd20c6d213c3a9", "type": "electric_scooter", "lat": 38.92442066666667, "is_reserved": 0, "lon": -77.0335185, "fusion_lon": 0.0, "is_disabled": 0, "fusion_lat": 0.0, "bike_id": "166c1edf38fca59dc1cd20c6d213c3a9", "rental_uris": {"ios": "https://dc.lft.to/lastmile_qr_scan", "android": "https://dc.lft.to/lastmile_qr_scan"}}, {"name": "1e1b0a98aeff5160b8228ecbc8308006", "type": "electric_scooter", "lat": 38.88410666666667, "is_reserved": 0, "lon": -77.01527883333333, "fusion_lon": 0.0, "is_disabled": 0, "fusion_lat": 0.0, "bike_id": "1e1b0a98aeff5160b8228ecbc8308006", "rental_uris": {"ios": "https://dc.lft.to/lastmile_qr_scan", "android": "https://dc.lft.to/lastmile_qr_scan"}}, {"name": "ae0b85a75d4d8188da811d52cb7a32f6", "type": "electric_scooter", "lat": 38.90581016666667, "is_reserved": 0, "lon": -77.04861483333333, "fusion_lon": 0.0, "is_disabled": 0, "fusion_lat": 0.0, "bike_id": "ae0b85a75d4d8188da811d52cb7a32f6", "rental_uris": {"ios": "https://dc.lft.to/lastmile_qr_scan", "android": "https://dc.lft.to/lastmile_qr_scan"}}, {"name": "03056da6f2d962b3193d23b397bcf222", "type": "electric_scooter", "lat": 38.89230416666667, "is_reserved": 0, "lon": -77.02210283333334, "fusion_lon": 0.0, "is_disabled": 0, "fusion_lat": 0.0, "bike_id": "03056da6f2d962b3193d23b397bcf222", "rental_uris": {"ios": "https://dc.lft.to/lastmile_qr_scan", "android": "https://dc.lft.to/lastmile_qr_scan"}}, {"name": "b1f1dc90f2f56c174d4cc7ad216a1c1f", "type": "electric_bike", "lat": 39.003818833333334, "is_reserved": 0, "lon": -77.01287833333333, "fusion_lon": 0.0, "is_disabled": 0, "fusion_lat": 0.0, "bike_id": "b1f1dc90f2f56c174d4cc7ad216a1c1f", "rental_uris": {"ios": "https://dc.lft.to/lastmile_qr_scan", "android": "https://dc.lft.to/lastmile_qr_scan"}}, {"name": "81d987a378019d62498886f231add356", "type": "electric_bike", "lat": 38.8278815, "is_reserved": 0, "lon": -77.0091705, "fusion_lon": 0.0, "is_disabled": 0, "fusion_lat": 0.0, "bike_id": "81d987a378019d62498886f231add356", "rental_uris": {"ios": "https://dc.lft.to/lastmile_qr_scan", "android": "https://dc.lft.to/lastmile_qr_scan"}}, {"name": "03dd9fb5dae439ee4c4ccbf8b4ed81ec", "type": "electric_scooter", "lat": 38.9167385, "is_reserved": 0, "lon": -77.02329116666667, "fusion_lon": 0.0, "is_disabled": 0, "fusion_lat": 0.0, "bike_id": "03dd9fb5dae439ee4c4ccbf8b4ed81ec", "rental_uris": {"ios": "https://dc.lft.to/lastmile_qr_scan", "android": "https://dc.lft.to/lastmile_qr_scan"}}, {"name": "8be35e02bfca7347e8ac66050b27eb26", "type": "electric_scooter", "lat": 38.956475166666664, "is_reserved": 0, "lon": -77.0328535, "fusion_lon": 0.0, "is_disabled": 0, "fusion_lat": 0.0, "bike_id": "8be35e02bfca7347e8ac66050b27eb26", "rental_uris": {"ios": "https://dc.lft.to/lastmile_qr_scan", "android": "https://dc.lft.to/lastmile_qr_scan"}}, {"name": "fef9fe958594a55b34296794dd666a9c", "type": "electric_bike", "lat": 38.80780766666667, "is_reserved": 0, "lon": -77.12951016666666, "fusion_lon": 0.0, "is_disabled": 0, "fusion_lat": 0.0, "bike_id": "fef9fe958594a55b34296794dd666a9c", "rental_uris": {"ios": "https://dc.lft.to/lastmile_qr_scan", "android": "https://dc.lft.to/lastmile_qr_scan"}}, {"name": "84739cffb1733cee2fc08abcae9bacda", "type": "electric_scooter", "lat": 38.934586333333336, "is_reserved": 0, "lon": -77.07296466666666, "fusion_lon": 0.0, "is_disabled": 0, "fusion_lat": 0.0, "bike_id": "84739cffb1733cee2fc08abcae9bacda", "rental_uris": {"ios": "https://dc.lft.to/lastmile_qr_scan", "android": "https://dc.lft.to/lastmile_qr_scan"}}, {"name": "40a4b62fda79f297b56148a5735b61bf", "type": "electric_scooter", "lat": 38.900349, "is_reserved": 0, "lon": -76.98844466666667, "fusion_lon": 0.0, "is_disabled": 0, "fusion_lat": 0.0, "bike_id": "40a4b62fda79f297b56148a5735b61bf", "rental_uris": {"ios": "https://dc.lft.to/lastmile_qr_scan", "android": "https://dc.lft.to/lastmile_qr_scan"}}, {"name": "035554f76367cdca129cc224af8e5a30", "type": "electric_scooter", "lat": 38.92148016666667, "is_reserved": 0, "lon": -77.034539, "fusion_lon": 0.0, "is_disabled": 0, "fusion_lat": 0.0, "bike_id": "035554f76367cdca129cc224af8e5a30", "rental_uris": {"ios": "https://dc.lft.to/lastmile_qr_scan", "android": "https://dc.lft.to/lastmile_qr_scan"}}, {"name": "7361ef9fc55531ba2c00c52fa8229781", "type": "electric_scooter", "lat": 38.8544785, "is_reserved": 0, "lon": -76.98579766666667, "fusion_lon": 0.0, "is_disabled": 0, "fusion_lat": 0.0, "bike_id": "7361ef9fc55531ba2c00c52fa8229781", "rental_uris": {"ios": "https://dc.lft.to/lastmile_qr_scan", "android": "https://dc.lft.to/lastmile_qr_scan"}}, {"name": "8bf75310edfdfbb2190556cf5295ab46", "type": "electric_scooter", "lat": 38.91870733333333, "is_reserved": 0, "lon": -77.04350166666667, "fusion_lon": 0.0, "is_disabled": 0, "fusion_lat": 0.0, "bike_id": "8bf75310edfdfbb2190556cf5295ab46", "rental_uris": {"ios": "https://dc.lft.to/lastmile_qr_scan", "android": "https://dc.lft.to/lastmile_qr_scan"}}, {"name": "c7dee546f79eebd41c1b1a944d773cde", "type": "electric_scooter", "lat": 38.922396, "is_reserved": 0, "lon": -77.03665916666667, "fusion_lon": 0.0, "is_disabled": 0, "fusion_lat": 0.0, "bike_id": "c7dee546f79eebd41c1b1a944d773cde", "rental_uris": {"ios": "https://dc.lft.to/lastmile_qr_scan", "android": "https://dc.lft.to/lastmile_qr_scan"}}, {"name": "07e8b0f99374b666666457df2f1b6a56", "type": "electric_scooter", "lat": 38.9409895, "is_reserved": 0, "lon": -77.0210955, "fusion_lon": 0.0, "is_disabled": 0, "fusion_lat": 0.0, "bike_id": "07e8b0f99374b666666457df2f1b6a56", "rental_uris": {"ios": "https://dc.lft.to/lastmile_qr_scan", "android": "https://dc.lft.to/lastmile_qr_scan"}}, {"name": "30cbb3ced1239423202221fbd0894bb1", "type": "electric_scooter", "lat": 38.924826, "is_reserved": 0, "lon": -77.02844183333333, "fusion_lon": 0.0, "is_disabled": 0, "fusion_lat": 0.0, "bike_id": "30cbb3ced1239423202221fbd0894bb1", "rental_uris": {"ios": "https://dc.lft.to/lastmile_qr_scan", "android": "https://dc.lft.to/lastmile_qr_scan"}}, {"name": "f2cdd582926fbba51a1b363bb88079bd", "type": "electric_scooter", "lat": 38.928816, "is_reserved": 0, "lon": -77.037587, "fusion_lon": 0.0, "is_disabled": 0, "fusion_lat": 0.0, "bike_id": "f2cdd582926fbba51a1b363bb88079bd", "rental_uris": {"ios": "https://dc.lft.to/lastmile_qr_scan", "android": "https://dc.lft.to/lastmile_qr_scan"}}, {"name": "9749075d1351ddd2449212d39e021973", "type": "electric_scooter", "lat": 38.8784235, "is_reserved": 0, "lon": -77.019703, "fusion_lon": 0.0, "is_disabled": 0, "fusion_lat": 0.0, "bike_id": "9749075d1351ddd2449212d39e021973", "rental_uris": {"ios": "https://dc.lft.to/lastmile_qr_scan", "android": "https://dc.lft.to/lastmile_qr_scan"}}, {"name": "5c81b841b77759bc34b5a0c05f52f55b", "type": "electric_scooter", "lat": 38.915554, "is_reserved": 0, "lon": -77.02185833333333, "fusion_lon": 0.0, "is_disabled": 0, "fusion_lat": 0.0, "bike_id": "5c81b841b77759bc34b5a0c05f52f55b", "rental_uris": {"ios": "https://dc.lft.to/lastmile_qr_scan", "android": "https://dc.lft.to/lastmile_qr_scan"}}, {"name": "c41c395b219ac377cb7ae89f4ef91c6c", "type": "electric_scooter", "lat": 38.89911216666667, "is_reserved": 0, "lon": -77.03100566666667, "fusion_lon": 0.0, "is_disabled": 0, "fusion_lat": 0.0, "bike_id": "c41c395b219ac377cb7ae89f4ef91c6c", "rental_uris": {"ios": "https://dc.lft.to/lastmile_qr_scan", "android": "https://dc.lft.to/lastmile_qr_scan"}}, {"name": "fca1f7d0e5214e418ed84bd232c3fee3", "type": "electric_bike", "lat": 38.9590815, "is_reserved": 0, "lon": -77.00150016666667, "fusion_lon": 0.0, "is_disabled": 0, "fusion_lat": 0.0, "bike_id": "fca1f7d0e5214e418ed84bd232c3fee3", "rental_uris": {"ios": "https://dc.lft.to/lastmile_qr_scan", "android": "https://dc.lft.to/lastmile_qr_scan"}}, {"name": "a4bb5fd804eb4ae60bf5f3b540cc2e1a", "type": "electric_scooter", "lat": 38.927341, "is_reserved": 0, "lon": -77.029847, "fusion_lon": 0.0, "is_disabled": 0, "fusion_lat": 0.0, "bike_id": "a4bb5fd804eb4ae60bf5f3b540cc2e1a", "rental_uris": {"ios": "https://dc.lft.to/lastmile_qr_scan", "android": "https://dc.lft.to/lastmile_qr_scan"}}, {"name": "4fa0f502a94db9a1dcc5e3a3d242b048", "type": "electric_scooter", "lat": 38.93937416666667, "is_reserved": 0, "lon": -77.01708383333333, "fusion_lon": 0.0, "is_disabled": 0, "fusion_lat": 0.0, "bike_id": "4fa0f502a94db9a1dcc5e3a3d242b048", "rental_uris": {"ios": "https://dc.lft.to/lastmile_qr_scan", "android": "https://dc.lft.to/lastmile_qr_scan"}}, {"name": "be997c173c1b40cfe6fa1570a62967da", "type": "electric_scooter", "lat": 38.934519333333334, "is_reserved": 0, "lon": -77.0723525, "fusion_lon": 0.0, "is_disabled": 0, "fusion_lat": 0.0, "bike_id": "be997c173c1b40cfe6fa1570a62967da", "rental_uris": {"ios": "https://dc.lft.to/lastmile_qr_scan", "android": "https://dc.lft.to/lastmile_qr_scan"}}, {"name": "db5e5281b135a9791a2b1922a1e732f2", "type": "electric_scooter", "lat": 38.89609733333333, "is_reserved": 0, "lon": -77.04502, "fusion_lon": 0.0, "is_disabled": 0, "fusion_lat": 0.0, "bike_id": "db5e5281b135a9791a2b1922a1e732f2", "rental_uris": {"ios": "https://dc.lft.to/lastmile_qr_scan", "android": "https://dc.lft.to/lastmile_qr_scan"}}, {"name": "25c9949b038405d0d40363b9a4d67563", "type": "electric_scooter", "lat": 38.8831615, "is_reserved": 0, "lon": -77.00935666666666, "fusion_lon": 0.0, "is_disabled": 0, "fusion_lat": 0.0, "bike_id": "25c9949b038405d0d40363b9a4d67563", "rental_uris": {"ios": "https://dc.lft.to/lastmile_qr_scan", "android": "https://dc.lft.to/lastmile_qr_scan"}}, {"name": "ab4c0a57ac25eb5e9ea9695136294442", "type": "electric_scooter", "lat": 38.9053375, "is_reserved": 0, "lon": -77.05025216666667, "fusion_lon": 0.0, "is_disabled": 0, "fusion_lat": 0.0, "bike_id": "ab4c0a57ac25eb5e9ea9695136294442", "rental_uris": {"ios": "https://dc.lft.to/lastmile_qr_scan", "android": "https://dc.lft.to/lastmile_qr_scan"}}, {"name": "32b9b97b42b4defa32c922b661996bce", "type": "electric_scooter", "lat": 38.89524216666667, "is_reserved": 0, "lon": -77.02274283333334, "fusion_lon": 0.0, "is_disabled": 0, "fusion_lat": 0.0, "bike_id": "32b9b97b42b4defa32c922b661996bce", "rental_uris": {"ios": "https://dc.lft.to/lastmile_qr_scan", "android": "https://dc.lft.to/lastmile_qr_scan"}}, {"name": "0f221415c0e87001729c01e5a548fdf9", "type": "electric_bike", "lat": 38.874793833333335, "is_reserved": 0, "lon": -76.9653245, "fusion_lon": 0.0, "is_disabled": 0, "fusion_lat": 0.0, "bike_id": "0f221415c0e87001729c01e5a548fdf9", "rental_uris": {"ios": "https://dc.lft.to/lastmile_qr_scan", "android": "https://dc.lft.to/lastmile_qr_scan"}}, {"name": "821c07431cf42c7d89bade36a75dad2c", "type": "electric_scooter", "lat": 38.89611633333333, "is_reserved": 0, "lon": -77.01015666666666, "fusion_lon": 0.0, "is_disabled": 0, "fusion_lat": 0.0, "bike_id": "821c07431cf42c7d89bade36a75dad2c", "rental_uris": {"ios": "https://dc.lft.to/lastmile_qr_scan", "android": "https://dc.lft.to/lastmile_qr_scan"}}, {"name": "50a0325cb32e671000c240c809f8e0eb", "type": "electric_scooter", "lat": 38.866620833333336, "is_reserved": 0, "lon": -76.98889283333334, "fusion_lon": 0.0, "is_disabled": 0, "fusion_lat": 0.0, "bike_id": "50a0325cb32e671000c240c809f8e0eb", "rental_uris": {"ios": "https://dc.lft.to/lastmile_qr_scan", "android": "https://dc.lft.to/lastmile_qr_scan"}}, {"name": "067b921da4f2839c56edf34dae1a3a0b", "type": "electric_scooter", "lat": 38.8845145, "is_reserved": 0, "lon": -77.0057645, "fusion_lon": 0.0, "is_disabled": 0, "fusion_lat": 0.0, "bike_id": "067b921da4f2839c56edf34dae1a3a0b", "rental_uris": {"ios": "https://dc.lft.to/lastmile_qr_scan", "android": "https://dc.lft.to/lastmile_qr_scan"}}, {"name": "7394986ef293c3e2126e17639db59132", "type": "electric_bike", "lat": 38.89885233333333, "is_reserved": 0, "lon": -76.98386133333334, "fusion_lon": 0.0, "is_disabled": 0, "fusion_lat": 0.0, "bike_id": "7394986ef293c3e2126e17639db59132", "rental_uris": {"ios": "https://dc.lft.to/lastmile_qr_scan", "android": "https://dc.lft.to/lastmile_qr_scan"}}, {"name": "39db5976d82caf78183ee89d0c3122b3", "type": "electric_scooter", "lat": 38.90126, "is_reserved": 0, "lon": -77.0425405, "fusion_lon": 0.0, "is_disabled": 0, "fusion_lat": 0.0, "bike_id": "39db5976d82caf78183ee89d0c3122b3", "rental_uris": {"ios": "https://dc.lft.to/lastmile_qr_scan", "android": "https://dc.lft.to/lastmile_qr_scan"}}, {"name": "830354747d5cafb45d0e2c4cfbfb5cf3", "type": "electric_scooter", "lat": 38.927551666666666, "is_reserved": 0, "lon": -77.0241955, "fusion_lon": 0.0, "is_disabled": 0, "fusion_lat": 0.0, "bike_id": "830354747d5cafb45d0e2c4cfbfb5cf3", "rental_uris": {"ios": "https://dc.lft.to/lastmile_qr_scan", "android": "https://dc.lft.to/lastmile_qr_scan"}}, {"name": "a7ac36300715997830e354997c434446", "type": "electric_scooter", "lat": 38.89881466666667, "is_reserved": 0, "lon": -76.9317095, "fusion_lon": 0.0, "is_disabled": 0, "fusion_lat": 0.0, "bike_id": "a7ac36300715997830e354997c434446", "rental_uris": {"ios": "https://dc.lft.to/lastmile_qr_scan", "android": "https://dc.lft.to/lastmile_qr_scan"}}, {"name": "636d5993c46e6cede3b35e314744e0d2", "type": "electric_scooter", "lat": 38.928804666666665, "is_reserved": 0, "lon": -77.03734716666666, "fusion_lon": 0.0, "is_disabled": 0, "fusion_lat": 0.0, "bike_id": "636d5993c46e6cede3b35e314744e0d2", "rental_uris": {"ios": "https://dc.lft.to/lastmile_qr_scan", "android": "https://dc.lft.to/lastmile_qr_scan"}}, {"name": "4dbc0aabf509830ba4168d25dd2ef72b", "type": "electric_scooter", "lat": 38.916407166666666, "is_reserved": 0, "lon": -77.04623666666667, "fusion_lon": 0.0, "is_disabled": 0, "fusion_lat": 0.0, "bike_id": "4dbc0aabf509830ba4168d25dd2ef72b", "rental_uris": {"ios": "https://dc.lft.to/lastmile_qr_scan", "android": "https://dc.lft.to/lastmile_qr_scan"}}, {"name": "7cda248b589a938805a8ec82f113add4", "type": "electric_scooter", "lat": 38.89401933333333, "is_reserved": 0, "lon": -76.99369433333334, "fusion_lon": 0.0, "is_disabled": 0, "fusion_lat": 0.0, "bike_id": "7cda248b589a938805a8ec82f113add4", "rental_uris": {"ios": "https://dc.lft.to/lastmile_qr_scan", "android": "https://dc.lft.to/lastmile_qr_scan"}}, {"name": "bd204bfe2b79fa8bb36b6039e3c8fabc", "type": "electric_scooter", "lat": 38.90516083333333, "is_reserved": 0, "lon": -77.0662735, "fusion_lon": 0.0, "is_disabled": 0, "fusion_lat": 0.0, "bike_id": "bd204bfe2b79fa8bb36b6039e3c8fabc", "rental_uris": {"ios": "https://dc.lft.to/lastmile_qr_scan", "android": "https://dc.lft.to/lastmile_qr_scan"}}, {"name": "abe5a7e78643e082fda1bb5520d89214", "type": "electric_scooter", "lat": 38.94633566666667, "is_reserved": 0, "lon": -77.019235, "fusion_lon": 0.0, "is_disabled": 0, "fusion_lat": 0.0, "bike_id": "abe5a7e78643e082fda1bb5520d89214", "rental_uris": {"ios": "https://dc.lft.to/lastmile_qr_scan", "android": "https://dc.lft.to/lastmile_qr_scan"}}, {"name": "a31df62dfc810df40dbbdbf767da2575", "type": "electric_bike", "lat": 38.942708, "is_reserved": 0, "lon": -76.98069466666666, "fusion_lon": 0.0, "is_disabled": 0, "fusion_lat": 0.0, "bike_id": "a31df62dfc810df40dbbdbf767da2575", "rental_uris": {"ios": "https://dc.lft.to/lastmile_qr_scan", "android": "https://dc.lft.to/lastmile_qr_scan"}}, {"name": "2b1a1c0830808490fc0c2b91bb361047", "type": "electric_bike", "lat": 38.95288883333333, "is_reserved": 0, "lon": -76.97803433333333, "fusion_lon": 0.0, "is_disabled": 0, "fusion_lat": 0.0, "bike_id": "2b1a1c0830808490fc0c2b91bb361047", "rental_uris": {"ios": "https://dc.lft.to/lastmile_qr_scan", "android": "https://dc.lft.to/lastmile_qr_scan"}}, {"name": "e794c79b5a44e13bdacff10b8d61adfb", "type": "electric_scooter", "lat": 38.885001833333334, "is_reserved": 0, "lon": -76.99839833333333, "fusion_lon": 0.0, "is_disabled": 0, "fusion_lat": 0.0, "bike_id": "e794c79b5a44e13bdacff10b8d61adfb", "rental_uris": {"ios": "https://dc.lft.to/lastmile_qr_scan", "android": "https://dc.lft.to/lastmile_qr_scan"}}, {"name": "7c94ea0ddafe6c823eb5bc205bb9f4c8", "type": "electric_scooter", "lat": 38.9418145, "is_reserved": 0, "lon": -77.03028083333334, "fusion_lon": 0.0, "is_disabled": 0, "fusion_lat": 0.0, "bike_id": "7c94ea0ddafe6c823eb5bc205bb9f4c8", "rental_uris": {"ios": "https://dc.lft.to/lastmile_qr_scan", "android": "https://dc.lft.to/lastmile_qr_scan"}}, {"name": "5d5947ab39db56538eae601685a90bb4", "type": "electric_scooter", "lat": 38.899204166666664, "is_reserved": 0, "lon": -77.01528133333333, "fusion_lon": 0.0, "is_disabled": 0, "fusion_lat": 0.0, "bike_id": "5d5947ab39db56538eae601685a90bb4", "rental_uris": {"ios": "https://dc.lft.to/lastmile_qr_scan", "android": "https://dc.lft.to/lastmile_qr_scan"}}, {"name": "42e8c60321676db82e3955a079e31691", "type": "electric_scooter", "lat": 38.90262216666667, "is_reserved": 0, "lon": -77.03171183333333, "fusion_lon": 0.0, "is_disabled": 0, "fusion_lat": 0.0, "bike_id": "42e8c60321676db82e3955a079e31691", "rental_uris": {"ios": "https://dc.lft.to/lastmile_qr_scan", "android": "https://dc.lft.to/lastmile_qr_scan"}}, {"name": "6069d671751684e4d71350346b4affd4", "type": "electric_bike", "lat": 38.84609733333333, "is_reserved": 0, "lon": -76.978299, "fusion_lon": 0.0, "is_disabled": 0, "fusion_lat": 0.0, "bike_id": "6069d671751684e4d71350346b4affd4", "rental_uris": {"ios": "https://dc.lft.to/lastmile_qr_scan", "android": "https://dc.lft.to/lastmile_qr_scan"}}, {"name": "f5255fe41316cf8c4676a822ef8fa644", "type": "electric_scooter", "lat": 38.9159325, "is_reserved": 0, "lon": -76.98360366666667, "fusion_lon": 0.0, "is_disabled": 0, "fusion_lat": 0.0, "bike_id": "f5255fe41316cf8c4676a822ef8fa644", "rental_uris": {"ios": "https://dc.lft.to/lastmile_qr_scan", "android": "https://dc.lft.to/lastmile_qr_scan"}}, {"name": "f650cf55289cfa29171b07ac54d87bd8", "type": "electric_bike", "lat": 39.0581325, "is_reserved": 0, "lon": -77.12624883333334, "fusion_lon": 0.0, "is_disabled": 0, "fusion_lat": 0.0, "bike_id": "f650cf55289cfa29171b07ac54d87bd8", "rental_uris": {"ios": "https://dc.lft.to/lastmile_qr_scan", "android": "https://dc.lft.to/lastmile_qr_scan"}}, {"name": "adbd5cb4982cdcc5fa216b93b3fff187", "type": "electric_scooter", "lat": 38.914717, "is_reserved": 0, "lon": -77.00834316666666, "fusion_lon": 0.0, "is_disabled": 0, "fusion_lat": 0.0, "bike_id": "adbd5cb4982cdcc5fa216b93b3fff187", "rental_uris": {"ios": "https://dc.lft.to/lastmile_qr_scan", "android": "https://dc.lft.to/lastmile_qr_scan"}}, {"name": "eca0b6101ab414e22e5064ee1018e875", "type": "electric_scooter", "lat": 38.8986895, "is_reserved": 0, "lon": -77.0326775, "fusion_lon": 0.0, "is_disabled": 0, "fusion_lat": 0.0, "bike_id": "eca0b6101ab414e22e5064ee1018e875", "rental_uris": {"ios": "https://dc.lft.to/lastmile_qr_scan", "android": "https://dc.lft.to/lastmile_qr_scan"}}, {"name": "8d277e847d3a24fa6474bbf84eabafd4", "type": "electric_scooter", "lat": 38.9039855, "is_reserved": 0, "lon": -77.0400905, "fusion_lon": 0.0, "is_disabled": 0, "fusion_lat": 0.0, "bike_id": "8d277e847d3a24fa6474bbf84eabafd4", "rental_uris": {"ios": "https://dc.lft.to/lastmile_qr_scan", "android": "https://dc.lft.to/lastmile_qr_scan"}}, {"name": "03edf62f33cbd9cf8326a0e569588e35", "type": "electric_scooter", "lat": 38.9110785, "is_reserved": 0, "lon": -77.04232416666666, "fusion_lon": 0.0, "is_disabled": 0, "fusion_lat": 0.0, "bike_id": "03edf62f33cbd9cf8326a0e569588e35", "rental_uris": {"ios": "https://dc.lft.to/lastmile_qr_scan", "android": "https://dc.lft.to/lastmile_qr_scan"}}, {"name": "2b61941121329fd0e783c9e9d625e8e5", "type": "electric_scooter", "lat": 38.91103666666667, "is_reserved": 0, "lon": -77.04480466666666, "fusion_lon": 0.0, "is_disabled": 0, "fusion_lat": 0.0, "bike_id": "2b61941121329fd0e783c9e9d625e8e5", "rental_uris": {"ios": "https://dc.lft.to/lastmile_qr_scan", "android": "https://dc.lft.to/lastmile_qr_scan"}}, {"name": "f7fadf7e42337139a027f006ae55d684", "type": "electric_scooter", "lat": 38.9174015, "is_reserved": 0, "lon": -77.02117716666666, "fusion_lon": 0.0, "is_disabled": 0, "fusion_lat": 0.0, "bike_id": "f7fadf7e42337139a027f006ae55d684", "rental_uris": {"ios": "https://dc.lft.to/lastmile_qr_scan", "android": "https://dc.lft.to/lastmile_qr_scan"}}, {"name": "74b4c5ee71ef6d7bff0463fd36743a44", "type": "electric_scooter", "lat": 38.94989, "is_reserved": 0, "lon": -77.06694383333334, "fusion_lon": 0.0, "is_disabled": 0, "fusion_lat": 0.0, "bike_id": "74b4c5ee71ef6d7bff0463fd36743a44", "rental_uris": {"ios": "https://dc.lft.to/lastmile_qr_scan", "android": "https://dc.lft.to/lastmile_qr_scan"}}, {"name": "cf265f168f478fb868c7023690f915af", "type": "electric_scooter", "lat": 38.91695333333333, "is_reserved": 0, "lon": -77.00806533333333, "fusion_lon": 0.0, "is_disabled": 0, "fusion_lat": 0.0, "bike_id": "cf265f168f478fb868c7023690f915af", "rental_uris": {"ios": "https://dc.lft.to/lastmile_qr_scan", "android": "https://dc.lft.to/lastmile_qr_scan"}}, {"name": "13e8fa288bba3dc052b163ff9ace4fa9", "type": "electric_scooter", "lat": 38.902795166666664, "is_reserved": 0, "lon": -77.03643116666667, "fusion_lon": 0.0, "is_disabled": 0, "fusion_lat": 0.0, "bike_id": "13e8fa288bba3dc052b163ff9ace4fa9", "rental_uris": {"ios": "https://dc.lft.to/lastmile_qr_scan", "android": "https://dc.lft.to/lastmile_qr_scan"}}, {"name": "35afe4620ead9c0a9b85559caa72a1d2", "type": "electric_scooter", "lat": 38.89474083333333, "is_reserved": 0, "lon": -76.98592283333333, "fusion_lon": 0.0, "is_disabled": 0, "fusion_lat": 0.0, "bike_id": "35afe4620ead9c0a9b85559caa72a1d2", "rental_uris": {"ios": "https://dc.lft.to/lastmile_qr_scan", "android": "https://dc.lft.to/lastmile_qr_scan"}}, {"name": "1e5885af8a22abcda1b7279eeb61125d", "type": "electric_scooter", "lat": 38.940151, "is_reserved": 0, "lon": -77.07168966666667, "fusion_lon": 0.0, "is_disabled": 0, "fusion_lat": 0.0, "bike_id": "1e5885af8a22abcda1b7279eeb61125d", "rental_uris": {"ios": "https://dc.lft.to/lastmile_qr_scan", "android": "https://dc.lft.to/lastmile_qr_scan"}}, {"name": "270e7d5ecffff0a6d6430d8b02dd9430", "type": "electric_scooter", "lat": 38.90725483333333, "is_reserved": 0, "lon": -76.986009, "fusion_lon": 0.0, "is_disabled": 0, "fusion_lat": 0.0, "bike_id": "270e7d5ecffff0a6d6430d8b02dd9430", "rental_uris": {"ios": "https://dc.lft.to/lastmile_qr_scan", "android": "https://dc.lft.to/lastmile_qr_scan"}}, {"name": "f824908fb98afe00e78a04592b2d7467", "type": "electric_scooter", "lat": 38.916395, "is_reserved": 0, "lon": -77.03184983333334, "fusion_lon": 0.0, "is_disabled": 0, "fusion_lat": 0.0, "bike_id": "f824908fb98afe00e78a04592b2d7467", "rental_uris": {"ios": "https://dc.lft.to/lastmile_qr_scan", "android": "https://dc.lft.to/lastmile_qr_scan"}}, {"name": "3033034c59eeaef5353f0322cc6ab142", "type": "electric_scooter", "lat": 38.903667666666664, "is_reserved": 0, "lon": -77.04479833333333, "fusion_lon": 0.0, "is_disabled": 0, "fusion_lat": 0.0, "bike_id": "3033034c59eeaef5353f0322cc6ab142", "rental_uris": {"ios": "https://dc.lft.to/lastmile_qr_scan", "android": "https://dc.lft.to/lastmile_qr_scan"}}, {"name": "c069c967d2a16660bfde5f3e378ada14", "type": "electric_bike", "lat": 38.85060383333333, "is_reserved": 0, "lon": -76.97327766666666, "fusion_lon": 0.0, "is_disabled": 0, "fusion_lat": 0.0, "bike_id": "c069c967d2a16660bfde5f3e378ada14", "rental_uris": {"ios": "https://dc.lft.to/lastmile_qr_scan", "android": "https://dc.lft.to/lastmile_qr_scan"}}, {"name": "68f99bf6f92352966c636c5356b9d849", "type": "electric_scooter", "lat": 38.95102816666667, "is_reserved": 0, "lon": -77.0157425, "fusion_lon": 0.0, "is_disabled": 0, "fusion_lat": 0.0, "bike_id": "68f99bf6f92352966c636c5356b9d849", "rental_uris": {"ios": "https://dc.lft.to/lastmile_qr_scan", "android": "https://dc.lft.to/lastmile_qr_scan"}}, {"name": "8e7450ae87923b68449647115719395c", "type": "electric_scooter", "lat": 38.91570933333333, "is_reserved": 0, "lon": -77.0461185, "fusion_lon": 0.0, "is_disabled": 0, "fusion_lat": 0.0, "bike_id": "8e7450ae87923b68449647115719395c", "rental_uris": {"ios": "https://dc.lft.to/lastmile_qr_scan", "android": "https://dc.lft.to/lastmile_qr_scan"}}, {"name": "85dd88920abb4b144a49d40ad7430c2d", "type": "electric_scooter", "lat": 38.902385333333335, "is_reserved": 0, "lon": -77.002006, "fusion_lon": 0.0, "is_disabled": 0, "fusion_lat": 0.0, "bike_id": "85dd88920abb4b144a49d40ad7430c2d", "rental_uris": {"ios": "https://dc.lft.to/lastmile_qr_scan", "android": "https://dc.lft.to/lastmile_qr_scan"}}, {"name": "4d672018f5a6c14417100aa75a01d669", "type": "electric_scooter", "lat": 38.917069833333336, "is_reserved": 0, "lon": -77.03125733333333, "fusion_lon": 0.0, "is_disabled": 0, "fusion_lat": 0.0, "bike_id": "4d672018f5a6c14417100aa75a01d669", "rental_uris": {"ios": "https://dc.lft.to/lastmile_qr_scan", "android": "https://dc.lft.to/lastmile_qr_scan"}}, {"name": "4fd9fa31dc6d4bf686bb0bf2edfad251", "type": "electric_scooter", "lat": 38.92685266666667, "is_reserved": 0, "lon": -77.0664445, "fusion_lon": 0.0, "is_disabled": 0, "fusion_lat": 0.0, "bike_id": "4fd9fa31dc6d4bf686bb0bf2edfad251", "rental_uris": {"ios": "https://dc.lft.to/lastmile_qr_scan", "android": "https://dc.lft.to/lastmile_qr_scan"}}, {"name": "b23bb03802648fefda9a0c7d3d1a0ce3", "type": "electric_scooter", "lat": 38.885122, "is_reserved": 0, "lon": -77.0057205, "fusion_lon": 0.0, "is_disabled": 0, "fusion_lat": 0.0, "bike_id": "b23bb03802648fefda9a0c7d3d1a0ce3", "rental_uris": {"ios": "https://dc.lft.to/lastmile_qr_scan", "android": "https://dc.lft.to/lastmile_qr_scan"}}, {"name": "ca032a9f4c4cdc62013f4a8e0fe235be", "type": "electric_scooter", "lat": 38.92241, "is_reserved": 0, "lon": -77.030842, "fusion_lon": 0.0, "is_disabled": 0, "fusion_lat": 0.0, "bike_id": "ca032a9f4c4cdc62013f4a8e0fe235be", "rental_uris": {"ios": "https://dc.lft.to/lastmile_qr_scan", "android": "https://dc.lft.to/lastmile_qr_scan"}}, {"name": "ca2fa092f23136ae24b3b6c5b0b71c69", "type": "electric_scooter", "lat": 38.89817433333333, "is_reserved": 0, "lon": -77.0314585, "fusion_lon": 0.0, "is_disabled": 0, "fusion_lat": 0.0, "bike_id": "ca2fa092f23136ae24b3b6c5b0b71c69", "rental_uris": {"ios": "https://dc.lft.to/lastmile_qr_scan", "android": "https://dc.lft.to/lastmile_qr_scan"}}, {"name": "d34bfdb5e1e16fe38cd22797122bb7cc", "type": "electric_scooter", "lat": 38.9140425, "is_reserved": 0, "lon": -77.00836133333334, "fusion_lon": 0.0, "is_disabled": 0, "fusion_lat": 0.0, "bike_id": "d34bfdb5e1e16fe38cd22797122bb7cc", "rental_uris": {"ios": "https://dc.lft.to/lastmile_qr_scan", "android": "https://dc.lft.to/lastmile_qr_scan"}}, {"name": "feba4e3c145704f5a24ddb97785c996d", "type": "electric_scooter", "lat": 38.903804, "is_reserved": 0, "lon": -77.01739216666667, "fusion_lon": 0.0, "is_disabled": 0, "fusion_lat": 0.0, "bike_id": "feba4e3c145704f5a24ddb97785c996d", "rental_uris": {"ios": "https://dc.lft.to/lastmile_qr_scan", "android": "https://dc.lft.to/lastmile_qr_scan"}}, {"name": "74c15febd295ff5598be7d6bfb4d57f1", "type": "electric_scooter", "lat": 38.895076, "is_reserved": 0, "lon": -77.01113816666667, "fusion_lon": 0.0, "is_disabled": 0, "fusion_lat": 0.0, "bike_id": "74c15febd295ff5598be7d6bfb4d57f1", "rental_uris": {"ios": "https://dc.lft.to/lastmile_qr_scan", "android": "https://dc.lft.to/lastmile_qr_scan"}}, {"name": "31f733e41298ef7c5774e50baca8a0f0", "type": "electric_scooter", "lat": 38.917616, "is_reserved": 0, "lon": -77.02711966666666, "fusion_lon": 0.0, "is_disabled": 0, "fusion_lat": 0.0, "bike_id": "31f733e41298ef7c5774e50baca8a0f0", "rental_uris": {"ios": "https://dc.lft.to/lastmile_qr_scan", "android": "https://dc.lft.to/lastmile_qr_scan"}}, {"name": "576d0e654bfffb52f8cc472d92cc10e2", "type": "electric_bike", "lat": 38.880821833333336, "is_reserved": 0, "lon": -76.9852995, "fusion_lon": 0.0, "is_disabled": 0, "fusion_lat": 0.0, "bike_id": "576d0e654bfffb52f8cc472d92cc10e2", "rental_uris": {"ios": "https://dc.lft.to/lastmile_qr_scan", "android": "https://dc.lft.to/lastmile_qr_scan"}}, {"name": "268f8ca1386129998acd0e5e5820d491", "type": "electric_scooter", "lat": 38.90860133333334, "is_reserved": 0, "lon": -77.024963, "fusion_lon": 0.0, "is_disabled": 0, "fusion_lat": 0.0, "bike_id": "268f8ca1386129998acd0e5e5820d491", "rental_uris": {"ios": "https://dc.lft.to/lastmile_qr_scan", "android": "https://dc.lft.to/lastmile_qr_scan"}}, {"name": "7304e043ccf1936c688c0cef0a076dfb", "type": "electric_scooter", "lat": 38.90370516666667, "is_reserved": 0, "lon": -77.04468266666667, "fusion_lon": 0.0, "is_disabled": 0, "fusion_lat": 0.0, "bike_id": "7304e043ccf1936c688c0cef0a076dfb", "rental_uris": {"ios": "https://dc.lft.to/lastmile_qr_scan", "android": "https://dc.lft.to/lastmile_qr_scan"}}, {"name": "c1abdbd909674cfd63b439a3d6b3363a", "type": "electric_scooter", "lat": 38.902704166666666, "is_reserved": 0, "lon": -77.05312466666666, "fusion_lon": 0.0, "is_disabled": 0, "fusion_lat": 0.0, "bike_id": "c1abdbd909674cfd63b439a3d6b3363a", "rental_uris": {"ios": "https://dc.lft.to/lastmile_qr_scan", "android": "https://dc.lft.to/lastmile_qr_scan"}}, {"name": "d4c15899c2b82f5382e431654e14b38c", "type": "electric_scooter", "lat": 38.8762595, "is_reserved": 0, "lon": -76.96523883333333, "fusion_lon": 0.0, "is_disabled": 0, "fusion_lat": 0.0, "bike_id": "d4c15899c2b82f5382e431654e14b38c", "rental_uris": {"ios": "https://dc.lft.to/lastmile_qr_scan", "android": "https://dc.lft.to/lastmile_qr_scan"}}, {"name": "44dc37c9b42ffee0a98bd590580ed854", "type": "electric_scooter", "lat": 38.8997895, "is_reserved": 0, "lon": -76.99144616666666, "fusion_lon": 0.0, "is_disabled": 0, "fusion_lat": 0.0, "bike_id": "44dc37c9b42ffee0a98bd590580ed854", "rental_uris": {"ios": "https://dc.lft.to/lastmile_qr_scan", "android": "https://dc.lft.to/lastmile_qr_scan"}}, {"name": "04ee429aaf2da5a0315d535a1f6fec4b", "type": "electric_scooter", "lat": 38.89325933333333, "is_reserved": 0, "lon": -76.92990116666667, "fusion_lon": 0.0, "is_disabled": 0, "fusion_lat": 0.0, "bike_id": "04ee429aaf2da5a0315d535a1f6fec4b", "rental_uris": {"ios": "https://dc.lft.to/lastmile_qr_scan", "android": "https://dc.lft.to/lastmile_qr_scan"}}, {"name": "49e18e7a28591d8127f586f424235098", "type": "electric_scooter", "lat": 38.92286716666667, "is_reserved": 0, "lon": -77.03661716666667, "fusion_lon": 0.0, "is_disabled": 0, "fusion_lat": 0.0, "bike_id": "49e18e7a28591d8127f586f424235098", "rental_uris": {"ios": "https://dc.lft.to/lastmile_qr_scan", "android": "https://dc.lft.to/lastmile_qr_scan"}}, {"name": "9ddd7a289624e51bb174c7cf3bd645ab", "type": "electric_scooter", "lat": 38.936413333333334, "is_reserved": 0, "lon": -77.03687833333333, "fusion_lon": 0.0, "is_disabled": 0, "fusion_lat": 0.0, "bike_id": "9ddd7a289624e51bb174c7cf3bd645ab", "rental_uris": {"ios": "https://dc.lft.to/lastmile_qr_scan", "android": "https://dc.lft.to/lastmile_qr_scan"}}, {"name": "f10655d6e88b1c78c30b8c086f6a7103", "type": "electric_scooter", "lat": 38.906698166666665, "is_reserved": 0, "lon": -77.03864933333334, "fusion_lon": 0.0, "is_disabled": 0, "fusion_lat": 0.0, "bike_id": "f10655d6e88b1c78c30b8c086f6a7103", "rental_uris": {"ios": "https://dc.lft.to/lastmile_qr_scan", "android": "https://dc.lft.to/lastmile_qr_scan"}}, {"name": "4ac4a71a78020abfb42e7623363a97c0", "type": "electric_scooter", "lat": 38.910003333333336, "is_reserved": 0, "lon": -77.04006366666667, "fusion_lon": 0.0, "is_disabled": 0, "fusion_lat": 0.0, "bike_id": "4ac4a71a78020abfb42e7623363a97c0", "rental_uris": {"ios": "https://dc.lft.to/lastmile_qr_scan", "android": "https://dc.lft.to/lastmile_qr_scan"}}, {"name": "b634a95af4af7f60861956e471b172c7", "type": "electric_scooter", "lat": 38.8289065, "is_reserved": 0, "lon": -76.9969225, "fusion_lon": 0.0, "is_disabled": 0, "fusion_lat": 0.0, "bike_id": "b634a95af4af7f60861956e471b172c7", "rental_uris": {"ios": "https://dc.lft.to/lastmile_qr_scan", "android": "https://dc.lft.to/lastmile_qr_scan"}}, {"name": "fbd472e659ab41e59f8943b79e15d3c5", "type": "electric_scooter", "lat": 38.886100166666665, "is_reserved": 0, "lon": -76.995089, "fusion_lon": 0.0, "is_disabled": 0, "fusion_lat": 0.0, "bike_id": "fbd472e659ab41e59f8943b79e15d3c5", "rental_uris": {"ios": "https://dc.lft.to/lastmile_qr_scan", "android": "https://dc.lft.to/lastmile_qr_scan"}}, {"name": "4be2623ee66ca91f19acb6859f627188", "type": "electric_scooter", "lat": 38.90757966666666, "is_reserved": 0, "lon": -77.0307175, "fusion_lon": 0.0, "is_disabled": 0, "fusion_lat": 0.0, "bike_id": "4be2623ee66ca91f19acb6859f627188", "rental_uris": {"ios": "https://dc.lft.to/lastmile_qr_scan", "android": "https://dc.lft.to/lastmile_qr_scan"}}, {"name": "ba2e586bf69be4ece7968710485b8040", "type": "electric_bike", "lat": 38.94149066666667, "is_reserved": 0, "lon": -77.00195666666667, "fusion_lon": 0.0, "is_disabled": 0, "fusion_lat": 0.0, "bike_id": "ba2e586bf69be4ece7968710485b8040", "rental_uris": {"ios": "https://dc.lft.to/lastmile_qr_scan", "android": "https://dc.lft.to/lastmile_qr_scan"}}, {"name": "28a1062785d923fc6ecacf68c0acdf29", "type": "electric_scooter", "lat": 38.921563166666665, "is_reserved": 0, "lon": -77.03857366666666, "fusion_lon": 0.0, "is_disabled": 0, "fusion_lat": 0.0, "bike_id": "28a1062785d923fc6ecacf68c0acdf29", "rental_uris": {"ios": "https://dc.lft.to/lastmile_qr_scan", "android": "https://dc.lft.to/lastmile_qr_scan"}}, {"name": "40dc11a5f8a22bd1bea44bf1aa8715c3", "type": "electric_scooter", "lat": 38.90528533333333, "is_reserved": 0, "lon": -77.0501995, "fusion_lon": 0.0, "is_disabled": 0, "fusion_lat": 0.0, "bike_id": "40dc11a5f8a22bd1bea44bf1aa8715c3", "rental_uris": {"ios": "https://dc.lft.to/lastmile_qr_scan", "android": "https://dc.lft.to/lastmile_qr_scan"}}, {"name": "3b5b677016b55bb696deb45b0d30b56b", "type": "electric_scooter", "lat": 38.92183816666667, "is_reserved": 0, "lon": -77.04020883333334, "fusion_lon": 0.0, "is_disabled": 0, "fusion_lat": 0.0, "bike_id": "3b5b677016b55bb696deb45b0d30b56b", "rental_uris": {"ios": "https://dc.lft.to/lastmile_qr_scan", "android": "https://dc.lft.to/lastmile_qr_scan"}}, {"name": "1f72c9d014255cd35192d3702fae4b81", "type": "electric_scooter", "lat": 38.91820216666667, "is_reserved": 0, "lon": -77.0345125, "fusion_lon": 0.0, "is_disabled": 0, "fusion_lat": 0.0, "bike_id": "1f72c9d014255cd35192d3702fae4b81", "rental_uris": {"ios": "https://dc.lft.to/lastmile_qr_scan", "android": "https://dc.lft.to/lastmile_qr_scan"}}, {"name": "f143cc03216ea9245cfbec62df784369", "type": "electric_scooter", "lat": 38.93254316666667, "is_reserved": 0, "lon": -77.0328365, "fusion_lon": 0.0, "is_disabled": 0, "fusion_lat": 0.0, "bike_id": "f143cc03216ea9245cfbec62df784369", "rental_uris": {"ios": "https://dc.lft.to/lastmile_qr_scan", "android": "https://dc.lft.to/lastmile_qr_scan"}}, {"name": "4d1576e0da08e4099c0d36c84a6db4a8", "type": "electric_scooter", "lat": 38.911049, "is_reserved": 0, "lon": -77.036229, "fusion_lon": 0.0, "is_disabled": 0, "fusion_lat": 0.0, "bike_id": "4d1576e0da08e4099c0d36c84a6db4a8", "rental_uris": {"ios": "https://dc.lft.to/lastmile_qr_scan", "android": "https://dc.lft.to/lastmile_qr_scan"}}, {"name": "e8da181caa09300aac7bb189692d1d8c", "type": "electric_scooter", "lat": 38.922414, "is_reserved": 0, "lon": -77.0100455, "fusion_lon": 0.0, "is_disabled": 0, "fusion_lat": 0.0, "bike_id": "e8da181caa09300aac7bb189692d1d8c", "rental_uris": {"ios": "https://dc.lft.to/lastmile_qr_scan", "android": "https://dc.lft.to/lastmile_qr_scan"}}, {"name": "ba18d02bf750409ec0c300d4871dcf35", "type": "electric_scooter", "lat": 38.896034, "is_reserved": 0, "lon": -77.0285435, "fusion_lon": 0.0, "is_disabled": 0, "fusion_lat": 0.0, "bike_id": "ba18d02bf750409ec0c300d4871dcf35", "rental_uris": {"ios": "https://dc.lft.to/lastmile_qr_scan", "android": "https://dc.lft.to/lastmile_qr_scan"}}, {"name": "57f63543ab7470d4206b73264197a6ae", "type": "electric_scooter", "lat": 38.91547216666667, "is_reserved": 0, "lon": -77.03848666666667, "fusion_lon": 0.0, "is_disabled": 0, "fusion_lat": 0.0, "bike_id": "57f63543ab7470d4206b73264197a6ae", "rental_uris": {"ios": "https://dc.lft.to/lastmile_qr_scan", "android": "https://dc.lft.to/lastmile_qr_scan"}}, {"name": "4ee7dbc65c515d5475e64d44807bdb44", "type": "electric_scooter", "lat": 38.91245466666667, "is_reserved": 0, "lon": -77.00093633333333, "fusion_lon": 0.0, "is_disabled": 0, "fusion_lat": 0.0, "bike_id": "4ee7dbc65c515d5475e64d44807bdb44", "rental_uris": {"ios": "https://dc.lft.to/lastmile_qr_scan", "android": "https://dc.lft.to/lastmile_qr_scan"}}, {"name": "f5b9c51ff97bb91667051694f840f4f1", "type": "electric_scooter", "lat": 38.90272516666667, "is_reserved": 0, "lon": -77.05910766666666, "fusion_lon": 0.0, "is_disabled": 0, "fusion_lat": 0.0, "bike_id": "f5b9c51ff97bb91667051694f840f4f1", "rental_uris": {"ios": "https://dc.lft.to/lastmile_qr_scan", "android": "https://dc.lft.to/lastmile_qr_scan"}}, {"name": "48af27a60da5b67e863a07825ffcc508", "type": "electric_scooter", "lat": 38.90264366666667, "is_reserved": 0, "lon": -77.031748, "fusion_lon": 0.0, "is_disabled": 0, "fusion_lat": 0.0, "bike_id": "48af27a60da5b67e863a07825ffcc508", "rental_uris": {"ios": "https://dc.lft.to/lastmile_qr_scan", "android": "https://dc.lft.to/lastmile_qr_scan"}}, {"name": "3766a19e88eece3e99258e36e563350a", "type": "electric_bike", "lat": 38.86367533333333, "is_reserved": 0, "lon": -76.97006133333333, "fusion_lon": 0.0, "is_disabled": 0, "fusion_lat": 0.0, "bike_id": "3766a19e88eece3e99258e36e563350a", "rental_uris": {"ios": "https://dc.lft.to/lastmile_qr_scan", "android": "https://dc.lft.to/lastmile_qr_scan"}}, {"name": "a0f60bb092784b3ec4102e631fb0d3cb", "type": "electric_scooter", "lat": 38.9066625, "is_reserved": 0, "lon": -77.03861616666667, "fusion_lon": 0.0, "is_disabled": 0, "fusion_lat": 0.0, "bike_id": "a0f60bb092784b3ec4102e631fb0d3cb", "rental_uris": {"ios": "https://dc.lft.to/lastmile_qr_scan", "android": "https://dc.lft.to/lastmile_qr_scan"}}, {"name": "c4fe8fa6f2cc5bf3c8bcab3d31fc1baa", "type": "electric_scooter", "lat": 38.9063825, "is_reserved": 0, "lon": -77.01135516666666, "fusion_lon": 0.0, "is_disabled": 0, "fusion_lat": 0.0, "bike_id": "c4fe8fa6f2cc5bf3c8bcab3d31fc1baa", "rental_uris": {"ios": "https://dc.lft.to/lastmile_qr_scan", "android": "https://dc.lft.to/lastmile_qr_scan"}}, {"name": "b2dd350ee735a1da1defa3aab5c955fc", "type": "electric_bike", "lat": 38.924795, "is_reserved": 0, "lon": -77.0375065, "fusion_lon": 0.0, "is_disabled": 0, "fusion_lat": 0.0, "bike_id": "b2dd350ee735a1da1defa3aab5c955fc", "rental_uris": {"ios": "https://dc.lft.to/lastmile_qr_scan", "android": "https://dc.lft.to/lastmile_qr_scan"}}, {"name": "4de30c8f871b78875d41620a23c2384d", "type": "electric_scooter", "lat": 38.90863683333333, "is_reserved": 0, "lon": -77.04427966666667, "fusion_lon": 0.0, "is_disabled": 0, "fusion_lat": 0.0, "bike_id": "4de30c8f871b78875d41620a23c2384d", "rental_uris": {"ios": "https://dc.lft.to/lastmile_qr_scan", "android": "https://dc.lft.to/lastmile_qr_scan"}}, {"name": "76cbb1d18732dacc49540dfc62c829be", "type": "electric_scooter", "lat": 38.892176166666665, "is_reserved": 0, "lon": -77.04256166666667, "fusion_lon": 0.0, "is_disabled": 0, "fusion_lat": 0.0, "bike_id": "76cbb1d18732dacc49540dfc62c829be", "rental_uris": {"ios": "https://dc.lft.to/lastmile_qr_scan", "android": "https://dc.lft.to/lastmile_qr_scan"}}, {"name": "9c8dc6baf484ecf64dd39a17afe3c771", "type": "electric_scooter", "lat": 38.93254683333333, "is_reserved": 0, "lon": -77.0328255, "fusion_lon": 0.0, "is_disabled": 0, "fusion_lat": 0.0, "bike_id": "9c8dc6baf484ecf64dd39a17afe3c771", "rental_uris": {"ios": "https://dc.lft.to/lastmile_qr_scan", "android": "https://dc.lft.to/lastmile_qr_scan"}}, {"name": "073f5566651e08729e6731bebe9e60c0", "type": "electric_scooter", "lat": 38.906868833333334, "is_reserved": 0, "lon": -77.01340816666666, "fusion_lon": 0.0, "is_disabled": 0, "fusion_lat": 0.0, "bike_id": "073f5566651e08729e6731bebe9e60c0", "rental_uris": {"ios": "https://dc.lft.to/lastmile_qr_scan", "android": "https://dc.lft.to/lastmile_qr_scan"}}, {"name": "c8f26ca6ff7871a13a45ae9b1db718b9", "type": "electric_scooter", "lat": 38.927203, "is_reserved": 0, "lon": -77.03077983333333, "fusion_lon": 0.0, "is_disabled": 0, "fusion_lat": 0.0, "bike_id": "c8f26ca6ff7871a13a45ae9b1db718b9", "rental_uris": {"ios": "https://dc.lft.to/lastmile_qr_scan", "android": "https://dc.lft.to/lastmile_qr_scan"}}, {"name": "646a6e6aa588d13f966d4e755e7d8300", "type": "electric_scooter", "lat": 38.907234, "is_reserved": 0, "lon": -77.04340033333334, "fusion_lon": 0.0, "is_disabled": 0, "fusion_lat": 0.0, "bike_id": "646a6e6aa588d13f966d4e755e7d8300", "rental_uris": {"ios": "https://dc.lft.to/lastmile_qr_scan", "android": "https://dc.lft.to/lastmile_qr_scan"}}, {"name": "b097f026f1e45ba82efd8e65e1499a7f", "type": "electric_bike", "lat": 38.86907766666667, "is_reserved": 0, "lon": -77.13173566666667, "fusion_lon": 0.0, "is_disabled": 0, "fusion_lat": 0.0, "bike_id": "b097f026f1e45ba82efd8e65e1499a7f", "rental_uris": {"ios": "https://dc.lft.to/lastmile_qr_scan", "android": "https://dc.lft.to/lastmile_qr_scan"}}, {"name": "0c79b131b58f31999acabd437d527c08", "type": "electric_scooter", "lat": 38.906443833333334, "is_reserved": 0, "lon": -76.98572266666666, "fusion_lon": 0.0, "is_disabled": 0, "fusion_lat": 0.0, "bike_id": "0c79b131b58f31999acabd437d527c08", "rental_uris": {"ios": "https://dc.lft.to/lastmile_qr_scan", "android": "https://dc.lft.to/lastmile_qr_scan"}}, {"name": "d451d3f3b6b3de0d972929ba7cd2169d", "type": "electric_scooter", "lat": 38.903607666666666, "is_reserved": 0, "lon": -77.0402175, "fusion_lon": 0.0, "is_disabled": 0, "fusion_lat": 0.0, "bike_id": "d451d3f3b6b3de0d972929ba7cd2169d", "rental_uris": {"ios": "https://dc.lft.to/lastmile_qr_scan", "android": "https://dc.lft.to/lastmile_qr_scan"}}, {"name": "43d2a5d732ea05850d8c6cfe264ccbdf", "type": "electric_scooter", "lat": 38.84291483333333, "is_reserved": 0, "lon": -76.99942416666667, "fusion_lon": 0.0, "is_disabled": 0, "fusion_lat": 0.0, "bike_id": "43d2a5d732ea05850d8c6cfe264ccbdf", "rental_uris": {"ios": "https://dc.lft.to/lastmile_qr_scan", "android": "https://dc.lft.to/lastmile_qr_scan"}}, {"name": "1c6e9a6bb8086075a873a55f1fe650a6", "type": "electric_scooter", "lat": 38.97472366666667, "is_reserved": 0, "lon": -77.01900866666666, "fusion_lon": 0.0, "is_disabled": 0, "fusion_lat": 0.0, "bike_id": "1c6e9a6bb8086075a873a55f1fe650a6", "rental_uris": {"ios": "https://dc.lft.to/lastmile_qr_scan", "android": "https://dc.lft.to/lastmile_qr_scan"}}, {"name": "b8ec091bef187c001902b9e09876dd47", "type": "electric_bike", "lat": 38.85802983333333, "is_reserved": 0, "lon": -76.98753066666667, "fusion_lon": 0.0, "is_disabled": 0, "fusion_lat": 0.0, "bike_id": "b8ec091bef187c001902b9e09876dd47", "rental_uris": {"ios": "https://dc.lft.to/lastmile_qr_scan", "android": "https://dc.lft.to/lastmile_qr_scan"}}, {"name": "6b9522a90c18cbc2a274413a99c0f469", "type": "electric_scooter", "lat": 38.952827166666665, "is_reserved": 0, "lon": -77.0680955, "fusion_lon": 0.0, "is_disabled": 0, "fusion_lat": 0.0, "bike_id": "6b9522a90c18cbc2a274413a99c0f469", "rental_uris": {"ios": "https://dc.lft.to/lastmile_qr_scan", "android": "https://dc.lft.to/lastmile_qr_scan"}}, {"name": "196d30de7ed6eab70d70fc334229f6bc", "type": "electric_scooter", "lat": 38.89758333333333, "is_reserved": 0, "lon": -77.05125333333334, "fusion_lon": 0.0, "is_disabled": 0, "fusion_lat": 0.0, "bike_id": "196d30de7ed6eab70d70fc334229f6bc", "rental_uris": {"ios": "https://dc.lft.to/lastmile_qr_scan", "android": "https://dc.lft.to/lastmile_qr_scan"}}, {"name": "139650bc4948425e5811c85964fcdc72", "type": "electric_scooter", "lat": 38.92025, "is_reserved": 0, "lon": -77.0111285, "fusion_lon": 0.0, "is_disabled": 0, "fusion_lat": 0.0, "bike_id": "139650bc4948425e5811c85964fcdc72", "rental_uris": {"ios": "https://dc.lft.to/lastmile_qr_scan", "android": "https://dc.lft.to/lastmile_qr_scan"}}, {"name": "2917f68b7da03d3abc9b22fa1e9e10d0", "type": "electric_scooter", "lat": 38.9013045, "is_reserved": 0, "lon": -77.04439116666667, "fusion_lon": 0.0, "is_disabled": 0, "fusion_lat": 0.0, "bike_id": "2917f68b7da03d3abc9b22fa1e9e10d0", "rental_uris": {"ios": "https://dc.lft.to/lastmile_qr_scan", "android": "https://dc.lft.to/lastmile_qr_scan"}}, {"name": "05b989edda6602de9a18f03f135b22dc", "type": "electric_scooter", "lat": 38.91820333333333, "is_reserved": 0, "lon": -77.034441, "fusion_lon": 0.0, "is_disabled": 0, "fusion_lat": 0.0, "bike_id": "05b989edda6602de9a18f03f135b22dc", "rental_uris": {"ios": "https://dc.lft.to/lastmile_qr_scan", "android": "https://dc.lft.to/lastmile_qr_scan"}}, {"name": "cd23a3e930585c6cf67b09319e861b44", "type": "electric_scooter", "lat": 38.9330385, "is_reserved": 0, "lon": -77.028041, "fusion_lon": 0.0, "is_disabled": 0, "fusion_lat": 0.0, "bike_id": "cd23a3e930585c6cf67b09319e861b44", "rental_uris": {"ios": "https://dc.lft.to/lastmile_qr_scan", "android": "https://dc.lft.to/lastmile_qr_scan"}}, {"name": "dfdd54f82b618b714788698fcc1d298b", "type": "electric_scooter", "lat": 38.9084205, "is_reserved": 0, "lon": -77.0205415, "fusion_lon": 0.0, "is_disabled": 0, "fusion_lat": 0.0, "bike_id": "dfdd54f82b618b714788698fcc1d298b", "rental_uris": {"ios": "https://dc.lft.to/lastmile_qr_scan", "android": "https://dc.lft.to/lastmile_qr_scan"}}, {"name": "1be565ffd7c05f9787d13aac27e45e98", "type": "electric_scooter", "lat": 38.9245625, "is_reserved": 0, "lon": -76.99894916666666, "fusion_lon": 0.0, "is_disabled": 0, "fusion_lat": 0.0, "bike_id": "1be565ffd7c05f9787d13aac27e45e98", "rental_uris": {"ios": "https://dc.lft.to/lastmile_qr_scan", "android": "https://dc.lft.to/lastmile_qr_scan"}}, {"name": "e2ecc32d43897a416d1fc6b8bd58e069", "type": "electric_scooter", "lat": 38.93113733333333, "is_reserved": 0, "lon": -77.020968, "fusion_lon": 0.0, "is_disabled": 0, "fusion_lat": 0.0, "bike_id": "e2ecc32d43897a416d1fc6b8bd58e069", "rental_uris": {"ios": "https://dc.lft.to/lastmile_qr_scan", "android": "https://dc.lft.to/lastmile_qr_scan"}}, {"name": "985e671ef11bc12bd244cf9b8b40c8f5", "type": "electric_scooter", "lat": 38.9097295, "is_reserved": 0, "lon": -77.06712166666667, "fusion_lon": 0.0, "is_disabled": 0, "fusion_lat": 0.0, "bike_id": "985e671ef11bc12bd244cf9b8b40c8f5", "rental_uris": {"ios": "https://dc.lft.to/lastmile_qr_scan", "android": "https://dc.lft.to/lastmile_qr_scan"}}, {"name": "2364c2bff1c770eaa7399896b5aad9d8", "type": "electric_scooter", "lat": 38.91726933333333, "is_reserved": 0, "lon": -77.03459533333333, "fusion_lon": 0.0, "is_disabled": 0, "fusion_lat": 0.0, "bike_id": "2364c2bff1c770eaa7399896b5aad9d8", "rental_uris": {"ios": "https://dc.lft.to/lastmile_qr_scan", "android": "https://dc.lft.to/lastmile_qr_scan"}}, {"name": "de5a46ed0b2bf3513557c1249b961831", "type": "electric_scooter", "lat": 38.883374333333336, "is_reserved": 0, "lon": -77.01777566666667, "fusion_lon": 0.0, "is_disabled": 0, "fusion_lat": 0.0, "bike_id": "de5a46ed0b2bf3513557c1249b961831", "rental_uris": {"ios": "https://dc.lft.to/lastmile_qr_scan", "android": "https://dc.lft.to/lastmile_qr_scan"}}, {"name": "a20028d669a32eeddb85fdbdb1b71ec9", "type": "electric_scooter", "lat": 38.94924616666667, "is_reserved": 0, "lon": -77.0193985, "fusion_lon": 0.0, "is_disabled": 0, "fusion_lat": 0.0, "bike_id": "a20028d669a32eeddb85fdbdb1b71ec9", "rental_uris": {"ios": "https://dc.lft.to/lastmile_qr_scan", "android": "https://dc.lft.to/lastmile_qr_scan"}}, {"name": "53005a39a6398b40710e8b9968e65b55", "type": "electric_scooter", "lat": 38.91821616666667, "is_reserved": 0, "lon": -77.032179, "fusion_lon": 0.0, "is_disabled": 0, "fusion_lat": 0.0, "bike_id": "53005a39a6398b40710e8b9968e65b55", "rental_uris": {"ios": "https://dc.lft.to/lastmile_qr_scan", "android": "https://dc.lft.to/lastmile_qr_scan"}}, {"name": "ad3e5a0b06a289cc41345b594879a042", "type": "electric_scooter", "lat": 38.917905, "is_reserved": 0, "lon": -77.02295266666667, "fusion_lon": 0.0, "is_disabled": 0, "fusion_lat": 0.0, "bike_id": "ad3e5a0b06a289cc41345b594879a042", "rental_uris": {"ios": "https://dc.lft.to/lastmile_qr_scan", "android": "https://dc.lft.to/lastmile_qr_scan"}}, {"name": "c35465fb7cd759c87aa89c065315bd07", "type": "electric_scooter", "lat": 38.90813383333333, "is_reserved": 0, "lon": -77.0003335, "fusion_lon": 0.0, "is_disabled": 0, "fusion_lat": 0.0, "bike_id": "c35465fb7cd759c87aa89c065315bd07", "rental_uris": {"ios": "https://dc.lft.to/lastmile_qr_scan", "android": "https://dc.lft.to/lastmile_qr_scan"}}, {"name": "f895ec309bf6cc6ff78c6b72821fa3f0", "type": "electric_scooter", "lat": 38.9073775, "is_reserved": 0, "lon": -77.04188216666667, "fusion_lon": 0.0, "is_disabled": 0, "fusion_lat": 0.0, "bike_id": "f895ec309bf6cc6ff78c6b72821fa3f0", "rental_uris": {"ios": "https://dc.lft.to/lastmile_qr_scan", "android": "https://dc.lft.to/lastmile_qr_scan"}}, {"name": "0a65f09d5c62322e8029d212fbfafa8b", "type": "electric_scooter", "lat": 38.94118566666667, "is_reserved": 0, "lon": -77.02655133333333, "fusion_lon": 0.0, "is_disabled": 0, "fusion_lat": 0.0, "bike_id": "0a65f09d5c62322e8029d212fbfafa8b", "rental_uris": {"ios": "https://dc.lft.to/lastmile_qr_scan", "android": "https://dc.lft.to/lastmile_qr_scan"}}, {"name": "be13e2c35941abb7b8dd450b5dc3e0c5", "type": "electric_scooter", "lat": 38.90375933333333, "is_reserved": 0, "lon": -77.04477166666666, "fusion_lon": 0.0, "is_disabled": 0, "fusion_lat": 0.0, "bike_id": "be13e2c35941abb7b8dd450b5dc3e0c5", "rental_uris": {"ios": "https://dc.lft.to/lastmile_qr_scan", "android": "https://dc.lft.to/lastmile_qr_scan"}}, {"name": "d2be1abb02690d7460ec683c8ed122fe", "type": "electric_scooter", "lat": 38.908573, "is_reserved": 0, "lon": -76.98614466666666, "fusion_lon": 0.0, "is_disabled": 0, "fusion_lat": 0.0, "bike_id": "d2be1abb02690d7460ec683c8ed122fe", "rental_uris": {"ios": "https://dc.lft.to/lastmile_qr_scan", "android": "https://dc.lft.to/lastmile_qr_scan"}}, {"name": "ddbed1b00943dec35b66356a6756956c", "type": "electric_scooter", "lat": 38.89821216666667, "is_reserved": 0, "lon": -77.0333285, "fusion_lon": 0.0, "is_disabled": 0, "fusion_lat": 0.0, "bike_id": "ddbed1b00943dec35b66356a6756956c", "rental_uris": {"ios": "https://dc.lft.to/lastmile_qr_scan", "android": "https://dc.lft.to/lastmile_qr_scan"}}, {"name": "288660503fd90c96d93ec1473d79f2f1", "type": "electric_scooter", "lat": 38.9051725, "is_reserved": 0, "lon": -77.0658895, "fusion_lon": 0.0, "is_disabled": 0, "fusion_lat": 0.0, "bike_id": "288660503fd90c96d93ec1473d79f2f1", "rental_uris": {"ios": "https://dc.lft.to/lastmile_qr_scan", "android": "https://dc.lft.to/lastmile_qr_scan"}}, {"name": "0b742703697f4eaab939df449f78d162", "type": "electric_scooter", "lat": 38.90035733333333, "is_reserved": 0, "lon": -76.98839133333334, "fusion_lon": 0.0, "is_disabled": 0, "fusion_lat": 0.0, "bike_id": "0b742703697f4eaab939df449f78d162", "rental_uris": {"ios": "https://dc.lft.to/lastmile_qr_scan", "android": "https://dc.lft.to/lastmile_qr_scan"}}, {"name": "ba4d1cf79355cae8021116d6ed710ff9", "type": "electric_bike", "lat": 38.9036235, "is_reserved": 0, "lon": -76.98320866666667, "fusion_lon": 0.0, "is_disabled": 0, "fusion_lat": 0.0, "bike_id": "ba4d1cf79355cae8021116d6ed710ff9", "rental_uris": {"ios": "https://dc.lft.to/lastmile_qr_scan", "android": "https://dc.lft.to/lastmile_qr_scan"}}, {"name": "d1ae7470469254562cd2109b982cd46c", "type": "electric_scooter", "lat": 38.863564833333335, "is_reserved": 0, "lon": -76.9906245, "fusion_lon": 0.0, "is_disabled": 0, "fusion_lat": 0.0, "bike_id": "d1ae7470469254562cd2109b982cd46c", "rental_uris": {"ios": "https://dc.lft.to/lastmile_qr_scan", "android": "https://dc.lft.to/lastmile_qr_scan"}}, {"name": "00b892552762cc65eacc4f0701514d3c", "type": "electric_scooter", "lat": 38.90172616666667, "is_reserved": 0, "lon": -77.00008, "fusion_lon": 0.0, "is_disabled": 0, "fusion_lat": 0.0, "bike_id": "00b892552762cc65eacc4f0701514d3c", "rental_uris": {"ios": "https://dc.lft.to/lastmile_qr_scan", "android": "https://dc.lft.to/lastmile_qr_scan"}}, {"name": "795314b9e8e12ad4e5925d7650f9ebbd", "type": "electric_scooter", "lat": 38.905516666666664, "is_reserved": 0, "lon": -77.0466055, "fusion_lon": 0.0, "is_disabled": 0, "fusion_lat": 0.0, "bike_id": "795314b9e8e12ad4e5925d7650f9ebbd", "rental_uris": {"ios": "https://dc.lft.to/lastmile_qr_scan", "android": "https://dc.lft.to/lastmile_qr_scan"}}, {"name": "ab5c99f722ab4877ba09141e19c08f03", "type": "electric_scooter", "lat": 38.884909666666665, "is_reserved": 0, "lon": -77.0285255, "fusion_lon": 0.0, "is_disabled": 0, "fusion_lat": 0.0, "bike_id": "ab5c99f722ab4877ba09141e19c08f03", "rental_uris": {"ios": "https://dc.lft.to/lastmile_qr_scan", "android": "https://dc.lft.to/lastmile_qr_scan"}}, {"name": "efc8af0b495c530f43861d62c47c4b9a", "type": "electric_scooter", "lat": 38.914191333333335, "is_reserved": 0, "lon": -77.04645733333334, "fusion_lon": 0.0, "is_disabled": 0, "fusion_lat": 0.0, "bike_id": "efc8af0b495c530f43861d62c47c4b9a", "rental_uris": {"ios": "https://dc.lft.to/lastmile_qr_scan", "android": "https://dc.lft.to/lastmile_qr_scan"}}, {"name": "98459320dee7eace1b054727a36e7d0f", "type": "electric_scooter", "lat": 38.89941983333333, "is_reserved": 0, "lon": -76.98009733333333, "fusion_lon": 0.0, "is_disabled": 0, "fusion_lat": 0.0, "bike_id": "98459320dee7eace1b054727a36e7d0f", "rental_uris": {"ios": "https://dc.lft.to/lastmile_qr_scan", "android": "https://dc.lft.to/lastmile_qr_scan"}}, {"name": "3e47c0e28f6a007238c12fa5ad6d6e11", "type": "electric_scooter", "lat": 38.93713283333334, "is_reserved": 0, "lon": -77.02929633333333, "fusion_lon": 0.0, "is_disabled": 0, "fusion_lat": 0.0, "bike_id": "3e47c0e28f6a007238c12fa5ad6d6e11", "rental_uris": {"ios": "https://dc.lft.to/lastmile_qr_scan", "android": "https://dc.lft.to/lastmile_qr_scan"}}, {"name": "b99050188ce6dfff435491958badb1f6", "type": "electric_scooter", "lat": 38.900372, "is_reserved": 0, "lon": -77.00221183333333, "fusion_lon": 0.0, "is_disabled": 0, "fusion_lat": 0.0, "bike_id": "b99050188ce6dfff435491958badb1f6", "rental_uris": {"ios": "https://dc.lft.to/lastmile_qr_scan", "android": "https://dc.lft.to/lastmile_qr_scan"}}, {"name": "939f395a0671baef260b2d417a109550", "type": "electric_scooter", "lat": 38.89221766666667, "is_reserved": 0, "lon": -77.0309235, "fusion_lon": 0.0, "is_disabled": 0, "fusion_lat": 0.0, "bike_id": "939f395a0671baef260b2d417a109550", "rental_uris": {"ios": "https://dc.lft.to/lastmile_qr_scan", "android": "https://dc.lft.to/lastmile_qr_scan"}}, {"name": "dee8993de992f00a116d8f5cd7cfd58a", "type": "electric_scooter", "lat": 38.88513533333333, "is_reserved": 0, "lon": -77.00574866666666, "fusion_lon": 0.0, "is_disabled": 0, "fusion_lat": 0.0, "bike_id": "dee8993de992f00a116d8f5cd7cfd58a", "rental_uris": {"ios": "https://dc.lft.to/lastmile_qr_scan", "android": "https://dc.lft.to/lastmile_qr_scan"}}, {"name": "bf9c7099a40ae520a1d8d4e2efc13717", "type": "electric_scooter", "lat": 38.9036705, "is_reserved": 0, "lon": -77.0098685, "fusion_lon": 0.0, "is_disabled": 0, "fusion_lat": 0.0, "bike_id": "bf9c7099a40ae520a1d8d4e2efc13717", "rental_uris": {"ios": "https://dc.lft.to/lastmile_qr_scan", "android": "https://dc.lft.to/lastmile_qr_scan"}}, {"name": "534fc03f1f58d020e669c11a4bdcfd9b", "type": "electric_scooter", "lat": 38.89849233333333, "is_reserved": 0, "lon": -77.00735366666666, "fusion_lon": 0.0, "is_disabled": 0, "fusion_lat": 0.0, "bike_id": "534fc03f1f58d020e669c11a4bdcfd9b", "rental_uris": {"ios": "https://dc.lft.to/lastmile_qr_scan", "android": "https://dc.lft.to/lastmile_qr_scan"}}, {"name": "a4d3b76e62fd36a3bf68ce94f4fd7ec2", "type": "electric_scooter", "lat": 38.934336, "is_reserved": 0, "lon": -77.039928, "fusion_lon": 0.0, "is_disabled": 0, "fusion_lat": 0.0, "bike_id": "a4d3b76e62fd36a3bf68ce94f4fd7ec2", "rental_uris": {"ios": "https://dc.lft.to/lastmile_qr_scan", "android": "https://dc.lft.to/lastmile_qr_scan"}}, {"name": "ad7de103bc322781b142a316a26a666f", "type": "electric_bike", "lat": 38.95070533333333, "is_reserved": 0, "lon": -77.0120525, "fusion_lon": 0.0, "is_disabled": 0, "fusion_lat": 0.0, "bike_id": "ad7de103bc322781b142a316a26a666f", "rental_uris": {"ios": "https://dc.lft.to/lastmile_qr_scan", "android": "https://dc.lft.to/lastmile_qr_scan"}}, {"name": "5f5f37125f64cd55e38735499d6f47d1", "type": "electric_scooter", "lat": 38.894807166666666, "is_reserved": 0, "lon": -76.94868766666667, "fusion_lon": 0.0, "is_disabled": 0, "fusion_lat": 0.0, "bike_id": "5f5f37125f64cd55e38735499d6f47d1", "rental_uris": {"ios": "https://dc.lft.to/lastmile_qr_scan", "android": "https://dc.lft.to/lastmile_qr_scan"}}, {"name": "24565072eaf350b941d846bd661d9cdc", "type": "electric_scooter", "lat": 38.90596033333333, "is_reserved": 0, "lon": -77.05094683333333, "fusion_lon": 0.0, "is_disabled": 0, "fusion_lat": 0.0, "bike_id": "24565072eaf350b941d846bd661d9cdc", "rental_uris": {"ios": "https://dc.lft.to/lastmile_qr_scan", "android": "https://dc.lft.to/lastmile_qr_scan"}}, {"name": "4386c4cb6a15f21a7655c685e65fb4ed", "type": "electric_scooter", "lat": 38.939628166666665, "is_reserved": 0, "lon": -77.032552, "fusion_lon": 0.0, "is_disabled": 0, "fusion_lat": 0.0, "bike_id": "4386c4cb6a15f21a7655c685e65fb4ed", "rental_uris": {"ios": "https://dc.lft.to/lastmile_qr_scan", "android": "https://dc.lft.to/lastmile_qr_scan"}}, {"name": "21410a36b0c1f994443a2b6bc078d752", "type": "electric_scooter", "lat": 38.937184333333335, "is_reserved": 0, "lon": -77.02411116666667, "fusion_lon": 0.0, "is_disabled": 0, "fusion_lat": 0.0, "bike_id": "21410a36b0c1f994443a2b6bc078d752", "rental_uris": {"ios": "https://dc.lft.to/lastmile_qr_scan", "android": "https://dc.lft.to/lastmile_qr_scan"}}, {"name": "97cfea0fd3fc9c28eb0d8af0534342f0", "type": "electric_bike", "lat": 38.88405733333333, "is_reserved": 0, "lon": -76.9605185, "fusion_lon": 0.0, "is_disabled": 0, "fusion_lat": 0.0, "bike_id": "97cfea0fd3fc9c28eb0d8af0534342f0", "rental_uris": {"ios": "https://dc.lft.to/lastmile_qr_scan", "android": "https://dc.lft.to/lastmile_qr_scan"}}, {"name": "5c46853bd5c34d6514d5f91bf6b3f24f", "type": "electric_scooter", "lat": 38.92272533333333, "is_reserved": 0, "lon": -77.036584, "fusion_lon": 0.0, "is_disabled": 0, "fusion_lat": 0.0, "bike_id": "5c46853bd5c34d6514d5f91bf6b3f24f", "rental_uris": {"ios": "https://dc.lft.to/lastmile_qr_scan", "android": "https://dc.lft.to/lastmile_qr_scan"}}, {"name": "2cfb511614a5e72c7a4f1f4840e1d2f5", "type": "electric_bike", "lat": 38.86751966666667, "is_reserved": 0, "lon": -76.9453, "fusion_lon": 0.0, "is_disabled": 0, "fusion_lat": 0.0, "bike_id": "2cfb511614a5e72c7a4f1f4840e1d2f5", "rental_uris": {"ios": "https://dc.lft.to/lastmile_qr_scan", "android": "https://dc.lft.to/lastmile_qr_scan"}}, {"name": "82b8088446e363bdf2f48a1c8563161c", "type": "electric_scooter", "lat": 38.9294525, "is_reserved": 0, "lon": -77.05510583333333, "fusion_lon": 0.0, "is_disabled": 0, "fusion_lat": 0.0, "bike_id": "82b8088446e363bdf2f48a1c8563161c", "rental_uris": {"ios": "https://dc.lft.to/lastmile_qr_scan", "android": "https://dc.lft.to/lastmile_qr_scan"}}, {"name": "714d72699447c0427f75f8271451516c", "type": "electric_bike", "lat": 38.840608, "is_reserved": 0, "lon": -77.0640105, "fusion_lon": 0.0, "is_disabled": 0, "fusion_lat": 0.0, "bike_id": "714d72699447c0427f75f8271451516c", "rental_uris": {"ios": "https://dc.lft.to/lastmile_qr_scan", "android": "https://dc.lft.to/lastmile_qr_scan"}}, {"name": "b2d0d2355e09ae3bb1a28569bb427aed", "type": "electric_scooter", "lat": 38.89744666666667, "is_reserved": 0, "lon": -77.01053566666667, "fusion_lon": 0.0, "is_disabled": 0, "fusion_lat": 0.0, "bike_id": "b2d0d2355e09ae3bb1a28569bb427aed", "rental_uris": {"ios": "https://dc.lft.to/lastmile_qr_scan", "android": "https://dc.lft.to/lastmile_qr_scan"}}, {"name": "1be86535c4f88d962c441e51729ca9c6", "type": "electric_bike", "lat": 38.8752625, "is_reserved": 0, "lon": -77.19905333333334, "fusion_lon": 0.0, "is_disabled": 0, "fusion_lat": 0.0, "bike_id": "1be86535c4f88d962c441e51729ca9c6", "rental_uris": {"ios": "https://dc.lft.to/lastmile_qr_scan", "android": "https://dc.lft.to/lastmile_qr_scan"}}, {"name": "51ed2e96b0f7c79e81d8317bfa453024", "type": "electric_scooter", "lat": 38.90260383333333, "is_reserved": 0, "lon": -77.01754366666667, "fusion_lon": 0.0, "is_disabled": 0, "fusion_lat": 0.0, "bike_id": "51ed2e96b0f7c79e81d8317bfa453024", "rental_uris": {"ios": "https://dc.lft.to/lastmile_qr_scan", "android": "https://dc.lft.to/lastmile_qr_scan"}}, {"name": "b64d3e826e15073d930779a4212ba42a", "type": "electric_scooter", "lat": 38.898426, "is_reserved": 0, "lon": -76.944784, "fusion_lon": 0.0, "is_disabled": 0, "fusion_lat": 0.0, "bike_id": "b64d3e826e15073d930779a4212ba42a", "rental_uris": {"ios": "https://dc.lft.to/lastmile_qr_scan", "android": "https://dc.lft.to/lastmile_qr_scan"}}, {"name": "70db1d4f046d46e69bce8a1d1a0d124d", "type": "electric_bike", "lat": 39.09459, "is_reserved": 0, "lon": -77.14994533333333, "fusion_lon": 0.0, "is_disabled": 0, "fusion_lat": 0.0, "bike_id": "70db1d4f046d46e69bce8a1d1a0d124d", "rental_uris": {"ios": "https://dc.lft.to/lastmile_qr_scan", "android": "https://dc.lft.to/lastmile_qr_scan"}}, {"name": "287429073d8cd2df69b78cce1a75a682", "type": "electric_scooter", "lat": 38.8624395, "is_reserved": 0, "lon": -76.99495, "fusion_lon": 0.0, "is_disabled": 0, "fusion_lat": 0.0, "bike_id": "287429073d8cd2df69b78cce1a75a682", "rental_uris": {"ios": "https://dc.lft.to/lastmile_qr_scan", "android": "https://dc.lft.to/lastmile_qr_scan"}}, {"name": "d62e376cc897799497c05cbcf801e148", "type": "electric_bike", "lat": 38.82791783333333, "is_reserved": 0, "lon": -77.009068, "fusion_lon": 0.0, "is_disabled": 0, "fusion_lat": 0.0, "bike_id": "d62e376cc897799497c05cbcf801e148", "rental_uris": {"ios": "https://dc.lft.to/lastmile_qr_scan", "android": "https://dc.lft.to/lastmile_qr_scan"}}, {"name": "4039ae1b1ea4b50aa06bb69157c174f5", "type": "electric_scooter", "lat": 38.894963, "is_reserved": 0, "lon": -77.002108, "fusion_lon": 0.0, "is_disabled": 0, "fusion_lat": 0.0, "bike_id": "4039ae1b1ea4b50aa06bb69157c174f5", "rental_uris": {"ios": "https://dc.lft.to/lastmile_qr_scan", "android": "https://dc.lft.to/lastmile_qr_scan"}}, {"name": "f8b9fe2cb582a3f75638c05dcc0fdbe3", "type": "electric_bike", "lat": 38.862799, "is_reserved": 0, "lon": -77.063455, "fusion_lon": 0.0, "is_disabled": 0, "fusion_lat": 0.0, "bike_id": "f8b9fe2cb582a3f75638c05dcc0fdbe3", "rental_uris": {"ios": "https://dc.lft.to/lastmile_qr_scan", "android": "https://dc.lft.to/lastmile_qr_scan"}}, {"name": "90fa3bfba93c64c7eecfe3f0e6ea313b", "type": "electric_scooter", "lat": 38.92726833333333, "is_reserved": 0, "lon": -77.00564083333333, "fusion_lon": 0.0, "is_disabled": 0, "fusion_lat": 0.0, "bike_id": "90fa3bfba93c64c7eecfe3f0e6ea313b", "rental_uris": {"ios": "https://dc.lft.to/lastmile_qr_scan", "android": "https://dc.lft.to/lastmile_qr_scan"}}, {"name": "204936242bbe3c27284a4d6d8984bc9b", "type": "electric_scooter", "lat": 38.8939625, "is_reserved": 0, "lon": -76.94802883333334, "fusion_lon": 0.0, "is_disabled": 0, "fusion_lat": 0.0, "bike_id": "204936242bbe3c27284a4d6d8984bc9b", "rental_uris": {"ios": "https://dc.lft.to/lastmile_qr_scan", "android": "https://dc.lft.to/lastmile_qr_scan"}}, {"name": "bbc714bee3b6519b715dc464bbc2643e", "type": "electric_scooter", "lat": 38.9084225, "is_reserved": 0, "lon": -77.02695383333334, "fusion_lon": 0.0, "is_disabled": 0, "fusion_lat": 0.0, "bike_id": "bbc714bee3b6519b715dc464bbc2643e", "rental_uris": {"ios": "https://dc.lft.to/lastmile_qr_scan", "android": "https://dc.lft.to/lastmile_qr_scan"}}, {"name": "2078ed55700531e0287664dbc42266ec", "type": "electric_bike", "lat": 38.992951833333336, "is_reserved": 0, "lon": -77.02537816666667, "fusion_lon": 0.0, "is_disabled": 0, "fusion_lat": 0.0, "bike_id": "2078ed55700531e0287664dbc42266ec", "rental_uris": {"ios": "https://dc.lft.to/lastmile_qr_scan", "android": "https://dc.lft.to/lastmile_qr_scan"}}, {"name": "9caa05e1039cae3bfcf23e0f043ba518", "type": "electric_scooter", "lat": 38.935375, "is_reserved": 0, "lon": -77.03701583333333, "fusion_lon": 0.0, "is_disabled": 0, "fusion_lat": 0.0, "bike_id": "9caa05e1039cae3bfcf23e0f043ba518", "rental_uris": {"ios": "https://dc.lft.to/lastmile_qr_scan", "android": "https://dc.lft.to/lastmile_qr_scan"}}, {"name": "e5258c56a554f55349a38c0080f910c0", "type": "electric_bike", "lat": 38.88001083333333, "is_reserved": 0, "lon": -76.915945, "fusion_lon": 0.0, "is_disabled": 0, "fusion_lat": 0.0, "bike_id": "e5258c56a554f55349a38c0080f910c0", "rental_uris": {"ios": "https://dc.lft.to/lastmile_qr_scan", "android": "https://dc.lft.to/lastmile_qr_scan"}}, {"name": "d3b17ecfc0013c458f4648cf8a85659a", "type": "electric_scooter", "lat": 38.925329833333336, "is_reserved": 0, "lon": -77.05549633333334, "fusion_lon": 0.0, "is_disabled": 0, "fusion_lat": 0.0, "bike_id": "d3b17ecfc0013c458f4648cf8a85659a", "rental_uris": {"ios": "https://dc.lft.to/lastmile_qr_scan", "android": "https://dc.lft.to/lastmile_qr_scan"}}, {"name": "58d7d4ce551424c70c858e0cc73c5159", "type": "electric_scooter", "lat": 38.918715666666664, "is_reserved": 0, "lon": -77.04378916666667, "fusion_lon": 0.0, "is_disabled": 0, "fusion_lat": 0.0, "bike_id": "58d7d4ce551424c70c858e0cc73c5159", "rental_uris": {"ios": "https://dc.lft.to/lastmile_qr_scan", "android": "https://dc.lft.to/lastmile_qr_scan"}}, {"name": "c8d470909cc0f18fd40733404307e0c3", "type": "electric_scooter", "lat": 38.92690183333333, "is_reserved": 0, "lon": -77.09559233333333, "fusion_lon": 0.0, "is_disabled": 0, "fusion_lat": 0.0, "bike_id": "c8d470909cc0f18fd40733404307e0c3", "rental_uris": {"ios": "https://dc.lft.to/lastmile_qr_scan", "android": "https://dc.lft.to/lastmile_qr_scan"}}, {"name": "4675d7947e77110feb7550e07f9cc7f8", "type": "electric_scooter", "lat": 38.9014985, "is_reserved": 0, "lon": -76.930595, "fusion_lon": 0.0, "is_disabled": 0, "fusion_lat": 0.0, "bike_id": "4675d7947e77110feb7550e07f9cc7f8", "rental_uris": {"ios": "https://dc.lft.to/lastmile_qr_scan", "android": "https://dc.lft.to/lastmile_qr_scan"}}, {"name": "7769c7fbf3a1005982eedd02606f12b7", "type": "electric_scooter", "lat": 38.9159315, "is_reserved": 0, "lon": -77.04475516666666, "fusion_lon": 0.0, "is_disabled": 0, "fusion_lat": 0.0, "bike_id": "7769c7fbf3a1005982eedd02606f12b7", "rental_uris": {"ios": "https://dc.lft.to/lastmile_qr_scan", "android": "https://dc.lft.to/lastmile_qr_scan"}}, {"name": "572c0c1a3e3459fe2f2e207d23ae950f", "type": "electric_scooter", "lat": 38.93579583333333, "is_reserved": 0, "lon": -76.99109216666666, "fusion_lon": 0.0, "is_disabled": 0, "fusion_lat": 0.0, "bike_id": "572c0c1a3e3459fe2f2e207d23ae950f", "rental_uris": {"ios": "https://dc.lft.to/lastmile_qr_scan", "android": "https://dc.lft.to/lastmile_qr_scan"}}, {"name": "0b397b90b8796f912c89cf861eb883e1", "type": "electric_scooter", "lat": 38.924671333333336, "is_reserved": 0, "lon": -77.03760166666666, "fusion_lon": 0.0, "is_disabled": 0, "fusion_lat": 0.0, "bike_id": "0b397b90b8796f912c89cf861eb883e1", "rental_uris": {"ios": "https://dc.lft.to/lastmile_qr_scan", "android": "https://dc.lft.to/lastmile_qr_scan"}}, {"name": "bf9e42b1073e25ec1d5b565935aa8a29", "type": "electric_scooter", "lat": 38.922282, "is_reserved": 0, "lon": -77.033507, "fusion_lon": 0.0, "is_disabled": 0, "fusion_lat": 0.0, "bike_id": "bf9e42b1073e25ec1d5b565935aa8a29", "rental_uris": {"ios": "https://dc.lft.to/lastmile_qr_scan", "android": "https://dc.lft.to/lastmile_qr_scan"}}, {"name": "70b0bbc0c16694a990452f3c8e7fe960", "type": "electric_scooter", "lat": 38.92471316666666, "is_reserved": 0, "lon": -77.02832, "fusion_lon": 0.0, "is_disabled": 0, "fusion_lat": 0.0, "bike_id": "70b0bbc0c16694a990452f3c8e7fe960", "rental_uris": {"ios": "https://dc.lft.to/lastmile_qr_scan", "android": "https://dc.lft.to/lastmile_qr_scan"}}, {"name": "f9e2bc1494eb60ab80d3d7e179fe6994", "type": "electric_scooter", "lat": 38.910826, "is_reserved": 0, "lon": -77.0383945, "fusion_lon": 0.0, "is_disabled": 0, "fusion_lat": 0.0, "bike_id": "f9e2bc1494eb60ab80d3d7e179fe6994", "rental_uris": {"ios": "https://dc.lft.to/lastmile_qr_scan", "android": "https://dc.lft.to/lastmile_qr_scan"}}, {"name": "b70f54d9736a9dd11f064852e7788def", "type": "electric_scooter", "lat": 38.900462833333336, "is_reserved": 0, "lon": -77.03176133333334, "fusion_lon": 0.0, "is_disabled": 0, "fusion_lat": 0.0, "bike_id": "b70f54d9736a9dd11f064852e7788def", "rental_uris": {"ios": "https://dc.lft.to/lastmile_qr_scan", "android": "https://dc.lft.to/lastmile_qr_scan"}}, {"name": "07156ff460ae9e0e23a57ab2a7ff7128", "type": "electric_scooter", "lat": 38.90442383333333, "is_reserved": 0, "lon": -77.03440383333333, "fusion_lon": 0.0, "is_disabled": 0, "fusion_lat": 0.0, "bike_id": "07156ff460ae9e0e23a57ab2a7ff7128", "rental_uris": {"ios": "https://dc.lft.to/lastmile_qr_scan", "android": "https://dc.lft.to/lastmile_qr_scan"}}, {"name": "d67c8f0cdaa8bd191d57f8555a785f67", "type": "electric_scooter", "lat": 38.898722666666664, "is_reserved": 0, "lon": -77.03272566666666, "fusion_lon": 0.0, "is_disabled": 0, "fusion_lat": 0.0, "bike_id": "d67c8f0cdaa8bd191d57f8555a785f67", "rental_uris": {"ios": "https://dc.lft.to/lastmile_qr_scan", "android": "https://dc.lft.to/lastmile_qr_scan"}}, {"name": "4f30facbacd1e86a9f33e0ee455aa592", "type": "electric_scooter", "lat": 38.900830666666664, "is_reserved": 0, "lon": -76.93865283333334, "fusion_lon": 0.0, "is_disabled": 0, "fusion_lat": 0.0, "bike_id": "4f30facbacd1e86a9f33e0ee455aa592", "rental_uris": {"ios": "https://dc.lft.to/lastmile_qr_scan", "android": "https://dc.lft.to/lastmile_qr_scan"}}, {"name": "b5d02e8cf02a2b15a740e5e10a5f2774", "type": "electric_scooter", "lat": 38.898184, "is_reserved": 0, "lon": -77.03336883333333, "fusion_lon": 0.0, "is_disabled": 0, "fusion_lat": 0.0, "bike_id": "b5d02e8cf02a2b15a740e5e10a5f2774", "rental_uris": {"ios": "https://dc.lft.to/lastmile_qr_scan", "android": "https://dc.lft.to/lastmile_qr_scan"}}, {"name": "a49faf0e2f9749f1372bb570550e57da", "type": "electric_scooter", "lat": 38.880174833333335, "is_reserved": 0, "lon": -76.93119666666666, "fusion_lon": 0.0, "is_disabled": 0, "fusion_lat": 0.0, "bike_id": "a49faf0e2f9749f1372bb570550e57da", "rental_uris": {"ios": "https://dc.lft.to/lastmile_qr_scan", "android": "https://dc.lft.to/lastmile_qr_scan"}}, {"name": "f0b29b6c1f7979abe27561940f861f4f", "type": "electric_scooter", "lat": 38.91053866666667, "is_reserved": 0, "lon": -77.0458375, "fusion_lon": 0.0, "is_disabled": 0, "fusion_lat": 0.0, "bike_id": "f0b29b6c1f7979abe27561940f861f4f", "rental_uris": {"ios": "https://dc.lft.to/lastmile_qr_scan", "android": "https://dc.lft.to/lastmile_qr_scan"}}, {"name": "ebff99fdaadd563ecfce9cd25a88f8f0", "type": "electric_scooter", "lat": 38.927932166666665, "is_reserved": 0, "lon": -77.0535095, "fusion_lon": 0.0, "is_disabled": 0, "fusion_lat": 0.0, "bike_id": "ebff99fdaadd563ecfce9cd25a88f8f0", "rental_uris": {"ios": "https://dc.lft.to/lastmile_qr_scan", "android": "https://dc.lft.to/lastmile_qr_scan"}}, {"name": "38db1ccb42f362cc9278553050f070d9", "type": "electric_scooter", "lat": 38.916828333333335, "is_reserved": 0, "lon": -77.0280325, "fusion_lon": 0.0, "is_disabled": 0, "fusion_lat": 0.0, "bike_id": "38db1ccb42f362cc9278553050f070d9", "rental_uris": {"ios": "https://dc.lft.to/lastmile_qr_scan", "android": "https://dc.lft.to/lastmile_qr_scan"}}, {"name": "f1b49eea71584df5d2e2d152bca569c7", "type": "electric_bike", "lat": 38.827279833333336, "is_reserved": 0, "lon": -77.00859233333334, "fusion_lon": 0.0, "is_disabled": 0, "fusion_lat": 0.0, "bike_id": "f1b49eea71584df5d2e2d152bca569c7", "rental_uris": {"ios": "https://dc.lft.to/lastmile_qr_scan", "android": "https://dc.lft.to/lastmile_qr_scan"}}, {"name": "c901298b62c1082a04245130e93a092e", "type": "electric_scooter", "lat": 38.89497733333333, "is_reserved": 0, "lon": -77.023782, "fusion_lon": 0.0, "is_disabled": 0, "fusion_lat": 0.0, "bike_id": "c901298b62c1082a04245130e93a092e", "rental_uris": {"ios": "https://dc.lft.to/lastmile_qr_scan", "android": "https://dc.lft.to/lastmile_qr_scan"}}, {"name": "a36b994019753cb3c91cf38ef80b0ff2", "type": "electric_scooter", "lat": 38.926062, "is_reserved": 0, "lon": -77.02155266666666, "fusion_lon": 0.0, "is_disabled": 0, "fusion_lat": 0.0, "bike_id": "a36b994019753cb3c91cf38ef80b0ff2", "rental_uris": {"ios": "https://dc.lft.to/lastmile_qr_scan", "android": "https://dc.lft.to/lastmile_qr_scan"}}, {"name": "5a083aca92a3c1afb2f69af3613cbd6f", "type": "electric_scooter", "lat": 38.884961833333335, "is_reserved": 0, "lon": -77.00722233333333, "fusion_lon": 0.0, "is_disabled": 0, "fusion_lat": 0.0, "bike_id": "5a083aca92a3c1afb2f69af3613cbd6f", "rental_uris": {"ios": "https://dc.lft.to/lastmile_qr_scan", "android": "https://dc.lft.to/lastmile_qr_scan"}}, {"name": "8d98161d402b26715be532f16c29e0d1", "type": "electric_scooter", "lat": 38.888715166666664, "is_reserved": 0, "lon": -76.99036616666666, "fusion_lon": 0.0, "is_disabled": 0, "fusion_lat": 0.0, "bike_id": "8d98161d402b26715be532f16c29e0d1", "rental_uris": {"ios": "https://dc.lft.to/lastmile_qr_scan", "android": "https://dc.lft.to/lastmile_qr_scan"}}, {"name": "ac6e350c0b1f3b1ce417175c261767cc", "type": "electric_scooter", "lat": 38.934118833333336, "is_reserved": 0, "lon": -77.02415833333333, "fusion_lon": 0.0, "is_disabled": 0, "fusion_lat": 0.0, "bike_id": "ac6e350c0b1f3b1ce417175c261767cc", "rental_uris": {"ios": "https://dc.lft.to/lastmile_qr_scan", "android": "https://dc.lft.to/lastmile_qr_scan"}}, {"name": "4f948a70cdde92d24021a37266465bd7", "type": "electric_scooter", "lat": 38.866568, "is_reserved": 0, "lon": -76.98881666666666, "fusion_lon": 0.0, "is_disabled": 0, "fusion_lat": 0.0, "bike_id": "4f948a70cdde92d24021a37266465bd7", "rental_uris": {"ios": "https://dc.lft.to/lastmile_qr_scan", "android": "https://dc.lft.to/lastmile_qr_scan"}}, {"name": "d22afcab808c4dc23b403c69690d652d", "type": "electric_bike", "lat": 38.8074555, "is_reserved": 0, "lon": -77.09427083333334, "fusion_lon": 0.0, "is_disabled": 0, "fusion_lat": 0.0, "bike_id": "d22afcab808c4dc23b403c69690d652d", "rental_uris": {"ios": "https://dc.lft.to/lastmile_qr_scan", "android": "https://dc.lft.to/lastmile_qr_scan"}}, {"name": "f9a1ea3cc0c50ae1dcc7698b06677a2b", "type": "electric_scooter", "lat": 38.886404666666664, "is_reserved": 0, "lon": -77.02134633333333, "fusion_lon": 0.0, "is_disabled": 0, "fusion_lat": 0.0, "bike_id": "f9a1ea3cc0c50ae1dcc7698b06677a2b", "rental_uris": {"ios": "https://dc.lft.to/lastmile_qr_scan", "android": "https://dc.lft.to/lastmile_qr_scan"}}, {"name": "7cebb7c6a9cce16a49e90347736c1d93", "type": "electric_scooter", "lat": 38.900398333333335, "is_reserved": 0, "lon": -77.00193816666666, "fusion_lon": 0.0, "is_disabled": 0, "fusion_lat": 0.0, "bike_id": "7cebb7c6a9cce16a49e90347736c1d93", "rental_uris": {"ios": "https://dc.lft.to/lastmile_qr_scan", "android": "https://dc.lft.to/lastmile_qr_scan"}}, {"name": "50ecbf2851863d3c6220371bd54d4701", "type": "electric_bike", "lat": 38.924854833333335, "is_reserved": 0, "lon": -77.0732975, "fusion_lon": 0.0, "is_disabled": 0, "fusion_lat": 0.0, "bike_id": "50ecbf2851863d3c6220371bd54d4701", "rental_uris": {"ios": "https://dc.lft.to/lastmile_qr_scan", "android": "https://dc.lft.to/lastmile_qr_scan"}},