{"data": {"bikes": [{"is_reserved": 0, "type": "electric_scooter", "bike_id": "85d61d53359e04d310d0e2f5e318ac26", "lat": 38.91475533333333, "lon": -76.9844435, "rental_uris": {"android": "https://dc.lft.to/lastmile_qr_scan", "ios": "https://dc.lft.to/lastmile_qr_scan"}, "is_disabled": 0, "fusion_lat": 0.0, "name": "85d61d53359e04d310d0e2f5e318ac26", "fusion_lon": 0.0}, {"is_reserved": 0, "type": "electric_scooter", "bike_id": "741ac83e8cbdfe62c5cf047ce45c377a", "lat": 38.905722833333336, "lon": -77.00790366666666, "rental_uris": {"android": "https://dc.lft.to/lastmile_qr_scan", "ios": "https://dc.lft.to/lastmile_qr_scan"}, "is_disabled": 0, "fusion_lat": 0.0, "name": "741ac83e8cbdfe62c5cf047ce45c377a", "fusion_lon": 0.0}, {"is_reserved": 0, "type": "electric_scooter", "bike_id": "c84f00e935954a9be726df6a05870e34", "lat": 38.91983666666667, "lon": -77.033101, "rental_uris": {"android": "https://dc.lft.to/lastmile_qr_scan", "ios": "https://dc.lft.to/lastmile_qr_scan"}, "is_disabled": 0, "fusion_lat": 0.0, "name": "c84f00e935954a9be726df6a05870e34", "fusion_lon": 0.0}, {"is_reserved": 0, "type": "electric_scooter", "bike_id": "a1383244b48925432b38360410eef1ed", "lat": 38.89224466666667, "lon": -77.046822, "rental_uris": {"android": "https://dc.lft.to/lastmile_qr_scan", "ios": "https://dc.lft.to/lastmile_qr_scan"}, "is_disabled": 0, "fusion_lat": 0.0, "name": "a1383244b48925432b38360410eef1ed", "fusion_lon": 0.0}, {"is_reserved": 0, "type": "electric_scooter", "bike_id": "9651fb356303cfa52615a36751911229", "lat": 38.90365966666667, "lon": -76.98489966666666, "rental_uris": {"android": "https://dc.lft.to/lastmile_qr_scan", "ios": "https://dc.lft.to/lastmile_qr_scan"}, "is_disabled": 0, "fusion_lat": 0.0, "name": "9651fb356303cfa52615a36751911229", "fusion_lon": 0.0}, {"is_reserved": 0, "type": "electric_scooter", "bike_id": "61fb801f8eaddc7bb5b24c8d420b1c7c", "lat": 38.93415733333333, "lon": -77.03383016666666, "rental_uris": {"android": "https://dc.lft.to/lastmile_qr_scan", "ios": "https://dc.lft.to/lastmile_qr_scan"}, "is_disabled": 0, "fusion_lat": 0.0, "name": "61fb801f8eaddc7bb5b24c8d420b1c7c", "fusion_lon": 0.0}, {"is_reserved": 0, "type": "electric_scooter", "bike_id": "0577f936c8866bfe26fe91a0f9f1a625", "lat": 38.894986333333335, "lon": -77.021421, "rental_uris": {"android": "https://dc.lft.to/lastmile_qr_scan", "ios": "https://dc.lft.to/lastmile_qr_scan"}, "is_disabled": 0, "fusion_lat": 0.0, "name": "0577f936c8866bfe26fe91a0f9f1a625", "fusion_lon": 0.0}, {"is_reserved": 0, "type": "electric_scooter", "bike_id": "951bcd30a30a46388d763ce5ef28402f", "lat": 38.899756833333335, "lon": -76.99485433333334, "rental_uris": {"android": "https://dc.lft.to/lastmile_qr_scan", "ios": "https://dc.lft.to/lastmile_qr_scan"}, "is_disabled": 0, "fusion_lat": 0.0, "name": "951bcd30a30a46388d763ce5ef28402f", "fusion_lon": 0.0}, {"is_reserved": 0, "type": "electric_scooter", "bike_id": "45c5b6e70e4fadda32e7a6bd0befcc16", "lat": 38.937565666666664, "lon": -77.028354, "rental_uris": {"android": "https://dc.lft.to/lastmile_qr_scan", "ios": "https://dc.lft.to/lastmile_qr_scan"}, "is_disabled": 0, "fusion_lat": 0.0, "name": "45c5b6e70e4fadda32e7a6bd0befcc16", "fusion_lon": 0.0}, {"is_reserved": 0, "type": "electric_scooter", "bike_id": "bf149fe0f0484ef2e4bfa20a38bcdb40", "lat": 38.87759283333333, "lon": -77.018955, "rental_uris": {"android": "https://dc.lft.to/lastmile_qr_scan", "ios": "https://dc.lft.to/lastmile_qr_scan"}, "is_disabled": 0, "fusion_lat": 0.0, "name": "bf149fe0f0484ef2e4bfa20a38bcdb40", "fusion_lon": 0.0}, {"is_reserved": 0, "type": "electric_scooter", "bike_id": "260c4aea7c788ab985022a903d46f6ca", "lat": 38.912196, "lon": -77.0640775, "rental_uris": {"android": "https://dc.lft.to/lastmile_qr_scan", "ios": "https://dc.lft.to/lastmile_qr_scan"}, "is_disabled": 0, "fusion_lat": 0.0, "name": "260c4aea7c788ab985022a903d46f6ca", "fusion_lon": 0.0}, {"is_reserved": 0, "type": "electric_scooter", "bike_id": "a5ee0907fb6c1d23486a6d4519e714fd", "lat": 38.900373333333334, "lon": -77.02385166666667, "rental_uris": {"android": "https://dc.lft.to/lastmile_qr_scan", "ios": "https://dc.lft.to/lastmile_qr_scan"}, "is_disabled": 0, "fusion_lat": 0.0, "name": "a5ee0907fb6c1d23486a6d4519e714fd", "fusion_lon": 0.0}, {"is_reserved": 0, "type": "electric_scooter", "bike_id": "6887a4dc702e145fe6f18c133b7bf214", "lat": 38.90652883333333, "lon": -77.07558716666666, "rental_uris": {"android": "https://dc.lft.to/lastmile_qr_scan", "ios": "https://dc.lft.to/lastmile_qr_scan"}, "is_disabled": 0, "fusion_lat": 0.0, "name": "6887a4dc702e145fe6f18c133b7bf214", "fusion_lon": 0.0}, {"is_reserved": 0, "type": "electric_scooter", "bike_id": "04e6aff58d770695ec989bd51ca6d2c9", "lat": 38.944389666666666, "lon": -77.06348466666667, "rental_uris": {"android": "https://dc.lft.to/lastmile_qr_scan", "ios": "https://dc.lft.to/lastmile_qr_scan"}, "is_disabled": 0, "fusion_lat": 0.0, "name": "04e6aff58d770695ec989bd51ca6d2c9", "fusion_lon": 0.0}, {"is_reserved": 0, "type": "electric_scooter", "bike_id": "09167b2c88799a3e3bc1309c60c1c276", "lat": 38.860218833333334, "lon": -76.97003016666666, "rental_uris": {"android": "https://dc.lft.to/lastmile_qr_scan", "ios": "https://dc.lft.to/lastmile_qr_scan"}, "is_disabled": 0, "fusion_lat": 0.0, "name": "09167b2c88799a3e3bc1309c60c1c276", "fusion_lon": 0.0}, {"is_reserved": 0, "type": "electric_bike", "bike_id": "6b5af66341098254396d3c95715e7108", "lat": 38.92784416666667, "lon": -76.9991325, "rental_uris": {"android": "https://dc.lft.to/lastmile_qr_scan", "ios": "https://dc.lft.to/lastmile_qr_scan"}, "is_disabled": 0, "fusion_lat": 0.0, "name": "6b5af66341098254396d3c95715e7108", "fusion_lon": 0.0}, {"is_reserved": 0, "type": "electric_scooter", "bike_id": "5bf7f332329265b10e101a93db04b01c", "lat": 38.9244925, "lon": -77.0329205, "rental_uris": {"android": "https://dc.lft.to/lastmile_qr_scan", "ios": "https://dc.lft.to/lastmile_qr_scan"}, "is_disabled": 0, "fusion_lat": 0.0, "name": "5bf7f332329265b10e101a93db04b01c", "fusion_lon": 0.0}, {"is_reserved": 0, "type": "electric_scooter", "bike_id": "26ee8ac9363a217daebfd7015f4b5776", "lat": 38.911015166666665, "lon": -77.02722116666666, "rental_uris": {"android": "https://dc.lft.to/lastmile_qr_scan", "ios": "https://dc.lft.to/lastmile_qr_scan"}, "is_disabled": 0, "fusion_lat": 0.0, "name": "26ee8ac9363a217daebfd7015f4b5776", "fusion_lon": 0.0}, {"is_reserved": 0, "type": "electric_scooter", "bike_id": "14a004403f0d4f0967225a23ab33b632", "lat": 38.907432166666666, "lon": -77.03303433333333, "rental_uris": {"android": "https://dc.lft.to/lastmile_qr_scan", "ios": "https://dc.lft.to/lastmile_qr_scan"}, "is_disabled": 0, "fusion_lat": 0.0, "name": "14a004403f0d4f0967225a23ab33b632", "fusion_lon": 0.0}, {"is_reserved": 0, "type": "electric_scooter", "bike_id": "caf350cb512968b799c1f6fd240823b8", "lat": 38.90094533333333, "lon": -77.05001183333333, "rental_uris": {"android": "https://dc.lft.to/lastmile_qr_scan", "ios": "https://dc.lft.to/lastmile_qr_scan"}, "is_disabled": 0, "fusion_lat": 0.0, "name": "caf350cb512968b799c1f6fd240823b8", "fusion_lon": 0.0}, {"is_reserved": 0, "type": "electric_scooter", "bike_id": "f0aff00cb0a9ea57f1916c0844da3083", "lat": 38.89967083333333, "lon": -76.93855083333334, "rental_uris": {"android": "https://dc.lft.to/lastmile_qr_scan", "ios": "https://dc.lft.to/lastmile_qr_scan"}, "is_disabled": 0, "fusion_lat": 0.0, "name": "f0aff00cb0a9ea57f1916c0844da3083", "fusion_lon": 0.0}, {"is_reserved": 0, "type": "electric_scooter", "bike_id": "4c133e130ba989ecb2522e918e369380", "lat": 38.92749166666667, "lon": -77.05387066666667, "rental_uris": {"android": "https://dc.lft.to/lastmile_qr_scan", "ios": "https://dc.lft.to/lastmile_qr_scan"}, "is_disabled": 0, "fusion_lat": 0.0, "name": "4c133e130ba989ecb2522e918e369380", "fusion_lon": 0.0}, {"is_reserved": 0, "type": "electric_scooter", "bike_id": "598abb7f55396a4441a0f10802358407", "lat": 38.922348, "lon": -77.02239366666667, "rental_uris": {"android": "https://dc.lft.to/lastmile_qr_scan", "ios": "https://dc.lft.to/lastmile_qr_scan"}, "is_disabled": 0, "fusion_lat": 0.0, "name": "598abb7f55396a4441a0f10802358407", "fusion_lon": 0.0}, {"is_reserved": 0, "type": "electric_scooter", "bike_id": "b2dd6c61c2448a8ec96a3e5922e6e977", "lat": 38.92101816666667, "lon": -77.04385316666666, "rental_uris": {"android": "https://dc.lft.to/lastmile_qr_scan", "ios": "https://dc.lft.to/lastmile_qr_scan"}, "is_disabled": 0, "fusion_lat": 0.0, "name": "b2dd6c61c2448a8ec96a3e5922e6e977", "fusion_lon": 0.0}, {"is_reserved": 0, "type": "electric_scooter", "bike_id": "68f998e99252a985f5375202773d36d0", "lat": 38.887272, "lon": -77.02204, "rental_uris": {"android": "https://dc.lft.to/lastmile_qr_scan", "ios": "https://dc.lft.to/lastmile_qr_scan"}, "is_disabled": 0, "fusion_lat": 0.0, "name": "68f998e99252a985f5375202773d36d0", "fusion_lon": 0.0}, {"is_reserved": 0, "type": "electric_scooter", "bike_id": "71c8dea22c64e435c2fc71a170520f7d", "lat": 38.909550333333335, "lon": -77.04885116666667, "rental_uris": {"android": "https://dc.lft.to/lastmile_qr_scan", "ios": "https://dc.lft.to/lastmile_qr_scan"}, "is_disabled": 0, "fusion_lat": 0.0, "name": "71c8dea22c64e435c2fc71a170520f7d", "fusion_lon": 0.0}, {"is_reserved": 0, "type": "electric_scooter", "bike_id": "1831a2b99a0c8478e31cf406313301cb", "lat": 38.91341033333333, "lon": -77.03205333333334, "rental_uris": {"android": "https://dc.lft.to/lastmile_qr_scan", "ios": "https://dc.lft.to/lastmile_qr_scan"}, "is_disabled": 0, "fusion_lat": 0.0, "name": "1831a2b99a0c8478e31cf406313301cb", "fusion_lon": 0.0}, {"is_reserved": 0, "type": "electric_scooter", "bike_id": "16bd6fbaca1865f677ae93bf6d90cfcb", "lat": 38.919176, "lon": -77.03094066666667, "rental_uris": {"android": "https://dc.lft.to/lastmile_qr_scan", "ios": "https://dc.lft.to/lastmile_qr_scan"}, "is_disabled": 0, "fusion_lat": 0.0, "name": "16bd6fbaca1865f677ae93bf6d90cfcb", "fusion_lon": 0.0}, {"is_reserved": 0, "type": "electric_scooter", "bike_id": "ff711fb2ff9fa54e5eaa35c841db38d3", "lat": 38.90016033333333, "lon": -77.046622, "rental_uris": {"android": "https://dc.lft.to/lastmile_qr_scan", "ios": "https://dc.lft.to/lastmile_qr_scan"}, "is_disabled": 0, "fusion_lat": 0.0, "name": "ff711fb2ff9fa54e5eaa35c841db38d3", "fusion_lon": 0.0}, {"is_reserved": 0, "type": "electric_scooter", "bike_id": "439030e6f8b79b484f773c7a7c35e39d", "lat": 38.883842666666666, "lon": -76.99360016666667, "rental_uris": {"android": "https://dc.lft.to/lastmile_qr_scan", "ios": "https://dc.lft.to/lastmile_qr_scan"}, "is_disabled": 0, "fusion_lat": 0.0, "name": "439030e6f8b79b484f773c7a7c35e39d", "fusion_lon": 0.0}, {"is_reserved": 0, "type": "electric_scooter", "bike_id": "2cb74296babcf4cb7247d30320456e08", "lat": 38.924122833333335, "lon": -77.036381, "rental_uris": {"android": "https://dc.lft.to/lastmile_qr_scan", "ios": "https://dc.lft.to/lastmile_qr_scan"}, "is_disabled": 0, "fusion_lat": 0.0, "name": "2cb74296babcf4cb7247d30320456e08", "fusion_lon": 0.0}, {"is_reserved": 0, "type": "electric_scooter", "bike_id": "21e7bc5e68e896d7dca85c8660979718", "lat": 38.8843415, "lon": -77.0250285, "rental_uris": {"android": "https://dc.lft.to/lastmile_qr_scan", "ios": "https://dc.lft.to/lastmile_qr_scan"}, "is_disabled": 0, "fusion_lat": 0.0, "name": "21e7bc5e68e896d7dca85c8660979718", "fusion_lon": 0.0}, {"is_reserved": 0, "type": "electric_scooter", "bike_id": "ee48e938ce4300e51f8f5949348d6975", "lat": 38.93635783333333, "lon": -77.06480816666667, "rental_uris": {"android": "https://dc.lft.to/lastmile_qr_scan", "ios": "https://dc.lft.to/lastmile_qr_scan"}, "is_disabled": 0, "fusion_lat": 0.0, "name": "ee48e938ce4300e51f8f5949348d6975", "fusion_lon": 0.0}, {"is_reserved": 0, "type": "electric_scooter", "bike_id": "eb456797d83edaf3d3e1e0d6271ee68f", "lat": 38.898349, "lon": -77.04827316666666, "rental_uris": {"android": "https://dc.lft.to/lastmile_qr_scan", "ios": "https://dc.lft.to/lastmile_qr_scan"}, "is_disabled": 0, "fusion_lat": 0.0, "name": "eb456797d83edaf3d3e1e0d6271ee68f", "fusion_lon": 0.0}, {"is_reserved": 0, "type": "electric_scooter", "bike_id": "c28aff6a6cd0608ab22dc980b77258b9", "lat": 38.920128166666665, "lon": -77.0312705, "rental_uris": {"android": "https://dc.lft.to/lastmile_qr_scan", "ios": "https://dc.lft.to/lastmile_qr_scan"}, "is_disabled": 0, "fusion_lat": 0.0, "name": "c28aff6a6cd0608ab22dc980b77258b9", "fusion_lon": 0.0}, {"is_reserved": 0, "type": "electric_scooter", "bike_id": "93b10e996c711d0b8e6a815b1f66a431", "lat": 38.89607783333334, "lon": -77.00526133333334, "rental_uris": {"android": "https://dc.lft.to/lastmile_qr_scan", "ios": "https://dc.lft.to/lastmile_qr_scan"}, "is_disabled": 0, "fusion_lat": 0.0, "name": "93b10e996c711d0b8e6a815b1f66a431", "fusion_lon": 0.0}, {"is_reserved": 0, "type": "electric_scooter", "bike_id": "7f24262d136bc89ea2899e3ba87a13f1", "lat": 38.916372, "lon": -77.03960783333333, "rental_uris": {"android": "https://dc.lft.to/lastmile_qr_scan", "ios": "https://dc.lft.to/lastmile_qr_scan"}, "is_disabled": 0, "fusion_lat": 0.0, "name": "7f24262d136bc89ea2899e3ba87a13f1", "fusion_lon": 0.0}, {"is_reserved": 0, "type": "electric_scooter", "bike_id": "d0b636e1405fd3e459886e93ee884213", "lat": 38.975032166666665, "lon": -77.016994, "rental_uris": {"android": "https://dc.lft.to/lastmile_qr_scan", "ios": "https://dc.lft.to/lastmile_qr_scan"}, "is_disabled": 0, "fusion_lat": 0.0, "name": "d0b636e1405fd3e459886e93ee884213", "fusion_lon": 0.0}, {"is_reserved": 0, "type": "electric_scooter", "bike_id": "6fc87fc6a194adc73353144cc2e16be5", "lat": 38.93037, "lon": -77.08313633333333, "rental_uris": {"android": "https://dc.lft.to/lastmile_qr_scan", "ios": "https://dc.lft.to/lastmile_qr_scan"}, "is_disabled": 0, "fusion_lat": 0.0, "name": "6fc87fc6a194adc73353144cc2e16be5", "fusion_lon": 0.0}, {"is_reserved": 0, "type": "electric_scooter", "bike_id": "2c20e850f8a797ae0e7469be00c9e5d9", "lat": 38.912655666666666, "lon": -77.01878366666666, "rental_uris": {"android": "https://dc.lft.to/lastmile_qr_scan", "ios": "https://dc.lft.to/lastmile_qr_scan"}, "is_disabled": 0, "fusion_lat": 0.0, "name": "2c20e850f8a797ae0e7469be00c9e5d9", "fusion_lon": 0.0}, {"is_reserved": 0, "type": "electric_scooter", "bike_id": "62ef4ba954b1cce2bb9deceb09da83d6", "lat": 38.908478333333335, "lon": -77.02589966666666, "rental_uris": {"android": "https://dc.lft.to/lastmile_qr_scan", "ios": "https://dc.lft.to/lastmile_qr_scan"}, "is_disabled": 0, "fusion_lat": 0.0, "name": "62ef4ba954b1cce2bb9deceb09da83d6", "fusion_lon": 0.0}, {"is_reserved": 0, "type": "electric_scooter", "bike_id": "eca0681dc647f0e2d63b525737168a57", "lat": 38.90793633333333, "lon": -77.00221333333333, "rental_uris": {"android": "https://dc.lft.to/lastmile_qr_scan", "ios": "https://dc.lft.to/lastmile_qr_scan"}, "is_disabled": 0, "fusion_lat": 0.0, "name": "eca0681dc647f0e2d63b525737168a57", "fusion_lon": 0.0}, {"is_reserved": 0, "type": "electric_scooter", "bike_id": "7cb171059b7e1286567f709e7ef4827b", "lat": 38.935319, "lon": -77.02354933333334, "rental_uris": {"android": "https://dc.lft.to/lastmile_qr_scan", "ios": "https://dc.lft.to/lastmile_qr_scan"}, "is_disabled": 0, "fusion_lat": 0.0, "name": "7cb171059b7e1286567f709e7ef4827b", "fusion_lon": 0.0}, {"is_reserved": 0, "type": "electric_scooter", "bike_id": "9929e923a901e50a831a221fef885538", "lat": 38.900153833333334, "lon": -76.930244, "rental_uris": {"android": "https://dc.lft.to/lastmile_qr_scan", "ios": "https://dc.lft.to/lastmile_qr_scan"}, "is_disabled": 0, "fusion_lat": 0.0, "name": "9929e923a901e50a831a221fef885538", "fusion_lon": 0.0}, {"is_reserved": 0, "type": "electric_scooter", "bike_id": "75aa14f70425973e35ecbd0f9833a9b5", "lat": 38.896173166666664, "lon": -76.97683866666667, "rental_uris": {"android": "https://dc.lft.to/lastmile_qr_scan", "ios": "https://dc.lft.to/lastmile_qr_scan"}, "is_disabled": 0, "fusion_lat": 0.0, "name": "75aa14f70425973e35ecbd0f9833a9b5", "fusion_lon": 0.0}, {"is_reserved": 0, "type": "electric_scooter", "bike_id": "c427f8e4952741c220e0d3a2defed758", "lat": 38.883978166666665, "lon": -76.93040083333334, "rental_uris": {"android": "https://dc.lft.to/lastmile_qr_scan", "ios": "https://dc.lft.to/lastmile_qr_scan"}, "is_disabled": 0, "fusion_lat": 0.0, "name": "c427f8e4952741c220e0d3a2defed758", "fusion_lon": 0.0}, {"is_reserved": 0, "type": "electric_scooter", "bike_id": "0f902cb87eaec8732734601f2c770d9b", "lat": 38.89644716666667, "lon": -76.99034633333333, "rental_uris": {"android": "https://dc.lft.to/lastmile_qr_scan", "ios": "https://dc.lft.to/lastmile_qr_scan"}, "is_disabled": 0, "fusion_lat": 0.0, "name": "0f902cb87eaec8732734601f2c770d9b", "fusion_lon": 0.0}, {"is_reserved": 0, "type": "electric_scooter", "bike_id": "4b07100e5cc8b03c792c669bc363a6b8", "lat": 38.92317516666667, "lon": -77.02980016666666, "rental_uris": {"android": "https://dc.lft.to/lastmile_qr_scan", "ios": "https://dc.lft.to/lastmile_qr_scan"}, "is_disabled": 0, "fusion_lat": 0.0, "name": "4b07100e5cc8b03c792c669bc363a6b8", "fusion_lon": 0.0}, {"is_reserved": 0, "type": "electric_scooter", "bike_id": "47be4af146330f6c6f0fd2a8dea67548", "lat": 38.91490016666667, "lon": -77.02423566666667, "rental_uris": {"android": "https://dc.lft.to/lastmile_qr_scan", "ios": "https://dc.lft.to/lastmile_qr_scan"}, "is_disabled": 0, "fusion_lat": 0.0, "name": "47be4af146330f6c6f0fd2a8dea67548", "fusion_lon": 0.0}, {"is_reserved": 0, "type": "electric_scooter", "bike_id": "dc84fef5ba7c6e05bc2ff72317e69dd8", "lat": 38.899539, "lon": -77.020102, "rental_uris": {"android": "https://dc.lft.to/lastmile_qr_scan", "ios": "https://dc.lft.to/lastmile_qr_scan"}, "is_disabled": 0, "fusion_lat": 0.0, "name": "dc84fef5ba7c6e05bc2ff72317e69dd8", "fusion_lon": 0.0}, {"is_reserved": 0, "type": "electric_scooter", "bike_id": "d5c241c6b2d642fa27c95fc47e0cb788", "lat": 38.917445, "lon": -77.00924066666667, "rental_uris": {"android": "https://dc.lft.to/lastmile_qr_scan", "ios": "https://dc.lft.to/lastmile_qr_scan"}, "is_disabled": 0, "fusion_lat": 0.0, "name": "d5c241c6b2d642fa27c95fc47e0cb788", "fusion_lon": 0.0}, {"is_reserved": 0, "type": "electric_scooter", "bike_id": "2d935e6d74a1840ef135e96f8e23b827", "lat": 38.89266666666666, "lon": -76.93005916666667, "rental_uris": {"android": "https://dc.lft.to/lastmile_qr_scan", "ios": "https://dc.lft.to/lastmile_qr_scan"}, "is_disabled": 0, "fusion_lat": 0.0, "name": "2d935e6d74a1840ef135e96f8e23b827", "fusion_lon": 0.0}, {"is_reserved": 0, "type": "electric_scooter", "bike_id": "a5fa1fdb97225846c525de501fc1a65d", "lat": 38.9064155, "lon": -77.07031466666666, "rental_uris": {"android": "https://dc.lft.to/lastmile_qr_scan", "ios": "https://dc.lft.to/lastmile_qr_scan"}, "is_disabled": 0, "fusion_lat": 0.0, "name": "a5fa1fdb97225846c525de501fc1a65d", "fusion_lon": 0.0}, {"is_reserved": 0, "type": "electric_scooter", "bike_id": "2fdecdaa1da4905f45c8c0720776cc67", "lat": 38.930038833333334, "lon": -77.01823283333333, "rental_uris": {"android": "https://dc.lft.to/lastmile_qr_scan", "ios": "https://dc.lft.to/lastmile_qr_scan"}, "is_disabled": 0, "fusion_lat": 0.0, "name": "2fdecdaa1da4905f45c8c0720776cc67", "fusion_lon": 0.0}, {"is_reserved": 0, "type": "electric_scooter", "bike_id": "f3abd78e085ee8d4c1ca91e4266a5a00", "lat": 38.937415666666666, "lon": -77.03260183333333, "rental_uris": {"android": "https://dc.lft.to/lastmile_qr_scan", "ios": "https://dc.lft.to/lastmile_qr_scan"}, "is_disabled": 0, "fusion_lat": 0.0, "name": "f3abd78e085ee8d4c1ca91e4266a5a00", "fusion_lon": 0.0}, {"is_reserved": 0, "type": "electric_scooter", "bike_id": "2b195d893da1e8795fdb608957661f91", "lat": 38.94313066666667, "lon": -77.02175116666666, "rental_uris": {"android": "https://dc.lft.to/lastmile_qr_scan", "ios": "https://dc.lft.to/lastmile_qr_scan"}, "is_disabled": 0, "fusion_lat": 0.0, "name": "2b195d893da1e8795fdb608957661f91", "fusion_lon": 0.0}, {"is_reserved": 0, "type": "electric_scooter", "bike_id": "9d122699226071ac24b8ce07d2091c7c", "lat": 38.888177166666665, "lon": -77.00198466666667, "rental_uris": {"android": "https://dc.lft.to/lastmile_qr_scan", "ios": "https://dc.lft.to/lastmile_qr_scan"}, "is_disabled": 0, "fusion_lat": 0.0, "name": "9d122699226071ac24b8ce07d2091c7c", "fusion_lon": 0.0}, {"is_reserved": 0, "type": "electric_scooter", "bike_id": "6233b61aac79e3a872280450e3f3b234", "lat": 38.9202335, "lon": -77.01031333333333, "rental_uris": {"android": "https://dc.lft.to/lastmile_qr_scan", "ios": "https://dc.lft.to/lastmile_qr_scan"}, "is_disabled": 0, "fusion_lat": 0.0, "name": "6233b61aac79e3a872280450e3f3b234", "fusion_lon": 0.0}, {"is_reserved": 0, "type": "electric_scooter", "bike_id": "93c91deadb0dc3cf424095cc658967da", "lat": 38.89940766666667, "lon": -77.02692466666667, "rental_uris": {"android": "https://dc.lft.to/lastmile_qr_scan", "ios": "https://dc.lft.to/lastmile_qr_scan"}, "is_disabled": 0, "fusion_lat": 0.0, "name": "93c91deadb0dc3cf424095cc658967da", "fusion_lon": 0.0}, {"is_reserved": 0, "type": "electric_scooter", "bike_id": "c21ed19bdf59413e7f2de70e0ac56668", "lat": 38.87643, "lon": -77.0073925, "rental_uris": {"android": "https://dc.lft.to/lastmile_qr_scan", "ios": "https://dc.lft.to/lastmile_qr_scan"}, "is_disabled": 0, "fusion_lat": 0.0, "name": "c21ed19bdf59413e7f2de70e0ac56668", "fusion_lon": 0.0}, {"is_reserved": 0, "type": "electric_scooter", "bike_id": "d86b4acf553ee7ac488a585972a1313e", "lat": 38.93111283333333, "lon": -77.03842916666666, "rental_uris": {"android": "https://dc.lft.to/lastmile_qr_scan", "ios": "https://dc.lft.to/lastmile_qr_scan"}, "is_disabled": 0, "fusion_lat": 0.0, "name": "d86b4acf553ee7ac488a585972a1313e", "fusion_lon": 0.0}, {"is_reserved": 0, "type": "electric_scooter", "bike_id": "14aa7f462a925d508dd2eb2050789fc4", "lat": 38.876157166666665, "lon": -76.96562416666667, "rental_uris": {"android": "https://dc.lft.to/lastmile_qr_scan", "ios": "https://dc.lft.to/lastmile_qr_scan"}, "is_disabled": 0, "fusion_lat": 0.0, "name": "14aa7f462a925d508dd2eb2050789fc4", "fusion_lon": 0.0}, {"is_reserved": 0, "type": "electric_scooter", "bike_id": "83b68ab065107b4072f3388b1b235ebc", "lat": 38.890424333333335, "lon": -76.95246383333334, "rental_uris": {"android": "https://dc.lft.to/lastmile_qr_scan", "ios": "https://dc.lft.to/lastmile_qr_scan"}, "is_disabled": 0, "fusion_lat": 0.0, "name": "83b68ab065107b4072f3388b1b235ebc", "fusion_lon": 0.0}, {"is_reserved": 0, "type": "electric_scooter", "bike_id": "c91969da73ccbe7f9f97a3781085cf7b", "lat": 38.918177, "lon": -77.03147833333334, "rental_uris": {"android": "https://dc.lft.to/lastmile_qr_scan", "ios": "https://dc.lft.to/lastmile_qr_scan"}, "is_disabled": 0, "fusion_lat": 0.0, "name": "c91969da73ccbe7f9f97a3781085cf7b", "fusion_lon": 0.0}, {"is_reserved": 0, "type": "electric_scooter", "bike_id": "ae4c3f36687955e47e194635628d8e8a", "lat": 38.90512583333334, "lon": -77.06380633333333, "rental_uris": {"android": "https://dc.lft.to/lastmile_qr_scan", "ios": "https://dc.lft.to/lastmile_qr_scan"}, "is_disabled": 0, "fusion_lat": 0.0, "name": "ae4c3f36687955e47e194635628d8e8a", "fusion_lon": 0.0}, {"is_reserved": 0, "type": "electric_scooter", "bike_id": "13abd622b8de1be34d350256d0b329ed", "lat": 38.919838666666664, "lon": -77.040701, "rental_uris": {"android": "https://dc.lft.to/lastmile_qr_scan", "ios": "https://dc.lft.to/lastmile_qr_scan"}, "is_disabled": 0, "fusion_lat": 0.0, "name": "13abd622b8de1be34d350256d0b329ed", "fusion_lon": 0.0}, {"is_reserved": 0, "type": "electric_scooter", "bike_id": "54d9f8e6321eed2eca50c3c4ac696974", "lat": 38.9282435, "lon": -77.05438016666666, "rental_uris": {"android": "https://dc.lft.to/lastmile_qr_scan", "ios": "https://dc.lft.to/lastmile_qr_scan"}, "is_disabled": 0, "fusion_lat": 0.0, "name": "54d9f8e6321eed2eca50c3c4ac696974", "fusion_lon": 0.0}, {"is_reserved": 0, "type": "electric_scooter", "bike_id": "82ec6045a5bdc70153b3998f3e55001a", "lat": 38.924824666666666, "lon": -77.03482016666666, "rental_uris": {"android": "https://dc.lft.to/lastmile_qr_scan", "ios": "https://dc.lft.to/lastmile_qr_scan"}, "is_disabled": 0, "fusion_lat": 0.0, "name": "82ec6045a5bdc70153b3998f3e55001a", "fusion_lon": 0.0}, {"is_reserved": 0, "type": "electric_scooter", "bike_id": "de2d5d975335f24f2b0115dc66070172", "lat": 38.8739565, "lon": -77.000236, "rental_uris": {"android": "https://dc.lft.to/lastmile_qr_scan", "ios": "https://dc.lft.to/lastmile_qr_scan"}, "is_disabled": 0, "fusion_lat": 0.0, "name": "de2d5d975335f24f2b0115dc66070172", "fusion_lon": 0.0}, {"is_reserved": 0, "type": "electric_scooter", "bike_id": "65d13533c9566f8d7a6bc8b2a0e463f7", "lat": 38.930772166666664, "lon": -77.028148, "rental_uris": {"android": "https://dc.lft.to/lastmile_qr_scan", "ios": "https://dc.lft.to/lastmile_qr_scan"}, "is_disabled": 0, "fusion_lat": 0.0, "name": "65d13533c9566f8d7a6bc8b2a0e463f7", "fusion_lon": 0.0}, {"is_reserved": 0, "type": "electric_bike", "bike_id": "5fe8f1241e4b56d56aa041acce275cf8", "lat": 38.95756466666667, "lon": -76.98023316666666, "rental_uris": {"android": "https://dc.lft.to/lastmile_qr_scan", "ios": "https://dc.lft.to/lastmile_qr_scan"}, "is_disabled": 0, "fusion_lat": 0.0, "name": "5fe8f1241e4b56d56aa041acce275cf8", "fusion_lon": 0.0}, {"is_reserved": 0, "type": "electric_scooter", "bike_id": "b2e4b1a606608bdf1039245cd1889e4c", "lat": 38.9013195, "lon": -76.99103566666666, "rental_uris": {"android": "https://dc.lft.to/lastmile_qr_scan", "ios": "https://dc.lft.to/lastmile_qr_scan"}, "is_disabled": 0, "fusion_lat": 0.0, "name": "b2e4b1a606608bdf1039245cd1889e4c", "fusion_lon": 0.0}, {"is_reserved": 0, "type": "electric_scooter", "bike_id": "67d91a717188fd20c7da92842e34eb59", "lat": 38.914265, "lon": -77.01802383333333, "rental_uris": {"android": "https://dc.lft.to/lastmile_qr_scan", "ios": "https://dc.lft.to/lastmile_qr_scan"}, "is_disabled": 0, "fusion_lat": 0.0, "name": "67d91a717188fd20c7da92842e34eb59", "fusion_lon": 0.0}, {"is_reserved": 0, "type": "electric_scooter", "bike_id": "294299b0a8c70b039f69f854a356bc96", "lat": 38.91193083333334, "lon": -77.03205666666666, "rental_uris": {"android": "https://dc.lft.to/lastmile_qr_scan", "ios": "https://dc.lft.to/lastmile_qr_scan"}, "is_disabled": 0, "fusion_lat": 0.0, "name": "294299b0a8c70b039f69f854a356bc96", "fusion_lon": 0.0}, {"is_reserved": 0, "type": "electric_scooter", "bike_id": "770f497616047089ea72d4c5b185de26", "lat": 38.9221425, "lon": -77.03752433333334, "rental_uris": {"android": "https://dc.lft.to/lastmile_qr_scan", "ios": "https://dc.lft.to/lastmile_qr_scan"}, "is_disabled": 0, "fusion_lat": 0.0, "name": "770f497616047089ea72d4c5b185de26", "fusion_lon": 0.0}, {"is_reserved": 0, "type": "electric_scooter", "bike_id": "0887f0310059e3e9b62e327c190508ba", "lat": 38.975196333333336, "lon": -77.01736333333334, "rental_uris": {"android": "https://dc.lft.to/lastmile_qr_scan", "ios": "https://dc.lft.to/lastmile_qr_scan"}, "is_disabled": 0, "fusion_lat": 0.0, "name": "0887f0310059e3e9b62e327c190508ba", "fusion_lon": 0.0}, {"is_reserved": 0, "type": "electric_scooter", "bike_id": "1e599a6979cf00c81a359d6754f7c873", "lat": 38.90348983333333, "lon": -76.9861095, "rental_uris": {"android": "https://dc.lft.to/lastmile_qr_scan", "ios": "https://dc.lft.to/lastmile_qr_scan"}, "is_disabled": 0, "fusion_lat": 0.0, "name": "1e599a6979cf00c81a359d6754f7c873", "fusion_lon": 0.0}, {"is_reserved": 0, "type": "electric_scooter", "bike_id": "5460792a522b10a032748c396bf6b486", "lat": 38.940769833333334, "lon": -77.06145083333334, "rental_uris": {"android": "https://dc.lft.to/lastmile_qr_scan", "ios": "https://dc.lft.to/lastmile_qr_scan"}, "is_disabled": 0, "fusion_lat": 0.0, "name": "5460792a522b10a032748c396bf6b486", "fusion_lon": 0.0}, {"is_reserved": 0, "type": "electric_scooter", "bike_id": "c1923a64b2518a7ceaf29edb4f6404a1", "lat": 38.90261516666666, "lon": -77.017608, "rental_uris": {"android": "https://dc.lft.to/lastmile_qr_scan", "ios": "https://dc.lft.to/lastmile_qr_scan"}, "is_disabled": 0, "fusion_lat": 0.0, "name": "c1923a64b2518a7ceaf29edb4f6404a1", "fusion_lon": 0.0}, {"is_reserved": 0, "type": "electric_scooter", "bike_id": "d91666c1376dcc1b747e3cdb04954ac3", "lat": 38.916709166666664, "lon": -77.022943, "rental_uris": {"android": "https://dc.lft.to/lastmile_qr_scan", "ios": "https://dc.lft.to/lastmile_qr_scan"}, "is_disabled": 0, "fusion_lat": 0.0, "name": "d91666c1376dcc1b747e3cdb04954ac3", "fusion_lon": 0.0}, {"is_reserved": 0, "type": "electric_scooter", "bike_id": "7217ac4f06fe80b7f3c0be796d2dd69c", "lat": 38.912701166666665, "lon": -77.01219, "rental_uris": {"android": "https://dc.lft.to/lastmile_qr_scan", "ios": "https://dc.lft.to/lastmile_qr_scan"}, "is_disabled": 0, "fusion_lat": 0.0, "name": "7217ac4f06fe80b7f3c0be796d2dd69c", "fusion_lon": 0.0}, {"is_reserved": 0, "type": "electric_scooter", "bike_id": "5c013ff9daa7db9646aeab9c80e77727", "lat": 38.92797083333333, "lon": -77.02535216666666, "rental_uris": {"android": "https://dc.lft.to/lastmile_qr_scan", "ios": "https://dc.lft.to/lastmile_qr_scan"}, "is_disabled": 0, "fusion_lat": 0.0, "name": "5c013ff9daa7db9646aeab9c80e77727", "fusion_lon": 0.0}, {"is_reserved": 0, "type": "electric_scooter", "bike_id": "88c624963fda84bddfa487a621c8dcfd", "lat": 38.92327566666667, "lon": -77.02965566666667, "rental_uris": {"android": "https://dc.lft.to/lastmile_qr_scan", "ios": "https://dc.lft.to/lastmile_qr_scan"}, "is_disabled": 0, "fusion_lat": 0.0, "name": "88c624963fda84bddfa487a621c8dcfd", "fusion_lon": 0.0}, {"is_reserved": 0, "type": "electric_scooter", "bike_id": "af65ad31fed3d947a9efe0e031e94e28", "lat": 38.91192616666667, "lon": -77.00547283333333, "rental_uris": {"android": "https://dc.lft.to/lastmile_qr_scan", "ios": "https://dc.lft.to/lastmile_qr_scan"}, "is_disabled": 0, "fusion_lat": 0.0, "name": "af65ad31fed3d947a9efe0e031e94e28", "fusion_lon": 0.0}, {"is_reserved": 0, "type": "electric_scooter", "bike_id": "df7d18910300c40596eeee0171051013", "lat": 38.924458333333334, "lon": -77.0216155, "rental_uris": {"android": "https://dc.lft.to/lastmile_qr_scan", "ios": "https://dc.lft.to/lastmile_qr_scan"}, "is_disabled": 0, "fusion_lat": 0.0, "name": "df7d18910300c40596eeee0171051013", "fusion_lon": 0.0}, {"is_reserved": 0, "type": "electric_scooter", "bike_id": "ce23fa6ab813e3ea5929029d9920ba9c", "lat": 38.89275766666667, "lon": -76.99268483333333, "rental_uris": {"android": "https://dc.lft.to/lastmile_qr_scan", "ios": "https://dc.lft.to/lastmile_qr_scan"}, "is_disabled": 0, "fusion_lat": 0.0, "name": "ce23fa6ab813e3ea5929029d9920ba9c", "fusion_lon": 0.0}, {"is_reserved": 0, "type": "electric_scooter", "bike_id": "41fc112244925923e805476c6c725dd5", "lat": 38.87579, "lon": -77.019926, "rental_uris": {"android": "https://dc.lft.to/lastmile_qr_scan", "ios": "https://dc.lft.to/lastmile_qr_scan"}, "is_disabled": 0, "fusion_lat": 0.0, "name": "41fc112244925923e805476c6c725dd5", "fusion_lon": 0.0}, {"is_reserved": 0, "type": "electric_scooter", "bike_id": "329686ac8e746690099eb5d87949e312", "lat": 38.93957066666667, "lon": -77.02752266666667, "rental_uris": {"android": "https://dc.lft.to/lastmile_qr_scan", "ios": "https://dc.lft.to/lastmile_qr_scan"}, "is_disabled": 0, "fusion_lat": 0.0, "name": "329686ac8e746690099eb5d87949e312", "fusion_lon": 0.0}, {"is_reserved": 0, "type": "electric_scooter", "bike_id": "e6d6582db1030173d232b04656f41a9e", "lat": 38.924245666666664, "lon": -77.0197415, "rental_uris": {"android": "https://dc.lft.to/lastmile_qr_scan", "ios": "https://dc.lft.to/lastmile_qr_scan"}, "is_disabled": 0, "fusion_lat": 0.0, "name": "e6d6582db1030173d232b04656f41a9e", "fusion_lon": 0.0}, {"is_reserved": 0, "type": "electric_scooter", "bike_id": "f522192162042425854036c12e069ef6", "lat": 38.93358883333333, "lon": -77.05721816666667, "rental_uris": {"android": "https://dc.lft.to/lastmile_qr_scan", "ios": "https://dc.lft.to/lastmile_qr_scan"}, "is_disabled": 0, "fusion_lat": 0.0, "name": "f522192162042425854036c12e069ef6", "fusion_lon": 0.0}, {"is_reserved": 0, "type": "electric_scooter", "bike_id": "58f579a02d81bbbf0b83b74c799ceead", "lat": 38.913999833333335, "lon": -77.03181483333333, "rental_uris": {"android": "https://dc.lft.to/lastmile_qr_scan", "ios": "https://dc.lft.to/lastmile_qr_scan"}, "is_disabled": 0, "fusion_lat": 0.0, "name": "58f579a02d81bbbf0b83b74c799ceead", "fusion_lon": 0.0}, {"is_reserved": 0, "type": "electric_scooter", "bike_id": "ebe91816f0e03b45f695991421645e2a", "lat": 38.91962816666667, "lon": -77.02223366666666, "rental_uris": {"android": "https://dc.lft.to/lastmile_qr_scan", "ios": "https://dc.lft.to/lastmile_qr_scan"}, "is_disabled": 0, "fusion_lat": 0.0, "name": "ebe91816f0e03b45f695991421645e2a", "fusion_lon": 0.0}, {"is_reserved": 0, "type": "electric_scooter", "bike_id": "7d7494c42fd62a9224815ebd6db2cead", "lat": 38.9170685, "lon": -77.02415933333333, "rental_uris": {"android": "https://dc.lft.to/lastmile_qr_scan", "ios": "https://dc.lft.to/lastmile_qr_scan"}, "is_disabled": 0, "fusion_lat": 0.0, "name": "7d7494c42fd62a9224815ebd6db2cead", "fusion_lon": 0.0}, {"is_reserved": 0, "type": "electric_scooter", "bike_id": "65e7285436120cb4eafa70e0fbb3961b", "lat": 38.907975, "lon": -77.04228733333333, "rental_uris": {"android": "https://dc.lft.to/lastmile_qr_scan", "ios": "https://dc.lft.to/lastmile_qr_scan"}, "is_disabled": 0, "fusion_lat": 0.0, "name": "65e7285436120cb4eafa70e0fbb3961b", "fusion_lon": 0.0}, {"is_reserved": 0, "type": "electric_scooter", "bike_id": "73efcf077d2511ac507df64d31e29b30", "lat": 38.9227895, "lon": -77.02131016666667, "rental_uris": {"android": "https://dc.lft.to/lastmile_qr_scan", "ios": "https://dc.lft.to/lastmile_qr_scan"}, "is_disabled": 0, "fusion_lat": 0.0, "name": "73efcf077d2511ac507df64d31e29b30", "fusion_lon": 0.0}, {"is_reserved": 0, "type": "electric_scooter", "bike_id": "6c2e3dea71ecaefb070c286f291dd72c", "lat": 38.925510833333334, "lon": -77.03219883333334, "rental_uris": {"android": "https://dc.lft.to/lastmile_qr_scan", "ios": "https://dc.lft.to/lastmile_qr_scan"}, "is_disabled": 0, "fusion_lat": 0.0, "name": "6c2e3dea71ecaefb070c286f291dd72c", "fusion_lon": 0.0}, {"is_reserved": 0, "type": "electric_bike", "bike_id": "c5404308a62a9f88b38196025eaa2712", "lat": 38.917071166666666, "lon": -77.057218, "rental_uris": {"android": "https://dc.lft.to/lastmile_qr_scan", "ios": "https://dc.lft.to/lastmile_qr_scan"}, "is_disabled": 0, "fusion_lat": 0.0, "name": "c5404308a62a9f88b38196025eaa2712", "fusion_lon": 0.0}, {"is_reserved": 0, "type": "electric_scooter", "bike_id": "b6539a907742f3bdbb8350802d11db51", "lat": 38.91492316666667, "lon": -77.02000766666667, "rental_uris": {"android": "https://dc.lft.to/lastmile_qr_scan", "ios": "https://dc.lft.to/lastmile_qr_scan"}, "is_disabled": 0, "fusion_lat": 0.0, "name": "b6539a907742f3bdbb8350802d11db51", "fusion_lon": 0.0}, {"is_reserved": 0, "type": "electric_scooter", "bike_id": "edffb79c6496d573be89212200870215", "lat": 38.945908333333335, "lon": -77.020327, "rental_uris": {"android": "https://dc.lft.to/lastmile_qr_scan", "ios": "https://dc.lft.to/lastmile_qr_scan"}, "is_disabled": 0, "fusion_lat": 0.0, "name": "edffb79c6496d573be89212200870215", "fusion_lon": 0.0}, {"is_reserved": 0, "type": "electric_scooter", "bike_id": "c9d95939a9c58d1a590fd4b90dcf5a4f", "lat": 38.88737116666667, "lon": -77.0034215, "rental_uris": {"android": "https://dc.lft.to/lastmile_qr_scan", "ios": "https://dc.lft.to/lastmile_qr_scan"}, "is_disabled": 0, "fusion_lat": 0.0, "name": "c9d95939a9c58d1a590fd4b90dcf5a4f", "fusion_lon": 0.0}, {"is_reserved": 0, "type": "electric_scooter", "bike_id": "edefc29b7c65a8192e87e07818034cd9", "lat": 38.93455266666667, "lon": -77.02918733333334, "rental_uris": {"android": "https://dc.lft.to/lastmile_qr_scan", "ios": "https://dc.lft.to/lastmile_qr_scan"}, "is_disabled": 0, "fusion_lat": 0.0, "name": "edefc29b7c65a8192e87e07818034cd9", "fusion_lon": 0.0}, {"is_reserved": 0, "type": "electric_scooter", "bike_id": "1e38f36a415c023e5021a0d8d5bbb233", "lat": 38.92344, "lon": -77.035094, "rental_uris": {"android": "https://dc.lft.to/lastmile_qr_scan", "ios": "https://dc.lft.to/lastmile_qr_scan"}, "is_disabled": 0, "fusion_lat": 0.0, "name": "1e38f36a415c023e5021a0d8d5bbb233", "fusion_lon": 0.0}, {"is_reserved": 0, "type": "electric_bike", "bike_id": "f0f040a092e9d8f6e46b59fc8b7bd58d", "lat": 38.9426405, "lon": -76.9907125, "rental_uris": {"android": "https://dc.lft.to/lastmile_qr_scan", "ios": "https://dc.lft.to/lastmile_qr_scan"}, "is_disabled": 0, "fusion_lat": 0.0, "name": "f0f040a092e9d8f6e46b59fc8b7bd58d", "fusion_lon": 0.0}, {"is_reserved": 0, "type": "electric_scooter", "bike_id": "73d914e942f4a47271ef5e8361e00fa7", "lat": 38.89636733333333, "lon": -76.92798266666667, "rental_uris": {"android": "https://dc.lft.to/lastmile_qr_scan", "ios": "https://dc.lft.to/lastmile_qr_scan"}, "is_disabled": 0, "fusion_lat": 0.0, "name": "73d914e942f4a47271ef5e8361e00fa7", "fusion_lon": 0.0}, {"is_reserved": 0, "type": "electric_scooter", "bike_id": "49449e954761731310416ff936c5fe44", "lat": 38.900344833333335, "lon": -76.99641416666667, "rental_uris": {"android": "https://dc.lft.to/lastmile_qr_scan", "ios": "https://dc.lft.to/lastmile_qr_scan"}, "is_disabled": 0, "fusion_lat": 0.0, "name": "49449e954761731310416ff936c5fe44", "fusion_lon": 0.0}, {"is_reserved": 0, "type": "electric_scooter", "bike_id": "4059ce0239e5fbd5a531e536442bfa98", "lat": 38.89470566666667, "lon": -76.99711883333333, "rental_uris": {"android": "https://dc.lft.to/lastmile_qr_scan", "ios": "https://dc.lft.to/lastmile_qr_scan"}, "is_disabled": 0, "fusion_lat": 0.0, "name": "4059ce0239e5fbd5a531e536442bfa98", "fusion_lon": 0.0}, {"is_reserved": 0, "type": "electric_scooter", "bike_id": "bdfa4350d05c46ada0df9f477edaee58", "lat": 38.876345, "lon": -77.01587966666666, "rental_uris": {"android": "https://dc.lft.to/lastmile_qr_scan", "ios": "https://dc.lft.to/lastmile_qr_scan"}, "is_disabled": 0, "fusion_lat": 0.0, "name": "bdfa4350d05c46ada0df9f477edaee58", "fusion_lon": 0.0}, {"is_reserved": 0, "type": "electric_scooter", "bike_id": "daf6a1f5b000e9bf8f6a15c1ceedfda0", "lat": 38.89687, "lon": -77.043398, "rental_uris": {"android": "https://dc.lft.to/lastmile_qr_scan", "ios": "https://dc.lft.to/lastmile_qr_scan"}, "is_disabled": 0, "fusion_lat": 0.0, "name": "daf6a1f5b000e9bf8f6a15c1ceedfda0", "fusion_lon": 0.0}, {"is_reserved": 0, "type": "electric_scooter", "bike_id": "39edf4b019692bca830796d439fa450e", "lat": 38.959115833333335, "lon": -77.00018716666666, "rental_uris": {"android": "https://dc.lft.to/lastmile_qr_scan", "ios": "https://dc.lft.to/lastmile_qr_scan"}, "is_disabled": 0, "fusion_lat": 0.0, "name": "39edf4b019692bca830796d439fa450e", "fusion_lon": 0.0}, {"is_reserved": 0, "type": "electric_scooter", "bike_id": "1a0286559ca74bfbaa6a852de565aed8", "lat": 38.901127333333335, "lon": -77.04167416666667, "rental_uris": {"android": "https://dc.lft.to/lastmile_qr_scan", "ios": "https://dc.lft.to/lastmile_qr_scan"}, "is_disabled": 0, "fusion_lat": 0.0, "name": "1a0286559ca74bfbaa6a852de565aed8", "fusion_lon": 0.0}, {"is_reserved": 0, "type": "electric_scooter", "bike_id": "f2f1e606903d8bc2cbfac4b46bd8527c", "lat": 38.9267975, "lon": -77.03197266666666, "rental_uris": {"android": "https://dc.lft.to/lastmile_qr_scan", "ios": "https://dc.lft.to/lastmile_qr_scan"}, "is_disabled": 0, "fusion_lat": 0.0, "name": "f2f1e606903d8bc2cbfac4b46bd8527c", "fusion_lon": 0.0}, {"is_reserved": 0, "type": "electric_scooter", "bike_id": "f42752593f6850e8d5218c979d31377f", "lat": 38.895982833333335, "lon": -77.03010266666666, "rental_uris": {"android": "https://dc.lft.to/lastmile_qr_scan", "ios": "https://dc.lft.to/lastmile_qr_scan"}, "is_disabled": 0, "fusion_lat": 0.0, "name": "f42752593f6850e8d5218c979d31377f", "fusion_lon": 0.0}, {"is_reserved": 0, "type": "electric_scooter", "bike_id": "8d6eb96f2225d9f0a0a60059ff40d09a", "lat": 38.9243265, "lon": -77.003225, "rental_uris": {"android": "https://dc.lft.to/lastmile_qr_scan", "ios": "https://dc.lft.to/lastmile_qr_scan"}, "is_disabled": 0, "fusion_lat": 0.0, "name": "8d6eb96f2225d9f0a0a60059ff40d09a", "fusion_lon": 0.0}, {"is_reserved": 0, "type": "electric_scooter", "bike_id": "d22628f4f046146b30c0adf106ec955b", "lat": 38.901988, "lon": -77.04855, "rental_uris": {"android": "https://dc.lft.to/lastmile_qr_scan", "ios": "https://dc.lft.to/lastmile_qr_scan"}, "is_disabled": 0, "fusion_lat": 0.0, "name": "d22628f4f046146b30c0adf106ec955b", "fusion_lon": 0.0}, {"is_reserved": 0, "type": "electric_scooter", "bike_id": "d217563400e67e885a4e8b991014a3b4", "lat": 38.9239725, "lon": -77.05058883333334, "rental_uris": {"android": "https://dc.lft.to/lastmile_qr_scan", "ios": "https://dc.lft.to/lastmile_qr_scan"}, "is_disabled": 0, "fusion_lat": 0.0, "name": "d217563400e67e885a4e8b991014a3b4", "fusion_lon": 0.0}, {"is_reserved": 0, "type": "electric_scooter", "bike_id": "aaa0a5716704ee154edc981d428145c0", "lat": 38.885951, "lon": -77.02171866666667, "rental_uris": {"android": "https://dc.lft.to/lastmile_qr_scan", "ios": "https://dc.lft.to/lastmile_qr_scan"}, "is_disabled": 0, "fusion_lat": 0.0, "name": "aaa0a5716704ee154edc981d428145c0", "fusion_lon": 0.0}, {"is_reserved": 0, "type": "electric_scooter", "bike_id": "330ef1f79b265173391260185023eb5a", "lat": 38.905077166666665, "lon": -77.02595283333333, "rental_uris": {"android": "https://dc.lft.to/lastmile_qr_scan", "ios": "https://dc.lft.to/lastmile_qr_scan"}, "is_disabled": 0, "fusion_lat": 0.0, "name": "330ef1f79b265173391260185023eb5a", "fusion_lon": 0.0}, {"is_reserved": 0, "type": "electric_scooter", "bike_id": "daf2909452e07ec6ff036dd96b73956b", "lat": 38.935856, "lon": -77.0584475, "rental_uris": {"android": "https://dc.lft.to/lastmile_qr_scan", "ios": "https://dc.lft.to/lastmile_qr_scan"}, "is_disabled": 0, "fusion_lat": 0.0, "name": "daf2909452e07ec6ff036dd96b73956b", "fusion_lon": 0.0}, {"is_reserved": 0, "type": "electric_scooter", "bike_id": "be67930e985c10ddae3bee67778aa9c4", "lat": 38.93629816666667, "lon": -77.03662866666667, "rental_uris": {"android": "https://dc.lft.to/lastmile_qr_scan", "ios": "https://dc.lft.to/lastmile_qr_scan"}, "is_disabled": 0, "fusion_lat": 0.0, "name": "be67930e985c10ddae3bee67778aa9c4", "fusion_lon": 0.0}, {"is_reserved": 0, "type": "electric_scooter", "bike_id": "88b41b445079b94591f0bd0b6fb2f9b8", "lat": 38.907191, "lon": -77.01747683333333, "rental_uris": {"android": "https://dc.lft.to/lastmile_qr_scan", "ios": "https://dc.lft.to/lastmile_qr_scan"}, "is_disabled": 0, "fusion_lat": 0.0, "name": "88b41b445079b94591f0bd0b6fb2f9b8", "fusion_lon": 0.0}, {"is_reserved": 0, "type": "electric_scooter", "bike_id": "3d501c21623f02c4d53fdc7f186f6c10", "lat": 38.89971516666667, "lon": -77.02112583333333, "rental_uris": {"android": "https://dc.lft.to/lastmile_qr_scan", "ios": "https://dc.lft.to/lastmile_qr_scan"}, "is_disabled": 0, "fusion_lat": 0.0, "name": "3d501c21623f02c4d53fdc7f186f6c10", "fusion_lon": 0.0}, {"is_reserved": 0, "type": "electric_scooter", "bike_id": "175ac2b513c2266bafc3d54aa487d5a5", "lat": 38.896308166666664, "lon": -77.032223, "rental_uris": {"android": "https://dc.lft.to/lastmile_qr_scan", "ios": "https://dc.lft.to/lastmile_qr_scan"}, "is_disabled": 0, "fusion_lat": 0.0, "name": "175ac2b513c2266bafc3d54aa487d5a5", "fusion_lon": 0.0}, {"is_reserved": 0, "type": "electric_scooter", "bike_id": "57fc4a499caf6bcd17e155c46d1d62dd", "lat": 38.892216166666664, "lon": -77.03114766666667, "rental_uris": {"android": "https://dc.lft.to/lastmile_qr_scan", "ios": "https://dc.lft.to/lastmile_qr_scan"}, "is_disabled": 0, "fusion_lat": 0.0, "name": "57fc4a499caf6bcd17e155c46d1d62dd", "fusion_lon": 0.0}, {"is_reserved": 0, "type": "electric_bike", "bike_id": "f1b1ef5243231a81fdc2d3a563ece892", "lat": 38.864471333333334, "lon": -76.990002, "rental_uris": {"android": "https://dc.lft.to/lastmile_qr_scan", "ios": "https://dc.lft.to/lastmile_qr_scan"}, "is_disabled": 0, "fusion_lat": 0.0, "name": "f1b1ef5243231a81fdc2d3a563ece892", "fusion_lon": 0.0}, {"is_reserved": 0, "type": "electric_scooter", "bike_id": "8bfbacbf50c09a04b85ee625c17c994b", "lat": 38.90398483333333, "lon": -77.0629845, "rental_uris": {"android": "https://dc.lft.to/lastmile_qr_scan", "ios": "https://dc.lft.to/lastmile_qr_scan"}, "is_disabled": 0, "fusion_lat": 0.0, "name": "8bfbacbf50c09a04b85ee625c17c994b", "fusion_lon": 0.0}, {"is_reserved": 0, "type": "electric_scooter", "bike_id": "f38353f8b0707ee4ffdbb726f713f595", "lat": 38.928403, "lon": -77.05507266666666, "rental_uris": {"android": "https://dc.lft.to/lastmile_qr_scan", "ios": "https://dc.lft.to/lastmile_qr_scan"}, "is_disabled": 0, "fusion_lat": 0.0, "name": "f38353f8b0707ee4ffdbb726f713f595", "fusion_lon": 0.0}, {"is_reserved": 0, "type": "electric_scooter", "bike_id": "69bd27c07c649125783fd99bb6255f52", "lat": 38.917471166666665, "lon": -77.02794983333334, "rental_uris": {"android": "https://dc.lft.to/lastmile_qr_scan", "ios": "https://dc.lft.to/lastmile_qr_scan"}, "is_disabled": 0, "fusion_lat": 0.0, "name": "69bd27c07c649125783fd99bb6255f52", "fusion_lon": 0.0}, {"is_reserved": 0, "type": "electric_scooter", "bike_id": "345dfc9efec20db5d0eba4186d45fbec", "lat": 38.8918735, "lon": -76.9985685, "rental_uris": {"android": "https://dc.lft.to/lastmile_qr_scan", "ios": "https://dc.lft.to/lastmile_qr_scan"}, "is_disabled": 0, "fusion_lat": 0.0, "name": "345dfc9efec20db5d0eba4186d45fbec", "fusion_lon": 0.0}, {"is_reserved": 0, "type": "electric_scooter", "bike_id": "665f8dda2054440260719daff3dbbbb5", "lat": 38.899085166666666, "lon": -76.9336665, "rental_uris": {"android": "https://dc.lft.to/lastmile_qr_scan", "ios": "https://dc.lft.to/lastmile_qr_scan"}, "is_disabled": 0, "fusion_lat": 0.0, "name": "665f8dda2054440260719daff3dbbbb5", "fusion_lon": 0.0}, {"is_reserved": 0, "type": "electric_scooter", "bike_id": "7ab4a985c726f63b3fd9f83dfbbe8fc8", "lat": 38.899935666666664, "lon": -76.99014016666666, "rental_uris": {"android": "https://dc.lft.to/lastmile_qr_scan", "ios": "https://dc.lft.to/lastmile_qr_scan"}, "is_disabled": 0, "fusion_lat": 0.0, "name": "7ab4a985c726f63b3fd9f83dfbbe8fc8", "fusion_lon": 0.0}, {"is_reserved": 0, "type": "electric_scooter", "bike_id": "8043ee94cc960bfebfb1d25195fff018", "lat": 38.92455316666667, "lon": -77.02163983333334, "rental_uris": {"android": "https://dc.lft.to/lastmile_qr_scan", "ios": "https://dc.lft.to/lastmile_qr_scan"}, "is_disabled": 0, "fusion_lat": 0.0, "name": "8043ee94cc960bfebfb1d25195fff018", "fusion_lon": 0.0}, {"is_reserved": 0, "type": "electric_scooter", "bike_id": "f6fa0bbc60ab3b7d58fc781c8449318e", "lat": 38.92559416666667, "lon": -77.0336375, "rental_uris": {"android": "https://dc.lft.to/lastmile_qr_scan", "ios": "https://dc.lft.to/lastmile_qr_scan"}, "is_disabled": 0, "fusion_lat": 0.0, "name": "f6fa0bbc60ab3b7d58fc781c8449318e", "fusion_lon": 0.0}, {"is_reserved": 0, "type": "electric_scooter", "bike_id": "a3083702598a33ee43098cb5660f9605", "lat": 38.861155333333336, "lon": -76.98380833333333, "rental_uris": {"android": "https://dc.lft.to/lastmile_qr_scan", "ios": "https://dc.lft.to/lastmile_qr_scan"}, "is_disabled": 0, "fusion_lat": 0.0, "name": "a3083702598a33ee43098cb5660f9605", "fusion_lon": 0.0}, {"is_reserved": 0, "type": "electric_scooter", "bike_id": "76186cfbad1fdae12e4496c47e0085b8", "lat": 38.892514166666665, "lon": -77.03957483333333, "rental_uris": {"android": "https://dc.lft.to/lastmile_qr_scan", "ios": "https://dc.lft.to/lastmile_qr_scan"}, "is_disabled": 0, "fusion_lat": 0.0, "name": "76186cfbad1fdae12e4496c47e0085b8", "fusion_lon": 0.0}, {"is_reserved": 0, "type": "electric_scooter", "bike_id": "e1c4e651e2747fd9ad99a397df5e8b1d", "lat": 38.924288, "lon": -77.0225615, "rental_uris": {"android": "https://dc.lft.to/lastmile_qr_scan", "ios": "https://dc.lft.to/lastmile_qr_scan"}, "is_disabled": 0, "fusion_lat": 0.0, "name": "e1c4e651e2747fd9ad99a397df5e8b1d", "fusion_lon": 0.0}, {"is_reserved": 0, "type": "electric_scooter", "bike_id": "91cea4b22e1ac0db2baeef1df8a7c71e", "lat": 38.911178166666666, "lon": -77.04813533333333, "rental_uris": {"android": "https://dc.lft.to/lastmile_qr_scan", "ios": "https://dc.lft.to/lastmile_qr_scan"}, "is_disabled": 0, "fusion_lat": 0.0, "name": "91cea4b22e1ac0db2baeef1df8a7c71e", "fusion_lon": 0.0}, {"is_reserved": 0, "type": "electric_scooter", "bike_id": "a4861fcedec1ebd0ec56f6854cf12965", "lat": 38.87545716666666, "lon": -77.00539, "rental_uris": {"android": "https://dc.lft.to/lastmile_qr_scan", "ios": "https://dc.lft.to/lastmile_qr_scan"}, "is_disabled": 0, "fusion_lat": 0.0, "name": "a4861fcedec1ebd0ec56f6854cf12965", "fusion_lon": 0.0}, {"is_reserved": 0, "type": "electric_scooter", "bike_id": "d62ca2451b1be9ca5ff339f18e5eb653", "lat": 38.9194175, "lon": -77.02499983333334, "rental_uris": {"android": "https://dc.lft.to/lastmile_qr_scan", "ios": "https://dc.lft.to/lastmile_qr_scan"}, "is_disabled": 0, "fusion_lat": 0.0, "name": "d62ca2451b1be9ca5ff339f18e5eb653", "fusion_lon": 0.0}, {"is_reserved": 0, "type": "electric_scooter", "bike_id": "4f3e762486bac451d4a5a23682c0b287", "lat": 38.88661066666667, "lon": -76.93675066666667, "rental_uris": {"android": "https://dc.lft.to/lastmile_qr_scan", "ios": "https://dc.lft.to/lastmile_qr_scan"}, "is_disabled": 0, "fusion_lat": 0.0, "name": "4f3e762486bac451d4a5a23682c0b287", "fusion_lon": 0.0}, {"is_reserved": 0, "type": "electric_bike", "bike_id": "346ea149ded5dda1aea7d8a6bf74d058", "lat": 39.08435133333333, "lon": -76.95145666666667, "rental_uris": {"android": "https://dc.lft.to/lastmile_qr_scan", "ios": "https://dc.lft.to/lastmile_qr_scan"}, "is_disabled": 0, "fusion_lat": 0.0, "name": "346ea149ded5dda1aea7d8a6bf74d058", "fusion_lon": 0.0}, {"is_reserved": 0, "type": "electric_bike", "bike_id": "28a0ef68b5db92796abe7388566e69d4", "lat": 38.835447333333335, "lon": -77.00749116666667, "rental_uris": {"android": "https://dc.lft.to/lastmile_qr_scan", "ios": "https://dc.lft.to/lastmile_qr_scan"}, "is_disabled": 0, "fusion_lat": 0.0, "name": "28a0ef68b5db92796abe7388566e69d4", "fusion_lon": 0.0}, {"is_reserved": 0, "type": "electric_scooter", "bike_id": "4c912de1a2492d31ac0588df86fa6aed", "lat": 38.905307666666666, "lon": -77.04020516666667, "rental_uris": {"android": "https://dc.lft.to/lastmile_qr_scan", "ios": "https://dc.lft.to/lastmile_qr_scan"}, "is_disabled": 0, "fusion_lat": 0.0, "name": "4c912de1a2492d31ac0588df86fa6aed", "fusion_lon": 0.0}, {"is_reserved": 0, "type": "electric_bike", "bike_id": "08b30903ed9b85833868710cd46b7862", "lat": 38.94542233333333, "lon": -77.34460066666666, "rental_uris": {"android": "https://dc.lft.to/lastmile_qr_scan", "ios": "https://dc.lft.to/lastmile_qr_scan"}, "is_disabled": 0, "fusion_lat": 0.0, "name": "08b30903ed9b85833868710cd46b7862", "fusion_lon": 0.0}, {"is_reserved": 0, "type": "electric_scooter", "bike_id": "457a30182bd65e0c6a24277d92e372b2", "lat": 38.896106333333336, "lon": -77.04412633333334, "rental_uris": {"android": "https://dc.lft.to/lastmile_qr_scan", "ios": "https://dc.lft.to/lastmile_qr_scan"}, "is_disabled": 0, "fusion_lat": 0.0, "name": "457a30182bd65e0c6a24277d92e372b2", "fusion_lon": 0.0}, {"is_reserved": 0, "type": "electric_scooter", "bike_id": "69b9c829e85f51f9d1c77912fda66213", "lat": 38.9283625, "lon": -77.006061, "rental_uris": {"android": "https://dc.lft.to/lastmile_qr_scan", "ios": "https://dc.lft.to/lastmile_qr_scan"}, "is_disabled": 0, "fusion_lat": 0.0, "name": "69b9c829e85f51f9d1c77912fda66213", "fusion_lon": 0.0}, {"is_reserved": 0, "type": "electric_scooter", "bike_id": "ad20aa2e17e8e3680a537525101e9472", "lat": 38.88442166666667, "lon": -76.95771266666667, "rental_uris": {"android": "https://dc.lft.to/lastmile_qr_scan", "ios": "https://dc.lft.to/lastmile_qr_scan"}, "is_disabled": 0, "fusion_lat": 0.0, "name": "ad20aa2e17e8e3680a537525101e9472", "fusion_lon": 0.0}, {"is_reserved": 0, "type": "electric_scooter", "bike_id": "e9225dfb30e0ee7846755a012305dff9", "lat": 38.91562483333333, "lon": -77.03093666666666, "rental_uris": {"android": "https://dc.lft.to/lastmile_qr_scan", "ios": "https://dc.lft.to/lastmile_qr_scan"}, "is_disabled": 0, "fusion_lat": 0.0, "name": "e9225dfb30e0ee7846755a012305dff9", "fusion_lon": 0.0}, {"is_reserved": 0, "type": "electric_scooter", "bike_id": "e9b612115c78e67de20de09e19943b9c", "lat": 38.914081833333334, "lon": -77.0220775, "rental_uris": {"android": "https://dc.lft.to/lastmile_qr_scan", "ios": "https://dc.lft.to/lastmile_qr_scan"}, "is_disabled": 0, "fusion_lat": 0.0, "name": "e9b612115c78e67de20de09e19943b9c", "fusion_lon": 0.0}, {"is_reserved": 0, "type": "electric_scooter", "bike_id": "499ae2e0c3eaa9bd68097c90c124f854", "lat": 38.924586166666664, "lon": -77.0522495, "rental_uris": {"android": "https://dc.lft.to/lastmile_qr_scan", "ios": "https://dc.lft.to/lastmile_qr_scan"}, "is_disabled": 0, "fusion_lat": 0.0, "name": "499ae2e0c3eaa9bd68097c90c124f854", "fusion_lon": 0.0}, {"is_reserved": 0, "type": "electric_scooter", "bike_id": "18162c09ad987b109c60c3aa43b1103d", "lat": 38.88607433333333, "lon": -76.9881925, "rental_uris": {"android": "https://dc.lft.to/lastmile_qr_scan", "ios": "https://dc.lft.to/lastmile_qr_scan"}, "is_disabled": 0, "fusion_lat": 0.0, "name": "18162c09ad987b109c60c3aa43b1103d", "fusion_lon": 0.0}, {"is_reserved": 0, "type": "electric_scooter", "bike_id": "f091ed9ad3b5fc18a2a8c8649cbfb51b", "lat": 38.92601966666667, "lon": -77.02154466666667, "rental_uris": {"android": "https://dc.lft.to/lastmile_qr_scan", "ios": "https://dc.lft.to/lastmile_qr_scan"}, "is_disabled": 0, "fusion_lat": 0.0, "name": "f091ed9ad3b5fc18a2a8c8649cbfb51b", "fusion_lon": 0.0}, {"is_reserved": 0, "type": "electric_scooter", "bike_id": "94b8cf4dfa12e3c4c7e95a3d899f9b1d", "lat": 38.87852633333333, "lon": -77.00133216666667, "rental_uris": {"android": "https://dc.lft.to/lastmile_qr_scan", "ios": "https://dc.lft.to/lastmile_qr_scan"}, "is_disabled": 0, "fusion_lat": 0.0, "name": "94b8cf4dfa12e3c4c7e95a3d899f9b1d", "fusion_lon": 0.0}, {"is_reserved": 0, "type": "electric_scooter", "bike_id": "e4222882f57675415c9ecd6aa2f5d7a2", "lat": 38.90571333333333, "lon": -77.00718183333333, "rental_uris": {"android": "https://dc.lft.to/lastmile_qr_scan", "ios": "https://dc.lft.to/lastmile_qr_scan"}, "is_disabled": 0, "fusion_lat": 0.0, "name": "e4222882f57675415c9ecd6aa2f5d7a2", "fusion_lon": 0.0}, {"is_reserved": 0, "type": "electric_scooter", "bike_id": "b9e5bb6b07d051c6d1cae7fb64df5df6", "lat": 38.862151833333336, "lon": -76.97912116666667, "rental_uris": {"android": "https://dc.lft.to/lastmile_qr_scan", "ios": "https://dc.lft.to/lastmile_qr_scan"}, "is_disabled": 0, "fusion_lat": 0.0, "name": "b9e5bb6b07d051c6d1cae7fb64df5df6", "fusion_lon": 0.0}, {"is_reserved": 0, "type": "electric_scooter", "bike_id": "995bfb208184ebbc2a47372e7fca228d", "lat": 38.94979033333333, "lon": -77.0244565, "rental_uris": {"android": "https://dc.lft.to/lastmile_qr_scan", "ios": "https://dc.lft.to/lastmile_qr_scan"}, "is_disabled": 0, "fusion_lat": 0.0, "name": "995bfb208184ebbc2a47372e7fca228d", "fusion_lon": 0.0}, {"is_reserved": 0, "type": "electric_scooter", "bike_id": "bbeed7dea1ba11b2fbf22acf5673fc0a", "lat": 38.95465216666667, "lon": -77.07762766666667, "rental_uris": {"android": "https://dc.lft.to/lastmile_qr_scan", "ios": "https://dc.lft.to/lastmile_qr_scan"}, "is_disabled": 0, "fusion_lat": 0.0, "name": "bbeed7dea1ba11b2fbf22acf5673fc0a", "fusion_lon": 0.0}, {"is_reserved": 0, "type": "electric_scooter", "bike_id": "d8a9718e79b6827098ddf0747dbbe4e9", "lat": 38.91721733333333, "lon": -77.02971483333333, "rental_uris": {"android": "https://dc.lft.to/lastmile_qr_scan", "ios": "https://dc.lft.to/lastmile_qr_scan"}, "is_disabled": 0, "fusion_lat": 0.0, "name": "d8a9718e79b6827098ddf0747dbbe4e9", "fusion_lon": 0.0}, {"is_reserved": 0, "type": "electric_scooter", "bike_id": "801aa067bbbe8523c3a7b81cbfea5b38", "lat": 38.91466533333333, "lon": -77.02606016666667, "rental_uris": {"android": "https://dc.lft.to/lastmile_qr_scan", "ios": "https://dc.lft.to/lastmile_qr_scan"}, "is_disabled": 0, "fusion_lat": 0.0, "name": "801aa067bbbe8523c3a7b81cbfea5b38", "fusion_lon": 0.0}, {"is_reserved": 0, "type": "electric_scooter", "bike_id": "4cc6aabe6d0a904c0945c8531c31199c", "lat": 38.90208483333333, "lon": -77.05319116666666, "rental_uris": {"android": "https://dc.lft.to/lastmile_qr_scan", "ios": "https://dc.lft.to/lastmile_qr_scan"}, "is_disabled": 0, "fusion_lat": 0.0, "name": "4cc6aabe6d0a904c0945c8531c31199c", "fusion_lon": 0.0}, {"is_reserved": 0, "type": "electric_scooter", "bike_id": "feb37cd65e796805a178a0f332e60f27", "lat": 38.907906, "lon": -77.00968983333334, "rental_uris": {"android": "https://dc.lft.to/lastmile_qr_scan", "ios": "https://dc.lft.to/lastmile_qr_scan"}, "is_disabled": 0, "fusion_lat": 0.0, "name": "feb37cd65e796805a178a0f332e60f27", "fusion_lon": 0.0}, {"is_reserved": 0, "type": "electric_scooter", "bike_id": "db4282a0f6d7b4c5721b508863a97924", "lat": 38.919162666666665, "lon": -77.03180616666667, "rental_uris": {"android": "https://dc.lft.to/lastmile_qr_scan", "ios": "https://dc.lft.to/lastmile_qr_scan"}, "is_disabled": 0, "fusion_lat": 0.0, "name": "db4282a0f6d7b4c5721b508863a97924", "fusion_lon": 0.0}, {"is_reserved": 0, "type": "electric_scooter", "bike_id": "81853fc4601719380ed25e6969188a4a", "lat": 38.899887, "lon": -77.02205233333333, "rental_uris": {"android": "https://dc.lft.to/lastmile_qr_scan", "ios": "https://dc.lft.to/lastmile_qr_scan"}, "is_disabled": 0, "fusion_lat": 0.0, "name": "81853fc4601719380ed25e6969188a4a", "fusion_lon": 0.0}, {"is_reserved": 0, "type": "electric_scooter", "bike_id": "88dc0b8e7a1edac49020d52a5c39510e", "lat": 38.900588666666664, "lon": -77.04885566666667, "rental_uris": {"android": "https://dc.lft.to/lastmile_qr_scan", "ios": "https://dc.lft.to/lastmile_qr_scan"}, "is_disabled": 0, "fusion_lat": 0.0, "name": "88dc0b8e7a1edac49020d52a5c39510e", "fusion_lon": 0.0}, {"is_reserved": 0, "type": "electric_scooter", "bike_id": "2a2d2dd1d11091cd044289bbca2c6474", "lat": 38.899834166666665, "lon": -77.0309215, "rental_uris": {"android": "https://dc.lft.to/lastmile_qr_scan", "ios": "https://dc.lft.to/lastmile_qr_scan"}, "is_disabled": 0, "fusion_lat": 0.0, "name": "2a2d2dd1d11091cd044289bbca2c6474", "fusion_lon": 0.0}, {"is_reserved": 0, "type": "electric_bike", "bike_id": "674af4096b7a252f25389c01cd069d71", "lat": 38.98832766666666, "lon": -77.02650283333334, "rental_uris": {"android": "https://dc.lft.to/lastmile_qr_scan", "ios": "https://dc.lft.to/lastmile_qr_scan"}, "is_disabled": 0, "fusion_lat": 0.0, "name": "674af4096b7a252f25389c01cd069d71", "fusion_lon": 0.0}, {"is_reserved": 0, "type": "electric_scooter", "bike_id": "66937caea59f49de0215f74ac060ecab", "lat": 38.893637166666664, "lon": -77.003327, "rental_uris": {"android": "https://dc.lft.to/lastmile_qr_scan", "ios": "https://dc.lft.to/lastmile_qr_scan"}, "is_disabled": 0, "fusion_lat": 0.0, "name": "66937caea59f49de0215f74ac060ecab", "fusion_lon": 0.0}, {"is_reserved": 0, "type": "electric_scooter", "bike_id": "05a4c17ab017b9166e49af91d564ee58", "lat": 38.93592433333333, "lon": -77.024077, "rental_uris": {"android": "https://dc.lft.to/lastmile_qr_scan", "ios": "https://dc.lft.to/lastmile_qr_scan"}, "is_disabled": 0, "fusion_lat": 0.0, "name": "05a4c17ab017b9166e49af91d564ee58", "fusion_lon": 0.0}, {"is_reserved": 0, "type": "electric_scooter", "bike_id": "6699bfb34fadc080adbc955f89846697", "lat": 38.924098, "lon": -77.02979, "rental_uris": {"android": "https://dc.lft.to/lastmile_qr_scan", "ios": "https://dc.lft.to/lastmile_qr_scan"}, "is_disabled": 0, "fusion_lat": 0.0, "name": "6699bfb34fadc080adbc955f89846697", "fusion_lon": 0.0}, {"is_reserved": 0, "type": "electric_scooter", "bike_id": "5210894b4d71314702b0ba33ca79ceda", "lat": 38.8862655, "lon": -77.0334735, "rental_uris": {"android": "https://dc.lft.to/lastmile_qr_scan", "ios": "https://dc.lft.to/lastmile_qr_scan"}, "is_disabled": 0, "fusion_lat": 0.0, "name": "5210894b4d71314702b0ba33ca79ceda", "fusion_lon": 0.0}, {"is_reserved": 0, "type": "electric_scooter", "bike_id": "9d314683a974a18126c0c06974051078", "lat": 38.908470333333334, "lon": -77.03265233333333, "rental_uris": {"android": "https://dc.lft.to/lastmile_qr_scan", "ios": "https://dc.lft.to/lastmile_qr_scan"}, "is_disabled": 0, "fusion_lat": 0.0, "name": "9d314683a974a18126c0c06974051078", "fusion_lon": 0.0}, {"is_reserved": 0, "type": "electric_scooter", "bike_id": "d958eed7fc2d0fcbe4a60108f63b3a90", "lat": 38.919234, "lon": -77.00971416666667, "rental_uris": {"android": "https://dc.lft.to/lastmile_qr_scan", "ios": "https://dc.lft.to/lastmile_qr_scan"}, "is_disabled": 0, "fusion_lat": 0.0, "name": "d958eed7fc2d0fcbe4a60108f63b3a90", "fusion_lon": 0.0}, {"is_reserved": 0, "type": "electric_scooter", "bike_id": "caf7affa78216969a4f50e4495f80d5a", "lat": 38.86580033333333, "lon": -76.99020016666667, "rental_uris": {"android": "https://dc.lft.to/lastmile_qr_scan", "ios": "https://dc.lft.to/lastmile_qr_scan"}, "is_disabled": 0, "fusion_lat": 0.0, "name": "caf7affa78216969a4f50e4495f80d5a", "fusion_lon": 0.0}, {"is_reserved": 0, "type": "electric_scooter", "bike_id": "6db86c5027dc6d118201800fbe6924a8", "lat": 38.912873833333336, "lon": -76.98544816666667, "rental_uris": {"android": "https://dc.lft.to/lastmile_qr_scan", "ios": "https://dc.lft.to/lastmile_qr_scan"}, "is_disabled": 0, "fusion_lat": 0.0, "name": "6db86c5027dc6d118201800fbe6924a8", "fusion_lon": 0.0}, {"is_reserved": 0, "type": "electric_scooter", "bike_id": "b92479acd2218fd6301ea7adaacbf2a4", "lat": 38.90602466666667, "lon": -77.04676266666667, "rental_uris": {"android": "https://dc.lft.to/lastmile_qr_scan", "ios": "https://dc.lft.to/lastmile_qr_scan"}, "is_disabled": 0, "fusion_lat": 0.0, "name": "b92479acd2218fd6301ea7adaacbf2a4", "fusion_lon": 0.0}, {"is_reserved": 0, "type": "electric_bike", "bike_id": "1a0ee2e15a043d3be8d4283730ed0df0", "lat": 38.96441633333333, "lon": -77.0315995, "rental_uris": {"android": "https://dc.lft.to/lastmile_qr_scan", "ios": "https://dc.lft.to/lastmile_qr_scan"}, "is_disabled": 0, "fusion_lat": 0.0, "name": "1a0ee2e15a043d3be8d4283730ed0df0", "fusion_lon": 0.0}, {"is_reserved": 0, "type": "electric_scooter", "bike_id": "fcad6d291a442449c0391e160253e43e", "lat": 38.9311735, "lon": -77.0209775, "rental_uris": {"android": "https://dc.lft.to/lastmile_qr_scan", "ios": "https://dc.lft.to/lastmile_qr_scan"}, "is_disabled": 0, "fusion_lat": 0.0, "name": "fcad6d291a442449c0391e160253e43e", "fusion_lon": 0.0}, {"is_reserved": 0, "type": "electric_scooter", "bike_id": "65c9afa898716ebcd6914ca1b219d6dd", "lat": 38.901483, "lon": -77.02758266666666, "rental_uris": {"android": "https://dc.lft.to/lastmile_qr_scan", "ios": "https://dc.lft.to/lastmile_qr_scan"}, "is_disabled": 0, "fusion_lat": 0.0, "name": "65c9afa898716ebcd6914ca1b219d6dd", "fusion_lon": 0.0}, {"is_reserved": 0, "type": "electric_bike", "bike_id": "993d30dfa36dc5385841eb99db6fc098", "lat": 38.87040916666667, "lon": -77.22909133333333, "rental_uris": {"android": "https://dc.lft.to/lastmile_qr_scan", "ios": "https://dc.lft.to/lastmile_qr_scan"}, "is_disabled": 0, "fusion_lat": 0.0, "name": "993d30dfa36dc5385841eb99db6fc098", "fusion_lon": 0.0}, {"is_reserved": 0, "type": "electric_bike", "bike_id": "e5cdf034ba94857b5de56a8418b2b8dc", "lat": 38.99884866666667, "lon": -76.90857533333333, "rental_uris": {"android": "https://dc.lft.to/lastmile_qr_scan", "ios": "https://dc.lft.to/lastmile_qr_scan"}, "is_disabled": 0, "fusion_lat": 0.0, "name": "e5cdf034ba94857b5de56a8418b2b8dc", "fusion_lon": 0.0}, {"is_reserved": 0, "type": "electric_scooter", "bike_id": "5b5f5b1e8a1dcc09c1b6511326471b66", "lat": 38.901014833333335, "lon": -77.01240316666667, "rental_uris": {"android": "https://dc.lft.to/lastmile_qr_scan", "ios": "https://dc.lft.to/lastmile_qr_scan"}, "is_disabled": 0, "fusion_lat": 0.0, "name": "5b5f5b1e8a1dcc09c1b6511326471b66", "fusion_lon": 0.0}, {"is_reserved": 0, "type": "electric_scooter", "bike_id": "ada519cb8968e15447899a8af8fc65ea", "lat": 38.922253833333336, "lon": -77.04381283333333, "rental_uris": {"android": "https://dc.lft.to/lastmile_qr_scan", "ios": "https://dc.lft.to/lastmile_qr_scan"}, "is_disabled": 0, "fusion_lat": 0.0, "name": "ada519cb8968e15447899a8af8fc65ea", "fusion_lon": 0.0}, {"is_reserved": 0, "type": "electric_scooter", "bike_id": "042c4d6929b2e8f92d00ced5bb1cf5b3", "lat": 38.942237166666665, "lon": -77.02966133333334, "rental_uris": {"android": "https://dc.lft.to/lastmile_qr_scan", "ios": "https://dc.lft.to/lastmile_qr_scan"}, "is_disabled": 0, "fusion_lat": 0.0, "name": "042c4d6929b2e8f92d00ced5bb1cf5b3", "fusion_lon": 0.0}, {"is_reserved": 0, "type": "electric_scooter", "bike_id": "79516dc0e019468aa8780dbcfbe7f66d", "lat": 38.924201, "lon": -77.01946266666667, "rental_uris": {"android": "https://dc.lft.to/lastmile_qr_scan", "ios": "https://dc.lft.to/lastmile_qr_scan"}, "is_disabled": 0, "fusion_lat": 0.0, "name": "79516dc0e019468aa8780dbcfbe7f66d", "fusion_lon": 0.0}, {"is_reserved": 0, "type": "electric_scooter", "bike_id": "79cd041de5d21a44d8cc91e8236c534e", "lat": 38.91368883333333, "lon": -77.01998333333333, "rental_uris": {"android": "https://dc.lft.to/lastmile_qr_scan", "ios": "https://dc.lft.to/lastmile_qr_scan"}, "is_disabled": 0, "fusion_lat": 0.0, "name": "79cd041de5d21a44d8cc91e8236c534e", "fusion_lon": 0.0}, {"is_reserved": 0, "type": "electric_scooter", "bike_id": "39b436a4c2a922bb6886cc63ab324e41", "lat": 38.894212833333334, "lon": -76.99824983333333, "rental_uris": {"android": "https://dc.lft.to/lastmile_qr_scan", "ios": "https://dc.lft.to/lastmile_qr_scan"}, "is_disabled": 0, "fusion_lat": 0.0, "name": "39b436a4c2a922bb6886cc63ab324e41", "fusion_lon": 0.0}, {"is_reserved": 0, "type": "electric_scooter", "bike_id": "4b51416447fabe43332ddefab4a5d0e8", "lat": 38.92450566666667, "lon": -77.0203525, "rental_uris": {"android": "https://dc.lft.to/lastmile_qr_scan", "ios": "https://dc.lft.to/lastmile_qr_scan"}, "is_disabled": 0, "fusion_lat": 0.0, "name": "4b51416447fabe43332ddefab4a5d0e8", "fusion_lon": 0.0}, {"is_reserved": 0, "type": "electric_scooter", "bike_id": "38eaf076015d3655d8f9104ee934215c", "lat": 38.91407683333333, "lon": -77.03263183333334, "rental_uris": {"android": "https://dc.lft.to/lastmile_qr_scan", "ios": "https://dc.lft.to/lastmile_qr_scan"}, "is_disabled": 0, "fusion_lat": 0.0, "name": "38eaf076015d3655d8f9104ee934215c", "fusion_lon": 0.0}, {"is_reserved": 0, "type": "electric_bike", "bike_id": "48c5979f5b1df7166c949461d2a7b6f2", "lat": 38.8543415, "lon": -77.08322033333333, "rental_uris": {"android": "https://dc.lft.to/lastmile_qr_scan", "ios": "https://dc.lft.to/lastmile_qr_scan"}, "is_disabled": 0, "fusion_lat": 0.0, "name": "48c5979f5b1df7166c949461d2a7b6f2", "fusion_lon": 0.0}, {"is_reserved": 0, "type": "electric_scooter", "bike_id": "867932e8ce6d13eea9af1ef54967c8de", "lat": 38.94030816666667, "lon": -77.02638683333333, "rental_uris": {"android": "https://dc.lft.to/lastmile_qr_scan", "ios": "https://dc.lft.to/lastmile_qr_scan"}, "is_disabled": 0, "fusion_lat": 0.0, "name": "867932e8ce6d13eea9af1ef54967c8de", "fusion_lon": 0.0}, {"is_reserved": 0, "type": "electric_scooter", "bike_id": "9dbbe13f9d2eda5090509eddd8f05fb6", "lat": 38.917762833333335, "lon": -77.04106783333333, "rental_uris": {"android": "https://dc.lft.to/lastmile_qr_scan", "ios": "https://dc.lft.to/lastmile_qr_scan"}, "is_disabled": 0, "fusion_lat": 0.0, "name": "9dbbe13f9d2eda5090509eddd8f05fb6", "fusion_lon": 0.0}, {"is_reserved": 0, "type": "electric_scooter", "bike_id": "a1b39c24c61318382823508f0c87dee4", "lat": 38.864329166666664, "lon": -76.99859, "rental_uris": {"android": "https://dc.lft.to/lastmile_qr_scan", "ios": "https://dc.lft.to/lastmile_qr_scan"}, "is_disabled": 0, "fusion_lat": 0.0, "name": "a1b39c24c61318382823508f0c87dee4", "fusion_lon": 0.0}, {"is_reserved": 0, "type": "electric_scooter", "bike_id": "f69ee47511e6a7f693ed7f78ee700abb", "lat": 38.9289835, "lon": -77.022526, "rental_uris": {"android": "https://dc.lft.to/lastmile_qr_scan", "ios": "https://dc.lft.to/lastmile_qr_scan"}, "is_disabled": 0, "fusion_lat": 0.0, "name": "f69ee47511e6a7f693ed7f78ee700abb", "fusion_lon": 0.0}, {"is_reserved": 0, "type": "electric_scooter", "bike_id": "ac0ed1cd9b58cf13539f4fb316a4dc9f", "lat": 38.917633333333335, "lon": -77.03192016666667, "rental_uris": {"android": "https://dc.lft.to/lastmile_qr_scan", "ios": "https://dc.lft.to/lastmile_qr_scan"}, "is_disabled": 0, "fusion_lat": 0.0, "name": "ac0ed1cd9b58cf13539f4fb316a4dc9f", "fusion_lon": 0.0}, {"is_reserved": 0, "type": "electric_scooter", "bike_id": "f9c30829d9c8e714c4f8e78d1d3b37c3", "lat": 38.950899166666666, "lon": -77.02809066666667, "rental_uris": {"android": "https://dc.lft.to/lastmile_qr_scan", "ios": "https://dc.lft.to/lastmile_qr_scan"}, "is_disabled": 0, "fusion_lat": 0.0, "name": "f9c30829d9c8e714c4f8e78d1d3b37c3", "fusion_lon": 0.0}, {"is_reserved": 0, "type": "electric_bike", "bike_id": "c15af43e7a118ecf3dc421340d0d409d", "lat": 38.895672, "lon": -77.12735233333333, "rental_uris": {"android": "https://dc.lft.to/lastmile_qr_scan", "ios": "https://dc.lft.to/lastmile_qr_scan"}, "is_disabled": 0, "fusion_lat": 0.0, "name": "c15af43e7a118ecf3dc421340d0d409d", "fusion_lon": 0.0}, {"is_reserved": 0, "type": "electric_scooter", "bike_id": "0a8a4aab4a3baf3f7eab787eb941092e", "lat": 38.900614166666664, "lon": -76.9868355, "rental_uris": {"android": "https://dc.lft.to/lastmile_qr_scan", "ios": "https://dc.lft.to/lastmile_qr_scan"}, "is_disabled": 0, "fusion_lat": 0.0, "name": "0a8a4aab4a3baf3f7eab787eb941092e", "fusion_lon": 0.0}, {"is_reserved": 0, "type": "electric_scooter", "bike_id": "74875632e09b9aee3882551d05db6882", "lat": 38.91068466666667, "lon": -77.0385475, "rental_uris": {"android": "https://dc.lft.to/lastmile_qr_scan", "ios": "https://dc.lft.to/lastmile_qr_scan"}, "is_disabled": 0, "fusion_lat": 0.0, "name": "74875632e09b9aee3882551d05db6882", "fusion_lon": 0.0}, {"is_reserved": 0, "type": "electric_scooter", "bike_id": "3d85033930f50c5bad75ff3d098c2635", "lat": 38.93007633333333, "lon": -77.02307733333333, "rental_uris": {"android": "https://dc.lft.to/lastmile_qr_scan", "ios": "https://dc.lft.to/lastmile_qr_scan"}, "is_disabled": 0, "fusion_lat": 0.0, "name": "3d85033930f50c5bad75ff3d098c2635", "fusion_lon": 0.0}, {"is_reserved": 0, "type": "electric_scooter", "bike_id": "b7b93866e8bb4021cedf0e004f9bdd68", "lat": 38.930979666666666, "lon": -77.024788, "rental_uris": {"android": "https://dc.lft.to/lastmile_qr_scan", "ios": "https://dc.lft.to/lastmile_qr_scan"}, "is_disabled": 0, "fusion_lat": 0.0, "name": "b7b93866e8bb4021cedf0e004f9bdd68", "fusion_lon": 0.0}, {"is_reserved": 0, "type": "electric_scooter", "bike_id": "1467b78120e3e3e3d0a06c3e0ea2d251", "lat": 38.945083833333335, "lon": -77.033557, "rental_uris": {"android": "https://dc.lft.to/lastmile_qr_scan", "ios": "https://dc.lft.to/lastmile_qr_scan"}, "is_disabled": 0, "fusion_lat": 0.0, "name": "1467b78120e3e3e3d0a06c3e0ea2d251", "fusion_lon": 0.0}, {"is_reserved": 0, "type": "electric_scooter", "bike_id": "b5b9a663fede901b7edfa70f1823b898", "lat": 38.9162935, "lon": -77.03162183333333, "rental_uris": {"android": "https://dc.lft.to/lastmile_qr_scan", "ios": "https://dc.lft.to/lastmile_qr_scan"}, "is_disabled": 0, "fusion_lat": 0.0, "name": "b5b9a663fede901b7edfa70f1823b898", "fusion_lon": 0.0}, {"is_reserved": 0, "type": "electric_scooter", "bike_id": "1277e721a01006529f12b5e009ee41b9", "lat": 38.930649, "lon": -77.0394285, "rental_uris": {"android": "https://dc.lft.to/lastmile_qr_scan", "ios": "https://dc.lft.to/lastmile_qr_scan"}, "is_disabled": 0, "fusion_lat": 0.0, "name": "1277e721a01006529f12b5e009ee41b9", "fusion_lon": 0.0}, {"is_reserved": 0, "type": "electric_scooter", "bike_id": "ead2fb12520f97c38f44bc775aac2648", "lat": 38.8950085, "lon": -77.0216975, "rental_uris": {"android": "https://dc.lft.to/lastmile_qr_scan", "ios": "https://dc.lft.to/lastmile_qr_scan"}, "is_disabled": 0, "fusion_lat": 0.0, "name": "ead2fb12520f97c38f44bc775aac2648", "fusion_lon": 0.0}, {"is_reserved": 0, "type": "electric_scooter", "bike_id": "88a7502929bf8447533d6b1d1b7a66f7", "lat": 38.905691, "lon": -77.00594833333334, "rental_uris": {"android": "https://dc.lft.to/lastmile_qr_scan", "ios": "https://dc.lft.to/lastmile_qr_scan"}, "is_disabled": 0, "fusion_lat": 0.0, "name": "88a7502929bf8447533d6b1d1b7a66f7", "fusion_lon": 0.0}, {"is_reserved": 0, "type": "electric_scooter", "bike_id": "ee4b09ff8dd681a1275d11d05c0d0ac2", "lat": 38.887307166666666, "lon": -77.02834033333333, "rental_uris": {"android": "https://dc.lft.to/lastmile_qr_scan", "ios": "https://dc.lft.to/lastmile_qr_scan"}, "is_disabled": 0, "fusion_lat": 0.0, "name": "ee4b09ff8dd681a1275d11d05c0d0ac2", "fusion_lon": 0.0}, {"is_reserved": 0, "type": "electric_bike", "bike_id": "4b495dcc22637806c22022cb8a98a6a9", "lat": 38.92037233333333, "lon": -76.97960066666667, "rental_uris": {"android": "https://dc.lft.to/lastmile_qr_scan", "ios": "https://dc.lft.to/lastmile_qr_scan"}, "is_disabled": 0, "fusion_lat": 0.0, "name": "4b495dcc22637806c22022cb8a98a6a9", "fusion_lon": 0.0}, {"is_reserved": 0, "type": "electric_scooter", "bike_id": "5f3e33efdeda868c2594bed923b38a8f", "lat": 38.9349225, "lon": -77.03658333333334, "rental_uris": {"android": "https://dc.lft.to/lastmile_qr_scan", "ios": "https://dc.lft.to/lastmile_qr_scan"}, "is_disabled": 0, "fusion_lat": 0.0, "name": "5f3e33efdeda868c2594bed923b38a8f", "fusion_lon": 0.0}, {"is_reserved": 0, "type": "electric_scooter", "bike_id": "aa2dca6931b8cf0b4b8896d2cd9cf793", "lat": 38.903012333333336, "lon": -76.93417633333334, "rental_uris": {"android": "https://dc.lft.to/lastmile_qr_scan", "ios": "https://dc.lft.to/lastmile_qr_scan"}, "is_disabled": 0, "fusion_lat": 0.0, "name": "aa2dca6931b8cf0b4b8896d2cd9cf793", "fusion_lon": 0.0}, {"is_reserved": 0, "type": "electric_scooter", "bike_id": "762a02228843569e59070aaccc707778", "lat": 38.91914933333334, "lon": -77.01341816666667, "rental_uris": {"android": "https://dc.lft.to/lastmile_qr_scan", "ios": "https://dc.lft.to/lastmile_qr_scan"}, "is_disabled": 0, "fusion_lat": 0.0, "name": "762a02228843569e59070aaccc707778", "fusion_lon": 0.0}, {"is_reserved": 0, "type": "electric_scooter", "bike_id": "9c1f4a7697d64e1198ff38c11a8d5032", "lat": 38.9353665, "lon": -77.0235395, "rental_uris": {"android": "https://dc.lft.to/lastmile_qr_scan", "ios": "https://dc.lft.to/lastmile_qr_scan"}, "is_disabled": 0, "fusion_lat": 0.0, "name": "9c1f4a7697d64e1198ff38c11a8d5032", "fusion_lon": 0.0}, {"is_reserved": 0, "type": "electric_scooter", "bike_id": "e58583d3055c7871225e92a809783c0d", "lat": 38.94652166666667, "lon": -77.06474033333333, "rental_uris": {"android": "https://dc.lft.to/lastmile_qr_scan", "ios": "https://dc.lft.to/lastmile_qr_scan"}, "is_disabled": 0, "fusion_lat": 0.0, "name": "e58583d3055c7871225e92a809783c0d", "fusion_lon": 0.0}, {"is_reserved": 0, "type": "electric_scooter", "bike_id": "a1ed80a42be4eb55843d251802299aab", "lat": 38.96138716666667, "lon": -77.08471266666666, "rental_uris": {"android": "https://dc.lft.to/lastmile_qr_scan", "ios": "https://dc.lft.to/lastmile_qr_scan"}, "is_disabled": 0, "fusion_lat": 0.0, "name": "a1ed80a42be4eb55843d251802299aab", "fusion_lon": 0.0}, {"is_reserved": 0, "type": "electric_scooter", "bike_id": "d7081a0455df7a3a2ca89417b7987aef", "lat": 38.91224316666667, "lon": -76.987052, "rental_uris": {"android": "https://dc.lft.to/lastmile_qr_scan", "ios": "https://dc.lft.to/lastmile_qr_scan"}, "is_disabled": 0, "fusion_lat": 0.0, "name": "d7081a0455df7a3a2ca89417b7987aef", "fusion_lon": 0.0}, {"is_reserved": 0, "type": "electric_scooter", "bike_id": "022ddb9dc4349eeda76f4f2c4c368eb6", "lat": 38.90879, "lon": -77.06758333333333, "rental_uris": {"android": "https://dc.lft.to/lastmile_qr_scan", "ios": "https://dc.lft.to/lastmile_qr_scan"}, "is_disabled": 0, "fusion_lat": 0.0, "name": "022ddb9dc4349eeda76f4f2c4c368eb6", "fusion_lon": 0.0}, {"is_reserved": 0, "type": "electric_scooter", "bike_id": "d871c12768c7c9a6e22dcd339c9cbb50", "lat": 38.915644666666665, "lon": -77.03126216666666, "rental_uris": {"android": "https://dc.lft.to/lastmile_qr_scan", "ios": "https://dc.lft.to/lastmile_qr_scan"}, "is_disabled": 0, "fusion_lat": 0.0, "name": "d871c12768c7c9a6e22dcd339c9cbb50", "fusion_lon": 0.0}, {"is_reserved": 0, "type": "electric_scooter", "bike_id": "1690c1b992934e8d64e41eb745ae00f9", "lat": 38.90550916666667, "lon": -77.041837, "rental_uris": {"android": "https://dc.lft.to/lastmile_qr_scan", "ios": "https://dc.lft.to/lastmile_qr_scan"}, "is_disabled": 0, "fusion_lat": 0.0, "name": "1690c1b992934e8d64e41eb745ae00f9", "fusion_lon": 0.0}, {"is_reserved": 0, "type": "electric_scooter", "bike_id": "d105ff68814a2a962d42ae86eb52f1d2", "lat": 38.89813783333334, "lon": -77.04889066666667, "rental_uris": {"android": "https://dc.lft.to/lastmile_qr_scan", "ios": "https://dc.lft.to/lastmile_qr_scan"}, "is_disabled": 0, "fusion_lat": 0.0, "name": "d105ff68814a2a962d42ae86eb52f1d2", "fusion_lon": 0.0}, {"is_reserved": 0, "type": "electric_scooter", "bike_id": "279cd0920693c08031988ed55e636721", "lat": 38.936461666666666, "lon": -77.03682466666666, "rental_uris": {"android": "https://dc.lft.to/lastmile_qr_scan", "ios": "https://dc.lft.to/lastmile_qr_scan"}, "is_disabled": 0, "fusion_lat": 0.0, "name": "279cd0920693c08031988ed55e636721", "fusion_lon": 0.0}, {"is_reserved": 0, "type": "electric_scooter", "bike_id": "19c710a41961ce97debcb8605fbcfed4", "lat": 38.9168925, "lon": -77.03160683333333, "rental_uris": {"android": "https://dc.lft.to/lastmile_qr_scan", "ios": "https://dc.lft.to/lastmile_qr_scan"}, "is_disabled": 0, "fusion_lat": 0.0, "name": "19c710a41961ce97debcb8605fbcfed4", "fusion_lon": 0.0}, {"is_reserved": 0, "type": "electric_scooter", "bike_id": "0861e46933b04df89f6e9c9676c72776", "lat": 38.93861866666667, "lon": -77.0270245, "rental_uris": {"android": "https://dc.lft.to/lastmile_qr_scan", "ios": "https://dc.lft.to/lastmile_qr_scan"}, "is_disabled": 0, "fusion_lat": 0.0, "name": "0861e46933b04df89f6e9c9676c72776", "fusion_lon": 0.0}, {"is_reserved": 0, "type": "electric_scooter", "bike_id": "0cda50368fdcf4097128548c015ecb47", "lat": 38.923718666666666, "lon": -77.0192075, "rental_uris": {"android": "https://dc.lft.to/lastmile_qr_scan", "ios": "https://dc.lft.to/lastmile_qr_scan"}, "is_disabled": 0, "fusion_lat": 0.0, "name": "0cda50368fdcf4097128548c015ecb47", "fusion_lon": 0.0}, {"is_reserved": 0, "type": "electric_scooter", "bike_id": "0b043e4e8ff88b01a7c95e5349a97c49", "lat": 38.90526333333333, "lon": -76.98408916666666, "rental_uris": {"android": "https://dc.lft.to/lastmile_qr_scan", "ios": "https://dc.lft.to/lastmile_qr_scan"}, "is_disabled": 0, "fusion_lat": 0.0, "name": "0b043e4e8ff88b01a7c95e5349a97c49", "fusion_lon": 0.0}, {"is_reserved": 0, "type": "electric_scooter", "bike_id": "20eec0f60af232916a92d261504d880d", "lat": 38.9275535, "lon": -77.02108683333333, "rental_uris": {"android": "https://dc.lft.to/lastmile_qr_scan", "ios": "https://dc.lft.to/lastmile_qr_scan"}, "is_disabled": 0, "fusion_lat": 0.0, "name": "20eec0f60af232916a92d261504d880d", "fusion_lon": 0.0}, {"is_reserved": 0, "type": "electric_scooter", "bike_id": "71b9956d9c35201cca066e2b25851296", "lat": 38.90083583333333, "lon": -76.98015183333334, "rental_uris": {"android": "https://dc.lft.to/lastmile_qr_scan", "ios": "https://dc.lft.to/lastmile_qr_scan"}, "is_disabled": 0, "fusion_lat": 0.0, "name": "71b9956d9c35201cca066e2b25851296", "fusion_lon": 0.0}, {"is_reserved": 0, "type": "electric_scooter", "bike_id": "eecfe182f83195f286b16f3815770f0c", "lat": 38.894461166666666, "lon": -77.04531066666667, "rental_uris": {"android": "https://dc.lft.to/lastmile_qr_scan", "ios": "https://dc.lft.to/lastmile_qr_scan"}, "is_disabled": 0, "fusion_lat": 0.0, "name": "eecfe182f83195f286b16f3815770f0c", "fusion_lon": 0.0}, {"is_reserved": 0, "type": "electric_scooter", "bike_id": "2a8d5561f572c920d329f8626dcd7de5", "lat": 38.89573216666667, "lon": -77.04136, "rental_uris": {"android": "https://dc.lft.to/lastmile_qr_scan", "ios": "https://dc.lft.to/lastmile_qr_scan"}, "is_disabled": 0, "fusion_lat": 0.0, "name": "2a8d5561f572c920d329f8626dcd7de5", "fusion_lon": 0.0}, {"is_reserved": 0, "type": "electric_scooter", "bike_id": "047b6b6a064c35d43125ef3f9c79f63a", "lat": 38.9037405, "lon": -77.01640216666667, "rental_uris": {"android": "https://dc.lft.to/lastmile_qr_scan", "ios": "https://dc.lft.to/lastmile_qr_scan"}, "is_disabled": 0, "fusion_lat": 0.0, "name": "047b6b6a064c35d43125ef3f9c79f63a", "fusion_lon": 0.0}, {"is_reserved": 0, "type": "electric_scooter", "bike_id": "826ff977906ae2ebf7ff86d4e845ac8a", "lat": 38.91871783333333, "lon": -77.03572366666667, "rental_uris": {"android": "https://dc.lft.to/lastmile_qr_scan", "ios": "https://dc.lft.to/lastmile_qr_scan"}, "is_disabled": 0, "fusion_lat": 0.0, "name": "826ff977906ae2ebf7ff86d4e845ac8a", "fusion_lon": 0.0}, {"is_reserved": 0, "type": "electric_scooter", "bike_id": "f0be79acc7a9a43466891cfce0e1340d", "lat": 38.909694, "lon": -77.00768983333333, "rental_uris": {"android": "https://dc.lft.to/lastmile_qr_scan", "ios": "https://dc.lft.to/lastmile_qr_scan"}, "is_disabled": 0, "fusion_lat": 0.0, "name": "f0be79acc7a9a43466891cfce0e1340d", "fusion_lon": 0.0}, {"is_reserved": 0, "type": "electric_scooter", "bike_id": "7ee89f3728be08b436d6c3bb638fee9c", "lat": 38.9079515, "lon": -77.03178033333333, "rental_uris": {"android": "https://dc.lft.to/lastmile_qr_scan", "ios": "https://dc.lft.to/lastmile_qr_scan"}, "is_disabled": 0, "fusion_lat": 0.0, "name": "7ee89f3728be08b436d6c3bb638fee9c", "fusion_lon": 0.0}, {"is_reserved": 0, "type": "electric_scooter", "bike_id": "867adc670886fbec77ba4c43cf4515cb", "lat": 38.921714333333334, "lon": -77.04020516666667, "rental_uris": {"android": "https://dc.lft.to/lastmile_qr_scan", "ios": "https://dc.lft.to/lastmile_qr_scan"}, "is_disabled": 0, "fusion_lat": 0.0, "name": "867adc670886fbec77ba4c43cf4515cb", "fusion_lon": 0.0}, {"is_reserved": 0, "type": "electric_scooter", "bike_id": "fe48446c40bda1086e8e2b787089d203", "lat": 38.9187, "lon": -77.04030766666666, "rental_uris": {"android": "https://dc.lft.to/lastmile_qr_scan", "ios": "https://dc.lft.to/lastmile_qr_scan"}, "is_disabled": 0, "fusion_lat": 0.0, "name": "fe48446c40bda1086e8e2b787089d203", "fusion_lon": 0.0}, {"is_reserved": 0, "type": "electric_scooter", "bike_id": "4ba50ab5c35401ce0bbb17a6298b6e65", "lat": 38.8872855, "lon": -76.983798, "rental_uris": {"android": "https://dc.lft.to/lastmile_qr_scan", "ios": "https://dc.lft.to/lastmile_qr_scan"}, "is_disabled": 0, "fusion_lat": 0.0, "name": "4ba50ab5c35401ce0bbb17a6298b6e65", "fusion_lon": 0.0}, {"is_reserved": 0, "type": "electric_scooter", "bike_id": "0a15d802348ee86fbdeba28607a9abaa", "lat": 38.902598166666664, "lon": -77.01760516666667, "rental_uris": {"android": "https://dc.lft.to/lastmile_qr_scan", "ios": "https://dc.lft.to/lastmile_qr_scan"}, "is_disabled": 0, "fusion_lat": 0.0, "name": "0a15d802348ee86fbdeba28607a9abaa", "fusion_lon": 0.0}, {"is_reserved": 0, "type": "electric_scooter", "bike_id": "49bf706ed5bdb7db94fd17f620a16d21", "lat": 38.906499333333336, "lon": -77.0113655, "rental_uris": {"android": "https://dc.lft.to/lastmile_qr_scan", "ios": "https://dc.lft.to/lastmile_qr_scan"}, "is_disabled": 0, "fusion_lat": 0.0, "name": "49bf706ed5bdb7db94fd17f620a16d21", "fusion_lon": 0.0}, {"is_reserved": 0, "type": "electric_scooter", "bike_id": "9ac9e6df30abd47db8f9b131ddcc5c63", "lat": 38.94439083333333, "lon": -77.06350016666667, "rental_uris": {"android": "https://dc.lft.to/lastmile_qr_scan", "ios": "https://dc.lft.to/lastmile_qr_scan"}, "is_disabled": 0, "fusion_lat": 0.0, "name": "9ac9e6df30abd47db8f9b131ddcc5c63", "fusion_lon": 0.0}, {"is_reserved": 0, "type": "electric_scooter", "bike_id": "f5266f3d8bb88c27795533e427315352", "lat": 38.916972333333334, "lon": -77.026078, "rental_uris": {"android": "https://dc.lft.to/lastmile_qr_scan", "ios": "https://dc.lft.to/lastmile_qr_scan"}, "is_disabled": 0, "fusion_lat": 0.0, "name": "f5266f3d8bb88c27795533e427315352", "fusion_lon": 0.0}, {"is_reserved": 0, "type": "electric_bike", "bike_id": "52349752d980aeccd884a3eb98131141", "lat": 38.894576, "lon": -77.191348, "rental_uris": {"android": "https://dc.lft.to/lastmile_qr_scan", "ios": "https://dc.lft.to/lastmile_qr_scan"}, "is_disabled": 0, "fusion_lat": 0.0, "name": "52349752d980aeccd884a3eb98131141", "fusion_lon": 0.0}, {"is_reserved": 0, "type": "electric_scooter", "bike_id": "8292b6541b7d407952bbb1f14ac9a175", "lat": 38.903854, "lon": -77.04434916666666, "rental_uris": {"android": "https://dc.lft.to/lastmile_qr_scan", "ios": "https://dc.lft.to/lastmile_qr_scan"}, "is_disabled": 0, "fusion_lat": 0.0, "name": "8292b6541b7d407952bbb1f14ac9a175", "fusion_lon": 0.0}, {"is_reserved": 0, "type": "electric_scooter", "bike_id": "816fa6cf6ae32a74484bb371f6937636", "lat": 38.9323675, "lon": -77.02961866666666, "rental_uris": {"android": "https://dc.lft.to/lastmile_qr_scan", "ios": "https://dc.lft.to/lastmile_qr_scan"}, "is_disabled": 0, "fusion_lat": 0.0, "name": "816fa6cf6ae32a74484bb371f6937636", "fusion_lon": 0.0}, {"is_reserved": 0, "type": "electric_scooter", "bike_id": "e4bd311af4e1598f9b9a98bd6460f06a", "lat": 38.896832, "lon": -76.94730116666666, "rental_uris": {"android": "https://dc.lft.to/lastmile_qr_scan", "ios": "https://dc.lft.to/lastmile_qr_scan"}, "is_disabled": 0, "fusion_lat": 0.0, "name": "e4bd311af4e1598f9b9a98bd6460f06a", "fusion_lon": 0.0}, {"is_reserved": 0, "type": "electric_scooter", "bike_id": "bf9fd24b0c23661421a3988022bc7343", "lat": 38.90597916666667, "lon": -76.95053216666666, "rental_uris": {"android": "https://dc.lft.to/lastmile_qr_scan", "ios": "https://dc.lft.to/lastmile_qr_scan"}, "is_disabled": 0, "fusion_lat": 0.0, "name": "bf9fd24b0c23661421a3988022bc7343", "fusion_lon": 0.0}, {"is_reserved": 0, "type": "electric_scooter", "bike_id": "1b2d3753c1b2b96c60b278bc362229ad", "lat": 38.883949, "lon": -76.93042016666666, "rental_uris": {"android": "https://dc.lft.to/lastmile_qr_scan", "ios": "https://dc.lft.to/lastmile_qr_scan"}, "is_disabled": 0, "fusion_lat": 0.0, "name": "1b2d3753c1b2b96c60b278bc362229ad", "fusion_lon": 0.0}, {"is_reserved": 0, "type": "electric_scooter", "bike_id": "6bcc832bdc8460fb7dcf190af1af0095", "lat": 38.923312833333334, "lon": -77.03679266666667, "rental_uris": {"android": "https://dc.lft.to/lastmile_qr_scan", "ios": "https://dc.lft.to/lastmile_qr_scan"}, "is_disabled": 0, "fusion_lat": 0.0, "name": "6bcc832bdc8460fb7dcf190af1af0095", "fusion_lon": 0.0}, {"is_reserved": 0, "type": "electric_scooter", "bike_id": "71c49629608ed22596929df3446c3dd2", "lat": 38.915575833333335, "lon": -77.03124483333333, "rental_uris": {"android": "https://dc.lft.to/lastmile_qr_scan", "ios": "https://dc.lft.to/lastmile_qr_scan"}, "is_disabled": 0, "fusion_lat": 0.0, "name": "71c49629608ed22596929df3446c3dd2", "fusion_lon": 0.0}, {"is_reserved": 0, "type": "electric_scooter", "bike_id": "530b244085b916cca9a6b3eb54d07df0", "lat": 38.89468466666667, "lon": -77.02286183333334, "rental_uris": {"android": "https://dc.lft.to/lastmile_qr_scan", "ios": "https://dc.lft.to/lastmile_qr_scan"}, "is_disabled": 0, "fusion_lat": 0.0, "name": "530b244085b916cca9a6b3eb54d07df0", "fusion_lon": 0.0}, {"is_reserved": 0, "type": "electric_scooter", "bike_id": "390a119cde5545095abd12e18df21e4c", "lat": 38.925240333333335, "lon": -77.05058216666667, "rental_uris": {"android": "https://dc.lft.to/lastmile_qr_scan", "ios": "https://dc.lft.to/lastmile_qr_scan"}, "is_disabled": 0, "fusion_lat": 0.0, "name": "390a119cde5545095abd12e18df21e4c", "fusion_lon": 0.0}, {"is_reserved": 0, "type": "electric_scooter", "bike_id": "d60fcc7655f6cda66b7f45d61cb45b12", "lat": 38.8935495, "lon": -77.00335283333334, "rental_uris": {"android": "https://dc.lft.to/lastmile_qr_scan", "ios": "https://dc.lft.to/lastmile_qr_scan"}, "is_disabled": 0, "fusion_lat": 0.0, "name": "d60fcc7655f6cda66b7f45d61cb45b12", "fusion_lon": 0.0}, {"is_reserved": 0, "type": "electric_scooter", "bike_id": "16e515f1e6624326407b4a533d137a3d", "lat": 38.917451666666665, "lon": -77.03180683333333, "rental_uris": {"android": "https://dc.lft.to/lastmile_qr_scan", "ios": "https://dc.lft.to/lastmile_qr_scan"}, "is_disabled": 0, "fusion_lat": 0.0, "name": "16e515f1e6624326407b4a533d137a3d", "fusion_lon": 0.0}, {"is_reserved": 0, "type": "electric_bike", "bike_id": "e2ad9e69dccbc1b82efa89cabbb1f99b", "lat": 38.854352166666665, "lon": -77.0831905, "rental_uris": {"android": "https://dc.lft.to/lastmile_qr_scan", "ios": "https://dc.lft.to/lastmile_qr_scan"}, "is_disabled": 0, "fusion_lat": 0.0, "name": "e2ad9e69dccbc1b82efa89cabbb1f99b", "fusion_lon": 0.0}, {"is_reserved": 0, "type": "electric_scooter", "bike_id": "5ef77b79d6604a72ef97cd8a7fdb1f64", "lat": 38.910148166666666, "lon": -77.04294883333333, "rental_uris": {"android": "https://dc.lft.to/lastmile_qr_scan", "ios": "https://dc.lft.to/lastmile_qr_scan"}, "is_disabled": 0, "fusion_lat": 0.0, "name": "5ef77b79d6604a72ef97cd8a7fdb1f64", "fusion_lon": 0.0}, {"is_reserved": 0, "type": "electric_scooter", "bike_id": "827b25ab41c5fa86a9018ed890ae3737", "lat": 38.886275833333336, "lon": -77.022233, "rental_uris": {"android": "https://dc.lft.to/lastmile_qr_scan", "ios": "https://dc.lft.to/lastmile_qr_scan"}, "is_disabled": 0, "fusion_lat": 0.0, "name": "827b25ab41c5fa86a9018ed890ae3737", "fusion_lon": 0.0}, {"is_reserved": 0, "type": "electric_scooter", "bike_id": "14fabce885f32525d38f945747009c51", "lat": 38.936111333333336, "lon": -77.024271, "rental_uris": {"android": "https://dc.lft.to/lastmile_qr_scan", "ios": "https://dc.lft.to/lastmile_qr_scan"}, "is_disabled": 0, "fusion_lat": 0.0, "name": "14fabce885f32525d38f945747009c51", "fusion_lon": 0.0}, {"is_reserved": 0, "type": "electric_scooter", "bike_id": "f45bdb934b8ef50a2171f605b782b9f7", "lat": 38.918220166666664, "lon": -77.03442666666666, "rental_uris": {"android": "https://dc.lft.to/lastmile_qr_scan", "ios": "https://dc.lft.to/lastmile_qr_scan"}, "is_disabled": 0, "fusion_lat": 0.0, "name": "f45bdb934b8ef50a2171f605b782b9f7", "fusion_lon": 0.0}, {"is_reserved": 0, "type": "electric_scooter", "bike_id": "a32ce7f3109b138af3536a468af4345c", "lat": 38.899186, "lon": -77.03375816666667, "rental_uris": {"android": "https://dc.lft.to/lastmile_qr_scan", "ios": "https://dc.lft.to/lastmile_qr_scan"}, "is_disabled": 0, "fusion_lat": 0.0, "name": "a32ce7f3109b138af3536a468af4345c", "fusion_lon": 0.0}, {"is_reserved": 0, "type": "electric_scooter", "bike_id": "5abe6f499a08a022e0e88519485668cd", "lat": 38.86637266666666, "lon": -76.98288466666666, "rental_uris": {"android": "https://dc.lft.to/lastmile_qr_scan", "ios": "https://dc.lft.to/lastmile_qr_scan"}, "is_disabled": 0, "fusion_lat": 0.0, "name": "5abe6f499a08a022e0e88519485668cd", "fusion_lon": 0.0}, {"is_reserved": 0, "type": "electric_bike", "bike_id": "9fe5f22c063cd82f38dedb5d98fff354", "lat": 38.86998833333333, "lon": -77.2299335, "rental_uris": {"android": "https://dc.lft.to/lastmile_qr_scan", "ios": "https://dc.lft.to/lastmile_qr_scan"}, "is_disabled": 0, "fusion_lat": 0.0, "name": "9fe5f22c063cd82f38dedb5d98fff354", "fusion_lon": 0.0}, {"is_reserved": 0, "type": "electric_scooter", "bike_id": "1308f10e46184950094e426f0491207f", "lat": 38.885330833333335, "lon": -76.98115866666667, "rental_uris": {"android": "https://dc.lft.to/lastmile_qr_scan", "ios": "https://dc.lft.to/lastmile_qr_scan"}, "is_disabled": 0, "fusion_lat": 0.0, "name": "1308f10e46184950094e426f0491207f", "fusion_lon": 0.0}, {"is_reserved": 0, "type": "electric_scooter", "bike_id": "02a2effe84eedb932a35053ac7081a87", "lat": 38.94716916666667, "lon": -77.04151866666666, "rental_uris": {"android": "https://dc.lft.to/lastmile_qr_scan", "ios": "https://dc.lft.to/lastmile_qr_scan"}, "is_disabled": 0, "fusion_lat": 0.0, "name": "02a2effe84eedb932a35053ac7081a87", "fusion_lon": 0.0}, {"is_reserved": 0, "type": "electric_scooter", "bike_id": "f2ebb72547b26a325018d2204f8fe125", "lat": 38.9039755, "lon": -77.06300516666667, "rental_uris": {"android": "https://dc.lft.to/lastmile_qr_scan", "ios": "https://dc.lft.to/lastmile_qr_scan"}, "is_disabled": 0, "fusion_lat": 0.0, "name": "f2ebb72547b26a325018d2204f8fe125", "fusion_lon": 0.0}, {"is_reserved": 0, "type": "electric_scooter", "bike_id": "c46b6c3ececee89aa4a97b6caf105638", "lat": 38.8872815, "lon": -76.98374733333333, "rental_uris": {"android": "https://dc.lft.to/lastmile_qr_scan", "ios": "https://dc.lft.to/lastmile_qr_scan"}, "is_disabled": 0, "fusion_lat": 0.0, "name": "c46b6c3ececee89aa4a97b6caf105638", "fusion_lon": 0.0}, {"is_reserved": 0, "type": "electric_scooter", "bike_id": "f030d4396f8549b15a0cc502facd1363", "lat": 38.90579266666667, "lon": -77.0092395, "rental_uris": {"android": "https://dc.lft.to/lastmile_qr_scan", "ios": "https://dc.lft.to/lastmile_qr_scan"}, "is_disabled": 0, "fusion_lat": 0.0, "name": "f030d4396f8549b15a0cc502facd1363", "fusion_lon": 0.0}, {"is_reserved": 0, "type": "electric_scooter", "bike_id": "af5d02b485212470e5f1ecdf2cbc9f04", "lat": 38.92570716666667, "lon": -77.0378085, "rental_uris": {"android": "https://dc.lft.to/lastmile_qr_scan", "ios": "https://dc.lft.to/lastmile_qr_scan"}, "is_disabled": 0, "fusion_lat": 0.0, "name": "af5d02b485212470e5f1ecdf2cbc9f04", "fusion_lon": 0.0}, {"is_reserved": 0, "type": "electric_scooter", "bike_id": "b201dc379a38f34ab0c4616af2567702", "lat": 38.9159825, "lon": -77.02399016666666, "rental_uris": {"android": "https://dc.lft.to/lastmile_qr_scan", "ios": "https://dc.lft.to/lastmile_qr_scan"}, "is_disabled": 0, "fusion_lat": 0.0, "name": "b201dc379a38f34ab0c4616af2567702", "fusion_lon": 0.0}, {"is_reserved": 0, "type": "electric_scooter", "bike_id": "0ca276835a3499ff6809d9640aacb70f", "lat": 38.89239533333333, "lon": -77.013569, "rental_uris": {"android": "https://dc.lft.to/lastmile_qr_scan", "ios": "https://dc.lft.to/lastmile_qr_scan"}, "is_disabled": 0, "fusion_lat": 0.0, "name": "0ca276835a3499ff6809d9640aacb70f", "fusion_lon": 0.0}, {"is_reserved": 0, "type": "electric_scooter", "bike_id": "9bab3fcdbcbd5951d4a1c1d0cc408df7", "lat": 38.917953, "lon": -77.03207266666666, "rental_uris": {"android": "https://dc.lft.to/lastmile_qr_scan", "ios": "https://dc.lft.to/lastmile_qr_scan"}, "is_disabled": 0, "fusion_lat": 0.0, "name": "9bab3fcdbcbd5951d4a1c1d0cc408df7", "fusion_lon": 0.0}, {"is_reserved": 0, "type": "electric_scooter", "bike_id": "e2bdf3d01fa60c57a8b48ff7e6c1e690", "lat": 38.89226416666666, "lon": -77.03114183333334, "rental_uris": {"android": "https://dc.lft.to/lastmile_qr_scan", "ios": "https://dc.lft.to/lastmile_qr_scan"}, "is_disabled": 0, "fusion_lat": 0.0, "name": "e2bdf3d01fa60c57a8b48ff7e6c1e690", "fusion_lon": 0.0}, {"is_reserved": 0, "type": "electric_bike", "bike_id": "17ee9d5b24f8a33107e6f25e1a7ce65c", "lat": 38.836116, "lon": -77.0038255, "rental_uris": {"android": "https://dc.lft.to/lastmile_qr_scan", "ios": "https://dc.lft.to/lastmile_qr_scan"}, "is_disabled": 0, "fusion_lat": 0.0, "name": "17ee9d5b24f8a33107e6f25e1a7ce65c", "fusion_lon": 0.0}, {"is_reserved": 0, "type": "electric_scooter", "bike_id": "9086d63edbfc755cb87b292060e0cbe4", "lat": 38.905714333333336, "lon": -77.03071883333334, "rental_uris": {"android": "https://dc.lft.to/lastmile_qr_scan", "ios": "https://dc.lft.to/lastmile_qr_scan"}, "is_disabled": 0, "fusion_lat": 0.0, "name": "9086d63edbfc755cb87b292060e0cbe4", "fusion_lon": 0.0}, {"is_reserved": 0, "type": "electric_bike", "bike_id": "bfa07034e19af3f6eff3eb6e3f3f0ca0", "lat": 38.92913383333333, "lon": -77.09736033333333, "rental_uris": {"android": "https://dc.lft.to/lastmile_qr_scan", "ios": "https://dc.lft.to/lastmile_qr_scan"}, "is_disabled": 0, "fusion_lat": 0.0, "name": "bfa07034e19af3f6eff3eb6e3f3f0ca0", "fusion_lon": 0.0}, {"is_reserved": 0, "type": "electric_bike", "bike_id": "44e216bb6df5f8800f81b88febdaad09", "lat": 38.88759866666667, "lon": -77.0891725, "rental_uris": {"android": "https://dc.lft.to/lastmile_qr_scan", "ios": "https://dc.lft.to/lastmile_qr_scan"}, "is_disabled": 0, "fusion_lat": 0.0, "name": "44e216bb6df5f8800f81b88febdaad09", "fusion_lon": 0.0}, {"is_reserved": 0, "type": "electric_scooter", "bike_id": "cc2ef4d9973e962d2fcbb09d8eb338b3", "lat": 38.906326166666666, "lon": -77.05157816666667, "rental_uris": {"android": "https://dc.lft.to/lastmile_qr_scan", "ios": "https://dc.lft.to/lastmile_qr_scan"}, "is_disabled": 0, "fusion_lat": 0.0, "name": "cc2ef4d9973e962d2fcbb09d8eb338b3", "fusion_lon": 0.0}, {"is_reserved": 0, "type": "electric_scooter", "bike_id": "38de6068aefe72b7f4c2b3d08243f3d8", "lat": 38.926060166666666, "lon": -77.05703716666666, "rental_uris": {"android": "https://dc.lft.to/lastmile_qr_scan", "ios": "https://dc.lft.to/lastmile_qr_scan"}, "is_disabled": 0, "fusion_lat": 0.0, "name": "38de6068aefe72b7f4c2b3d08243f3d8", "fusion_lon": 0.0}, {"is_reserved": 0, "type": "electric_scooter", "bike_id": "c9013131642569e425e75ef5a0f3c2e0", "lat": 38.92223283333333, "lon": -77.04329233333333, "rental_uris": {"android": "https://dc.lft.to/lastmile_qr_scan", "ios": "https://dc.lft.to/lastmile_qr_scan"}, "is_disabled": 0, "fusion_lat": 0.0, "name": "c9013131642569e425e75ef5a0f3c2e0", "fusion_lon": 0.0}, {"is_reserved": 0, "type": "electric_scooter", "bike_id": "b9d4b247f8723297410ba22a87e31cb3", "lat": 38.919574, "lon": -77.0787335, "rental_uris": {"android": "https://dc.lft.to/lastmile_qr_scan", "ios": "https://dc.lft.to/lastmile_qr_scan"}, "is_disabled": 0, "fusion_lat": 0.0, "name": "b9d4b247f8723297410ba22a87e31cb3", "fusion_lon": 0.0}, {"is_reserved": 0, "type": "electric_scooter", "bike_id": "dfdb4478e57e849ebe5c6b8998758c98", "lat": 38.901362, "lon": -76.98644966666667, "rental_uris": {"android": "https://dc.lft.to/lastmile_qr_scan", "ios": "https://dc.lft.to/lastmile_qr_scan"}, "is_disabled": 0, "fusion_lat": 0.0, "name": "dfdb4478e57e849ebe5c6b8998758c98", "fusion_lon": 0.0}, {"is_reserved": 0, "type": "electric_scooter", "bike_id": "b15d34db21177e718eb9c9191569d7f2", "lat": 38.92606133333334, "lon": -77.02155483333334, "rental_uris": {"android": "https://dc.lft.to/lastmile_qr_scan", "ios": "https://dc.lft.to/lastmile_qr_scan"}, "is_disabled": 0, "fusion_lat": 0.0, "name": "b15d34db21177e718eb9c9191569d7f2", "fusion_lon": 0.0}, {"is_reserved": 0, "type": "electric_scooter", "bike_id": "05e05bf95ca78342ad0b40e07d49e765", "lat": 38.91685116666667, "lon": -77.0319755, "rental_uris": {"android": "https://dc.lft.to/lastmile_qr_scan", "ios": "https://dc.lft.to/lastmile_qr_scan"}, "is_disabled": 0, "fusion_lat": 0.0, "name": "05e05bf95ca78342ad0b40e07d49e765", "fusion_lon": 0.0}, {"is_reserved": 0, "type": "electric_bike", "bike_id": "da6252ecab4c7f4e5c0dec63d7e7d574", "lat": 38.802492, "lon": -77.1144835, "rental_uris": {"android": "https://dc.lft.to/lastmile_qr_scan", "ios": "https://dc.lft.to/lastmile_qr_scan"}, "is_disabled": 0, "fusion_lat": 0.0, "name": "da6252ecab4c7f4e5c0dec63d7e7d574", "fusion_lon": 0.0}, {"is_reserved": 0, "type": "electric_scooter", "bike_id": "2acecabb343adec0258bf73aa962d550", "lat": 38.916410666666664, "lon": -77.02100233333333, "rental_uris": {"android": "https://dc.lft.to/lastmile_qr_scan", "ios": "https://dc.lft.to/lastmile_qr_scan"}, "is_disabled": 0, "fusion_lat": 0.0, "name": "2acecabb343adec0258bf73aa962d550", "fusion_lon": 0.0}, {"is_reserved": 0, "type": "electric_scooter", "bike_id": "07ab72480caafea0f9dcece9b8233c44", "lat": 38.914060666666664, "lon": -77.03171416666666, "rental_uris": {"android": "https://dc.lft.to/lastmile_qr_scan", "ios": "https://dc.lft.to/lastmile_qr_scan"}, "is_disabled": 0, "fusion_lat": 0.0, "name": "07ab72480caafea0f9dcece9b8233c44", "fusion_lon": 0.0}, {"is_reserved": 0, "type": "electric_scooter", "bike_id": "bd61aa83a08dea0cc0e5794a115defb9", "lat": 38.9141605, "lon": -77.018757, "rental_uris": {"android": "https://dc.lft.to/lastmile_qr_scan", "ios": "https://dc.lft.to/lastmile_qr_scan"}, "is_disabled": 0, "fusion_lat": 0.0, "name": "bd61aa83a08dea0cc0e5794a115defb9", "fusion_lon": 0.0},