{"data": {"bikes": [{"rental_uris": {"ios": "https://dc.lft.to/lastmile_qr_scan", "android": "https://dc.lft.to/lastmile_qr_scan"}, "lon": -77.02592966666667, "type": "electric_scooter", "fusion_lat": 0.0, "lat": 38.9150815, "name": "c2f2ada91a6a2043930741ec80d71dd6", "fusion_lon": 0.0, "bike_id": "c2f2ada91a6a2043930741ec80d71dd6", "is_disabled": 0, "is_reserved": 0}, {"rental_uris": {"ios": "https://dc.lft.to/lastmile_qr_scan", "android": "https://dc.lft.to/lastmile_qr_scan"}, "lon": -77.04937066666666, "type": "electric_scooter", "fusion_lat": 0.0, "lat": 38.900661, "name": "c9113a582309cdcc2b3bf5fc16977f9a", "fusion_lon": 0.0, "bike_id": "c9113a582309cdcc2b3bf5fc16977f9a", "is_disabled": 0, "is_reserved": 0}, {"rental_uris": {"ios": "https://dc.lft.to/lastmile_qr_scan", "android": "https://dc.lft.to/lastmile_qr_scan"}, "lon": -76.95184866666666, "type": "electric_scooter", "fusion_lat": 0.0, "lat": 38.891330833333335, "name": "77d1b5744675e7f92b821686b3aed2b5", "fusion_lon": 0.0, "bike_id": "77d1b5744675e7f92b821686b3aed2b5", "is_disabled": 0, "is_reserved": 0}, {"rental_uris": {"ios": "https://dc.lft.to/lastmile_qr_scan", "android": "https://dc.lft.to/lastmile_qr_scan"}, "lon": -77.0088925, "type": "electric_scooter", "fusion_lat": 0.0, "lat": 38.90514783333333, "name": "44cc96798550a7dc3bef5b0ae49d7b72", "fusion_lon": 0.0, "bike_id": "44cc96798550a7dc3bef5b0ae49d7b72", "is_disabled": 0, "is_reserved": 0}, {"rental_uris": {"ios": "https://dc.lft.to/lastmile_qr_scan", "android": "https://dc.lft.to/lastmile_qr_scan"}, "lon": -77.0366725, "type": "electric_scooter", "fusion_lat": 0.0, "lat": 38.918089333333334, "name": "1c03e96064a3ff1812d3aa5ef7406bae", "fusion_lon": 0.0, "bike_id": "1c03e96064a3ff1812d3aa5ef7406bae", "is_disabled": 0, "is_reserved": 0}, {"rental_uris": {"ios": "https://dc.lft.to/lastmile_qr_scan", "android": "https://dc.lft.to/lastmile_qr_scan"}, "lon": -77.0383935, "type": "electric_scooter", "fusion_lat": 0.0, "lat": 38.90751366666667, "name": "f23b73f4ecb34846a996673d685de0a5", "fusion_lon": 0.0, "bike_id": "f23b73f4ecb34846a996673d685de0a5", "is_disabled": 0, "is_reserved": 0}, {"rental_uris": {"ios": "https://dc.lft.to/lastmile_qr_scan", "android": "https://dc.lft.to/lastmile_qr_scan"}, "lon": -77.01591766666667, "type": "electric_scooter", "fusion_lat": 0.0, "lat": 38.9576085, "name": "a8d4fd9b84dc1216355bba5c53b3b32b", "fusion_lon": 0.0, "bike_id": "a8d4fd9b84dc1216355bba5c53b3b32b", "is_disabled": 0, "is_reserved": 0}, {"rental_uris": {"ios": "https://dc.lft.to/lastmile_qr_scan", "android": "https://dc.lft.to/lastmile_qr_scan"}, "lon": -77.02690966666667, "type": "electric_scooter", "fusion_lat": 0.0, "lat": 38.906803, "name": "0d32274226260396ce08a13a12960055", "fusion_lon": 0.0, "bike_id": "0d32274226260396ce08a13a12960055", "is_disabled": 0, "is_reserved": 0}, {"rental_uris": {"ios": "https://dc.lft.to/lastmile_qr_scan", "android": "https://dc.lft.to/lastmile_qr_scan"}, "lon": -76.94906766666666, "type": "electric_scooter", "fusion_lat": 0.0, "lat": 38.895601166666665, "name": "2b605032b5f791644cdcb07283c3fc95", "fusion_lon": 0.0, "bike_id": "2b605032b5f791644cdcb07283c3fc95", "is_disabled": 0, "is_reserved": 0}, {"rental_uris": {"ios": "https://dc.lft.to/lastmile_qr_scan", "android": "https://dc.lft.to/lastmile_qr_scan"}, "lon": -77.03259883333334, "type": "electric_scooter", "fusion_lat": 0.0, "lat": 38.907233, "name": "d8d35a15de59aabaa6e1db636e592fb2", "fusion_lon": 0.0, "bike_id": "d8d35a15de59aabaa6e1db636e592fb2", "is_disabled": 0, "is_reserved": 0}, {"rental_uris": {"ios": "https://dc.lft.to/lastmile_qr_scan", "android": "https://dc.lft.to/lastmile_qr_scan"}, "lon": -77.05498733333333, "type": "electric_scooter", "fusion_lat": 0.0, "lat": 38.90013866666666, "name": "fb07e55e5d9f892c519c208ef7a6c66c", "fusion_lon": 0.0, "bike_id": "fb07e55e5d9f892c519c208ef7a6c66c", "is_disabled": 0, "is_reserved": 0}, {"rental_uris": {"ios": "https://dc.lft.to/lastmile_qr_scan", "android": "https://dc.lft.to/lastmile_qr_scan"}, "lon": -77.01628833333334, "type": "electric_scooter", "fusion_lat": 0.0, "lat": 38.929319, "name": "010cf27d5a2c6f722798b252b8ccbb53", "fusion_lon": 0.0, "bike_id": "010cf27d5a2c6f722798b252b8ccbb53", "is_disabled": 0, "is_reserved": 0}, {"rental_uris": {"ios": "https://dc.lft.to/lastmile_qr_scan", "android": "https://dc.lft.to/lastmile_qr_scan"}, "lon": -77.02924083333333, "type": "electric_scooter", "fusion_lat": 0.0, "lat": 38.9332125, "name": "2866a8b924368babbdd47524293fef60", "fusion_lon": 0.0, "bike_id": "2866a8b924368babbdd47524293fef60", "is_disabled": 0, "is_reserved": 0}, {"rental_uris": {"ios": "https://dc.lft.to/lastmile_qr_scan", "android": "https://dc.lft.to/lastmile_qr_scan"}, "lon": -77.04005683333334, "type": "electric_scooter", "fusion_lat": 0.0, "lat": 38.918137, "name": "ed8bfda58077087507bec07616d08b01", "fusion_lon": 0.0, "bike_id": "ed8bfda58077087507bec07616d08b01", "is_disabled": 0, "is_reserved": 0}, {"rental_uris": {"ios": "https://dc.lft.to/lastmile_qr_scan", "android": "https://dc.lft.to/lastmile_qr_scan"}, "lon": -77.04034383333334, "type": "electric_scooter", "fusion_lat": 0.0, "lat": 38.924314, "name": "b2b138d1207b9eb07b1557feb46d6035", "fusion_lon": 0.0, "bike_id": "b2b138d1207b9eb07b1557feb46d6035", "is_disabled": 0, "is_reserved": 0}, {"rental_uris": {"ios": "https://dc.lft.to/lastmile_qr_scan", "android": "https://dc.lft.to/lastmile_qr_scan"}, "lon": -77.035328, "type": "electric_scooter", "fusion_lat": 0.0, "lat": 38.92334666666667, "name": "8df9b9038775b8e3c67a4a00aba06caa", "fusion_lon": 0.0, "bike_id": "8df9b9038775b8e3c67a4a00aba06caa", "is_disabled": 0, "is_reserved": 0}, {"rental_uris": {"ios": "https://dc.lft.to/lastmile_qr_scan", "android": "https://dc.lft.to/lastmile_qr_scan"}, "lon": -77.04034816666666, "type": "electric_scooter", "fusion_lat": 0.0, "lat": 38.9243025, "name": "2bafd439a775754ac6841224573a46e4", "fusion_lon": 0.0, "bike_id": "2bafd439a775754ac6841224573a46e4", "is_disabled": 0, "is_reserved": 0}, {"rental_uris": {"ios": "https://dc.lft.to/lastmile_qr_scan", "android": "https://dc.lft.to/lastmile_qr_scan"}, "lon": -77.0439345, "type": "electric_scooter", "fusion_lat": 0.0, "lat": 38.90904283333333, "name": "071002eaa8ce17350e9071d13d6200de", "fusion_lon": 0.0, "bike_id": "071002eaa8ce17350e9071d13d6200de", "is_disabled": 0, "is_reserved": 0}, {"rental_uris": {"ios": "https://dc.lft.to/lastmile_qr_scan", "android": "https://dc.lft.to/lastmile_qr_scan"}, "lon": -77.03840016666666, "type": "electric_scooter", "fusion_lat": 0.0, "lat": 38.9132705, "name": "b7b6b3efe8825060a1a18f09277d9b52", "fusion_lon": 0.0, "bike_id": "b7b6b3efe8825060a1a18f09277d9b52", "is_disabled": 0, "is_reserved": 0}, {"rental_uris": {"ios": "https://dc.lft.to/lastmile_qr_scan", "android": "https://dc.lft.to/lastmile_qr_scan"}, "lon": -77.03326, "type": "electric_scooter", "fusion_lat": 0.0, "lat": 38.89847066666667, "name": "decc054fa252aaf6ea8c42de44d10385", "fusion_lon": 0.0, "bike_id": "decc054fa252aaf6ea8c42de44d10385", "is_disabled": 0, "is_reserved": 0}, {"rental_uris": {"ios": "https://dc.lft.to/lastmile_qr_scan", "android": "https://dc.lft.to/lastmile_qr_scan"}, "lon": -77.001948, "type": "electric_scooter", "fusion_lat": 0.0, "lat": 38.900421, "name": "ac931144769fdfdbcc0a084b06dff817", "fusion_lon": 0.0, "bike_id": "ac931144769fdfdbcc0a084b06dff817", "is_disabled": 0, "is_reserved": 0}, {"rental_uris": {"ios": "https://dc.lft.to/lastmile_qr_scan", "android": "https://dc.lft.to/lastmile_qr_scan"}, "lon": -77.06388933333334, "type": "electric_scooter", "fusion_lat": 0.0, "lat": 38.90831433333334, "name": "2169d3792802a1b917904e6be19f0849", "fusion_lon": 0.0, "bike_id": "2169d3792802a1b917904e6be19f0849", "is_disabled": 0, "is_reserved": 0}, {"rental_uris": {"ios": "https://dc.lft.to/lastmile_qr_scan", "android": "https://dc.lft.to/lastmile_qr_scan"}, "lon": -77.0193485, "type": "electric_scooter", "fusion_lat": 0.0, "lat": 38.94927633333333, "name": "ea16b83a26725f3c6e6c241b74117ea8", "fusion_lon": 0.0, "bike_id": "ea16b83a26725f3c6e6c241b74117ea8", "is_disabled": 0, "is_reserved": 0}, {"rental_uris": {"ios": "https://dc.lft.to/lastmile_qr_scan", "android": "https://dc.lft.to/lastmile_qr_scan"}, "lon": -77.0272845, "type": "electric_scooter", "fusion_lat": 0.0, "lat": 38.93792033333333, "name": "a0fa4eae5ee48b20b30a3b4c13c09505", "fusion_lon": 0.0, "bike_id": "a0fa4eae5ee48b20b30a3b4c13c09505", "is_disabled": 0, "is_reserved": 0}, {"rental_uris": {"ios": "https://dc.lft.to/lastmile_qr_scan", "android": "https://dc.lft.to/lastmile_qr_scan"}, "lon": -77.03798983333333, "type": "electric_scooter", "fusion_lat": 0.0, "lat": 38.9121775, "name": "ac165ebe763405aa7735e513092a803f", "fusion_lon": 0.0, "bike_id": "ac165ebe763405aa7735e513092a803f", "is_disabled": 0, "is_reserved": 0}, {"rental_uris": {"ios": "https://dc.lft.to/lastmile_qr_scan", "android": "https://dc.lft.to/lastmile_qr_scan"}, "lon": -77.0307855, "type": "electric_scooter", "fusion_lat": 0.0, "lat": 38.899745833333334, "name": "4a84cc54d77757d98471fb3f76d7d48a", "fusion_lon": 0.0, "bike_id": "4a84cc54d77757d98471fb3f76d7d48a", "is_disabled": 0, "is_reserved": 0}, {"rental_uris": {"ios": "https://dc.lft.to/lastmile_qr_scan", "android": "https://dc.lft.to/lastmile_qr_scan"}, "lon": -77.051519, "type": "electric_scooter", "fusion_lat": 0.0, "lat": 38.905473, "name": "536c09b06cf040af4b0f20344f57a3be", "fusion_lon": 0.0, "bike_id": "536c09b06cf040af4b0f20344f57a3be", "is_disabled": 0, "is_reserved": 0}, {"rental_uris": {"ios": "https://dc.lft.to/lastmile_qr_scan", "android": "https://dc.lft.to/lastmile_qr_scan"}, "lon": -77.0381435, "type": "electric_scooter", "fusion_lat": 0.0, "lat": 38.90681633333333, "name": "8898bd36eb0470eb6efd9c0d002fd863", "fusion_lon": 0.0, "bike_id": "8898bd36eb0470eb6efd9c0d002fd863", "is_disabled": 0, "is_reserved": 0}, {"rental_uris": {"ios": "https://dc.lft.to/lastmile_qr_scan", "android": "https://dc.lft.to/lastmile_qr_scan"}, "lon": -77.04348783333333, "type": "electric_scooter", "fusion_lat": 0.0, "lat": 38.89656083333333, "name": "f1f4d0ab6856625cf122ddcee32657c6", "fusion_lon": 0.0, "bike_id": "f1f4d0ab6856625cf122ddcee32657c6", "is_disabled": 0, "is_reserved": 0}, {"rental_uris": {"ios": "https://dc.lft.to/lastmile_qr_scan", "android": "https://dc.lft.to/lastmile_qr_scan"}, "lon": -77.024843, "type": "electric_scooter", "fusion_lat": 0.0, "lat": 38.91940666666667, "name": "fe4f29284d318fe1b00cc979be02e48f", "fusion_lon": 0.0, "bike_id": "fe4f29284d318fe1b00cc979be02e48f", "is_disabled": 0, "is_reserved": 0}, {"rental_uris": {"ios": "https://dc.lft.to/lastmile_qr_scan", "android": "https://dc.lft.to/lastmile_qr_scan"}, "lon": -77.041523, "type": "electric_scooter", "fusion_lat": 0.0, "lat": 38.91812933333333, "name": "1f71d65c1408e60380a4e990e1805cfc", "fusion_lon": 0.0, "bike_id": "1f71d65c1408e60380a4e990e1805cfc", "is_disabled": 0, "is_reserved": 0}, {"rental_uris": {"ios": "https://dc.lft.to/lastmile_qr_scan", "android": "https://dc.lft.to/lastmile_qr_scan"}, "lon": -77.002065, "type": "electric_scooter", "fusion_lat": 0.0, "lat": 38.82252183333333, "name": "d3104ddfe3d49b9bc82cfdf5f38607f2", "fusion_lon": 0.0, "bike_id": "d3104ddfe3d49b9bc82cfdf5f38607f2", "is_disabled": 0, "is_reserved": 0}, {"rental_uris": {"ios": "https://dc.lft.to/lastmile_qr_scan", "android": "https://dc.lft.to/lastmile_qr_scan"}, "lon": -77.05687133333333, "type": "electric_scooter", "fusion_lat": 0.0, "lat": 38.9232645, "name": "f6842b1c26ffdbfd1ea8d7f5e4b4656c", "fusion_lon": 0.0, "bike_id": "f6842b1c26ffdbfd1ea8d7f5e4b4656c", "is_disabled": 0, "is_reserved": 0}, {"rental_uris": {"ios": "https://dc.lft.to/lastmile_qr_scan", "android": "https://dc.lft.to/lastmile_qr_scan"}, "lon": -77.04681983333333, "type": "electric_scooter", "fusion_lat": 0.0, "lat": 38.8922195, "name": "e8fb83634af1050880ac87347963989b", "fusion_lon": 0.0, "bike_id": "e8fb83634af1050880ac87347963989b", "is_disabled": 0, "is_reserved": 0}, {"rental_uris": {"ios": "https://dc.lft.to/lastmile_qr_scan", "android": "https://dc.lft.to/lastmile_qr_scan"}, "lon": -77.04348066666667, "type": "electric_scooter", "fusion_lat": 0.0, "lat": 38.92139266666667, "name": "3e38322b40ff8a134a5412302cdb5660", "fusion_lon": 0.0, "bike_id": "3e38322b40ff8a134a5412302cdb5660", "is_disabled": 0, "is_reserved": 0}, {"rental_uris": {"ios": "https://dc.lft.to/lastmile_qr_scan", "android": "https://dc.lft.to/lastmile_qr_scan"}, "lon": -77.011492, "type": "electric_scooter", "fusion_lat": 0.0, "lat": 38.95673983333333, "name": "7d12d1dbc583b7f9ec77abaa9f23ddb3", "fusion_lon": 0.0, "bike_id": "7d12d1dbc583b7f9ec77abaa9f23ddb3", "is_disabled": 0, "is_reserved": 0}, {"rental_uris": {"ios": "https://dc.lft.to/lastmile_qr_scan", "android": "https://dc.lft.to/lastmile_qr_scan"}, "lon": -77.03814533333333, "type": "electric_scooter", "fusion_lat": 0.0, "lat": 38.93100366666667, "name": "05a7a597646468e303adca593ccb759a", "fusion_lon": 0.0, "bike_id": "05a7a597646468e303adca593ccb759a", "is_disabled": 0, "is_reserved": 0}, {"rental_uris": {"ios": "https://dc.lft.to/lastmile_qr_scan", "android": "https://dc.lft.to/lastmile_qr_scan"}, "lon": -77.04033966666667, "type": "electric_bike", "fusion_lat": 0.0, "lat": 38.92365433333333, "name": "71ffe25e7d6fbdee438ff38b5e1bf747", "fusion_lon": 0.0, "bike_id": "71ffe25e7d6fbdee438ff38b5e1bf747", "is_disabled": 0, "is_reserved": 0}, {"rental_uris": {"ios": "https://dc.lft.to/lastmile_qr_scan", "android": "https://dc.lft.to/lastmile_qr_scan"}, "lon": -77.02289133333333, "type": "electric_scooter", "fusion_lat": 0.0, "lat": 38.919670333333336, "name": "503aa7c836062bca62b80e0d49dba042", "fusion_lon": 0.0, "bike_id": "503aa7c836062bca62b80e0d49dba042", "is_disabled": 0, "is_reserved": 0}, {"rental_uris": {"ios": "https://dc.lft.to/lastmile_qr_scan", "android": "https://dc.lft.to/lastmile_qr_scan"}, "lon": -77.03704766666667, "type": "electric_scooter", "fusion_lat": 0.0, "lat": 38.926356, "name": "7aa7d1de9a513637a82914b269f9f07f", "fusion_lon": 0.0, "bike_id": "7aa7d1de9a513637a82914b269f9f07f", "is_disabled": 0, "is_reserved": 0}, {"rental_uris": {"ios": "https://dc.lft.to/lastmile_qr_scan", "android": "https://dc.lft.to/lastmile_qr_scan"}, "lon": -77.02131833333334, "type": "electric_scooter", "fusion_lat": 0.0, "lat": 38.89698383333333, "name": "f8714b86de28413bb66c74ca7b6b3b8d", "fusion_lon": 0.0, "bike_id": "f8714b86de28413bb66c74ca7b6b3b8d", "is_disabled": 0, "is_reserved": 0}, {"rental_uris": {"ios": "https://dc.lft.to/lastmile_qr_scan", "android": "https://dc.lft.to/lastmile_qr_scan"}, "lon": -77.1249845, "type": "electric_bike", "fusion_lat": 0.0, "lat": 39.024225333333334, "name": "a7e57182e261ff61e6225b97e59bee3c", "fusion_lon": 0.0, "bike_id": "a7e57182e261ff61e6225b97e59bee3c", "is_disabled": 0, "is_reserved": 0}, {"rental_uris": {"ios": "https://dc.lft.to/lastmile_qr_scan", "android": "https://dc.lft.to/lastmile_qr_scan"}, "lon": -77.02635766666667, "type": "electric_scooter", "fusion_lat": 0.0, "lat": 38.898311, "name": "18c0ad092022f579d568e8c94a3c47a2", "fusion_lon": 0.0, "bike_id": "18c0ad092022f579d568e8c94a3c47a2", "is_disabled": 0, "is_reserved": 0}, {"rental_uris": {"ios": "https://dc.lft.to/lastmile_qr_scan", "android": "https://dc.lft.to/lastmile_qr_scan"}, "lon": -77.0022325, "type": "electric_scooter", "fusion_lat": 0.0, "lat": 38.91339033333333, "name": "fc5d3908cea9941e8578f011abb43432", "fusion_lon": 0.0, "bike_id": "fc5d3908cea9941e8578f011abb43432", "is_disabled": 0, "is_reserved": 0}, {"rental_uris": {"ios": "https://dc.lft.to/lastmile_qr_scan", "android": "https://dc.lft.to/lastmile_qr_scan"}, "lon": -77.03388566666666, "type": "electric_scooter", "fusion_lat": 0.0, "lat": 38.88656066666667, "name": "9f1f3f1fec377cd5e2304ef7f59031c9", "fusion_lon": 0.0, "bike_id": "9f1f3f1fec377cd5e2304ef7f59031c9", "is_disabled": 0, "is_reserved": 0}, {"rental_uris": {"ios": "https://dc.lft.to/lastmile_qr_scan", "android": "https://dc.lft.to/lastmile_qr_scan"}, "lon": -77.05288183333333, "type": "electric_scooter", "fusion_lat": 0.0, "lat": 38.92780916666667, "name": "adc0fce6df48c76f2f7a5520c1da1869", "fusion_lon": 0.0, "bike_id": "adc0fce6df48c76f2f7a5520c1da1869", "is_disabled": 0, "is_reserved": 0}, {"rental_uris": {"ios": "https://dc.lft.to/lastmile_qr_scan", "android": "https://dc.lft.to/lastmile_qr_scan"}, "lon": -77.02109783333333, "type": "electric_scooter", "fusion_lat": 0.0, "lat": 38.89463033333333, "name": "52159f47d56da12f545a68f5ba6b83f4", "fusion_lon": 0.0, "bike_id": "52159f47d56da12f545a68f5ba6b83f4", "is_disabled": 0, "is_reserved": 0}, {"rental_uris": {"ios": "https://dc.lft.to/lastmile_qr_scan", "android": "https://dc.lft.to/lastmile_qr_scan"}, "lon": -77.02085683333334, "type": "electric_scooter", "fusion_lat": 0.0, "lat": 38.881824, "name": "36001e5ab64831b881d688923423d9d2", "fusion_lon": 0.0, "bike_id": "36001e5ab64831b881d688923423d9d2", "is_disabled": 0, "is_reserved": 0}, {"rental_uris": {"ios": "https://dc.lft.to/lastmile_qr_scan", "android": "https://dc.lft.to/lastmile_qr_scan"}, "lon": -76.98363416666666, "type": "electric_scooter", "fusion_lat": 0.0, "lat": 38.897979, "name": "eaacfeb2d91e9cc121e1d1175e061cf0", "fusion_lon": 0.0, "bike_id": "eaacfeb2d91e9cc121e1d1175e061cf0", "is_disabled": 0, "is_reserved": 0}, {"rental_uris": {"ios": "https://dc.lft.to/lastmile_qr_scan", "android": "https://dc.lft.to/lastmile_qr_scan"}, "lon": -77.02838216666666, "type": "electric_scooter", "fusion_lat": 0.0, "lat": 38.89521583333333, "name": "cd6d25333bb5c8cd9c7c29e3971a1b57", "fusion_lon": 0.0, "bike_id": "cd6d25333bb5c8cd9c7c29e3971a1b57", "is_disabled": 0, "is_reserved": 0}, {"rental_uris": {"ios": "https://dc.lft.to/lastmile_qr_scan", "android": "https://dc.lft.to/lastmile_qr_scan"}, "lon": -77.02601316666667, "type": "electric_scooter", "fusion_lat": 0.0, "lat": 38.97583916666667, "name": "9b31932c4b4a3c047fc9f9e5ac924d13", "fusion_lon": 0.0, "bike_id": "9b31932c4b4a3c047fc9f9e5ac924d13", "is_disabled": 0, "is_reserved": 0}, {"rental_uris": {"ios": "https://dc.lft.to/lastmile_qr_scan", "android": "https://dc.lft.to/lastmile_qr_scan"}, "lon": -77.02674416666666, "type": "electric_scooter", "fusion_lat": 0.0, "lat": 38.906274, "name": "4ef7a85ddddccb16819096f3333c2aa9", "fusion_lon": 0.0, "bike_id": "4ef7a85ddddccb16819096f3333c2aa9", "is_disabled": 0, "is_reserved": 0}, {"rental_uris": {"ios": "https://dc.lft.to/lastmile_qr_scan", "android": "https://dc.lft.to/lastmile_qr_scan"}, "lon": -77.02385266666667, "type": "electric_scooter", "fusion_lat": 0.0, "lat": 38.9159105, "name": "b416ccacc321ac55bcdecd5890dfc0b1", "fusion_lon": 0.0, "bike_id": "b416ccacc321ac55bcdecd5890dfc0b1", "is_disabled": 0, "is_reserved": 0}, {"rental_uris": {"ios": "https://dc.lft.to/lastmile_qr_scan", "android": "https://dc.lft.to/lastmile_qr_scan"}, "lon": -77.05134633333333, "type": "electric_scooter", "fusion_lat": 0.0, "lat": 38.89771916666667, "name": "4f347589296fab37aa9b9c8fd750fd6e", "fusion_lon": 0.0, "bike_id": "4f347589296fab37aa9b9c8fd750fd6e", "is_disabled": 0, "is_reserved": 0}, {"rental_uris": {"ios": "https://dc.lft.to/lastmile_qr_scan", "android": "https://dc.lft.to/lastmile_qr_scan"}, "lon": -77.05358966666667, "type": "electric_scooter", "fusion_lat": 0.0, "lat": 38.9279245, "name": "a63c7fa4e016449886c78ad6e6eaa394", "fusion_lon": 0.0, "bike_id": "a63c7fa4e016449886c78ad6e6eaa394", "is_disabled": 0, "is_reserved": 0}, {"rental_uris": {"ios": "https://dc.lft.to/lastmile_qr_scan", "android": "https://dc.lft.to/lastmile_qr_scan"}, "lon": -77.05222433333333, "type": "electric_scooter", "fusion_lat": 0.0, "lat": 38.92494116666667, "name": "b03f2b590c76be1a222829d65192f80e", "fusion_lon": 0.0, "bike_id": "b03f2b590c76be1a222829d65192f80e", "is_disabled": 0, "is_reserved": 0}, {"rental_uris": {"ios": "https://dc.lft.to/lastmile_qr_scan", "android": "https://dc.lft.to/lastmile_qr_scan"}, "lon": -77.027013, "type": "electric_scooter", "fusion_lat": 0.0, "lat": 38.908728833333335, "name": "22d1a115f5afd94f8003bae5d62fa88a", "fusion_lon": 0.0, "bike_id": "22d1a115f5afd94f8003bae5d62fa88a", "is_disabled": 0, "is_reserved": 0}, {"rental_uris": {"ios": "https://dc.lft.to/lastmile_qr_scan", "android": "https://dc.lft.to/lastmile_qr_scan"}, "lon": -77.04885466666667, "type": "electric_scooter", "fusion_lat": 0.0, "lat": 38.90585816666667, "name": "be6af5e48bf5b36c0beace6ffa92348e", "fusion_lon": 0.0, "bike_id": "be6af5e48bf5b36c0beace6ffa92348e", "is_disabled": 0, "is_reserved": 0}, {"rental_uris": {"ios": "https://dc.lft.to/lastmile_qr_scan", "android": "https://dc.lft.to/lastmile_qr_scan"}, "lon": -77.04481566666666, "type": "electric_scooter", "fusion_lat": 0.0, "lat": 38.91107266666667, "name": "40d3eab2ec8befb773a7588fc2dcb25b", "fusion_lon": 0.0, "bike_id": "40d3eab2ec8befb773a7588fc2dcb25b", "is_disabled": 0, "is_reserved": 0}, {"rental_uris": {"ios": "https://dc.lft.to/lastmile_qr_scan", "android": "https://dc.lft.to/lastmile_qr_scan"}, "lon": -76.99574166666666, "type": "electric_scooter", "fusion_lat": 0.0, "lat": 38.9002115, "name": "8ab7e1718e898cb26b52d1d50f313f36", "fusion_lon": 0.0, "bike_id": "8ab7e1718e898cb26b52d1d50f313f36", "is_disabled": 0, "is_reserved": 0}, {"rental_uris": {"ios": "https://dc.lft.to/lastmile_qr_scan", "android": "https://dc.lft.to/lastmile_qr_scan"}, "lon": -77.023619, "type": "electric_scooter", "fusion_lat": 0.0, "lat": 38.92061966666667, "name": "7b034acbff0bfb3715bb5c86a33427c3", "fusion_lon": 0.0, "bike_id": "7b034acbff0bfb3715bb5c86a33427c3", "is_disabled": 0, "is_reserved": 0}, {"rental_uris": {"ios": "https://dc.lft.to/lastmile_qr_scan", "android": "https://dc.lft.to/lastmile_qr_scan"}, "lon": -77.008205, "type": "electric_scooter", "fusion_lat": 0.0, "lat": 38.90568783333333, "name": "dbcf9f7d8caa860aeb7ed01e0675f531", "fusion_lon": 0.0, "bike_id": "dbcf9f7d8caa860aeb7ed01e0675f531", "is_disabled": 0, "is_reserved": 0}, {"rental_uris": {"ios": "https://dc.lft.to/lastmile_qr_scan", "android": "https://dc.lft.to/lastmile_qr_scan"}, "lon": -77.021626, "type": "electric_scooter", "fusion_lat": 0.0, "lat": 38.92612183333333, "name": "c4856e72a9437e9b9c71eec6291b6a6d", "fusion_lon": 0.0, "bike_id": "c4856e72a9437e9b9c71eec6291b6a6d", "is_disabled": 0, "is_reserved": 0}, {"rental_uris": {"ios": "https://dc.lft.to/lastmile_qr_scan", "android": "https://dc.lft.to/lastmile_qr_scan"}, "lon": -77.04298333333334, "type": "electric_scooter", "fusion_lat": 0.0, "lat": 38.908892, "name": "bb0abafc300e5f227dd6a8229e684ff0", "fusion_lon": 0.0, "bike_id": "bb0abafc300e5f227dd6a8229e684ff0", "is_disabled": 0, "is_reserved": 0}, {"rental_uris": {"ios": "https://dc.lft.to/lastmile_qr_scan", "android": "https://dc.lft.to/lastmile_qr_scan"}, "lon": -76.92372266666666, "type": "electric_bike", "fusion_lat": 0.0, "lat": 38.8837115, "name": "2e3ef7dd4ac69ab19201015549f3e197", "fusion_lon": 0.0, "bike_id": "2e3ef7dd4ac69ab19201015549f3e197", "is_disabled": 0, "is_reserved": 0}, {"rental_uris": {"ios": "https://dc.lft.to/lastmile_qr_scan", "android": "https://dc.lft.to/lastmile_qr_scan"}, "lon": -77.09885833333334, "type": "electric_bike", "fusion_lat": 0.0, "lat": 38.9479165, "name": "e7cfe516090f8ef7e21b03e9bf754ba4", "fusion_lon": 0.0, "bike_id": "e7cfe516090f8ef7e21b03e9bf754ba4", "is_disabled": 0, "is_reserved": 0}, {"rental_uris": {"ios": "https://dc.lft.to/lastmile_qr_scan", "android": "https://dc.lft.to/lastmile_qr_scan"}, "lon": -76.9958575, "type": "electric_scooter", "fusion_lat": 0.0, "lat": 38.9550205, "name": "8efbb602a6cba8b654e2eead93dc693e", "fusion_lon": 0.0, "bike_id": "8efbb602a6cba8b654e2eead93dc693e", "is_disabled": 0, "is_reserved": 0}, {"rental_uris": {"ios": "https://dc.lft.to/lastmile_qr_scan", "android": "https://dc.lft.to/lastmile_qr_scan"}, "lon": -77.0450255, "type": "electric_scooter", "fusion_lat": 0.0, "lat": 38.91101716666667, "name": "a1d36c87841b97f5f09be80122886dac", "fusion_lon": 0.0, "bike_id": "a1d36c87841b97f5f09be80122886dac", "is_disabled": 0, "is_reserved": 0}, {"rental_uris": {"ios": "https://dc.lft.to/lastmile_qr_scan", "android": "https://dc.lft.to/lastmile_qr_scan"}, "lon": -77.04222516666667, "type": "electric_scooter", "fusion_lat": 0.0, "lat": 38.91118566666667, "name": "198f76b8a2020e2c322f2ccf56d81d77", "fusion_lon": 0.0, "bike_id": "198f76b8a2020e2c322f2ccf56d81d77", "is_disabled": 0, "is_reserved": 0}, {"rental_uris": {"ios": "https://dc.lft.to/lastmile_qr_scan", "android": "https://dc.lft.to/lastmile_qr_scan"}, "lon": -77.01152333333333, "type": "electric_scooter", "fusion_lat": 0.0, "lat": 38.900213, "name": "e4d3f533d84fddf0ae400938ab98a991", "fusion_lon": 0.0, "bike_id": "e4d3f533d84fddf0ae400938ab98a991", "is_disabled": 0, "is_reserved": 0}, {"rental_uris": {"ios": "https://dc.lft.to/lastmile_qr_scan", "android": "https://dc.lft.to/lastmile_qr_scan"}, "lon": -77.050213, "type": "electric_scooter", "fusion_lat": 0.0, "lat": 38.923533, "name": "52c8dab88ae008efb0850526b53dd7b5", "fusion_lon": 0.0, "bike_id": "52c8dab88ae008efb0850526b53dd7b5", "is_disabled": 0, "is_reserved": 0}, {"rental_uris": {"ios": "https://dc.lft.to/lastmile_qr_scan", "android": "https://dc.lft.to/lastmile_qr_scan"}, "lon": -77.0417305, "type": "electric_scooter", "fusion_lat": 0.0, "lat": 38.91168166666667, "name": "458815677b52e930791a9a2ed7fafdd9", "fusion_lon": 0.0, "bike_id": "458815677b52e930791a9a2ed7fafdd9", "is_disabled": 0, "is_reserved": 0}, {"rental_uris": {"ios": "https://dc.lft.to/lastmile_qr_scan", "android": "https://dc.lft.to/lastmile_qr_scan"}, "lon": -76.93174283333333, "type": "electric_scooter", "fusion_lat": 0.0, "lat": 38.89883533333333, "name": "f6c770f05d02547154108580c17080e9", "fusion_lon": 0.0, "bike_id": "f6c770f05d02547154108580c17080e9", "is_disabled": 0, "is_reserved": 0}, {"rental_uris": {"ios": "https://dc.lft.to/lastmile_qr_scan", "android": "https://dc.lft.to/lastmile_qr_scan"}, "lon": -77.02764466666666, "type": "electric_scooter", "fusion_lat": 0.0, "lat": 38.913444166666665, "name": "a34febaa26b2394914259dd510c9fff5", "fusion_lon": 0.0, "bike_id": "a34febaa26b2394914259dd510c9fff5", "is_disabled": 0, "is_reserved": 0}, {"rental_uris": {"ios": "https://dc.lft.to/lastmile_qr_scan", "android": "https://dc.lft.to/lastmile_qr_scan"}, "lon": -77.0948985, "type": "electric_bike", "fusion_lat": 0.0, "lat": 38.88749416666667, "name": "b4a621812ba35ff0f4cfb9bd4677db25", "fusion_lon": 0.0, "bike_id": "b4a621812ba35ff0f4cfb9bd4677db25", "is_disabled": 0, "is_reserved": 0}, {"rental_uris": {"ios": "https://dc.lft.to/lastmile_qr_scan", "android": "https://dc.lft.to/lastmile_qr_scan"}, "lon": -77.02284733333333, "type": "electric_scooter", "fusion_lat": 0.0, "lat": 38.901590666666664, "name": "d98823d71e74cfa840660a6bd5802366", "fusion_lon": 0.0, "bike_id": "d98823d71e74cfa840660a6bd5802366", "is_disabled": 0, "is_reserved": 0}, {"rental_uris": {"ios": "https://dc.lft.to/lastmile_qr_scan", "android": "https://dc.lft.to/lastmile_qr_scan"}, "lon": -77.00249416666666, "type": "electric_scooter", "fusion_lat": 0.0, "lat": 38.911776333333336, "name": "e5fba8cf774e6bfa9ccfcda9e8264e26", "fusion_lon": 0.0, "bike_id": "e5fba8cf774e6bfa9ccfcda9e8264e26", "is_disabled": 0, "is_reserved": 0}, {"rental_uris": {"ios": "https://dc.lft.to/lastmile_qr_scan", "android": "https://dc.lft.to/lastmile_qr_scan"}, "lon": -77.03823833333334, "type": "electric_scooter", "fusion_lat": 0.0, "lat": 38.92063016666667, "name": "6159fc46bf31b3175bdba62e9b0a297a", "fusion_lon": 0.0, "bike_id": "6159fc46bf31b3175bdba62e9b0a297a", "is_disabled": 0, "is_reserved": 0}, {"rental_uris": {"ios": "https://dc.lft.to/lastmile_qr_scan", "android": "https://dc.lft.to/lastmile_qr_scan"}, "lon": -77.07378733333333, "type": "electric_bike", "fusion_lat": 0.0, "lat": 38.96170033333333, "name": "165163e032eebb715f5fb1a2ba5bf361", "fusion_lon": 0.0, "bike_id": "165163e032eebb715f5fb1a2ba5bf361", "is_disabled": 0, "is_reserved": 0}, {"rental_uris": {"ios": "https://dc.lft.to/lastmile_qr_scan", "android": "https://dc.lft.to/lastmile_qr_scan"}, "lon": -77.03046433333333, "type": "electric_scooter", "fusion_lat": 0.0, "lat": 38.884001, "name": "6885b15ec98fb7d50d11c45948a69aaa", "fusion_lon": 0.0, "bike_id": "6885b15ec98fb7d50d11c45948a69aaa", "is_disabled": 0, "is_reserved": 0}, {"rental_uris": {"ios": "https://dc.lft.to/lastmile_qr_scan", "android": "https://dc.lft.to/lastmile_qr_scan"}, "lon": -77.04784416666666, "type": "electric_scooter", "fusion_lat": 0.0, "lat": 38.8936755, "name": "27b4dad955268818379128f139fe4d59", "fusion_lon": 0.0, "bike_id": "27b4dad955268818379128f139fe4d59", "is_disabled": 0, "is_reserved": 0}, {"rental_uris": {"ios": "https://dc.lft.to/lastmile_qr_scan", "android": "https://dc.lft.to/lastmile_qr_scan"}, "lon": -77.04469633333333, "type": "electric_scooter", "fusion_lat": 0.0, "lat": 38.90323216666667, "name": "cc540392ebaa0520d1c818e484fb74c0", "fusion_lon": 0.0, "bike_id": "cc540392ebaa0520d1c818e484fb74c0", "is_disabled": 0, "is_reserved": 0}, {"rental_uris": {"ios": "https://dc.lft.to/lastmile_qr_scan", "android": "https://dc.lft.to/lastmile_qr_scan"}, "lon": -77.03005266666666, "type": "electric_scooter", "fusion_lat": 0.0, "lat": 38.91926466666666, "name": "449ce5c25b7a267c12a0fb4d7506a526", "fusion_lon": 0.0, "bike_id": "449ce5c25b7a267c12a0fb4d7506a526", "is_disabled": 0, "is_reserved": 0}, {"rental_uris": {"ios": "https://dc.lft.to/lastmile_qr_scan", "android": "https://dc.lft.to/lastmile_qr_scan"}, "lon": -77.0234235, "type": "electric_bike", "fusion_lat": 0.0, "lat": 38.922317166666666, "name": "1d534e9b4e1db8c38a6b17049c5c07a6", "fusion_lon": 0.0, "bike_id": "1d534e9b4e1db8c38a6b17049c5c07a6", "is_disabled": 0, "is_reserved": 0}, {"rental_uris": {"ios": "https://dc.lft.to/lastmile_qr_scan", "android": "https://dc.lft.to/lastmile_qr_scan"}, "lon": -77.03189066666667, "type": "electric_scooter", "fusion_lat": 0.0, "lat": 38.9167555, "name": "9724e447dae80dd939cd429c8d4759bd", "fusion_lon": 0.0, "bike_id": "9724e447dae80dd939cd429c8d4759bd", "is_disabled": 0, "is_reserved": 0}, {"rental_uris": {"ios": "https://dc.lft.to/lastmile_qr_scan", "android": "https://dc.lft.to/lastmile_qr_scan"}, "lon": -77.0327125, "type": "electric_scooter", "fusion_lat": 0.0, "lat": 38.93445666666667, "name": "91d1ce6dc2a83b0ca91be928ea7c93c5", "fusion_lon": 0.0, "bike_id": "91d1ce6dc2a83b0ca91be928ea7c93c5", "is_disabled": 0, "is_reserved": 0}, {"rental_uris": {"ios": "https://dc.lft.to/lastmile_qr_scan", "android": "https://dc.lft.to/lastmile_qr_scan"}, "lon": -77.01868866666666, "type": "electric_scooter", "fusion_lat": 0.0, "lat": 38.90260833333333, "name": "1ae0151c482794d506f55925fb3c4bce", "fusion_lon": 0.0, "bike_id": "1ae0151c482794d506f55925fb3c4bce", "is_disabled": 0, "is_reserved": 0}, {"rental_uris": {"ios": "https://dc.lft.to/lastmile_qr_scan", "android": "https://dc.lft.to/lastmile_qr_scan"}, "lon": -77.04402683333333, "type": "electric_scooter", "fusion_lat": 0.0, "lat": 38.905645666666665, "name": "8a0be2bb2299fa39084c310db98978dc", "fusion_lon": 0.0, "bike_id": "8a0be2bb2299fa39084c310db98978dc", "is_disabled": 0, "is_reserved": 0}, {"rental_uris": {"ios": "https://dc.lft.to/lastmile_qr_scan", "android": "https://dc.lft.to/lastmile_qr_scan"}, "lon": -77.050241, "type": "electric_scooter", "fusion_lat": 0.0, "lat": 38.9235315, "name": "58d99a555e043a6dfaa9b6f629281c9e", "fusion_lon": 0.0, "bike_id": "58d99a555e043a6dfaa9b6f629281c9e", "is_disabled": 0, "is_reserved": 0}, {"rental_uris": {"ios": "https://dc.lft.to/lastmile_qr_scan", "android": "https://dc.lft.to/lastmile_qr_scan"}, "lon": -77.03869233333333, "type": "electric_scooter", "fusion_lat": 0.0, "lat": 38.915557166666666, "name": "d36a43584001208d9e0d4577ffd72631", "fusion_lon": 0.0, "bike_id": "d36a43584001208d9e0d4577ffd72631", "is_disabled": 0, "is_reserved": 0}, {"rental_uris": {"ios": "https://dc.lft.to/lastmile_qr_scan", "android": "https://dc.lft.to/lastmile_qr_scan"}, "lon": -77.07165233333333, "type": "electric_scooter", "fusion_lat": 0.0, "lat": 38.914527, "name": "809b8ab1a1f6ee3844104ce4949a6b5e", "fusion_lon": 0.0, "bike_id": "809b8ab1a1f6ee3844104ce4949a6b5e", "is_disabled": 0, "is_reserved": 0}, {"rental_uris": {"ios": "https://dc.lft.to/lastmile_qr_scan", "android": "https://dc.lft.to/lastmile_qr_scan"}, "lon": -77.026013, "type": "electric_scooter", "fusion_lat": 0.0, "lat": 38.907568166666664, "name": "12a6f9083b1d9c1a42f415d640618d5c", "fusion_lon": 0.0, "bike_id": "12a6f9083b1d9c1a42f415d640618d5c", "is_disabled": 0, "is_reserved": 0}, {"rental_uris": {"ios": "https://dc.lft.to/lastmile_qr_scan", "android": "https://dc.lft.to/lastmile_qr_scan"}, "lon": -76.9917845, "type": "electric_scooter", "fusion_lat": 0.0, "lat": 38.90838866666667, "name": "28ff1105709fe899e1287162b98417f2", "fusion_lon": 0.0, "bike_id": "28ff1105709fe899e1287162b98417f2", "is_disabled": 0, "is_reserved": 0}, {"rental_uris": {"ios": "https://dc.lft.to/lastmile_qr_scan", "android": "https://dc.lft.to/lastmile_qr_scan"}, "lon": -77.04444233333334, "type": "electric_scooter", "fusion_lat": 0.0, "lat": 38.918738833333336, "name": "3b5ed4b8958f5030e412efda3e26374d", "fusion_lon": 0.0, "bike_id": "3b5ed4b8958f5030e412efda3e26374d", "is_disabled": 0, "is_reserved": 0}, {"rental_uris": {"ios": "https://dc.lft.to/lastmile_qr_scan", "android": "https://dc.lft.to/lastmile_qr_scan"}, "lon": -77.07907, "type": "electric_bike", "fusion_lat": 0.0, "lat": 38.839331333333334, "name": "e307784fcccf8d13352ef2bbde8b1741", "fusion_lon": 0.0, "bike_id": "e307784fcccf8d13352ef2bbde8b1741", "is_disabled": 0, "is_reserved": 0}, {"rental_uris": {"ios": "https://dc.lft.to/lastmile_qr_scan", "android": "https://dc.lft.to/lastmile_qr_scan"}, "lon": -77.00778233333334, "type": "electric_scooter", "fusion_lat": 0.0, "lat": 38.87091866666667, "name": "077bd7d8b4b202f8b07cb9a6b490d633", "fusion_lon": 0.0, "bike_id": "077bd7d8b4b202f8b07cb9a6b490d633", "is_disabled": 0, "is_reserved": 0}, {"rental_uris": {"ios": "https://dc.lft.to/lastmile_qr_scan", "android": "https://dc.lft.to/lastmile_qr_scan"}, "lon": -77.1141655, "type": "electric_bike", "fusion_lat": 0.0, "lat": 38.842755333333336, "name": "801961159b8d90b001d7f1dbda5bd405", "fusion_lon": 0.0, "bike_id": "801961159b8d90b001d7f1dbda5bd405", "is_disabled": 0, "is_reserved": 0}, {"rental_uris": {"ios": "https://dc.lft.to/lastmile_qr_scan", "android": "https://dc.lft.to/lastmile_qr_scan"}, "lon": -77.02349033333333, "type": "electric_scooter", "fusion_lat": 0.0, "lat": 38.933854333333336, "name": "7e184f92937aa59f1506a5a238d62367", "fusion_lon": 0.0, "bike_id": "7e184f92937aa59f1506a5a238d62367", "is_disabled": 0, "is_reserved": 0}, {"rental_uris": {"ios": "https://dc.lft.to/lastmile_qr_scan", "android": "https://dc.lft.to/lastmile_qr_scan"}, "lon": -77.0508605, "type": "electric_bike", "fusion_lat": 0.0, "lat": 38.81322083333333, "name": "62e6840195748267ab2f441e5e8dc0fe", "fusion_lon": 0.0, "bike_id": "62e6840195748267ab2f441e5e8dc0fe", "is_disabled": 0, "is_reserved": 0}, {"rental_uris": {"ios": "https://dc.lft.to/lastmile_qr_scan", "android": "https://dc.lft.to/lastmile_qr_scan"}, "lon": -77.02352533333334, "type": "electric_scooter", "fusion_lat": 0.0, "lat": 38.93134633333333, "name": "673bb5b4270bb55682c99c50afaada01", "fusion_lon": 0.0, "bike_id": "673bb5b4270bb55682c99c50afaada01", "is_disabled": 0, "is_reserved": 0}, {"rental_uris": {"ios": "https://dc.lft.to/lastmile_qr_scan", "android": "https://dc.lft.to/lastmile_qr_scan"}, "lon": -77.01228633333334, "type": "electric_scooter", "fusion_lat": 0.0, "lat": 38.9132305, "name": "cc670100e0a3c1667346e0a2ac1424c7", "fusion_lon": 0.0, "bike_id": "cc670100e0a3c1667346e0a2ac1424c7", "is_disabled": 0, "is_reserved": 0}, {"rental_uris": {"ios": "https://dc.lft.to/lastmile_qr_scan", "android": "https://dc.lft.to/lastmile_qr_scan"}, "lon": -77.02972966666667, "type": "electric_scooter", "fusion_lat": 0.0, "lat": 38.895653833333334, "name": "19c800b30edadaffe5b9874b9584c9e4", "fusion_lon": 0.0, "bike_id": "19c800b30edadaffe5b9874b9584c9e4", "is_disabled": 0, "is_reserved": 0}, {"rental_uris": {"ios": "https://dc.lft.to/lastmile_qr_scan", "android": "https://dc.lft.to/lastmile_qr_scan"}, "lon": -77.015314, "type": "electric_scooter", "fusion_lat": 0.0, "lat": 38.88736566666667, "name": "b2b999e7abd74d1dd7ac9fb8df1d725e", "fusion_lon": 0.0, "bike_id": "b2b999e7abd74d1dd7ac9fb8df1d725e", "is_disabled": 0, "is_reserved": 0}, {"rental_uris": {"ios": "https://dc.lft.to/lastmile_qr_scan", "android": "https://dc.lft.to/lastmile_qr_scan"}, "lon": -76.9726175, "type": "electric_bike", "fusion_lat": 0.0, "lat": 38.91920966666667, "name": "c3b1b577bf4096e13ea6d20e97dade5f", "fusion_lon": 0.0, "bike_id": "c3b1b577bf4096e13ea6d20e97dade5f", "is_disabled": 0, "is_reserved": 0}, {"rental_uris": {"ios": "https://dc.lft.to/lastmile_qr_scan", "android": "https://dc.lft.to/lastmile_qr_scan"}, "lon": -77.02714283333333, "type": "electric_scooter", "fusion_lat": 0.0, "lat": 38.8813415, "name": "40704b875c7bc91285661384d3fbca33", "fusion_lon": 0.0, "bike_id": "40704b875c7bc91285661384d3fbca33", "is_disabled": 0, "is_reserved": 0}, {"rental_uris": {"ios": "https://dc.lft.to/lastmile_qr_scan", "android": "https://dc.lft.to/lastmile_qr_scan"}, "lon": -76.9362045, "type": "electric_bike", "fusion_lat": 0.0, "lat": 38.97051666666667, "name": "84f7e3f0123cc509bffa25610c998203", "fusion_lon": 0.0, "bike_id": "84f7e3f0123cc509bffa25610c998203", "is_disabled": 0, "is_reserved": 0}, {"rental_uris": {"ios": "https://dc.lft.to/lastmile_qr_scan", "android": "https://dc.lft.to/lastmile_qr_scan"}, "lon": -77.006111, "type": "electric_scooter", "fusion_lat": 0.0, "lat": 38.9064015, "name": "b7e49aa1eb0e97a5a90742f68b8f2258", "fusion_lon": 0.0, "bike_id": "b7e49aa1eb0e97a5a90742f68b8f2258", "is_disabled": 0, "is_reserved": 0}, {"rental_uris": {"ios": "https://dc.lft.to/lastmile_qr_scan", "android": "https://dc.lft.to/lastmile_qr_scan"}, "lon": -76.93193083333334, "type": "electric_scooter", "fusion_lat": 0.0, "lat": 38.889937833333335, "name": "500b385813365b48c87598fc26d1329a", "fusion_lon": 0.0, "bike_id": "500b385813365b48c87598fc26d1329a", "is_disabled": 0, "is_reserved": 0}, {"rental_uris": {"ios": "https://dc.lft.to/lastmile_qr_scan", "android": "https://dc.lft.to/lastmile_qr_scan"}, "lon": -77.008743, "type": "electric_scooter", "fusion_lat": 0.0, "lat": 38.9056435, "name": "c9ed2241b0cd1dc997f43924508d5537", "fusion_lon": 0.0, "bike_id": "c9ed2241b0cd1dc997f43924508d5537", "is_disabled": 0, "is_reserved": 0}, {"rental_uris": {"ios": "https://dc.lft.to/lastmile_qr_scan", "android": "https://dc.lft.to/lastmile_qr_scan"}, "lon": -77.01771666666667, "type": "electric_scooter", "fusion_lat": 0.0, "lat": 38.90376066666666, "name": "b404db7d26b72d119108fb6369425c2e", "fusion_lon": 0.0, "bike_id": "b404db7d26b72d119108fb6369425c2e", "is_disabled": 0, "is_reserved": 0}, {"rental_uris": {"ios": "https://dc.lft.to/lastmile_qr_scan", "android": "https://dc.lft.to/lastmile_qr_scan"}, "lon": -77.0150555, "type": "electric_scooter", "fusion_lat": 0.0, "lat": 38.90140616666667, "name": "c7cd4cc5e76a635fc69a466a52fc6279", "fusion_lon": 0.0, "bike_id": "c7cd4cc5e76a635fc69a466a52fc6279", "is_disabled": 0, "is_reserved": 0}, {"rental_uris": {"ios": "https://dc.lft.to/lastmile_qr_scan", "android": "https://dc.lft.to/lastmile_qr_scan"}, "lon": -77.075265, "type": "electric_scooter", "fusion_lat": 0.0, "lat": 38.908773833333335, "name": "78faebda2ca889bea619155379c12989", "fusion_lon": 0.0, "bike_id": "78faebda2ca889bea619155379c12989", "is_disabled": 0, "is_reserved": 0}, {"rental_uris": {"ios": "https://dc.lft.to/lastmile_qr_scan", "android": "https://dc.lft.to/lastmile_qr_scan"}, "lon": -77.02182066666667, "type": "electric_scooter", "fusion_lat": 0.0, "lat": 38.8924935, "name": "2a77cdf0739918f45668d3832dc9d953", "fusion_lon": 0.0, "bike_id": "2a77cdf0739918f45668d3832dc9d953", "is_disabled": 0, "is_reserved": 0}, {"rental_uris": {"ios": "https://dc.lft.to/lastmile_qr_scan", "android": "https://dc.lft.to/lastmile_qr_scan"}, "lon": -76.98703583333334, "type": "electric_scooter", "fusion_lat": 0.0, "lat": 38.90147016666667, "name": "48678fc4a065b61255b5ad7ea6d2d913", "fusion_lon": 0.0, "bike_id": "48678fc4a065b61255b5ad7ea6d2d913", "is_disabled": 0, "is_reserved": 0}, {"rental_uris": {"ios": "https://dc.lft.to/lastmile_qr_scan", "android": "https://dc.lft.to/lastmile_qr_scan"}, "lon": -76.97440233333333, "type": "electric_scooter", "fusion_lat": 0.0, "lat": 38.864244666666664, "name": "571d188786c20e80ab32be0f9cf42bff", "fusion_lon": 0.0, "bike_id": "571d188786c20e80ab32be0f9cf42bff", "is_disabled": 0, "is_reserved": 0}, {"rental_uris": {"ios": "https://dc.lft.to/lastmile_qr_scan", "android": "https://dc.lft.to/lastmile_qr_scan"}, "lon": -77.0298465, "type": "electric_scooter", "fusion_lat": 0.0, "lat": 38.92470816666667, "name": "26ddadd85798c34312a682cc2c9bbb4d", "fusion_lon": 0.0, "bike_id": "26ddadd85798c34312a682cc2c9bbb4d", "is_disabled": 0, "is_reserved": 0}, {"rental_uris": {"ios": "https://dc.lft.to/lastmile_qr_scan", "android": "https://dc.lft.to/lastmile_qr_scan"}, "lon": -77.03863283333334, "type": "electric_scooter", "fusion_lat": 0.0, "lat": 38.915508833333334, "name": "7a445602b74cf2af245702fea5bbabfc", "fusion_lon": 0.0, "bike_id": "7a445602b74cf2af245702fea5bbabfc", "is_disabled": 0, "is_reserved": 0}, {"rental_uris": {"ios": "https://dc.lft.to/lastmile_qr_scan", "android": "https://dc.lft.to/lastmile_qr_scan"}, "lon": -77.04036266666667, "type": "electric_scooter", "fusion_lat": 0.0, "lat": 38.91894166666667, "name": "c451ab924d1986ea40f30951638f9d84", "fusion_lon": 0.0, "bike_id": "c451ab924d1986ea40f30951638f9d84", "is_disabled": 0, "is_reserved": 0}, {"rental_uris": {"ios": "https://dc.lft.to/lastmile_qr_scan", "android": "https://dc.lft.to/lastmile_qr_scan"}, "lon": -77.04158266666667, "type": "electric_scooter", "fusion_lat": 0.0, "lat": 38.902317833333335, "name": "79c9df368bb37a4a044ba5fbd976b9eb", "fusion_lon": 0.0, "bike_id": "79c9df368bb37a4a044ba5fbd976b9eb", "is_disabled": 0, "is_reserved": 0}, {"rental_uris": {"ios": "https://dc.lft.to/lastmile_qr_scan", "android": "https://dc.lft.to/lastmile_qr_scan"}, "lon": -77.0417885, "type": "electric_scooter", "fusion_lat": 0.0, "lat": 38.91167866666667, "name": "a89831c166992197a1cc94ce8dc1e249", "fusion_lon": 0.0, "bike_id": "a89831c166992197a1cc94ce8dc1e249", "is_disabled": 0, "is_reserved": 0}, {"rental_uris": {"ios": "https://dc.lft.to/lastmile_qr_scan", "android": "https://dc.lft.to/lastmile_qr_scan"}, "lon": -76.97596266666666, "type": "electric_scooter", "fusion_lat": 0.0, "lat": 38.90331233333333, "name": "17eb467e872a9eb5b34ff9ff73c6a98e", "fusion_lon": 0.0, "bike_id": "17eb467e872a9eb5b34ff9ff73c6a98e", "is_disabled": 0, "is_reserved": 0}, {"rental_uris": {"ios": "https://dc.lft.to/lastmile_qr_scan", "android": "https://dc.lft.to/lastmile_qr_scan"}, "lon": -77.02599833333333, "type": "electric_scooter", "fusion_lat": 0.0, "lat": 38.887389, "name": "9444d7da36a7c7ba7e414bac83ad18ab", "fusion_lon": 0.0, "bike_id": "9444d7da36a7c7ba7e414bac83ad18ab", "is_disabled": 0, "is_reserved": 0}, {"rental_uris": {"ios": "https://dc.lft.to/lastmile_qr_scan", "android": "https://dc.lft.to/lastmile_qr_scan"}, "lon": -76.94623516666667, "type": "electric_bike", "fusion_lat": 0.0, "lat": 38.832342833333335, "name": "e37f42d178f8502d7525bf7214ecc91e", "fusion_lon": 0.0, "bike_id": "e37f42d178f8502d7525bf7214ecc91e", "is_disabled": 0, "is_reserved": 0}, {"rental_uris": {"ios": "https://dc.lft.to/lastmile_qr_scan", "android": "https://dc.lft.to/lastmile_qr_scan"}, "lon": -77.02399033333333, "type": "electric_scooter", "fusion_lat": 0.0, "lat": 38.91591116666667, "name": "4824c68dc9a7790679e8160b299bd47e", "fusion_lon": 0.0, "bike_id": "4824c68dc9a7790679e8160b299bd47e", "is_disabled": 0, "is_reserved": 0}, {"rental_uris": {"ios": "https://dc.lft.to/lastmile_qr_scan", "android": "https://dc.lft.to/lastmile_qr_scan"}, "lon": -77.0017475, "type": "electric_bike", "fusion_lat": 0.0, "lat": 38.908516166666665, "name": "47cfcbaf5dc75c8738b6d2dccb059dd8", "fusion_lon": 0.0, "bike_id": "47cfcbaf5dc75c8738b6d2dccb059dd8", "is_disabled": 0, "is_reserved": 0}, {"rental_uris": {"ios": "https://dc.lft.to/lastmile_qr_scan", "android": "https://dc.lft.to/lastmile_qr_scan"}, "lon": -77.0208455, "type": "electric_scooter", "fusion_lat": 0.0, "lat": 38.8849065, "name": "3b34b998cb5f058c93b9f1d45bdb117b", "fusion_lon": 0.0, "bike_id": "3b34b998cb5f058c93b9f1d45bdb117b", "is_disabled": 0, "is_reserved": 0}, {"rental_uris": {"ios": "https://dc.lft.to/lastmile_qr_scan", "android": "https://dc.lft.to/lastmile_qr_scan"}, "lon": -77.05128866666666, "type": "electric_scooter", "fusion_lat": 0.0, "lat": 38.89918766666667, "name": "c3798b3ac47a4b7d0a68fe5b56617579", "fusion_lon": 0.0, "bike_id": "c3798b3ac47a4b7d0a68fe5b56617579", "is_disabled": 0, "is_reserved": 0}, {"rental_uris": {"ios": "https://dc.lft.to/lastmile_qr_scan", "android": "https://dc.lft.to/lastmile_qr_scan"}, "lon": -77.0033995, "type": "electric_scooter", "fusion_lat": 0.0, "lat": 38.893555, "name": "a97efee25280c9973d571745a606dab6", "fusion_lon": 0.0, "bike_id": "a97efee25280c9973d571745a606dab6", "is_disabled": 0, "is_reserved": 0}, {"rental_uris": {"ios": "https://dc.lft.to/lastmile_qr_scan", "android": "https://dc.lft.to/lastmile_qr_scan"}, "lon": -77.04364933333333, "type": "electric_scooter", "fusion_lat": 0.0, "lat": 38.933328, "name": "6bf1b2b44dfc6eeac5f4f53ffc396655", "fusion_lon": 0.0, "bike_id": "6bf1b2b44dfc6eeac5f4f53ffc396655", "is_disabled": 0, "is_reserved": 0}, {"rental_uris": {"ios": "https://dc.lft.to/lastmile_qr_scan", "android": "https://dc.lft.to/lastmile_qr_scan"}, "lon": -77.0386815, "type": "electric_scooter", "fusion_lat": 0.0, "lat": 38.91255783333333, "name": "c452370e945cacb124c1acf3cd9d5b6f", "fusion_lon": 0.0, "bike_id": "c452370e945cacb124c1acf3cd9d5b6f", "is_disabled": 0, "is_reserved": 0}, {"rental_uris": {"ios": "https://dc.lft.to/lastmile_qr_scan", "android": "https://dc.lft.to/lastmile_qr_scan"}, "lon": -77.00339316666667, "type": "electric_bike", "fusion_lat": 0.0, "lat": 38.919783333333335, "name": "eaef1f822fbae9461ef49a1ccb6b679a", "fusion_lon": 0.0, "bike_id": "eaef1f822fbae9461ef49a1ccb6b679a", "is_disabled": 0, "is_reserved": 0}, {"rental_uris": {"ios": "https://dc.lft.to/lastmile_qr_scan", "android": "https://dc.lft.to/lastmile_qr_scan"}, "lon": -77.06675, "type": "electric_scooter", "fusion_lat": 0.0, "lat": 38.91405683333333, "name": "7ca154d2fd48537718cf87a0d95c1ac5", "fusion_lon": 0.0, "bike_id": "7ca154d2fd48537718cf87a0d95c1ac5", "is_disabled": 0, "is_reserved": 0}, {"rental_uris": {"ios": "https://dc.lft.to/lastmile_qr_scan", "android": "https://dc.lft.to/lastmile_qr_scan"}, "lon": -77.06599766666666, "type": "electric_scooter", "fusion_lat": 0.0, "lat": 38.90527566666667, "name": "0c2fa7fe083a36cf42bd94dfea242c5f", "fusion_lon": 0.0, "bike_id": "0c2fa7fe083a36cf42bd94dfea242c5f", "is_disabled": 0, "is_reserved": 0}, {"rental_uris": {"ios": "https://dc.lft.to/lastmile_qr_scan", "android": "https://dc.lft.to/lastmile_qr_scan"}, "lon": -77.01531016666667, "type": "electric_scooter", "fusion_lat": 0.0, "lat": 38.872705833333335, "name": "c07106d4625153c991762158098cd099", "fusion_lon": 0.0, "bike_id": "c07106d4625153c991762158098cd099", "is_disabled": 0, "is_reserved": 0}, {"rental_uris": {"ios": "https://dc.lft.to/lastmile_qr_scan", "android": "https://dc.lft.to/lastmile_qr_scan"}, "lon": -77.044057, "type": "electric_scooter", "fusion_lat": 0.0, "lat": 38.91085966666667, "name": "50ede01ba5d60723d59d9a8fecbd1c8d", "fusion_lon": 0.0, "bike_id": "50ede01ba5d60723d59d9a8fecbd1c8d", "is_disabled": 0, "is_reserved": 0}, {"rental_uris": {"ios": "https://dc.lft.to/lastmile_qr_scan", "android": "https://dc.lft.to/lastmile_qr_scan"}, "lon": -77.05227933333333, "type": "electric_scooter", "fusion_lat": 0.0, "lat": 38.8981725, "name": "b063b644b64ca2d1c26304a08ec095db", "fusion_lon": 0.0, "bike_id": "b063b644b64ca2d1c26304a08ec095db", "is_disabled": 0, "is_reserved": 0}, {"rental_uris": {"ios": "https://dc.lft.to/lastmile_qr_scan", "android": "https://dc.lft.to/lastmile_qr_scan"}, "lon": -77.01153816666667, "type": "electric_scooter", "fusion_lat": 0.0, "lat": 38.9002085, "name": "55270494cdcc19caf70221a32a2bc206", "fusion_lon": 0.0, "bike_id": "55270494cdcc19caf70221a32a2bc206", "is_disabled": 0, "is_reserved": 0}, {"rental_uris": {"ios": "https://dc.lft.to/lastmile_qr_scan", "android": "https://dc.lft.to/lastmile_qr_scan"}, "lon": -77.0007875, "type": "electric_scooter", "fusion_lat": 0.0, "lat": 38.90043166666667, "name": "b7d466bf33539ab69e2f0ea30fc3745c", "fusion_lon": 0.0, "bike_id": "b7d466bf33539ab69e2f0ea30fc3745c", "is_disabled": 0, "is_reserved": 0}, {"rental_uris": {"ios": "https://dc.lft.to/lastmile_qr_scan", "android": "https://dc.lft.to/lastmile_qr_scan"}, "lon": -77.044754, "type": "electric_scooter", "fusion_lat": 0.0, "lat": 38.906676166666664, "name": "8611094a61695c9c6e0d8c3219ec2bfa", "fusion_lon": 0.0, "bike_id": "8611094a61695c9c6e0d8c3219ec2bfa", "is_disabled": 0, "is_reserved": 0}, {"rental_uris": {"ios": "https://dc.lft.to/lastmile_qr_scan", "android": "https://dc.lft.to/lastmile_qr_scan"}, "lon": -77.03255383333334, "type": "electric_scooter", "fusion_lat": 0.0, "lat": 38.92164916666667, "name": "cc6b76329a446b04153ae9022bb44a6d", "fusion_lon": 0.0, "bike_id": "cc6b76329a446b04153ae9022bb44a6d", "is_disabled": 0, "is_reserved": 0}, {"rental_uris": {"ios": "https://dc.lft.to/lastmile_qr_scan", "android": "https://dc.lft.to/lastmile_qr_scan"}, "lon": -76.98829683333334, "type": "electric_scooter", "fusion_lat": 0.0, "lat": 38.880234333333334, "name": "ade8f342d8a3f919e0f9da7587133ffe", "fusion_lon": 0.0, "bike_id": "ade8f342d8a3f919e0f9da7587133ffe", "is_disabled": 0, "is_reserved": 0}, {"rental_uris": {"ios": "https://dc.lft.to/lastmile_qr_scan", "android": "https://dc.lft.to/lastmile_qr_scan"}, "lon": -77.03205833333334, "type": "electric_scooter", "fusion_lat": 0.0, "lat": 38.88694066666667, "name": "48bb4fae00d69f37b083c5c1321d229d", "fusion_lon": 0.0, "bike_id": "48bb4fae00d69f37b083c5c1321d229d", "is_disabled": 0, "is_reserved": 0}, {"rental_uris": {"ios": "https://dc.lft.to/lastmile_qr_scan", "android": "https://dc.lft.to/lastmile_qr_scan"}, "lon": -77.02414933333333, "type": "electric_scooter", "fusion_lat": 0.0, "lat": 38.884911, "name": "599824f8f4af20b6bb611cf911f983b9", "fusion_lon": 0.0, "bike_id": "599824f8f4af20b6bb611cf911f983b9", "is_disabled": 0, "is_reserved": 0}, {"rental_uris": {"ios": "https://dc.lft.to/lastmile_qr_scan", "android": "https://dc.lft.to/lastmile_qr_scan"}, "lon": -77.0366985, "type": "electric_scooter", "fusion_lat": 0.0, "lat": 38.91806833333333, "name": "4a4848e4c81a05185260885269fd6251", "fusion_lon": 0.0, "bike_id": "4a4848e4c81a05185260885269fd6251", "is_disabled": 0, "is_reserved": 0}, {"rental_uris": {"ios": "https://dc.lft.to/lastmile_qr_scan", "android": "https://dc.lft.to/lastmile_qr_scan"}, "lon": -77.0468075, "type": "electric_scooter", "fusion_lat": 0.0, "lat": 38.89726433333333, "name": "25e41153f1c3df1d5d57a793e6c5d497", "fusion_lon": 0.0, "bike_id": "25e41153f1c3df1d5d57a793e6c5d497", "is_disabled": 0, "is_reserved": 0}, {"rental_uris": {"ios": "https://dc.lft.to/lastmile_qr_scan", "android": "https://dc.lft.to/lastmile_qr_scan"}, "lon": -77.03359833333333, "type": "electric_scooter", "fusion_lat": 0.0, "lat": 38.89972566666667, "name": "8fc86536110c1b5a883a31b4fe0d6fc5", "fusion_lon": 0.0, "bike_id": "8fc86536110c1b5a883a31b4fe0d6fc5", "is_disabled": 0, "is_reserved": 0}, {"rental_uris": {"ios": "https://dc.lft.to/lastmile_qr_scan", "android": "https://dc.lft.to/lastmile_qr_scan"}, "lon": -77.03666816666667, "type": "electric_scooter", "fusion_lat": 0.0, "lat": 38.9180795, "name": "205213685b91a77935d7e3c84c0c6bc4", "fusion_lon": 0.0, "bike_id": "205213685b91a77935d7e3c84c0c6bc4", "is_disabled": 0, "is_reserved": 0}, {"rental_uris": {"ios": "https://dc.lft.to/lastmile_qr_scan", "android": "https://dc.lft.to/lastmile_qr_scan"}, "lon": -77.03856183333333, "type": "electric_scooter", "fusion_lat": 0.0, "lat": 38.912064, "name": "9ce3d6e68b8fbe0ed00b5563339b474b", "fusion_lon": 0.0, "bike_id": "9ce3d6e68b8fbe0ed00b5563339b474b", "is_disabled": 0, "is_reserved": 0}, {"rental_uris": {"ios": "https://dc.lft.to/lastmile_qr_scan", "android": "https://dc.lft.to/lastmile_qr_scan"}, "lon": -77.0059615, "type": "electric_scooter", "fusion_lat": 0.0, "lat": 38.90565483333334, "name": "8a906db8d7409bd6df194658ccc150f3", "fusion_lon": 0.0, "bike_id": "8a906db8d7409bd6df194658ccc150f3", "is_disabled": 0, "is_reserved": 0}, {"rental_uris": {"ios": "https://dc.lft.to/lastmile_qr_scan", "android": "https://dc.lft.to/lastmile_qr_scan"}, "lon": -76.98689433333334, "type": "electric_scooter", "fusion_lat": 0.0, "lat": 38.912861166666666, "name": "f30902d57caaae2267644573a7516018", "fusion_lon": 0.0, "bike_id": "f30902d57caaae2267644573a7516018", "is_disabled": 0, "is_reserved": 0}, {"rental_uris": {"ios": "https://dc.lft.to/lastmile_qr_scan", "android": "https://dc.lft.to/lastmile_qr_scan"}, "lon": -77.0320945, "type": "electric_scooter", "fusion_lat": 0.0, "lat": 38.92580433333333, "name": "884736e5a769122e7697727815dbf06c", "fusion_lon": 0.0, "bike_id": "884736e5a769122e7697727815dbf06c", "is_disabled": 0, "is_reserved": 0}, {"rental_uris": {"ios": "https://dc.lft.to/lastmile_qr_scan", "android": "https://dc.lft.to/lastmile_qr_scan"}, "lon": -77.11315483333334, "type": "electric_bike", "fusion_lat": 0.0, "lat": 38.855636, "name": "70cca65027af3545963b7480f9ed2413", "fusion_lon": 0.0, "bike_id": "70cca65027af3545963b7480f9ed2413", "is_disabled": 0, "is_reserved": 0}, {"rental_uris": {"ios": "https://dc.lft.to/lastmile_qr_scan", "android": "https://dc.lft.to/lastmile_qr_scan"}, "lon": -77.01088783333333, "type": "electric_scooter", "fusion_lat": 0.0, "lat": 38.893975166666664, "name": "50b0e077570edb5acbb65a31b963d368", "fusion_lon": 0.0, "bike_id": "50b0e077570edb5acbb65a31b963d368", "is_disabled": 0, "is_reserved": 0}, {"rental_uris": {"ios": "https://dc.lft.to/lastmile_qr_scan", "android": "https://dc.lft.to/lastmile_qr_scan"}, "lon": -77.068805, "type": "electric_scooter", "fusion_lat": 0.0, "lat": 38.9051765, "name": "fb1e0c5dadc66170019c89eae67af91d", "fusion_lon": 0.0, "bike_id": "fb1e0c5dadc66170019c89eae67af91d", "is_disabled": 0, "is_reserved": 0}, {"rental_uris": {"ios": "https://dc.lft.to/lastmile_qr_scan", "android": "https://dc.lft.to/lastmile_qr_scan"}, "lon": -77.02998616666666, "type": "electric_bike", "fusion_lat": 0.0, "lat": 38.900299, "name": "dd2a2bdec11194038d6cd83032f1ec5d", "fusion_lon": 0.0, "bike_id": "dd2a2bdec11194038d6cd83032f1ec5d", "is_disabled": 0, "is_reserved": 0}, {"rental_uris": {"ios": "https://dc.lft.to/lastmile_qr_scan", "android": "https://dc.lft.to/lastmile_qr_scan"}, "lon": -77.04012733333333, "type": "electric_scooter", "fusion_lat": 0.0, "lat": 38.900142, "name": "64347f121c3f1fb4a49a68542139def1", "fusion_lon": 0.0, "bike_id": "64347f121c3f1fb4a49a68542139def1", "is_disabled": 0, "is_reserved": 0}, {"rental_uris": {"ios": "https://dc.lft.to/lastmile_qr_scan", "android": "https://dc.lft.to/lastmile_qr_scan"}, "lon": -77.00459133333334, "type": "electric_scooter", "fusion_lat": 0.0, "lat": 38.91196216666667, "name": "6d9d711ea91b4d4bf364c35ec1081a4f", "fusion_lon": 0.0, "bike_id": "6d9d711ea91b4d4bf364c35ec1081a4f", "is_disabled": 0, "is_reserved": 0}, {"rental_uris": {"ios": "https://dc.lft.to/lastmile_qr_scan", "android": "https://dc.lft.to/lastmile_qr_scan"}, "lon": -76.978177, "type": "electric_scooter", "fusion_lat": 0.0, "lat": 38.895187, "name": "6ece3bb45729da23673102046eeec44b", "fusion_lon": 0.0, "bike_id": "6ece3bb45729da23673102046eeec44b", "is_disabled": 0, "is_reserved": 0}, {"rental_uris": {"ios": "https://dc.lft.to/lastmile_qr_scan", "android": "https://dc.lft.to/lastmile_qr_scan"}, "lon": -76.990231, "type": "electric_scooter", "fusion_lat": 0.0, "lat": 38.85867983333333, "name": "32bb495c11a66bd8fcd618f134056980", "fusion_lon": 0.0, "bike_id": "32bb495c11a66bd8fcd618f134056980", "is_disabled": 0, "is_reserved": 0}, {"rental_uris": {"ios": "https://dc.lft.to/lastmile_qr_scan", "android": "https://dc.lft.to/lastmile_qr_scan"}, "lon": -77.01746666666666, "type": "electric_scooter", "fusion_lat": 0.0, "lat": 38.8772445, "name": "6b461b974d56d4cc4d300630a1405038", "fusion_lon": 0.0, "bike_id": "6b461b974d56d4cc4d300630a1405038", "is_disabled": 0, "is_reserved": 0}, {"rental_uris": {"ios": "https://dc.lft.to/lastmile_qr_scan", "android": "https://dc.lft.to/lastmile_qr_scan"}, "lon": -77.01756133333333, "type": "electric_scooter", "fusion_lat": 0.0, "lat": 38.90565616666667, "name": "c6faadbedeee83c510cf40e2fb4beee1", "fusion_lon": 0.0, "bike_id": "c6faadbedeee83c510cf40e2fb4beee1", "is_disabled": 0, "is_reserved": 0}, {"rental_uris": {"ios": "https://dc.lft.to/lastmile_qr_scan", "android": "https://dc.lft.to/lastmile_qr_scan"}, "lon": -77.02584683333333, "type": "electric_scooter", "fusion_lat": 0.0, "lat": 38.92034683333333, "name": "194c8509d02e51fe01286d333ae58264", "fusion_lon": 0.0, "bike_id": "194c8509d02e51fe01286d333ae58264", "is_disabled": 0, "is_reserved": 0}, {"rental_uris": {"ios": "https://dc.lft.to/lastmile_qr_scan", "android": "https://dc.lft.to/lastmile_qr_scan"}, "lon": -77.04296266666667, "type": "electric_scooter", "fusion_lat": 0.0, "lat": 38.92302883333333, "name": "a6861dccaa30952fdac7b7fa64fe9f3f", "fusion_lon": 0.0, "bike_id": "a6861dccaa30952fdac7b7fa64fe9f3f", "is_disabled": 0, "is_reserved": 0}, {"rental_uris": {"ios": "https://dc.lft.to/lastmile_qr_scan", "android": "https://dc.lft.to/lastmile_qr_scan"}, "lon": -77.03620016666666, "type": "electric_scooter", "fusion_lat": 0.0, "lat": 38.93741083333333, "name": "c0afaf141b5a9103c27cd22969cc5b60", "fusion_lon": 0.0, "bike_id": "c0afaf141b5a9103c27cd22969cc5b60", "is_disabled": 0, "is_reserved": 0}, {"rental_uris": {"ios": "https://dc.lft.to/lastmile_qr_scan", "android": "https://dc.lft.to/lastmile_qr_scan"}, "lon": -77.01859666666667, "type": "electric_scooter", "fusion_lat": 0.0, "lat": 38.89264816666667, "name": "1e9f21ed96480de67c28189b7d1c84a7", "fusion_lon": 0.0, "bike_id": "1e9f21ed96480de67c28189b7d1c84a7", "is_disabled": 0, "is_reserved": 0}, {"rental_uris": {"ios": "https://dc.lft.to/lastmile_qr_scan", "android": "https://dc.lft.to/lastmile_qr_scan"}, "lon": -77.18292816666667, "type": "electric_bike", "fusion_lat": 0.0, "lat": 38.883417333333334, "name": "18591a67ef4ab03e3f9276923903ffac", "fusion_lon": 0.0, "bike_id": "18591a67ef4ab03e3f9276923903ffac", "is_disabled": 0, "is_reserved": 0}, {"rental_uris": {"ios": "https://dc.lft.to/lastmile_qr_scan", "android": "https://dc.lft.to/lastmile_qr_scan"}, "lon": -77.025481, "type": "electric_scooter", "fusion_lat": 0.0, "lat": 38.892218666666665, "name": "8318156f52fd0b5f3133219c977e2439", "fusion_lon": 0.0, "bike_id": "8318156f52fd0b5f3133219c977e2439", "is_disabled": 0, "is_reserved": 0}, {"rental_uris": {"ios": "https://dc.lft.to/lastmile_qr_scan", "android": "https://dc.lft.to/lastmile_qr_scan"}, "lon": -77.0635125, "type": "electric_scooter", "fusion_lat": 0.0, "lat": 38.944509333333336, "name": "0fe511f4c4c5f32ebdf371e00943873c", "fusion_lon": 0.0, "bike_id": "0fe511f4c4c5f32ebdf371e00943873c", "is_disabled": 0, "is_reserved": 0}, {"rental_uris": {"ios": "https://dc.lft.to/lastmile_qr_scan", "android": "https://dc.lft.to/lastmile_qr_scan"}, "lon": -77.03303483333333, "type": "electric_scooter", "fusion_lat": 0.0, "lat": 38.9012835, "name": "3d2d1f27971c6ea56df45ca00ccedfc6", "fusion_lon": 0.0, "bike_id": "3d2d1f27971c6ea56df45ca00ccedfc6", "is_disabled": 0, "is_reserved": 0}, {"rental_uris": {"ios": "https://dc.lft.to/lastmile_qr_scan", "android": "https://dc.lft.to/lastmile_qr_scan"}, "lon": -77.06382283333333, "type": "electric_scooter", "fusion_lat": 0.0, "lat": 38.90509983333333, "name": "94a31b763420b62a46d6aa3608946d1e", "fusion_lon": 0.0, "bike_id": "94a31b763420b62a46d6aa3608946d1e", "is_disabled": 0, "is_reserved": 0}, {"rental_uris": {"ios": "https://dc.lft.to/lastmile_qr_scan", "android": "https://dc.lft.to/lastmile_qr_scan"}, "lon": -77.03897666666667, "type": "electric_scooter", "fusion_lat": 0.0, "lat": 38.908053333333335, "name": "2bddb25bb87a5302d3aaa6ad7ba4a2d4", "fusion_lon": 0.0, "bike_id": "2bddb25bb87a5302d3aaa6ad7ba4a2d4", "is_disabled": 0, "is_reserved": 0}, {"rental_uris": {"ios": "https://dc.lft.to/lastmile_qr_scan", "android": "https://dc.lft.to/lastmile_qr_scan"}, "lon": -77.03914316666666, "type": "electric_scooter", "fusion_lat": 0.0, "lat": 38.918330833333336, "name": "4872a93df63011467e0e994f3fa46230", "fusion_lon": 0.0, "bike_id": "4872a93df63011467e0e994f3fa46230", "is_disabled": 0, "is_reserved": 0}, {"rental_uris": {"ios": "https://dc.lft.to/lastmile_qr_scan", "android": "https://dc.lft.to/lastmile_qr_scan"}, "lon": -77.046811, "type": "electric_scooter", "fusion_lat": 0.0, "lat": 38.89733066666667, "name": "ddcb1cf764b7c20fb6d5a8a060b1afea", "fusion_lon": 0.0, "bike_id": "ddcb1cf764b7c20fb6d5a8a060b1afea", "is_disabled": 0, "is_reserved": 0}, {"rental_uris": {"ios": "https://dc.lft.to/lastmile_qr_scan", "android": "https://dc.lft.to/lastmile_qr_scan"}, "lon": -77.00032183333333, "type": "electric_scooter", "fusion_lat": 0.0, "lat": 38.908433333333335, "name": "1f845d0c8673d3b21005bdc0997b200e", "fusion_lon": 0.0, "bike_id": "1f845d0c8673d3b21005bdc0997b200e", "is_disabled": 0, "is_reserved": 0}, {"rental_uris": {"ios": "https://dc.lft.to/lastmile_qr_scan", "android": "https://dc.lft.to/lastmile_qr_scan"}, "lon": -77.02851316666667, "type": "electric_scooter", "fusion_lat": 0.0, "lat": 38.93419516666667, "name": "3d4c9422c23b0e0a6f31dede06042fb1", "fusion_lon": 0.0, "bike_id": "3d4c9422c23b0e0a6f31dede06042fb1", "is_disabled": 0, "is_reserved": 0}, {"rental_uris": {"ios": "https://dc.lft.to/lastmile_qr_scan", "android": "https://dc.lft.to/lastmile_qr_scan"}, "lon": -77.01379516666667, "type": "electric_scooter", "fusion_lat": 0.0, "lat": 38.928805833333335, "name": "a26e0ee19d68516ede5e50e0daa69ad3", "fusion_lon": 0.0, "bike_id": "a26e0ee19d68516ede5e50e0daa69ad3", "is_disabled": 0, "is_reserved": 0}, {"rental_uris": {"ios": "https://dc.lft.to/lastmile_qr_scan", "android": "https://dc.lft.to/lastmile_qr_scan"}, "lon": -77.03601516666667, "type": "electric_scooter", "fusion_lat": 0.0, "lat": 38.9347405, "name": "0a16cbc78a98a94e8a8a003ed1a01775", "fusion_lon": 0.0, "bike_id": "0a16cbc78a98a94e8a8a003ed1a01775", "is_disabled": 0, "is_reserved": 0}, {"rental_uris": {"ios": "https://dc.lft.to/lastmile_qr_scan", "android": "https://dc.lft.to/lastmile_qr_scan"}, "lon": -77.0454755, "type": "electric_scooter", "fusion_lat": 0.0, "lat": 38.934050166666665, "name": "2a9a9d270b25609d2d53a9a2af730de9", "fusion_lon": 0.0, "bike_id": "2a9a9d270b25609d2d53a9a2af730de9", "is_disabled": 0, "is_reserved": 0}, {"rental_uris": {"ios": "https://dc.lft.to/lastmile_qr_scan", "android": "https://dc.lft.to/lastmile_qr_scan"}, "lon": -77.03130516666667, "type": "electric_scooter", "fusion_lat": 0.0, "lat": 38.906674833333334, "name": "7721625583bbcfbb005910833215cb4b", "fusion_lon": 0.0, "bike_id": "7721625583bbcfbb005910833215cb4b", "is_disabled": 0, "is_reserved": 0}, {"rental_uris": {"ios": "https://dc.lft.to/lastmile_qr_scan", "android": "https://dc.lft.to/lastmile_qr_scan"}, "lon": -77.02007016666667, "type": "electric_scooter", "fusion_lat": 0.0, "lat": 38.913110833333334, "name": "141636d413fa504b8af53d676d964b59", "fusion_lon": 0.0, "bike_id": "141636d413fa504b8af53d676d964b59", "is_disabled": 0, "is_reserved": 0}, {"rental_uris": {"ios": "https://dc.lft.to/lastmile_qr_scan", "android": "https://dc.lft.to/lastmile_qr_scan"}, "lon": -77.0061995, "type": "electric_scooter", "fusion_lat": 0.0, "lat": 38.9024585, "name": "1b0e2631a8d0857424a317b15534916b", "fusion_lon": 0.0, "bike_id": "1b0e2631a8d0857424a317b15534916b", "is_disabled": 0, "is_reserved": 0}, {"rental_uris": {"ios": "https://dc.lft.to/lastmile_qr_scan", "android": "https://dc.lft.to/lastmile_qr_scan"}, "lon": -77.027091, "type": "electric_scooter", "fusion_lat": 0.0, "lat": 38.94995483333334, "name": "3c5b15bd257f488830bec162a5db1d5f", "fusion_lon": 0.0, "bike_id": "3c5b15bd257f488830bec162a5db1d5f", "is_disabled": 0, "is_reserved": 0}, {"rental_uris": {"ios": "https://dc.lft.to/lastmile_qr_scan", "android": "https://dc.lft.to/lastmile_qr_scan"}, "lon": -76.98977, "type": "electric_scooter", "fusion_lat": 0.0, "lat": 38.90246966666667, "name": "58248f64e8573e05e3c1bdc680dc0a5e", "fusion_lon": 0.0, "bike_id": "58248f64e8573e05e3c1bdc680dc0a5e", "is_disabled": 0, "is_reserved": 0}, {"rental_uris": {"ios": "https://dc.lft.to/lastmile_qr_scan", "android": "https://dc.lft.to/lastmile_qr_scan"}, "lon": -76.94635483333333, "type": "electric_scooter", "fusion_lat": 0.0, "lat": 38.898309166666664, "name": "0e571fda7b63c61304f8a170ee52f45b", "fusion_lon": 0.0, "bike_id": "0e571fda7b63c61304f8a170ee52f45b", "is_disabled": 0, "is_reserved": 0}, {"rental_uris": {"ios": "https://dc.lft.to/lastmile_qr_scan", "android": "https://dc.lft.to/lastmile_qr_scan"}, "lon": -77.018201, "type": "electric_scooter", "fusion_lat": 0.0, "lat": 38.90812966666667, "name": "09979e1ce14f17f040cde916163faa6c", "fusion_lon": 0.0, "bike_id": "09979e1ce14f17f040cde916163faa6c", "is_disabled": 0, "is_reserved": 0}, {"rental_uris": {"ios": "https://dc.lft.to/lastmile_qr_scan", "android": "https://dc.lft.to/lastmile_qr_scan"}, "lon": -77.0231585, "type": "electric_scooter", "fusion_lat": 0.0, "lat": 38.88731466666667, "name": "037b657b40316ad2ca25a2cfcc92c50b", "fusion_lon": 0.0, "bike_id": "037b657b40316ad2ca25a2cfcc92c50b", "is_disabled": 0, "is_reserved": 0}, {"rental_uris": {"ios": "https://dc.lft.to/lastmile_qr_scan", "android": "https://dc.lft.to/lastmile_qr_scan"}, "lon": -76.97609533333333, "type": "electric_bike", "fusion_lat": 0.0, "lat": 38.91314333333333, "name": "d955095c8be9ed7ba7f1d79b8f67000f", "fusion_lon": 0.0, "bike_id": "d955095c8be9ed7ba7f1d79b8f67000f", "is_disabled": 0, "is_reserved": 0}, {"rental_uris": {"ios": "https://dc.lft.to/lastmile_qr_scan", "android": "https://dc.lft.to/lastmile_qr_scan"}, "lon": -77.004361, "type": "electric_scooter", "fusion_lat": 0.0, "lat": 38.876976166666665, "name": "513800c43b04621c83a4572b68cb525c", "fusion_lon": 0.0, "bike_id": "513800c43b04621c83a4572b68cb525c", "is_disabled": 0, "is_reserved": 0}, {"rental_uris": {"ios": "https://dc.lft.to/lastmile_qr_scan", "android": "https://dc.lft.to/lastmile_qr_scan"}, "lon": -77.050373, "type": "electric_scooter", "fusion_lat": 0.0, "lat": 38.9009285, "name": "853f5caf70831b3d2130729cdb013e7d", "fusion_lon": 0.0, "bike_id": "853f5caf70831b3d2130729cdb013e7d", "is_disabled": 0, "is_reserved": 0}, {"rental_uris": {"ios": "https://dc.lft.to/lastmile_qr_scan", "android": "https://dc.lft.to/lastmile_qr_scan"}, "lon": -77.00246383333334, "type": "electric_bike", "fusion_lat": 0.0, "lat": 38.911838833333334, "name": "78c99654c4b144b451fbb5b9dd464111", "fusion_lon": 0.0, "bike_id": "78c99654c4b144b451fbb5b9dd464111", "is_disabled": 0, "is_reserved": 0}, {"rental_uris": {"ios": "https://dc.lft.to/lastmile_qr_scan", "android": "https://dc.lft.to/lastmile_qr_scan"}, "lon": -77.043919, "type": "electric_scooter", "fusion_lat": 0.0, "lat": 38.92275266666667, "name": "9730139b694443a5d1c19724331b5a5b", "fusion_lon": 0.0, "bike_id": "9730139b694443a5d1c19724331b5a5b", "is_disabled": 0, "is_reserved": 0}, {"rental_uris": {"ios": "https://dc.lft.to/lastmile_qr_scan", "android": "https://dc.lft.to/lastmile_qr_scan"}, "lon": -76.99033483333334, "type": "electric_scooter", "fusion_lat": 0.0, "lat": 38.85866033333333, "name": "7d5348e85c40221132e8c2289c163ffa", "fusion_lon": 0.0, "bike_id": "7d5348e85c40221132e8c2289c163ffa", "is_disabled": 0, "is_reserved": 0}, {"rental_uris": {"ios": "https://dc.lft.to/lastmile_qr_scan", "android": "https://dc.lft.to/lastmile_qr_scan"}, "lon": -77.015204, "type": "electric_scooter", "fusion_lat": 0.0, "lat": 38.918634833333336, "name": "e954fde1b5890e828c8f799a0452160f", "fusion_lon": 0.0, "bike_id": "e954fde1b5890e828c8f799a0452160f", "is_disabled": 0, "is_reserved": 0}, {"rental_uris": {"ios": "https://dc.lft.to/lastmile_qr_scan", "android": "https://dc.lft.to/lastmile_qr_scan"}, "lon": -76.97187183333334, "type": "electric_scooter", "fusion_lat": 0.0, "lat": 38.91261266666667, "name": "88db9a4343a0429cb721bdc6bde51e57", "fusion_lon": 0.0, "bike_id": "88db9a4343a0429cb721bdc6bde51e57", "is_disabled": 0, "is_reserved": 0}, {"rental_uris": {"ios": "https://dc.lft.to/lastmile_qr_scan", "android": "https://dc.lft.to/lastmile_qr_scan"}, "lon": -77.06690683333333, "type": "electric_scooter", "fusion_lat": 0.0, "lat": 38.90969533333333, "name": "8fea9a508d36ff4e80e5005f0560158a", "fusion_lon": 0.0, "bike_id": "8fea9a508d36ff4e80e5005f0560158a", "is_disabled": 0, "is_reserved": 0}, {"rental_uris": {"ios": "https://dc.lft.to/lastmile_qr_scan", "android": "https://dc.lft.to/lastmile_qr_scan"}, "lon": -77.02002583333334, "type": "electric_scooter", "fusion_lat": 0.0, "lat": 38.892474, "name": "46c92e6fdfdc3a995e551427ec5ff6b3", "fusion_lon": 0.0, "bike_id": "46c92e6fdfdc3a995e551427ec5ff6b3", "is_disabled": 0, "is_reserved": 0}, {"rental_uris": {"ios": "https://dc.lft.to/lastmile_qr_scan", "android": "https://dc.lft.to/lastmile_qr_scan"}, "lon": -77.03120316666667, "type": "electric_scooter", "fusion_lat": 0.0, "lat": 38.91109983333333, "name": "08d966fed8cead3e44523f642f562051", "fusion_lon": 0.0, "bike_id": "08d966fed8cead3e44523f642f562051", "is_disabled": 0, "is_reserved": 0}, {"rental_uris": {"ios": "https://dc.lft.to/lastmile_qr_scan", "android": "https://dc.lft.to/lastmile_qr_scan"}, "lon": -77.044825, "type": "electric_scooter", "fusion_lat": 0.0, "lat": 38.9065965, "name": "8ff5accb731b98b79433c96b69825275", "fusion_lon": 0.0, "bike_id": "8ff5accb731b98b79433c96b69825275", "is_disabled": 0, "is_reserved": 0}, {"rental_uris": {"ios": "https://dc.lft.to/lastmile_qr_scan", "android": "https://dc.lft.to/lastmile_qr_scan"}, "lon": -77.03646733333333, "type": "electric_scooter", "fusion_lat": 0.0, "lat": 38.9291825, "name": "e589cf49dbd0b46111674eadb628e800", "fusion_lon": 0.0, "bike_id": "e589cf49dbd0b46111674eadb628e800", "is_disabled": 0, "is_reserved": 0}, {"rental_uris": {"ios": "https://dc.lft.to/lastmile_qr_scan", "android": "https://dc.lft.to/lastmile_qr_scan"}, "lon": -77.01253266666667, "type": "electric_scooter", "fusion_lat": 0.0, "lat": 38.8996335, "name": "fa79aa7b44fc6443e558a136d13baf33", "fusion_lon": 0.0, "bike_id": "fa79aa7b44fc6443e558a136d13baf33", "is_disabled": 0, "is_reserved": 0}, {"rental_uris": {"ios": "https://dc.lft.to/lastmile_qr_scan", "android": "https://dc.lft.to/lastmile_qr_scan"}, "lon": -77.13595783333334, "type": "electric_bike", "fusion_lat": 0.0, "lat": 39.05345766666667, "name": "0674a7769f2bd6100ae7ae160f6ed914", "fusion_lon": 0.0, "bike_id": "0674a7769f2bd6100ae7ae160f6ed914", "is_disabled": 0, "is_reserved": 0}, {"rental_uris": {"ios": "https://dc.lft.to/lastmile_qr_scan", "android": "https://dc.lft.to/lastmile_qr_scan"}, "lon": -77.01442033333333, "type": "electric_scooter", "fusion_lat": 0.0, "lat": 38.87766633333333, "name": "4444584f1047102a50b243e3aa0c6744", "fusion_lon": 0.0, "bike_id": "4444584f1047102a50b243e3aa0c6744", "is_disabled": 0, "is_reserved": 0}, {"rental_uris": {"ios": "https://dc.lft.to/lastmile_qr_scan", "android": "https://dc.lft.to/lastmile_qr_scan"}, "lon": -77.02937683333333, "type": "electric_scooter", "fusion_lat": 0.0, "lat": 38.92058266666667, "name": "7dec902e385d5e7587b9fe97d8d98777", "fusion_lon": 0.0, "bike_id": "7dec902e385d5e7587b9fe97d8d98777", "is_disabled": 0, "is_reserved": 0}, {"rental_uris": {"ios": "https://dc.lft.to/lastmile_qr_scan", "android": "https://dc.lft.to/lastmile_qr_scan"}, "lon": -77.04303983333334, "type": "electric_scooter", "fusion_lat": 0.0, "lat": 38.922512166666664, "name": "f1f135aea754b73824c8a7d0dd20dfc9", "fusion_lon": 0.0, "bike_id": "f1f135aea754b73824c8a7d0dd20dfc9", "is_disabled": 0, "is_reserved": 0}, {"rental_uris": {"ios": "https://dc.lft.to/lastmile_qr_scan", "android": "https://dc.lft.to/lastmile_qr_scan"}, "lon": -77.0525025, "type": "electric_scooter", "fusion_lat": 0.0, "lat": 38.92371333333333, "name": "35cde14ed1558cd2993ac9b18945fe47", "fusion_lon": 0.0, "bike_id": "35cde14ed1558cd2993ac9b18945fe47", "is_disabled": 0, "is_reserved": 0}, {"rental_uris": {"ios": "https://dc.lft.to/lastmile_qr_scan", "android": "https://dc.lft.to/lastmile_qr_scan"}, "lon": -76.98628816666667, "type": "electric_scooter", "fusion_lat": 0.0, "lat": 38.868163, "name": "eb73eaa0fd9a88b54c1eed9c3c4932d5", "fusion_lon": 0.0, "bike_id": "eb73eaa0fd9a88b54c1eed9c3c4932d5", "is_disabled": 0, "is_reserved": 0}, {"rental_uris": {"ios": "https://dc.lft.to/lastmile_qr_scan", "android": "https://dc.lft.to/lastmile_qr_scan"}, "lon": -77.01149216666667, "type": "electric_scooter", "fusion_lat": 0.0, "lat": 38.897106, "name": "a49beb2646c07289dbdf51e7235a0b96", "fusion_lon": 0.0, "bike_id": "a49beb2646c07289dbdf51e7235a0b96", "is_disabled": 0, "is_reserved": 0}, {"rental_uris": {"ios": "https://dc.lft.to/lastmile_qr_scan", "android": "https://dc.lft.to/lastmile_qr_scan"}, "lon": -77.0231985, "type": "electric_scooter", "fusion_lat": 0.0, "lat": 38.92757783333333, "name": "cc5afe1872055677cac88d472c9dad81", "fusion_lon": 0.0, "bike_id": "cc5afe1872055677cac88d472c9dad81", "is_disabled": 0, "is_reserved": 0}, {"rental_uris": {"ios": "https://dc.lft.to/lastmile_qr_scan", "android": "https://dc.lft.to/lastmile_qr_scan"}, "lon": -77.02839283333333, "type": "electric_scooter", "fusion_lat": 0.0, "lat": 38.887694, "name": "a77b55f0226a4073bda64e118965b587", "fusion_lon": 0.0, "bike_id": "a77b55f0226a4073bda64e118965b587", "is_disabled": 0, "is_reserved": 0}, {"rental_uris": {"ios": "https://dc.lft.to/lastmile_qr_scan", "android": "https://dc.lft.to/lastmile_qr_scan"}, "lon": -77.0404805, "type": "electric_scooter", "fusion_lat": 0.0, "lat": 38.925649, "name": "d89d95479de0027483d7f50473e61228", "fusion_lon": 0.0, "bike_id": "d89d95479de0027483d7f50473e61228", "is_disabled": 0, "is_reserved": 0}, {"rental_uris": {"ios": "https://dc.lft.to/lastmile_qr_scan", "android": "https://dc.lft.to/lastmile_qr_scan"}, "lon": -77.032056, "type": "electric_scooter", "fusion_lat": 0.0, "lat": 38.919779166666665, "name": "073766c5e13ce9dd0dff490aec20d697", "fusion_lon": 0.0, "bike_id": "073766c5e13ce9dd0dff490aec20d697", "is_disabled": 0, "is_reserved": 0}, {"rental_uris": {"ios": "https://dc.lft.to/lastmile_qr_scan", "android": "https://dc.lft.to/lastmile_qr_scan"}, "lon": -77.01862866666667, "type": "electric_scooter", "fusion_lat": 0.0, "lat": 38.902632833333335, "name": "a9bf67e5b909039ae8b18d54315fdd27", "fusion_lon": 0.0, "bike_id": "a9bf67e5b909039ae8b18d54315fdd27", "is_disabled": 0, "is_reserved": 0}, {"rental_uris": {"ios": "https://dc.lft.to/lastmile_qr_scan", "android": "https://dc.lft.to/lastmile_qr_scan"}, "lon": -77.029609, "type": "electric_scooter", "fusion_lat": 0.0, "lat": 38.907734, "name": "f48e863465d21cf21b3274cc7a951b95", "fusion_lon": 0.0, "bike_id": "f48e863465d21cf21b3274cc7a951b95", "is_disabled": 0, "is_reserved": 0}, {"rental_uris": {"ios": "https://dc.lft.to/lastmile_qr_scan", "android": "https://dc.lft.to/lastmile_qr_scan"}, "lon": -77.03259266666667, "type": "electric_scooter", "fusion_lat": 0.0, "lat": 38.91404683333333, "name": "86cb5fb8f44c67cc6fed2b7d4c9d2464", "fusion_lon": 0.0, "bike_id": "86cb5fb8f44c67cc6fed2b7d4c9d2464", "is_disabled": 0, "is_reserved": 0}, {"rental_uris": {"ios": "https://dc.lft.to/lastmile_qr_scan", "android": "https://dc.lft.to/lastmile_qr_scan"}, "lon": -77.02663866666667, "type": "electric_scooter", "fusion_lat": 0.0, "lat": 38.93254066666667, "name": "0d40b33a52538d7d943c7426b9fcd64a", "fusion_lon": 0.0, "bike_id": "0d40b33a52538d7d943c7426b9fcd64a", "is_disabled": 0, "is_reserved": 0}, {"rental_uris": {"ios": "https://dc.lft.to/lastmile_qr_scan", "android": "https://dc.lft.to/lastmile_qr_scan"}, "lon": -76.93812466666667, "type": "electric_scooter", "fusion_lat": 0.0, "lat": 38.913073, "name": "74bd92a600b89e64227e957a46b7845b", "fusion_lon": 0.0, "bike_id": "74bd92a600b89e64227e957a46b7845b", "is_disabled": 0, "is_reserved": 0}, {"rental_uris": {"ios": "https://dc.lft.to/lastmile_qr_scan", "android": "https://dc.lft.to/lastmile_qr_scan"}, "lon": -77.031679, "type": "electric_scooter", "fusion_lat": 0.0, "lat": 38.895977333333335, "name": "96cca535f0022aab640f9e1ed90c4f19", "fusion_lon": 0.0, "bike_id": "96cca535f0022aab640f9e1ed90c4f19", "is_disabled": 0, "is_reserved": 0}, {"rental_uris": {"ios": "https://dc.lft.to/lastmile_qr_scan", "android": "https://dc.lft.to/lastmile_qr_scan"}, "lon": -77.061574, "type": "electric_scooter", "fusion_lat": 0.0, "lat": 38.942121666666665, "name": "95682bf6726f338277b367dc40335766", "fusion_lon": 0.0, "bike_id": "95682bf6726f338277b367dc40335766", "is_disabled": 0, "is_reserved": 0}, {"rental_uris": {"ios": "https://dc.lft.to/lastmile_qr_scan", "android": "https://dc.lft.to/lastmile_qr_scan"}, "lon": -77.0466405, "type": "electric_scooter", "fusion_lat": 0.0, "lat": 38.905580666666665, "name": "9a67d9a1cef7d1f3c3b65aea2bd4697f", "fusion_lon": 0.0, "bike_id": "9a67d9a1cef7d1f3c3b65aea2bd4697f", "is_disabled": 0, "is_reserved": 0}, {"rental_uris": {"ios": "https://dc.lft.to/lastmile_qr_scan", "android": "https://dc.lft.to/lastmile_qr_scan"}, "lon": -76.978877, "type": "electric_scooter", "fusion_lat": 0.0, "lat": 38.91671516666667, "name": "93369a97a77145c85dc3b458e5e3a9ef", "fusion_lon": 0.0, "bike_id": "93369a97a77145c85dc3b458e5e3a9ef", "is_disabled": 0, "is_reserved": 0}, {"rental_uris": {"ios": "https://dc.lft.to/lastmile_qr_scan", "android": "https://dc.lft.to/lastmile_qr_scan"}, "lon": -76.9876065, "type": "electric_scooter", "fusion_lat": 0.0, "lat": 38.911713, "name": "1b40d46247a9d81ce87cd3c1c7efcde8", "fusion_lon": 0.0, "bike_id": "1b40d46247a9d81ce87cd3c1c7efcde8", "is_disabled": 0, "is_reserved": 0}, {"rental_uris": {"ios": "https://dc.lft.to/lastmile_qr_scan", "android": "https://dc.lft.to/lastmile_qr_scan"}, "lon": -77.04927783333333, "type": "electric_scooter", "fusion_lat": 0.0, "lat": 38.89675066666667, "name": "afae3c1567abccd35e6077ba37435cbf", "fusion_lon": 0.0, "bike_id": "afae3c1567abccd35e6077ba37435cbf", "is_disabled": 0, "is_reserved": 0}, {"rental_uris": {"ios": "https://dc.lft.to/lastmile_qr_scan", "android": "https://dc.lft.to/lastmile_qr_scan"}, "lon": -77.12734766666667, "type": "electric_bike", "fusion_lat": 0.0, "lat": 38.888131666666666, "name": "9fd693f04166e6986945a35db25b18d2", "fusion_lon": 0.0, "bike_id": "9fd693f04166e6986945a35db25b18d2", "is_disabled": 0, "is_reserved": 0}, {"rental_uris": {"ios": "https://dc.lft.to/lastmile_qr_scan", "android": "https://dc.lft.to/lastmile_qr_scan"}, "lon": -77.0364835, "type": "electric_scooter", "fusion_lat": 0.0, "lat": 38.902810333333335, "name": "2519119d6a3bb53b5dcfb6b3a6441e99", "fusion_lon": 0.0, "bike_id": "2519119d6a3bb53b5dcfb6b3a6441e99", "is_disabled": 0, "is_reserved": 0}, {"rental_uris": {"ios": "https://dc.lft.to/lastmile_qr_scan", "android": "https://dc.lft.to/lastmile_qr_scan"}, "lon": -76.956804, "type": "electric_bike", "fusion_lat": 0.0, "lat": 38.947312833333335, "name": "ae9ba118f7a646f88f3c1ce1e705df51", "fusion_lon": 0.0, "bike_id": "ae9ba118f7a646f88f3c1ce1e705df51", "is_disabled": 0, "is_reserved": 0}, {"rental_uris": {"ios": "https://dc.lft.to/lastmile_qr_scan", "android": "https://dc.lft.to/lastmile_qr_scan"}, "lon": -77.02012483333333, "type": "electric_bike", "fusion_lat": 0.0, "lat": 38.937245833333336, "name": "5413fd88e08fda811fcd79eb5b40577c", "fusion_lon": 0.0, "bike_id": "5413fd88e08fda811fcd79eb5b40577c", "is_disabled": 0, "is_reserved": 0}, {"rental_uris": {"ios": "https://dc.lft.to/lastmile_qr_scan", "android": "https://dc.lft.to/lastmile_qr_scan"}, "lon": -77.03665, "type": "electric_scooter", "fusion_lat": 0.0, "lat": 38.917142, "name": "b576a8eaf89f73f6f72f6551b22866e3", "fusion_lon": 0.0, "bike_id": "b576a8eaf89f73f6f72f6551b22866e3", "is_disabled": 0, "is_reserved": 0}, {"rental_uris": {"ios": "https://dc.lft.to/lastmile_qr_scan", "android": "https://dc.lft.to/lastmile_qr_scan"}, "lon": -77.0386545, "type": "electric_scooter", "fusion_lat": 0.0, "lat": 38.915622666666664, "name": "f00c8f1d8959509e100acbecfbe7db9b", "fusion_lon": 0.0, "bike_id": "f00c8f1d8959509e100acbecfbe7db9b", "is_disabled": 0, "is_reserved": 0}, {"rental_uris": {"ios": "https://dc.lft.to/lastmile_qr_scan", "android": "https://dc.lft.to/lastmile_qr_scan"}, "lon": -77.08052716666667, "type": "electric_bike", "fusion_lat": 0.0, "lat": 38.84841133333333, "name": "380a349edc0758590f40f25bf9efec67", "fusion_lon": 0.0, "bike_id": "380a349edc0758590f40f25bf9efec67", "is_disabled": 0, "is_reserved": 0}, {"rental_uris": {"ios": "https://dc.lft.to/lastmile_qr_scan", "android": "https://dc.lft.to/lastmile_qr_scan"}, "lon": -77.03836266666667, "type": "electric_scooter", "fusion_lat": 0.0, "lat": 38.907475833333336, "name": "51fc26cafb07cf6ef3309fe576b0f5cd", "fusion_lon": 0.0, "bike_id": "51fc26cafb07cf6ef3309fe576b0f5cd", "is_disabled": 0, "is_reserved": 0}, {"rental_uris": {"ios": "https://dc.lft.to/lastmile_qr_scan", "android": "https://dc.lft.to/lastmile_qr_scan"}, "lon": -76.97417083333333, "type": "electric_scooter", "fusion_lat": 0.0, "lat": 38.902328833333335, "name": "3d1912185867c14a770acc72ac641bc4", "fusion_lon": 0.0, "bike_id": "3d1912185867c14a770acc72ac641bc4", "is_disabled": 0, "is_reserved": 0}, {"rental_uris": {"ios": "https://dc.lft.to/lastmile_qr_scan", "android": "https://dc.lft.to/lastmile_qr_scan"}, "lon": -76.98517366666667, "type": "electric_scooter", "fusion_lat": 0.0, "lat": 38.909998, "name": "2e9b600f2c65150375c8ffaabb02a55e", "fusion_lon": 0.0, "bike_id": "2e9b600f2c65150375c8ffaabb02a55e", "is_disabled": 0, "is_reserved": 0}, {"rental_uris": {"ios": "https://dc.lft.to/lastmile_qr_scan", "android": "https://dc.lft.to/lastmile_qr_scan"}, "lon": -77.03418166666667, "type": "electric_scooter", "fusion_lat": 0.0, "lat": 38.924261666666666, "name": "11caf8e9a84467230120525713f851b1", "fusion_lon": 0.0, "bike_id": "11caf8e9a84467230120525713f851b1", "is_disabled": 0, "is_reserved": 0}, {"rental_uris": {"ios": "https://dc.lft.to/lastmile_qr_scan", "android": "https://dc.lft.to/lastmile_qr_scan"}, "lon": -76.98608033333333, "type": "electric_scooter", "fusion_lat": 0.0, "lat": 38.878345333333336, "name": "edbd4c7119d1a4aa5fd314ecd04d8d59", "fusion_lon": 0.0, "bike_id": "edbd4c7119d1a4aa5fd314ecd04d8d59", "is_disabled": 0, "is_reserved": 0}, {"rental_uris": {"ios": "https://dc.lft.to/lastmile_qr_scan", "android": "https://dc.lft.to/lastmile_qr_scan"}, "lon": -77.02952933333333, "type": "electric_scooter", "fusion_lat": 0.0, "lat": 38.91722883333333, "name": "6ef7e4a22770fbaf33be8d8e67868001", "fusion_lon": 0.0, "bike_id": "6ef7e4a22770fbaf33be8d8e67868001", "is_disabled": 0, "is_reserved": 0}, {"rental_uris": {"ios": "https://dc.lft.to/lastmile_qr_scan", "android": "https://dc.lft.to/lastmile_qr_scan"}, "lon": -77.00331566666667, "type": "electric_bike", "fusion_lat": 0.0, "lat": 38.876565, "name": "f0d92199a867b30e0f4fad444d67624d", "fusion_lon": 0.0, "bike_id": "f0d92199a867b30e0f4fad444d67624d", "is_disabled": 0, "is_reserved": 0}, {"rental_uris": {"ios": "https://dc.lft.to/lastmile_qr_scan", "android": "https://dc.lft.to/lastmile_qr_scan"}, "lon": -77.01113716666667, "type": "electric_scooter", "fusion_lat": 0.0, "lat": 38.870868333333334, "name": "c41f9bf05858abe0a5ffe8af08d1259d", "fusion_lon": 0.0, "bike_id": "c41f9bf05858abe0a5ffe8af08d1259d", "is_disabled": 0, "is_reserved": 0}, {"rental_uris": {"ios": "https://dc.lft.to/lastmile_qr_scan", "android": "https://dc.lft.to/lastmile_qr_scan"}, "lon": -77.0314695, "type": "electric_scooter", "fusion_lat": 0.0, "lat": 38.89360283333333, "name": "104587c200e1b67cd2f2e77e9a38ce3f", "fusion_lon": 0.0, "bike_id": "104587c200e1b67cd2f2e77e9a38ce3f", "is_disabled": 0, "is_reserved": 0}, {"rental_uris": {"ios": "https://dc.lft.to/lastmile_qr_scan", "android": "https://dc.lft.to/lastmile_qr_scan"}, "lon": -76.9284635, "type": "electric_scooter", "fusion_lat": 0.0, "lat": 38.88361966666667, "name": "deb5839ae1a94129af966ca6c2b0feb0", "fusion_lon": 0.0, "bike_id": "deb5839ae1a94129af966ca6c2b0feb0", "is_disabled": 0, "is_reserved": 0}, {"rental_uris": {"ios": "https://dc.lft.to/lastmile_qr_scan", "android": "https://dc.lft.to/lastmile_qr_scan"}, "lon": -77.03930033333333, "type": "electric_scooter", "fusion_lat": 0.0, "lat": 38.902801333333336, "name": "dbc6aa619d647601aae93c4e95b40807", "fusion_lon": 0.0, "bike_id": "dbc6aa619d647601aae93c4e95b40807", "is_disabled": 0, "is_reserved": 0}, {"rental_uris": {"ios": "https://dc.lft.to/lastmile_qr_scan", "android": "https://dc.lft.to/lastmile_qr_scan"}, "lon": -76.99459916666666, "type": "electric_scooter", "fusion_lat": 0.0, "lat": 38.85162233333333, "name": "7809d3601546aaed1bee5de268d80d89", "fusion_lon": 0.0, "bike_id": "7809d3601546aaed1bee5de268d80d89", "is_disabled": 0, "is_reserved": 0}, {"rental_uris": {"ios": "https://dc.lft.to/lastmile_qr_scan", "android": "https://dc.lft.to/lastmile_qr_scan"}, "lon": -77.035726, "type": "electric_scooter", "fusion_lat": 0.0, "lat": 38.93977666666667, "name": "cfe5d3e8147f4d8d3a20e589b2d4046e", "fusion_lon": 0.0, "bike_id": "cfe5d3e8147f4d8d3a20e589b2d4046e", "is_disabled": 0, "is_reserved": 0}, {"rental_uris": {"ios": "https://dc.lft.to/lastmile_qr_scan", "android": "https://dc.lft.to/lastmile_qr_scan"}, "lon": -76.9316005, "type": "electric_scooter", "fusion_lat": 0.0, "lat": 38.89879783333333, "name": "227dbcc510cb55346682822bcea2426a", "fusion_lon": 0.0, "bike_id": "227dbcc510cb55346682822bcea2426a", "is_disabled": 0, "is_reserved": 0}, {"rental_uris": {"ios": "https://dc.lft.to/lastmile_qr_scan", "android": "https://dc.lft.to/lastmile_qr_scan"}, "lon": -77.0482645, "type": "electric_scooter", "fusion_lat": 0.0, "lat": 38.909592333333336, "name": "4f9d4871df41c145a6254d51dc68d711", "fusion_lon": 0.0, "bike_id": "4f9d4871df41c145a6254d51dc68d711", "is_disabled": 0, "is_reserved": 0}, {"rental_uris": {"ios": "https://dc.lft.to/lastmile_qr_scan", "android": "https://dc.lft.to/lastmile_qr_scan"}, "lon": -76.9287885, "type": "electric_scooter", "fusion_lat": 0.0, "lat": 38.884398166666664, "name": "54ad19620d9bb6f1789f44f65c9035ea", "fusion_lon": 0.0, "bike_id": "54ad19620d9bb6f1789f44f65c9035ea", "is_disabled": 0, "is_reserved": 0}, {"rental_uris": {"ios": "https://dc.lft.to/lastmile_qr_scan", "android": "https://dc.lft.to/lastmile_qr_scan"}, "lon": -76.94841033333333, "type": "electric_scooter", "fusion_lat": 0.0, "lat": 38.884050333333334, "name": "e1cc98a697b95e314d764392e4f01fa7", "fusion_lon": 0.0, "bike_id": "e1cc98a697b95e314d764392e4f01fa7", "is_disabled": 0, "is_reserved": 0}, {"rental_uris": {"ios": "https://dc.lft.to/lastmile_qr_scan", "android": "https://dc.lft.to/lastmile_qr_scan"}, "lon": -77.03201383333334, "type": "electric_scooter", "fusion_lat": 0.0, "lat": 38.8983065, "name": "29a9f42c0367d0bd8a84f4366e972df8", "fusion_lon": 0.0, "bike_id": "29a9f42c0367d0bd8a84f4366e972df8", "is_disabled": 0, "is_reserved": 0}, {"rental_uris": {"ios": "https://dc.lft.to/lastmile_qr_scan", "android": "https://dc.lft.to/lastmile_qr_scan"}, "lon": -77.027119, "type": "electric_scooter", "fusion_lat": 0.0, "lat": 38.909409833333335, "name": "317279093634aab852c8d6b07fdef8cb", "fusion_lon": 0.0, "bike_id": "317279093634aab852c8d6b07fdef8cb", "is_disabled": 0, "is_reserved": 0}, {"rental_uris": {"ios": "https://dc.lft.to/lastmile_qr_scan", "android": "https://dc.lft.to/lastmile_qr_scan"}, "lon": -76.98353, "type": "electric_scooter", "fusion_lat": 0.0, "lat": 38.91522666666667, "name": "6c220f12d4e263a3901eea2f01bf3e28", "fusion_lon": 0.0, "bike_id": "6c220f12d4e263a3901eea2f01bf3e28", "is_disabled": 0, "is_reserved": 0}, {"rental_uris": {"ios": "https://dc.lft.to/lastmile_qr_scan", "android": "https://dc.lft.to/lastmile_qr_scan"}, "lon": -77.0270295, "type": "electric_scooter", "fusion_lat": 0.0, "lat": 38.9067205, "name": "46ef13b8e50171ea6b9a4c20c3ebc93d", "fusion_lon": 0.0, "bike_id": "46ef13b8e50171ea6b9a4c20c3ebc93d", "is_disabled": 0, "is_reserved": 0}, {"rental_uris": {"ios": "https://dc.lft.to/lastmile_qr_scan", "android": "https://dc.lft.to/lastmile_qr_scan"}, "lon": -77.00677566666667, "type": "electric_scooter", "fusion_lat": 0.0, "lat": 38.87641333333333, "name": "a52c356b2cf14873a68027d5f409d94b", "fusion_lon": 0.0, "bike_id": "a52c356b2cf14873a68027d5f409d94b", "is_disabled": 0, "is_reserved": 0}, {"rental_uris": {"ios": "https://dc.lft.to/lastmile_qr_scan", "android": "https://dc.lft.to/lastmile_qr_scan"}, "lon": -77.02650316666667, "type": "electric_scooter", "fusion_lat": 0.0, "lat": 38.88114233333334, "name": "359e637b368648b36810405ceb89763d", "fusion_lon": 0.0, "bike_id": "359e637b368648b36810405ceb89763d", "is_disabled": 0, "is_reserved": 0}, {"rental_uris": {"ios": "https://dc.lft.to/lastmile_qr_scan", "android": "https://dc.lft.to/lastmile_qr_scan"}, "lon": -77.03303733333334, "type": "electric_scooter", "fusion_lat": 0.0, "lat": 38.90903766666667, "name": "8d335a112c4efb55911fb5ea0ab16dee", "fusion_lon": 0.0, "bike_id": "8d335a112c4efb55911fb5ea0ab16dee", "is_disabled": 0, "is_reserved": 0}, {"rental_uris": {"ios": "https://dc.lft.to/lastmile_qr_scan", "android": "https://dc.lft.to/lastmile_qr_scan"}, "lon": -76.9906355, "type": "electric_scooter", "fusion_lat": 0.0, "lat": 38.863575, "name": "e4e59ac47b77c99c6ee98a373189c88a", "fusion_lon": 0.0, "bike_id": "e4e59ac47b77c99c6ee98a373189c88a", "is_disabled": 0, "is_reserved": 0}, {"rental_uris": {"ios": "https://dc.lft.to/lastmile_qr_scan", "android": "https://dc.lft.to/lastmile_qr_scan"}, "lon": -77.0730745, "type": "electric_scooter", "fusion_lat": 0.0, "lat": 38.936126, "name": "a6fe61f94fc2f7a92dc3d1fcea8544db", "fusion_lon": 0.0, "bike_id": "a6fe61f94fc2f7a92dc3d1fcea8544db", "is_disabled": 0, "is_reserved": 0}, {"rental_uris": {"ios": "https://dc.lft.to/lastmile_qr_scan", "android": "https://dc.lft.to/lastmile_qr_scan"}, "lon": -77.03659216666667, "type": "electric_scooter", "fusion_lat": 0.0, "lat": 38.9129375, "name": "430bc096d625b6ee3fedd49c16adf0ec", "fusion_lon": 0.0, "bike_id": "430bc096d625b6ee3fedd49c16adf0ec", "is_disabled": 0, "is_reserved": 0}, {"rental_uris": {"ios": "https://dc.lft.to/lastmile_qr_scan", "android": "https://dc.lft.to/lastmile_qr_scan"}, "lon": -77.03192916666667, "type": "electric_scooter", "fusion_lat": 0.0, "lat": 38.900143666666665, "name": "f12efcc75fd0a5ed15f3144c6b4aa4bf", "fusion_lon": 0.0, "bike_id": "f12efcc75fd0a5ed15f3144c6b4aa4bf", "is_disabled": 0, "is_reserved": 0}, {"rental_uris": {"ios": "https://dc.lft.to/lastmile_qr_scan", "android": "https://dc.lft.to/lastmile_qr_scan"}, "lon": -77.03852616666667, "type": "electric_scooter", "fusion_lat": 0.0, "lat": 38.92639033333333, "name": "eb6d63cd9b43b4c5b66a2056d32dc756", "fusion_lon": 0.0, "bike_id": "eb6d63cd9b43b4c5b66a2056d32dc756", "is_disabled": 0, "is_reserved": 0}, {"rental_uris": {"ios": "https://dc.lft.to/lastmile_qr_scan", "android": "https://dc.lft.to/lastmile_qr_scan"}, "lon": -77.02953216666667, "type": "electric_scooter", "fusion_lat": 0.0, "lat": 38.9042465, "name": "e41b6a3ac290aaef8ca568db2eefd29d", "fusion_lon": 0.0, "bike_id": "e41b6a3ac290aaef8ca568db2eefd29d", "is_disabled": 0, "is_reserved": 0}, {"rental_uris": {"ios": "https://dc.lft.to/lastmile_qr_scan", "android": "https://dc.lft.to/lastmile_qr_scan"}, "lon": -77.0550995, "type": "electric_scooter", "fusion_lat": 0.0, "lat": 38.900015833333335, "name": "3130b9d3fce996af03a52d9ea95a3b72", "fusion_lon": 0.0, "bike_id": "3130b9d3fce996af03a52d9ea95a3b72", "is_disabled": 0, "is_reserved": 0}, {"rental_uris": {"ios": "https://dc.lft.to/lastmile_qr_scan", "android": "https://dc.lft.to/lastmile_qr_scan"}, "lon": -77.04545666666667, "type": "electric_scooter", "fusion_lat": 0.0, "lat": 38.894793, "name": "837c652c38e637476b13a81117f6ba72", "fusion_lon": 0.0, "bike_id": "837c652c38e637476b13a81117f6ba72", "is_disabled": 0, "is_reserved": 0}, {"rental_uris": {"ios": "https://dc.lft.to/lastmile_qr_scan", "android": "https://dc.lft.to/lastmile_qr_scan"}, "lon": -76.92712216666666, "type": "electric_scooter", "fusion_lat": 0.0, "lat": 38.887641333333335, "name": "10e7fd48c47d7937bdd9a352e2ac4ba6", "fusion_lon": 0.0, "bike_id": "10e7fd48c47d7937bdd9a352e2ac4ba6", "is_disabled": 0, "is_reserved": 0}, {"rental_uris": {"ios": "https://dc.lft.to/lastmile_qr_scan", "android": "https://dc.lft.to/lastmile_qr_scan"}, "lon": -76.99517333333333, "type": "electric_scooter", "fusion_lat": 0.0, "lat": 38.88366766666667, "name": "6688f668403e11f96715c61284d40f28", "fusion_lon": 0.0, "bike_id": "6688f668403e11f96715c61284d40f28", "is_disabled": 0, "is_reserved": 0}, {"rental_uris": {"ios": "https://dc.lft.to/lastmile_qr_scan", "android": "https://dc.lft.to/lastmile_qr_scan"}, "lon": -77.01742016666667, "type": "electric_scooter", "fusion_lat": 0.0, "lat": 38.882105833333334, "name": "47f3a8d733e6dee681071e3442b19858", "fusion_lon": 0.0, "bike_id": "47f3a8d733e6dee681071e3442b19858", "is_disabled": 0, "is_reserved": 0}, {"rental_uris": {"ios": "https://dc.lft.to/lastmile_qr_scan", "android": "https://dc.lft.to/lastmile_qr_scan"}, "lon": -77.048758, "type": "electric_scooter", "fusion_lat": 0.0, "lat": 38.9036055, "name": "03ee058dd1ae34489a88634cdd9be280", "fusion_lon": 0.0, "bike_id": "03ee058dd1ae34489a88634cdd9be280", "is_disabled": 0, "is_reserved": 0}, {"rental_uris": {"ios": "https://dc.lft.to/lastmile_qr_scan", "android": "https://dc.lft.to/lastmile_qr_scan"}, "lon": -77.06633383333333, "type": "electric_scooter", "fusion_lat": 0.0, "lat": 38.92801266666667, "name": "9157cbf653d29fb84af1da394ceb0eaf", "fusion_lon": 0.0, "bike_id": "9157cbf653d29fb84af1da394ceb0eaf", "is_disabled": 0, "is_reserved": 0}, {"rental_uris": {"ios": "https://dc.lft.to/lastmile_qr_scan", "android": "https://dc.lft.to/lastmile_qr_scan"}, "lon": -77.1078315, "type": "electric_bike", "fusion_lat": 0.0, "lat": 38.89219166666667, "name": "3c5af727c3f3e044af1be28d4fc41f62", "fusion_lon": 0.0, "bike_id": "3c5af727c3f3e044af1be28d4fc41f62", "is_disabled": 0, "is_reserved": 0}, {"rental_uris": {"ios": "https://dc.lft.to/lastmile_qr_scan", "android": "https://dc.lft.to/lastmile_qr_scan"}, "lon": -77.023359, "type": "electric_scooter", "fusion_lat": 0.0, "lat": 38.9293445, "name": "104e47789959ca3f8c88d48c43e11c7e", "fusion_lon": 0.0, "bike_id": "104e47789959ca3f8c88d48c43e11c7e", "is_disabled": 0, "is_reserved": 0}, {"rental_uris": {"ios": "https://dc.lft.to/lastmile_qr_scan", "android": "https://dc.lft.to/lastmile_qr_scan"}, "lon": -77.00560833333333, "type": "electric_scooter", "fusion_lat": 0.0, "lat": 38.880496666666666, "name": "b3ff2cb01383956ec5a520f98ceea8ad", "fusion_lon": 0.0, "bike_id": "b3ff2cb01383956ec5a520f98ceea8ad", "is_disabled": 0, "is_reserved": 0}, {"rental_uris": {"ios": "https://dc.lft.to/lastmile_qr_scan", "android": "https://dc.lft.to/lastmile_qr_scan"}, "lon": -76.98902416666667, "type": "electric_scooter", "fusion_lat": 0.0, "lat": 38.8669265, "name": "23cd4e8014ed3ba1c8c9f965448fe708", "fusion_lon": 0.0, "bike_id": "23cd4e8014ed3ba1c8c9f965448fe708", "is_disabled": 0, "is_reserved": 0}, {"rental_uris": {"ios": "https://dc.lft.to/lastmile_qr_scan", "android": "https://dc.lft.to/lastmile_qr_scan"}, "lon": -77.05515616666666, "type": "electric_scooter", "fusion_lat": 0.0, "lat": 38.929545, "name": "164e8d2ee790a01241e3e3d85b68d3cd", "fusion_lon": 0.0, "bike_id": "164e8d2ee790a01241e3e3d85b68d3cd", "is_disabled": 0, "is_reserved": 0}, {"rental_uris": {"ios": "https://dc.lft.to/lastmile_qr_scan", "android": "https://dc.lft.to/lastmile_qr_scan"}, "lon": -77.03188783333333, "type": "electric_scooter", "fusion_lat": 0.0, "lat": 38.913549, "name": "e537008b06805a5cfc21b5bcf81a93b9", "fusion_lon": 0.0, "bike_id": "e537008b06805a5cfc21b5bcf81a93b9", "is_disabled": 0, "is_reserved": 0}, {"rental_uris": {"ios": "https://dc.lft.to/lastmile_qr_scan", "android": "https://dc.lft.to/lastmile_qr_scan"}, "lon": -76.98977983333333, "type": "electric_scooter", "fusion_lat": 0.0, "lat": 38.890449333333336, "name": "de9f1d6f6f98574901ba50c4445356d3", "fusion_lon": 0.0, "bike_id": "de9f1d6f6f98574901ba50c4445356d3", "is_disabled": 0, "is_reserved": 0}, {"rental_uris": {"ios": "https://dc.lft.to/lastmile_qr_scan", "android": "https://dc.lft.to/lastmile_qr_scan"}, "lon": -77.0512555, "type": "electric_scooter", "fusion_lat": 0.0, "lat": 38.92359316666667, "name": "f7a5ee336e51a9886630df3d00c82345", "fusion_lon": 0.0, "bike_id": "f7a5ee336e51a9886630df3d00c82345", "is_disabled": 0, "is_reserved": 0}, {"rental_uris": {"ios": "https://dc.lft.to/lastmile_qr_scan", "android": "https://dc.lft.to/lastmile_qr_scan"}, "lon": -77.00130316666667, "type": "electric_scooter", "fusion_lat": 0.0, "lat": 38.90408166666667, "name": "821782ecb2ae695ba16cbd6efb40b27f", "fusion_lon": 0.0, "bike_id": "821782ecb2ae695ba16cbd6efb40b27f", "is_disabled": 0, "is_reserved": 0}, {"rental_uris": {"ios": "https://dc.lft.to/lastmile_qr_scan", "android": "https://dc.lft.to/lastmile_qr_scan"}, "lon": -77.01965783333333, "type": "electric_scooter", "fusion_lat": 0.0, "lat": 38.878439, "name": "92dc75e0ce58ec81ac77c4788094555c", "fusion_lon": 0.0, "bike_id": "92dc75e0ce58ec81ac77c4788094555c", "is_disabled": 0, "is_reserved": 0}, {"rental_uris": {"ios": "https://dc.lft.to/lastmile_qr_scan", "android": "https://dc.lft.to/lastmile_qr_scan"}, "lon": -76.9648515, "type": "electric_bike", "fusion_lat": 0.0, "lat": 38.8754845, "name": "46215a2191457fde8e65c3961eaf5b3c", "fusion_lon": 0.0, "bike_id": "46215a2191457fde8e65c3961eaf5b3c", "is_disabled": 0, "is_reserved": 0}, {"rental_uris": {"ios": "https://dc.lft.to/lastmile_qr_scan", "android": "https://dc.lft.to/lastmile_qr_scan"}, "lon": -77.00599816666667, "type": "electric_scooter", "fusion_lat": 0.0, "lat": 38.905398166666664, "name": "74d1277a8277f2336b307a0df1f4d1fd", "fusion_lon": 0.0, "bike_id": "74d1277a8277f2336b307a0df1f4d1fd", "is_disabled": 0, "is_reserved": 0}, {"rental_uris": {"ios": "https://dc.lft.to/lastmile_qr_scan", "android": "https://dc.lft.to/lastmile_qr_scan"}, "lon": -77.04716116666667, "type": "electric_scooter", "fusion_lat": 0.0, "lat": 38.909566166666664, "name": "a2c7749b875a87d4ef1ccf23f4e69053", "fusion_lon": 0.0, "bike_id": "a2c7749b875a87d4ef1ccf23f4e69053", "is_disabled": 0, "is_reserved": 0}, {"rental_uris": {"ios": "https://dc.lft.to/lastmile_qr_scan", "android": "https://dc.lft.to/lastmile_qr_scan"}, "lon": -77.03432466666666, "type": "electric_scooter", "fusion_lat": 0.0, "lat": 38.9182785, "name": "c66d4238e5136e78a737f1ef4af11b0c", "fusion_lon": 0.0, "bike_id": "c66d4238e5136e78a737f1ef4af11b0c", "is_disabled": 0, "is_reserved": 0}, {"rental_uris": {"ios": "https://dc.lft.to/lastmile_qr_scan", "android": "https://dc.lft.to/lastmile_qr_scan"}, "lon": -77.02456316666667, "type": "electric_scooter", "fusion_lat": 0.0, "lat": 38.8970395, "name": "4850f5e3bd50cbc18a49e72de79966c8", "fusion_lon": 0.0, "bike_id": "4850f5e3bd50cbc18a49e72de79966c8", "is_disabled": 0, "is_reserved": 0}, {"rental_uris": {"ios": "https://dc.lft.to/lastmile_qr_scan", "android": "https://dc.lft.to/lastmile_qr_scan"}, "lon": -77.07161416666666, "type": "electric_scooter", "fusion_lat": 0.0, "lat": 38.907402166666664, "name": "7c0d1097fe164eaf990dfa3f7eef1fab", "fusion_lon": 0.0, "bike_id": "7c0d1097fe164eaf990dfa3f7eef1fab", "is_disabled": 0, "is_reserved": 0}, {"rental_uris": {"ios": "https://dc.lft.to/lastmile_qr_scan", "android": "https://dc.lft.to/lastmile_qr_scan"},