{"data": {"bikes": [{"lon": -76.99864683333334, "name": "1736b551a643e2dfedae605bdce12565", "is_disabled": 0, "type": "electric_scooter", "is_reserved": 0, "fusion_lon": 0.0, "lat": 38.9002855, "rental_uris": {"ios": "https://dc.lft.to/lastmile_qr_scan", "android": "https://dc.lft.to/lastmile_qr_scan"}, "bike_id": "1736b551a643e2dfedae605bdce12565", "fusion_lat": 0.0}, {"lon": -77.01855333333333, "name": "72eff97b6729f12505866740e2d55ca9", "is_disabled": 0, "type": "electric_scooter", "is_reserved": 0, "fusion_lon": 0.0, "lat": 38.9491775, "rental_uris": {"ios": "https://dc.lft.to/lastmile_qr_scan", "android": "https://dc.lft.to/lastmile_qr_scan"}, "bike_id": "72eff97b6729f12505866740e2d55ca9", "fusion_lat": 0.0}, {"lon": -77.0408315, "name": "11b8b70832caa10d1df03ae52e5884cd", "is_disabled": 0, "type": "electric_scooter", "is_reserved": 0, "fusion_lon": 0.0, "lat": 38.90519316666666, "rental_uris": {"ios": "https://dc.lft.to/lastmile_qr_scan", "android": "https://dc.lft.to/lastmile_qr_scan"}, "bike_id": "11b8b70832caa10d1df03ae52e5884cd", "fusion_lat": 0.0}, {"lon": -76.9856865, "name": "246b2090cba44007ed711fc737ab8d3a", "is_disabled": 0, "type": "electric_scooter", "is_reserved": 0, "fusion_lon": 0.0, "lat": 38.896172666666665, "rental_uris": {"ios": "https://dc.lft.to/lastmile_qr_scan", "android": "https://dc.lft.to/lastmile_qr_scan"}, "bike_id": "246b2090cba44007ed711fc737ab8d3a", "fusion_lat": 0.0}, {"lon": -76.983626, "name": "ba4296a8777e21f615b487616d2406b9", "is_disabled": 0, "type": "electric_scooter", "is_reserved": 0, "fusion_lon": 0.0, "lat": 38.8915735, "rental_uris": {"ios": "https://dc.lft.to/lastmile_qr_scan", "android": "https://dc.lft.to/lastmile_qr_scan"}, "bike_id": "ba4296a8777e21f615b487616d2406b9", "fusion_lat": 0.0}, {"lon": -77.007097, "name": "ae009207cdcdbbd7a2f532318ae244ab", "is_disabled": 0, "type": "electric_scooter", "is_reserved": 0, "fusion_lon": 0.0, "lat": 38.8848645, "rental_uris": {"ios": "https://dc.lft.to/lastmile_qr_scan", "android": "https://dc.lft.to/lastmile_qr_scan"}, "bike_id": "ae009207cdcdbbd7a2f532318ae244ab", "fusion_lat": 0.0}, {"lon": -77.01366066666667, "name": "e60ee0789819715ca50edc9fd9b3d9d3", "is_disabled": 0, "type": "electric_scooter", "is_reserved": 0, "fusion_lon": 0.0, "lat": 38.928712166666664, "rental_uris": {"ios": "https://dc.lft.to/lastmile_qr_scan", "android": "https://dc.lft.to/lastmile_qr_scan"}, "bike_id": "e60ee0789819715ca50edc9fd9b3d9d3", "fusion_lat": 0.0}, {"lon": -77.01409366666667, "name": "ff9989844b331e4dbda94ecaee6434e3", "is_disabled": 0, "type": "electric_scooter", "is_reserved": 0, "fusion_lon": 0.0, "lat": 38.91399416666667, "rental_uris": {"ios": "https://dc.lft.to/lastmile_qr_scan", "android": "https://dc.lft.to/lastmile_qr_scan"}, "bike_id": "ff9989844b331e4dbda94ecaee6434e3", "fusion_lat": 0.0}, {"lon": -77.043263, "name": "fb864f83346fd3362adfefe6b1a420ac", "is_disabled": 0, "type": "electric_scooter", "is_reserved": 0, "fusion_lon": 0.0, "lat": 38.90548416666667, "rental_uris": {"ios": "https://dc.lft.to/lastmile_qr_scan", "android": "https://dc.lft.to/lastmile_qr_scan"}, "bike_id": "fb864f83346fd3362adfefe6b1a420ac", "fusion_lat": 0.0}, {"lon": -77.05708016666667, "name": "ae0a738c469be01c098b75c76abb1308", "is_disabled": 0, "type": "electric_scooter", "is_reserved": 0, "fusion_lon": 0.0, "lat": 38.9260855, "rental_uris": {"ios": "https://dc.lft.to/lastmile_qr_scan", "android": "https://dc.lft.to/lastmile_qr_scan"}, "bike_id": "ae0a738c469be01c098b75c76abb1308", "fusion_lat": 0.0}, {"lon": -77.04468016666667, "name": "85c680c9dfcf84f6b0dcbe3fb88a47af", "is_disabled": 0, "type": "electric_scooter", "is_reserved": 0, "fusion_lon": 0.0, "lat": 38.91536516666667, "rental_uris": {"ios": "https://dc.lft.to/lastmile_qr_scan", "android": "https://dc.lft.to/lastmile_qr_scan"}, "bike_id": "85c680c9dfcf84f6b0dcbe3fb88a47af", "fusion_lat": 0.0}, {"lon": -77.02247516666667, "name": "a597066289c9cedbdb9aa27bf5cc9356", "is_disabled": 0, "type": "electric_scooter", "is_reserved": 0, "fusion_lon": 0.0, "lat": 38.89469233333333, "rental_uris": {"ios": "https://dc.lft.to/lastmile_qr_scan", "android": "https://dc.lft.to/lastmile_qr_scan"}, "bike_id": "a597066289c9cedbdb9aa27bf5cc9356", "fusion_lat": 0.0}, {"lon": -77.0215665, "name": "b4796f96dc12e831d3d27a2de4a1a158", "is_disabled": 0, "type": "electric_scooter", "is_reserved": 0, "fusion_lon": 0.0, "lat": 38.926049, "rental_uris": {"ios": "https://dc.lft.to/lastmile_qr_scan", "android": "https://dc.lft.to/lastmile_qr_scan"}, "bike_id": "b4796f96dc12e831d3d27a2de4a1a158", "fusion_lat": 0.0}, {"lon": -77.01949816666666, "name": "319ce6c3cf7a76fad8fd296df958642b", "is_disabled": 0, "type": "electric_scooter", "is_reserved": 0, "fusion_lon": 0.0, "lat": 38.924224, "rental_uris": {"ios": "https://dc.lft.to/lastmile_qr_scan", "android": "https://dc.lft.to/lastmile_qr_scan"}, "bike_id": "319ce6c3cf7a76fad8fd296df958642b", "fusion_lat": 0.0}, {"lon": -77.05750266666666, "name": "a717e380487aef09b30d2665b30cb5ca", "is_disabled": 0, "type": "electric_scooter", "is_reserved": 0, "fusion_lon": 0.0, "lat": 38.92484666666667, "rental_uris": {"ios": "https://dc.lft.to/lastmile_qr_scan", "android": "https://dc.lft.to/lastmile_qr_scan"}, "bike_id": "a717e380487aef09b30d2665b30cb5ca", "fusion_lat": 0.0}, {"lon": -77.01226, "name": "93957334ad0f72064f032dbf00b939a1", "is_disabled": 0, "type": "electric_scooter", "is_reserved": 0, "fusion_lon": 0.0, "lat": 38.89773866666667, "rental_uris": {"ios": "https://dc.lft.to/lastmile_qr_scan", "android": "https://dc.lft.to/lastmile_qr_scan"}, "bike_id": "93957334ad0f72064f032dbf00b939a1", "fusion_lat": 0.0}, {"lon": -77.05000133333333, "name": "eb3bd0ba71dd536d74b7ac0cd8ceb544", "is_disabled": 0, "type": "electric_scooter", "is_reserved": 0, "fusion_lon": 0.0, "lat": 38.892316, "rental_uris": {"ios": "https://dc.lft.to/lastmile_qr_scan", "android": "https://dc.lft.to/lastmile_qr_scan"}, "bike_id": "eb3bd0ba71dd536d74b7ac0cd8ceb544", "fusion_lat": 0.0}, {"lon": -77.032524, "name": "d3c4af2beba72b265dff04080fed47fd", "is_disabled": 0, "type": "electric_scooter", "is_reserved": 0, "fusion_lon": 0.0, "lat": 38.9055145, "rental_uris": {"ios": "https://dc.lft.to/lastmile_qr_scan", "android": "https://dc.lft.to/lastmile_qr_scan"}, "bike_id": "d3c4af2beba72b265dff04080fed47fd", "fusion_lat": 0.0}, {"lon": -77.04356866666667, "name": "a12bdc78899f61c1ceb82e022b5c9f70", "is_disabled": 0, "type": "electric_scooter", "is_reserved": 0, "fusion_lon": 0.0, "lat": 38.902613, "rental_uris": {"ios": "https://dc.lft.to/lastmile_qr_scan", "android": "https://dc.lft.to/lastmile_qr_scan"}, "bike_id": "a12bdc78899f61c1ceb82e022b5c9f70", "fusion_lat": 0.0}, {"lon": -77.0430795, "name": "b38341f59224de3af4593c79f43c5112", "is_disabled": 0, "type": "electric_scooter", "is_reserved": 0, "fusion_lon": 0.0, "lat": 38.92330166666667, "rental_uris": {"ios": "https://dc.lft.to/lastmile_qr_scan", "android": "https://dc.lft.to/lastmile_qr_scan"}, "bike_id": "b38341f59224de3af4593c79f43c5112", "fusion_lat": 0.0}, {"lon": -77.02178383333333, "name": "ad14abbef33b8749fb569300b42a12fd", "is_disabled": 0, "type": "electric_scooter", "is_reserved": 0, "fusion_lon": 0.0, "lat": 38.90577316666667, "rental_uris": {"ios": "https://dc.lft.to/lastmile_qr_scan", "android": "https://dc.lft.to/lastmile_qr_scan"}, "bike_id": "ad14abbef33b8749fb569300b42a12fd", "fusion_lat": 0.0}, {"lon": -77.04186916666667, "name": "b5cd1cd5f70c96caef26da41b1ebae93", "is_disabled": 0, "type": "electric_scooter", "is_reserved": 0, "fusion_lon": 0.0, "lat": 38.920516666666664, "rental_uris": {"ios": "https://dc.lft.to/lastmile_qr_scan", "android": "https://dc.lft.to/lastmile_qr_scan"}, "bike_id": "b5cd1cd5f70c96caef26da41b1ebae93", "fusion_lat": 0.0}, {"lon": -77.037414, "name": "46361a7c1137efaefc14520dab5663cd", "is_disabled": 0, "type": "electric_scooter", "is_reserved": 0, "fusion_lon": 0.0, "lat": 38.93072216666667, "rental_uris": {"ios": "https://dc.lft.to/lastmile_qr_scan", "android": "https://dc.lft.to/lastmile_qr_scan"}, "bike_id": "46361a7c1137efaefc14520dab5663cd", "fusion_lat": 0.0}, {"lon": -77.01865316666667, "name": "4fd0120750ad2193e797123d7c6bcd61", "is_disabled": 0, "type": "electric_scooter", "is_reserved": 0, "fusion_lon": 0.0, "lat": 38.951485166666664, "rental_uris": {"ios": "https://dc.lft.to/lastmile_qr_scan", "android": "https://dc.lft.to/lastmile_qr_scan"}, "bike_id": "4fd0120750ad2193e797123d7c6bcd61", "fusion_lat": 0.0}, {"lon": -77.02613333333333, "name": "80813d02ea4362e8d94448688f544e3c", "is_disabled": 0, "type": "electric_scooter", "is_reserved": 0, "fusion_lon": 0.0, "lat": 38.896197, "rental_uris": {"ios": "https://dc.lft.to/lastmile_qr_scan", "android": "https://dc.lft.to/lastmile_qr_scan"}, "bike_id": "80813d02ea4362e8d94448688f544e3c", "fusion_lat": 0.0}, {"lon": -76.9392855, "name": "f43439dab0e3ed791e19ec753c4952a4", "is_disabled": 0, "type": "electric_scooter", "is_reserved": 0, "fusion_lon": 0.0, "lat": 38.8933115, "rental_uris": {"ios": "https://dc.lft.to/lastmile_qr_scan", "android": "https://dc.lft.to/lastmile_qr_scan"}, "bike_id": "f43439dab0e3ed791e19ec753c4952a4", "fusion_lat": 0.0}, {"lon": -77.00596566666667, "name": "35aca7cab0644d34e9de1e6ba16fa9e8", "is_disabled": 0, "type": "electric_scooter", "is_reserved": 0, "fusion_lon": 0.0, "lat": 38.90242033333333, "rental_uris": {"ios": "https://dc.lft.to/lastmile_qr_scan", "android": "https://dc.lft.to/lastmile_qr_scan"}, "bike_id": "35aca7cab0644d34e9de1e6ba16fa9e8", "fusion_lat": 0.0}, {"lon": -77.03932216666666, "name": "8f326fd574b9478ec0b7aea146eb5dfc", "is_disabled": 0, "type": "electric_scooter", "is_reserved": 0, "fusion_lon": 0.0, "lat": 38.92492283333333, "rental_uris": {"ios": "https://dc.lft.to/lastmile_qr_scan", "android": "https://dc.lft.to/lastmile_qr_scan"}, "bike_id": "8f326fd574b9478ec0b7aea146eb5dfc", "fusion_lat": 0.0}, {"lon": -77.0182095, "name": "633a714b08a64611ce7b0f16ffe81cd4", "is_disabled": 0, "type": "electric_scooter", "is_reserved": 0, "fusion_lon": 0.0, "lat": 38.92125016666667, "rental_uris": {"ios": "https://dc.lft.to/lastmile_qr_scan", "android": "https://dc.lft.to/lastmile_qr_scan"}, "bike_id": "633a714b08a64611ce7b0f16ffe81cd4", "fusion_lat": 0.0}, {"lon": -77.07698316666666, "name": "c9e3dde4754e46ea2bbd9f82d594dbd7", "is_disabled": 0, "type": "electric_scooter", "is_reserved": 0, "fusion_lon": 0.0, "lat": 38.922455, "rental_uris": {"ios": "https://dc.lft.to/lastmile_qr_scan", "android": "https://dc.lft.to/lastmile_qr_scan"}, "bike_id": "c9e3dde4754e46ea2bbd9f82d594dbd7", "fusion_lat": 0.0}, {"lon": -77.025706, "name": "48e34f1e272805aca32bbcb596ecdcdc", "is_disabled": 0, "type": "electric_scooter", "is_reserved": 0, "fusion_lon": 0.0, "lat": 38.88744766666667, "rental_uris": {"ios": "https://dc.lft.to/lastmile_qr_scan", "android": "https://dc.lft.to/lastmile_qr_scan"}, "bike_id": "48e34f1e272805aca32bbcb596ecdcdc", "fusion_lat": 0.0}, {"lon": -77.005699, "name": "0f2bdcc31ce131f7668a3d84f72a85f1", "is_disabled": 0, "type": "electric_scooter", "is_reserved": 0, "fusion_lon": 0.0, "lat": 38.88503466666667, "rental_uris": {"ios": "https://dc.lft.to/lastmile_qr_scan", "android": "https://dc.lft.to/lastmile_qr_scan"}, "bike_id": "0f2bdcc31ce131f7668a3d84f72a85f1", "fusion_lat": 0.0}, {"lon": -77.03196016666666, "name": "f326b42f1f5955af4262d80b6baa2d63", "is_disabled": 0, "type": "electric_scooter", "is_reserved": 0, "fusion_lon": 0.0, "lat": 38.92286883333333, "rental_uris": {"ios": "https://dc.lft.to/lastmile_qr_scan", "android": "https://dc.lft.to/lastmile_qr_scan"}, "bike_id": "f326b42f1f5955af4262d80b6baa2d63", "fusion_lat": 0.0}, {"lon": -77.0430525, "name": "0b58aa3ee467cc7319cb19442c0b6db7", "is_disabled": 0, "type": "electric_scooter", "is_reserved": 0, "fusion_lon": 0.0, "lat": 38.92393333333333, "rental_uris": {"ios": "https://dc.lft.to/lastmile_qr_scan", "android": "https://dc.lft.to/lastmile_qr_scan"}, "bike_id": "0b58aa3ee467cc7319cb19442c0b6db7", "fusion_lat": 0.0}, {"lon": -77.23409866666667, "name": "892aca48f3cd392c91661dba66618f35", "is_disabled": 0, "type": "electric_bike", "is_reserved": 0, "fusion_lon": 0.0, "lat": 38.875779, "rental_uris": {"ios": "https://dc.lft.to/lastmile_qr_scan", "android": "https://dc.lft.to/lastmile_qr_scan"}, "bike_id": "892aca48f3cd392c91661dba66618f35", "fusion_lat": 0.0}, {"lon": -77.0122265, "name": "c114130476c973ec83b9e2c06bde0a0f", "is_disabled": 0, "type": "electric_scooter", "is_reserved": 0, "fusion_lon": 0.0, "lat": 38.92510433333333, "rental_uris": {"ios": "https://dc.lft.to/lastmile_qr_scan", "android": "https://dc.lft.to/lastmile_qr_scan"}, "bike_id": "c114130476c973ec83b9e2c06bde0a0f", "fusion_lat": 0.0}, {"lon": -77.05929916666666, "name": "0506fbe1515f4fd49f08cbaa26e6f116", "is_disabled": 0, "type": "electric_scooter", "is_reserved": 0, "fusion_lon": 0.0, "lat": 38.9430305, "rental_uris": {"ios": "https://dc.lft.to/lastmile_qr_scan", "android": "https://dc.lft.to/lastmile_qr_scan"}, "bike_id": "0506fbe1515f4fd49f08cbaa26e6f116", "fusion_lat": 0.0}, {"lon": -77.0327995, "name": "eb4f481a59416009c1beda9958de5238", "is_disabled": 0, "type": "electric_scooter", "is_reserved": 0, "fusion_lon": 0.0, "lat": 38.93574783333333, "rental_uris": {"ios": "https://dc.lft.to/lastmile_qr_scan", "android": "https://dc.lft.to/lastmile_qr_scan"}, "bike_id": "eb4f481a59416009c1beda9958de5238", "fusion_lat": 0.0}, {"lon": -76.9654245, "name": "243022e89ec9b0a5befaff66c08486c2", "is_disabled": 0, "type": "electric_scooter", "is_reserved": 0, "fusion_lon": 0.0, "lat": 38.87886316666667, "rental_uris": {"ios": "https://dc.lft.to/lastmile_qr_scan", "android": "https://dc.lft.to/lastmile_qr_scan"}, "bike_id": "243022e89ec9b0a5befaff66c08486c2", "fusion_lat": 0.0}, {"lon": -77.02816816666666, "name": "d1190cf5c13e808724c28c4b1bc9445d", "is_disabled": 0, "type": "electric_scooter", "is_reserved": 0, "fusion_lon": 0.0, "lat": 38.922383333333336, "rental_uris": {"ios": "https://dc.lft.to/lastmile_qr_scan", "android": "https://dc.lft.to/lastmile_qr_scan"}, "bike_id": "d1190cf5c13e808724c28c4b1bc9445d", "fusion_lat": 0.0}, {"lon": -77.005367, "name": "ff2174990d888f77928de3e28a035d88", "is_disabled": 0, "type": "electric_scooter", "is_reserved": 0, "fusion_lon": 0.0, "lat": 38.875445, "rental_uris": {"ios": "https://dc.lft.to/lastmile_qr_scan", "android": "https://dc.lft.to/lastmile_qr_scan"}, "bike_id": "ff2174990d888f77928de3e28a035d88", "fusion_lat": 0.0}, {"lon": -77.02047216666666, "name": "f2afea5252c4a68f0cb1f0f823f5e305", "is_disabled": 0, "type": "electric_scooter", "is_reserved": 0, "fusion_lon": 0.0, "lat": 38.921079666666664, "rental_uris": {"ios": "https://dc.lft.to/lastmile_qr_scan", "android": "https://dc.lft.to/lastmile_qr_scan"}, "bike_id": "f2afea5252c4a68f0cb1f0f823f5e305", "fusion_lat": 0.0}, {"lon": -77.02096033333333, "name": "108296306e87f74f196601ca9adb89b1", "is_disabled": 0, "type": "electric_scooter", "is_reserved": 0, "fusion_lon": 0.0, "lat": 38.897596666666665, "rental_uris": {"ios": "https://dc.lft.to/lastmile_qr_scan", "android": "https://dc.lft.to/lastmile_qr_scan"}, "bike_id": "108296306e87f74f196601ca9adb89b1", "fusion_lat": 0.0}, {"lon": -77.03487116666666, "name": "fea67b2090af5059008ab1464032aa16", "is_disabled": 0, "type": "electric_scooter", "is_reserved": 0, "fusion_lon": 0.0, "lat": 38.923481333333335, "rental_uris": {"ios": "https://dc.lft.to/lastmile_qr_scan", "android": "https://dc.lft.to/lastmile_qr_scan"}, "bike_id": "fea67b2090af5059008ab1464032aa16", "fusion_lat": 0.0}, {"lon": -77.00222466666666, "name": "97a9ca090189597f3adf3eb3f054cf76", "is_disabled": 0, "type": "electric_scooter", "is_reserved": 0, "fusion_lon": 0.0, "lat": 38.95740583333333, "rental_uris": {"ios": "https://dc.lft.to/lastmile_qr_scan", "android": "https://dc.lft.to/lastmile_qr_scan"}, "bike_id": "97a9ca090189597f3adf3eb3f054cf76", "fusion_lat": 0.0}, {"lon": -77.0327295, "name": "8600b37c5f56ed1679abbf2d1e7539da", "is_disabled": 0, "type": "electric_scooter", "is_reserved": 0, "fusion_lon": 0.0, "lat": 38.907291, "rental_uris": {"ios": "https://dc.lft.to/lastmile_qr_scan", "android": "https://dc.lft.to/lastmile_qr_scan"}, "bike_id": "8600b37c5f56ed1679abbf2d1e7539da", "fusion_lat": 0.0}, {"lon": -77.02462083333333, "name": "1dfea8be6a8090711e00f9c909fccdf9", "is_disabled": 0, "type": "electric_scooter", "is_reserved": 0, "fusion_lon": 0.0, "lat": 38.93917616666667, "rental_uris": {"ios": "https://dc.lft.to/lastmile_qr_scan", "android": "https://dc.lft.to/lastmile_qr_scan"}, "bike_id": "1dfea8be6a8090711e00f9c909fccdf9", "fusion_lat": 0.0}, {"lon": -77.014879, "name": "ae43338bf91b0349d9284f81cb016d6e", "is_disabled": 0, "type": "electric_scooter", "is_reserved": 0, "fusion_lon": 0.0, "lat": 38.8967065, "rental_uris": {"ios": "https://dc.lft.to/lastmile_qr_scan", "android": "https://dc.lft.to/lastmile_qr_scan"}, "bike_id": "ae43338bf91b0349d9284f81cb016d6e", "fusion_lat": 0.0}, {"lon": -76.99651616666667, "name": "657c0024deb38ffb202e36fbb6362d65", "is_disabled": 0, "type": "electric_bike", "is_reserved": 0, "fusion_lon": 0.0, "lat": 38.967662, "rental_uris": {"ios": "https://dc.lft.to/lastmile_qr_scan", "android": "https://dc.lft.to/lastmile_qr_scan"}, "bike_id": "657c0024deb38ffb202e36fbb6362d65", "fusion_lat": 0.0}, {"lon": -77.03824483333334, "name": "e3c613fa6dc904797845503f6d328d9a", "is_disabled": 0, "type": "electric_scooter", "is_reserved": 0, "fusion_lon": 0.0, "lat": 38.9038555, "rental_uris": {"ios": "https://dc.lft.to/lastmile_qr_scan", "android": "https://dc.lft.to/lastmile_qr_scan"}, "bike_id": "e3c613fa6dc904797845503f6d328d9a", "fusion_lat": 0.0}, {"lon": -77.0431915, "name": "e76a02ffede379bfbfca128cbb8fc555", "is_disabled": 0, "type": "electric_scooter", "is_reserved": 0, "fusion_lon": 0.0, "lat": 38.90018216666667, "rental_uris": {"ios": "https://dc.lft.to/lastmile_qr_scan", "android": "https://dc.lft.to/lastmile_qr_scan"}, "bike_id": "e76a02ffede379bfbfca128cbb8fc555", "fusion_lat": 0.0}, {"lon": -76.97684183333334, "name": "ddc7611d8d234c576e77fbf184132f5f", "is_disabled": 0, "type": "electric_scooter", "is_reserved": 0, "fusion_lon": 0.0, "lat": 38.89198016666667, "rental_uris": {"ios": "https://dc.lft.to/lastmile_qr_scan", "android": "https://dc.lft.to/lastmile_qr_scan"}, "bike_id": "ddc7611d8d234c576e77fbf184132f5f", "fusion_lat": 0.0}, {"lon": -77.02949183333334, "name": "7618594a008c9d37bcaecc4d3cd2dcad", "is_disabled": 0, "type": "electric_scooter", "is_reserved": 0, "fusion_lon": 0.0, "lat": 38.89569933333333, "rental_uris": {"ios": "https://dc.lft.to/lastmile_qr_scan", "android": "https://dc.lft.to/lastmile_qr_scan"}, "bike_id": "7618594a008c9d37bcaecc4d3cd2dcad", "fusion_lat": 0.0}, {"lon": -77.05127066666667, "name": "d5b007f33e44e427e1e1a75869cd4b76", "is_disabled": 0, "type": "electric_scooter", "is_reserved": 0, "fusion_lon": 0.0, "lat": 38.901698, "rental_uris": {"ios": "https://dc.lft.to/lastmile_qr_scan", "android": "https://dc.lft.to/lastmile_qr_scan"}, "bike_id": "d5b007f33e44e427e1e1a75869cd4b76", "fusion_lat": 0.0}, {"lon": -77.01916566666667, "name": "9247250389f8277afb0b21b96dd4812b", "is_disabled": 0, "type": "electric_scooter", "is_reserved": 0, "fusion_lon": 0.0, "lat": 38.89726816666666, "rental_uris": {"ios": "https://dc.lft.to/lastmile_qr_scan", "android": "https://dc.lft.to/lastmile_qr_scan"}, "bike_id": "9247250389f8277afb0b21b96dd4812b", "fusion_lat": 0.0}, {"lon": -77.04343516666667, "name": "551213df4db85382424da4b62f44ebf5", "is_disabled": 0, "type": "electric_scooter", "is_reserved": 0, "fusion_lon": 0.0, "lat": 38.90547, "rental_uris": {"ios": "https://dc.lft.to/lastmile_qr_scan", "android": "https://dc.lft.to/lastmile_qr_scan"}, "bike_id": "551213df4db85382424da4b62f44ebf5", "fusion_lat": 0.0}, {"lon": -77.01763966666667, "name": "7690df7592809412312933e6cc1f0eea", "is_disabled": 0, "type": "electric_scooter", "is_reserved": 0, "fusion_lon": 0.0, "lat": 38.902732666666665, "rental_uris": {"ios": "https://dc.lft.to/lastmile_qr_scan", "android": "https://dc.lft.to/lastmile_qr_scan"}, "bike_id": "7690df7592809412312933e6cc1f0eea", "fusion_lat": 0.0}, {"lon": -77.0179725, "name": "d9deae87b29ef5f24861ef7f110b27a1", "is_disabled": 0, "type": "electric_scooter", "is_reserved": 0, "fusion_lon": 0.0, "lat": 38.919441, "rental_uris": {"ios": "https://dc.lft.to/lastmile_qr_scan", "android": "https://dc.lft.to/lastmile_qr_scan"}, "bike_id": "d9deae87b29ef5f24861ef7f110b27a1", "fusion_lat": 0.0}, {"lon": -77.02219383333333, "name": "b22079185b7a8b72428b5c43afc46eaf", "is_disabled": 0, "type": "electric_scooter", "is_reserved": 0, "fusion_lon": 0.0, "lat": 38.899755, "rental_uris": {"ios": "https://dc.lft.to/lastmile_qr_scan", "android": "https://dc.lft.to/lastmile_qr_scan"}, "bike_id": "b22079185b7a8b72428b5c43afc46eaf", "fusion_lat": 0.0}, {"lon": -77.0418895, "name": "5b429144a6026acddb0589d8e17ad68c", "is_disabled": 0, "type": "electric_scooter", "is_reserved": 0, "fusion_lon": 0.0, "lat": 38.9206475, "rental_uris": {"ios": "https://dc.lft.to/lastmile_qr_scan", "android": "https://dc.lft.to/lastmile_qr_scan"}, "bike_id": "5b429144a6026acddb0589d8e17ad68c", "fusion_lat": 0.0}, {"lon": -77.049037, "name": "a695fd97174ec107b20b085b2e332f85", "is_disabled": 0, "type": "electric_scooter", "is_reserved": 0, "fusion_lon": 0.0, "lat": 38.91588566666667, "rental_uris": {"ios": "https://dc.lft.to/lastmile_qr_scan", "android": "https://dc.lft.to/lastmile_qr_scan"}, "bike_id": "a695fd97174ec107b20b085b2e332f85", "fusion_lat": 0.0}, {"lon": -76.93211166666667, "name": "00e297296e308531ae564b3c8711f117", "is_disabled": 0, "type": "electric_scooter", "is_reserved": 0, "fusion_lon": 0.0, "lat": 38.896640166666664, "rental_uris": {"ios": "https://dc.lft.to/lastmile_qr_scan", "android": "https://dc.lft.to/lastmile_qr_scan"}, "bike_id": "00e297296e308531ae564b3c8711f117", "fusion_lat": 0.0}, {"lon": -77.02097316666666, "name": "a0ea8133fb7dd4ed45d0314612b2f228", "is_disabled": 0, "type": "electric_scooter", "is_reserved": 0, "fusion_lon": 0.0, "lat": 38.921527833333336, "rental_uris": {"ios": "https://dc.lft.to/lastmile_qr_scan", "android": "https://dc.lft.to/lastmile_qr_scan"}, "bike_id": "a0ea8133fb7dd4ed45d0314612b2f228", "fusion_lat": 0.0}, {"lon": -77.004162, "name": "fc7681dbc450d633128c1f916c9bdb3f", "is_disabled": 0, "type": "electric_bike", "is_reserved": 0, "fusion_lon": 0.0, "lat": 38.985360166666666, "rental_uris": {"ios": "https://dc.lft.to/lastmile_qr_scan", "android": "https://dc.lft.to/lastmile_qr_scan"}, "bike_id": "fc7681dbc450d633128c1f916c9bdb3f", "fusion_lat": 0.0}, {"lon": -77.03487433333333, "name": "43404fd8208b4d1f934f34ff2b3c8d6d", "is_disabled": 0, "type": "electric_scooter", "is_reserved": 0, "fusion_lon": 0.0, "lat": 38.92344833333333, "rental_uris": {"ios": "https://dc.lft.to/lastmile_qr_scan", "android": "https://dc.lft.to/lastmile_qr_scan"}, "bike_id": "43404fd8208b4d1f934f34ff2b3c8d6d", "fusion_lat": 0.0}, {"lon": -77.04511583333333, "name": "a519143144fcc0e6b4f1cd97aa2b73ef", "is_disabled": 0, "type": "electric_scooter", "is_reserved": 0, "fusion_lon": 0.0, "lat": 38.89961683333333, "rental_uris": {"ios": "https://dc.lft.to/lastmile_qr_scan", "android": "https://dc.lft.to/lastmile_qr_scan"}, "bike_id": "a519143144fcc0e6b4f1cd97aa2b73ef", "fusion_lat": 0.0}, {"lon": -77.048758, "name": "5f3bf7b6293ab171eeb74094103a2bda", "is_disabled": 0, "type": "electric_scooter", "is_reserved": 0, "fusion_lon": 0.0, "lat": 38.8965165, "rental_uris": {"ios": "https://dc.lft.to/lastmile_qr_scan", "android": "https://dc.lft.to/lastmile_qr_scan"}, "bike_id": "5f3bf7b6293ab171eeb74094103a2bda", "fusion_lat": 0.0}, {"lon": -76.98024433333333, "name": "7aa3c89a40acfe29a68958f78e4f4bd6", "is_disabled": 0, "type": "electric_bike", "is_reserved": 0, "fusion_lon": 0.0, "lat": 38.868179833333336, "rental_uris": {"ios": "https://dc.lft.to/lastmile_qr_scan", "android": "https://dc.lft.to/lastmile_qr_scan"}, "bike_id": "7aa3c89a40acfe29a68958f78e4f4bd6", "fusion_lat": 0.0}, {"lon": -77.00610616666667, "name": "e5546d9a08acbd9e06410d2cae04f216", "is_disabled": 0, "type": "electric_scooter", "is_reserved": 0, "fusion_lon": 0.0, "lat": 38.8719555, "rental_uris": {"ios": "https://dc.lft.to/lastmile_qr_scan", "android": "https://dc.lft.to/lastmile_qr_scan"}, "bike_id": "e5546d9a08acbd9e06410d2cae04f216", "fusion_lat": 0.0}, {"lon": -77.043486, "name": "a101859d3c2b3cdbe7a03407ce31c974", "is_disabled": 0, "type": "electric_bike", "is_reserved": 0, "fusion_lon": 0.0, "lat": 38.913024166666666, "rental_uris": {"ios": "https://dc.lft.to/lastmile_qr_scan", "android": "https://dc.lft.to/lastmile_qr_scan"}, "bike_id": "a101859d3c2b3cdbe7a03407ce31c974", "fusion_lat": 0.0}, {"lon": -77.032196, "name": "b5f6cfa876f9610d1248edaf206ca5da", "is_disabled": 0, "type": "electric_scooter", "is_reserved": 0, "fusion_lon": 0.0, "lat": 38.892209666666666, "rental_uris": {"ios": "https://dc.lft.to/lastmile_qr_scan", "android": "https://dc.lft.to/lastmile_qr_scan"}, "bike_id": "b5f6cfa876f9610d1248edaf206ca5da", "fusion_lat": 0.0}, {"lon": -77.02682716666666, "name": "9cd9001a534a726f9099e3914e1a734a", "is_disabled": 0, "type": "electric_bike", "is_reserved": 0, "fusion_lon": 0.0, "lat": 38.969252166666664, "rental_uris": {"ios": "https://dc.lft.to/lastmile_qr_scan", "android": "https://dc.lft.to/lastmile_qr_scan"}, "bike_id": "9cd9001a534a726f9099e3914e1a734a", "fusion_lat": 0.0}, {"lon": -76.93938333333334, "name": "bd2ab85734f49a7cc9618bd955c94a14", "is_disabled": 0, "type": "electric_scooter", "is_reserved": 0, "fusion_lon": 0.0, "lat": 38.908616, "rental_uris": {"ios": "https://dc.lft.to/lastmile_qr_scan", "android": "https://dc.lft.to/lastmile_qr_scan"}, "bike_id": "bd2ab85734f49a7cc9618bd955c94a14", "fusion_lat": 0.0}, {"lon": -77.0228685, "name": "697c2ce2b85504a3ecafc718b6fde615", "is_disabled": 0, "type": "electric_scooter", "is_reserved": 0, "fusion_lon": 0.0, "lat": 38.926534333333336, "rental_uris": {"ios": "https://dc.lft.to/lastmile_qr_scan", "android": "https://dc.lft.to/lastmile_qr_scan"}, "bike_id": "697c2ce2b85504a3ecafc718b6fde615", "fusion_lat": 0.0}, {"lon": -77.02809666666667, "name": "0a7f382187bcdfb754a5afd2630bdd47", "is_disabled": 0, "type": "electric_scooter", "is_reserved": 0, "fusion_lon": 0.0, "lat": 38.898052666666665, "rental_uris": {"ios": "https://dc.lft.to/lastmile_qr_scan", "android": "https://dc.lft.to/lastmile_qr_scan"}, "bike_id": "0a7f382187bcdfb754a5afd2630bdd47", "fusion_lat": 0.0}, {"lon": -77.01830616666666, "name": "62657cb71d7e35acb7623ba463cfef2a", "is_disabled": 0, "type": "electric_scooter", "is_reserved": 0, "fusion_lon": 0.0, "lat": 38.9223965, "rental_uris": {"ios": "https://dc.lft.to/lastmile_qr_scan", "android": "https://dc.lft.to/lastmile_qr_scan"}, "bike_id": "62657cb71d7e35acb7623ba463cfef2a", "fusion_lat": 0.0}, {"lon": -77.03636516666667, "name": "5f7e1f523bb19b98e7137e04454b0af1", "is_disabled": 0, "type": "electric_scooter", "is_reserved": 0, "fusion_lon": 0.0, "lat": 38.937126, "rental_uris": {"ios": "https://dc.lft.to/lastmile_qr_scan", "android": "https://dc.lft.to/lastmile_qr_scan"}, "bike_id": "5f7e1f523bb19b98e7137e04454b0af1", "fusion_lat": 0.0}, {"lon": -76.98823083333333, "name": "5f48b0e126b0165fc54a5114b5a128e7", "is_disabled": 0, "type": "electric_scooter", "is_reserved": 0, "fusion_lon": 0.0, "lat": 38.890763166666666, "rental_uris": {"ios": "https://dc.lft.to/lastmile_qr_scan", "android": "https://dc.lft.to/lastmile_qr_scan"}, "bike_id": "5f48b0e126b0165fc54a5114b5a128e7", "fusion_lat": 0.0}, {"lon": -77.01922933333333, "name": "05cf371af12e71a8eacf4ce529d4acbe", "is_disabled": 0, "type": "electric_scooter", "is_reserved": 0, "fusion_lon": 0.0, "lat": 38.91944216666667, "rental_uris": {"ios": "https://dc.lft.to/lastmile_qr_scan", "android": "https://dc.lft.to/lastmile_qr_scan"}, "bike_id": "05cf371af12e71a8eacf4ce529d4acbe", "fusion_lat": 0.0}, {"lon": -76.96087, "name": "24ff47fa34604ec92b4cd522c2fb84cb", "is_disabled": 0, "type": "electric_bike", "is_reserved": 0, "fusion_lon": 0.0, "lat": 38.9185995, "rental_uris": {"ios": "https://dc.lft.to/lastmile_qr_scan", "android": "https://dc.lft.to/lastmile_qr_scan"}, "bike_id": "24ff47fa34604ec92b4cd522c2fb84cb", "fusion_lat": 0.0}, {"lon": -77.02204816666666, "name": "2a321b60887d03614a47f466e1586342", "is_disabled": 0, "type": "electric_scooter", "is_reserved": 0, "fusion_lon": 0.0, "lat": 38.92476883333333, "rental_uris": {"ios": "https://dc.lft.to/lastmile_qr_scan", "android": "https://dc.lft.to/lastmile_qr_scan"}, "bike_id": "2a321b60887d03614a47f466e1586342", "fusion_lat": 0.0}, {"lon": -77.00503816666667, "name": "d0a63fe3e75a1d1cc204804a3fdda4a5", "is_disabled": 0, "type": "electric_scooter", "is_reserved": 0, "fusion_lon": 0.0, "lat": 38.916188, "rental_uris": {"ios": "https://dc.lft.to/lastmile_qr_scan", "android": "https://dc.lft.to/lastmile_qr_scan"}, "bike_id": "d0a63fe3e75a1d1cc204804a3fdda4a5", "fusion_lat": 0.0}, {"lon": -77.0417625, "name": "1a21030d6d00c4f6e851b1310de18e4e", "is_disabled": 0, "type": "electric_scooter", "is_reserved": 0, "fusion_lon": 0.0, "lat": 38.91932516666667, "rental_uris": {"ios": "https://dc.lft.to/lastmile_qr_scan", "android": "https://dc.lft.to/lastmile_qr_scan"}, "bike_id": "1a21030d6d00c4f6e851b1310de18e4e", "fusion_lat": 0.0}, {"lon": -77.02127466666667, "name": "8c5fd63d57bcc7dcb61efca8c86fc094", "is_disabled": 0, "type": "electric_scooter", "is_reserved": 0, "fusion_lon": 0.0, "lat": 38.922755333333335, "rental_uris": {"ios": "https://dc.lft.to/lastmile_qr_scan", "android": "https://dc.lft.to/lastmile_qr_scan"}, "bike_id": "8c5fd63d57bcc7dcb61efca8c86fc094", "fusion_lat": 0.0}, {"lon": -77.01670683333333, "name": "8258cf1c462108ab8e66720e0cb0bf4f", "is_disabled": 0, "type": "electric_scooter", "is_reserved": 0, "fusion_lon": 0.0, "lat": 38.92043683333333, "rental_uris": {"ios": "https://dc.lft.to/lastmile_qr_scan", "android": "https://dc.lft.to/lastmile_qr_scan"}, "bike_id": "8258cf1c462108ab8e66720e0cb0bf4f", "fusion_lat": 0.0}, {"lon": -77.034378, "name": "2c0ef28c02dd1dd0d333b31410fa3933", "is_disabled": 0, "type": "electric_scooter", "is_reserved": 0, "fusion_lon": 0.0, "lat": 38.90973316666667, "rental_uris": {"ios": "https://dc.lft.to/lastmile_qr_scan", "android": "https://dc.lft.to/lastmile_qr_scan"}, "bike_id": "2c0ef28c02dd1dd0d333b31410fa3933", "fusion_lat": 0.0}, {"lon": -77.03647583333333, "name": "32313cd1ccf095d329901edd4e128873", "is_disabled": 0, "type": "electric_scooter", "is_reserved": 0, "fusion_lon": 0.0, "lat": 38.9028175, "rental_uris": {"ios": "https://dc.lft.to/lastmile_qr_scan", "android": "https://dc.lft.to/lastmile_qr_scan"}, "bike_id": "32313cd1ccf095d329901edd4e128873", "fusion_lat": 0.0}, {"lon": -77.01857716666666, "name": "df1699912b8b8f3404006865dfb5d48f", "is_disabled": 0, "type": "electric_scooter", "is_reserved": 0, "fusion_lon": 0.0, "lat": 38.92137733333333, "rental_uris": {"ios": "https://dc.lft.to/lastmile_qr_scan", "android": "https://dc.lft.to/lastmile_qr_scan"}, "bike_id": "df1699912b8b8f3404006865dfb5d48f", "fusion_lat": 0.0}, {"lon": -77.0489805, "name": "e800134b66ac3864f55b7ff608ce8d60", "is_disabled": 0, "type": "electric_scooter", "is_reserved": 0, "fusion_lon": 0.0, "lat": 38.900660333333335, "rental_uris": {"ios": "https://dc.lft.to/lastmile_qr_scan", "android": "https://dc.lft.to/lastmile_qr_scan"}, "bike_id": "e800134b66ac3864f55b7ff608ce8d60", "fusion_lat": 0.0}, {"lon": -76.99827533333334, "name": "9b66b51adea7962f2d165b4caf9601a1", "is_disabled": 0, "type": "electric_scooter", "is_reserved": 0, "fusion_lon": 0.0, "lat": 38.90721633333333, "rental_uris": {"ios": "https://dc.lft.to/lastmile_qr_scan", "android": "https://dc.lft.to/lastmile_qr_scan"}, "bike_id": "9b66b51adea7962f2d165b4caf9601a1", "fusion_lat": 0.0}, {"lon": -77.090211, "name": "710ffecb35add89c0ea8645f4aaec2de", "is_disabled": 0, "type": "electric_bike", "is_reserved": 0, "fusion_lon": 0.0, "lat": 38.92648666666667, "rental_uris": {"ios": "https://dc.lft.to/lastmile_qr_scan", "android": "https://dc.lft.to/lastmile_qr_scan"}, "bike_id": "710ffecb35add89c0ea8645f4aaec2de", "fusion_lat": 0.0}, {"lon": -77.063058, "name": "91411cf148037c7e309fe5a9e9373bfd", "is_disabled": 0, "type": "electric_scooter", "is_reserved": 0, "fusion_lon": 0.0, "lat": 38.9077535, "rental_uris": {"ios": "https://dc.lft.to/lastmile_qr_scan", "android": "https://dc.lft.to/lastmile_qr_scan"}, "bike_id": "91411cf148037c7e309fe5a9e9373bfd", "fusion_lat": 0.0}, {"lon": -77.02950133333333, "name": "ea0713e8f4a5ded0f665f07b992e26db", "is_disabled": 0, "type": "electric_scooter", "is_reserved": 0, "fusion_lon": 0.0, "lat": 38.94305466666667, "rental_uris": {"ios": "https://dc.lft.to/lastmile_qr_scan", "android": "https://dc.lft.to/lastmile_qr_scan"}, "bike_id": "ea0713e8f4a5ded0f665f07b992e26db", "fusion_lat": 0.0}, {"lon": -77.04167616666666, "name": "4a683744753f8a490b8b13f51773319e", "is_disabled": 0, "type": "electric_scooter", "is_reserved": 0, "fusion_lon": 0.0, "lat": 38.91990083333334, "rental_uris": {"ios": "https://dc.lft.to/lastmile_qr_scan", "android": "https://dc.lft.to/lastmile_qr_scan"}, "bike_id": "4a683744753f8a490b8b13f51773319e", "fusion_lat": 0.0}, {"lon": -76.975589, "name": "0995479c371c627ff76fc9bf877240cd", "is_disabled": 0, "type": "electric_bike", "is_reserved": 0, "fusion_lon": 0.0, "lat": 38.9245515, "rental_uris": {"ios": "https://dc.lft.to/lastmile_qr_scan", "android": "https://dc.lft.to/lastmile_qr_scan"}, "bike_id": "0995479c371c627ff76fc9bf877240cd", "fusion_lat": 0.0}, {"lon": -77.04170133333334, "name": "8a044e80ac772e5ec2ed3f7256a9b9b8", "is_disabled": 0, "type": "electric_scooter", "is_reserved": 0, "fusion_lon": 0.0, "lat": 38.91919683333333, "rental_uris": {"ios": "https://dc.lft.to/lastmile_qr_scan", "android": "https://dc.lft.to/lastmile_qr_scan"}, "bike_id": "8a044e80ac772e5ec2ed3f7256a9b9b8", "fusion_lat": 0.0}, {"lon": -77.064103, "name": "04a1065f2ae152c586b2ac71b590b978", "is_disabled": 0, "type": "electric_bike", "is_reserved": 0, "fusion_lon": 0.0, "lat": 38.98010433333334, "rental_uris": {"ios": "https://dc.lft.to/lastmile_qr_scan", "android": "https://dc.lft.to/lastmile_qr_scan"}, "bike_id": "04a1065f2ae152c586b2ac71b590b978", "fusion_lat": 0.0}, {"lon": -77.00188483333334, "name": "7db63d49665f6ca8e4b956965f65e608", "is_disabled": 0, "type": "electric_scooter", "is_reserved": 0, "fusion_lon": 0.0, "lat": 38.894813666666664, "rental_uris": {"ios": "https://dc.lft.to/lastmile_qr_scan", "android": "https://dc.lft.to/lastmile_qr_scan"}, "bike_id": "7db63d49665f6ca8e4b956965f65e608", "fusion_lat": 0.0}, {"lon": -77.0987475, "name": "69400b8c980e19686582fe39ea337373", "is_disabled": 0, "type": "electric_bike", "is_reserved": 0, "fusion_lon": 0.0, "lat": 38.94719666666667, "rental_uris": {"ios": "https://dc.lft.to/lastmile_qr_scan", "android": "https://dc.lft.to/lastmile_qr_scan"}, "bike_id": "69400b8c980e19686582fe39ea337373", "fusion_lat": 0.0}, {"lon": -77.00561666666667, "name": "e30cb5b455f7dd8d1601dc53ad17d20c", "is_disabled": 0, "type": "electric_scooter", "is_reserved": 0, "fusion_lon": 0.0, "lat": 38.8961235, "rental_uris": {"ios": "https://dc.lft.to/lastmile_qr_scan", "android": "https://dc.lft.to/lastmile_qr_scan"}, "bike_id": "e30cb5b455f7dd8d1601dc53ad17d20c", "fusion_lat": 0.0}, {"lon": -77.02557583333333, "name": "2896b5d8ca2587780007f7cbd163a159", "is_disabled": 0, "type": "electric_scooter", "is_reserved": 0, "fusion_lon": 0.0, "lat": 38.923704, "rental_uris": {"ios": "https://dc.lft.to/lastmile_qr_scan", "android": "https://dc.lft.to/lastmile_qr_scan"}, "bike_id": "2896b5d8ca2587780007f7cbd163a159", "fusion_lat": 0.0}, {"lon": -77.03662033333333, "name": "39f7945d84dabaf69c62676a411dc7b6", "is_disabled": 0, "type": "electric_scooter", "is_reserved": 0, "fusion_lon": 0.0, "lat": 38.917233833333334, "rental_uris": {"ios": "https://dc.lft.to/lastmile_qr_scan", "android": "https://dc.lft.to/lastmile_qr_scan"}, "bike_id": "39f7945d84dabaf69c62676a411dc7b6", "fusion_lat": 0.0}, {"lon": -76.9901425, "name": "50f973530e5a54689144f60aa7cf7aca", "is_disabled": 0, "type": "electric_scooter", "is_reserved": 0, "fusion_lon": 0.0, "lat": 38.88269316666667, "rental_uris": {"ios": "https://dc.lft.to/lastmile_qr_scan", "android": "https://dc.lft.to/lastmile_qr_scan"}, "bike_id": "50f973530e5a54689144f60aa7cf7aca", "fusion_lat": 0.0}, {"lon": -77.01837516666667, "name": "681c95b314b19eff03575fb4d3521eea", "is_disabled": 0, "type": "electric_scooter", "is_reserved": 0, "fusion_lon": 0.0, "lat": 38.89743633333333, "rental_uris": {"ios": "https://dc.lft.to/lastmile_qr_scan", "android": "https://dc.lft.to/lastmile_qr_scan"}, "bike_id": "681c95b314b19eff03575fb4d3521eea", "fusion_lat": 0.0}, {"lon": -77.025012, "name": "f129c76050915aa31f4b5eec7e07558b", "is_disabled": 0, "type": "electric_scooter", "is_reserved": 0, "fusion_lon": 0.0, "lat": 38.91982733333333, "rental_uris": {"ios": "https://dc.lft.to/lastmile_qr_scan", "android": "https://dc.lft.to/lastmile_qr_scan"}, "bike_id": "f129c76050915aa31f4b5eec7e07558b", "fusion_lat": 0.0}, {"lon": -77.03267116666666, "name": "f56641b40c9de9607e8b2088c2821abc", "is_disabled": 0, "type": "electric_scooter", "is_reserved": 0, "fusion_lon": 0.0, "lat": 38.927538166666665, "rental_uris": {"ios": "https://dc.lft.to/lastmile_qr_scan", "android": "https://dc.lft.to/lastmile_qr_scan"}, "bike_id": "f56641b40c9de9607e8b2088c2821abc", "fusion_lat": 0.0}, {"lon": -77.0030785, "name": "e75a554ad9dc1a2f0f65c35937c0f524", "is_disabled": 0, "type": "electric_scooter", "is_reserved": 0, "fusion_lon": 0.0, "lat": 38.892264833333336, "rental_uris": {"ios": "https://dc.lft.to/lastmile_qr_scan", "android": "https://dc.lft.to/lastmile_qr_scan"}, "bike_id": "e75a554ad9dc1a2f0f65c35937c0f524", "fusion_lat": 0.0}, {"lon": -77.02521266666666, "name": "d726286ce075902e4f7171f61c09aba9", "is_disabled": 0, "type": "electric_scooter", "is_reserved": 0, "fusion_lon": 0.0, "lat": 38.92160466666667, "rental_uris": {"ios": "https://dc.lft.to/lastmile_qr_scan", "android": "https://dc.lft.to/lastmile_qr_scan"}, "bike_id": "d726286ce075902e4f7171f61c09aba9", "fusion_lat": 0.0}, {"lon": -77.06127183333334, "name": "013629192043bcf71f65d2c80cc14043", "is_disabled": 0, "type": "electric_scooter", "is_reserved": 0, "fusion_lon": 0.0, "lat": 38.940807666666664, "rental_uris": {"ios": "https://dc.lft.to/lastmile_qr_scan", "android": "https://dc.lft.to/lastmile_qr_scan"}, "bike_id": "013629192043bcf71f65d2c80cc14043", "fusion_lat": 0.0}, {"lon": -77.01956416666667, "name": "eacf79d420aca70488dcd0fcd9176ffc", "is_disabled": 0, "type": "electric_scooter", "is_reserved": 0, "fusion_lon": 0.0, "lat": 38.92420333333333, "rental_uris": {"ios": "https://dc.lft.to/lastmile_qr_scan", "android": "https://dc.lft.to/lastmile_qr_scan"}, "bike_id": "eacf79d420aca70488dcd0fcd9176ffc", "fusion_lat": 0.0}, {"lon": -77.01950566666666, "name": "854b74ae71799752bf9b43d1b458909d", "is_disabled": 0, "type": "electric_scooter", "is_reserved": 0, "fusion_lon": 0.0, "lat": 38.92408433333333, "rental_uris": {"ios": "https://dc.lft.to/lastmile_qr_scan", "android": "https://dc.lft.to/lastmile_qr_scan"}, "bike_id": "854b74ae71799752bf9b43d1b458909d", "fusion_lat": 0.0}, {"lon": -77.04998533333334, "name": "49192d981122e7d1747d547bef7b5c0c", "is_disabled": 0, "type": "electric_scooter", "is_reserved": 0, "fusion_lon": 0.0, "lat": 38.892302, "rental_uris": {"ios": "https://dc.lft.to/lastmile_qr_scan", "android": "https://dc.lft.to/lastmile_qr_scan"}, "bike_id": "49192d981122e7d1747d547bef7b5c0c", "fusion_lat": 0.0}, {"lon": -77.029354, "name": "422db0223b4ad94977e719d69024670b", "is_disabled": 0, "type": "electric_scooter", "is_reserved": 0, "fusion_lon": 0.0, "lat": 38.903726, "rental_uris": {"ios": "https://dc.lft.to/lastmile_qr_scan", "android": "https://dc.lft.to/lastmile_qr_scan"}, "bike_id": "422db0223b4ad94977e719d69024670b", "fusion_lat": 0.0}, {"lon": -77.0382385, "name": "74e299b76b30645ebcd063bce219369d", "is_disabled": 0, "type": "electric_scooter", "is_reserved": 0, "fusion_lon": 0.0, "lat": 38.92080033333333, "rental_uris": {"ios": "https://dc.lft.to/lastmile_qr_scan", "android": "https://dc.lft.to/lastmile_qr_scan"}, "bike_id": "74e299b76b30645ebcd063bce219369d", "fusion_lat": 0.0}, {"lon": -77.017031, "name": "f600ee14592788fe5cb170788b9eb8dc", "is_disabled": 0, "type": "electric_scooter", "is_reserved": 0, "fusion_lon": 0.0, "lat": 38.91363833333333, "rental_uris": {"ios": "https://dc.lft.to/lastmile_qr_scan", "android": "https://dc.lft.to/lastmile_qr_scan"}, "bike_id": "f600ee14592788fe5cb170788b9eb8dc", "fusion_lat": 0.0}, {"lon": -77.00173433333333, "name": "968ad4d1b10f20071d0b0eb350f0264f", "is_disabled": 0, "type": "electric_scooter", "is_reserved": 0, "fusion_lon": 0.0, "lat": 38.88873983333333, "rental_uris": {"ios": "https://dc.lft.to/lastmile_qr_scan", "android": "https://dc.lft.to/lastmile_qr_scan"}, "bike_id": "968ad4d1b10f20071d0b0eb350f0264f", "fusion_lat": 0.0}, {"lon": -77.07468616666667, "name": "687cc9c6b0482f3e49462553952e6f9e", "is_disabled": 0, "type": "electric_scooter", "is_reserved": 0, "fusion_lon": 0.0, "lat": 38.92275633333333, "rental_uris": {"ios": "https://dc.lft.to/lastmile_qr_scan", "android": "https://dc.lft.to/lastmile_qr_scan"}, "bike_id": "687cc9c6b0482f3e49462553952e6f9e", "fusion_lat": 0.0}, {"lon": -77.02592683333333, "name": "c6db2094aaadbe4b3bee9d5bcb841946", "is_disabled": 0, "type": "electric_scooter", "is_reserved": 0, "fusion_lon": 0.0, "lat": 38.898801666666664, "rental_uris": {"ios": "https://dc.lft.to/lastmile_qr_scan", "android": "https://dc.lft.to/lastmile_qr_scan"}, "bike_id": "c6db2094aaadbe4b3bee9d5bcb841946", "fusion_lat": 0.0}, {"lon": -77.00395716666667, "name": "5123aa81889215152e488492b84abae7", "is_disabled": 0, "type": "electric_scooter", "is_reserved": 0, "fusion_lon": 0.0, "lat": 38.9057155, "rental_uris": {"ios": "https://dc.lft.to/lastmile_qr_scan", "android": "https://dc.lft.to/lastmile_qr_scan"}, "bike_id": "5123aa81889215152e488492b84abae7", "fusion_lat": 0.0}, {"lon": -77.02216166666666, "name": "918493ffe66ee68699b9159ed7e18026", "is_disabled": 0, "type": "electric_scooter", "is_reserved": 0, "fusion_lon": 0.0, "lat": 38.9246845, "rental_uris": {"ios": "https://dc.lft.to/lastmile_qr_scan", "android": "https://dc.lft.to/lastmile_qr_scan"}, "bike_id": "918493ffe66ee68699b9159ed7e18026", "fusion_lat": 0.0}, {"lon": -77.03169483333333, "name": "649cc7ea7852fc8b366dc63e93045c7f", "is_disabled": 0, "type": "electric_scooter", "is_reserved": 0, "fusion_lon": 0.0, "lat": 38.915661666666665, "rental_uris": {"ios": "https://dc.lft.to/lastmile_qr_scan", "android": "https://dc.lft.to/lastmile_qr_scan"}, "bike_id": "649cc7ea7852fc8b366dc63e93045c7f", "fusion_lat": 0.0}, {"lon": -77.037048, "name": "5263afd580621d6a7fb38356a30594e4", "is_disabled": 0, "type": "electric_scooter", "is_reserved": 0, "fusion_lon": 0.0, "lat": 38.92638933333333, "rental_uris": {"ios": "https://dc.lft.to/lastmile_qr_scan", "android": "https://dc.lft.to/lastmile_qr_scan"}, "bike_id": "5263afd580621d6a7fb38356a30594e4", "fusion_lat": 0.0}, {"lon": -77.02199766666666, "name": "f6a41bdccde5b1f6890b864be00a79f9", "is_disabled": 0, "type": "electric_scooter", "is_reserved": 0, "fusion_lon": 0.0, "lat": 38.8861155, "rental_uris": {"ios": "https://dc.lft.to/lastmile_qr_scan", "android": "https://dc.lft.to/lastmile_qr_scan"}, "bike_id": "f6a41bdccde5b1f6890b864be00a79f9", "fusion_lat": 0.0}, {"lon": -76.99786983333334, "name": "ba682d27752465f2263ceddfbde5d95e", "is_disabled": 0, "type": "electric_scooter", "is_reserved": 0, "fusion_lon": 0.0, "lat": 38.88003116666667, "rental_uris": {"ios": "https://dc.lft.to/lastmile_qr_scan", "android": "https://dc.lft.to/lastmile_qr_scan"}, "bike_id": "ba682d27752465f2263ceddfbde5d95e", "fusion_lat": 0.0}, {"lon": -77.03649316666667, "name": "a053eea6d51eb12fb83fe055828b08a8", "is_disabled": 0, "type": "electric_scooter", "is_reserved": 0, "fusion_lon": 0.0, "lat": 38.90302066666667, "rental_uris": {"ios": "https://dc.lft.to/lastmile_qr_scan", "android": "https://dc.lft.to/lastmile_qr_scan"}, "bike_id": "a053eea6d51eb12fb83fe055828b08a8", "fusion_lat": 0.0}, {"lon": -77.02941216666666, "name": "2d0ebf1bfd6c0bc341d61c19d8a9b69d", "is_disabled": 0, "type": "electric_scooter", "is_reserved": 0, "fusion_lon": 0.0, "lat": 38.93968816666667, "rental_uris": {"ios": "https://dc.lft.to/lastmile_qr_scan", "android": "https://dc.lft.to/lastmile_qr_scan"}, "bike_id": "2d0ebf1bfd6c0bc341d61c19d8a9b69d", "fusion_lat": 0.0}, {"lon": -77.03502566666667, "name": "9def7b5070e2ec0a8ee9e8e3714053be", "is_disabled": 0, "type": "electric_scooter", "is_reserved": 0, "fusion_lon": 0.0, "lat": 38.91631983333333, "rental_uris": {"ios": "https://dc.lft.to/lastmile_qr_scan", "android": "https://dc.lft.to/lastmile_qr_scan"}, "bike_id": "9def7b5070e2ec0a8ee9e8e3714053be", "fusion_lat": 0.0}, {"lon": -76.98371, "name": "750851be36f2d0ba03cda37e1c13ef4c", "is_disabled": 0, "type": "electric_scooter", "is_reserved": 0, "fusion_lon": 0.0, "lat": 38.89270883333333, "rental_uris": {"ios": "https://dc.lft.to/lastmile_qr_scan", "android": "https://dc.lft.to/lastmile_qr_scan"}, "bike_id": "750851be36f2d0ba03cda37e1c13ef4c", "fusion_lat": 0.0}, {"lon": -77.0342355, "name": "f1c3bc3bbfe109d7b513320f60dd7999", "is_disabled": 0, "type": "electric_scooter", "is_reserved": 0, "fusion_lon": 0.0, "lat": 38.90262383333334, "rental_uris": {"ios": "https://dc.lft.to/lastmile_qr_scan", "android": "https://dc.lft.to/lastmile_qr_scan"}, "bike_id": "f1c3bc3bbfe109d7b513320f60dd7999", "fusion_lat": 0.0}, {"lon": -77.0250835, "name": "815568234d3296dac7ed94754f7974fc", "is_disabled": 0, "type": "electric_scooter", "is_reserved": 0, "fusion_lon": 0.0, "lat": 38.92097166666667, "rental_uris": {"ios": "https://dc.lft.to/lastmile_qr_scan", "android": "https://dc.lft.to/lastmile_qr_scan"}, "bike_id": "815568234d3296dac7ed94754f7974fc", "fusion_lat": 0.0}, {"lon": -77.02556566666667, "name": "b7c243acd92cad8aff1a5ac8fcb3b87e", "is_disabled": 0, "type": "electric_bike", "is_reserved": 0, "fusion_lon": 0.0, "lat": 38.8837365, "rental_uris": {"ios": "https://dc.lft.to/lastmile_qr_scan", "android": "https://dc.lft.to/lastmile_qr_scan"}, "bike_id": "b7c243acd92cad8aff1a5ac8fcb3b87e", "fusion_lat": 0.0}, {"lon": -77.03289016666666, "name": "7684ad08b408b5b3f75a25703408fc59", "is_disabled": 0, "type": "electric_scooter", "is_reserved": 0, "fusion_lon": 0.0, "lat": 38.9565195, "rental_uris": {"ios": "https://dc.lft.to/lastmile_qr_scan", "android": "https://dc.lft.to/lastmile_qr_scan"}, "bike_id": "7684ad08b408b5b3f75a25703408fc59", "fusion_lat": 0.0}, {"lon": -77.032229, "name": "edec506c5cceff304cbf0b93763be62c", "is_disabled": 0, "type": "electric_scooter", "is_reserved": 0, "fusion_lon": 0.0, "lat": 38.8922555, "rental_uris": {"ios": "https://dc.lft.to/lastmile_qr_scan", "android": "https://dc.lft.to/lastmile_qr_scan"}, "bike_id": "edec506c5cceff304cbf0b93763be62c", "fusion_lat": 0.0}, {"lon": -77.09571066666666, "name": "bf44ba6a42d0b51b61ae5947ed9fddeb", "is_disabled": 0, "type": "electric_bike", "is_reserved": 0, "fusion_lon": 0.0, "lat": 38.991837333333336, "rental_uris": {"ios": "https://dc.lft.to/lastmile_qr_scan", "android": "https://dc.lft.to/lastmile_qr_scan"}, "bike_id": "bf44ba6a42d0b51b61ae5947ed9fddeb", "fusion_lat": 0.0}, {"lon": -77.04115383333334, "name": "21faef0f1a401e9a39c63f989617655b", "is_disabled": 0, "type": "electric_scooter", "is_reserved": 0, "fusion_lon": 0.0, "lat": 38.9059565, "rental_uris": {"ios": "https://dc.lft.to/lastmile_qr_scan", "android": "https://dc.lft.to/lastmile_qr_scan"}, "bike_id": "21faef0f1a401e9a39c63f989617655b", "fusion_lat": 0.0}, {"lon": -77.0251605, "name": "8bbc1966cbfa6c460995bf695404cde4", "is_disabled": 0, "type": "electric_scooter", "is_reserved": 0, "fusion_lon": 0.0, "lat": 38.919306, "rental_uris": {"ios": "https://dc.lft.to/lastmile_qr_scan", "android": "https://dc.lft.to/lastmile_qr_scan"}, "bike_id": "8bbc1966cbfa6c460995bf695404cde4", "fusion_lat": 0.0}, {"lon": -77.031767, "name": "b147d0a371af4844f25ce5b7371aeb4b", "is_disabled": 0, "type": "electric_scooter", "is_reserved": 0, "fusion_lon": 0.0, "lat": 38.91629533333333, "rental_uris": {"ios": "https://dc.lft.to/lastmile_qr_scan", "android": "https://dc.lft.to/lastmile_qr_scan"}, "bike_id": "b147d0a371af4844f25ce5b7371aeb4b", "fusion_lat": 0.0}, {"lon": -77.0899395, "name": "1c60c77f04d671ef9c42a7408f636ffb", "is_disabled": 0, "type": "electric_bike", "is_reserved": 0, "fusion_lon": 0.0, "lat": 38.90903316666667, "rental_uris": {"ios": "https://dc.lft.to/lastmile_qr_scan", "android": "https://dc.lft.to/lastmile_qr_scan"}, "bike_id": "1c60c77f04d671ef9c42a7408f636ffb", "fusion_lat": 0.0}, {"lon": -77.05939533333333, "name": "4746c4111d1d2df17da8e88b4f55b731", "is_disabled": 0, "type": "electric_scooter", "is_reserved": 0, "fusion_lon": 0.0, "lat": 38.93701266666667, "rental_uris": {"ios": "https://dc.lft.to/lastmile_qr_scan", "android": "https://dc.lft.to/lastmile_qr_scan"}, "bike_id": "4746c4111d1d2df17da8e88b4f55b731", "fusion_lat": 0.0}, {"lon": -77.071283, "name": "efc9d5d6ad16c0161ca4cd5b621d14a6", "is_disabled": 0, "type": "electric_scooter", "is_reserved": 0, "fusion_lon": 0.0, "lat": 38.92021116666667, "rental_uris": {"ios": "https://dc.lft.to/lastmile_qr_scan", "android": "https://dc.lft.to/lastmile_qr_scan"}, "bike_id": "efc9d5d6ad16c0161ca4cd5b621d14a6", "fusion_lat": 0.0}, {"lon": -77.03227, "name": "fb29fb77f32264010b61d297cc6491be", "is_disabled": 0, "type": "electric_scooter", "is_reserved": 0, "fusion_lon": 0.0, "lat": 38.9235625, "rental_uris": {"ios": "https://dc.lft.to/lastmile_qr_scan", "android": "https://dc.lft.to/lastmile_qr_scan"}, "bike_id": "fb29fb77f32264010b61d297cc6491be", "fusion_lat": 0.0}, {"lon": -77.04685333333333, "name": "0c93fac932c699fe7e76c1b272219a34", "is_disabled": 0, "type": "electric_scooter", "is_reserved": 0, "fusion_lon": 0.0, "lat": 38.893622, "rental_uris": {"ios": "https://dc.lft.to/lastmile_qr_scan", "android": "https://dc.lft.to/lastmile_qr_scan"}, "bike_id": "0c93fac932c699fe7e76c1b272219a34", "fusion_lat": 0.0}, {"lon": -77.00988933333333, "name": "803726666498199fd3be3ecfc8049699", "is_disabled": 0, "type": "electric_scooter", "is_reserved": 0, "fusion_lon": 0.0, "lat": 38.899006166666666, "rental_uris": {"ios": "https://dc.lft.to/lastmile_qr_scan", "android": "https://dc.lft.to/lastmile_qr_scan"}, "bike_id": "803726666498199fd3be3ecfc8049699", "fusion_lat": 0.0}, {"lon": -77.03282433333334, "name": "07855e1665b362c2c9c6b10811f3ed81", "is_disabled": 0, "type": "electric_scooter", "is_reserved": 0, "fusion_lon": 0.0, "lat": 38.93673033333334, "rental_uris": {"ios": "https://dc.lft.to/lastmile_qr_scan", "android": "https://dc.lft.to/lastmile_qr_scan"}, "bike_id": "07855e1665b362c2c9c6b10811f3ed81", "fusion_lat": 0.0}, {"lon": -76.9859905, "name": "badfae867cbfbdfc1d1ef4084297c43c", "is_disabled": 0, "type": "electric_scooter", "is_reserved": 0, "fusion_lon": 0.0, "lat": 38.90031583333333, "rental_uris": {"ios": "https://dc.lft.to/lastmile_qr_scan", "android": "https://dc.lft.to/lastmile_qr_scan"}, "bike_id": "badfae867cbfbdfc1d1ef4084297c43c", "fusion_lat": 0.0}, {"lon": -76.99150783333333, "name": "c2279e39854e05c28fde769ad9136f8a", "is_disabled": 0, "type": "electric_bike", "is_reserved": 0, "fusion_lon": 0.0, "lat": 38.87341816666667, "rental_uris": {"ios": "https://dc.lft.to/lastmile_qr_scan", "android": "https://dc.lft.to/lastmile_qr_scan"}, "bike_id": "c2279e39854e05c28fde769ad9136f8a", "fusion_lat": 0.0}, {"lon": -77.02215983333333, "name": "1a3a1beab68df9af5e4ae22c6756a844", "is_disabled": 0, "type": "electric_scooter", "is_reserved": 0, "fusion_lon": 0.0, "lat": 38.9246945, "rental_uris": {"ios": "https://dc.lft.to/lastmile_qr_scan", "android": "https://dc.lft.to/lastmile_qr_scan"}, "bike_id": "1a3a1beab68df9af5e4ae22c6756a844", "fusion_lat": 0.0}, {"lon": -77.026488, "name": "f7492809a1739b0e3477b96aef31f040", "is_disabled": 0, "type": "electric_scooter", "is_reserved": 0, "fusion_lon": 0.0, "lat": 38.902676666666665, "rental_uris": {"ios": "https://dc.lft.to/lastmile_qr_scan", "android": "https://dc.lft.to/lastmile_qr_scan"}, "bike_id": "f7492809a1739b0e3477b96aef31f040", "fusion_lat": 0.0}, {"lon": -77.03190733333334, "name": "f7878bfaaa7d357c45cd1adaac98a71a", "is_disabled": 0, "type": "electric_scooter", "is_reserved": 0, "fusion_lon": 0.0, "lat": 38.892343333333336, "rental_uris": {"ios": "https://dc.lft.to/lastmile_qr_scan", "android": "https://dc.lft.to/lastmile_qr_scan"}, "bike_id": "f7878bfaaa7d357c45cd1adaac98a71a", "fusion_lat": 0.0}, {"lon": -77.0172465, "name": "3797c4e1abcc269575c1a472deb23f10", "is_disabled": 0, "type": "electric_scooter", "is_reserved": 0, "fusion_lon": 0.0, "lat": 38.9203515, "rental_uris": {"ios": "https://dc.lft.to/lastmile_qr_scan", "android": "https://dc.lft.to/lastmile_qr_scan"}, "bike_id": "3797c4e1abcc269575c1a472deb23f10", "fusion_lat": 0.0}, {"lon": -76.97854666666667, "name": "3839dcd551e1d2329efe5f83c694cb4e", "is_disabled": 0, "type": "electric_scooter", "is_reserved": 0, "fusion_lon": 0.0, "lat": 38.8971205, "rental_uris": {"ios": "https://dc.lft.to/lastmile_qr_scan", "android": "https://dc.lft.to/lastmile_qr_scan"}, "bike_id": "3839dcd551e1d2329efe5f83c694cb4e", "fusion_lat": 0.0}, {"lon": -76.98336166666667, "name": "61b30c3d204f659da18d11b7714fa0b0", "is_disabled": 0, "type": "electric_scooter", "is_reserved": 0, "fusion_lon": 0.0, "lat": 38.89543283333333, "rental_uris": {"ios": "https://dc.lft.to/lastmile_qr_scan", "android": "https://dc.lft.to/lastmile_qr_scan"}, "bike_id": "61b30c3d204f659da18d11b7714fa0b0", "fusion_lat": 0.0}, {"lon": -77.05742316666667, "name": "969eeb7471d78c4829c78090422d1ed2", "is_disabled": 0, "type": "electric_scooter", "is_reserved": 0, "fusion_lon": 0.0, "lat": 38.9339275, "rental_uris": {"ios": "https://dc.lft.to/lastmile_qr_scan", "android": "https://dc.lft.to/lastmile_qr_scan"}, "bike_id": "969eeb7471d78c4829c78090422d1ed2", "fusion_lat": 0.0}, {"lon": -77.0213395, "name": "3d5cd310abbeac3456dfc2c763313595", "is_disabled": 0, "type": "electric_scooter", "is_reserved": 0, "fusion_lon": 0.0, "lat": 38.931136, "rental_uris": {"ios": "https://dc.lft.to/lastmile_qr_scan", "android": "https://dc.lft.to/lastmile_qr_scan"}, "bike_id": "3d5cd310abbeac3456dfc2c763313595", "fusion_lat": 0.0}, {"lon": -77.045029, "name": "f0e192eaa00284560e8ed14b1c4041dd", "is_disabled": 0, "type": "electric_scooter", "is_reserved": 0, "fusion_lon": 0.0, "lat": 38.91110166666667, "rental_uris": {"ios": "https://dc.lft.to/lastmile_qr_scan", "android": "https://dc.lft.to/lastmile_qr_scan"}, "bike_id": "f0e192eaa00284560e8ed14b1c4041dd", "fusion_lat": 0.0}, {"lon": -76.98792116666667, "name": "c8d2d2404ae864bfa95b563c31c2df47", "is_disabled": 0, "type": "electric_scooter", "is_reserved": 0, "fusion_lon": 0.0, "lat": 38.8784685, "rental_uris": {"ios": "https://dc.lft.to/lastmile_qr_scan", "android": "https://dc.lft.to/lastmile_qr_scan"}, "bike_id": "c8d2d2404ae864bfa95b563c31c2df47", "fusion_lat": 0.0}, {"lon": -76.97348733333334, "name": "0e934a911c5e4552c60e7063c70c2ce2", "is_disabled": 0, "type": "electric_bike", "is_reserved": 0, "fusion_lon": 0.0, "lat": 38.865663166666664, "rental_uris": {"ios": "https://dc.lft.to/lastmile_qr_scan", "android": "https://dc.lft.to/lastmile_qr_scan"}, "bike_id": "0e934a911c5e4552c60e7063c70c2ce2", "fusion_lat": 0.0}, {"lon": -77.04675133333333, "name": "44bdd6e0847a9a156755acbd7f5083fa", "is_disabled": 0, "type": "electric_scooter", "is_reserved": 0, "fusion_lon": 0.0, "lat": 38.92099, "rental_uris": {"ios": "https://dc.lft.to/lastmile_qr_scan", "android": "https://dc.lft.to/lastmile_qr_scan"}, "bike_id": "44bdd6e0847a9a156755acbd7f5083fa", "fusion_lat": 0.0}, {"lon": -77.00576583333333, "name": "20e69a61603f4addf1b1c729e8802a35", "is_disabled": 0, "type": "electric_scooter", "is_reserved": 0, "fusion_lon": 0.0, "lat": 38.8753995, "rental_uris": {"ios": "https://dc.lft.to/lastmile_qr_scan", "android": "https://dc.lft.to/lastmile_qr_scan"}, "bike_id": "20e69a61603f4addf1b1c729e8802a35", "fusion_lat": 0.0}, {"lon": -77.05312816666667, "name": "953c3989b5f4c8e1f79cb6cea532379d", "is_disabled": 0, "type": "electric_scooter", "is_reserved": 0, "fusion_lon": 0.0, "lat": 38.934676333333336, "rental_uris": {"ios": "https://dc.lft.to/lastmile_qr_scan", "android": "https://dc.lft.to/lastmile_qr_scan"}, "bike_id": "953c3989b5f4c8e1f79cb6cea532379d", "fusion_lat": 0.0}, {"lon": -77.01184666666667, "name": "87c152c801ef17717559faaaa39733aa", "is_disabled": 0, "type": "electric_scooter", "is_reserved": 0, "fusion_lon": 0.0, "lat": 38.897926166666664, "rental_uris": {"ios": "https://dc.lft.to/lastmile_qr_scan", "android": "https://dc.lft.to/lastmile_qr_scan"}, "bike_id": "87c152c801ef17717559faaaa39733aa", "fusion_lat": 0.0}, {"lon": -77.025, "name": "2d1e1524413a3709163bf0d147f106bc", "is_disabled": 0, "type": "electric_scooter", "is_reserved": 0, "fusion_lon": 0.0, "lat": 38.919291666666666, "rental_uris": {"ios": "https://dc.lft.to/lastmile_qr_scan", "android": "https://dc.lft.to/lastmile_qr_scan"}, "bike_id": "2d1e1524413a3709163bf0d147f106bc", "fusion_lat": 0.0}, {"lon": -77.00208933333333, "name": "c34518c5b2fa76da0b9125ac607a0410", "is_disabled": 0, "type": "electric_scooter", "is_reserved": 0, "fusion_lon": 0.0, "lat": 38.87396016666667, "rental_uris": {"ios": "https://dc.lft.to/lastmile_qr_scan", "android": "https://dc.lft.to/lastmile_qr_scan"}, "bike_id": "c34518c5b2fa76da0b9125ac607a0410", "fusion_lat": 0.0}, {"lon": -77.00329533333333, "name": "2dce9713f6b909f67925b5d2ed68c4b1", "is_disabled": 0, "type": "electric_scooter", "is_reserved": 0, "fusion_lon": 0.0, "lat": 38.8936865, "rental_uris": {"ios": "https://dc.lft.to/lastmile_qr_scan", "android": "https://dc.lft.to/lastmile_qr_scan"}, "bike_id": "2dce9713f6b909f67925b5d2ed68c4b1", "fusion_lat": 0.0}, {"lon": -77.02156266666667, "name": "c658ecdc690c71158ff453eec57f821e", "is_disabled": 0, "type": "electric_scooter", "is_reserved": 0, "fusion_lon": 0.0, "lat": 38.92441383333333, "rental_uris": {"ios": "https://dc.lft.to/lastmile_qr_scan", "android": "https://dc.lft.to/lastmile_qr_scan"}, "bike_id": "c658ecdc690c71158ff453eec57f821e", "fusion_lat": 0.0}, {"lon": -77.025473, "name": "76667b4f7f2aa60fb680f643f6df8968", "is_disabled": 0, "type": "electric_scooter", "is_reserved": 0, "fusion_lon": 0.0, "lat": 38.89586383333334, "rental_uris": {"ios": "https://dc.lft.to/lastmile_qr_scan", "android": "https://dc.lft.to/lastmile_qr_scan"}, "bike_id": "76667b4f7f2aa60fb680f643f6df8968", "fusion_lat": 0.0}, {"lon": -76.9955735, "name": "63188cdac21699d03f97c9a4d2fc854f", "is_disabled": 0, "type": "electric_scooter", "is_reserved": 0, "fusion_lon": 0.0, "lat": 38.92016783333333, "rental_uris": {"ios": "https://dc.lft.to/lastmile_qr_scan", "android": "https://dc.lft.to/lastmile_qr_scan"}, "bike_id": "63188cdac21699d03f97c9a4d2fc854f", "fusion_lat": 0.0}, {"lon": -77.049105, "name": "76f1ffd766c62b3ba553685858debded", "is_disabled": 0, "type": "electric_scooter", "is_reserved": 0, "fusion_lon": 0.0, "lat": 38.916017833333335, "rental_uris": {"ios": "https://dc.lft.to/lastmile_qr_scan", "android": "https://dc.lft.to/lastmile_qr_scan"}, "bike_id": "76f1ffd766c62b3ba553685858debded", "fusion_lat": 0.0}, {"lon": -77.0338355, "name": "0bcca38aba8fe9e6a90f8b728f813bf2", "is_disabled": 0, "type": "electric_scooter", "is_reserved": 0, "fusion_lon": 0.0, "lat": 38.930818, "rental_uris": {"ios": "https://dc.lft.to/lastmile_qr_scan", "android": "https://dc.lft.to/lastmile_qr_scan"}, "bike_id": "0bcca38aba8fe9e6a90f8b728f813bf2", "fusion_lat": 0.0}, {"lon": -77.02837716666667, "name": "b4564f6afdeab7a556a664be7af569ba", "is_disabled": 0, "type": "electric_scooter", "is_reserved": 0, "fusion_lon": 0.0, "lat": 38.8936485, "rental_uris": {"ios": "https://dc.lft.to/lastmile_qr_scan", "android": "https://dc.lft.to/lastmile_qr_scan"}, "bike_id": "b4564f6afdeab7a556a664be7af569ba", "fusion_lat": 0.0}, {"lon": -77.03111166666666, "name": "e8f53caee58d2c089dcc96cf577d4f6e", "is_disabled": 0, "type": "electric_scooter", "is_reserved": 0, "fusion_lon": 0.0, "lat": 38.92679033333334, "rental_uris": {"ios": "https://dc.lft.to/lastmile_qr_scan", "android": "https://dc.lft.to/lastmile_qr_scan"}, "bike_id": "e8f53caee58d2c089dcc96cf577d4f6e", "fusion_lat": 0.0}, {"lon": -77.04673333333334, "name": "80c15ca832cc1e8dd3c538fee02fe69e", "is_disabled": 0, "type": "electric_scooter", "is_reserved": 0, "fusion_lon": 0.0, "lat": 38.895593833333336, "rental_uris": {"ios": "https://dc.lft.to/lastmile_qr_scan", "android": "https://dc.lft.to/lastmile_qr_scan"}, "bike_id": "80c15ca832cc1e8dd3c538fee02fe69e", "fusion_lat": 0.0}, {"lon": -77.06430666666667, "name": "60de3f8cb3b8a757ff8293a79ddae11e", "is_disabled": 0, "type": "electric_scooter", "is_reserved": 0, "fusion_lon": 0.0, "lat": 38.9052025, "rental_uris": {"ios": "https://dc.lft.to/lastmile_qr_scan", "android": "https://dc.lft.to/lastmile_qr_scan"}, "bike_id": "60de3f8cb3b8a757ff8293a79ddae11e", "fusion_lat": 0.0}, {"lon": -77.02126783333334, "name": "a1f8db6a06a7b92f22110e6632ed7a5d", "is_disabled": 0, "type": "electric_scooter", "is_reserved": 0, "fusion_lon": 0.0, "lat": 38.92414333333333, "rental_uris": {"ios": "https://dc.lft.to/lastmile_qr_scan", "android": "https://dc.lft.to/lastmile_qr_scan"}, "bike_id": "a1f8db6a06a7b92f22110e6632ed7a5d", "fusion_lat": 0.0}, {"lon": -77.03215583333333, "name": "c4f0072b9130e218ff362482f4859f95", "is_disabled": 0, "type": "electric_bike", "is_reserved": 0, "fusion_lon": 0.0, "lat": 38.90042016666666, "rental_uris": {"ios": "https://dc.lft.to/lastmile_qr_scan", "android": "https://dc.lft.to/lastmile_qr_scan"}, "bike_id": "c4f0072b9130e218ff362482f4859f95", "fusion_lat": 0.0}, {"lon": -77.03209666666666, "name": "cce2392f859d5ad2047ea24a99cf2349", "is_disabled": 0, "type": "electric_scooter", "is_reserved": 0, "fusion_lon": 0.0, "lat": 38.893633, "rental_uris": {"ios": "https://dc.lft.to/lastmile_qr_scan", "android": "https://dc.lft.to/lastmile_qr_scan"}, "bike_id": "cce2392f859d5ad2047ea24a99cf2349", "fusion_lat": 0.0}, {"lon": -77.04238, "name": "e808bd41b6d5a4311f372df00d286426", "is_disabled": 0, "type": "electric_scooter", "is_reserved": 0, "fusion_lon": 0.0, "lat": 38.9220995, "rental_uris": {"ios": "https://dc.lft.to/lastmile_qr_scan", "android": "https://dc.lft.to/lastmile_qr_scan"}, "bike_id": "e808bd41b6d5a4311f372df00d286426", "fusion_lat": 0.0}, {"lon": -77.0261465, "name": "c81aebf0036e86c0ea3931f964e7fb43", "is_disabled": 0, "type": "electric_scooter", "is_reserved": 0, "fusion_lon": 0.0, "lat": 38.89745683333334, "rental_uris": {"ios": "https://dc.lft.to/lastmile_qr_scan", "android": "https://dc.lft.to/lastmile_qr_scan"}, "bike_id": "c81aebf0036e86c0ea3931f964e7fb43", "fusion_lat": 0.0}, {"lon": -77.04809916666666, "name": "19a43da06459fb894fe46ca5b41d7657", "is_disabled": 0, "type": "electric_scooter", "is_reserved": 0, "fusion_lon": 0.0, "lat": 38.90186383333333, "rental_uris": {"ios": "https://dc.lft.to/lastmile_qr_scan", "android": "https://dc.lft.to/lastmile_qr_scan"}, "bike_id": "19a43da06459fb894fe46ca5b41d7657", "fusion_lat": 0.0}, {"lon": -77.018747, "name": "159206f7e073ba1f0eba73d8b11c8d12", "is_disabled": 0, "type": "electric_scooter", "is_reserved": 0, "fusion_lon": 0.0, "lat": 38.932065, "rental_uris": {"ios": "https://dc.lft.to/lastmile_qr_scan", "android": "https://dc.lft.to/lastmile_qr_scan"}, "bike_id": "159206f7e073ba1f0eba73d8b11c8d12", "fusion_lat": 0.0}, {"lon": -77.02159016666667, "name": "32e40fdc93d5ffe31287018389cda3cd", "is_disabled": 0, "type": "electric_scooter", "is_reserved": 0, "fusion_lon": 0.0, "lat": 38.9261295, "rental_uris": {"ios": "https://dc.lft.to/lastmile_qr_scan", "android": "https://dc.lft.to/lastmile_qr_scan"}, "bike_id": "32e40fdc93d5ffe31287018389cda3cd", "fusion_lat": 0.0}, {"lon": -76.94463, "name": "218dca0b760706063a073528df320b1a", "is_disabled": 0, "type": "electric_scooter", "is_reserved": 0, "fusion_lon": 0.0, "lat": 38.89027766666667, "rental_uris": {"ios": "https://dc.lft.to/lastmile_qr_scan", "android": "https://dc.lft.to/lastmile_qr_scan"}, "bike_id": "218dca0b760706063a073528df320b1a", "fusion_lat": 0.0}, {"lon": -77.019854, "name": "b6ad9e36ebfb05c00c06d56e6e72014e", "is_disabled": 0, "type": "electric_scooter", "is_reserved": 0, "fusion_lon": 0.0, "lat": 38.894639833333336, "rental_uris": {"ios": "https://dc.lft.to/lastmile_qr_scan", "android": "https://dc.lft.to/lastmile_qr_scan"}, "bike_id": "b6ad9e36ebfb05c00c06d56e6e72014e", "fusion_lat": 0.0}, {"lon": -76.98843866666667, "name": "5cf4871a24dc5cf28ee9f96deeffa832", "is_disabled": 0, "type": "electric_bike", "is_reserved": 0, "fusion_lon": 0.0, "lat": 38.842790666666666, "rental_uris": {"ios": "https://dc.lft.to/lastmile_qr_scan", "android": "https://dc.lft.to/lastmile_qr_scan"}, "bike_id": "5cf4871a24dc5cf28ee9f96deeffa832", "fusion_lat": 0.0}, {"lon": -77.0271015, "name": "44ffb9dffba8fb6ab4bf29724ff4c969", "is_disabled": 0, "type": "electric_scooter", "is_reserved": 0, "fusion_lon": 0.0, "lat": 38.91686416666667, "rental_uris": {"ios": "https://dc.lft.to/lastmile_qr_scan", "android": "https://dc.lft.to/lastmile_qr_scan"}, "bike_id": "44ffb9dffba8fb6ab4bf29724ff4c969", "fusion_lat": 0.0}, {"lon": -77.03987366666667, "name": "a08a081f9b0dc2ff671de1c6938b8043", "is_disabled": 0, "type": "electric_scooter", "is_reserved": 0, "fusion_lon": 0.0, "lat": 38.9060585, "rental_uris": {"ios": "https://dc.lft.to/lastmile_qr_scan", "android": "https://dc.lft.to/lastmile_qr_scan"}, "bike_id": "a08a081f9b0dc2ff671de1c6938b8043", "fusion_lat": 0.0}, {"lon": -77.02391183333333, "name": "fa96c0b2f41abf3b2672a14b436a01ba", "is_disabled": 0, "type": "electric_scooter", "is_reserved": 0, "fusion_lon": 0.0, "lat": 38.920768, "rental_uris": {"ios": "https://dc.lft.to/lastmile_qr_scan", "android": "https://dc.lft.to/lastmile_qr_scan"}, "bike_id": "fa96c0b2f41abf3b2672a14b436a01ba", "fusion_lat": 0.0}, {"lon": -76.93595366666666, "name": "83063cc2fb86d0ed8766513874d0c71c", "is_disabled": 0, "type": "electric_scooter", "is_reserved": 0, "fusion_lon": 0.0, "lat": 38.909446333333335, "rental_uris": {"ios": "https://dc.lft.to/lastmile_qr_scan", "android": "https://dc.lft.to/lastmile_qr_scan"}, "bike_id": "83063cc2fb86d0ed8766513874d0c71c", "fusion_lat": 0.0}, {"lon": -77.04070483333334, "name": "e6511e2ba893a46c8e635a617a805197", "is_disabled": 0, "type": "electric_scooter", "is_reserved": 0, "fusion_lon": 0.0, "lat": 38.90507916666667, "rental_uris": {"ios": "https://dc.lft.to/lastmile_qr_scan", "android": "https://dc.lft.to/lastmile_qr_scan"}, "bike_id": "e6511e2ba893a46c8e635a617a805197", "fusion_lat": 0.0}, {"lon": -77.03456966666667, "name": "0596e7bedcb6e5cbdecc144f11c06b22", "is_disabled": 0, "type": "electric_scooter", "is_reserved": 0, "fusion_lon": 0.0, "lat": 38.90139666666666, "rental_uris": {"ios": "https://dc.lft.to/lastmile_qr_scan", "android": "https://dc.lft.to/lastmile_qr_scan"}, "bike_id": "0596e7bedcb6e5cbdecc144f11c06b22", "fusion_lat": 0.0}, {"lon": -77.01948183333333, "name": "d16b76b05740e777fc1c85b0e99bd0fd", "is_disabled": 0, "type": "electric_scooter", "is_reserved": 0, "fusion_lon": 0.0, "lat": 38.92254966666667, "rental_uris": {"ios": "https://dc.lft.to/lastmile_qr_scan", "android": "https://dc.lft.to/lastmile_qr_scan"}, "bike_id": "d16b76b05740e777fc1c85b0e99bd0fd", "fusion_lat": 0.0}, {"lon": -77.03455433333333, "name": "850e849bbd1668f6628876baf16dc9bc", "is_disabled": 0, "type": "electric_scooter", "is_reserved": 0, "fusion_lon": 0.0, "lat": 38.90945416666667, "rental_uris": {"ios": "https://dc.lft.to/lastmile_qr_scan", "android": "https://dc.lft.to/lastmile_qr_scan"}, "bike_id": "850e849bbd1668f6628876baf16dc9bc", "fusion_lat": 0.0}, {"lon": -77.04292983333333, "name": "8178282f3a70527d3576beed63db159a", "is_disabled": 0, "type": "electric_scooter", "is_reserved": 0, "fusion_lon": 0.0, "lat": 38.922556, "rental_uris": {"ios": "https://dc.lft.to/lastmile_qr_scan", "android": "https://dc.lft.to/lastmile_qr_scan"}, "bike_id": "8178282f3a70527d3576beed63db159a", "fusion_lat": 0.0}, {"lon": -77.01293083333333, "name": "00f42cbdcb644fec6a7c04f2376545f0", "is_disabled": 0, "type": "electric_bike", "is_reserved": 0, "fusion_lon": 0.0, "lat": 38.88146166666667, "rental_uris": {"ios": "https://dc.lft.to/lastmile_qr_scan", "android": "https://dc.lft.to/lastmile_qr_scan"}, "bike_id": "00f42cbdcb644fec6a7c04f2376545f0", "fusion_lat": 0.0}, {"lon": -77.06357333333334, "name": "4f6c071b4126427f07e29caf8a25fe89", "is_disabled": 0, "type": "electric_scooter", "is_reserved": 0, "fusion_lon": 0.0, "lat": 38.90808333333333, "rental_uris": {"ios": "https://dc.lft.to/lastmile_qr_scan", "android": "https://dc.lft.to/lastmile_qr_scan"}, "bike_id": "4f6c071b4126427f07e29caf8a25fe89", "fusion_lat": 0.0}, {"lon": -76.95132816666667, "name": "bff99484d8d089fdabd2ee9f6b2afe10", "is_disabled": 0, "type": "electric_bike", "is_reserved": 0, "fusion_lon": 0.0, "lat": 39.084252, "rental_uris": {"ios": "https://dc.lft.to/lastmile_qr_scan", "android": "https://dc.lft.to/lastmile_qr_scan"}, "bike_id": "bff99484d8d089fdabd2ee9f6b2afe10", "fusion_lat": 0.0}, {"lon": -77.0237505, "name": "b3bfc136d29074db17625b1779f77075", "is_disabled": 0, "type": "electric_scooter", "is_reserved": 0, "fusion_lon": 0.0, "lat": 38.91780583333333, "rental_uris": {"ios": "https://dc.lft.to/lastmile_qr_scan", "android": "https://dc.lft.to/lastmile_qr_scan"}, "bike_id": "b3bfc136d29074db17625b1779f77075", "fusion_lat": 0.0}, {"lon": -77.03243883333333, "name": "51feb3da8fe4ba92e281b8d4fc6324a8", "is_disabled": 0, "type": "electric_scooter", "is_reserved": 0, "fusion_lon": 0.0, "lat": 38.92997533333333, "rental_uris": {"ios": "https://dc.lft.to/lastmile_qr_scan", "android": "https://dc.lft.to/lastmile_qr_scan"}, "bike_id": "51feb3da8fe4ba92e281b8d4fc6324a8", "fusion_lat": 0.0}, {"lon": -77.03273216666666, "name": "412f635fab50a9b353e1bc30f44b1379", "is_disabled": 0, "type": "electric_scooter", "is_reserved": 0, "fusion_lon": 0.0, "lat": 38.9026265, "rental_uris": {"ios": "https://dc.lft.to/lastmile_qr_scan", "android": "https://dc.lft.to/lastmile_qr_scan"}, "bike_id": "412f635fab50a9b353e1bc30f44b1379", "fusion_lat": 0.0}, {"lon": -77.05488433333333, "name": "1b4f57895b9facb92a01756c55cd3e30", "is_disabled": 0, "type": "electric_scooter", "is_reserved": 0, "fusion_lon": 0.0, "lat": 38.897514666666666, "rental_uris": {"ios": "https://dc.lft.to/lastmile_qr_scan", "android": "https://dc.lft.to/lastmile_qr_scan"}, "bike_id": "1b4f57895b9facb92a01756c55cd3e30", "fusion_lat": 0.0}, {"lon": -77.02338866666666, "name": "d56bec8952f5c5c231605c14016fa768", "is_disabled": 0, "type": "electric_scooter", "is_reserved": 0, "fusion_lon": 0.0, "lat": 38.92071166666667, "rental_uris": {"ios": "https://dc.lft.to/lastmile_qr_scan", "android": "https://dc.lft.to/lastmile_qr_scan"}, "bike_id": "d56bec8952f5c5c231605c14016fa768", "fusion_lat": 0.0}, {"lon": -77.0520795, "name": "85e1224a9d45916ae3dd06ca64d49a5b", "is_disabled": 0, "type": "electric_scooter", "is_reserved": 0, "fusion_lon": 0.0, "lat": 38.92433783333333, "rental_uris": {"ios": "https://dc.lft.to/lastmile_qr_scan", "android": "https://dc.lft.to/lastmile_qr_scan"}, "bike_id": "85e1224a9d45916ae3dd06ca64d49a5b", "fusion_lat": 0.0}, {"lon": -77.02190683333333, "name": "3e529c66a1d322dfbbd058cd998002d7", "is_disabled": 0, "type": "electric_scooter", "is_reserved": 0, "fusion_lon": 0.0, "lat": 38.8779475, "rental_uris": {"ios": "https://dc.lft.to/lastmile_qr_scan", "android": "https://dc.lft.to/lastmile_qr_scan"}, "bike_id": "3e529c66a1d322dfbbd058cd998002d7", "fusion_lat": 0.0}, {"lon": -76.95701266666667, "name": "2fd3c6f9e840559fcb5f36fc74cd1ad1", "is_disabled": 0, "type": "electric_bike", "is_reserved": 0, "fusion_lon": 0.0, "lat": 38.888761333333335, "rental_uris": {"ios": "https://dc.lft.to/lastmile_qr_scan", "android": "https://dc.lft.to/lastmile_qr_scan"}, "bike_id": "2fd3c6f9e840559fcb5f36fc74cd1ad1", "fusion_lat": 0.0}, {"lon": -76.93238766666667, "name": "1f39f7d52527bbd769b42e417a7639fe", "is_disabled": 0, "type": "electric_bike", "is_reserved": 0, "fusion_lon": 0.0, "lat": 38.882819833333336, "rental_uris": {"ios": "https://dc.lft.to/lastmile_qr_scan", "android": "https://dc.lft.to/lastmile_qr_scan"}, "bike_id": "1f39f7d52527bbd769b42e417a7639fe", "fusion_lat": 0.0}, {"lon": -77.06372516666667, "name": "a81b73377778f288e63a8ddf529e897a", "is_disabled": 0, "type": "electric_scooter", "is_reserved": 0, "fusion_lon": 0.0, "lat": 38.9084935, "rental_uris": {"ios": "https://dc.lft.to/lastmile_qr_scan", "android": "https://dc.lft.to/lastmile_qr_scan"}, "bike_id": "a81b73377778f288e63a8ddf529e897a", "fusion_lat": 0.0}, {"lon": -77.052553, "name": "0bbb3dc70e3351027fe829f80be29d2f", "is_disabled": 0, "type": "electric_scooter", "is_reserved": 0, "fusion_lon": 0.0, "lat": 38.9035735, "rental_uris": {"ios": "https://dc.lft.to/lastmile_qr_scan", "android": "https://dc.lft.to/lastmile_qr_scan"}, "bike_id": "0bbb3dc70e3351027fe829f80be29d2f", "fusion_lat": 0.0}, {"lon": -77.0416515, "name": "c7c27cb98aefd94e9044871a81180bf0", "is_disabled": 0, "type": "electric_scooter", "is_reserved": 0, "fusion_lon": 0.0, "lat": 38.919097, "rental_uris": {"ios": "https://dc.lft.to/lastmile_qr_scan", "android": "https://dc.lft.to/lastmile_qr_scan"}, "bike_id": "c7c27cb98aefd94e9044871a81180bf0", "fusion_lat": 0.0}, {"lon": -77.029844, "name": "91de2375df43c938e466161cb9205b0d", "is_disabled": 0, "type": "electric_scooter", "is_reserved": 0, "fusion_lon": 0.0, "lat": 38.94718616666667, "rental_uris": {"ios": "https://dc.lft.to/lastmile_qr_scan", "android": "https://dc.lft.to/lastmile_qr_scan"}, "bike_id": "91de2375df43c938e466161cb9205b0d", "fusion_lat": 0.0}, {"lon": -77.055097, "name": "90b8554e69d9ca5298e1927a1cafa309", "is_disabled": 0, "type": "electric_scooter", "is_reserved": 0, "fusion_lon": 0.0, "lat": 38.9299485, "rental_uris": {"ios": "https://dc.lft.to/lastmile_qr_scan", "android": "https://dc.lft.to/lastmile_qr_scan"}, "bike_id": "90b8554e69d9ca5298e1927a1cafa309", "fusion_lat": 0.0}, {"lon": -77.028295, "name": "94d66e50e39a5fcfb195693f024c670b", "is_disabled": 0, "type": "electric_scooter", "is_reserved": 0, "fusion_lon": 0.0, "lat": 38.932325666666664, "rental_uris": {"ios": "https://dc.lft.to/lastmile_qr_scan", "android": "https://dc.lft.to/lastmile_qr_scan"}, "bike_id": "94d66e50e39a5fcfb195693f024c670b", "fusion_lat": 0.0}, {"lon": -77.02421033333333, "name": "55b93579a3090ae30fa7d7eec95802e6", "is_disabled": 0, "type": "electric_scooter", "is_reserved": 0, "fusion_lon": 0.0, "lat": 38.895223666666666, "rental_uris": {"ios": "https://dc.lft.to/lastmile_qr_scan", "android": "https://dc.lft.to/lastmile_qr_scan"}, "bike_id": "55b93579a3090ae30fa7d7eec95802e6", "fusion_lat": 0.0}, {"lon": -77.0144005, "name": "6ea62d3e0b80f800d37620f942181639", "is_disabled": 0, "type": "electric_scooter", "is_reserved": 0, "fusion_lon": 0.0, "lat": 38.909667666666664, "rental_uris": {"ios": "https://dc.lft.to/lastmile_qr_scan", "android": "https://dc.lft.to/lastmile_qr_scan"}, "bike_id": "6ea62d3e0b80f800d37620f942181639", "fusion_lat": 0.0}, {"lon": -77.03947133333334, "name": "069f7afe8919968512f03d84240c96d2", "is_disabled": 0, "type": "electric_scooter", "is_reserved": 0, "fusion_lon": 0.0, "lat": 38.9012405, "rental_uris": {"ios": "https://dc.lft.to/lastmile_qr_scan", "android": "https://dc.lft.to/lastmile_qr_scan"}, "bike_id": "069f7afe8919968512f03d84240c96d2", "fusion_lat": 0.0}, {"lon": -77.039159, "name": "4634ce87f3faaff20adacfabe9c77441", "is_disabled": 0, "type": "electric_scooter", "is_reserved": 0, "fusion_lon": 0.0, "lat": 38.906539333333335, "rental_uris": {"ios": "https://dc.lft.to/lastmile_qr_scan", "android": "https://dc.lft.to/lastmile_qr_scan"}, "bike_id": "4634ce87f3faaff20adacfabe9c77441", "fusion_lat": 0.0}, {"lon": -76.99516116666666, "name": "05633556bbcfdb0f9f58348e91e5682d", "is_disabled": 0, "type": "electric_scooter", "is_reserved": 0, "fusion_lon": 0.0, "lat": 38.90260983333334, "rental_uris": {"ios": "https://dc.lft.to/lastmile_qr_scan", "android": "https://dc.lft.to/lastmile_qr_scan"}, "bike_id": "05633556bbcfdb0f9f58348e91e5682d", "fusion_lat": 0.0}, {"lon": -77.0321465, "name": "0c12685256023e66cdfc5b4624bbb947", "is_disabled": 0, "type": "electric_scooter", "is_reserved": 0, "fusion_lon": 0.0, "lat": 38.9156295, "rental_uris": {"ios": "https://dc.lft.to/lastmile_qr_scan", "android": "https://dc.lft.to/lastmile_qr_scan"}, "bike_id": "0c12685256023e66cdfc5b4624bbb947", "fusion_lat": 0.0}, {"lon": -77.02520033333333, "name": "ee4a4185c72bbd175dc68cc0e09f35e8", "is_disabled": 0, "type": "electric_scooter", "is_reserved": 0, "fusion_lon": 0.0, "lat": 38.921625666666664, "rental_uris": {"ios": "https://dc.lft.to/lastmile_qr_scan", "android": "https://dc.lft.to/lastmile_qr_scan"}, "bike_id": "ee4a4185c72bbd175dc68cc0e09f35e8", "fusion_lat": 0.0}, {"lon": -77.02922316666667, "name": "d4509448d07d54f55097ec38b5cc0066", "is_disabled": 0, "type": "electric_scooter", "is_reserved": 0, "fusion_lon": 0.0, "lat": 38.89927983333333, "rental_uris": {"ios": "https://dc.lft.to/lastmile_qr_scan", "android": "https://dc.lft.to/lastmile_qr_scan"}, "bike_id": "d4509448d07d54f55097ec38b5cc0066", "fusion_lat": 0.0}, {"lon": -77.02511283333334, "name": "6c93e7d43dee43eafdbd776ceb80027f", "is_disabled": 0, "type": "electric_scooter", "is_reserved": 0, "fusion_lon": 0.0, "lat": 38.919306666666664, "rental_uris": {"ios": "https://dc.lft.to/lastmile_qr_scan", "android": "https://dc.lft.to/lastmile_qr_scan"}, "bike_id": "6c93e7d43dee43eafdbd776ceb80027f", "fusion_lat": 0.0}, {"lon": -76.925869, "name": "21abaec23ef0b8fff88b3f291e220eae", "is_disabled": 0, "type": "electric_scooter", "is_reserved": 0, "fusion_lon": 0.0, "lat": 38.897319, "rental_uris": {"ios": "https://dc.lft.to/lastmile_qr_scan", "android": "https://dc.lft.to/lastmile_qr_scan"}, "bike_id": "21abaec23ef0b8fff88b3f291e220eae", "fusion_lat": 0.0}, {"lon": -77.00366733333334, "name": "a9414297bf9575005f7a6c67557de00d", "is_disabled": 0, "type": "electric_bike", "is_reserved": 0, "fusion_lon": 0.0, "lat": 38.87642066666667, "rental_uris": {"ios": "https://dc.lft.to/lastmile_qr_scan", "android": "https://dc.lft.to/lastmile_qr_scan"}, "bike_id": "a9414297bf9575005f7a6c67557de00d", "fusion_lat": 0.0}, {"lon": -77.04463533333333, "name": "a227380682bcf450bd57bcdaf15e7bf7", "is_disabled": 0, "type": "electric_scooter", "is_reserved": 0, "fusion_lon": 0.0, "lat": 38.91861433333333, "rental_uris": {"ios": "https://dc.lft.to/lastmile_qr_scan", "android": "https://dc.lft.to/lastmile_qr_scan"}, "bike_id": "a227380682bcf450bd57bcdaf15e7bf7", "fusion_lat": 0.0}, {"lon": -77.02662716666667, "name": "931876106dbc96095ffb182f6b14319e", "is_disabled": 0, "type": "electric_scooter", "is_reserved": 0, "fusion_lon": 0.0, "lat": 38.897594166666664, "rental_uris": {"ios": "https://dc.lft.to/lastmile_qr_scan", "android": "https://dc.lft.to/lastmile_qr_scan"}, "bike_id": "931876106dbc96095ffb182f6b14319e", "fusion_lat": 0.0}, {"lon": -77.02790766666666, "name": "dc10d44c47759de8bcb1337889cf7c27", "is_disabled": 0, "type": "electric_bike", "is_reserved": 0, "fusion_lon": 0.0, "lat": 38.967537666666665, "rental_uris": {"ios": "https://dc.lft.to/lastmile_qr_scan", "android": "https://dc.lft.to/lastmile_qr_scan"}, "bike_id": "dc10d44c47759de8bcb1337889cf7c27", "fusion_lat": 0.0}, {"lon": -77.04817133333333, "name": "d7399211d7219c93b3a04e57bba3083c", "is_disabled": 0, "type": "electric_scooter", "is_reserved": 0, "fusion_lon": 0.0, "lat": 38.8984035, "rental_uris": {"ios": "https://dc.lft.to/lastmile_qr_scan", "android": "https://dc.lft.to/lastmile_qr_scan"}, "bike_id": "d7399211d7219c93b3a04e57bba3083c", "fusion_lat": 0.0}, {"lon": -77.0527305, "name": "7570eb1a7be77b32105f8265e648b3ed", "is_disabled": 0, "type": "electric_scooter", "is_reserved": 0, "fusion_lon": 0.0, "lat": 38.923370166666665, "rental_uris": {"ios": "https://dc.lft.to/lastmile_qr_scan", "android": "https://dc.lft.to/lastmile_qr_scan"}, "bike_id": "7570eb1a7be77b32105f8265e648b3ed", "fusion_lat": 0.0}, {"lon": -77.04863333333333, "name": "516ce96b790259589ad0c23b3589e1b4", "is_disabled": 0, "type": "electric_scooter", "is_reserved": 0, "fusion_lon": 0.0, "lat": 38.90861433333333, "rental_uris": {"ios": "https://dc.lft.to/lastmile_qr_scan", "android": "https://dc.lft.to/lastmile_qr_scan"}, "bike_id": "516ce96b790259589ad0c23b3589e1b4", "fusion_lat": 0.0}, {"lon": -76.93748666666667, "name": "6aa172de90f3d72e523d3c461f5a2dc9", "is_disabled": 0, "type": "electric_scooter", "is_reserved": 0, "fusion_lon": 0.0, "lat": 38.89029583333333, "rental_uris": {"ios": "https://dc.lft.to/lastmile_qr_scan", "android": "https://dc.lft.to/lastmile_qr_scan"}, "bike_id": "6aa172de90f3d72e523d3c461f5a2dc9", "fusion_lat": 0.0}, {"lon": -77.0236005, "name": "a5e506e8c2686c1b7179ddddf333116d", "is_disabled": 0, "type": "electric_scooter", "is_reserved": 0, "fusion_lon": 0.0, "lat": 38.925163, "rental_uris": {"ios": "https://dc.lft.to/lastmile_qr_scan", "android": "https://dc.lft.to/lastmile_qr_scan"}, "bike_id": "a5e506e8c2686c1b7179ddddf333116d", "fusion_lat": 0.0}, {"lon": -77.04810883333333, "name": "2d0fff169192c1123d33278ce3f362bb", "is_disabled": 0, "type": "electric_scooter", "is_reserved": 0, "fusion_lon": 0.0, "lat": 38.89828516666667, "rental_uris": {"ios": "https://dc.lft.to/lastmile_qr_scan", "android": "https://dc.lft.to/lastmile_qr_scan"}, "bike_id": "2d0fff169192c1123d33278ce3f362bb", "fusion_lat": 0.0}, {"lon": -77.01085366666666, "name": "2dff6ac1056fa2c3685e1a26a0cc7395", "is_disabled": 0, "type": "electric_scooter", "is_reserved": 0, "fusion_lon": 0.0, "lat": 38.903548666666666, "rental_uris": {"ios": "https://dc.lft.to/lastmile_qr_scan", "android": "https://dc.lft.to/lastmile_qr_scan"}, "bike_id": "2dff6ac1056fa2c3685e1a26a0cc7395", "fusion_lat": 0.0}, {"lon": -77.07546316666667, "name": "5372114f1cb0e8fba5cfa0c2841486d1", "is_disabled": 0, "type": "electric_scooter", "is_reserved": 0, "fusion_lon": 0.0, "lat": 38.9154145, "rental_uris": {"ios": "https://dc.lft.to/lastmile_qr_scan", "android": "https://dc.lft.to/lastmile_qr_scan"}, "bike_id": "5372114f1cb0e8fba5cfa0c2841486d1", "fusion_lat": 0.0}, {"lon": -76.991176, "name": "9e0486170f94434dcd8e36056c22b380", "is_disabled": 0, "type": "electric_scooter", "is_reserved": 0, "fusion_lon": 0.0, "lat": 38.900277833333334, "rental_uris": {"ios": "https://dc.lft.to/lastmile_qr_scan", "android": "https://dc.lft.to/lastmile_qr_scan"}, "bike_id": "9e0486170f94434dcd8e36056c22b380", "fusion_lat": 0.0}, {"lon": -77.06598183333334, "name": "10ed9e739699cde61a0634566341278e", "is_disabled": 0, "type": "electric_scooter", "is_reserved": 0, "fusion_lon": 0.0, "lat": 38.9122275, "rental_uris": {"ios": "https://dc.lft.to/lastmile_qr_scan", "android": "https://dc.lft.to/lastmile_qr_scan"}, "bike_id": "10ed9e739699cde61a0634566341278e", "fusion_lat": 0.0}, {"lon": -76.91801983333333, "name": "10c9b397c71b49dcb08ffa5f5a9f2911", "is_disabled": 0, "type": "electric_bike", "is_reserved": 0, "fusion_lon": 0.0, "lat": 38.99998433333333, "rental_uris": {"ios": "https://dc.lft.to/lastmile_qr_scan", "android": "https://dc.lft.to/lastmile_qr_scan"}, "bike_id": "10c9b397c71b49dcb08ffa5f5a9f2911", "fusion_lat": 0.0}, {"lon": -77.02205016666667, "name": "f43c13a412f79a5b7b99dad653c341d1", "is_disabled": 0, "type": "electric_scooter", "is_reserved": 0, "fusion_lon": 0.0, "lat": 38.924758833333335, "rental_uris": {"ios": "https://dc.lft.to/lastmile_qr_scan", "android": "https://dc.lft.to/lastmile_qr_scan"}, "bike_id": "f43c13a412f79a5b7b99dad653c341d1", "fusion_lat": 0.0}, {"lon": -77.01611716666666, "name": "9bd51e6c949586560109507ae062b16d", "is_disabled": 0, "type": "electric_scooter", "is_reserved": 0, "fusion_lon": 0.0, "lat": 38.89965266666667, "rental_uris": {"ios": "https://dc.lft.to/lastmile_qr_scan", "android": "https://dc.lft.to/lastmile_qr_scan"}, "bike_id": "9bd51e6c949586560109507ae062b16d", "fusion_lat": 0.0}, {"lon": -77.0669005, "name": "1d1f62d01421067d24a59a7911a233bc", "is_disabled": 0, "type": "electric_scooter", "is_reserved": 0, "fusion_lon": 0.0, "lat": 38.91420383333333, "rental_uris": {"ios": "https://dc.lft.to/lastmile_qr_scan", "android": "https://dc.lft.to/lastmile_qr_scan"}, "bike_id": "1d1f62d01421067d24a59a7911a233bc", "fusion_lat": 0.0}, {"lon": -77.03377, "name": "724e1dc58414fc87000307ac336f0e40", "is_disabled": 0, "type": "electric_scooter", "is_reserved": 0, "fusion_lon": 0.0, "lat": 38.92468683333333, "rental_uris": {"ios": "https://dc.lft.to/lastmile_qr_scan", "android": "https://dc.lft.to/lastmile_qr_scan"}, "bike_id": "724e1dc58414fc87000307ac336f0e40", "fusion_lat": 0.0}, {"lon": -77.06403716666667, "name": "231f03828f40ba8180a0292065045a85", "is_disabled": 0, "type": "electric_scooter", "is_reserved": 0, "fusion_lon": 0.0, "lat": 38.913518, "rental_uris": {"ios": "https://dc.lft.to/lastmile_qr_scan", "android": "https://dc.lft.to/lastmile_qr_scan"}, "bike_id": "231f03828f40ba8180a0292065045a85", "fusion_lat": 0.0}, {"lon": -77.02174583333333, "name": "1400c505aa16b98cc6e593a91d76d9e9", "is_disabled": 0, "type": "electric_scooter", "is_reserved": 0, "fusion_lon": 0.0, "lat": 38.905797, "rental_uris": {"ios": "https://dc.lft.to/lastmile_qr_scan", "android": "https://dc.lft.to/lastmile_qr_scan"}, "bike_id": "1400c505aa16b98cc6e593a91d76d9e9", "fusion_lat": 0.0}, {"lon": -76.98834916666667, "name": "a829995a763bf6d4c2488eec6a8e7d2d", "is_disabled": 0, "type": "electric_scooter", "is_reserved": 0, "fusion_lon": 0.0, "lat": 38.900347833333335, "rental_uris": {"ios": "https://dc.lft.to/lastmile_qr_scan", "android": "https://dc.lft.to/lastmile_qr_scan"}, "bike_id": "a829995a763bf6d4c2488eec6a8e7d2d", "fusion_lat": 0.0}, {"lon": -77.019718, "name": "20b26143de8b5f7aa3b876d5c6587c12", "is_disabled": 0, "type": "electric_scooter", "is_reserved": 0, "fusion_lon": 0.0, "lat": 38.88554116666667, "rental_uris": {"ios": "https://dc.lft.to/lastmile_qr_scan", "android": "https://dc.lft.to/lastmile_qr_scan"}, "bike_id": "20b26143de8b5f7aa3b876d5c6587c12", "fusion_lat": 0.0}, {"lon": -77.04348283333333, "name": "4b077291c6850325d903ceada578c22e", "is_disabled": 0, "type": "electric_scooter", "is_reserved": 0, "fusion_lon": 0.0, "lat": 38.92186366666667, "rental_uris": {"ios": "https://dc.lft.to/lastmile_qr_scan", "android": "https://dc.lft.to/lastmile_qr_scan"}, "bike_id": "4b077291c6850325d903ceada578c22e", "fusion_lat": 0.0}, {"lon": -76.99863, "name": "dc79adc05df865a242f5241ee67b7cd0", "is_disabled": 0, "type": "electric_scooter", "is_reserved": 0, "fusion_lon": 0.0, "lat": 38.90026233333333, "rental_uris": {"ios": "https://dc.lft.to/lastmile_qr_scan", "android": "https://dc.lft.to/lastmile_qr_scan"}, "bike_id": "dc79adc05df865a242f5241ee67b7cd0", "fusion_lat": 0.0}, {"lon": -77.00505933333334, "name": "e7297b946511fe3577f1d3c2b6b4c9b9", "is_disabled": 0, "type": "electric_scooter", "is_reserved": 0, "fusion_lon": 0.0, "lat": 38.875322833333335, "rental_uris": {"ios": "https://dc.lft.to/lastmile_qr_scan", "android": "https://dc.lft.to/lastmile_qr_scan"}, "bike_id": "e7297b946511fe3577f1d3c2b6b4c9b9", "fusion_lat": 0.0}, {"lon": -77.01510183333333, "name": "11d4bf7cb9bc1e7b1b0225c7e870d555", "is_disabled": 0, "type": "electric_scooter", "is_reserved": 0, "fusion_lon": 0.0, "lat": 38.91323933333334, "rental_uris": {"ios": "https://dc.lft.to/lastmile_qr_scan", "android": "https://dc.lft.to/lastmile_qr_scan"}, "bike_id": "11d4bf7cb9bc1e7b1b0225c7e870d555", "fusion_lat": 0.0}, {"lon": -76.99565083333333, "name": "9d74e9106b86c3f6b03fbeffa5503860", "is_disabled": 0, "type": "electric_scooter", "is_reserved": 0, "fusion_lon": 0.0, "lat": 38.90008733333333, "rental_uris": {"ios": "https://dc.lft.to/lastmile_qr_scan", "android": "https://dc.lft.to/lastmile_qr_scan"}, "bike_id": "9d74e9106b86c3f6b03fbeffa5503860", "fusion_lat": 0.0}, {"lon": -77.028556, "name": "e98b8c95fa439fa684d3b2aa25a62561", "is_disabled": 0, "type": "electric_scooter", "is_reserved": 0, "fusion_lon": 0.0, "lat": 38.92244983333333, "rental_uris": {"ios": "https://dc.lft.to/lastmile_qr_scan", "android": "https://dc.lft.to/lastmile_qr_scan"}, "bike_id": "e98b8c95fa439fa684d3b2aa25a62561", "fusion_lat": 0.0}, {"lon": -77.09940933333333, "name": "4030630ccd5ea70583537b51484d7a46", "is_disabled": 0, "type": "electric_scooter", "is_reserved": 0, "fusion_lon": 0.0, "lat": 38.9219165, "rental_uris": {"ios": "https://dc.lft.to/lastmile_qr_scan", "android": "https://dc.lft.to/lastmile_qr_scan"}, "bike_id": "4030630ccd5ea70583537b51484d7a46", "fusion_lat": 0.0}, {"lon": -77.02407416666667, "name": "1c455137ba5283da9105718420d43f82", "is_disabled": 0, "type": "electric_scooter", "is_reserved": 0, "fusion_lon": 0.0, "lat": 38.89644216666667, "rental_uris": {"ios": "https://dc.lft.to/lastmile_qr_scan", "android": "https://dc.lft.to/lastmile_qr_scan"}, "bike_id": "1c455137ba5283da9105718420d43f82", "fusion_lat": 0.0}, {"lon": -76.97330316666667, "name": "1199b2627a8de87270d17b6a31bf72b2", "is_disabled": 0, "type": "electric_scooter", "is_reserved": 0, "fusion_lon": 0.0, "lat": 38.904107833333335, "rental_uris": {"ios": "https://dc.lft.to/lastmile_qr_scan", "android": "https://dc.lft.to/lastmile_qr_scan"}, "bike_id": "1199b2627a8de87270d17b6a31bf72b2", "fusion_lat": 0.0}, {"lon": -77.00071133333333, "name": "416a8c5ceedd1db9b451aac1e47f6e9f", "is_disabled": 0, "type": "electric_scooter", "is_reserved": 0, "fusion_lon": 0.0, "lat": 38.876622833333336, "rental_uris": {"ios": "https://dc.lft.to/lastmile_qr_scan", "android": "https://dc.lft.to/lastmile_qr_scan"}, "bike_id": "416a8c5ceedd1db9b451aac1e47f6e9f", "fusion_lat": 0.0}, {"lon": -77.02522866666666, "name": "bb0f85530d78a500bdfb59e1ec90c955", "is_disabled": 0, "type": "electric_scooter", "is_reserved": 0, "fusion_lon": 0.0, "lat": 38.9216055, "rental_uris": {"ios": "https://dc.lft.to/lastmile_qr_scan", "android": "https://dc.lft.to/lastmile_qr_scan"}, "bike_id": "bb0f85530d78a500bdfb59e1ec90c955", "fusion_lat": 0.0}, {"lon": -77.02908716666667, "name": "3b150aba197f5070c66b3ee1e8120c6b", "is_disabled": 0, "type": "electric_scooter", "is_reserved": 0, "fusion_lon": 0.0, "lat": 38.9141175, "rental_uris": {"ios": "https://dc.lft.to/lastmile_qr_scan", "android": "https://dc.lft.to/lastmile_qr_scan"}, "bike_id": "3b150aba197f5070c66b3ee1e8120c6b", "fusion_lat": 0.0}, {"lon": -77.02894766666667, "name": "7c310ce84367f8f3d6d334a55ff0139e", "is_disabled": 0, "type": "electric_scooter", "is_reserved": 0, "fusion_lon": 0.0, "lat": 38.9170375, "rental_uris": {"ios": "https://dc.lft.to/lastmile_qr_scan", "android": "https://dc.lft.to/lastmile_qr_scan"}, "bike_id": "7c310ce84367f8f3d6d334a55ff0139e", "fusion_lat": 0.0}, {"lon": -77.08585283333333, "name": "1d0ff2ddb9a7a74a7369de4b9c7754cb", "is_disabled": 0, "type": "electric_scooter", "is_reserved": 0, "fusion_lon": 0.0, "lat": 38.933514, "rental_uris": {"ios": "https://dc.lft.to/lastmile_qr_scan", "android": "https://dc.lft.to/lastmile_qr_scan"}, "bike_id": "1d0ff2ddb9a7a74a7369de4b9c7754cb", "fusion_lat": 0.0}, {"lon": -77.04024466666667, "name": "8cac95c82fe95efeb6cb20e795f6029c", "is_disabled": 0, "type": "electric_scooter", "is_reserved": 0, "fusion_lon": 0.0, "lat": 38.90291633333333, "rental_uris": {"ios": "https://dc.lft.to/lastmile_qr_scan", "android": "https://dc.lft.to/lastmile_qr_scan"}, "bike_id": "8cac95c82fe95efeb6cb20e795f6029c", "fusion_lat": 0.0}, {"lon": -77.03863816666667, "name": "a7b9f1349d2ac0dd1905e053b2a0b2c2", "is_disabled": 0, "type": "electric_scooter", "is_reserved": 0, "fusion_lon": 0.0, "lat": 38.9170765, "rental_uris": {"ios": "https://dc.lft.to/lastmile_qr_scan", "android": "https://dc.lft.to/lastmile_qr_scan"}, "bike_id": "a7b9f1349d2ac0dd1905e053b2a0b2c2", "fusion_lat": 0.0}, {"lon": -77.02519783333334, "name": "933d3033ae090373b411ab9c749f5dd7", "is_disabled": 0, "type": "electric_scooter", "is_reserved": 0, "fusion_lon": 0.0, "lat": 38.884755166666665, "rental_uris": {"ios": "https://dc.lft.to/lastmile_qr_scan", "android": "https://dc.lft.to/lastmile_qr_scan"}, "bike_id": "933d3033ae090373b411ab9c749f5dd7", "fusion_lat": 0.0}, {"lon": -77.063987, "name": "16b2b65ae8eb7d0122968d023472b283", "is_disabled": 0, "type": "electric_scooter", "is_reserved": 0, "fusion_lon": 0.0, "lat": 38.906789833333335, "rental_uris": {"ios": "https://dc.lft.to/lastmile_qr_scan", "android": "https://dc.lft.to/lastmile_qr_scan"}, "bike_id": "16b2b65ae8eb7d0122968d023472b283", "fusion_lat": 0.0}, {"lon": -77.03346583333334, "name": "dd7a98cd279449355d869006479e0931", "is_disabled": 0, "type": "electric_scooter", "is_reserved": 0, "fusion_lon": 0.0, "lat": 38.892504, "rental_uris": {"ios": "https://dc.lft.to/lastmile_qr_scan", "android": "https://dc.lft.to/lastmile_qr_scan"}, "bike_id": "dd7a98cd279449355d869006479e0931", "fusion_lat": 0.0}, {"lon": -77.05477533333334, "name": "3d7780737de0374e052cc87276bb908c", "is_disabled": 0, "type": "electric_scooter", "is_reserved": 0, "fusion_lon": 0.0, "lat": 38.89780783333333, "rental_uris": {"ios": "https://dc.lft.to/lastmile_qr_scan", "android": "https://dc.lft.to/lastmile_qr_scan"}, "bike_id": "3d7780737de0374e052cc87276bb908c", "fusion_lat": 0.0}, {"lon": -77.039379, "name": "aa8e795642607a656586bc4a51817e27", "is_disabled": 0, "type": "electric_scooter", "is_reserved": 0, "fusion_lon": 0.0, "lat": 38.9012205, "rental_uris": {"ios": "https://dc.lft.to/lastmile_qr_scan", "android": "https://dc.lft.to/lastmile_qr_scan"}, "bike_id": "aa8e795642607a656586bc4a51817e27", "fusion_lat": 0.0}, {"lon": -77.00917866666667, "name": "adc5d4b3443bd39a588e1b14edc105e8", "is_disabled": 0, "type": "electric_scooter", "is_reserved": 0, "fusion_lon": 0.0, "lat": 38.918777666666664, "rental_uris": {"ios": "https://dc.lft.to/lastmile_qr_scan", "android": "https://dc.lft.to/lastmile_qr_scan"}, "bike_id": "adc5d4b3443bd39a588e1b14edc105e8", "fusion_lat": 0.0}, {"lon": -77.04001516666666, "name": "d564b4d7541eb2c51ad5010647790bd0", "is_disabled": 0, "type": "electric_scooter", "is_reserved": 0, "fusion_lon": 0.0, "lat": 38.934272166666666, "rental_uris": {"ios": "https://dc.lft.to/lastmile_qr_scan", "android": "https://dc.lft.to/lastmile_qr_scan"}, "bike_id": "d564b4d7541eb2c51ad5010647790bd0", "fusion_lat": 0.0}, {"lon": -76.93910883333334, "name": "930fdf8040a88af7dd6896dd144e758d", "is_disabled": 0, "type": "electric_scooter", "is_reserved": 0, "fusion_lon": 0.0, "lat": 38.89164566666667, "rental_uris": {"ios": "https://dc.lft.to/lastmile_qr_scan", "android": "https://dc.lft.to/lastmile_qr_scan"}, "bike_id": "930fdf8040a88af7dd6896dd144e758d", "fusion_lat": 0.0}, {"lon": -77.04929933333334, "name": "dbd929a6097aaa520573874a8d6382c9", "is_disabled": 0, "type": "electric_scooter", "is_reserved": 0, "fusion_lon": 0.0, "lat": 38.90654283333333, "rental_uris": {"ios": "https://dc.lft.to/lastmile_qr_scan", "android": "https://dc.lft.to/lastmile_qr_scan"}, "bike_id": "dbd929a6097aaa520573874a8d6382c9", "fusion_lat": 0.0}, {"lon": -77.02983683333333, "name": "d1b3f9923e2e8c28a17de28798acfb8f", "is_disabled": 0, "type": "electric_scooter", "is_reserved": 0, "fusion_lon": 0.0, "lat": 38.924830166666666, "rental_uris": {"ios": "https://dc.lft.to/lastmile_qr_scan", "android": "https://dc.lft.to/lastmile_qr_scan"}, "bike_id": "d1b3f9923e2e8c28a17de28798acfb8f", "fusion_lat": 0.0}, {"lon": -77.04188066666667, "name": "34db59b5141e1768c53c3c91c221e78a", "is_disabled": 0, "type": "electric_scooter", "is_reserved": 0, "fusion_lon": 0.0, "lat": 38.92061316666667, "rental_uris": {"ios": "https://dc.lft.to/lastmile_qr_scan", "android": "https://dc.lft.to/lastmile_qr_scan"}, "bike_id": "34db59b5141e1768c53c3c91c221e78a", "fusion_lat": 0.0}, {"lon": -77.02238466666667, "name": "720bb295c8a4903c9a63dec45337b851", "is_disabled": 0, "type": "electric_scooter", "is_reserved": 0, "fusion_lon": 0.0, "lat": 38.92241883333333, "rental_uris": {"ios": "https://dc.lft.to/lastmile_qr_scan", "android": "https://dc.lft.to/lastmile_qr_scan"}, "bike_id": "720bb295c8a4903c9a63dec45337b851", "fusion_lat": 0.0}, {"lon": -76.9738195, "name": "9123ff9d60aca0ddc7a9fa42ab3ff2e2", "is_disabled": 0, "type": "electric_scooter", "is_reserved": 0, "fusion_lon": 0.0, "lat": 38.871831666666665, "rental_uris": {"ios": "https://dc.lft.to/lastmile_qr_scan", "android": "https://dc.lft.to/lastmile_qr_scan"}, "bike_id": "9123ff9d60aca0ddc7a9fa42ab3ff2e2", "fusion_lat": 0.0}, {"lon": -77.096117, "name": "10dcc082c7d1eb52c26a2c31cbbadec0", "is_disabled": 0, "type": "electric_bike", "is_reserved": 0, "fusion_lon": 0.0, "lat": 38.97440866666667, "rental_uris": {"ios": "https://dc.lft.to/lastmile_qr_scan", "android": "https://dc.lft.to/lastmile_qr_scan"}, "bike_id": "10dcc082c7d1eb52c26a2c31cbbadec0", "fusion_lat": 0.0}, {"lon": -77.0219785, "name": "937d52934e1f04600c25aa6824ba8234", "is_disabled": 0, "type": "electric_scooter", "is_reserved": 0, "fusion_lon": 0.0, "lat": 38.91125016666667, "rental_uris": {"ios": "https://dc.lft.to/lastmile_qr_scan", "android": "https://dc.lft.to/lastmile_qr_scan"}, "bike_id": "937d52934e1f04600c25aa6824ba8234", "fusion_lat": 0.0}, {"lon": -77.01873266666666, "name": "0050d942e10ae970e7d044560c5b82f6", "is_disabled": 0, "type": "electric_scooter", "is_reserved": 0, "fusion_lon": 0.0, "lat": 38.881222666666666, "rental_uris": {"ios": "https://dc.lft.to/lastmile_qr_scan", "android": "https://dc.lft.to/lastmile_qr_scan"}, "bike_id": "0050d942e10ae970e7d044560c5b82f6", "fusion_lat": 0.0}, {"lon": -77.0183965, "name": "d3209f76539d38a851e8a4b01757c0a1", "is_disabled": 0, "type": "electric_scooter", "is_reserved": 0, "fusion_lon": 0.0, "lat": 38.90737216666667, "rental_uris": {"ios": "https://dc.lft.to/lastmile_qr_scan", "android": "https://dc.lft.to/lastmile_qr_scan"}, "bike_id": "d3209f76539d38a851e8a4b01757c0a1", "fusion_lat": 0.0}, {"lon": -77.044766, "name": "57478b89801816382517ec6b6c9e9783", "is_disabled": 0, "type": "electric_scooter", "is_reserved": 0, "fusion_lon": 0.0, "lat": 38.893574, "rental_uris": {"ios": "https://dc.lft.to/lastmile_qr_scan", "android": "https://dc.lft.to/lastmile_qr_scan"}, "bike_id": "57478b89801816382517ec6b6c9e9783", "fusion_lat": 0.0}, {"lon": -77.02051083333333, "name": "aa4d7ce94dba38ac0d8eb354124221d3", "is_disabled": 0, "type": "electric_scooter", "is_reserved": 0, "fusion_lon": 0.0, "lat": 38.919065833333335, "rental_uris": {"ios": "https://dc.lft.to/lastmile_qr_scan", "android": "https://dc.lft.to/lastmile_qr_scan"}, "bike_id": "aa4d7ce94dba38ac0d8eb354124221d3", "fusion_lat": 0.0}, {"lon": -76.97261216666666, "name": "e581a2342aa19421b17feed9dd2a9107", "is_disabled": 0, "type": "electric_bike", "is_reserved": 0, "fusion_lon": 0.0, "lat": 38.8559745, "rental_uris": {"ios": "https://dc.lft.to/lastmile_qr_scan", "android": "https://dc.lft.to/lastmile_qr_scan"}, "bike_id": "e581a2342aa19421b17feed9dd2a9107", "fusion_lat": 0.0}, {"lon": -77.045165, "name": "58ef700353eb9c56918fdd43d217cf7c", "is_disabled": 0, "type": "electric_scooter", "is_reserved": 0, "fusion_lon": 0.0, "lat": 38.907896, "rental_uris": {"ios": "https://dc.lft.to/lastmile_qr_scan", "android": "https://dc.lft.to/lastmile_qr_scan"}, "bike_id": "58ef700353eb9c56918fdd43d217cf7c", "fusion_lat": 0.0}, {"lon": -77.0393305, "name": "20a4117bf545d8604bf2243932e9fdff", "is_disabled": 0, "type": "electric_scooter", "is_reserved": 0, "fusion_lon": 0.0, "lat": 38.89915083333333, "rental_uris": {"ios": "https://dc.lft.to/lastmile_qr_scan", "android": "https://dc.lft.to/lastmile_qr_scan"}, "bike_id": "20a4117bf545d8604bf2243932e9fdff", "fusion_lat": 0.0},