{"data": {"bikes": [{"type": "electric_scooter", "is_reserved": 0, "is_disabled": 0, "fusion_lat": 0.0, "name": "2358af409e22ac2bf6573f8f868fcfca", "rental_uris": {"android": "https://dc.lft.to/lastmile_qr_scan", "ios": "https://dc.lft.to/lastmile_qr_scan"}, "fusion_lon": 0.0, "lat": 38.90268433333333, "lon": -77.04905933333333, "bike_id": "2358af409e22ac2bf6573f8f868fcfca"}, {"type": "electric_scooter", "is_reserved": 0, "is_disabled": 0, "fusion_lat": 0.0, "name": "ddf4fb4ee7fef0b58c929152fb0eb783", "rental_uris": {"android": "https://dc.lft.to/lastmile_qr_scan", "ios": "https://dc.lft.to/lastmile_qr_scan"}, "fusion_lon": 0.0, "lat": 38.90492016666666, "lon": -77.06787466666667, "bike_id": "ddf4fb4ee7fef0b58c929152fb0eb783"}, {"type": "electric_scooter", "is_reserved": 0, "is_disabled": 0, "fusion_lat": 0.0, "name": "f80558848fbdd605eecbf4bce40d1833", "rental_uris": {"android": "https://dc.lft.to/lastmile_qr_scan", "ios": "https://dc.lft.to/lastmile_qr_scan"}, "fusion_lon": 0.0, "lat": 38.923434, "lon": -77.05074283333333, "bike_id": "f80558848fbdd605eecbf4bce40d1833"}, {"type": "electric_scooter", "is_reserved": 0, "is_disabled": 0, "fusion_lat": 0.0, "name": "670e57374a800651061c33fb46cb0c41", "rental_uris": {"android": "https://dc.lft.to/lastmile_qr_scan", "ios": "https://dc.lft.to/lastmile_qr_scan"}, "fusion_lon": 0.0, "lat": 38.87200133333333, "lon": -77.0060955, "bike_id": "670e57374a800651061c33fb46cb0c41"}, {"type": "electric_scooter", "is_reserved": 0, "is_disabled": 0, "fusion_lat": 0.0, "name": "8b26a56fc8948bc4f536d85c5157f4e4", "rental_uris": {"android": "https://dc.lft.to/lastmile_qr_scan", "ios": "https://dc.lft.to/lastmile_qr_scan"}, "fusion_lon": 0.0, "lat": 38.902659166666666, "lon": -77.02151116666667, "bike_id": "8b26a56fc8948bc4f536d85c5157f4e4"}, {"type": "electric_scooter", "is_reserved": 0, "is_disabled": 0, "fusion_lat": 0.0, "name": "2db62523c1d4e5e193f650a56a55296d", "rental_uris": {"android": "https://dc.lft.to/lastmile_qr_scan", "ios": "https://dc.lft.to/lastmile_qr_scan"}, "fusion_lon": 0.0, "lat": 38.910508, "lon": -77.015234, "bike_id": "2db62523c1d4e5e193f650a56a55296d"}, {"type": "electric_scooter", "is_reserved": 0, "is_disabled": 0, "fusion_lat": 0.0, "name": "992efdf38880c4a4ed9718075b041658", "rental_uris": {"android": "https://dc.lft.to/lastmile_qr_scan", "ios": "https://dc.lft.to/lastmile_qr_scan"}, "fusion_lon": 0.0, "lat": 38.918215000000004, "lon": -77.03843233333333, "bike_id": "992efdf38880c4a4ed9718075b041658"}, {"type": "electric_scooter", "is_reserved": 0, "is_disabled": 0, "fusion_lat": 0.0, "name": "8b7ae41ec01ee081f6f6d07798ce14c1", "rental_uris": {"android": "https://dc.lft.to/lastmile_qr_scan", "ios": "https://dc.lft.to/lastmile_qr_scan"}, "fusion_lon": 0.0, "lat": 38.8750185, "lon": -77.001184, "bike_id": "8b7ae41ec01ee081f6f6d07798ce14c1"}, {"type": "electric_scooter", "is_reserved": 0, "is_disabled": 0, "fusion_lat": 0.0, "name": "9074459366e4308f4355d5040d49b4eb", "rental_uris": {"android": "https://dc.lft.to/lastmile_qr_scan", "ios": "https://dc.lft.to/lastmile_qr_scan"}, "fusion_lon": 0.0, "lat": 38.8850275, "lon": -77.015877, "bike_id": "9074459366e4308f4355d5040d49b4eb"}, {"type": "electric_scooter", "is_reserved": 0, "is_disabled": 0, "fusion_lat": 0.0, "name": "d6ad86a68a1af9aca0655f060ce9fcc2", "rental_uris": {"android": "https://dc.lft.to/lastmile_qr_scan", "ios": "https://dc.lft.to/lastmile_qr_scan"}, "fusion_lon": 0.0, "lat": 38.892316666666666, "lon": -77.04651216666667, "bike_id": "d6ad86a68a1af9aca0655f060ce9fcc2"}, {"type": "electric_scooter", "is_reserved": 0, "is_disabled": 0, "fusion_lat": 0.0, "name": "43e363031caede58298d7b16ee566410", "rental_uris": {"android": "https://dc.lft.to/lastmile_qr_scan", "ios": "https://dc.lft.to/lastmile_qr_scan"}, "fusion_lon": 0.0, "lat": 38.909588666666664, "lon": -77.04652866666666, "bike_id": "43e363031caede58298d7b16ee566410"}, {"type": "electric_scooter", "is_reserved": 0, "is_disabled": 0, "fusion_lat": 0.0, "name": "b079799d722438d878f8b6366a990c06", "rental_uris": {"android": "https://dc.lft.to/lastmile_qr_scan", "ios": "https://dc.lft.to/lastmile_qr_scan"}, "fusion_lon": 0.0, "lat": 38.95635083333333, "lon": -77.03304433333334, "bike_id": "b079799d722438d878f8b6366a990c06"}, {"type": "electric_scooter", "is_reserved": 0, "is_disabled": 0, "fusion_lat": 0.0, "name": "3c237762c216352fb22355ba52a06a39", "rental_uris": {"android": "https://dc.lft.to/lastmile_qr_scan", "ios": "https://dc.lft.to/lastmile_qr_scan"}, "fusion_lon": 0.0, "lat": 38.9050205, "lon": -77.0666055, "bike_id": "3c237762c216352fb22355ba52a06a39"}, {"type": "electric_scooter", "is_reserved": 0, "is_disabled": 0, "fusion_lat": 0.0, "name": "36846e998ffab328b6745fbb1118a945", "rental_uris": {"android": "https://dc.lft.to/lastmile_qr_scan", "ios": "https://dc.lft.to/lastmile_qr_scan"}, "fusion_lon": 0.0, "lat": 38.92739866666667, "lon": -77.0356135, "bike_id": "36846e998ffab328b6745fbb1118a945"}, {"type": "electric_scooter", "is_reserved": 0, "is_disabled": 0, "fusion_lat": 0.0, "name": "ac9eb3a03631a863687fe7807d393698", "rental_uris": {"android": "https://dc.lft.to/lastmile_qr_scan", "ios": "https://dc.lft.to/lastmile_qr_scan"}, "fusion_lon": 0.0, "lat": 38.912758333333336, "lon": -77.0451015, "bike_id": "ac9eb3a03631a863687fe7807d393698"}, {"type": "electric_scooter", "is_reserved": 0, "is_disabled": 0, "fusion_lat": 0.0, "name": "61b716f53e0dc2e510fbec1ac23f7815", "rental_uris": {"android": "https://dc.lft.to/lastmile_qr_scan", "ios": "https://dc.lft.to/lastmile_qr_scan"}, "fusion_lon": 0.0, "lat": 38.911090333333334, "lon": -77.0450475, "bike_id": "61b716f53e0dc2e510fbec1ac23f7815"}, {"type": "electric_scooter", "is_reserved": 0, "is_disabled": 0, "fusion_lat": 0.0, "name": "cbb1ed55bbfe6b33a5c8e885241f308c", "rental_uris": {"android": "https://dc.lft.to/lastmile_qr_scan", "ios": "https://dc.lft.to/lastmile_qr_scan"}, "fusion_lon": 0.0, "lat": 38.91583966666666, "lon": -77.04697833333333, "bike_id": "cbb1ed55bbfe6b33a5c8e885241f308c"}, {"type": "electric_scooter", "is_reserved": 0, "is_disabled": 0, "fusion_lat": 0.0, "name": "d37eeee06a88fa10f9f9d9e425b23821", "rental_uris": {"android": "https://dc.lft.to/lastmile_qr_scan", "ios": "https://dc.lft.to/lastmile_qr_scan"}, "fusion_lon": 0.0, "lat": 38.889954833333334, "lon": -76.94703583333333, "bike_id": "d37eeee06a88fa10f9f9d9e425b23821"}, {"type": "electric_scooter", "is_reserved": 0, "is_disabled": 0, "fusion_lat": 0.0, "name": "9d4622e93147ea0fe0398f1fc847bc13", "rental_uris": {"android": "https://dc.lft.to/lastmile_qr_scan", "ios": "https://dc.lft.to/lastmile_qr_scan"}, "fusion_lon": 0.0, "lat": 38.944458, "lon": -77.06354183333333, "bike_id": "9d4622e93147ea0fe0398f1fc847bc13"}, {"type": "electric_scooter", "is_reserved": 0, "is_disabled": 0, "fusion_lat": 0.0, "name": "c27e84a4552eb8963e7a56bbb60f9860", "rental_uris": {"android": "https://dc.lft.to/lastmile_qr_scan", "ios": "https://dc.lft.to/lastmile_qr_scan"}, "fusion_lon": 0.0, "lat": 38.978784833333336, "lon": -77.02547433333334, "bike_id": "c27e84a4552eb8963e7a56bbb60f9860"}, {"type": "electric_bike", "is_reserved": 0, "is_disabled": 0, "fusion_lat": 0.0, "name": "432664490fd89517fbfd83165d2eaad9", "rental_uris": {"android": "https://dc.lft.to/lastmile_qr_scan", "ios": "https://dc.lft.to/lastmile_qr_scan"}, "fusion_lon": 0.0, "lat": 38.832352666666665, "lon": -76.94627766666666, "bike_id": "432664490fd89517fbfd83165d2eaad9"}, {"type": "electric_scooter", "is_reserved": 0, "is_disabled": 0, "fusion_lat": 0.0, "name": "ffa35660311775879b8b690fa88392d6", "rental_uris": {"android": "https://dc.lft.to/lastmile_qr_scan", "ios": "https://dc.lft.to/lastmile_qr_scan"}, "fusion_lon": 0.0, "lat": 38.92443933333333, "lon": -77.02032266666667, "bike_id": "ffa35660311775879b8b690fa88392d6"}, {"type": "electric_scooter", "is_reserved": 0, "is_disabled": 0, "fusion_lat": 0.0, "name": "793c14f9cab06607e52b62887584f29a", "rental_uris": {"android": "https://dc.lft.to/lastmile_qr_scan", "ios": "https://dc.lft.to/lastmile_qr_scan"}, "fusion_lon": 0.0, "lat": 38.90594166666666, "lon": -77.03249783333334, "bike_id": "793c14f9cab06607e52b62887584f29a"}, {"type": "electric_scooter", "is_reserved": 0, "is_disabled": 0, "fusion_lat": 0.0, "name": "de2777ba765100a7a225e057c6de1e1c", "rental_uris": {"android": "https://dc.lft.to/lastmile_qr_scan", "ios": "https://dc.lft.to/lastmile_qr_scan"}, "fusion_lon": 0.0, "lat": 38.915642, "lon": -77.0217105, "bike_id": "de2777ba765100a7a225e057c6de1e1c"}, {"type": "electric_scooter", "is_reserved": 0, "is_disabled": 0, "fusion_lat": 0.0, "name": "3878d291e5c8ca785d1aa5f5164fa09e", "rental_uris": {"android": "https://dc.lft.to/lastmile_qr_scan", "ios": "https://dc.lft.to/lastmile_qr_scan"}, "fusion_lon": 0.0, "lat": 38.9006115, "lon": -77.0298155, "bike_id": "3878d291e5c8ca785d1aa5f5164fa09e"}, {"type": "electric_scooter", "is_reserved": 0, "is_disabled": 0, "fusion_lat": 0.0, "name": "484f69550574d0e6b599850bf4d45f8f", "rental_uris": {"android": "https://dc.lft.to/lastmile_qr_scan", "ios": "https://dc.lft.to/lastmile_qr_scan"}, "fusion_lon": 0.0, "lat": 38.91762083333333, "lon": -77.03182416666667, "bike_id": "484f69550574d0e6b599850bf4d45f8f"}, {"type": "electric_bike", "is_reserved": 0, "is_disabled": 0, "fusion_lat": 0.0, "name": "c60e09864dac24b455123d639cf96c90", "rental_uris": {"android": "https://dc.lft.to/lastmile_qr_scan", "ios": "https://dc.lft.to/lastmile_qr_scan"}, "fusion_lon": 0.0, "lat": 38.88315633333333, "lon": -77.0315425, "bike_id": "c60e09864dac24b455123d639cf96c90"}, {"type": "electric_bike", "is_reserved": 0, "is_disabled": 0, "fusion_lat": 0.0, "name": "2d3627b33e675ca62602b9ed4dc40bab", "rental_uris": {"android": "https://dc.lft.to/lastmile_qr_scan", "ios": "https://dc.lft.to/lastmile_qr_scan"}, "fusion_lon": 0.0, "lat": 38.95886733333333, "lon": -76.9249535, "bike_id": "2d3627b33e675ca62602b9ed4dc40bab"}, {"type": "electric_scooter", "is_reserved": 0, "is_disabled": 0, "fusion_lat": 0.0, "name": "a0be25268ca87b3a5a75bfef4795d66a", "rental_uris": {"android": "https://dc.lft.to/lastmile_qr_scan", "ios": "https://dc.lft.to/lastmile_qr_scan"}, "fusion_lon": 0.0, "lat": 38.90543816666667, "lon": -77.005862, "bike_id": "a0be25268ca87b3a5a75bfef4795d66a"}, {"type": "electric_scooter", "is_reserved": 0, "is_disabled": 0, "fusion_lat": 0.0, "name": "222813cb739c87c4e7f3a493e5bef44a", "rental_uris": {"android": "https://dc.lft.to/lastmile_qr_scan", "ios": "https://dc.lft.to/lastmile_qr_scan"}, "fusion_lon": 0.0, "lat": 38.925482833333334, "lon": -76.98122983333333, "bike_id": "222813cb739c87c4e7f3a493e5bef44a"}, {"type": "electric_scooter", "is_reserved": 0, "is_disabled": 0, "fusion_lat": 0.0, "name": "6bc36bd23790b6b5d65f2b5ae66a74cb", "rental_uris": {"android": "https://dc.lft.to/lastmile_qr_scan", "ios": "https://dc.lft.to/lastmile_qr_scan"}, "fusion_lon": 0.0, "lat": 38.900170833333334, "lon": -76.999252, "bike_id": "6bc36bd23790b6b5d65f2b5ae66a74cb"}, {"type": "electric_scooter", "is_reserved": 0, "is_disabled": 0, "fusion_lat": 0.0, "name": "a2ea067e16454791e228df2df4787baf", "rental_uris": {"android": "https://dc.lft.to/lastmile_qr_scan", "ios": "https://dc.lft.to/lastmile_qr_scan"}, "fusion_lon": 0.0, "lat": 38.903363, "lon": -77.03842033333333, "bike_id": "a2ea067e16454791e228df2df4787baf"}, {"type": "electric_scooter", "is_reserved": 0, "is_disabled": 0, "fusion_lat": 0.0, "name": "02cb2b86ad592c4011dc6522c8353e31", "rental_uris": {"android": "https://dc.lft.to/lastmile_qr_scan", "ios": "https://dc.lft.to/lastmile_qr_scan"}, "fusion_lon": 0.0, "lat": 38.957479, "lon": -77.02067516666666, "bike_id": "02cb2b86ad592c4011dc6522c8353e31"}, {"type": "electric_bike", "is_reserved": 0, "is_disabled": 0, "fusion_lat": 0.0, "name": "c67f0eec7b88a445ca68beee2b07eadc", "rental_uris": {"android": "https://dc.lft.to/lastmile_qr_scan", "ios": "https://dc.lft.to/lastmile_qr_scan"}, "fusion_lon": 0.0, "lat": 38.97328983333333, "lon": -77.0214885, "bike_id": "c67f0eec7b88a445ca68beee2b07eadc"}, {"type": "electric_scooter", "is_reserved": 0, "is_disabled": 0, "fusion_lat": 0.0, "name": "4b5bbe470f0f403dde7dfa43c8e74609", "rental_uris": {"android": "https://dc.lft.to/lastmile_qr_scan", "ios": "https://dc.lft.to/lastmile_qr_scan"}, "fusion_lon": 0.0, "lat": 38.89371116666667, "lon": -76.94999733333333, "bike_id": "4b5bbe470f0f403dde7dfa43c8e74609"}, {"type": "electric_scooter", "is_reserved": 0, "is_disabled": 0, "fusion_lat": 0.0, "name": "9d45c1d5658a129bfca295195923514a", "rental_uris": {"android": "https://dc.lft.to/lastmile_qr_scan", "ios": "https://dc.lft.to/lastmile_qr_scan"}, "fusion_lon": 0.0, "lat": 38.92314016666667, "lon": -77.0380975, "bike_id": "9d45c1d5658a129bfca295195923514a"}, {"type": "electric_scooter", "is_reserved": 0, "is_disabled": 0, "fusion_lat": 0.0, "name": "4e7ece8ef8aa26b6b9ff8aad3363f355", "rental_uris": {"android": "https://dc.lft.to/lastmile_qr_scan", "ios": "https://dc.lft.to/lastmile_qr_scan"}, "fusion_lon": 0.0, "lat": 38.92470566666667, "lon": -77.02832, "bike_id": "4e7ece8ef8aa26b6b9ff8aad3363f355"}, {"type": "electric_scooter", "is_reserved": 0, "is_disabled": 0, "fusion_lat": 0.0, "name": "0a0862b6c8546616057ebed539349055", "rental_uris": {"android": "https://dc.lft.to/lastmile_qr_scan", "ios": "https://dc.lft.to/lastmile_qr_scan"}, "fusion_lon": 0.0, "lat": 38.905397666666666, "lon": -77.04464366666667, "bike_id": "0a0862b6c8546616057ebed539349055"}, {"type": "electric_scooter", "is_reserved": 0, "is_disabled": 0, "fusion_lat": 0.0, "name": "8a5256828d010e47e3e9c4b6066574d1", "rental_uris": {"android": "https://dc.lft.to/lastmile_qr_scan", "ios": "https://dc.lft.to/lastmile_qr_scan"}, "fusion_lon": 0.0, "lat": 38.92311766666667, "lon": -77.039608, "bike_id": "8a5256828d010e47e3e9c4b6066574d1"}, {"type": "electric_scooter", "is_reserved": 0, "is_disabled": 0, "fusion_lat": 0.0, "name": "180e1ca94366762d82104ba2b6fe7850", "rental_uris": {"android": "https://dc.lft.to/lastmile_qr_scan", "ios": "https://dc.lft.to/lastmile_qr_scan"}, "fusion_lon": 0.0, "lat": 38.93389883333333, "lon": -77.03579616666667, "bike_id": "180e1ca94366762d82104ba2b6fe7850"}, {"type": "electric_scooter", "is_reserved": 0, "is_disabled": 0, "fusion_lat": 0.0, "name": "793d612b7031fe9e61678af53526f888", "rental_uris": {"android": "https://dc.lft.to/lastmile_qr_scan", "ios": "https://dc.lft.to/lastmile_qr_scan"}, "fusion_lon": 0.0, "lat": 38.91045783333333, "lon": -77.01512616666666, "bike_id": "793d612b7031fe9e61678af53526f888"}, {"type": "electric_scooter", "is_reserved": 0, "is_disabled": 0, "fusion_lat": 0.0, "name": "098980058f843d2b7e0528229dd87920", "rental_uris": {"android": "https://dc.lft.to/lastmile_qr_scan", "ios": "https://dc.lft.to/lastmile_qr_scan"}, "fusion_lon": 0.0, "lat": 38.89919, "lon": -76.9338255, "bike_id": "098980058f843d2b7e0528229dd87920"}, {"type": "electric_scooter", "is_reserved": 0, "is_disabled": 0, "fusion_lat": 0.0, "name": "328adc14aa8bdc3fb833d1ff4e0c2caf", "rental_uris": {"android": "https://dc.lft.to/lastmile_qr_scan", "ios": "https://dc.lft.to/lastmile_qr_scan"}, "fusion_lon": 0.0, "lat": 38.933474833333335, "lon": -77.05860316666667, "bike_id": "328adc14aa8bdc3fb833d1ff4e0c2caf"}, {"type": "electric_scooter", "is_reserved": 0, "is_disabled": 0, "fusion_lat": 0.0, "name": "fb2e88e0990119ff9caf26a6bbbc6e0b", "rental_uris": {"android": "https://dc.lft.to/lastmile_qr_scan", "ios": "https://dc.lft.to/lastmile_qr_scan"}, "fusion_lon": 0.0, "lat": 38.93165783333333, "lon": -77.0362915, "bike_id": "fb2e88e0990119ff9caf26a6bbbc6e0b"}, {"type": "electric_scooter", "is_reserved": 0, "is_disabled": 0, "fusion_lat": 0.0, "name": "5a1ac54a88bbac4fe9e17469ea183766", "rental_uris": {"android": "https://dc.lft.to/lastmile_qr_scan", "ios": "https://dc.lft.to/lastmile_qr_scan"}, "fusion_lon": 0.0, "lat": 38.89708366666667, "lon": -77.03184633333333, "bike_id": "5a1ac54a88bbac4fe9e17469ea183766"}, {"type": "electric_scooter", "is_reserved": 0, "is_disabled": 0, "fusion_lat": 0.0, "name": "511859505fbcb3b3b361ca5cd59308ac", "rental_uris": {"android": "https://dc.lft.to/lastmile_qr_scan", "ios": "https://dc.lft.to/lastmile_qr_scan"}, "fusion_lon": 0.0, "lat": 38.89848333333333, "lon": -77.02869, "bike_id": "511859505fbcb3b3b361ca5cd59308ac"}, {"type": "electric_scooter", "is_reserved": 0, "is_disabled": 0, "fusion_lat": 0.0, "name": "06bdd965af7c752d2a92c7ee7a885f29", "rental_uris": {"android": "https://dc.lft.to/lastmile_qr_scan", "ios": "https://dc.lft.to/lastmile_qr_scan"}, "fusion_lon": 0.0, "lat": 38.90038966666667, "lon": -77.01170333333333, "bike_id": "06bdd965af7c752d2a92c7ee7a885f29"}, {"type": "electric_scooter", "is_reserved": 0, "is_disabled": 0, "fusion_lat": 0.0, "name": "867649df4569a15f458608aec7930a61", "rental_uris": {"android": "https://dc.lft.to/lastmile_qr_scan", "ios": "https://dc.lft.to/lastmile_qr_scan"}, "fusion_lon": 0.0, "lat": 38.91986883333333, "lon": -77.04173233333333, "bike_id": "867649df4569a15f458608aec7930a61"}, {"type": "electric_scooter", "is_reserved": 0, "is_disabled": 0, "fusion_lat": 0.0, "name": "6e8720867d747d1bf5254a1e71dc7a92", "rental_uris": {"android": "https://dc.lft.to/lastmile_qr_scan", "ios": "https://dc.lft.to/lastmile_qr_scan"}, "fusion_lon": 0.0, "lat": 38.914091666666664, "lon": -77.02051116666667, "bike_id": "6e8720867d747d1bf5254a1e71dc7a92"}, {"type": "electric_scooter", "is_reserved": 0, "is_disabled": 0, "fusion_lat": 0.0, "name": "d489f7267d3e113cb4073c15746165a4", "rental_uris": {"android": "https://dc.lft.to/lastmile_qr_scan", "ios": "https://dc.lft.to/lastmile_qr_scan"}, "fusion_lon": 0.0, "lat": 38.8892645, "lon": -76.97375366666667, "bike_id": "d489f7267d3e113cb4073c15746165a4"}, {"type": "electric_scooter", "is_reserved": 0, "is_disabled": 0, "fusion_lat": 0.0, "name": "e0042c5eeb463dcd020f5c02099f2ec7", "rental_uris": {"android": "https://dc.lft.to/lastmile_qr_scan", "ios": "https://dc.lft.to/lastmile_qr_scan"}, "fusion_lon": 0.0, "lat": 38.89763516666667, "lon": -77.02704766666666, "bike_id": "e0042c5eeb463dcd020f5c02099f2ec7"}, {"type": "electric_bike", "is_reserved": 0, "is_disabled": 0, "fusion_lat": 0.0, "name": "4d1644d17581d84f0121eb50f78a4ce3", "rental_uris": {"android": "https://dc.lft.to/lastmile_qr_scan", "ios": "https://dc.lft.to/lastmile_qr_scan"}, "fusion_lon": 0.0, "lat": 38.93679766666666, "lon": -77.02979733333333, "bike_id": "4d1644d17581d84f0121eb50f78a4ce3"}, {"type": "electric_bike", "is_reserved": 0, "is_disabled": 0, "fusion_lat": 0.0, "name": "9dffdd1ae60c48e4accf5d6b0a582ef0", "rental_uris": {"android": "https://dc.lft.to/lastmile_qr_scan", "ios": "https://dc.lft.to/lastmile_qr_scan"}, "fusion_lon": 0.0, "lat": 38.967074833333335, "lon": -77.1022065, "bike_id": "9dffdd1ae60c48e4accf5d6b0a582ef0"}, {"type": "electric_bike", "is_reserved": 0, "is_disabled": 0, "fusion_lat": 0.0, "name": "643de6b7de5a3c059e579d4e7ac447af", "rental_uris": {"android": "https://dc.lft.to/lastmile_qr_scan", "ios": "https://dc.lft.to/lastmile_qr_scan"}, "fusion_lon": 0.0, "lat": 38.861631333333335, "lon": -77.13096466666667, "bike_id": "643de6b7de5a3c059e579d4e7ac447af"}, {"type": "electric_scooter", "is_reserved": 0, "is_disabled": 0, "fusion_lat": 0.0, "name": "e323fb8a9fa448809b4ec07513bfcc88", "rental_uris": {"android": "https://dc.lft.to/lastmile_qr_scan", "ios": "https://dc.lft.to/lastmile_qr_scan"}, "fusion_lon": 0.0, "lat": 38.9211535, "lon": -77.0422235, "bike_id": "e323fb8a9fa448809b4ec07513bfcc88"}, {"type": "electric_scooter", "is_reserved": 0, "is_disabled": 0, "fusion_lat": 0.0, "name": "d9e48867ba15c2b7aa3bfe5e3c1d6146", "rental_uris": {"android": "https://dc.lft.to/lastmile_qr_scan", "ios": "https://dc.lft.to/lastmile_qr_scan"}, "fusion_lon": 0.0, "lat": 38.903673, "lon": -77.0416775, "bike_id": "d9e48867ba15c2b7aa3bfe5e3c1d6146"}, {"type": "electric_scooter", "is_reserved": 0, "is_disabled": 0, "fusion_lat": 0.0, "name": "dbddd32307eecb20200ca237031993f4", "rental_uris": {"android": "https://dc.lft.to/lastmile_qr_scan", "ios": "https://dc.lft.to/lastmile_qr_scan"}, "fusion_lon": 0.0, "lat": 38.903611166666664, "lon": -77.02129116666667, "bike_id": "dbddd32307eecb20200ca237031993f4"}, {"type": "electric_scooter", "is_reserved": 0, "is_disabled": 0, "fusion_lat": 0.0, "name": "cd907434f7ca851d19ee3d0393672517", "rental_uris": {"android": "https://dc.lft.to/lastmile_qr_scan", "ios": "https://dc.lft.to/lastmile_qr_scan"}, "fusion_lon": 0.0, "lat": 38.887229166666664, "lon": -77.01379216666666, "bike_id": "cd907434f7ca851d19ee3d0393672517"}, {"type": "electric_bike", "is_reserved": 0, "is_disabled": 0, "fusion_lat": 0.0, "name": "6d514e49fb4cef494fec1f4b6cb6c656", "rental_uris": {"android": "https://dc.lft.to/lastmile_qr_scan", "ios": "https://dc.lft.to/lastmile_qr_scan"}, "fusion_lon": 0.0, "lat": 38.93238483333333, "lon": -76.97422283333333, "bike_id": "6d514e49fb4cef494fec1f4b6cb6c656"}, {"type": "electric_scooter", "is_reserved": 0, "is_disabled": 0, "fusion_lat": 0.0, "name": "aeaf197e81f4d2ebb77988da7b38c722", "rental_uris": {"android": "https://dc.lft.to/lastmile_qr_scan", "ios": "https://dc.lft.to/lastmile_qr_scan"}, "fusion_lon": 0.0, "lat": 38.914071166666666, "lon": -77.02953133333334, "bike_id": "aeaf197e81f4d2ebb77988da7b38c722"}, {"type": "electric_scooter", "is_reserved": 0, "is_disabled": 0, "fusion_lat": 0.0, "name": "fc3557bef57bda556537f81cec0add46", "rental_uris": {"android": "https://dc.lft.to/lastmile_qr_scan", "ios": "https://dc.lft.to/lastmile_qr_scan"}, "fusion_lon": 0.0, "lat": 38.9180515, "lon": -77.03300516666667, "bike_id": "fc3557bef57bda556537f81cec0add46"}, {"type": "electric_scooter", "is_reserved": 0, "is_disabled": 0, "fusion_lat": 0.0, "name": "40d005fe2fe7ef4923f7ada3f7b85873", "rental_uris": {"android": "https://dc.lft.to/lastmile_qr_scan", "ios": "https://dc.lft.to/lastmile_qr_scan"}, "fusion_lon": 0.0, "lat": 38.924779666666666, "lon": -77.02630983333333, "bike_id": "40d005fe2fe7ef4923f7ada3f7b85873"}, {"type": "electric_scooter", "is_reserved": 0, "is_disabled": 0, "fusion_lat": 0.0, "name": "061ad52e4244e6e936a5f22b40c9ccda", "rental_uris": {"android": "https://dc.lft.to/lastmile_qr_scan", "ios": "https://dc.lft.to/lastmile_qr_scan"}, "fusion_lon": 0.0, "lat": 38.917008333333335, "lon": -77.04593833333334, "bike_id": "061ad52e4244e6e936a5f22b40c9ccda"}, {"type": "electric_scooter", "is_reserved": 0, "is_disabled": 0, "fusion_lat": 0.0, "name": "b0053e4e90b3f2988e3543ee250dd056", "rental_uris": {"android": "https://dc.lft.to/lastmile_qr_scan", "ios": "https://dc.lft.to/lastmile_qr_scan"}, "fusion_lon": 0.0, "lat": 38.91720216666667, "lon": -77.03838483333334, "bike_id": "b0053e4e90b3f2988e3543ee250dd056"}, {"type": "electric_scooter", "is_reserved": 0, "is_disabled": 0, "fusion_lat": 0.0, "name": "e3fc25ed267c27b09bc33167b94f7f72", "rental_uris": {"android": "https://dc.lft.to/lastmile_qr_scan", "ios": "https://dc.lft.to/lastmile_qr_scan"}, "fusion_lon": 0.0, "lat": 38.8874465, "lon": -77.02575233333333, "bike_id": "e3fc25ed267c27b09bc33167b94f7f72"}, {"type": "electric_scooter", "is_reserved": 0, "is_disabled": 0, "fusion_lat": 0.0, "name": "139a5ec57602d1b84d8293a49608c029", "rental_uris": {"android": "https://dc.lft.to/lastmile_qr_scan", "ios": "https://dc.lft.to/lastmile_qr_scan"}, "fusion_lon": 0.0, "lat": 38.93983166666666, "lon": -77.02890816666667, "bike_id": "139a5ec57602d1b84d8293a49608c029"}, {"type": "electric_scooter", "is_reserved": 0, "is_disabled": 0, "fusion_lat": 0.0, "name": "87a76856ce676b53cf97d68860397a3f", "rental_uris": {"android": "https://dc.lft.to/lastmile_qr_scan", "ios": "https://dc.lft.to/lastmile_qr_scan"}, "fusion_lon": 0.0, "lat": 38.91693683333333, "lon": -77.0376565, "bike_id": "87a76856ce676b53cf97d68860397a3f"}, {"type": "electric_scooter", "is_reserved": 0, "is_disabled": 0, "fusion_lat": 0.0, "name": "9514eabb8b8150886a44eb1901cef033", "rental_uris": {"android": "https://dc.lft.to/lastmile_qr_scan", "ios": "https://dc.lft.to/lastmile_qr_scan"}, "fusion_lon": 0.0, "lat": 38.85966033333333, "lon": -76.991137, "bike_id": "9514eabb8b8150886a44eb1901cef033"}, {"type": "electric_scooter", "is_reserved": 0, "is_disabled": 0, "fusion_lat": 0.0, "name": "3f765bcf06dd5c3b56413af68b0d11d5", "rental_uris": {"android": "https://dc.lft.to/lastmile_qr_scan", "ios": "https://dc.lft.to/lastmile_qr_scan"}, "fusion_lon": 0.0, "lat": 38.898579833333336, "lon": -77.02735233333334, "bike_id": "3f765bcf06dd5c3b56413af68b0d11d5"}, {"type": "electric_scooter", "is_reserved": 0, "is_disabled": 0, "fusion_lat": 0.0, "name": "82fab2090c41464649e033510058774e", "rental_uris": {"android": "https://dc.lft.to/lastmile_qr_scan", "ios": "https://dc.lft.to/lastmile_qr_scan"}, "fusion_lon": 0.0, "lat": 38.892186833333334, "lon": -77.04653816666666, "bike_id": "82fab2090c41464649e033510058774e"}, {"type": "electric_scooter", "is_reserved": 0, "is_disabled": 0, "fusion_lat": 0.0, "name": "08bf0e10d9c4592ee262bc698b169a93", "rental_uris": {"android": "https://dc.lft.to/lastmile_qr_scan", "ios": "https://dc.lft.to/lastmile_qr_scan"}, "fusion_lon": 0.0, "lat": 38.9319285, "lon": -77.03856783333333, "bike_id": "08bf0e10d9c4592ee262bc698b169a93"}, {"type": "electric_scooter", "is_reserved": 0, "is_disabled": 0, "fusion_lat": 0.0, "name": "10e371c93b7bc1ea7e4f9fb46b26571d", "rental_uris": {"android": "https://dc.lft.to/lastmile_qr_scan", "ios": "https://dc.lft.to/lastmile_qr_scan"}, "fusion_lon": 0.0, "lat": 38.90608983333333, "lon": -77.05866283333333, "bike_id": "10e371c93b7bc1ea7e4f9fb46b26571d"}, {"type": "electric_scooter", "is_reserved": 0, "is_disabled": 0, "fusion_lat": 0.0, "name": "82748c72342ac05382e62c4950997ce1", "rental_uris": {"android": "https://dc.lft.to/lastmile_qr_scan", "ios": "https://dc.lft.to/lastmile_qr_scan"}, "fusion_lon": 0.0, "lat": 38.90897916666667, "lon": -77.08620966666666, "bike_id": "82748c72342ac05382e62c4950997ce1"}, {"type": "electric_scooter", "is_reserved": 0, "is_disabled": 0, "fusion_lat": 0.0, "name": "7311dea91046270fcc7c740a76d9d4da", "rental_uris": {"android": "https://dc.lft.to/lastmile_qr_scan", "ios": "https://dc.lft.to/lastmile_qr_scan"}, "fusion_lon": 0.0, "lat": 38.908095833333334, "lon": -77.03939916666667, "bike_id": "7311dea91046270fcc7c740a76d9d4da"}, {"type": "electric_scooter", "is_reserved": 0, "is_disabled": 0, "fusion_lat": 0.0, "name": "d077a113dfc8c1478214a41c1a89a5f2", "rental_uris": {"android": "https://dc.lft.to/lastmile_qr_scan", "ios": "https://dc.lft.to/lastmile_qr_scan"}, "fusion_lon": 0.0, "lat": 38.91064, "lon": -77.05276216666667, "bike_id": "d077a113dfc8c1478214a41c1a89a5f2"}, {"type": "electric_scooter", "is_reserved": 0, "is_disabled": 0, "fusion_lat": 0.0, "name": "79870a6f0a3dc94a3156914e86baa08d", "rental_uris": {"android": "https://dc.lft.to/lastmile_qr_scan", "ios": "https://dc.lft.to/lastmile_qr_scan"}, "fusion_lon": 0.0, "lat": 38.9223945, "lon": -77.02983366666666, "bike_id": "79870a6f0a3dc94a3156914e86baa08d"}, {"type": "electric_scooter", "is_reserved": 0, "is_disabled": 0, "fusion_lat": 0.0, "name": "866440e9d0ff0901a77bb94231fdaf42", "rental_uris": {"android": "https://dc.lft.to/lastmile_qr_scan", "ios": "https://dc.lft.to/lastmile_qr_scan"}, "fusion_lon": 0.0, "lat": 38.9033055, "lon": -77.03317533333333, "bike_id": "866440e9d0ff0901a77bb94231fdaf42"}, {"type": "electric_bike", "is_reserved": 0, "is_disabled": 0, "fusion_lat": 0.0, "name": "231792eb85a190d4cd1fcc818f59d0a8", "rental_uris": {"android": "https://dc.lft.to/lastmile_qr_scan", "ios": "https://dc.lft.to/lastmile_qr_scan"}, "fusion_lon": 0.0, "lat": 38.88425983333333, "lon": -76.9808165, "bike_id": "231792eb85a190d4cd1fcc818f59d0a8"}, {"type": "electric_bike", "is_reserved": 0, "is_disabled": 0, "fusion_lat": 0.0, "name": "e4eaccd66f5c02c49bb04e4ae817b753", "rental_uris": {"android": "https://dc.lft.to/lastmile_qr_scan", "ios": "https://dc.lft.to/lastmile_qr_scan"}, "fusion_lon": 0.0, "lat": 38.94923166666667, "lon": -77.07840516666667, "bike_id": "e4eaccd66f5c02c49bb04e4ae817b753"}, {"type": "electric_scooter", "is_reserved": 0, "is_disabled": 0, "fusion_lat": 0.0, "name": "270c01059ce89c22f5f98a7866e790e2", "rental_uris": {"android": "https://dc.lft.to/lastmile_qr_scan", "ios": "https://dc.lft.to/lastmile_qr_scan"}, "fusion_lon": 0.0, "lat": 38.89037033333334, "lon": -77.02976633333333, "bike_id": "270c01059ce89c22f5f98a7866e790e2"}, {"type": "electric_scooter", "is_reserved": 0, "is_disabled": 0, "fusion_lat": 0.0, "name": "6dc6cbac1dff787b306162d7939593bf", "rental_uris": {"android": "https://dc.lft.to/lastmile_qr_scan", "ios": "https://dc.lft.to/lastmile_qr_scan"}, "fusion_lon": 0.0, "lat": 38.914481333333335, "lon": -77.0384205, "bike_id": "6dc6cbac1dff787b306162d7939593bf"}, {"type": "electric_scooter", "is_reserved": 0, "is_disabled": 0, "fusion_lat": 0.0, "name": "760f3059fb539c0543c549b3549b2018", "rental_uris": {"android": "https://dc.lft.to/lastmile_qr_scan", "ios": "https://dc.lft.to/lastmile_qr_scan"}, "fusion_lon": 0.0, "lat": 38.90718283333333, "lon": -77.04388283333333, "bike_id": "760f3059fb539c0543c549b3549b2018"}, {"type": "electric_scooter", "is_reserved": 0, "is_disabled": 0, "fusion_lat": 0.0, "name": "d28b0176dc80aa5c5b621ad2e1aaa172", "rental_uris": {"android": "https://dc.lft.to/lastmile_qr_scan", "ios": "https://dc.lft.to/lastmile_qr_scan"}, "fusion_lon": 0.0, "lat": 38.9302115, "lon": -76.99502333333334, "bike_id": "d28b0176dc80aa5c5b621ad2e1aaa172"}, {"type": "electric_scooter", "is_reserved": 0, "is_disabled": 0, "fusion_lat": 0.0, "name": "d686b03fab93586fca326a20401814a7", "rental_uris": {"android": "https://dc.lft.to/lastmile_qr_scan", "ios": "https://dc.lft.to/lastmile_qr_scan"}, "fusion_lon": 0.0, "lat": 38.9349635, "lon": -77.07260533333333, "bike_id": "d686b03fab93586fca326a20401814a7"}, {"type": "electric_scooter", "is_reserved": 0, "is_disabled": 0, "fusion_lat": 0.0, "name": "c8853a9dfe7e65404dbf4a7d8d316d6b", "rental_uris": {"android": "https://dc.lft.to/lastmile_qr_scan", "ios": "https://dc.lft.to/lastmile_qr_scan"}, "fusion_lon": 0.0, "lat": 38.891226833333334, "lon": -76.94093283333333, "bike_id": "c8853a9dfe7e65404dbf4a7d8d316d6b"}, {"type": "electric_bike", "is_reserved": 0, "is_disabled": 0, "fusion_lat": 0.0, "name": "03f9d5b24fd91659cc73ef049fecc880", "rental_uris": {"android": "https://dc.lft.to/lastmile_qr_scan", "ios": "https://dc.lft.to/lastmile_qr_scan"}, "fusion_lon": 0.0, "lat": 39.01592183333333, "lon": -77.04424183333333, "bike_id": "03f9d5b24fd91659cc73ef049fecc880"}, {"type": "electric_scooter", "is_reserved": 0, "is_disabled": 0, "fusion_lat": 0.0, "name": "363f06288ec17f9ed764b037fcd0b61a", "rental_uris": {"android": "https://dc.lft.to/lastmile_qr_scan", "ios": "https://dc.lft.to/lastmile_qr_scan"}, "fusion_lon": 0.0, "lat": 38.907860666666664, "lon": -77.048778, "bike_id": "363f06288ec17f9ed764b037fcd0b61a"}, {"type": "electric_scooter", "is_reserved": 0, "is_disabled": 0, "fusion_lat": 0.0, "name": "2c7f95892b2de256e7506d1c08ecf89f", "rental_uris": {"android": "https://dc.lft.to/lastmile_qr_scan", "ios": "https://dc.lft.to/lastmile_qr_scan"}, "fusion_lon": 0.0, "lat": 38.91081466666667, "lon": -77.07644483333333, "bike_id": "2c7f95892b2de256e7506d1c08ecf89f"}, {"type": "electric_scooter", "is_reserved": 0, "is_disabled": 0, "fusion_lat": 0.0, "name": "f4264c715eb29fb28e1577d90850c9bf", "rental_uris": {"android": "https://dc.lft.to/lastmile_qr_scan", "ios": "https://dc.lft.to/lastmile_qr_scan"}, "fusion_lon": 0.0, "lat": 38.9000435, "lon": -76.99851583333333, "bike_id": "f4264c715eb29fb28e1577d90850c9bf"}, {"type": "electric_scooter", "is_reserved": 0, "is_disabled": 0, "fusion_lat": 0.0, "name": "98d489253f90500331f7507a21e20072", "rental_uris": {"android": "https://dc.lft.to/lastmile_qr_scan", "ios": "https://dc.lft.to/lastmile_qr_scan"}, "fusion_lon": 0.0, "lat": 38.903253166666666, "lon": -77.05170416666667, "bike_id": "98d489253f90500331f7507a21e20072"}, {"type": "electric_scooter", "is_reserved": 0, "is_disabled": 0, "fusion_lat": 0.0, "name": "ca3a772e17a76b6302ba5a7a29cc38e5", "rental_uris": {"android": "https://dc.lft.to/lastmile_qr_scan", "ios": "https://dc.lft.to/lastmile_qr_scan"}, "fusion_lon": 0.0, "lat": 38.90522166666667, "lon": -77.06382683333334, "bike_id": "ca3a772e17a76b6302ba5a7a29cc38e5"}, {"type": "electric_scooter", "is_reserved": 0, "is_disabled": 0, "fusion_lat": 0.0, "name": "c08691f98013dc6e840c239486751bab", "rental_uris": {"android": "https://dc.lft.to/lastmile_qr_scan", "ios": "https://dc.lft.to/lastmile_qr_scan"}, "fusion_lon": 0.0, "lat": 38.88424666666667, "lon": -77.03052033333333, "bike_id": "c08691f98013dc6e840c239486751bab"}, {"type": "electric_scooter", "is_reserved": 0, "is_disabled": 0, "fusion_lat": 0.0, "name": "231db8490e0790d492bf72a3ad5f0f89", "rental_uris": {"android": "https://dc.lft.to/lastmile_qr_scan", "ios": "https://dc.lft.to/lastmile_qr_scan"}, "fusion_lon": 0.0, "lat": 38.854619166666666, "lon": -76.9723655, "bike_id": "231db8490e0790d492bf72a3ad5f0f89"}, {"type": "electric_scooter", "is_reserved": 0, "is_disabled": 0, "fusion_lat": 0.0, "name": "5c9f74827fe4d72545aa223c4a5f8d60", "rental_uris": {"android": "https://dc.lft.to/lastmile_qr_scan", "ios": "https://dc.lft.to/lastmile_qr_scan"}, "fusion_lon": 0.0, "lat": 38.892269666666664, "lon": -77.04443666666667, "bike_id": "5c9f74827fe4d72545aa223c4a5f8d60"}, {"type": "electric_scooter", "is_reserved": 0, "is_disabled": 0, "fusion_lat": 0.0, "name": "8d1e9c3b6ecbb68297512cdf25bc9b0f", "rental_uris": {"android": "https://dc.lft.to/lastmile_qr_scan", "ios": "https://dc.lft.to/lastmile_qr_scan"}, "fusion_lon": 0.0, "lat": 38.91585383333334, "lon": -77.049827, "bike_id": "8d1e9c3b6ecbb68297512cdf25bc9b0f"}, {"type": "electric_scooter", "is_reserved": 0, "is_disabled": 0, "fusion_lat": 0.0, "name": "43b72219af48985b53e99d969afaa4de", "rental_uris": {"android": "https://dc.lft.to/lastmile_qr_scan", "ios": "https://dc.lft.to/lastmile_qr_scan"}, "fusion_lon": 0.0, "lat": 38.916971, "lon": -77.03271816666667, "bike_id": "43b72219af48985b53e99d969afaa4de"}, {"type": "electric_scooter", "is_reserved": 0, "is_disabled": 0, "fusion_lat": 0.0, "name": "4f1d6cec3e6e77bf225c664c33933d28", "rental_uris": {"android": "https://dc.lft.to/lastmile_qr_scan", "ios": "https://dc.lft.to/lastmile_qr_scan"}, "fusion_lon": 0.0, "lat": 38.92363066666667, "lon": -77.051315, "bike_id": "4f1d6cec3e6e77bf225c664c33933d28"}, {"type": "electric_scooter", "is_reserved": 0, "is_disabled": 0, "fusion_lat": 0.0, "name": "4d7f3ec35fe719c971e43867559fa70e", "rental_uris": {"android": "https://dc.lft.to/lastmile_qr_scan", "ios": "https://dc.lft.to/lastmile_qr_scan"}, "fusion_lon": 0.0, "lat": 38.921347833333336, "lon": -77.017945, "bike_id": "4d7f3ec35fe719c971e43867559fa70e"}, {"type": "electric_scooter", "is_reserved": 0, "is_disabled": 0, "fusion_lat": 0.0, "name": "98c1e95ae8c1ca7397f8df504b1cd73e", "rental_uris": {"android": "https://dc.lft.to/lastmile_qr_scan", "ios": "https://dc.lft.to/lastmile_qr_scan"}, "fusion_lon": 0.0, "lat": 38.907327333333335, "lon": -77.03995816666666, "bike_id": "98c1e95ae8c1ca7397f8df504b1cd73e"}, {"type": "electric_scooter", "is_reserved": 0, "is_disabled": 0, "fusion_lat": 0.0, "name": "afc7eb83e99d486fc1a5f7f95e03e471", "rental_uris": {"android": "https://dc.lft.to/lastmile_qr_scan", "ios": "https://dc.lft.to/lastmile_qr_scan"}, "fusion_lon": 0.0, "lat": 38.895374333333336, "lon": -76.94886866666667, "bike_id": "afc7eb83e99d486fc1a5f7f95e03e471"}, {"type": "electric_scooter", "is_reserved": 0, "is_disabled": 0, "fusion_lat": 0.0, "name": "e48de312fada75de3a1aa32ed4810317", "rental_uris": {"android": "https://dc.lft.to/lastmile_qr_scan", "ios": "https://dc.lft.to/lastmile_qr_scan"}, "fusion_lon": 0.0, "lat": 38.92784833333333, "lon": -77.03691716666667, "bike_id": "e48de312fada75de3a1aa32ed4810317"}, {"type": "electric_scooter", "is_reserved": 0, "is_disabled": 0, "fusion_lat": 0.0, "name": "5da0893ad4bf44a6c884e1c2330438f4", "rental_uris": {"android": "https://dc.lft.to/lastmile_qr_scan", "ios": "https://dc.lft.to/lastmile_qr_scan"}, "fusion_lon": 0.0, "lat": 38.872459, "lon": -76.97726216666666, "bike_id": "5da0893ad4bf44a6c884e1c2330438f4"}, {"type": "electric_scooter", "is_reserved": 0, "is_disabled": 0, "fusion_lat": 0.0, "name": "4eaceb347c9acf08ed03a6862e2dc2db", "rental_uris": {"android": "https://dc.lft.to/lastmile_qr_scan", "ios": "https://dc.lft.to/lastmile_qr_scan"}, "fusion_lon": 0.0, "lat": 38.92659066666667, "lon": -77.03724733333334, "bike_id": "4eaceb347c9acf08ed03a6862e2dc2db"}, {"type": "electric_bike", "is_reserved": 0, "is_disabled": 0, "fusion_lat": 0.0, "name": "ec2a534fdf855fd2d0b221e21cfa9b72", "rental_uris": {"android": "https://dc.lft.to/lastmile_qr_scan", "ios": "https://dc.lft.to/lastmile_qr_scan"}, "fusion_lon": 0.0, "lat": 38.849384666666666, "lon": -77.10017716666667, "bike_id": "ec2a534fdf855fd2d0b221e21cfa9b72"}, {"type": "electric_bike", "is_reserved": 0, "is_disabled": 0, "fusion_lat": 0.0, "name": "4f9857cdd253343a189ee8b7807c8e50", "rental_uris": {"android": "https://dc.lft.to/lastmile_qr_scan", "ios": "https://dc.lft.to/lastmile_qr_scan"}, "fusion_lon": 0.0, "lat": 38.84279216666667, "lon": -76.98847216666667, "bike_id": "4f9857cdd253343a189ee8b7807c8e50"}, {"type": "electric_scooter", "is_reserved": 0, "is_disabled": 0, "fusion_lat": 0.0, "name": "75a111af4cd6ef7fdd97b78383155c9b", "rental_uris": {"android": "https://dc.lft.to/lastmile_qr_scan", "ios": "https://dc.lft.to/lastmile_qr_scan"}, "fusion_lon": 0.0, "lat": 38.93096383333334, "lon": -77.038429, "bike_id": "75a111af4cd6ef7fdd97b78383155c9b"}, {"type": "electric_scooter", "is_reserved": 0, "is_disabled": 0, "fusion_lat": 0.0, "name": "ef36ff4d27f7dea2953023e63bf73e7b", "rental_uris": {"android": "https://dc.lft.to/lastmile_qr_scan", "ios": "https://dc.lft.to/lastmile_qr_scan"}, "fusion_lon": 0.0, "lat": 38.930914333333334, "lon": -77.03751016666666, "bike_id": "ef36ff4d27f7dea2953023e63bf73e7b"}, {"type": "electric_scooter", "is_reserved": 0, "is_disabled": 0, "fusion_lat": 0.0, "name": "89314c7ff59de3c51c7a462f6c9162f4", "rental_uris": {"android": "https://dc.lft.to/lastmile_qr_scan", "ios": "https://dc.lft.to/lastmile_qr_scan"}, "fusion_lon": 0.0, "lat": 38.9055965, "lon": -77.0381605, "bike_id": "89314c7ff59de3c51c7a462f6c9162f4"}, {"type": "electric_scooter", "is_reserved": 0, "is_disabled": 0, "fusion_lat": 0.0, "name": "fc0ecf9c2bcfeb66bd98a497269d5409", "rental_uris": {"android": "https://dc.lft.to/lastmile_qr_scan", "ios": "https://dc.lft.to/lastmile_qr_scan"}, "fusion_lon": 0.0, "lat": 38.92141633333333, "lon": -77.017994, "bike_id": "fc0ecf9c2bcfeb66bd98a497269d5409"}, {"type": "electric_scooter", "is_reserved": 0, "is_disabled": 0, "fusion_lat": 0.0, "name": "6c03d7b503e1513cc830f16fe3f197cd", "rental_uris": {"android": "https://dc.lft.to/lastmile_qr_scan", "ios": "https://dc.lft.to/lastmile_qr_scan"}, "fusion_lon": 0.0, "lat": 38.884791666666665, "lon": -77.0151285, "bike_id": "6c03d7b503e1513cc830f16fe3f197cd"}, {"type": "electric_scooter", "is_reserved": 0, "is_disabled": 0, "fusion_lat": 0.0, "name": "ccb9e8c56f40b85459c903e2119cd3e6", "rental_uris": {"android": "https://dc.lft.to/lastmile_qr_scan", "ios": "https://dc.lft.to/lastmile_qr_scan"}, "fusion_lon": 0.0, "lat": 38.92373966666667, "lon": -77.02983066666667, "bike_id": "ccb9e8c56f40b85459c903e2119cd3e6"}, {"type": "electric_scooter", "is_reserved": 0, "is_disabled": 0, "fusion_lat": 0.0, "name": "4dc855f0fbc92abbe0b76a1eccfbe837", "rental_uris": {"android": "https://dc.lft.to/lastmile_qr_scan", "ios": "https://dc.lft.to/lastmile_qr_scan"}, "fusion_lon": 0.0, "lat": 38.921805166666665, "lon": -77.02413333333334, "bike_id": "4dc855f0fbc92abbe0b76a1eccfbe837"}, {"type": "electric_scooter", "is_reserved": 0, "is_disabled": 0, "fusion_lat": 0.0, "name": "3aeeb31df48788d10de44e520167770b", "rental_uris": {"android": "https://dc.lft.to/lastmile_qr_scan", "ios": "https://dc.lft.to/lastmile_qr_scan"}, "fusion_lon": 0.0, "lat": 38.920010166666664, "lon": -77.03199583333334, "bike_id": "3aeeb31df48788d10de44e520167770b"}, {"type": "electric_scooter", "is_reserved": 0, "is_disabled": 0, "fusion_lat": 0.0, "name": "ada54a6c4c13e0f33e6b48d26830ebc9", "rental_uris": {"android": "https://dc.lft.to/lastmile_qr_scan", "ios": "https://dc.lft.to/lastmile_qr_scan"}, "fusion_lon": 0.0, "lat": 38.866245666666664, "lon": -76.9869875, "bike_id": "ada54a6c4c13e0f33e6b48d26830ebc9"}, {"type": "electric_scooter", "is_reserved": 0, "is_disabled": 0, "fusion_lat": 0.0, "name": "7163686dcc0b73377e97677aa168bc48", "rental_uris": {"android": "https://dc.lft.to/lastmile_qr_scan", "ios": "https://dc.lft.to/lastmile_qr_scan"}, "fusion_lon": 0.0, "lat": 38.90966233333333, "lon": -76.98441883333334, "bike_id": "7163686dcc0b73377e97677aa168bc48"}, {"type": "electric_scooter", "is_reserved": 0, "is_disabled": 0, "fusion_lat": 0.0, "name": "6c1d85d5b7661f8a04b96b4169e7b16e", "rental_uris": {"android": "https://dc.lft.to/lastmile_qr_scan", "ios": "https://dc.lft.to/lastmile_qr_scan"}, "fusion_lon": 0.0, "lat": 38.902243, "lon": -77.023758, "bike_id": "6c1d85d5b7661f8a04b96b4169e7b16e"}, {"type": "electric_scooter", "is_reserved": 0, "is_disabled": 0, "fusion_lat": 0.0, "name": "b995837806a2f73c69e08cccca3ffce8", "rental_uris": {"android": "https://dc.lft.to/lastmile_qr_scan", "ios": "https://dc.lft.to/lastmile_qr_scan"}, "fusion_lon": 0.0, "lat": 38.901116333333334, "lon": -77.01815383333333, "bike_id": "b995837806a2f73c69e08cccca3ffce8"}, {"type": "electric_bike", "is_reserved": 0, "is_disabled": 0, "fusion_lat": 0.0, "name": "30e58fa0b994070111cc107d013953e0", "rental_uris": {"android": "https://dc.lft.to/lastmile_qr_scan", "ios": "https://dc.lft.to/lastmile_qr_scan"}, "fusion_lon": 0.0, "lat": 38.95271316666667, "lon": -77.00196133333333, "bike_id": "30e58fa0b994070111cc107d013953e0"}, {"type": "electric_scooter", "is_reserved": 0, "is_disabled": 0, "fusion_lat": 0.0, "name": "d64c8de662b11c2a9d239de14d5657e3", "rental_uris": {"android": "https://dc.lft.to/lastmile_qr_scan", "ios": "https://dc.lft.to/lastmile_qr_scan"}, "fusion_lon": 0.0, "lat": 38.911147166666666, "lon": -77.04459433333334, "bike_id": "d64c8de662b11c2a9d239de14d5657e3"}, {"type": "electric_scooter", "is_reserved": 0, "is_disabled": 0, "fusion_lat": 0.0, "name": "45501b14f0a049c71e19a4e7b6d2c33c", "rental_uris": {"android": "https://dc.lft.to/lastmile_qr_scan", "ios": "https://dc.lft.to/lastmile_qr_scan"}, "fusion_lon": 0.0, "lat": 38.918821, "lon": -77.0296615, "bike_id": "45501b14f0a049c71e19a4e7b6d2c33c"}, {"type": "electric_scooter", "is_reserved": 0, "is_disabled": 0, "fusion_lat": 0.0, "name": "60817747403fbb1eec7d95b071d1b161", "rental_uris": {"android": "https://dc.lft.to/lastmile_qr_scan", "ios": "https://dc.lft.to/lastmile_qr_scan"}, "fusion_lon": 0.0, "lat": 38.84295683333333, "lon": -76.999483, "bike_id": "60817747403fbb1eec7d95b071d1b161"}, {"type": "electric_scooter", "is_reserved": 0, "is_disabled": 0, "fusion_lat": 0.0, "name": "d5bb91fb05044e3e30f611c23049bddb", "rental_uris": {"android": "https://dc.lft.to/lastmile_qr_scan", "ios": "https://dc.lft.to/lastmile_qr_scan"}, "fusion_lon": 0.0, "lat": 38.893756333333336, "lon": -76.94996333333333, "bike_id": "d5bb91fb05044e3e30f611c23049bddb"}, {"type": "electric_scooter", "is_reserved": 0, "is_disabled": 0, "fusion_lat": 0.0, "name": "95cfefb6d7ba2f705cab3d196afea8e7", "rental_uris": {"android": "https://dc.lft.to/lastmile_qr_scan", "ios": "https://dc.lft.to/lastmile_qr_scan"}, "fusion_lon": 0.0, "lat": 38.892258166666664, "lon": -77.046429, "bike_id": "95cfefb6d7ba2f705cab3d196afea8e7"}, {"type": "electric_scooter", "is_reserved": 0, "is_disabled": 0, "fusion_lat": 0.0, "name": "5f1194f724c2658771112dad26362a56", "rental_uris": {"android": "https://dc.lft.to/lastmile_qr_scan", "ios": "https://dc.lft.to/lastmile_qr_scan"}, "fusion_lon": 0.0, "lat": 38.900341166666664, "lon": -77.00748583333333, "bike_id": "5f1194f724c2658771112dad26362a56"}, {"type": "electric_scooter", "is_reserved": 0, "is_disabled": 0, "fusion_lat": 0.0, "name": "7466c08f99717fa7aaf38340421116e9", "rental_uris": {"android": "https://dc.lft.to/lastmile_qr_scan", "ios": "https://dc.lft.to/lastmile_qr_scan"}, "fusion_lon": 0.0, "lat": 38.91323833333333, "lon": -77.03668583333334, "bike_id": "7466c08f99717fa7aaf38340421116e9"}, {"type": "electric_bike", "is_reserved": 0, "is_disabled": 0, "fusion_lat": 0.0, "name": "eb5fc968446ed89663d0b62a99a0e180", "rental_uris": {"android": "https://dc.lft.to/lastmile_qr_scan", "ios": "https://dc.lft.to/lastmile_qr_scan"}, "fusion_lon": 0.0, "lat": 38.8045195, "lon": -77.04237766666667, "bike_id": "eb5fc968446ed89663d0b62a99a0e180"}, {"type": "electric_scooter", "is_reserved": 0, "is_disabled": 0, "fusion_lat": 0.0, "name": "48e20efc5756a17c7822dc64a4813fde", "rental_uris": {"android": "https://dc.lft.to/lastmile_qr_scan", "ios": "https://dc.lft.to/lastmile_qr_scan"}, "fusion_lon": 0.0, "lat": 38.938880833333336, "lon": -77.03336333333333, "bike_id": "48e20efc5756a17c7822dc64a4813fde"}, {"type": "electric_scooter", "is_reserved": 0, "is_disabled": 0, "fusion_lat": 0.0, "name": "5fb0eb3ed625007fac7045f1cac54199", "rental_uris": {"android": "https://dc.lft.to/lastmile_qr_scan", "ios": "https://dc.lft.to/lastmile_qr_scan"}, "fusion_lon": 0.0, "lat": 38.92115833333333, "lon": -77.04224966666666, "bike_id": "5fb0eb3ed625007fac7045f1cac54199"}, {"type": "electric_bike", "is_reserved": 0, "is_disabled": 0, "fusion_lat": 0.0, "name": "e78c1d3b6e2bd7c7d8f2d30a3812982e", "rental_uris": {"android": "https://dc.lft.to/lastmile_qr_scan", "ios": "https://dc.lft.to/lastmile_qr_scan"}, "fusion_lon": 0.0, "lat": 38.827837, "lon": -77.00919416666666, "bike_id": "e78c1d3b6e2bd7c7d8f2d30a3812982e"}, {"type": "electric_scooter", "is_reserved": 0, "is_disabled": 0, "fusion_lat": 0.0, "name": "2ecec38ba9de387502de23c6c5cedcdc", "rental_uris": {"android": "https://dc.lft.to/lastmile_qr_scan", "ios": "https://dc.lft.to/lastmile_qr_scan"}, "fusion_lon": 0.0, "lat": 38.8879635, "lon": -76.93364616666666, "bike_id": "2ecec38ba9de387502de23c6c5cedcdc"}, {"type": "electric_scooter", "is_reserved": 0, "is_disabled": 0, "fusion_lat": 0.0, "name": "844d331179b24bab70479f271c2eae4d", "rental_uris": {"android": "https://dc.lft.to/lastmile_qr_scan", "ios": "https://dc.lft.to/lastmile_qr_scan"}, "fusion_lon": 0.0, "lat": 38.96617, "lon": -77.02320183333333, "bike_id": "844d331179b24bab70479f271c2eae4d"}, {"type": "electric_scooter", "is_reserved": 0, "is_disabled": 0, "fusion_lat": 0.0, "name": "d7accaba232ebffbc00bb6fe6dd5535a", "rental_uris": {"android": "https://dc.lft.to/lastmile_qr_scan", "ios": "https://dc.lft.to/lastmile_qr_scan"}, "fusion_lon": 0.0, "lat": 38.88265783333333, "lon": -76.9958315, "bike_id": "d7accaba232ebffbc00bb6fe6dd5535a"}, {"type": "electric_scooter", "is_reserved": 0, "is_disabled": 0, "fusion_lat": 0.0, "name": "04c776124f8f9598707b6211bc6779c8", "rental_uris": {"android": "https://dc.lft.to/lastmile_qr_scan", "ios": "https://dc.lft.to/lastmile_qr_scan"}, "fusion_lon": 0.0, "lat": 38.902377, "lon": -77.0020095, "bike_id": "04c776124f8f9598707b6211bc6779c8"}, {"type": "electric_scooter", "is_reserved": 0, "is_disabled": 0, "fusion_lat": 0.0, "name": "8460dee01990224bab2f4f0ce750ae36", "rental_uris": {"android": "https://dc.lft.to/lastmile_qr_scan", "ios": "https://dc.lft.to/lastmile_qr_scan"}, "fusion_lon": 0.0, "lat": 38.984367166666665, "lon": -77.02678966666667, "bike_id": "8460dee01990224bab2f4f0ce750ae36"}, {"type": "electric_scooter", "is_reserved": 0, "is_disabled": 0, "fusion_lat": 0.0, "name": "cfac7d88893eff5066f3c170709b996e", "rental_uris": {"android": "https://dc.lft.to/lastmile_qr_scan", "ios": "https://dc.lft.to/lastmile_qr_scan"}, "fusion_lon": 0.0, "lat": 38.8974595, "lon": -77.04505633333333, "bike_id": "cfac7d88893eff5066f3c170709b996e"}, {"type": "electric_scooter", "is_reserved": 0, "is_disabled": 0, "fusion_lat": 0.0, "name": "7f8c0338bc544df66e1a9ffac553915a", "rental_uris": {"android": "https://dc.lft.to/lastmile_qr_scan", "ios": "https://dc.lft.to/lastmile_qr_scan"}, "fusion_lon": 0.0, "lat": 38.92190683333333, "lon": -77.03804683333334, "bike_id": "7f8c0338bc544df66e1a9ffac553915a"}, {"type": "electric_scooter", "is_reserved": 0, "is_disabled": 0, "fusion_lat": 0.0, "name": "a540b294c6e28bc1056d737ee06f166f", "rental_uris": {"android": "https://dc.lft.to/lastmile_qr_scan", "ios": "https://dc.lft.to/lastmile_qr_scan"}, "fusion_lon": 0.0, "lat": 38.906724833333335, "lon": -77.00051016666667, "bike_id": "a540b294c6e28bc1056d737ee06f166f"}, {"type": "electric_bike", "is_reserved": 0, "is_disabled": 0, "fusion_lat": 0.0, "name": "a0164345fa562a52870f1b6fa000eff9", "rental_uris": {"android": "https://dc.lft.to/lastmile_qr_scan", "ios": "https://dc.lft.to/lastmile_qr_scan"}, "fusion_lon": 0.0, "lat": 38.965776, "lon": -77.016259, "bike_id": "a0164345fa562a52870f1b6fa000eff9"}, {"type": "electric_scooter", "is_reserved": 0, "is_disabled": 0, "fusion_lat": 0.0, "name": "597672ec814c4ac94f407256c41a6785", "rental_uris": {"android": "https://dc.lft.to/lastmile_qr_scan", "ios": "https://dc.lft.to/lastmile_qr_scan"}, "fusion_lon": 0.0, "lat": 38.90367033333333, "lon": -77.0434715, "bike_id": "597672ec814c4ac94f407256c41a6785"}, {"type": "electric_scooter", "is_reserved": 0, "is_disabled": 0, "fusion_lat": 0.0, "name": "f72ae61b9cbd64717ca6f638f961b4be", "rental_uris": {"android": "https://dc.lft.to/lastmile_qr_scan", "ios": "https://dc.lft.to/lastmile_qr_scan"}, "fusion_lon": 0.0, "lat": 38.9286995, "lon": -77.032407, "bike_id": "f72ae61b9cbd64717ca6f638f961b4be"}, {"type": "electric_scooter", "is_reserved": 0, "is_disabled": 0, "fusion_lat": 0.0, "name": "e808e790ea102694ac129d03e21b6dd8", "rental_uris": {"android": "https://dc.lft.to/lastmile_qr_scan", "ios": "https://dc.lft.to/lastmile_qr_scan"}, "fusion_lon": 0.0, "lat": 38.904222833333336, "lon": -77.0326705, "bike_id": "e808e790ea102694ac129d03e21b6dd8"}, {"type": "electric_scooter", "is_reserved": 0, "is_disabled": 0, "fusion_lat": 0.0, "name": "cddaea5eeb5ad7b5886f4af5abe03864", "rental_uris": {"android": "https://dc.lft.to/lastmile_qr_scan", "ios": "https://dc.lft.to/lastmile_qr_scan"}, "fusion_lon": 0.0, "lat": 38.900226833333335, "lon": -77.001636, "bike_id": "cddaea5eeb5ad7b5886f4af5abe03864"}, {"type": "electric_scooter", "is_reserved": 0, "is_disabled": 0, "fusion_lat": 0.0, "name": "6d244cf45a00143c0b85356a380f0f96", "rental_uris": {"android": "https://dc.lft.to/lastmile_qr_scan", "ios": "https://dc.lft.to/lastmile_qr_scan"}, "fusion_lon": 0.0, "lat": 38.92864466666666, "lon": -77.0344045, "bike_id": "6d244cf45a00143c0b85356a380f0f96"}, {"type": "electric_scooter", "is_reserved": 0, "is_disabled": 0, "fusion_lat": 0.0, "name": "a6eb454c2f66c90a6bc828ef534d203d", "rental_uris": {"android": "https://dc.lft.to/lastmile_qr_scan", "ios": "https://dc.lft.to/lastmile_qr_scan"}, "fusion_lon": 0.0, "lat": 38.900294, "lon": -76.99742833333333, "bike_id": "a6eb454c2f66c90a6bc828ef534d203d"}, {"type": "electric_scooter", "is_reserved": 0, "is_disabled": 0, "fusion_lat": 0.0, "name": "d047370acd3d0405767b5e23270c4085", "rental_uris": {"android": "https://dc.lft.to/lastmile_qr_scan", "ios": "https://dc.lft.to/lastmile_qr_scan"}, "fusion_lon": 0.0, "lat": 38.905045666666666, "lon": -76.99017666666667, "bike_id": "d047370acd3d0405767b5e23270c4085"}, {"type": "electric_scooter", "is_reserved": 0, "is_disabled": 0, "fusion_lat": 0.0, "name": "959c3f3f8a9b069a1cd306f08bcf0df4", "rental_uris": {"android": "https://dc.lft.to/lastmile_qr_scan", "ios": "https://dc.lft.to/lastmile_qr_scan"}, "fusion_lon": 0.0, "lat": 38.918453666666665, "lon": -77.04493383333333, "bike_id": "959c3f3f8a9b069a1cd306f08bcf0df4"}, {"type": "electric_scooter", "is_reserved": 0, "is_disabled": 0, "fusion_lat": 0.0, "name": "221e3885714b7251d90b8a7981320e62", "rental_uris": {"android": "https://dc.lft.to/lastmile_qr_scan", "ios": "https://dc.lft.to/lastmile_qr_scan"}, "fusion_lon": 0.0, "lat": 38.942139, "lon": -77.020226, "bike_id": "221e3885714b7251d90b8a7981320e62"}, {"type": "electric_scooter", "is_reserved": 0, "is_disabled": 0, "fusion_lat": 0.0, "name": "9d1f4e7db66d4971816044372eee2644", "rental_uris": {"android": "https://dc.lft.to/lastmile_qr_scan", "ios": "https://dc.lft.to/lastmile_qr_scan"}, "fusion_lon": 0.0, "lat": 38.904251333333335, "lon": -76.99074233333333, "bike_id": "9d1f4e7db66d4971816044372eee2644"}, {"type": "electric_scooter", "is_reserved": 0, "is_disabled": 0, "fusion_lat": 0.0, "name": "1d8e3550919aa3d91b62a347f6400a76", "rental_uris": {"android": "https://dc.lft.to/lastmile_qr_scan", "ios": "https://dc.lft.to/lastmile_qr_scan"}, "fusion_lon": 0.0, "lat": 38.90010566666667, "lon": -77.04507, "bike_id": "1d8e3550919aa3d91b62a347f6400a76"}, {"type": "electric_scooter", "is_reserved": 0, "is_disabled": 0, "fusion_lat": 0.0, "name": "391b8e6abd6246842f82efd2813d5bdf", "rental_uris": {"android": "https://dc.lft.to/lastmile_qr_scan", "ios": "https://dc.lft.to/lastmile_qr_scan"}, "fusion_lon": 0.0, "lat": 38.91120933333333, "lon": -77.03183116666666, "bike_id": "391b8e6abd6246842f82efd2813d5bdf"}, {"type": "electric_scooter", "is_reserved": 0, "is_disabled": 0, "fusion_lat": 0.0, "name": "638ef6767dd818fcc0430637371f645e", "rental_uris": {"android": "https://dc.lft.to/lastmile_qr_scan", "ios": "https://dc.lft.to/lastmile_qr_scan"}, "fusion_lon": 0.0, "lat": 38.9602865, "lon": -77.02830066666667, "bike_id": "638ef6767dd818fcc0430637371f645e"}, {"type": "electric_scooter", "is_reserved": 0, "is_disabled": 0, "fusion_lat": 0.0, "name": "8859e6265991ae8b41d14dc0a6e999f5", "rental_uris": {"android": "https://dc.lft.to/lastmile_qr_scan", "ios": "https://dc.lft.to/lastmile_qr_scan"}, "fusion_lon": 0.0, "lat": 38.8746955, "lon": -77.00545283333334, "bike_id": "8859e6265991ae8b41d14dc0a6e999f5"}, {"type": "electric_scooter", "is_reserved": 0, "is_disabled": 0, "fusion_lat": 0.0, "name": "b253d5a46700378c6a48b6b90618895b", "rental_uris": {"android": "https://dc.lft.to/lastmile_qr_scan", "ios": "https://dc.lft.to/lastmile_qr_scan"}, "fusion_lon": 0.0, "lat": 38.916884333333336, "lon": -77.029424, "bike_id": "b253d5a46700378c6a48b6b90618895b"}, {"type": "electric_scooter", "is_reserved": 0, "is_disabled": 0, "fusion_lat": 0.0, "name": "3e78c0936ac0001e3520aa5a82658c21", "rental_uris": {"android": "https://dc.lft.to/lastmile_qr_scan", "ios": "https://dc.lft.to/lastmile_qr_scan"}, "fusion_lon": 0.0, "lat": 38.931923, "lon": -77.028285, "bike_id": "3e78c0936ac0001e3520aa5a82658c21"}, {"type": "electric_scooter", "is_reserved": 0, "is_disabled": 0, "fusion_lat": 0.0, "name": "c9b35ad23d52b477547037733b85fdb4", "rental_uris": {"android": "https://dc.lft.to/lastmile_qr_scan", "ios": "https://dc.lft.to/lastmile_qr_scan"}, "fusion_lon": 0.0, "lat": 38.88769116666667, "lon": -77.022299, "bike_id": "c9b35ad23d52b477547037733b85fdb4"}, {"type": "electric_scooter", "is_reserved": 0, "is_disabled": 0, "fusion_lat": 0.0, "name": "4f4518f5bddba822926f2038d1233579", "rental_uris": {"android": "https://dc.lft.to/lastmile_qr_scan", "ios": "https://dc.lft.to/lastmile_qr_scan"}, "fusion_lon": 0.0, "lat": 38.909742, "lon": -77.02181466666667, "bike_id": "4f4518f5bddba822926f2038d1233579"}, {"type": "electric_scooter", "is_reserved": 0, "is_disabled": 0, "fusion_lat": 0.0, "name": "103c009eaffb733c1c8152661b6a92de", "rental_uris": {"android": "https://dc.lft.to/lastmile_qr_scan", "ios": "https://dc.lft.to/lastmile_qr_scan"}, "fusion_lon": 0.0, "lat": 38.91937383333333, "lon": -77.081351, "bike_id": "103c009eaffb733c1c8152661b6a92de"}, {"type": "electric_scooter", "is_reserved": 0, "is_disabled": 0, "fusion_lat": 0.0, "name": "1917b6cce00a173a7f7da61ffa12ce32", "rental_uris": {"android": "https://dc.lft.to/lastmile_qr_scan", "ios": "https://dc.lft.to/lastmile_qr_scan"}, "fusion_lon": 0.0, "lat": 38.884372, "lon": -76.95755916666667, "bike_id": "1917b6cce00a173a7f7da61ffa12ce32"}, {"type": "electric_scooter", "is_reserved": 0, "is_disabled": 0, "fusion_lat": 0.0, "name": "eedaffcb6a472615f15eafd264623613", "rental_uris": {"android": "https://dc.lft.to/lastmile_qr_scan", "ios": "https://dc.lft.to/lastmile_qr_scan"}, "fusion_lon": 0.0, "lat": 38.922923833333336, "lon": -77.02072016666666, "bike_id": "eedaffcb6a472615f15eafd264623613"}, {"type": "electric_scooter", "is_reserved": 0, "is_disabled": 0, "fusion_lat": 0.0, "name": "c3b9b4d635767e0407881b4df9d8a319", "rental_uris": {"android": "https://dc.lft.to/lastmile_qr_scan", "ios": "https://dc.lft.to/lastmile_qr_scan"}, "fusion_lon": 0.0, "lat": 38.861063333333334, "lon": -76.98336716666667, "bike_id": "c3b9b4d635767e0407881b4df9d8a319"}, {"type": "electric_bike", "is_reserved": 0, "is_disabled": 0, "fusion_lat": 0.0, "name": "414c695518bfcba14d94ed02add3b6ae", "rental_uris": {"android": "https://dc.lft.to/lastmile_qr_scan", "ios": "https://dc.lft.to/lastmile_qr_scan"}, "fusion_lon": 0.0, "lat": 39.01053066666667, "lon": -76.91103683333333, "bike_id": "414c695518bfcba14d94ed02add3b6ae"}, {"type": "electric_scooter", "is_reserved": 0, "is_disabled": 0, "fusion_lat": 0.0, "name": "3c882f0685ba2f72e93bae11b74c28fd", "rental_uris": {"android": "https://dc.lft.to/lastmile_qr_scan", "ios": "https://dc.lft.to/lastmile_qr_scan"}, "fusion_lon": 0.0, "lat": 38.891980833333335, "lon": -77.03108566666667, "bike_id": "3c882f0685ba2f72e93bae11b74c28fd"}, {"type": "electric_scooter", "is_reserved": 0, "is_disabled": 0, "fusion_lat": 0.0, "name": "09595f4b2c81be39029dcabe333a066e", "rental_uris": {"android": "https://dc.lft.to/lastmile_qr_scan", "ios": "https://dc.lft.to/lastmile_qr_scan"}, "fusion_lon": 0.0, "lat": 38.900623333333336, "lon": -76.9338805, "bike_id": "09595f4b2c81be39029dcabe333a066e"}, {"type": "electric_scooter", "is_reserved": 0, "is_disabled": 0, "fusion_lat": 0.0, "name": "08f21843de45b63dd7a903449c73644c", "rental_uris": {"android": "https://dc.lft.to/lastmile_qr_scan", "ios": "https://dc.lft.to/lastmile_qr_scan"}, "fusion_lon": 0.0, "lat": 38.9155225, "lon": -77.03068066666667, "bike_id": "08f21843de45b63dd7a903449c73644c"}, {"type": "electric_scooter", "is_reserved": 0, "is_disabled": 0, "fusion_lat": 0.0, "name": "e5f4000c7d6358e62cbb033befa8a198", "rental_uris": {"android": "https://dc.lft.to/lastmile_qr_scan", "ios": "https://dc.lft.to/lastmile_qr_scan"}, "fusion_lon": 0.0, "lat": 38.887449833333335, "lon": -77.0216835, "bike_id": "e5f4000c7d6358e62cbb033befa8a198"}, {"type": "electric_bike", "is_reserved": 0, "is_disabled": 0, "fusion_lat": 0.0, "name": "f0074acc3aca03f926f4b1972eb21209", "rental_uris": {"android": "https://dc.lft.to/lastmile_qr_scan", "ios": "https://dc.lft.to/lastmile_qr_scan"}, "fusion_lon": 0.0, "lat": 38.85793366666667, "lon": -76.9874495, "bike_id": "f0074acc3aca03f926f4b1972eb21209"}, {"type": "electric_scooter", "is_reserved": 0, "is_disabled": 0, "fusion_lat": 0.0, "name": "93cd47d0e4eeac9263f85d658445d7d3", "rental_uris": {"android": "https://dc.lft.to/lastmile_qr_scan", "ios": "https://dc.lft.to/lastmile_qr_scan"}, "fusion_lon": 0.0, "lat": 38.89840133333333, "lon": -77.03312016666666, "bike_id": "93cd47d0e4eeac9263f85d658445d7d3"}, {"type": "electric_scooter", "is_reserved": 0, "is_disabled": 0, "fusion_lat": 0.0, "name": "f1852054d1f45aa4ba4db70fb780d39a", "rental_uris": {"android": "https://dc.lft.to/lastmile_qr_scan", "ios": "https://dc.lft.to/lastmile_qr_scan"}, "fusion_lon": 0.0, "lat": 38.884217166666666, "lon": -77.017923, "bike_id": "f1852054d1f45aa4ba4db70fb780d39a"}, {"type": "electric_scooter", "is_reserved": 0, "is_disabled": 0, "fusion_lat": 0.0, "name": "6537214c69c9684e78048704ba1bec74", "rental_uris": {"android": "https://dc.lft.to/lastmile_qr_scan", "ios": "https://dc.lft.to/lastmile_qr_scan"}, "fusion_lon": 0.0, "lat": 38.9192935, "lon": -77.0312925, "bike_id": "6537214c69c9684e78048704ba1bec74"}, {"type": "electric_scooter", "is_reserved": 0, "is_disabled": 0, "fusion_lat": 0.0, "name": "44bb73402378839f72d34e1c9ff82ff9", "rental_uris": {"android": "https://dc.lft.to/lastmile_qr_scan", "ios": "https://dc.lft.to/lastmile_qr_scan"}, "fusion_lon": 0.0, "lat": 38.903347, "lon": -76.97594633333334, "bike_id": "44bb73402378839f72d34e1c9ff82ff9"}, {"type": "electric_scooter", "is_reserved": 0, "is_disabled": 0, "fusion_lat": 0.0, "name": "bf0e988ee6f214417ca3dba34a739f1d", "rental_uris": {"android": "https://dc.lft.to/lastmile_qr_scan", "ios": "https://dc.lft.to/lastmile_qr_scan"}, "fusion_lon": 0.0, "lat": 38.92025483333333, "lon": -77.03139966666667, "bike_id": "bf0e988ee6f214417ca3dba34a739f1d"}, {"type": "electric_scooter", "is_reserved": 0, "is_disabled": 0, "fusion_lat": 0.0, "name": "0f6f668ed8a4620462cdcf6920205228", "rental_uris": {"android": "https://dc.lft.to/lastmile_qr_scan", "ios": "https://dc.lft.to/lastmile_qr_scan"}, "fusion_lon": 0.0, "lat": 38.875372, "lon": -77.00509033333333, "bike_id": "0f6f668ed8a4620462cdcf6920205228"}, {"type": "electric_scooter", "is_reserved": 0, "is_disabled": 0, "fusion_lat": 0.0, "name": "ee9a12b5f1b2053b3f4d9f4705989d0d", "rental_uris": {"android": "https://dc.lft.to/lastmile_qr_scan", "ios": "https://dc.lft.to/lastmile_qr_scan"}, "fusion_lon": 0.0, "lat": 38.9243675, "lon": -77.051898, "bike_id": "ee9a12b5f1b2053b3f4d9f4705989d0d"}, {"type": "electric_scooter", "is_reserved": 0, "is_disabled": 0, "fusion_lat": 0.0, "name": "a5961bf22331899f380d230323341393", "rental_uris": {"android": "https://dc.lft.to/lastmile_qr_scan", "ios": "https://dc.lft.to/lastmile_qr_scan"}, "fusion_lon": 0.0, "lat": 38.914112833333334, "lon": -77.00804283333333, "bike_id": "a5961bf22331899f380d230323341393"}, {"type": "electric_scooter", "is_reserved": 0, "is_disabled": 0, "fusion_lat": 0.0, "name": "e406ebae8a23dc3247ea2986cd54e294", "rental_uris": {"android": "https://dc.lft.to/lastmile_qr_scan", "ios": "https://dc.lft.to/lastmile_qr_scan"}, "fusion_lon": 0.0, "lat": 38.900786333333336, "lon": -77.0465555, "bike_id": "e406ebae8a23dc3247ea2986cd54e294"}, {"type": "electric_scooter", "is_reserved": 0, "is_disabled": 0, "fusion_lat": 0.0, "name": "1599a462de239b68926ac4078bff87ad", "rental_uris": {"android": "https://dc.lft.to/lastmile_qr_scan", "ios": "https://dc.lft.to/lastmile_qr_scan"}, "fusion_lon": 0.0, "lat": 38.8968135, "lon": -76.99623566666666, "bike_id": "1599a462de239b68926ac4078bff87ad"}, {"type": "electric_scooter", "is_reserved": 0, "is_disabled": 0, "fusion_lat": 0.0, "name": "76cd846d09f30af2d9c69f9216382efc", "rental_uris": {"android": "https://dc.lft.to/lastmile_qr_scan", "ios": "https://dc.lft.to/lastmile_qr_scan"}, "fusion_lon": 0.0, "lat": 38.89920133333333, "lon": -76.93381266666667, "bike_id": "76cd846d09f30af2d9c69f9216382efc"}, {"type": "electric_scooter", "is_reserved": 0, "is_disabled": 0, "fusion_lat": 0.0, "name": "50e9c6cf6e0a8e06e5684e155e6fcee2", "rental_uris": {"android": "https://dc.lft.to/lastmile_qr_scan", "ios": "https://dc.lft.to/lastmile_qr_scan"}, "fusion_lon": 0.0, "lat": 38.89505916666667, "lon": -77.0229405, "bike_id": "50e9c6cf6e0a8e06e5684e155e6fcee2"}, {"type": "electric_scooter", "is_reserved": 0, "is_disabled": 0, "fusion_lat": 0.0, "name": "b8db201fdf0244584164b8a801af2690", "rental_uris": {"android": "https://dc.lft.to/lastmile_qr_scan", "ios": "https://dc.lft.to/lastmile_qr_scan"}, "fusion_lon": 0.0, "lat": 38.88451, "lon": -76.950999, "bike_id": "b8db201fdf0244584164b8a801af2690"}, {"type": "electric_scooter", "is_reserved": 0, "is_disabled": 0, "fusion_lat": 0.0, "name": "49d669347142e66b1de835a76865a838", "rental_uris": {"android": "https://dc.lft.to/lastmile_qr_scan", "ios": "https://dc.lft.to/lastmile_qr_scan"}, "fusion_lon": 0.0, "lat": 38.915529166666666, "lon": -77.03028716666667, "bike_id": "49d669347142e66b1de835a76865a838"}, {"type": "electric_scooter", "is_reserved": 0, "is_disabled": 0, "fusion_lat": 0.0, "name": "97a3e7432e7b4decbc21cd9dc8863796", "rental_uris": {"android": "https://dc.lft.to/lastmile_qr_scan", "ios": "https://dc.lft.to/lastmile_qr_scan"}, "fusion_lon": 0.0, "lat": 38.928751166666665, "lon": -77.0137915, "bike_id": "97a3e7432e7b4decbc21cd9dc8863796"}, {"type": "electric_scooter", "is_reserved": 0, "is_disabled": 0, "fusion_lat": 0.0, "name": "a845ba80b8066af1bcea7b477fe8fda7", "rental_uris": {"android": "https://dc.lft.to/lastmile_qr_scan", "ios": "https://dc.lft.to/lastmile_qr_scan"}, "fusion_lon": 0.0, "lat": 38.916951833333336, "lon": -77.025919, "bike_id": "a845ba80b8066af1bcea7b477fe8fda7"}, {"type": "electric_scooter", "is_reserved": 0, "is_disabled": 0, "fusion_lat": 0.0, "name": "5f7e5c2fedfa370c5652a8d2583cd44e", "rental_uris": {"android": "https://dc.lft.to/lastmile_qr_scan", "ios": "https://dc.lft.to/lastmile_qr_scan"}, "fusion_lon": 0.0, "lat": 38.91373383333333, "lon": -77.01997866666666, "bike_id": "5f7e5c2fedfa370c5652a8d2583cd44e"}, {"type": "electric_scooter", "is_reserved": 0, "is_disabled": 0, "fusion_lat": 0.0, "name": "a4fb5e7e47c9a7e2adfd3621bd56bdd2", "rental_uris": {"android": "https://dc.lft.to/lastmile_qr_scan", "ios": "https://dc.lft.to/lastmile_qr_scan"}, "fusion_lon": 0.0, "lat": 38.898545166666665, "lon": -77.04267283333333, "bike_id": "a4fb5e7e47c9a7e2adfd3621bd56bdd2"}, {"type": "electric_scooter", "is_reserved": 0, "is_disabled": 0, "fusion_lat": 0.0, "name": "97aeee7706c7a3dc911dab779635aeb5", "rental_uris": {"android": "https://dc.lft.to/lastmile_qr_scan", "ios": "https://dc.lft.to/lastmile_qr_scan"}, "fusion_lon": 0.0, "lat": 38.880235166666665, "lon": -76.93132333333334, "bike_id": "97aeee7706c7a3dc911dab779635aeb5"}, {"type": "electric_scooter", "is_reserved": 0, "is_disabled": 0, "fusion_lat": 0.0, "name": "abf7f8b734e1ac410a40d11e21848e8e", "rental_uris": {"android": "https://dc.lft.to/lastmile_qr_scan", "ios": "https://dc.lft.to/lastmile_qr_scan"}, "fusion_lon": 0.0, "lat": 38.92232166666667, "lon": -77.043792, "bike_id": "abf7f8b734e1ac410a40d11e21848e8e"}, {"type": "electric_scooter", "is_reserved": 0, "is_disabled": 0, "fusion_lat": 0.0, "name": "3ec626cf982008d53720694e04201327", "rental_uris": {"android": "https://dc.lft.to/lastmile_qr_scan", "ios": "https://dc.lft.to/lastmile_qr_scan"}, "fusion_lon": 0.0, "lat": 38.9127625, "lon": -77.04509466666667, "bike_id": "3ec626cf982008d53720694e04201327"}, {"type": "electric_scooter", "is_reserved": 0, "is_disabled": 0, "fusion_lat": 0.0, "name": "8f6db14335fa069e858565e95014b2e3", "rental_uris": {"android": "https://dc.lft.to/lastmile_qr_scan", "ios": "https://dc.lft.to/lastmile_qr_scan"}, "fusion_lon": 0.0, "lat": 38.90757633333333, "lon": -77.00092583333333, "bike_id": "8f6db14335fa069e858565e95014b2e3"}, {"type": "electric_scooter", "is_reserved": 0, "is_disabled": 0, "fusion_lat": 0.0, "name": "3266c6019755107e9099bb68908d463a", "rental_uris": {"android": "https://dc.lft.to/lastmile_qr_scan", "ios": "https://dc.lft.to/lastmile_qr_scan"}, "fusion_lon": 0.0, "lat": 38.892208333333336, "lon": -77.02138966666666, "bike_id": "3266c6019755107e9099bb68908d463a"}, {"type": "electric_scooter", "is_reserved": 0, "is_disabled": 0, "fusion_lat": 0.0, "name": "e138980b936672215ea20b15cf976e31", "rental_uris": {"android": "https://dc.lft.to/lastmile_qr_scan", "ios": "https://dc.lft.to/lastmile_qr_scan"}, "fusion_lon": 0.0, "lat": 38.9046725, "lon": -77.04342416666667, "bike_id": "e138980b936672215ea20b15cf976e31"}, {"type": "electric_scooter", "is_reserved": 0, "is_disabled": 0, "fusion_lat": 0.0, "name": "be01fd2f5648afcdfa579aa69287eec8", "rental_uris": {"android": "https://dc.lft.to/lastmile_qr_scan", "ios": "https://dc.lft.to/lastmile_qr_scan"}, "fusion_lon": 0.0, "lat": 38.884831166666665, "lon": -77.03353316666667, "bike_id": "be01fd2f5648afcdfa579aa69287eec8"}, {"type": "electric_scooter", "is_reserved": 0, "is_disabled": 0, "fusion_lat": 0.0, "name": "88791c01bad67d96c4e7fe16a9b61ad8", "rental_uris": {"android": "https://dc.lft.to/lastmile_qr_scan", "ios": "https://dc.lft.to/lastmile_qr_scan"}, "fusion_lon": 0.0, "lat": 38.926604166666664, "lon": -77.05596566666667, "bike_id": "88791c01bad67d96c4e7fe16a9b61ad8"}, {"type": "electric_scooter", "is_reserved": 0, "is_disabled": 0, "fusion_lat": 0.0, "name": "0af4c400d683663d01d979165aa000cf", "rental_uris": {"android": "https://dc.lft.to/lastmile_qr_scan", "ios": "https://dc.lft.to/lastmile_qr_scan"}, "fusion_lon": 0.0, "lat": 38.88662333333333, "lon": -77.03387666666667, "bike_id": "0af4c400d683663d01d979165aa000cf"}, {"type": "electric_scooter", "is_reserved": 0, "is_disabled": 0, "fusion_lat": 0.0, "name": "26075e1acdc863a6de1dd0cf91f45e79", "rental_uris": {"android": "https://dc.lft.to/lastmile_qr_scan", "ios": "https://dc.lft.to/lastmile_qr_scan"}, "fusion_lon": 0.0, "lat": 38.900409333333336, "lon": -77.00535666666667, "bike_id": "26075e1acdc863a6de1dd0cf91f45e79"}, {"type": "electric_scooter", "is_reserved": 0, "is_disabled": 0, "fusion_lat": 0.0, "name": "fc558cb0b6c3d2345ac674987fed871c", "rental_uris": {"android": "https://dc.lft.to/lastmile_qr_scan", "ios": "https://dc.lft.to/lastmile_qr_scan"}, "fusion_lon": 0.0, "lat": 38.9207165, "lon": -77.04687833333334, "bike_id": "fc558cb0b6c3d2345ac674987fed871c"}, {"type": "electric_scooter", "is_reserved": 0, "is_disabled": 0, "fusion_lat": 0.0, "name": "5f14d3d3d0c7d28372b0f78de0194281", "rental_uris": {"android": "https://dc.lft.to/lastmile_qr_scan", "ios": "https://dc.lft.to/lastmile_qr_scan"}, "fusion_lon": 0.0, "lat": 38.924689666666666, "lon": -77.05258583333334, "bike_id": "5f14d3d3d0c7d28372b0f78de0194281"}, {"type": "electric_scooter", "is_reserved": 0, "is_disabled": 0, "fusion_lat": 0.0, "name": "1b105603ac04944ba610aa602b55e033", "rental_uris": {"android": "https://dc.lft.to/lastmile_qr_scan", "ios": "https://dc.lft.to/lastmile_qr_scan"}, "fusion_lon": 0.0, "lat": 38.8741525, "lon": -77.00073883333333, "bike_id": "1b105603ac04944ba610aa602b55e033"}, {"type": "electric_scooter", "is_reserved": 0, "is_disabled": 0, "fusion_lat": 0.0, "name": "6f26193f8eb2b802383a9f2e071d8956", "rental_uris": {"android": "https://dc.lft.to/lastmile_qr_scan", "ios": "https://dc.lft.to/lastmile_qr_scan"}, "fusion_lon": 0.0, "lat": 38.8954995, "lon": -76.933813, "bike_id": "6f26193f8eb2b802383a9f2e071d8956"}, {"type": "electric_bike", "is_reserved": 0, "is_disabled": 0, "fusion_lat": 0.0, "name": "aec8e37c613622fae01e35dff0df0927", "rental_uris": {"android": "https://dc.lft.to/lastmile_qr_scan", "ios": "https://dc.lft.to/lastmile_qr_scan"}, "fusion_lon": 0.0, "lat": 38.8807525, "lon": -77.08634066666667, "bike_id": "aec8e37c613622fae01e35dff0df0927"}, {"type": "electric_scooter", "is_reserved": 0, "is_disabled": 0, "fusion_lat": 0.0, "name": "24c3466c3f8b065e57a8e2062d01759d", "rental_uris": {"android": "https://dc.lft.to/lastmile_qr_scan", "ios": "https://dc.lft.to/lastmile_qr_scan"}, "fusion_lon": 0.0, "lat": 38.90337066666667, "lon": -77.0162215, "bike_id": "24c3466c3f8b065e57a8e2062d01759d"}, {"type": "electric_scooter", "is_reserved": 0, "is_disabled": 0, "fusion_lat": 0.0, "name": "4385e213691edd14404a75107baa2264", "rental_uris": {"android": "https://dc.lft.to/lastmile_qr_scan", "ios": "https://dc.lft.to/lastmile_qr_scan"}, "fusion_lon": 0.0, "lat": 38.89645016666667, "lon": -77.0230795, "bike_id": "4385e213691edd14404a75107baa2264"}, {"type": "electric_scooter", "is_reserved": 0, "is_disabled": 0, "fusion_lat": 0.0, "name": "54792912adf0529cb060136e8ff2906e", "rental_uris": {"android": "https://dc.lft.to/lastmile_qr_scan", "ios": "https://dc.lft.to/lastmile_qr_scan"}, "fusion_lon": 0.0, "lat": 38.92659283333333, "lon": -77.03729066666666, "bike_id": "54792912adf0529cb060136e8ff2906e"}, {"type": "electric_bike", "is_reserved": 0, "is_disabled": 0, "fusion_lat": 0.0, "name": "adfe8b5d242ace7a03a6a8b32ee798f9", "rental_uris": {"android": "https://dc.lft.to/lastmile_qr_scan", "ios": "https://dc.lft.to/lastmile_qr_scan"}, "fusion_lon": 0.0, "lat": 38.892240666666666, "lon": -77.10780416666667, "bike_id": "adfe8b5d242ace7a03a6a8b32ee798f9"}, {"type": "electric_scooter", "is_reserved": 0, "is_disabled": 0, "fusion_lat": 0.0, "name": "7f8153d239e42d3cbbc81e95aca4488c", "rental_uris": {"android": "https://dc.lft.to/lastmile_qr_scan", "ios": "https://dc.lft.to/lastmile_qr_scan"}, "fusion_lon": 0.0, "lat": 38.941851, "lon": -77.02488016666666, "bike_id": "7f8153d239e42d3cbbc81e95aca4488c"}, {"type": "electric_scooter", "is_reserved": 0, "is_disabled": 0, "fusion_lat": 0.0, "name": "6abc4464cc08025710422e8bc8b42f97", "rental_uris": {"android": "https://dc.lft.to/lastmile_qr_scan", "ios": "https://dc.lft.to/lastmile_qr_scan"}, "fusion_lon": 0.0, "lat": 38.908556833333336, "lon": -77.02852683333333, "bike_id": "6abc4464cc08025710422e8bc8b42f97"}, {"type": "electric_scooter", "is_reserved": 0, "is_disabled": 0, "fusion_lat": 0.0, "name": "c1fb0fd41e5ad5ae27afe11acf9488f7", "rental_uris": {"android": "https://dc.lft.to/lastmile_qr_scan", "ios": "https://dc.lft.to/lastmile_qr_scan"}, "fusion_lon": 0.0, "lat": 38.89218116666667, "lon": -77.02140933333334, "bike_id": "c1fb0fd41e5ad5ae27afe11acf9488f7"}, {"type": "electric_scooter", "is_reserved": 0, "is_disabled": 0, "fusion_lat": 0.0, "name": "a29b07249ef4b1c374a5c664399e9a7e", "rental_uris": {"android": "https://dc.lft.to/lastmile_qr_scan", "ios": "https://dc.lft.to/lastmile_qr_scan"}, "fusion_lon": 0.0, "lat": 38.884614166666665, "lon": -77.01516383333333, "bike_id": "a29b07249ef4b1c374a5c664399e9a7e"}, {"type": "electric_scooter", "is_reserved": 0, "is_disabled": 0, "fusion_lat": 0.0, "name": "3f8c7818b64a26e97b0ea7a31ac4a36a", "rental_uris": {"android": "https://dc.lft.to/lastmile_qr_scan", "ios": "https://dc.lft.to/lastmile_qr_scan"}, "fusion_lon": 0.0, "lat": 38.88736633333333, "lon": -77.0152955, "bike_id": "3f8c7818b64a26e97b0ea7a31ac4a36a"}, {"type": "electric_scooter", "is_reserved": 0, "is_disabled": 0, "fusion_lat": 0.0, "name": "5a6481a5d11fd155b426842f89917fa8", "rental_uris": {"android": "https://dc.lft.to/lastmile_qr_scan", "ios": "https://dc.lft.to/lastmile_qr_scan"}, "fusion_lon": 0.0, "lat": 38.90043633333333, "lon": -77.0053855, "bike_id": "5a6481a5d11fd155b426842f89917fa8"}, {"type": "electric_scooter", "is_reserved": 0, "is_disabled": 0, "fusion_lat": 0.0, "name": "7a740667095daac90a1edf2e712b3c46", "rental_uris": {"android": "https://dc.lft.to/lastmile_qr_scan", "ios": "https://dc.lft.to/lastmile_qr_scan"}, "fusion_lon": 0.0, "lat": 38.9113005, "lon": -77.0220445, "bike_id": "7a740667095daac90a1edf2e712b3c46"}, {"type": "electric_scooter", "is_reserved": 0, "is_disabled": 0, "fusion_lat": 0.0, "name": "51ff0fbb3e975baf221cf7fddabc9333", "rental_uris": {"android": "https://dc.lft.to/lastmile_qr_scan", "ios": "https://dc.lft.to/lastmile_qr_scan"}, "fusion_lon": 0.0, "lat": 38.906313833333336, "lon": -77.04339433333334, "bike_id": "51ff0fbb3e975baf221cf7fddabc9333"}, {"type": "electric_scooter", "is_reserved": 0, "is_disabled": 0, "fusion_lat": 0.0, "name": "fff0ea82134311f312dfaba82a66b4f8", "rental_uris": {"android": "https://dc.lft.to/lastmile_qr_scan", "ios": "https://dc.lft.to/lastmile_qr_scan"}, "fusion_lon": 0.0, "lat": 38.897339, "lon": -77.04892783333334, "bike_id": "fff0ea82134311f312dfaba82a66b4f8"}, {"type": "electric_scooter", "is_reserved": 0, "is_disabled": 0, "fusion_lat": 0.0, "name": "d5f9999af614d8ee65ea1ef271c400da", "rental_uris": {"android": "https://dc.lft.to/lastmile_qr_scan", "ios": "https://dc.lft.to/lastmile_qr_scan"}, "fusion_lon": 0.0, "lat": 38.91106283333333, "lon": -77.04500816666666, "bike_id": "d5f9999af614d8ee65ea1ef271c400da"}, {"type": "electric_bike", "is_reserved": 0, "is_disabled": 0, "fusion_lat": 0.0, "name": "d28e916e65494bd24fc7d282c27f7c30", "rental_uris": {"android": "https://dc.lft.to/lastmile_qr_scan", "ios": "https://dc.lft.to/lastmile_qr_scan"}, "fusion_lon": 0.0, "lat": 38.891480666666666, "lon": -77.1130945, "bike_id": "d28e916e65494bd24fc7d282c27f7c30"}, {"type": "electric_scooter", "is_reserved": 0, "is_disabled": 0, "fusion_lat": 0.0, "name": "5dd3ac960e7f844a05f425c6f998d194", "rental_uris": {"android": "https://dc.lft.to/lastmile_qr_scan", "ios": "https://dc.lft.to/lastmile_qr_scan"}, "fusion_lon": 0.0, "lat": 38.90433316666667, "lon": -77.02455016666667, "bike_id": "5dd3ac960e7f844a05f425c6f998d194"}, {"type": "electric_scooter", "is_reserved": 0, "is_disabled": 0, "fusion_lat": 0.0, "name": "f7a433e2d2895eb37dc84d074d1339c6", "rental_uris": {"android": "https://dc.lft.to/lastmile_qr_scan", "ios": "https://dc.lft.to/lastmile_qr_scan"}, "fusion_lon": 0.0, "lat": 38.9154995, "lon": -77.01234416666667, "bike_id": "f7a433e2d2895eb37dc84d074d1339c6"}, {"type": "electric_scooter", "is_reserved": 0, "is_disabled": 0, "fusion_lat": 0.0, "name": "b85bf912bc2491ce0b54be53e98032fe", "rental_uris": {"android": "https://dc.lft.to/lastmile_qr_scan", "ios": "https://dc.lft.to/lastmile_qr_scan"}, "fusion_lon": 0.0, "lat": 38.929619333333335, "lon": -77.027955, "bike_id": "b85bf912bc2491ce0b54be53e98032fe"}, {"type": "electric_scooter", "is_reserved": 0, "is_disabled": 0, "fusion_lat": 0.0, "name": "e75f78ba29b9ca7340d0609e4ebf15e9", "rental_uris": {"android": "https://dc.lft.to/lastmile_qr_scan", "ios": "https://dc.lft.to/lastmile_qr_scan"}, "fusion_lon": 0.0, "lat": 38.8899675, "lon": -77.0034795, "bike_id": "e75f78ba29b9ca7340d0609e4ebf15e9"}, {"type": "electric_bike", "is_reserved": 0, "is_disabled": 0, "fusion_lat": 0.0, "name": "693191b57330c13fa88ec96818824d72", "rental_uris": {"android": "https://dc.lft.to/lastmile_qr_scan", "ios": "https://dc.lft.to/lastmile_qr_scan"}, "fusion_lon": 0.0, "lat": 38.965728166666665, "lon": -76.95476766666667, "bike_id": "693191b57330c13fa88ec96818824d72"}, {"type": "electric_bike", "is_reserved": 0, "is_disabled": 0, "fusion_lat": 0.0, "name": "f336e9630f48c7345c899c914a72139e", "rental_uris": {"android": "https://dc.lft.to/lastmile_qr_scan", "ios": "https://dc.lft.to/lastmile_qr_scan"}, "fusion_lon": 0.0, "lat": 38.939617166666665, "lon": -77.36091633333334, "bike_id": "f336e9630f48c7345c899c914a72139e"}, {"type": "electric_scooter", "is_reserved": 0, "is_disabled": 0, "fusion_lat": 0.0, "name": "01cac95a48d79ba4ed3a81e87660dc74", "rental_uris": {"android": "https://dc.lft.to/lastmile_qr_scan", "ios": "https://dc.lft.to/lastmile_qr_scan"}, "fusion_lon": 0.0, "lat": 38.9232835, "lon": -77.05469266666667, "bike_id": "01cac95a48d79ba4ed3a81e87660dc74"}, {"type": "electric_scooter", "is_reserved": 0, "is_disabled": 0, "fusion_lat": 0.0, "name": "d8f29c643c17d4d60f298cc9a9c0ce79", "rental_uris": {"android": "https://dc.lft.to/lastmile_qr_scan", "ios": "https://dc.lft.to/lastmile_qr_scan"}, "fusion_lon": 0.0, "lat": 38.90145, "lon": -77.04891966666666, "bike_id": "d8f29c643c17d4d60f298cc9a9c0ce79"}, {"type": "electric_scooter", "is_reserved": 0, "is_disabled": 0, "fusion_lat": 0.0, "name": "702617a96daccb311368c991f7ecbc6c", "rental_uris": {"android": "https://dc.lft.to/lastmile_qr_scan", "ios": "https://dc.lft.to/lastmile_qr_scan"}, "fusion_lon": 0.0, "lat": 38.895576, "lon": -76.93079316666666, "bike_id": "702617a96daccb311368c991f7ecbc6c"}, {"type": "electric_scooter", "is_reserved": 0, "is_disabled": 0, "fusion_lat": 0.0, "name": "fe4038c635b00d6f4a31d9cb76856186", "rental_uris": {"android": "https://dc.lft.to/lastmile_qr_scan", "ios": "https://dc.lft.to/lastmile_qr_scan"}, "fusion_lon": 0.0, "lat": 38.919671666666666, "lon": -77.03956483333333, "bike_id": "fe4038c635b00d6f4a31d9cb76856186"}, {"type": "electric_scooter", "is_reserved": 0, "is_disabled": 0, "fusion_lat": 0.0, "name": "59f57ff6c78a6ca4253db59f66a7ed8d", "rental_uris": {"android": "https://dc.lft.to/lastmile_qr_scan", "ios": "https://dc.lft.to/lastmile_qr_scan"}, "fusion_lon": 0.0, "lat": 38.908486, "lon": -77.04023766666667, "bike_id": "59f57ff6c78a6ca4253db59f66a7ed8d"}, {"type": "electric_scooter", "is_reserved": 0, "is_disabled": 0, "fusion_lat": 0.0, "name": "507ea9e1c6779985c14d6f11b5d8c38b", "rental_uris": {"android": "https://dc.lft.to/lastmile_qr_scan", "ios": "https://dc.lft.to/lastmile_qr_scan"}, "fusion_lon": 0.0, "lat": 38.87497166666667, "lon": -77.017409, "bike_id": "507ea9e1c6779985c14d6f11b5d8c38b"}, {"type": "electric_scooter", "is_reserved": 0, "is_disabled": 0, "fusion_lat": 0.0, "name": "d40aad786e741ce36de30094c8590fdb", "rental_uris": {"android": "https://dc.lft.to/lastmile_qr_scan", "ios": "https://dc.lft.to/lastmile_qr_scan"}, "fusion_lon": 0.0, "lat": 38.895559166666665, "lon": -77.04682166666667, "bike_id": "d40aad786e741ce36de30094c8590fdb"}, {"type": "electric_scooter", "is_reserved": 0, "is_disabled": 0, "fusion_lat": 0.0, "name": "287ac305d19524b85167d1d71ae24e55", "rental_uris": {"android": "https://dc.lft.to/lastmile_qr_scan", "ios": "https://dc.lft.to/lastmile_qr_scan"}, "fusion_lon": 0.0, "lat": 38.87235033333333, "lon": -77.01205516666667, "bike_id": "287ac305d19524b85167d1d71ae24e55"}, {"type": "electric_scooter", "is_reserved": 0, "is_disabled": 0, "fusion_lat": 0.0, "name": "b2d8efcc3364cc97401a1d60657f8cda", "rental_uris": {"android": "https://dc.lft.to/lastmile_qr_scan", "ios": "https://dc.lft.to/lastmile_qr_scan"}, "fusion_lon": 0.0, "lat": 38.88741133333333, "lon": -77.02074633333334, "bike_id": "b2d8efcc3364cc97401a1d60657f8cda"}, {"type": "electric_scooter", "is_reserved": 0, "is_disabled": 0, "fusion_lat": 0.0, "name": "4abf2da0458d71ae4b010743590d1c2a", "rental_uris": {"android": "https://dc.lft.to/lastmile_qr_scan", "ios": "https://dc.lft.to/lastmile_qr_scan"}, "fusion_lon": 0.0, "lat": 38.90381216666667, "lon": -77.04679466666667, "bike_id": "4abf2da0458d71ae4b010743590d1c2a"}, {"type": "electric_scooter", "is_reserved": 0, "is_disabled": 0, "fusion_lat": 0.0, "name": "bb24afa5c20a12cb284fa78782010701", "rental_uris": {"android": "https://dc.lft.to/lastmile_qr_scan", "ios": "https://dc.lft.to/lastmile_qr_scan"}, "fusion_lon": 0.0, "lat": 38.9169675, "lon": -77.03624283333333, "bike_id": "bb24afa5c20a12cb284fa78782010701"}, {"type": "electric_scooter", "is_reserved": 0, "is_disabled": 0, "fusion_lat": 0.0, "name": "dedf8f0e699987e15389957631142a2b", "rental_uris": {"android": "https://dc.lft.to/lastmile_qr_scan", "ios": "https://dc.lft.to/lastmile_qr_scan"}, "fusion_lon": 0.0, "lat": 38.9190705, "lon": -77.0410955, "bike_id": "dedf8f0e699987e15389957631142a2b"}, {"type": "electric_bike", "is_reserved": 0, "is_disabled": 0, "fusion_lat": 0.0, "name": "13ff1ba25619f021b9771e7e69012d60", "rental_uris": {"android": "https://dc.lft.to/lastmile_qr_scan", "ios": "https://dc.lft.to/lastmile_qr_scan"}, "fusion_lon": 0.0, "lat": 38.90683466666667, "lon": -77.06783166666666, "bike_id": "13ff1ba25619f021b9771e7e69012d60"}, {"type": "electric_scooter", "is_reserved": 0, "is_disabled": 0, "fusion_lat": 0.0, "name": "5a1747ffc3a11299b6bab8c96dad53b8", "rental_uris": {"android": "https://dc.lft.to/lastmile_qr_scan", "ios": "https://dc.lft.to/lastmile_qr_scan"}, "fusion_lon": 0.0, "lat": 38.907250166666664, "lon": -77.03987316666667, "bike_id": "5a1747ffc3a11299b6bab8c96dad53b8"}, {"type": "electric_scooter", "is_reserved": 0, "is_disabled": 0, "fusion_lat": 0.0, "name": "35aa8e4b2f20d726358cd76dd680572c", "rental_uris": {"android": "https://dc.lft.to/lastmile_qr_scan", "ios": "https://dc.lft.to/lastmile_qr_scan"}, "fusion_lon": 0.0, "lat": 38.85316133333333, "lon": -76.980031, "bike_id": "35aa8e4b2f20d726358cd76dd680572c"}, {"type": "electric_scooter", "is_reserved": 0, "is_disabled": 0, "fusion_lat": 0.0, "name": "3c592435ba0b3752eb6ea43853ed3526", "rental_uris": {"android": "https://dc.lft.to/lastmile_qr_scan", "ios": "https://dc.lft.to/lastmile_qr_scan"}, "fusion_lon": 0.0, "lat": 38.91637033333333, "lon": -77.03167716666667, "bike_id": "3c592435ba0b3752eb6ea43853ed3526"}, {"type": "electric_scooter", "is_reserved": 0, "is_disabled": 0, "fusion_lat": 0.0, "name": "f79219946e781ca8b3f13f6ede5d19d4", "rental_uris": {"android": "https://dc.lft.to/lastmile_qr_scan", "ios": "https://dc.lft.to/lastmile_qr_scan"}, "fusion_lon": 0.0, "lat": 38.9311015, "lon": -77.02400916666667, "bike_id": "f79219946e781ca8b3f13f6ede5d19d4"}, {"type": "electric_scooter", "is_reserved": 0, "is_disabled": 0, "fusion_lat": 0.0, "name": "d13431de86f402bae2ce2a1f9008df5a", "rental_uris": {"android": "https://dc.lft.to/lastmile_qr_scan", "ios": "https://dc.lft.to/lastmile_qr_scan"}, "fusion_lon": 0.0, "lat": 38.893575, "lon": -77.00338466666666, "bike_id": "d13431de86f402bae2ce2a1f9008df5a"}, {"type": "electric_scooter", "is_reserved": 0, "is_disabled": 0, "fusion_lat": 0.0, "name": "ef4a2f78ac4d5b8264aaa6851ab233f3", "rental_uris": {"android": "https://dc.lft.to/lastmile_qr_scan", "ios": "https://dc.lft.to/lastmile_qr_scan"}, "fusion_lon": 0.0, "lat": 38.89619483333333, "lon": -76.95641433333333, "bike_id": "ef4a2f78ac4d5b8264aaa6851ab233f3"}, {"type": "electric_scooter", "is_reserved": 0, "is_disabled": 0, "fusion_lat": 0.0, "name": "cd4646ec52a0300361143b262a388ed0", "rental_uris": {"android": "https://dc.lft.to/lastmile_qr_scan", "ios": "https://dc.lft.to/lastmile_qr_scan"}, "fusion_lon": 0.0, "lat": 38.90325516666667, "lon": -76.972983, "bike_id": "cd4646ec52a0300361143b262a388ed0"}, {"type": "electric_bike", "is_reserved": 0, "is_disabled": 0, "fusion_lat": 0.0, "name": "ba3d02f12e84e7d2a926963eb7b636ab", "rental_uris": {"android": "https://dc.lft.to/lastmile_qr_scan", "ios": "https://dc.lft.to/lastmile_qr_scan"}, "fusion_lon": 0.0, "lat": 38.943158333333336, "lon": -77.06748566666667, "bike_id": "ba3d02f12e84e7d2a926963eb7b636ab"}, {"type": "electric_scooter", "is_reserved": 0, "is_disabled": 0, "fusion_lat": 0.0, "name": "e7256c4da3597ac8952559553f0dc5ea", "rental_uris": {"android": "https://dc.lft.to/lastmile_qr_scan", "ios": "https://dc.lft.to/lastmile_qr_scan"}, "fusion_lon": 0.0, "lat": 38.896948333333334, "lon": -77.004954, "bike_id": "e7256c4da3597ac8952559553f0dc5ea"}, {"type": "electric_scooter", "is_reserved": 0, "is_disabled": 0, "fusion_lat": 0.0, "name": "9f3cdfa0e0579dbcc68268bd426944d3", "rental_uris": {"android": "https://dc.lft.to/lastmile_qr_scan", "ios": "https://dc.lft.to/lastmile_qr_scan"}, "fusion_lon": 0.0, "lat": 38.935937833333334, "lon": -77.03519466666667, "bike_id": "9f3cdfa0e0579dbcc68268bd426944d3"}, {"type": "electric_scooter", "is_reserved": 0, "is_disabled": 0, "fusion_lat": 0.0, "name": "e39bfc1636ec2299a1c089d782c62208", "rental_uris": {"android": "https://dc.lft.to/lastmile_qr_scan", "ios": "https://dc.lft.to/lastmile_qr_scan"}, "fusion_lon": 0.0, "lat": 38.92262266666667, "lon": -77.04130016666667, "bike_id": "e39bfc1636ec2299a1c089d782c62208"}, {"type": "electric_scooter", "is_reserved": 0, "is_disabled": 0, "fusion_lat": 0.0, "name": "7d6b54fce8a0a1e06ae72e2be0adf1e6", "rental_uris": {"android": "https://dc.lft.to/lastmile_qr_scan", "ios": "https://dc.lft.to/lastmile_qr_scan"}, "fusion_lon": 0.0, "lat": 38.9133965, "lon": -77.032036, "bike_id": "7d6b54fce8a0a1e06ae72e2be0adf1e6"}, {"type": "electric_scooter", "is_reserved": 0, "is_disabled": 0, "fusion_lat": 0.0, "name": "b0e89a1900084de059b847ea82370ed6", "rental_uris": {"android": "https://dc.lft.to/lastmile_qr_scan", "ios": "https://dc.lft.to/lastmile_qr_scan"}, "fusion_lon": 0.0, "lat": 38.8960745, "lon": -77.04239066666666, "bike_id": "b0e89a1900084de059b847ea82370ed6"}, {"type": "electric_scooter", "is_reserved": 0, "is_disabled": 0, "fusion_lat": 0.0, "name": "9dc1d1ffed5452e211501251f6544cc5", "rental_uris": {"android": "https://dc.lft.to/lastmile_qr_scan", "ios": "https://dc.lft.to/lastmile_qr_scan"}, "fusion_lon": 0.0, "lat": 38.92448, "lon": -77.04119516666667, "bike_id": "9dc1d1ffed5452e211501251f6544cc5"}, {"type": "electric_scooter", "is_reserved": 0, "is_disabled": 0, "fusion_lat": 0.0, "name": "2c53b71b57df989e97506cd29097f92e", "rental_uris": {"android": "https://dc.lft.to/lastmile_qr_scan", "ios": "https://dc.lft.to/lastmile_qr_scan"}, "fusion_lon": 0.0, "lat": 38.91690933333334, "lon": -77.02902033333334, "bike_id": "2c53b71b57df989e97506cd29097f92e"}, {"type": "electric_scooter", "is_reserved": 0, "is_disabled": 0, "fusion_lat": 0.0, "name": "3cbc0af79d05f406914f874961c00374", "rental_uris": {"android": "https://dc.lft.to/lastmile_qr_scan", "ios": "https://dc.lft.to/lastmile_qr_scan"}, "fusion_lon": 0.0, "lat": 38.92151033333333, "lon": -76.96924933333334, "bike_id": "3cbc0af79d05f406914f874961c00374"}, {"type": "electric_scooter", "is_reserved": 0, "is_disabled": 0, "fusion_lat": 0.0, "name": "b02f0ac2bef088efdc8cc60c26ffe90f", "rental_uris": {"android": "https://dc.lft.to/lastmile_qr_scan", "ios": "https://dc.lft.to/lastmile_qr_scan"}, "fusion_lon": 0.0, "lat": 38.887656166666666, "lon": -76.95597516666666, "bike_id": "b02f0ac2bef088efdc8cc60c26ffe90f"}, {"type": "electric_scooter", "is_reserved": 0, "is_disabled": 0, "fusion_lat": 0.0, "name": "27a6e34aeaf63e10a350e14287041512", "rental_uris": {"android": "https://dc.lft.to/lastmile_qr_scan", "ios": "https://dc.lft.to/lastmile_qr_scan"}, "fusion_lon": 0.0, "lat": 38.921144, "lon": -77.04207433333333, "bike_id": "27a6e34aeaf63e10a350e14287041512"}, {"type": "electric_scooter", "is_reserved": 0, "is_disabled": 0, "fusion_lat": 0.0, "name": "57025b5af74eaf26e3750b3dc28b7b8b", "rental_uris": {"android": "https://dc.lft.to/lastmile_qr_scan", "ios": "https://dc.lft.to/lastmile_qr_scan"}, "fusion_lon": 0.0, "lat": 38.91120983333333, "lon": -77.043587, "bike_id": "57025b5af74eaf26e3750b3dc28b7b8b"}, {"type": "electric_scooter", "is_reserved": 0, "is_disabled": 0, "fusion_lat": 0.0, "name": "991a903d8fa860bdf2a11ae7e09eefbf", "rental_uris": {"android": "https://dc.lft.to/lastmile_qr_scan", "ios": "https://dc.lft.to/lastmile_qr_scan"}, "fusion_lon": 0.0, "lat": 38.918097333333336, "lon": -77.044465, "bike_id": "991a903d8fa860bdf2a11ae7e09eefbf"}, {"type": "electric_scooter", "is_reserved": 0, "is_disabled": 0, "fusion_lat": 0.0, "name": "15a1c8004dac867087b2b8ec4c633bfd", "rental_uris": {"android": "https://dc.lft.to/lastmile_qr_scan", "ios": "https://dc.lft.to/lastmile_qr_scan"}, "fusion_lon": 0.0, "lat": 38.909225666666664, "lon": -77.03205066666666, "bike_id": "15a1c8004dac867087b2b8ec4c633bfd"}, {"type": "electric_scooter", "is_reserved": 0, "is_disabled": 0, "fusion_lat": 0.0, "name": "b9797ae1db4baf90c3fbc0844373fdda", "rental_uris": {"android": "https://dc.lft.to/lastmile_qr_scan", "ios": "https://dc.lft.to/lastmile_qr_scan"}, "fusion_lon": 0.0, "lat": 38.911963166666666, "lon": -77.06103783333333, "bike_id": "b9797ae1db4baf90c3fbc0844373fdda"}, {"type": "electric_bike", "is_reserved": 0, "is_disabled": 0, "fusion_lat": 0.0, "name": "4893d812936db3957e344c2da176d3a1", "rental_uris": {"android": "https://dc.lft.to/lastmile_qr_scan", "ios": "https://dc.lft.to/lastmile_qr_scan"}, "fusion_lon": 0.0, "lat": 38.86165, "lon": -76.95065816666667, "bike_id": "4893d812936db3957e344c2da176d3a1"}, {"type": "electric_scooter", "is_reserved": 0, "is_disabled": 0, "fusion_lat": 0.0, "name": "1ce9d9705b506a1fe6a088c80853cc72", "rental_uris": {"android": "https://dc.lft.to/lastmile_qr_scan", "ios": "https://dc.lft.to/lastmile_qr_scan"}, "fusion_lon": 0.0, "lat": 38.91708966666667, "lon": -77.03123116666667, "bike_id": "1ce9d9705b506a1fe6a088c80853cc72"}, {"type": "electric_scooter", "is_reserved": 0, "is_disabled": 0, "fusion_lat": 0.0, "name": "de168b880bb7159ac32266a34382bb66", "rental_uris": {"android": "https://dc.lft.to/lastmile_qr_scan", "ios": "https://dc.lft.to/lastmile_qr_scan"}, "fusion_lon": 0.0, "lat": 38.923262666666666, "lon": -77.056756, "bike_id": "de168b880bb7159ac32266a34382bb66"}, {"type": "electric_scooter", "is_reserved": 0, "is_disabled": 0, "fusion_lat": 0.0, "name": "a35c6d6a79e2a234050425b7eaf1fd6d", "rental_uris": {"android": "https://dc.lft.to/lastmile_qr_scan", "ios": "https://dc.lft.to/lastmile_qr_scan"}, "fusion_lon": 0.0, "lat": 38.92850033333333, "lon": -77.05429466666666, "bike_id": "a35c6d6a79e2a234050425b7eaf1fd6d"}, {"type": "electric_scooter", "is_reserved": 0, "is_disabled": 0, "fusion_lat": 0.0, "name": "3e4ba345b51f3df7c4f7e02c2d89ec63", "rental_uris": {"android": "https://dc.lft.to/lastmile_qr_scan", "ios": "https://dc.lft.to/lastmile_qr_scan"}, "fusion_lon": 0.0, "lat": 38.892208833333335, "lon": -77.0485985, "bike_id": "3e4ba345b51f3df7c4f7e02c2d89ec63"}, {"type": "electric_scooter", "is_reserved": 0, "is_disabled": 0, "fusion_lat": 0.0, "name": "04ffc041743a87402450628dd1761c79", "rental_uris": {"android": "https://dc.lft.to/lastmile_qr_scan", "ios": "https://dc.lft.to/lastmile_qr_scan"}, "fusion_lon": 0.0, "lat": 38.89197016666667, "lon": -77.02453816666667, "bike_id": "04ffc041743a87402450628dd1761c79"}, {"type": "electric_scooter", "is_reserved": 0, "is_disabled": 0, "fusion_lat": 0.0, "name": "fe3d8e91ee3aed43b8ea72d5add0a5f2", "rental_uris": {"android": "https://dc.lft.to/lastmile_qr_scan", "ios": "https://dc.lft.to/lastmile_qr_scan"}, "fusion_lon": 0.0, "lat": 38.92283333333334, "lon": -77.03656616666666, "bike_id": "fe3d8e91ee3aed43b8ea72d5add0a5f2"}, {"type": "electric_scooter", "is_reserved": 0, "is_disabled": 0, "fusion_lat": 0.0, "name": "3c5eba1f0921d2eedfb986d0b7738f3b", "rental_uris": {"android": "https://dc.lft.to/lastmile_qr_scan", "ios": "https://dc.lft.to/lastmile_qr_scan"}, "fusion_lon": 0.0, "lat": 38.89616433333333, "lon": -77.02796066666667, "bike_id": "3c5eba1f0921d2eedfb986d0b7738f3b"}, {"type": "electric_scooter", "is_reserved": 0, "is_disabled": 0, "fusion_lat": 0.0, "name": "d3bef1e96c920d51708d6fa56389b68e", "rental_uris": {"android": "https://dc.lft.to/lastmile_qr_scan", "ios": "https://dc.lft.to/lastmile_qr_scan"}, "fusion_lon": 0.0, "lat": 38.92871233333334, "lon": -77.02814316666667, "bike_id": "d3bef1e96c920d51708d6fa56389b68e"}, {"type": "electric_scooter", "is_reserved": 0, "is_disabled": 0, "fusion_lat": 0.0, "name": "e2ec2dee80d4f43bd8d9478b3bd5dc10", "rental_uris": {"android": "https://dc.lft.to/lastmile_qr_scan", "ios": "https://dc.lft.to/lastmile_qr_scan"}, "fusion_lon": 0.0, "lat": 38.92453033333334, "lon": -77.032764, "bike_id": "e2ec2dee80d4f43bd8d9478b3bd5dc10"}, {"type": "electric_scooter", "is_reserved": 0, "is_disabled": 0, "fusion_lat": 0.0, "name": "a70fea94330a2b2d56623d4e4d750f67", "rental_uris": {"android": "https://dc.lft.to/lastmile_qr_scan", "ios": "https://dc.lft.to/lastmile_qr_scan"}, "fusion_lon": 0.0, "lat": 38.88731583333333, "lon": -77.01386733333334, "bike_id": "a70fea94330a2b2d56623d4e4d750f67"}, {"type": "electric_scooter", "is_reserved": 0, "is_disabled": 0, "fusion_lat": 0.0, "name": "47cfb24993c34c1c37dc114547c79069", "rental_uris": {"android": "https://dc.lft.to/lastmile_qr_scan", "ios": "https://dc.lft.to/lastmile_qr_scan"}, "fusion_lon": 0.0, "lat": 38.916993, "lon": -77.03268933333334, "bike_id": "47cfb24993c34c1c37dc114547c79069"}, {"type": "electric_scooter", "is_reserved": 0, "is_disabled": 0, "fusion_lat": 0.0, "name": "790d25c9b166029343b157a2e9170fc3", "rental_uris": {"android": "https://dc.lft.to/lastmile_qr_scan", "ios": "https://dc.lft.to/lastmile_qr_scan"}, "fusion_lon": 0.0, "lat": 38.94168366666667, "lon": -77.025379, "bike_id": "790d25c9b166029343b157a2e9170fc3"}, {"type": "electric_scooter", "is_reserved": 0, "is_disabled": 0, "fusion_lat": 0.0, "name": "dcab33002bfd950b3d28658528d0e44c", "rental_uris": {"android": "https://dc.lft.to/lastmile_qr_scan", "ios": "https://dc.lft.to/lastmile_qr_scan"}, "fusion_lon": 0.0, "lat": 38.94171566666667, "lon": -77.023387, "bike_id": "dcab33002bfd950b3d28658528d0e44c"}, {"type": "electric_scooter", "is_reserved": 0, "is_disabled": 0, "fusion_lat": 0.0, "name": "3a3795abb85eb06324ba609bdc267bf0", "rental_uris": {"android": "https://dc.lft.to/lastmile_qr_scan", "ios": "https://dc.lft.to/lastmile_qr_scan"}, "fusion_lon": 0.0, "lat": 38.86281533333333, "lon": -76.99239316666667, "bike_id": "3a3795abb85eb06324ba609bdc267bf0"}, {"type": "electric_scooter", "is_reserved": 0, "is_disabled": 0, "fusion_lat": 0.0, "name": "57adefc501394eefd15ffbedb40410fd", "rental_uris": {"android": "https://dc.lft.to/lastmile_qr_scan", "ios": "https://dc.lft.to/lastmile_qr_scan"}, "fusion_lon": 0.0, "lat": 38.923794, "lon": -77.02556333333334, "bike_id": "57adefc501394eefd15ffbedb40410fd"}, {"type": "electric_scooter", "is_reserved": 0, "is_disabled": 0, "fusion_lat": 0.0, "name": "4188399f2704d1a1ea18819f810cd426", "rental_uris": {"android": "https://dc.lft.to/lastmile_qr_scan", "ios": "https://dc.lft.to/lastmile_qr_scan"}, "fusion_lon": 0.0, "lat": 38.8974815, "lon": -77.02149116666666, "bike_id": "4188399f2704d1a1ea18819f810cd426"}, {"type": "electric_scooter", "is_reserved": 0, "is_disabled": 0, "fusion_lat": 0.0, "name": "84956b58ff65b6086328d1333e88bfb9", "rental_uris": {"android": "https://dc.lft.to/lastmile_qr_scan", "ios": "https://dc.lft.to/lastmile_qr_scan"}, "fusion_lon": 0.0, "lat": 38.931011166666664, "lon": -76.96724616666667, "bike_id": "84956b58ff65b6086328d1333e88bfb9"}, {"type": "electric_scooter", "is_reserved": 0, "is_disabled": 0, "fusion_lat": 0.0, "name": "1bcabaf057f97b2f48e49b9f0973e278", "rental_uris": {"android": "https://dc.lft.to/lastmile_qr_scan", "ios": "https://dc.lft.to/lastmile_qr_scan"}, "fusion_lon": 0.0, "lat": 38.91898616666667, "lon": -77.04155533333333, "bike_id": "1bcabaf057f97b2f48e49b9f0973e278"}, {"type": "electric_scooter", "is_reserved": 0, "is_disabled": 0, "fusion_lat": 0.0, "name": "31f0f97dceb5546267c2fd703dbcdd0f", "rental_uris": {"android": "https://dc.lft.to/lastmile_qr_scan", "ios": "https://dc.lft.to/lastmile_qr_scan"}, "fusion_lon": 0.0, "lat": 38.90503566666667, "lon": -77.06289466666666, "bike_id": "31f0f97dceb5546267c2fd703dbcdd0f"}, {"type": "electric_scooter", "is_reserved": 0, "is_disabled": 0, "fusion_lat": 0.0, "name": "5ce4daf0aa012172131a998a08f75f34", "rental_uris": {"android": "https://dc.lft.to/lastmile_qr_scan", "ios": "https://dc.lft.to/lastmile_qr_scan"}, "fusion_lon": 0.0, "lat": 38.9127065, "lon": -77.02224766666667, "bike_id": "5ce4daf0aa012172131a998a08f75f34"}, {"type": "electric_scooter", "is_reserved": 0, "is_disabled": 0, "fusion_lat": 0.0, "name": "966ea5be442e2542dbe5fc065f9419a2", "rental_uris": {"android": "https://dc.lft.to/lastmile_qr_scan", "ios": "https://dc.lft.to/lastmile_qr_scan"}, "fusion_lon": 0.0, "lat": 38.87477766666667, "lon": -77.00929516666666, "bike_id": "966ea5be442e2542dbe5fc065f9419a2"}, {"type": "electric_scooter", "is_reserved": 0, "is_disabled": 0, "fusion_lat": 0.0, "name": "969c01f3260180d5ab708907d6083959", "rental_uris": {"android": "https://dc.lft.to/lastmile_qr_scan", "ios": "https://dc.lft.to/lastmile_qr_scan"}, "fusion_lon": 0.0, "lat": 38.92048916666667, "lon": -77.0418675, "bike_id": "969c01f3260180d5ab708907d6083959"}, {"type": "electric_scooter", "is_reserved": 0, "is_disabled": 0, "fusion_lat": 0.0, "name": "1b5472055eebd268eeb6635b2be8ce01", "rental_uris": {"android": "https://dc.lft.to/lastmile_qr_scan", "ios": "https://dc.lft.to/lastmile_qr_scan"}, "fusion_lon": 0.0, "lat": 38.936359833333334, "lon": -77.0587595, "bike_id": "1b5472055eebd268eeb6635b2be8ce01"}, {"type": "electric_scooter", "is_reserved": 0, "is_disabled": 0, "fusion_lat": 0.0, "name": "f7af8252fcb2a0b4f614fc34dd4bb434", "rental_uris": {"android": "https://dc.lft.to/lastmile_qr_scan", "ios": "https://dc.lft.to/lastmile_qr_scan"}, "fusion_lon": 0.0, "lat": 38.906991833333336, "lon": -77.02182966666666, "bike_id": "f7af8252fcb2a0b4f614fc34dd4bb434"}, {"type": "electric_scooter", "is_reserved": 0, "is_disabled": 0, "fusion_lat": 0.0, "name": "56695e39048a2d67a0d6b41ef885b9b5", "rental_uris": {"android": "https://dc.lft.to/lastmile_qr_scan", "ios": "https://dc.lft.to/lastmile_qr_scan"}, "fusion_lon": 0.0, "lat": 38.899058333333336, "lon": -76.93351916666667, "bike_id": "56695e39048a2d67a0d6b41ef885b9b5"}, {"type": "electric_scooter", "is_reserved": 0, "is_disabled": 0, "fusion_lat": 0.0, "name": "89d5ac45cf86d1b032d3fa2bda834f48", "rental_uris": {"android": "https://dc.lft.to/lastmile_qr_scan", "ios": "https://dc.lft.to/lastmile_qr_scan"}, "fusion_lon": 0.0, "lat": 38.90502716666667, "lon": -77.04336783333333, "bike_id": "89d5ac45cf86d1b032d3fa2bda834f48"},