{"data": {"bikes": [{"type": "electric_scooter", "fusion_lon": 0.0, "bike_id": "6bc7280d595efc7423e71455832de129", "is_disabled": 0, "lat": 38.972261333333336, "rental_uris": {"ios": "https://dc.lft.to/lastmile_qr_scan", "android": "https://dc.lft.to/lastmile_qr_scan"}, "is_reserved": 0, "lon": -77.0272115, "fusion_lat": 0.0, "name": "6bc7280d595efc7423e71455832de129"}, {"type": "electric_scooter", "fusion_lon": 0.0, "bike_id": "cff46f31b6821965b84145f07474d99b", "is_disabled": 0, "lat": 38.892205833333335, "rental_uris": {"ios": "https://dc.lft.to/lastmile_qr_scan", "android": "https://dc.lft.to/lastmile_qr_scan"}, "is_reserved": 0, "lon": -77.03340483333334, "fusion_lat": 0.0, "name": "cff46f31b6821965b84145f07474d99b"}, {"type": "electric_scooter", "fusion_lon": 0.0, "bike_id": "a565737614aea1d12efdf1aa47e55d25", "is_disabled": 0, "lat": 38.911162166666664, "rental_uris": {"ios": "https://dc.lft.to/lastmile_qr_scan", "android": "https://dc.lft.to/lastmile_qr_scan"}, "is_reserved": 0, "lon": -77.02143633333333, "fusion_lat": 0.0, "name": "a565737614aea1d12efdf1aa47e55d25"}, {"type": "electric_scooter", "fusion_lon": 0.0, "bike_id": "d06fb435d715e51258601301a83e057f", "is_disabled": 0, "lat": 38.91740866666667, "rental_uris": {"ios": "https://dc.lft.to/lastmile_qr_scan", "android": "https://dc.lft.to/lastmile_qr_scan"}, "is_reserved": 0, "lon": -77.022783, "fusion_lat": 0.0, "name": "d06fb435d715e51258601301a83e057f"}, {"type": "electric_scooter", "fusion_lon": 0.0, "bike_id": "6570c3ac21bf50ace9b30c43387b1314", "is_disabled": 0, "lat": 38.89186816666667, "rental_uris": {"ios": "https://dc.lft.to/lastmile_qr_scan", "android": "https://dc.lft.to/lastmile_qr_scan"}, "is_reserved": 0, "lon": -76.95277616666667, "fusion_lat": 0.0, "name": "6570c3ac21bf50ace9b30c43387b1314"}, {"type": "electric_scooter", "fusion_lon": 0.0, "bike_id": "4c75447dfaf3cc3925240583656d608c", "is_disabled": 0, "lat": 38.8934815, "rental_uris": {"ios": "https://dc.lft.to/lastmile_qr_scan", "android": "https://dc.lft.to/lastmile_qr_scan"}, "is_reserved": 0, "lon": -76.93428116666666, "fusion_lat": 0.0, "name": "4c75447dfaf3cc3925240583656d608c"}, {"type": "electric_scooter", "fusion_lon": 0.0, "bike_id": "715c72e03d8ddf1ada6add801933785a", "is_disabled": 0, "lat": 38.905674166666664, "rental_uris": {"ios": "https://dc.lft.to/lastmile_qr_scan", "android": "https://dc.lft.to/lastmile_qr_scan"}, "is_reserved": 0, "lon": -77.00714716666667, "fusion_lat": 0.0, "name": "715c72e03d8ddf1ada6add801933785a"}, {"type": "electric_bike", "fusion_lon": 0.0, "bike_id": "29f0657712fff0cfb61a36f2f0723b9a", "is_disabled": 0, "lat": 38.953279, "rental_uris": {"ios": "https://dc.lft.to/lastmile_qr_scan", "android": "https://dc.lft.to/lastmile_qr_scan"}, "is_reserved": 0, "lon": -76.98254416666667, "fusion_lat": 0.0, "name": "29f0657712fff0cfb61a36f2f0723b9a"}, {"type": "electric_scooter", "fusion_lon": 0.0, "bike_id": "63ecf5f1662e782df9b452d8ed1d90ef", "is_disabled": 0, "lat": 38.930542833333334, "rental_uris": {"ios": "https://dc.lft.to/lastmile_qr_scan", "android": "https://dc.lft.to/lastmile_qr_scan"}, "is_reserved": 0, "lon": -77.02483066666667, "fusion_lat": 0.0, "name": "63ecf5f1662e782df9b452d8ed1d90ef"}, {"type": "electric_bike", "fusion_lon": 0.0, "bike_id": "4d626859c925fe068bd16a0a08eb7d26", "is_disabled": 0, "lat": 38.95073433333334, "rental_uris": {"ios": "https://dc.lft.to/lastmile_qr_scan", "android": "https://dc.lft.to/lastmile_qr_scan"}, "is_reserved": 0, "lon": -77.012224, "fusion_lat": 0.0, "name": "4d626859c925fe068bd16a0a08eb7d26"}, {"type": "electric_scooter", "fusion_lon": 0.0, "bike_id": "97bcd77f62d484007339566a85c16bd8", "is_disabled": 0, "lat": 38.905938666666664, "rental_uris": {"ios": "https://dc.lft.to/lastmile_qr_scan", "android": "https://dc.lft.to/lastmile_qr_scan"}, "is_reserved": 0, "lon": -77.06560166666667, "fusion_lat": 0.0, "name": "97bcd77f62d484007339566a85c16bd8"}, {"type": "electric_scooter", "fusion_lon": 0.0, "bike_id": "447852301ba0c1cb1e6da750801994ba", "is_disabled": 0, "lat": 38.89223533333333, "rental_uris": {"ios": "https://dc.lft.to/lastmile_qr_scan", "android": "https://dc.lft.to/lastmile_qr_scan"}, "is_reserved": 0, "lon": -77.0468825, "fusion_lat": 0.0, "name": "447852301ba0c1cb1e6da750801994ba"}, {"type": "electric_bike", "fusion_lon": 0.0, "bike_id": "960f7fb25e6c03fba05b67178e7ab62d", "is_disabled": 0, "lat": 38.83837416666667, "rental_uris": {"ios": "https://dc.lft.to/lastmile_qr_scan", "android": "https://dc.lft.to/lastmile_qr_scan"}, "is_reserved": 0, "lon": -76.99662216666667, "fusion_lat": 0.0, "name": "960f7fb25e6c03fba05b67178e7ab62d"}, {"type": "electric_scooter", "fusion_lon": 0.0, "bike_id": "d4cbf0db9369b2cc1fc0780a531fa097", "is_disabled": 0, "lat": 38.87708266666667, "rental_uris": {"ios": "https://dc.lft.to/lastmile_qr_scan", "android": "https://dc.lft.to/lastmile_qr_scan"}, "is_reserved": 0, "lon": -77.00665333333333, "fusion_lat": 0.0, "name": "d4cbf0db9369b2cc1fc0780a531fa097"}, {"type": "electric_scooter", "fusion_lon": 0.0, "bike_id": "6c895588fa2cfe2e58c0932e89a22a26", "is_disabled": 0, "lat": 38.89517333333333, "rental_uris": {"ios": "https://dc.lft.to/lastmile_qr_scan", "android": "https://dc.lft.to/lastmile_qr_scan"}, "is_reserved": 0, "lon": -77.02823716666667, "fusion_lat": 0.0, "name": "6c895588fa2cfe2e58c0932e89a22a26"}, {"type": "electric_scooter", "fusion_lon": 0.0, "bike_id": "18c3d03b7abe1f05874111617656807a", "is_disabled": 0, "lat": 38.902428666666665, "rental_uris": {"ios": "https://dc.lft.to/lastmile_qr_scan", "android": "https://dc.lft.to/lastmile_qr_scan"}, "is_reserved": 0, "lon": -77.0375505, "fusion_lat": 0.0, "name": "18c3d03b7abe1f05874111617656807a"}, {"type": "electric_bike", "fusion_lon": 0.0, "bike_id": "a065e2e01874243a6d82f18e2c96b873", "is_disabled": 0, "lat": 38.85768483333333, "rental_uris": {"ios": "https://dc.lft.to/lastmile_qr_scan", "android": "https://dc.lft.to/lastmile_qr_scan"}, "is_reserved": 0, "lon": -76.98770783333333, "fusion_lat": 0.0, "name": "a065e2e01874243a6d82f18e2c96b873"}, {"type": "electric_scooter", "fusion_lon": 0.0, "bike_id": "f8f43d413d3597202819c555d4abf58d", "is_disabled": 0, "lat": 38.91892983333334, "rental_uris": {"ios": "https://dc.lft.to/lastmile_qr_scan", "android": "https://dc.lft.to/lastmile_qr_scan"}, "is_reserved": 0, "lon": -77.02427183333333, "fusion_lat": 0.0, "name": "f8f43d413d3597202819c555d4abf58d"}, {"type": "electric_scooter", "fusion_lon": 0.0, "bike_id": "19a0f2521d1a0766b9ca1281f73f731f", "is_disabled": 0, "lat": 38.923302166666666, "rental_uris": {"ios": "https://dc.lft.to/lastmile_qr_scan", "android": "https://dc.lft.to/lastmile_qr_scan"}, "is_reserved": 0, "lon": -77.000476, "fusion_lat": 0.0, "name": "19a0f2521d1a0766b9ca1281f73f731f"}, {"type": "electric_scooter", "fusion_lon": 0.0, "bike_id": "f9115c4becfaca6b940f0d81a910d95f", "is_disabled": 0, "lat": 38.93063766666667, "rental_uris": {"ios": "https://dc.lft.to/lastmile_qr_scan", "android": "https://dc.lft.to/lastmile_qr_scan"}, "is_reserved": 0, "lon": -77.032219, "fusion_lat": 0.0, "name": "f9115c4becfaca6b940f0d81a910d95f"}, {"type": "electric_scooter", "fusion_lon": 0.0, "bike_id": "6d1db8f4a9f46f5f153e40ff7a670c0d", "is_disabled": 0, "lat": 38.916919666666665, "rental_uris": {"ios": "https://dc.lft.to/lastmile_qr_scan", "android": "https://dc.lft.to/lastmile_qr_scan"}, "is_reserved": 0, "lon": -77.03474216666666, "fusion_lat": 0.0, "name": "6d1db8f4a9f46f5f153e40ff7a670c0d"}, {"type": "electric_scooter", "fusion_lon": 0.0, "bike_id": "e9aacb3b81b2cd8cbb1ab87f0bd30387", "is_disabled": 0, "lat": 38.90022533333333, "rental_uris": {"ios": "https://dc.lft.to/lastmile_qr_scan", "android": "https://dc.lft.to/lastmile_qr_scan"}, "is_reserved": 0, "lon": -77.04842766666667, "fusion_lat": 0.0, "name": "e9aacb3b81b2cd8cbb1ab87f0bd30387"}, {"type": "electric_scooter", "fusion_lon": 0.0, "bike_id": "192f249af4e0fc19a127a52bf224f326", "is_disabled": 0, "lat": 38.8974265, "rental_uris": {"ios": "https://dc.lft.to/lastmile_qr_scan", "android": "https://dc.lft.to/lastmile_qr_scan"}, "is_reserved": 0, "lon": -77.03169516666667, "fusion_lat": 0.0, "name": "192f249af4e0fc19a127a52bf224f326"}, {"type": "electric_bike", "fusion_lon": 0.0, "bike_id": "e9c917295f10be902f3b6855cd53f0ce", "is_disabled": 0, "lat": 38.950891, "rental_uris": {"ios": "https://dc.lft.to/lastmile_qr_scan", "android": "https://dc.lft.to/lastmile_qr_scan"}, "is_reserved": 0, "lon": -77.01235716666666, "fusion_lat": 0.0, "name": "e9c917295f10be902f3b6855cd53f0ce"}, {"type": "electric_scooter", "fusion_lon": 0.0, "bike_id": "357a39e70e0aeeb2c125970b2bb9940a", "is_disabled": 0, "lat": 38.907245333333336, "rental_uris": {"ios": "https://dc.lft.to/lastmile_qr_scan", "android": "https://dc.lft.to/lastmile_qr_scan"}, "is_reserved": 0, "lon": -77.04155316666667, "fusion_lat": 0.0, "name": "357a39e70e0aeeb2c125970b2bb9940a"}, {"type": "electric_scooter", "fusion_lon": 0.0, "bike_id": "f6061a4e1ecfbc26981f5a28186f6c68", "is_disabled": 0, "lat": 38.89958633333333, "rental_uris": {"ios": "https://dc.lft.to/lastmile_qr_scan", "android": "https://dc.lft.to/lastmile_qr_scan"}, "is_reserved": 0, "lon": -77.0160185, "fusion_lat": 0.0, "name": "f6061a4e1ecfbc26981f5a28186f6c68"}, {"type": "electric_scooter", "fusion_lon": 0.0, "bike_id": "4aecf0cfb07bc494140881dd85205192", "is_disabled": 0, "lat": 38.79612316666667, "rental_uris": {"ios": "https://dc.lft.to/lastmile_qr_scan", "android": "https://dc.lft.to/lastmile_qr_scan"}, "is_reserved": 0, "lon": -77.0748985, "fusion_lat": 0.0, "name": "4aecf0cfb07bc494140881dd85205192"}, {"type": "electric_scooter", "fusion_lon": 0.0, "bike_id": "8916fd9ae1415dc90353bd191ec5b2a4", "is_disabled": 0, "lat": 38.92289266666667, "rental_uris": {"ios": "https://dc.lft.to/lastmile_qr_scan", "android": "https://dc.lft.to/lastmile_qr_scan"}, "is_reserved": 0, "lon": -77.03191283333334, "fusion_lat": 0.0, "name": "8916fd9ae1415dc90353bd191ec5b2a4"}, {"type": "electric_scooter", "fusion_lon": 0.0, "bike_id": "3ba3d03cb6ae71ed146c5ed4f3bbe88d", "is_disabled": 0, "lat": 38.913616166666664, "rental_uris": {"ios": "https://dc.lft.to/lastmile_qr_scan", "android": "https://dc.lft.to/lastmile_qr_scan"}, "is_reserved": 0, "lon": -77.02046766666666, "fusion_lat": 0.0, "name": "3ba3d03cb6ae71ed146c5ed4f3bbe88d"}, {"type": "electric_scooter", "fusion_lon": 0.0, "bike_id": "6db069ffc931f3bf53a9ddb8bba130e1", "is_disabled": 0, "lat": 38.874550666666664, "rental_uris": {"ios": "https://dc.lft.to/lastmile_qr_scan", "android": "https://dc.lft.to/lastmile_qr_scan"}, "is_reserved": 0, "lon": -77.0041595, "fusion_lat": 0.0, "name": "6db069ffc931f3bf53a9ddb8bba130e1"}, {"type": "electric_scooter", "fusion_lon": 0.0, "bike_id": "a26f6bb52c3a9643daef6ef0de55212b", "is_disabled": 0, "lat": 38.9198365, "rental_uris": {"ios": "https://dc.lft.to/lastmile_qr_scan", "android": "https://dc.lft.to/lastmile_qr_scan"}, "is_reserved": 0, "lon": -77.02380366666667, "fusion_lat": 0.0, "name": "a26f6bb52c3a9643daef6ef0de55212b"}, {"type": "electric_scooter", "fusion_lon": 0.0, "bike_id": "b362c1499ee897c92f1c999eac8deffb", "is_disabled": 0, "lat": 38.926318333333334, "rental_uris": {"ios": "https://dc.lft.to/lastmile_qr_scan", "android": "https://dc.lft.to/lastmile_qr_scan"}, "is_reserved": 0, "lon": -77.02275716666666, "fusion_lat": 0.0, "name": "b362c1499ee897c92f1c999eac8deffb"}, {"type": "electric_scooter", "fusion_lon": 0.0, "bike_id": "ce9b64ff877ea8f93a46db8d158635b1", "is_disabled": 0, "lat": 38.91656783333333, "rental_uris": {"ios": "https://dc.lft.to/lastmile_qr_scan", "android": "https://dc.lft.to/lastmile_qr_scan"}, "is_reserved": 0, "lon": -77.03682383333333, "fusion_lat": 0.0, "name": "ce9b64ff877ea8f93a46db8d158635b1"}, {"type": "electric_scooter", "fusion_lon": 0.0, "bike_id": "85e23a444aec2875dc31a2fc75f1a967", "is_disabled": 0, "lat": 38.92333583333333, "rental_uris": {"ios": "https://dc.lft.to/lastmile_qr_scan", "android": "https://dc.lft.to/lastmile_qr_scan"}, "is_reserved": 0, "lon": -77.03521716666667, "fusion_lat": 0.0, "name": "85e23a444aec2875dc31a2fc75f1a967"}, {"type": "electric_scooter", "fusion_lon": 0.0, "bike_id": "36509584ba3627d27b3b109f3c7741f6", "is_disabled": 0, "lat": 38.90978716666667, "rental_uris": {"ios": "https://dc.lft.to/lastmile_qr_scan", "android": "https://dc.lft.to/lastmile_qr_scan"}, "is_reserved": 0, "lon": -77.04872916666666, "fusion_lat": 0.0, "name": "36509584ba3627d27b3b109f3c7741f6"}, {"type": "electric_scooter", "fusion_lon": 0.0, "bike_id": "d22814c3007131428de1053b7a75eae8", "is_disabled": 0, "lat": 38.924608166666665, "rental_uris": {"ios": "https://dc.lft.to/lastmile_qr_scan", "android": "https://dc.lft.to/lastmile_qr_scan"}, "is_reserved": 0, "lon": -77.04036183333334, "fusion_lat": 0.0, "name": "d22814c3007131428de1053b7a75eae8"}, {"type": "electric_scooter", "fusion_lon": 0.0, "bike_id": "de8ad3a0d64ce81ee4ec32ac4f1ede42", "is_disabled": 0, "lat": 38.924744, "rental_uris": {"ios": "https://dc.lft.to/lastmile_qr_scan", "android": "https://dc.lft.to/lastmile_qr_scan"}, "is_reserved": 0, "lon": -77.02547133333333, "fusion_lat": 0.0, "name": "de8ad3a0d64ce81ee4ec32ac4f1ede42"}, {"type": "electric_scooter", "fusion_lon": 0.0, "bike_id": "d50c5951df47179b0bdf4ec0cbdf2ab1", "is_disabled": 0, "lat": 38.923262666666666, "rental_uris": {"ios": "https://dc.lft.to/lastmile_qr_scan", "android": "https://dc.lft.to/lastmile_qr_scan"}, "is_reserved": 0, "lon": -77.030468, "fusion_lat": 0.0, "name": "d50c5951df47179b0bdf4ec0cbdf2ab1"}, {"type": "electric_scooter", "fusion_lon": 0.0, "bike_id": "35c126400760f1e438b196a83441d5d0", "is_disabled": 0, "lat": 38.90034266666667, "rental_uris": {"ios": "https://dc.lft.to/lastmile_qr_scan", "android": "https://dc.lft.to/lastmile_qr_scan"}, "is_reserved": 0, "lon": -76.99761266666667, "fusion_lat": 0.0, "name": "35c126400760f1e438b196a83441d5d0"}, {"type": "electric_scooter", "fusion_lon": 0.0, "bike_id": "b10ef6e36d287c4c4885723c1875159f", "is_disabled": 0, "lat": 38.89533566666667, "rental_uris": {"ios": "https://dc.lft.to/lastmile_qr_scan", "android": "https://dc.lft.to/lastmile_qr_scan"}, "is_reserved": 0, "lon": -77.0161115, "fusion_lat": 0.0, "name": "b10ef6e36d287c4c4885723c1875159f"}, {"type": "electric_scooter", "fusion_lon": 0.0, "bike_id": "7711ca507b8c5553b66046a1f277642a", "is_disabled": 0, "lat": 38.8921905, "rental_uris": {"ios": "https://dc.lft.to/lastmile_qr_scan", "android": "https://dc.lft.to/lastmile_qr_scan"}, "is_reserved": 0, "lon": -76.95690816666666, "fusion_lat": 0.0, "name": "7711ca507b8c5553b66046a1f277642a"}, {"type": "electric_scooter", "fusion_lon": 0.0, "bike_id": "deb8736d1e3c91c7ad5f12f9e4c7589b", "is_disabled": 0, "lat": 38.89225833333333, "rental_uris": {"ios": "https://dc.lft.to/lastmile_qr_scan", "android": "https://dc.lft.to/lastmile_qr_scan"}, "is_reserved": 0, "lon": -77.0241895, "fusion_lat": 0.0, "name": "deb8736d1e3c91c7ad5f12f9e4c7589b"}, {"type": "electric_scooter", "fusion_lon": 0.0, "bike_id": "3ac6093aebca849f7c57ad5702a4fb9c", "is_disabled": 0, "lat": 38.920629166666664, "rental_uris": {"ios": "https://dc.lft.to/lastmile_qr_scan", "android": "https://dc.lft.to/lastmile_qr_scan"}, "is_reserved": 0, "lon": -77.02949, "fusion_lat": 0.0, "name": "3ac6093aebca849f7c57ad5702a4fb9c"}, {"type": "electric_scooter", "fusion_lon": 0.0, "bike_id": "42ab40b5f5d19164ad27dd37ce57d506", "is_disabled": 0, "lat": 38.9191865, "rental_uris": {"ios": "https://dc.lft.to/lastmile_qr_scan", "android": "https://dc.lft.to/lastmile_qr_scan"}, "is_reserved": 0, "lon": -77.03379283333334, "fusion_lat": 0.0, "name": "42ab40b5f5d19164ad27dd37ce57d506"}, {"type": "electric_scooter", "fusion_lon": 0.0, "bike_id": "d835fd524c7d7826585ea0b6992a10b6", "is_disabled": 0, "lat": 38.92802533333333, "rental_uris": {"ios": "https://dc.lft.to/lastmile_qr_scan", "android": "https://dc.lft.to/lastmile_qr_scan"}, "is_reserved": 0, "lon": -77.02389733333334, "fusion_lat": 0.0, "name": "d835fd524c7d7826585ea0b6992a10b6"}, {"type": "electric_scooter", "fusion_lon": 0.0, "bike_id": "2369312052e18c0a770c03b298238464", "is_disabled": 0, "lat": 38.920751833333334, "rental_uris": {"ios": "https://dc.lft.to/lastmile_qr_scan", "android": "https://dc.lft.to/lastmile_qr_scan"}, "is_reserved": 0, "lon": -77.02500866666666, "fusion_lat": 0.0, "name": "2369312052e18c0a770c03b298238464"}, {"type": "electric_scooter", "fusion_lon": 0.0, "bike_id": "decc426e0ea8035180fa67b078a2c21b", "is_disabled": 0, "lat": 38.892240666666666, "rental_uris": {"ios": "https://dc.lft.to/lastmile_qr_scan", "android": "https://dc.lft.to/lastmile_qr_scan"}, "is_reserved": 0, "lon": -77.02015916666667, "fusion_lat": 0.0, "name": "decc426e0ea8035180fa67b078a2c21b"}, {"type": "electric_bike", "fusion_lon": 0.0, "bike_id": "fd5d53a0938ee7f1a94b10c7fd49631a", "is_disabled": 0, "lat": 38.86330983333333, "rental_uris": {"ios": "https://dc.lft.to/lastmile_qr_scan", "android": "https://dc.lft.to/lastmile_qr_scan"}, "is_reserved": 0, "lon": -76.98725016666667, "fusion_lat": 0.0, "name": "fd5d53a0938ee7f1a94b10c7fd49631a"}, {"type": "electric_scooter", "fusion_lon": 0.0, "bike_id": "50e670c586132661f0dc516fff92c8e0", "is_disabled": 0, "lat": 38.90391866666667, "rental_uris": {"ios": "https://dc.lft.to/lastmile_qr_scan", "android": "https://dc.lft.to/lastmile_qr_scan"}, "is_reserved": 0, "lon": -77.01850533333334, "fusion_lat": 0.0, "name": "50e670c586132661f0dc516fff92c8e0"}, {"type": "electric_scooter", "fusion_lon": 0.0, "bike_id": "0fa2eab51588c9a129f345aa60a3dea9", "is_disabled": 0, "lat": 38.93866033333333, "rental_uris": {"ios": "https://dc.lft.to/lastmile_qr_scan", "android": "https://dc.lft.to/lastmile_qr_scan"}, "is_reserved": 0, "lon": -77.03390316666666, "fusion_lat": 0.0, "name": "0fa2eab51588c9a129f345aa60a3dea9"}, {"type": "electric_scooter", "fusion_lon": 0.0, "bike_id": "58eee585b153eae8a4b1d0353012339c", "is_disabled": 0, "lat": 38.915651833333335, "rental_uris": {"ios": "https://dc.lft.to/lastmile_qr_scan", "android": "https://dc.lft.to/lastmile_qr_scan"}, "is_reserved": 0, "lon": -77.04181433333333, "fusion_lat": 0.0, "name": "58eee585b153eae8a4b1d0353012339c"}, {"type": "electric_scooter", "fusion_lon": 0.0, "bike_id": "361f434f6097e84e6b40f7ca1b5716d2", "is_disabled": 0, "lat": 38.91811416666667, "rental_uris": {"ios": "https://dc.lft.to/lastmile_qr_scan", "android": "https://dc.lft.to/lastmile_qr_scan"}, "is_reserved": 0, "lon": -77.00569016666667, "fusion_lat": 0.0, "name": "361f434f6097e84e6b40f7ca1b5716d2"}, {"type": "electric_scooter", "fusion_lon": 0.0, "bike_id": "0c386257bcd48d37718178d24f9e5105", "is_disabled": 0, "lat": 38.885124, "rental_uris": {"ios": "https://dc.lft.to/lastmile_qr_scan", "android": "https://dc.lft.to/lastmile_qr_scan"}, "is_reserved": 0, "lon": -77.028219, "fusion_lat": 0.0, "name": "0c386257bcd48d37718178d24f9e5105"}, {"type": "electric_scooter", "fusion_lon": 0.0, "bike_id": "fe54d5159ff7ad08a437064aad8f691f", "is_disabled": 0, "lat": 38.90762516666667, "rental_uris": {"ios": "https://dc.lft.to/lastmile_qr_scan", "android": "https://dc.lft.to/lastmile_qr_scan"}, "is_reserved": 0, "lon": -77.009219, "fusion_lat": 0.0, "name": "fe54d5159ff7ad08a437064aad8f691f"}, {"type": "electric_scooter", "fusion_lon": 0.0, "bike_id": "60af4fdabaf492721b47bbeb5973cd3b", "is_disabled": 0, "lat": 38.90420066666667, "rental_uris": {"ios": "https://dc.lft.to/lastmile_qr_scan", "android": "https://dc.lft.to/lastmile_qr_scan"}, "is_reserved": 0, "lon": -77.02603983333333, "fusion_lat": 0.0, "name": "60af4fdabaf492721b47bbeb5973cd3b"}, {"type": "electric_scooter", "fusion_lon": 0.0, "bike_id": "8aaf281fd207d15a4c3ca0c063d2af48", "is_disabled": 0, "lat": 38.894700666666665, "rental_uris": {"ios": "https://dc.lft.to/lastmile_qr_scan", "android": "https://dc.lft.to/lastmile_qr_scan"}, "is_reserved": 0, "lon": -77.01864933333333, "fusion_lat": 0.0, "name": "8aaf281fd207d15a4c3ca0c063d2af48"}, {"type": "electric_scooter", "fusion_lon": 0.0, "bike_id": "58bb49d082247fcf4fc621f8c8de4258", "is_disabled": 0, "lat": 38.87403283333333, "rental_uris": {"ios": "https://dc.lft.to/lastmile_qr_scan", "android": "https://dc.lft.to/lastmile_qr_scan"}, "is_reserved": 0, "lon": -76.96984516666667, "fusion_lat": 0.0, "name": "58bb49d082247fcf4fc621f8c8de4258"}, {"type": "electric_scooter", "fusion_lon": 0.0, "bike_id": "2a80e9b84f908db6d1bfed24c1dad115", "is_disabled": 0, "lat": 38.892144, "rental_uris": {"ios": "https://dc.lft.to/lastmile_qr_scan", "android": "https://dc.lft.to/lastmile_qr_scan"}, "is_reserved": 0, "lon": -77.0322075, "fusion_lat": 0.0, "name": "2a80e9b84f908db6d1bfed24c1dad115"}, {"type": "electric_scooter", "fusion_lon": 0.0, "bike_id": "4920768d278f6e362db6e4733ecb8bbd", "is_disabled": 0, "lat": 38.956014333333336, "rental_uris": {"ios": "https://dc.lft.to/lastmile_qr_scan", "android": "https://dc.lft.to/lastmile_qr_scan"}, "is_reserved": 0, "lon": -77.08064016666667, "fusion_lat": 0.0, "name": "4920768d278f6e362db6e4733ecb8bbd"}, {"type": "electric_scooter", "fusion_lon": 0.0, "bike_id": "9a03fe2ff856cbc180585d80e0a500e0", "is_disabled": 0, "lat": 38.884326, "rental_uris": {"ios": "https://dc.lft.to/lastmile_qr_scan", "android": "https://dc.lft.to/lastmile_qr_scan"}, "is_reserved": 0, "lon": -76.957633, "fusion_lat": 0.0, "name": "9a03fe2ff856cbc180585d80e0a500e0"}, {"type": "electric_scooter", "fusion_lon": 0.0, "bike_id": "007d786354326dc8d5e76715cbb7764e", "is_disabled": 0, "lat": 38.93348966666667, "rental_uris": {"ios": "https://dc.lft.to/lastmile_qr_scan", "android": "https://dc.lft.to/lastmile_qr_scan"}, "is_reserved": 0, "lon": -77.0298, "fusion_lat": 0.0, "name": "007d786354326dc8d5e76715cbb7764e"}, {"type": "electric_bike", "fusion_lon": 0.0, "bike_id": "ca9edb40a4facce5a2f1dece837dc653", "is_disabled": 0, "lat": 38.865991666666666, "rental_uris": {"ios": "https://dc.lft.to/lastmile_qr_scan", "android": "https://dc.lft.to/lastmile_qr_scan"}, "is_reserved": 0, "lon": -76.98050733333334, "fusion_lat": 0.0, "name": "ca9edb40a4facce5a2f1dece837dc653"}, {"type": "electric_scooter", "fusion_lon": 0.0, "bike_id": "a4a311d3731396353d1538eacb85fec5", "is_disabled": 0, "lat": 38.92782733333333, "rental_uris": {"ios": "https://dc.lft.to/lastmile_qr_scan", "android": "https://dc.lft.to/lastmile_qr_scan"}, "is_reserved": 0, "lon": -77.02705183333333, "fusion_lat": 0.0, "name": "a4a311d3731396353d1538eacb85fec5"}, {"type": "electric_scooter", "fusion_lon": 0.0, "bike_id": "f2339f650e76de06ee6b2bd8ae881a1f", "is_disabled": 0, "lat": 38.940821, "rental_uris": {"ios": "https://dc.lft.to/lastmile_qr_scan", "android": "https://dc.lft.to/lastmile_qr_scan"}, "is_reserved": 0, "lon": -77.02727233333333, "fusion_lat": 0.0, "name": "f2339f650e76de06ee6b2bd8ae881a1f"}, {"type": "electric_scooter", "fusion_lon": 0.0, "bike_id": "0acf91b5cc1cf8fd4f01b1f5763016e6", "is_disabled": 0, "lat": 38.91625883333333, "rental_uris": {"ios": "https://dc.lft.to/lastmile_qr_scan", "android": "https://dc.lft.to/lastmile_qr_scan"}, "is_reserved": 0, "lon": -77.05065883333333, "fusion_lat": 0.0, "name": "0acf91b5cc1cf8fd4f01b1f5763016e6"}, {"type": "electric_scooter", "fusion_lon": 0.0, "bike_id": "8315be9e268390efd30ba8e6c8382a74", "is_disabled": 0, "lat": 38.916379666666664, "rental_uris": {"ios": "https://dc.lft.to/lastmile_qr_scan", "android": "https://dc.lft.to/lastmile_qr_scan"}, "is_reserved": 0, "lon": -77.04625066666667, "fusion_lat": 0.0, "name": "8315be9e268390efd30ba8e6c8382a74"}, {"type": "electric_scooter", "fusion_lon": 0.0, "bike_id": "7cd68053087ea764e617e399c4a2854d", "is_disabled": 0, "lat": 38.901767166666666, "rental_uris": {"ios": "https://dc.lft.to/lastmile_qr_scan", "android": "https://dc.lft.to/lastmile_qr_scan"}, "is_reserved": 0, "lon": -76.98064133333334, "fusion_lat": 0.0, "name": "7cd68053087ea764e617e399c4a2854d"}, {"type": "electric_scooter", "fusion_lon": 0.0, "bike_id": "5ca2c7cf844f9fb38b55091827355810", "is_disabled": 0, "lat": 38.892278833333336, "rental_uris": {"ios": "https://dc.lft.to/lastmile_qr_scan", "android": "https://dc.lft.to/lastmile_qr_scan"}, "is_reserved": 0, "lon": -77.050048, "fusion_lat": 0.0, "name": "5ca2c7cf844f9fb38b55091827355810"}, {"type": "electric_scooter", "fusion_lon": 0.0, "bike_id": "ecfad58b1e11d1c9ee4312e13e7010ef", "is_disabled": 0, "lat": 38.922881333333336, "rental_uris": {"ios": "https://dc.lft.to/lastmile_qr_scan", "android": "https://dc.lft.to/lastmile_qr_scan"}, "is_reserved": 0, "lon": -77.03664233333333, "fusion_lat": 0.0, "name": "ecfad58b1e11d1c9ee4312e13e7010ef"}, {"type": "electric_scooter", "fusion_lon": 0.0, "bike_id": "60418a9d4690b482ab15aed11cfe9a7e", "is_disabled": 0, "lat": 38.905602333333334, "rental_uris": {"ios": "https://dc.lft.to/lastmile_qr_scan", "android": "https://dc.lft.to/lastmile_qr_scan"}, "is_reserved": 0, "lon": -77.02211316666667, "fusion_lat": 0.0, "name": "60418a9d4690b482ab15aed11cfe9a7e"}, {"type": "electric_scooter", "fusion_lon": 0.0, "bike_id": "422368a35d56700b1b7f642402e12a16", "is_disabled": 0, "lat": 38.927418, "rental_uris": {"ios": "https://dc.lft.to/lastmile_qr_scan", "android": "https://dc.lft.to/lastmile_qr_scan"}, "is_reserved": 0, "lon": -77.02542866666667, "fusion_lat": 0.0, "name": "422368a35d56700b1b7f642402e12a16"}, {"type": "electric_scooter", "fusion_lon": 0.0, "bike_id": "b5670607df39356ee04e355a38b27026", "is_disabled": 0, "lat": 38.914852, "rental_uris": {"ios": "https://dc.lft.to/lastmile_qr_scan", "android": "https://dc.lft.to/lastmile_qr_scan"}, "is_reserved": 0, "lon": -77.02200883333333, "fusion_lat": 0.0, "name": "b5670607df39356ee04e355a38b27026"}, {"type": "electric_scooter", "fusion_lon": 0.0, "bike_id": "5e39754cde72be62ba1649be76488e63", "is_disabled": 0, "lat": 38.917512333333335, "rental_uris": {"ios": "https://dc.lft.to/lastmile_qr_scan", "android": "https://dc.lft.to/lastmile_qr_scan"}, "is_reserved": 0, "lon": -77.04057666666667, "fusion_lat": 0.0, "name": "5e39754cde72be62ba1649be76488e63"}, {"type": "electric_scooter", "fusion_lon": 0.0, "bike_id": "7dfd626723e591f58fd3c5e8f0ae0d62", "is_disabled": 0, "lat": 38.904074333333334, "rental_uris": {"ios": "https://dc.lft.to/lastmile_qr_scan", "android": "https://dc.lft.to/lastmile_qr_scan"}, "is_reserved": 0, "lon": -76.97329583333334, "fusion_lat": 0.0, "name": "7dfd626723e591f58fd3c5e8f0ae0d62"}, {"type": "electric_scooter", "fusion_lon": 0.0, "bike_id": "4a9f4ed3f09bf7af822385d5386ad9d1", "is_disabled": 0, "lat": 38.904218, "rental_uris": {"ios": "https://dc.lft.to/lastmile_qr_scan", "android": "https://dc.lft.to/lastmile_qr_scan"}, "is_reserved": 0, "lon": -77.03441383333333, "fusion_lat": 0.0, "name": "4a9f4ed3f09bf7af822385d5386ad9d1"}, {"type": "electric_scooter", "fusion_lon": 0.0, "bike_id": "10979d547884d80ccf084e04f726e7b4", "is_disabled": 0, "lat": 38.88340183333333, "rental_uris": {"ios": "https://dc.lft.to/lastmile_qr_scan", "android": "https://dc.lft.to/lastmile_qr_scan"}, "is_reserved": 0, "lon": -76.93499566666667, "fusion_lat": 0.0, "name": "10979d547884d80ccf084e04f726e7b4"}, {"type": "electric_scooter", "fusion_lon": 0.0, "bike_id": "85e93feac2f5ef17da2ed6f68cb668bd", "is_disabled": 0, "lat": 38.901413, "rental_uris": {"ios": "https://dc.lft.to/lastmile_qr_scan", "android": "https://dc.lft.to/lastmile_qr_scan"}, "is_reserved": 0, "lon": -77.044316, "fusion_lat": 0.0, "name": "85e93feac2f5ef17da2ed6f68cb668bd"}, {"type": "electric_scooter", "fusion_lon": 0.0, "bike_id": "57144a09481546bf9a9d454d5fa62f6a", "is_disabled": 0, "lat": 38.918997, "rental_uris": {"ios": "https://dc.lft.to/lastmile_qr_scan", "android": "https://dc.lft.to/lastmile_qr_scan"}, "is_reserved": 0, "lon": -77.03823166666666, "fusion_lat": 0.0, "name": "57144a09481546bf9a9d454d5fa62f6a"}, {"type": "electric_scooter", "fusion_lon": 0.0, "bike_id": "eccb26f651fd6902b3c0a5d2314137ae", "is_disabled": 0, "lat": 38.88414316666667, "rental_uris": {"ios": "https://dc.lft.to/lastmile_qr_scan", "android": "https://dc.lft.to/lastmile_qr_scan"}, "is_reserved": 0, "lon": -77.0045095, "fusion_lat": 0.0, "name": "eccb26f651fd6902b3c0a5d2314137ae"}, {"type": "electric_scooter", "fusion_lon": 0.0, "bike_id": "67b00bbebd75b27fe9d3e9137bac8429", "is_disabled": 0, "lat": 38.920843833333336, "rental_uris": {"ios": "https://dc.lft.to/lastmile_qr_scan", "android": "https://dc.lft.to/lastmile_qr_scan"}, "is_reserved": 0, "lon": -77.02508633333333, "fusion_lat": 0.0, "name": "67b00bbebd75b27fe9d3e9137bac8429"}, {"type": "electric_scooter", "fusion_lon": 0.0, "bike_id": "bf1720dc56ada9b2393aedbd6fc40225", "is_disabled": 0, "lat": 38.872930833333335, "rental_uris": {"ios": "https://dc.lft.to/lastmile_qr_scan", "android": "https://dc.lft.to/lastmile_qr_scan"}, "is_reserved": 0, "lon": -77.00991783333333, "fusion_lat": 0.0, "name": "bf1720dc56ada9b2393aedbd6fc40225"}, {"type": "electric_bike", "fusion_lon": 0.0, "bike_id": "405df7a9c3f6cf8810a648a99654bf77", "is_disabled": 0, "lat": 38.85620383333333, "rental_uris": {"ios": "https://dc.lft.to/lastmile_qr_scan", "android": "https://dc.lft.to/lastmile_qr_scan"}, "is_reserved": 0, "lon": -76.96157733333334, "fusion_lat": 0.0, "name": "405df7a9c3f6cf8810a648a99654bf77"}, {"type": "electric_scooter", "fusion_lon": 0.0, "bike_id": "ce5fab266b6fb4d8c60de1864bb92e0b", "is_disabled": 0, "lat": 38.92260816666667, "rental_uris": {"ios": "https://dc.lft.to/lastmile_qr_scan", "android": "https://dc.lft.to/lastmile_qr_scan"}, "is_reserved": 0, "lon": -77.036692, "fusion_lat": 0.0, "name": "ce5fab266b6fb4d8c60de1864bb92e0b"}, {"type": "electric_scooter", "fusion_lon": 0.0, "bike_id": "d909cb35038b52892e3803e8adecb17b", "is_disabled": 0, "lat": 38.87854466666667, "rental_uris": {"ios": "https://dc.lft.to/lastmile_qr_scan", "android": "https://dc.lft.to/lastmile_qr_scan"}, "is_reserved": 0, "lon": -77.00599033333333, "fusion_lat": 0.0, "name": "d909cb35038b52892e3803e8adecb17b"}, {"type": "electric_scooter", "fusion_lon": 0.0, "bike_id": "d85fac35357301398e02bcecdac3ed43", "is_disabled": 0, "lat": 38.920566666666666, "rental_uris": {"ios": "https://dc.lft.to/lastmile_qr_scan", "android": "https://dc.lft.to/lastmile_qr_scan"}, "is_reserved": 0, "lon": -77.0252155, "fusion_lat": 0.0, "name": "d85fac35357301398e02bcecdac3ed43"}, {"type": "electric_scooter", "fusion_lon": 0.0, "bike_id": "ff86f5a605873bd3bf645bf642edef90", "is_disabled": 0, "lat": 38.862158, "rental_uris": {"ios": "https://dc.lft.to/lastmile_qr_scan", "android": "https://dc.lft.to/lastmile_qr_scan"}, "is_reserved": 0, "lon": -76.99479616666666, "fusion_lat": 0.0, "name": "ff86f5a605873bd3bf645bf642edef90"}, {"type": "electric_scooter", "fusion_lon": 0.0, "bike_id": "bc15c64ae5ceb89a865c8972ffb6daf6", "is_disabled": 0, "lat": 38.9156625, "rental_uris": {"ios": "https://dc.lft.to/lastmile_qr_scan", "android": "https://dc.lft.to/lastmile_qr_scan"}, "is_reserved": 0, "lon": -77.04180766666667, "fusion_lat": 0.0, "name": "bc15c64ae5ceb89a865c8972ffb6daf6"}, {"type": "electric_scooter", "fusion_lon": 0.0, "bike_id": "69edfd3cb08d133d694defccd4d45be0", "is_disabled": 0, "lat": 38.94178266666667, "rental_uris": {"ios": "https://dc.lft.to/lastmile_qr_scan", "android": "https://dc.lft.to/lastmile_qr_scan"}, "is_reserved": 0, "lon": -76.994386, "fusion_lat": 0.0, "name": "69edfd3cb08d133d694defccd4d45be0"}, {"type": "electric_scooter", "fusion_lon": 0.0, "bike_id": "73961d6b51d5dbf13657ec6e7694569e", "is_disabled": 0, "lat": 38.910282, "rental_uris": {"ios": "https://dc.lft.to/lastmile_qr_scan", "android": "https://dc.lft.to/lastmile_qr_scan"}, "is_reserved": 0, "lon": -77.0432985, "fusion_lat": 0.0, "name": "73961d6b51d5dbf13657ec6e7694569e"}, {"type": "electric_scooter", "fusion_lon": 0.0, "bike_id": "a8c3bfc2f9b98832ee232bd1a1ddbf6e", "is_disabled": 0, "lat": 38.89496916666667, "rental_uris": {"ios": "https://dc.lft.to/lastmile_qr_scan", "android": "https://dc.lft.to/lastmile_qr_scan"}, "is_reserved": 0, "lon": -77.02326833333333, "fusion_lat": 0.0, "name": "a8c3bfc2f9b98832ee232bd1a1ddbf6e"}, {"type": "electric_scooter", "fusion_lon": 0.0, "bike_id": "1fe3d391438d8a202b79f1097747cf49", "is_disabled": 0, "lat": 38.9248565, "rental_uris": {"ios": "https://dc.lft.to/lastmile_qr_scan", "android": "https://dc.lft.to/lastmile_qr_scan"}, "is_reserved": 0, "lon": -77.03179266666666, "fusion_lat": 0.0, "name": "1fe3d391438d8a202b79f1097747cf49"}, {"type": "electric_bike", "fusion_lon": 0.0, "bike_id": "b5d79b0d1676227fd2c0cdb832490d5c", "is_disabled": 0, "lat": 38.89561666666667, "rental_uris": {"ios": "https://dc.lft.to/lastmile_qr_scan", "android": "https://dc.lft.to/lastmile_qr_scan"}, "is_reserved": 0, "lon": -77.1273285, "fusion_lat": 0.0, "name": "b5d79b0d1676227fd2c0cdb832490d5c"}, {"type": "electric_scooter", "fusion_lon": 0.0, "bike_id": "5da855d4ce130242ab3bc1bd1e633e12", "is_disabled": 0, "lat": 38.88737966666667, "rental_uris": {"ios": "https://dc.lft.to/lastmile_qr_scan", "android": "https://dc.lft.to/lastmile_qr_scan"}, "is_reserved": 0, "lon": -77.0153405, "fusion_lat": 0.0, "name": "5da855d4ce130242ab3bc1bd1e633e12"}, {"type": "electric_scooter", "fusion_lon": 0.0, "bike_id": "fafe48f5e112029c384ac4f85ea5e6bb", "is_disabled": 0, "lat": 38.92712083333333, "rental_uris": {"ios": "https://dc.lft.to/lastmile_qr_scan", "android": "https://dc.lft.to/lastmile_qr_scan"}, "is_reserved": 0, "lon": -77.02087733333333, "fusion_lat": 0.0, "name": "fafe48f5e112029c384ac4f85ea5e6bb"}, {"type": "electric_scooter", "fusion_lon": 0.0, "bike_id": "fc2827a302f2a492bf1c55cb78dfaa7d", "is_disabled": 0, "lat": 38.914126833333334, "rental_uris": {"ios": "https://dc.lft.to/lastmile_qr_scan", "android": "https://dc.lft.to/lastmile_qr_scan"}, "is_reserved": 0, "lon": -77.04150616666666, "fusion_lat": 0.0, "name": "fc2827a302f2a492bf1c55cb78dfaa7d"}, {"type": "electric_scooter", "fusion_lon": 0.0, "bike_id": "32a8ffb2635669822b9aa35ee5691969", "is_disabled": 0, "lat": 38.92015883333333, "rental_uris": {"ios": "https://dc.lft.to/lastmile_qr_scan", "android": "https://dc.lft.to/lastmile_qr_scan"}, "is_reserved": 0, "lon": -77.04413133333334, "fusion_lat": 0.0, "name": "32a8ffb2635669822b9aa35ee5691969"}, {"type": "electric_scooter", "fusion_lon": 0.0, "bike_id": "62c96718233b0241bd659e59cbb47faa", "is_disabled": 0, "lat": 38.900116833333335, "rental_uris": {"ios": "https://dc.lft.to/lastmile_qr_scan", "android": "https://dc.lft.to/lastmile_qr_scan"}, "is_reserved": 0, "lon": -76.98897616666666, "fusion_lat": 0.0, "name": "62c96718233b0241bd659e59cbb47faa"}, {"type": "electric_scooter", "fusion_lon": 0.0, "bike_id": "b42781eeb739fb3622688b9fd27bb4c8", "is_disabled": 0, "lat": 38.8649975, "rental_uris": {"ios": "https://dc.lft.to/lastmile_qr_scan", "android": "https://dc.lft.to/lastmile_qr_scan"}, "is_reserved": 0, "lon": -76.98988583333333, "fusion_lat": 0.0, "name": "b42781eeb739fb3622688b9fd27bb4c8"}, {"type": "electric_scooter", "fusion_lon": 0.0, "bike_id": "6fb8e046abc2bac3b1aef4b813df9cf1", "is_disabled": 0, "lat": 38.876727833333334, "rental_uris": {"ios": "https://dc.lft.to/lastmile_qr_scan", "android": "https://dc.lft.to/lastmile_qr_scan"}, "is_reserved": 0, "lon": -77.00290733333334, "fusion_lat": 0.0, "name": "6fb8e046abc2bac3b1aef4b813df9cf1"}, {"type": "electric_scooter", "fusion_lon": 0.0, "bike_id": "811d5cc72e5d13de88d4768e4fb7aa7b", "is_disabled": 0, "lat": 38.895494166666666, "rental_uris": {"ios": "https://dc.lft.to/lastmile_qr_scan", "android": "https://dc.lft.to/lastmile_qr_scan"}, "is_reserved": 0, "lon": -77.0281545, "fusion_lat": 0.0, "name": "811d5cc72e5d13de88d4768e4fb7aa7b"}, {"type": "electric_scooter", "fusion_lon": 0.0, "bike_id": "4c3d532fbdf790628755b34702f639e9", "is_disabled": 0, "lat": 38.91978983333333, "rental_uris": {"ios": "https://dc.lft.to/lastmile_qr_scan", "android": "https://dc.lft.to/lastmile_qr_scan"}, "is_reserved": 0, "lon": -77.02174, "fusion_lat": 0.0, "name": "4c3d532fbdf790628755b34702f639e9"}, {"type": "electric_scooter", "fusion_lon": 0.0, "bike_id": "725b0294a950f4e2a875bd3068190ff0", "is_disabled": 0, "lat": 38.931166833333336, "rental_uris": {"ios": "https://dc.lft.to/lastmile_qr_scan", "android": "https://dc.lft.to/lastmile_qr_scan"}, "is_reserved": 0, "lon": -77.02099916666667, "fusion_lat": 0.0, "name": "725b0294a950f4e2a875bd3068190ff0"}, {"type": "electric_scooter", "fusion_lon": 0.0, "bike_id": "d06b58fadfa590563d2a18f85c2d95ae", "is_disabled": 0, "lat": 38.923597666666666, "rental_uris": {"ios": "https://dc.lft.to/lastmile_qr_scan", "android": "https://dc.lft.to/lastmile_qr_scan"}, "is_reserved": 0, "lon": -77.05192216666667, "fusion_lat": 0.0, "name": "d06b58fadfa590563d2a18f85c2d95ae"}, {"type": "electric_scooter", "fusion_lon": 0.0, "bike_id": "1aa1b41da91dfcb25f33812ac0074abe", "is_disabled": 0, "lat": 38.86268966666667, "rental_uris": {"ios": "https://dc.lft.to/lastmile_qr_scan", "android": "https://dc.lft.to/lastmile_qr_scan"}, "is_reserved": 0, "lon": -76.99574783333334, "fusion_lat": 0.0, "name": "1aa1b41da91dfcb25f33812ac0074abe"}, {"type": "electric_scooter", "fusion_lon": 0.0, "bike_id": "d06017624b77a1ac6f70b4ef15d7d7e1", "is_disabled": 0, "lat": 38.8991375, "rental_uris": {"ios": "https://dc.lft.to/lastmile_qr_scan", "android": "https://dc.lft.to/lastmile_qr_scan"}, "is_reserved": 0, "lon": -76.93387333333334, "fusion_lat": 0.0, "name": "d06017624b77a1ac6f70b4ef15d7d7e1"}, {"type": "electric_scooter", "fusion_lon": 0.0, "bike_id": "f9edbf8f06ada1d4c298bf3f46f717d1", "is_disabled": 0, "lat": 38.94453, "rental_uris": {"ios": "https://dc.lft.to/lastmile_qr_scan", "android": "https://dc.lft.to/lastmile_qr_scan"}, "is_reserved": 0, "lon": -77.028015, "fusion_lat": 0.0, "name": "f9edbf8f06ada1d4c298bf3f46f717d1"}, {"type": "electric_scooter", "fusion_lon": 0.0, "bike_id": "96ce7b4e6d823fd56dade50bcca89d7e", "is_disabled": 0, "lat": 38.92472933333333, "rental_uris": {"ios": "https://dc.lft.to/lastmile_qr_scan", "android": "https://dc.lft.to/lastmile_qr_scan"}, "is_reserved": 0, "lon": -77.03066066666666, "fusion_lat": 0.0, "name": "96ce7b4e6d823fd56dade50bcca89d7e"}, {"type": "electric_scooter", "fusion_lon": 0.0, "bike_id": "826720c525f1f1466bb86b17ac613bf2", "is_disabled": 0, "lat": 38.90361816666667, "rental_uris": {"ios": "https://dc.lft.to/lastmile_qr_scan", "android": "https://dc.lft.to/lastmile_qr_scan"}, "is_reserved": 0, "lon": -77.06692116666666, "fusion_lat": 0.0, "name": "826720c525f1f1466bb86b17ac613bf2"}, {"type": "electric_scooter", "fusion_lon": 0.0, "bike_id": "7a5961521208573d869aae9f5177087c", "is_disabled": 0, "lat": 38.944148, "rental_uris": {"ios": "https://dc.lft.to/lastmile_qr_scan", "android": "https://dc.lft.to/lastmile_qr_scan"}, "is_reserved": 0, "lon": -77.0050265, "fusion_lat": 0.0, "name": "7a5961521208573d869aae9f5177087c"}, {"type": "electric_scooter", "fusion_lon": 0.0, "bike_id": "c6f4ba68b2790dd43c5213512b84d9de", "is_disabled": 0, "lat": 38.914739, "rental_uris": {"ios": "https://dc.lft.to/lastmile_qr_scan", "android": "https://dc.lft.to/lastmile_qr_scan"}, "is_reserved": 0, "lon": -77.01496433333334, "fusion_lat": 0.0, "name": "c6f4ba68b2790dd43c5213512b84d9de"}, {"type": "electric_scooter", "fusion_lon": 0.0, "bike_id": "95af3ab342d9dcb6eb259ec1b0d52b48", "is_disabled": 0, "lat": 38.936680833333334, "rental_uris": {"ios": "https://dc.lft.to/lastmile_qr_scan", "android": "https://dc.lft.to/lastmile_qr_scan"}, "is_reserved": 0, "lon": -77.03393083333333, "fusion_lat": 0.0, "name": "95af3ab342d9dcb6eb259ec1b0d52b48"}, {"type": "electric_scooter", "fusion_lon": 0.0, "bike_id": "ea905891c5a6ee1a19885517169d061e", "is_disabled": 0, "lat": 38.87754566666667, "rental_uris": {"ios": "https://dc.lft.to/lastmile_qr_scan", "android": "https://dc.lft.to/lastmile_qr_scan"}, "is_reserved": 0, "lon": -77.00755416666667, "fusion_lat": 0.0, "name": "ea905891c5a6ee1a19885517169d061e"}, {"type": "electric_bike", "fusion_lon": 0.0, "bike_id": "9f0c002ae4cef8e3f050340279fce58d", "is_disabled": 0, "lat": 38.88304616666667, "rental_uris": {"ios": "https://dc.lft.to/lastmile_qr_scan", "android": "https://dc.lft.to/lastmile_qr_scan"}, "is_reserved": 0, "lon": -76.94975783333334, "fusion_lat": 0.0, "name": "9f0c002ae4cef8e3f050340279fce58d"}, {"type": "electric_bike", "fusion_lon": 0.0, "bike_id": "45d639842c04b36845aebe7673b6d602", "is_disabled": 0, "lat": 38.900571666666664, "rental_uris": {"ios": "https://dc.lft.to/lastmile_qr_scan", "android": "https://dc.lft.to/lastmile_qr_scan"}, "is_reserved": 0, "lon": -77.0507035, "fusion_lat": 0.0, "name": "45d639842c04b36845aebe7673b6d602"}, {"type": "electric_scooter", "fusion_lon": 0.0, "bike_id": "2af0eabca5ab3708f99eb7af6e3ec0bb", "is_disabled": 0, "lat": 38.910619, "rental_uris": {"ios": "https://dc.lft.to/lastmile_qr_scan", "android": "https://dc.lft.to/lastmile_qr_scan"}, "is_reserved": 0, "lon": -77.02658083333333, "fusion_lat": 0.0, "name": "2af0eabca5ab3708f99eb7af6e3ec0bb"}, {"type": "electric_scooter", "fusion_lon": 0.0, "bike_id": "3ee900f35364770e4d9ca6d9d3564ba2", "is_disabled": 0, "lat": 38.85950066666667, "rental_uris": {"ios": "https://dc.lft.to/lastmile_qr_scan", "android": "https://dc.lft.to/lastmile_qr_scan"}, "is_reserved": 0, "lon": -76.95884066666666, "fusion_lat": 0.0, "name": "3ee900f35364770e4d9ca6d9d3564ba2"}, {"type": "electric_scooter", "fusion_lon": 0.0, "bike_id": "bb211ff2d1c685ea5f35a42f13224ec4", "is_disabled": 0, "lat": 38.92086183333333, "rental_uris": {"ios": "https://dc.lft.to/lastmile_qr_scan", "android": "https://dc.lft.to/lastmile_qr_scan"}, "is_reserved": 0, "lon": -77.0230075, "fusion_lat": 0.0, "name": "bb211ff2d1c685ea5f35a42f13224ec4"}, {"type": "electric_scooter", "fusion_lon": 0.0, "bike_id": "78e32d6ee2e51c84648874b3584b8134", "is_disabled": 0, "lat": 38.9211055, "rental_uris": {"ios": "https://dc.lft.to/lastmile_qr_scan", "android": "https://dc.lft.to/lastmile_qr_scan"}, "is_reserved": 0, "lon": -77.0483115, "fusion_lat": 0.0, "name": "78e32d6ee2e51c84648874b3584b8134"}, {"type": "electric_scooter", "fusion_lon": 0.0, "bike_id": "618ac4e80b13814cc5b3a42c2059af72", "is_disabled": 0, "lat": 38.93223033333334, "rental_uris": {"ios": "https://dc.lft.to/lastmile_qr_scan", "android": "https://dc.lft.to/lastmile_qr_scan"}, "is_reserved": 0, "lon": -77.0238705, "fusion_lat": 0.0, "name": "618ac4e80b13814cc5b3a42c2059af72"}, {"type": "electric_scooter", "fusion_lon": 0.0, "bike_id": "e833c05e42782077c0981cddd0a56d77", "is_disabled": 0, "lat": 38.925021666666666, "rental_uris": {"ios": "https://dc.lft.to/lastmile_qr_scan", "android": "https://dc.lft.to/lastmile_qr_scan"}, "is_reserved": 0, "lon": -77.0216355, "fusion_lat": 0.0, "name": "e833c05e42782077c0981cddd0a56d77"}, {"type": "electric_scooter", "fusion_lon": 0.0, "bike_id": "7eeb70e1554e801e4f6d0fdabe226cef", "is_disabled": 0, "lat": 38.912582666666665, "rental_uris": {"ios": "https://dc.lft.to/lastmile_qr_scan", "android": "https://dc.lft.to/lastmile_qr_scan"}, "is_reserved": 0, "lon": -77.038668, "fusion_lat": 0.0, "name": "7eeb70e1554e801e4f6d0fdabe226cef"}, {"type": "electric_scooter", "fusion_lon": 0.0, "bike_id": "b5bd06a9c022d302773e71c6a9ef5919", "is_disabled": 0, "lat": 38.90652816666667, "rental_uris": {"ios": "https://dc.lft.to/lastmile_qr_scan", "android": "https://dc.lft.to/lastmile_qr_scan"}, "is_reserved": 0, "lon": -77.01140116666667, "fusion_lat": 0.0, "name": "b5bd06a9c022d302773e71c6a9ef5919"}, {"type": "electric_scooter", "fusion_lon": 0.0, "bike_id": "3f2026bf6031d3701ee1140f0f1c5708", "is_disabled": 0, "lat": 38.899471, "rental_uris": {"ios": "https://dc.lft.to/lastmile_qr_scan", "android": "https://dc.lft.to/lastmile_qr_scan"}, "is_reserved": 0, "lon": -77.044984, "fusion_lat": 0.0, "name": "3f2026bf6031d3701ee1140f0f1c5708"}, {"type": "electric_scooter", "fusion_lon": 0.0, "bike_id": "1cd1db2bdecb0f5dad2a256ebf262247", "is_disabled": 0, "lat": 38.892239833333335, "rental_uris": {"ios": "https://dc.lft.to/lastmile_qr_scan", "android": "https://dc.lft.to/lastmile_qr_scan"}, "is_reserved": 0, "lon": -77.04469733333333, "fusion_lat": 0.0, "name": "1cd1db2bdecb0f5dad2a256ebf262247"}, {"type": "electric_scooter", "fusion_lon": 0.0, "bike_id": "04120be2cfb02f05b8ddcf17a0f21778", "is_disabled": 0, "lat": 38.920694, "rental_uris": {"ios": "https://dc.lft.to/lastmile_qr_scan", "android": "https://dc.lft.to/lastmile_qr_scan"}, "is_reserved": 0, "lon": -77.04256183333334, "fusion_lat": 0.0, "name": "04120be2cfb02f05b8ddcf17a0f21778"}, {"type": "electric_bike", "fusion_lon": 0.0, "bike_id": "1d87a409513187020790376400684b9e", "is_disabled": 0, "lat": 38.82304166666667, "rental_uris": {"ios": "https://dc.lft.to/lastmile_qr_scan", "android": "https://dc.lft.to/lastmile_qr_scan"}, "is_reserved": 0, "lon": -77.08144316666667, "fusion_lat": 0.0, "name": "1d87a409513187020790376400684b9e"}, {"type": "electric_scooter", "fusion_lon": 0.0, "bike_id": "3ad70abe7aae6d2ccbedf7ae4a1da196", "is_disabled": 0, "lat": 38.89973083333334, "rental_uris": {"ios": "https://dc.lft.to/lastmile_qr_scan", "android": "https://dc.lft.to/lastmile_qr_scan"}, "is_reserved": 0, "lon": -77.01599716666666, "fusion_lat": 0.0, "name": "3ad70abe7aae6d2ccbedf7ae4a1da196"}, {"type": "electric_scooter", "fusion_lon": 0.0, "bike_id": "b943686f648144d5ff1198a845d3b94a", "is_disabled": 0, "lat": 38.923790833333335, "rental_uris": {"ios": "https://dc.lft.to/lastmile_qr_scan", "android": "https://dc.lft.to/lastmile_qr_scan"}, "is_reserved": 0, "lon": -77.03627233333333, "fusion_lat": 0.0, "name": "b943686f648144d5ff1198a845d3b94a"}, {"type": "electric_bike", "fusion_lon": 0.0, "bike_id": "aaabf2e9236ce4f1302b438cc89db798", "is_disabled": 0, "lat": 38.9669275, "rental_uris": {"ios": "https://dc.lft.to/lastmile_qr_scan", "android": "https://dc.lft.to/lastmile_qr_scan"}, "is_reserved": 0, "lon": -77.02285666666667, "fusion_lat": 0.0, "name": "aaabf2e9236ce4f1302b438cc89db798"}, {"type": "electric_scooter", "fusion_lon": 0.0, "bike_id": "109880f38b7d18eb236d99ea2aa554a3", "is_disabled": 0, "lat": 38.92568033333333, "rental_uris": {"ios": "https://dc.lft.to/lastmile_qr_scan", "android": "https://dc.lft.to/lastmile_qr_scan"}, "is_reserved": 0, "lon": -77.07881166666667, "fusion_lat": 0.0, "name": "109880f38b7d18eb236d99ea2aa554a3"}, {"type": "electric_scooter", "fusion_lon": 0.0, "bike_id": "13cc4979f02cbd94120655b1b8b2f150", "is_disabled": 0, "lat": 38.91936066666667, "rental_uris": {"ios": "https://dc.lft.to/lastmile_qr_scan", "android": "https://dc.lft.to/lastmile_qr_scan"}, "is_reserved": 0, "lon": -77.0488865, "fusion_lat": 0.0, "name": "13cc4979f02cbd94120655b1b8b2f150"}, {"type": "electric_bike", "fusion_lon": 0.0, "bike_id": "98db6a70d10510946b2c6d183f589efd", "is_disabled": 0, "lat": 38.9403385, "rental_uris": {"ios": "https://dc.lft.to/lastmile_qr_scan", "android": "https://dc.lft.to/lastmile_qr_scan"}, "is_reserved": 0, "lon": -76.9947595, "fusion_lat": 0.0, "name": "98db6a70d10510946b2c6d183f589efd"}, {"type": "electric_scooter", "fusion_lon": 0.0, "bike_id": "9d6fb725159eac7d7d007fa4e1829676", "is_disabled": 0, "lat": 38.92406666666667, "rental_uris": {"ios": "https://dc.lft.to/lastmile_qr_scan", "android": "https://dc.lft.to/lastmile_qr_scan"}, "is_reserved": 0, "lon": -77.0249255, "fusion_lat": 0.0, "name": "9d6fb725159eac7d7d007fa4e1829676"}, {"type": "electric_scooter", "fusion_lon": 0.0, "bike_id": "c6de04d7acda5b185ee590913b0f4a96", "is_disabled": 0, "lat": 38.919397000000004, "rental_uris": {"ios": "https://dc.lft.to/lastmile_qr_scan", "android": "https://dc.lft.to/lastmile_qr_scan"}, "is_reserved": 0, "lon": -77.025023, "fusion_lat": 0.0, "name": "c6de04d7acda5b185ee590913b0f4a96"}, {"type": "electric_scooter", "fusion_lon": 0.0, "bike_id": "8aff26939fb47641a80370b8582c6874", "is_disabled": 0, "lat": 38.93304633333333, "rental_uris": {"ios": "https://dc.lft.to/lastmile_qr_scan", "android": "https://dc.lft.to/lastmile_qr_scan"}, "is_reserved": 0, "lon": -77.0722325, "fusion_lat": 0.0, "name": "8aff26939fb47641a80370b8582c6874"}, {"type": "electric_scooter", "fusion_lon": 0.0, "bike_id": "9018278c5c611958de09e3f471349d28", "is_disabled": 0, "lat": 38.892226666666666, "rental_uris": {"ios": "https://dc.lft.to/lastmile_qr_scan", "android": "https://dc.lft.to/lastmile_qr_scan"}, "is_reserved": 0, "lon": -77.048078, "fusion_lat": 0.0, "name": "9018278c5c611958de09e3f471349d28"}, {"type": "electric_scooter", "fusion_lon": 0.0, "bike_id": "6d8cdf2f0f82af618b825efaabeb50fb", "is_disabled": 0, "lat": 38.920407166666664, "rental_uris": {"ios": "https://dc.lft.to/lastmile_qr_scan", "android": "https://dc.lft.to/lastmile_qr_scan"}, "is_reserved": 0, "lon": -77.04381183333334, "fusion_lat": 0.0, "name": "6d8cdf2f0f82af618b825efaabeb50fb"}, {"type": "electric_scooter", "fusion_lon": 0.0, "bike_id": "e79cb4603de3d963e4d0c551aeb90ae8", "is_disabled": 0, "lat": 38.90809383333333, "rental_uris": {"ios": "https://dc.lft.to/lastmile_qr_scan", "android": "https://dc.lft.to/lastmile_qr_scan"}, "is_reserved": 0, "lon": -77.04334333333334, "fusion_lat": 0.0, "name": "e79cb4603de3d963e4d0c551aeb90ae8"}, {"type": "electric_scooter", "fusion_lon": 0.0, "bike_id": "462e1b853146f58fa1d58f038f16928a", "is_disabled": 0, "lat": 38.914017333333334, "rental_uris": {"ios": "https://dc.lft.to/lastmile_qr_scan", "android": "https://dc.lft.to/lastmile_qr_scan"}, "is_reserved": 0, "lon": -77.06412566666667, "fusion_lat": 0.0, "name": "462e1b853146f58fa1d58f038f16928a"}, {"type": "electric_scooter", "fusion_lon": 0.0, "bike_id": "5304d68a5cbb0a3b9ecb85f6d874a88f", "is_disabled": 0, "lat": 38.9308775, "rental_uris": {"ios": "https://dc.lft.to/lastmile_qr_scan", "android": "https://dc.lft.to/lastmile_qr_scan"}, "is_reserved": 0, "lon": -77.02466633333333, "fusion_lat": 0.0, "name": "5304d68a5cbb0a3b9ecb85f6d874a88f"}, {"type": "electric_scooter", "fusion_lon": 0.0, "bike_id": "5aaeb63243c0f1d7520075acbb55ea5a", "is_disabled": 0, "lat": 38.92267666666667, "rental_uris": {"ios": "https://dc.lft.to/lastmile_qr_scan", "android": "https://dc.lft.to/lastmile_qr_scan"}, "is_reserved": 0, "lon": -77.0295885, "fusion_lat": 0.0, "name": "5aaeb63243c0f1d7520075acbb55ea5a"}, {"type": "electric_scooter", "fusion_lon": 0.0, "bike_id": "cbd119d84e1009aff3b572ccf72bb1ee", "is_disabled": 0, "lat": 38.91268316666667, "rental_uris": {"ios": "https://dc.lft.to/lastmile_qr_scan", "android": "https://dc.lft.to/lastmile_qr_scan"}, "is_reserved": 0, "lon": -77.02217, "fusion_lat": 0.0, "name": "cbd119d84e1009aff3b572ccf72bb1ee"}, {"type": "electric_scooter", "fusion_lon": 0.0, "bike_id": "96b6d32c995890f0a645ecb4a84e5046", "is_disabled": 0, "lat": 38.948318, "rental_uris": {"ios": "https://dc.lft.to/lastmile_qr_scan", "android": "https://dc.lft.to/lastmile_qr_scan"}, "is_reserved": 0, "lon": -77.0246335, "fusion_lat": 0.0, "name": "96b6d32c995890f0a645ecb4a84e5046"}, {"type": "electric_scooter", "fusion_lon": 0.0, "bike_id": "c5bd6a94121a54059e7e408cc646d3f1", "is_disabled": 0, "lat": 38.91530133333333, "rental_uris": {"ios": "https://dc.lft.to/lastmile_qr_scan", "android": "https://dc.lft.to/lastmile_qr_scan"}, "is_reserved": 0, "lon": -77.04441483333333, "fusion_lat": 0.0, "name": "c5bd6a94121a54059e7e408cc646d3f1"}, {"type": "electric_scooter", "fusion_lon": 0.0, "bike_id": "5f551321c0e259542151182c742462e9", "is_disabled": 0, "lat": 38.91829233333333, "rental_uris": {"ios": "https://dc.lft.to/lastmile_qr_scan", "android": "https://dc.lft.to/lastmile_qr_scan"}, "is_reserved": 0, "lon": -77.03679866666667, "fusion_lat": 0.0, "name": "5f551321c0e259542151182c742462e9"}, {"type": "electric_scooter", "fusion_lon": 0.0, "bike_id": "1697f63c2f576801e5d045a829c7695a", "is_disabled": 0, "lat": 38.901529333333336, "rental_uris": {"ios": "https://dc.lft.to/lastmile_qr_scan", "android": "https://dc.lft.to/lastmile_qr_scan"}, "is_reserved": 0, "lon": -77.04079866666666, "fusion_lat": 0.0, "name": "1697f63c2f576801e5d045a829c7695a"}, {"type": "electric_scooter", "fusion_lon": 0.0, "bike_id": "4654d46fa8e831ff130ac0d8b45f78cd", "is_disabled": 0, "lat": 38.9075635, "rental_uris": {"ios": "https://dc.lft.to/lastmile_qr_scan", "android": "https://dc.lft.to/lastmile_qr_scan"}, "is_reserved": 0, "lon": -77.03590266666667, "fusion_lat": 0.0, "name": "4654d46fa8e831ff130ac0d8b45f78cd"}, {"type": "electric_scooter", "fusion_lon": 0.0, "bike_id": "ac8ced6f351dce7898af8c3c5bc0b0e2", "is_disabled": 0, "lat": 38.923462, "rental_uris": {"ios": "https://dc.lft.to/lastmile_qr_scan", "android": "https://dc.lft.to/lastmile_qr_scan"}, "is_reserved": 0, "lon": -77.03633183333334, "fusion_lat": 0.0, "name": "ac8ced6f351dce7898af8c3c5bc0b0e2"}, {"type": "electric_scooter", "fusion_lon": 0.0, "bike_id": "006f8673e4cf6f3ec62b62746e31cba8", "is_disabled": 0, "lat": 38.90398233333333, "rental_uris": {"ios": "https://dc.lft.to/lastmile_qr_scan", "android": "https://dc.lft.to/lastmile_qr_scan"}, "is_reserved": 0, "lon": -77.01728883333334, "fusion_lat": 0.0, "name": "006f8673e4cf6f3ec62b62746e31cba8"}, {"type": "electric_scooter", "fusion_lon": 0.0, "bike_id": "04681b244cd79074fd234892598e359a", "is_disabled": 0, "lat": 38.904264, "rental_uris": {"ios": "https://dc.lft.to/lastmile_qr_scan", "android": "https://dc.lft.to/lastmile_qr_scan"}, "is_reserved": 0, "lon": -77.01839333333334, "fusion_lat": 0.0, "name": "04681b244cd79074fd234892598e359a"}, {"type": "electric_scooter", "fusion_lon": 0.0, "bike_id": "6602eb8d2d5ae9636a6017cdcac904ab", "is_disabled": 0, "lat": 38.89220983333333, "rental_uris": {"ios": "https://dc.lft.to/lastmile_qr_scan", "android": "https://dc.lft.to/lastmile_qr_scan"}, "is_reserved": 0, "lon": -77.03221316666666, "fusion_lat": 0.0, "name": "6602eb8d2d5ae9636a6017cdcac904ab"}, {"type": "electric_scooter", "fusion_lon": 0.0, "bike_id": "269f30c83de003b85844d491ce2f069d", "is_disabled": 0, "lat": 38.878687166666666, "rental_uris": {"ios": "https://dc.lft.to/lastmile_qr_scan", "android": "https://dc.lft.to/lastmile_qr_scan"}, "is_reserved": 0, "lon": -76.96257983333334, "fusion_lat": 0.0, "name": "269f30c83de003b85844d491ce2f069d"}, {"type": "electric_scooter", "fusion_lon": 0.0, "bike_id": "8d07868c7a67eeab94296000a5ec9831", "is_disabled": 0, "lat": 38.90574133333333, "rental_uris": {"ios": "https://dc.lft.to/lastmile_qr_scan", "android": "https://dc.lft.to/lastmile_qr_scan"}, "is_reserved": 0, "lon": -77.04339916666666, "fusion_lat": 0.0, "name": "8d07868c7a67eeab94296000a5ec9831"}, {"type": "electric_scooter", "fusion_lon": 0.0, "bike_id": "10a804d75e27cc6166392921645c5c6c", "is_disabled": 0, "lat": 38.91188533333333, "rental_uris": {"ios": "https://dc.lft.to/lastmile_qr_scan", "android": "https://dc.lft.to/lastmile_qr_scan"}, "is_reserved": 0, "lon": -77.04288766666667, "fusion_lat": 0.0, "name": "10a804d75e27cc6166392921645c5c6c"}, {"type": "electric_scooter", "fusion_lon": 0.0, "bike_id": "2676a2b86166cdf57ce03ccb58117dac", "is_disabled": 0, "lat": 38.91808433333333, "rental_uris": {"ios": "https://dc.lft.to/lastmile_qr_scan", "android": "https://dc.lft.to/lastmile_qr_scan"}, "is_reserved": 0, "lon": -77.0312825, "fusion_lat": 0.0, "name": "2676a2b86166cdf57ce03ccb58117dac"}, {"type": "electric_scooter", "fusion_lon": 0.0, "bike_id": "1177db76411d1b67907d01b97268797a", "is_disabled": 0, "lat": 38.893294166666664, "rental_uris": {"ios": "https://dc.lft.to/lastmile_qr_scan", "android": "https://dc.lft.to/lastmile_qr_scan"}, "is_reserved": 0, "lon": -77.03185633333334, "fusion_lat": 0.0, "name": "1177db76411d1b67907d01b97268797a"}, {"type": "electric_scooter", "fusion_lon": 0.0, "bike_id": "bffcd869d7ba04abb62471237988d547", "is_disabled": 0, "lat": 38.90955866666667, "rental_uris": {"ios": "https://dc.lft.to/lastmile_qr_scan", "android": "https://dc.lft.to/lastmile_qr_scan"}, "is_reserved": 0, "lon": -77.04085016666667, "fusion_lat": 0.0, "name": "bffcd869d7ba04abb62471237988d547"}, {"type": "electric_scooter", "fusion_lon": 0.0, "bike_id": "16d9d2da3ed988921c92254d4638fc94", "is_disabled": 0, "lat": 38.928081, "rental_uris": {"ios": "https://dc.lft.to/lastmile_qr_scan", "android": "https://dc.lft.to/lastmile_qr_scan"}, "is_reserved": 0, "lon": -77.05429633333334, "fusion_lat": 0.0, "name": "16d9d2da3ed988921c92254d4638fc94"}, {"type": "electric_scooter", "fusion_lon": 0.0, "bike_id": "685bbd8630cbd6398bf3885bedc8ee53", "is_disabled": 0, "lat": 38.902033833333334, "rental_uris": {"ios": "https://dc.lft.to/lastmile_qr_scan", "android": "https://dc.lft.to/lastmile_qr_scan"}, "is_reserved": 0, "lon": -77.02187466666666, "fusion_lat": 0.0, "name": "685bbd8630cbd6398bf3885bedc8ee53"}, {"type": "electric_scooter", "fusion_lon": 0.0, "bike_id": "d41174ae6c45a44a0486c8454132b028", "is_disabled": 0, "lat": 38.9003495, "rental_uris": {"ios": "https://dc.lft.to/lastmile_qr_scan", "android": "https://dc.lft.to/lastmile_qr_scan"}, "is_reserved": 0, "lon": -77.0019785, "fusion_lat": 0.0, "name": "d41174ae6c45a44a0486c8454132b028"}, {"type": "electric_scooter", "fusion_lon": 0.0, "bike_id": "dd2f93817fea00ca54412f04f0e60861", "is_disabled": 0, "lat": 38.897675166666666, "rental_uris": {"ios": "https://dc.lft.to/lastmile_qr_scan", "android": "https://dc.lft.to/lastmile_qr_scan"}, "is_reserved": 0, "lon": -76.9257985, "fusion_lat": 0.0, "name": "dd2f93817fea00ca54412f04f0e60861"}, {"type": "electric_scooter", "fusion_lon": 0.0, "bike_id": "00839dff46b559239933ad6db5538ba6", "is_disabled": 0, "lat": 38.93425633333333, "rental_uris": {"ios": "https://dc.lft.to/lastmile_qr_scan", "android": "https://dc.lft.to/lastmile_qr_scan"}, "is_reserved": 0, "lon": -77.04005133333334, "fusion_lat": 0.0, "name": "00839dff46b559239933ad6db5538ba6"}, {"type": "electric_scooter", "fusion_lon": 0.0, "bike_id": "6284cdb6f071cb603e6dd55538499c66", "is_disabled": 0, "lat": 38.93855166666667, "rental_uris": {"ios": "https://dc.lft.to/lastmile_qr_scan", "android": "https://dc.lft.to/lastmile_qr_scan"}, "is_reserved": 0, "lon": -77.0339625, "fusion_lat": 0.0, "name": "6284cdb6f071cb603e6dd55538499c66"}, {"type": "electric_scooter", "fusion_lon": 0.0, "bike_id": "0b4f9ab2a0253a473add562258716c6f", "is_disabled": 0, "lat": 38.90038783333333, "rental_uris": {"ios": "https://dc.lft.to/lastmile_qr_scan", "android": "https://dc.lft.to/lastmile_qr_scan"}, "is_reserved": 0, "lon": -76.99656, "fusion_lat": 0.0, "name": "0b4f9ab2a0253a473add562258716c6f"}, {"type": "electric_scooter", "fusion_lon": 0.0, "bike_id": "e1abea7afbe2f31e5695934b8b74afa3", "is_disabled": 0, "lat": 38.935422, "rental_uris": {"ios": "https://dc.lft.to/lastmile_qr_scan", "android": "https://dc.lft.to/lastmile_qr_scan"}, "is_reserved": 0, "lon": -77.03424983333333, "fusion_lat": 0.0, "name": "e1abea7afbe2f31e5695934b8b74afa3"}, {"type": "electric_scooter", "fusion_lon": 0.0, "bike_id": "b241d0f37c5001ddcf9849adf5a643ae", "is_disabled": 0, "lat": 38.925494, "rental_uris": {"ios": "https://dc.lft.to/lastmile_qr_scan", "android": "https://dc.lft.to/lastmile_qr_scan"}, "is_reserved": 0, "lon": -77.03846783333333, "fusion_lat": 0.0, "name": "b241d0f37c5001ddcf9849adf5a643ae"}, {"type": "electric_scooter", "fusion_lon": 0.0, "bike_id": "9c6e0dd2edb21418b7dca1fa03dac088", "is_disabled": 0, "lat": 38.91967066666667, "rental_uris": {"ios": "https://dc.lft.to/lastmile_qr_scan", "android": "https://dc.lft.to/lastmile_qr_scan"}, "is_reserved": 0, "lon": -77.04864066666667, "fusion_lat": 0.0, "name": "9c6e0dd2edb21418b7dca1fa03dac088"}, {"type": "electric_scooter", "fusion_lon": 0.0, "bike_id": "b9550d5aeb15613592f5cd6467928a5b", "is_disabled": 0, "lat": 38.89269866666667, "rental_uris": {"ios": "https://dc.lft.to/lastmile_qr_scan", "android": "https://dc.lft.to/lastmile_qr_scan"}, "is_reserved": 0, "lon": -77.0421, "fusion_lat": 0.0, "name": "b9550d5aeb15613592f5cd6467928a5b"}, {"type": "electric_scooter", "fusion_lon": 0.0, "bike_id": "b318566592852537f93d56f8bb812bdc", "is_disabled": 0, "lat": 38.917227833333335, "rental_uris": {"ios": "https://dc.lft.to/lastmile_qr_scan", "android": "https://dc.lft.to/lastmile_qr_scan"}, "is_reserved": 0, "lon": -77.04600483333333, "fusion_lat": 0.0, "name": "b318566592852537f93d56f8bb812bdc"}, {"type": "electric_scooter", "fusion_lon": 0.0, "bike_id": "00062638c379376a4a88415886682501", "is_disabled": 0, "lat": 38.9282145, "rental_uris": {"ios": "https://dc.lft.to/lastmile_qr_scan", "android": "https://dc.lft.to/lastmile_qr_scan"}, "is_reserved": 0, "lon": -77.02263683333334, "fusion_lat": 0.0, "name": "00062638c379376a4a88415886682501"}, {"type": "electric_scooter", "fusion_lon": 0.0, "bike_id": "cd9373f4f8e8478b5571be437321e4a6", "is_disabled": 0, "lat": 38.92051416666666, "rental_uris": {"ios": "https://dc.lft.to/lastmile_qr_scan", "android": "https://dc.lft.to/lastmile_qr_scan"}, "is_reserved": 0, "lon": -77.04185916666667, "fusion_lat": 0.0, "name": "cd9373f4f8e8478b5571be437321e4a6"}, {"type": "electric_scooter", "fusion_lon": 0.0, "bike_id": "56d16cd02984ff7fb4f23fb8ec754c65", "is_disabled": 0, "lat": 38.922682, "rental_uris": {"ios": "https://dc.lft.to/lastmile_qr_scan", "android": "https://dc.lft.to/lastmile_qr_scan"}, "is_reserved": 0, "lon": -77.01923466666666, "fusion_lat": 0.0, "name": "56d16cd02984ff7fb4f23fb8ec754c65"}, {"type": "electric_scooter", "fusion_lon": 0.0, "bike_id": "f83fac81038c9130bc73e6d39ad3b689", "is_disabled": 0, "lat": 38.909769833333335, "rental_uris": {"ios": "https://dc.lft.to/lastmile_qr_scan", "android": "https://dc.lft.to/lastmile_qr_scan"}, "is_reserved": 0, "lon": -77.0344385, "fusion_lat": 0.0, "name": "f83fac81038c9130bc73e6d39ad3b689"}, {"type": "electric_scooter", "fusion_lon": 0.0, "bike_id": "b0d476c981bf58a7e578157a2866adb5", "is_disabled": 0, "lat": 38.90975366666667, "rental_uris": {"ios": "https://dc.lft.to/lastmile_qr_scan", "android": "https://dc.lft.to/lastmile_qr_scan"}, "is_reserved": 0, "lon": -77.03844066666667, "fusion_lat": 0.0, "name": "b0d476c981bf58a7e578157a2866adb5"}, {"type": "electric_scooter", "fusion_lon": 0.0, "bike_id": "1269337e4090c611fc2856dd72e88eb0", "is_disabled": 0, "lat": 38.892251, "rental_uris": {"ios": "https://dc.lft.to/lastmile_qr_scan", "android": "https://dc.lft.to/lastmile_qr_scan"}, "is_reserved": 0, "lon": -77.04864633333334, "fusion_lat": 0.0, "name": "1269337e4090c611fc2856dd72e88eb0"}, {"type": "electric_scooter", "fusion_lon": 0.0, "bike_id": "188dda492ab61c68514b69e9bf713bd0", "is_disabled": 0, "lat": 38.9203155, "rental_uris": {"ios": "https://dc.lft.to/lastmile_qr_scan", "android": "https://dc.lft.to/lastmile_qr_scan"}, "is_reserved": 0, "lon": -77.03144, "fusion_lat": 0.0, "name": "188dda492ab61c68514b69e9bf713bd0"}, {"type": "electric_scooter", "fusion_lon": 0.0, "bike_id": "d6aa28c2248ea82bcb5b2fb82a153744", "is_disabled": 0, "lat": 38.91949366666667, "rental_uris": {"ios": "https://dc.lft.to/lastmile_qr_scan", "android": "https://dc.lft.to/lastmile_qr_scan"}, "is_reserved": 0, "lon": -77.0248, "fusion_lat": 0.0, "name": "d6aa28c2248ea82bcb5b2fb82a153744"}, {"type": "electric_scooter", "fusion_lon": 0.0, "bike_id": "b3851a0e1dfa180140b318032e726599", "is_disabled": 0, "lat": 38.908415, "rental_uris": {"ios": "https://dc.lft.to/lastmile_qr_scan", "android": "https://dc.lft.to/lastmile_qr_scan"}, "is_reserved": 0, "lon": -77.0362895, "fusion_lat": 0.0, "name": "b3851a0e1dfa180140b318032e726599"}, {"type": "electric_scooter", "fusion_lon": 0.0, "bike_id": "16135f766631ecf8044159495b1b4a74", "is_disabled": 0, "lat": 38.924567333333336, "rental_uris": {"ios": "https://dc.lft.to/lastmile_qr_scan", "android": "https://dc.lft.to/lastmile_qr_scan"}, "is_reserved": 0, "lon": -77.03297433333333, "fusion_lat": 0.0, "name": "16135f766631ecf8044159495b1b4a74"}, {"type": "electric_scooter", "fusion_lon": 0.0, "bike_id": "0f1925302174de32f0c4b7fcbd2a77f9", "is_disabled": 0, "lat": 38.920424, "rental_uris": {"ios": "https://dc.lft.to/lastmile_qr_scan", "android": "https://dc.lft.to/lastmile_qr_scan"}, "is_reserved": 0, "lon": -77.02462383333334, "fusion_lat": 0.0, "name": "0f1925302174de32f0c4b7fcbd2a77f9"}, {"type": "electric_scooter", "fusion_lon": 0.0, "bike_id": "5a5f9f29cce85d171d44b5dce4fa7249", "is_disabled": 0, "lat": 38.88681166666667, "rental_uris": {"ios": "https://dc.lft.to/lastmile_qr_scan", "android": "https://dc.lft.to/lastmile_qr_scan"}, "is_reserved": 0, "lon": -77.0020005, "fusion_lat": 0.0, "name": "5a5f9f29cce85d171d44b5dce4fa7249"}, {"type": "electric_scooter", "fusion_lon": 0.0, "bike_id": "d9832cc6664fef7d349fbadc04e7d479", "is_disabled": 0, "lat": 38.89292833333333, "rental_uris": {"ios": "https://dc.lft.to/lastmile_qr_scan", "android": "https://dc.lft.to/lastmile_qr_scan"}, "is_reserved": 0, "lon": -76.95095516666666, "fusion_lat": 0.0, "name": "d9832cc6664fef7d349fbadc04e7d479"}, {"type": "electric_scooter", "fusion_lon": 0.0, "bike_id": "6a34091c210bd819c4ed2410583ecdc3", "is_disabled": 0, "lat": 38.9580285, "rental_uris": {"ios": "https://dc.lft.to/lastmile_qr_scan", "android": "https://dc.lft.to/lastmile_qr_scan"}, "is_reserved": 0, "lon": -77.01514366666666, "fusion_lat": 0.0, "name": "6a34091c210bd819c4ed2410583ecdc3"}, {"type": "electric_scooter", "fusion_lon": 0.0, "bike_id": "d792aa391ae47ca144ec5cc4e5cd714a", "is_disabled": 0, "lat": 38.8850625, "rental_uris": {"ios": "https://dc.lft.to/lastmile_qr_scan", "android": "https://dc.lft.to/lastmile_qr_scan"}, "is_reserved": 0, "lon": -77.02080366666667, "fusion_lat": 0.0, "name": "d792aa391ae47ca144ec5cc4e5cd714a"}, {"type": "electric_scooter", "fusion_lon": 0.0, "bike_id": "ab4966fd352deaccdce658c55956465d", "is_disabled": 0, "lat": 38.920120833333335, "rental_uris": {"ios": "https://dc.lft.to/lastmile_qr_scan", "android": "https://dc.lft.to/lastmile_qr_scan"}, "is_reserved": 0, "lon": -77.03225066666667, "fusion_lat": 0.0, "name": "ab4966fd352deaccdce658c55956465d"}, {"type": "electric_bike", "fusion_lon": 0.0, "bike_id": "fb9b63e2451810d5d9e043508659e61b", "is_disabled": 0, "lat": 39.00003933333333, "rental_uris": {"ios": "https://dc.lft.to/lastmile_qr_scan", "android": "https://dc.lft.to/lastmile_qr_scan"}, "is_reserved": 0, "lon": -76.918082, "fusion_lat": 0.0, "name": "fb9b63e2451810d5d9e043508659e61b"}, {"type": "electric_scooter", "fusion_lon": 0.0, "bike_id": "5d51e273f256de4b9abe7a93c6c09976", "is_disabled": 0, "lat": 38.90135716666666, "rental_uris": {"ios": "https://dc.lft.to/lastmile_qr_scan", "android": "https://dc.lft.to/lastmile_qr_scan"}, "is_reserved": 0, "lon": -77.04432983333334, "fusion_lat": 0.0, "name": "5d51e273f256de4b9abe7a93c6c09976"}, {"type": "electric_scooter", "fusion_lon": 0.0, "bike_id": "8baad43aa4519f3b1f5aeadb1af590a2", "is_disabled": 0, "lat": 38.92680816666667, "rental_uris": {"ios": "https://dc.lft.to/lastmile_qr_scan", "android": "https://dc.lft.to/lastmile_qr_scan"}, "is_reserved": 0, "lon": -77.0360745, "fusion_lat": 0.0, "name": "8baad43aa4519f3b1f5aeadb1af590a2"}, {"type": "electric_scooter", "fusion_lon": 0.0, "bike_id": "241435a629fb6f30145f062b8008ee7d", "is_disabled": 0, "lat": 38.921617833333336, "rental_uris": {"ios": "https://dc.lft.to/lastmile_qr_scan", "android": "https://dc.lft.to/lastmile_qr_scan"}, "is_reserved": 0, "lon": -77.04696866666667, "fusion_lat": 0.0, "name": "241435a629fb6f30145f062b8008ee7d"}, {"type": "electric_scooter", "fusion_lon": 0.0, "bike_id": "8b559949a3a8f71639bb222b1575c601", "is_disabled": 0, "lat": 38.94234316666667, "rental_uris": {"ios": "https://dc.lft.to/lastmile_qr_scan", "android": "https://dc.lft.to/lastmile_qr_scan"}, "is_reserved": 0, "lon": -77.03872466666667, "fusion_lat": 0.0, "name": "8b559949a3a8f71639bb222b1575c601"}, {"type": "electric_scooter", "fusion_lon": 0.0, "bike_id": "0608378ee5301a4c400baded07ac1092", "is_disabled": 0, "lat": 38.91346566666667, "rental_uris": {"ios": "https://dc.lft.to/lastmile_qr_scan", "android": "https://dc.lft.to/lastmile_qr_scan"}, "is_reserved": 0, "lon": -77.032025, "fusion_lat": 0.0, "name": "0608378ee5301a4c400baded07ac1092"}, {"type": "electric_bike", "fusion_lon": 0.0, "bike_id": "c326746d3a71878340b0871b959fc0b2", "is_disabled": 0, "lat": 38.88488616666667, "rental_uris": {"ios": "https://dc.lft.to/lastmile_qr_scan", "android": "https://dc.lft.to/lastmile_qr_scan"}, "is_reserved": 0, "lon": -76.95761816666666, "fusion_lat": 0.0, "name": "c326746d3a71878340b0871b959fc0b2"}, {"type": "electric_scooter", "fusion_lon": 0.0, "bike_id": "6af99681a556f8c4fc5da2b5218a3503", "is_disabled": 0, "lat": 38.923934, "rental_uris": {"ios": "https://dc.lft.to/lastmile_qr_scan", "android": "https://dc.lft.to/lastmile_qr_scan"}, "is_reserved": 0, "lon": -77.03409216666667, "fusion_lat": 0.0, "name": "6af99681a556f8c4fc5da2b5218a3503"}, {"type": "electric_scooter", "fusion_lon": 0.0, "bike_id": "f01e1d9e4b95bc7b05a2b1934f6e0b62", "is_disabled": 0, "lat": 38.8871875, "rental_uris": {"ios": "https://dc.lft.to/lastmile_qr_scan", "android": "https://dc.lft.to/lastmile_qr_scan"}, "is_reserved": 0, "lon": -77.02202716666666, "fusion_lat": 0.0, "name": "f01e1d9e4b95bc7b05a2b1934f6e0b62"}, {"type": "electric_scooter", "fusion_lon": 0.0, "bike_id": "3ae3037532640b682d45b94b432f0036", "is_disabled": 0, "lat": 38.90555483333333, "rental_uris": {"ios": "https://dc.lft.to/lastmile_qr_scan", "android": "https://dc.lft.to/lastmile_qr_scan"}, "is_reserved": 0, "lon": -77.03480316666666, "fusion_lat": 0.0, "name": "3ae3037532640b682d45b94b432f0036"}, {"type": "electric_scooter", "fusion_lon": 0.0, "bike_id": "eacabc1c08e46ae6becc7aa1ae563118", "is_disabled": 0, "lat": 38.90548883333334, "rental_uris": {"ios": "https://dc.lft.to/lastmile_qr_scan", "android": "https://dc.lft.to/lastmile_qr_scan"}, "is_reserved": 0, "lon": -76.99471516666667, "fusion_lat": 0.0, "name": "eacabc1c08e46ae6becc7aa1ae563118"}, {"type": "electric_scooter", "fusion_lon": 0.0, "bike_id": "741bd5945485c2d5a604624d7d0b11cf", "is_disabled": 0, "lat": 38.887234166666666, "rental_uris": {"ios": "https://dc.lft.to/lastmile_qr_scan", "android": "https://dc.lft.to/lastmile_qr_scan"}, "is_reserved": 0, "lon": -76.98357916666667, "fusion_lat": 0.0, "name": "741bd5945485c2d5a604624d7d0b11cf"}, {"type": "electric_scooter", "fusion_lon": 0.0, "bike_id": "7de8a0b04c6e51bda4fdae7a59f6b502", "is_disabled": 0, "lat": 38.915618, "rental_uris": {"ios": "https://dc.lft.to/lastmile_qr_scan", "android": "https://dc.lft.to/lastmile_qr_scan"}, "is_reserved": 0, "lon": -77.03838666666667, "fusion_lat": 0.0, "name": "7de8a0b04c6e51bda4fdae7a59f6b502"}, {"type": "electric_scooter", "fusion_lon": 0.0, "bike_id": "40f81f3e91e28ad42cae1c34c04d1342", "is_disabled": 0, "lat": 38.914397666666666, "rental_uris": {"ios": "https://dc.lft.to/lastmile_qr_scan", "android": "https://dc.lft.to/lastmile_qr_scan"}, "is_reserved": 0, "lon": -77.041858, "fusion_lat": 0.0, "name": "40f81f3e91e28ad42cae1c34c04d1342"}, {"type": "electric_scooter", "fusion_lon": 0.0, "bike_id": "cd122d50d487ba4bf2d1f10ecbd5fffb", "is_disabled": 0, "lat": 38.90774966666667, "rental_uris": {"ios": "https://dc.lft.to/lastmile_qr_scan", "android": "https://dc.lft.to/lastmile_qr_scan"}, "is_reserved": 0, "lon": -77.04497166666667, "fusion_lat": 0.0, "name": "cd122d50d487ba4bf2d1f10ecbd5fffb"}, {"type": "electric_scooter", "fusion_lon": 0.0, "bike_id": "1ccc11229767e48804b3aae542aeaf4d", "is_disabled": 0, "lat": 38.92792816666667, "rental_uris": {"ios": "https://dc.lft.to/lastmile_qr_scan", "android": "https://dc.lft.to/lastmile_qr_scan"}, "is_reserved": 0, "lon": -77.036962, "fusion_lat": 0.0, "name": "1ccc11229767e48804b3aae542aeaf4d"}, {"type": "electric_scooter", "fusion_lon": 0.0, "bike_id": "387dc5e80bde7e8b0ccc1ce7492b1dcd", "is_disabled": 0, "lat": 38.92091416666667, "rental_uris": {"ios": "https://dc.lft.to/lastmile_qr_scan", "android": "https://dc.lft.to/lastmile_qr_scan"}, "is_reserved": 0, "lon": -77.075544, "fusion_lat": 0.0, "name": "387dc5e80bde7e8b0ccc1ce7492b1dcd"}, {"type": "electric_scooter", "fusion_lon": 0.0, "bike_id": "6f12cbfd0fe61262782bc7304db4c91c", "is_disabled": 0, "lat": 38.87604133333333, "rental_uris": {"ios": "https://dc.lft.to/lastmile_qr_scan", "android": "https://dc.lft.to/lastmile_qr_scan"}, "is_reserved": 0, "lon": -77.00085366666667, "fusion_lat": 0.0, "name": "6f12cbfd0fe61262782bc7304db4c91c"}, {"type": "electric_scooter", "fusion_lon": 0.0, "bike_id": "0843b5c5e587fe00f08ac7ca629129c3", "is_disabled": 0, "lat": 38.90226233333333, "rental_uris": {"ios": "https://dc.lft.to/lastmile_qr_scan", "android": "https://dc.lft.to/lastmile_qr_scan"}, "is_reserved": 0, "lon": -76.9419835, "fusion_lat": 0.0, "name": "0843b5c5e587fe00f08ac7ca629129c3"}, {"type": "electric_scooter", "fusion_lon": 0.0, "bike_id": "a48fb9b14b2d179fe6f6c3aa20d20211", "is_disabled": 0, "lat": 38.9080885, "rental_uris": {"ios": "https://dc.lft.to/lastmile_qr_scan", "android": "https://dc.lft.to/lastmile_qr_scan"}, "is_reserved": 0, "lon": -77.04347683333333, "fusion_lat": 0.0, "name": "a48fb9b14b2d179fe6f6c3aa20d20211"}, {"type": "electric_scooter", "fusion_lon": 0.0, "bike_id": "400562a6f43fc3df86dc176b33c7eff8", "is_disabled": 0, "lat": 38.9148785, "rental_uris": {"ios": "https://dc.lft.to/lastmile_qr_scan", "android": "https://dc.lft.to/lastmile_qr_scan"}, "is_reserved": 0, "lon": -77.02585816666667, "fusion_lat": 0.0, "name": "400562a6f43fc3df86dc176b33c7eff8"}, {"type": "electric_scooter", "fusion_lon": 0.0, "bike_id": "532a02028a31ad9a18953015a648fa04", "is_disabled": 0, "lat": 38.912563166666665, "rental_uris": {"ios": "https://dc.lft.to/lastmile_qr_scan", "android": "https://dc.lft.to/lastmile_qr_scan"}, "is_reserved": 0, "lon": -77.03863683333333, "fusion_lat": 0.0, "name": "532a02028a31ad9a18953015a648fa04"}, {"type": "electric_scooter", "fusion_lon": 0.0, "bike_id": "95d58115afa9ae21b056dd3e73aac286", "is_disabled": 0, "lat": 38.9270175, "rental_uris": {"ios": "https://dc.lft.to/lastmile_qr_scan", "android": "https://dc.lft.to/lastmile_qr_scan"}, "is_reserved": 0, "lon": -77.02391433333334, "fusion_lat": 0.0, "name": "95d58115afa9ae21b056dd3e73aac286"}, {"type": "electric_scooter", "fusion_lon": 0.0, "bike_id": "5a3b22002d26003e0c258ed44cb75da7", "is_disabled": 0, "lat": 38.884473, "rental_uris": {"ios": "https://dc.lft.to/lastmile_qr_scan", "android": "https://dc.lft.to/lastmile_qr_scan"}, "is_reserved": 0, "lon": -76.9422705, "fusion_lat": 0.0, "name": "5a3b22002d26003e0c258ed44cb75da7"}, {"type": "electric_scooter", "fusion_lon": 0.0, "bike_id": "2e377083e8c5d2fd0532c5fc1120e2ad", "is_disabled": 0, "lat": 38.91763483333333, "rental_uris": {"ios": "https://dc.lft.to/lastmile_qr_scan", "android": "https://dc.lft.to/lastmile_qr_scan"}, "is_reserved": 0, "lon": -77.0230235, "fusion_lat": 0.0, "name": "2e377083e8c5d2fd0532c5fc1120e2ad"}, {"type": "electric_scooter", "fusion_lon": 0.0, "bike_id": "977cf1dbd98f07a2f789113cd247c5c7", "is_disabled": 0, "lat": 38.921937166666666, "rental_uris": {"ios": "https://dc.lft.to/lastmile_qr_scan", "android": "https://dc.lft.to/lastmile_qr_scan"}, "is_reserved": 0, "lon": -77.04700766666667, "fusion_lat": 0.0, "name": "977cf1dbd98f07a2f789113cd247c5c7"}, {"type": "electric_scooter", "fusion_lon": 0.0, "bike_id": "bbee2bd08c8dec1940991119ed5e88aa", "is_disabled": 0, "lat": 38.921439, "rental_uris": {"ios": "https://dc.lft.to/lastmile_qr_scan", "android": "https://dc.lft.to/lastmile_qr_scan"}, "is_reserved": 0, "lon": -77.07400816666667, "fusion_lat": 0.0, "name": "bbee2bd08c8dec1940991119ed5e88aa"}, {"type": "electric_scooter", "fusion_lon": 0.0, "bike_id": "7cfdfa0f2b6174f5bf6e167df36fe05d", "is_disabled": 0, "lat": 38.9230745, "rental_uris": {"ios": "https://dc.lft.to/lastmile_qr_scan", "android": "https://dc.lft.to/lastmile_qr_scan"}, "is_reserved": 0, "lon": -77.04264233333333, "fusion_lat": 0.0, "name": "7cfdfa0f2b6174f5bf6e167df36fe05d"}, {"type": "electric_scooter", "fusion_lon": 0.0, "bike_id": "702c23488fee969b4ce353b901665c4e", "is_disabled": 0, "lat": 38.903741, "rental_uris": {"ios": "https://dc.lft.to/lastmile_qr_scan", "android": "https://dc.lft.to/lastmile_qr_scan"}, "is_reserved": 0, "lon": -76.99508883333333, "fusion_lat": 0.0, "name": "702c23488fee969b4ce353b901665c4e"}, {"type": "electric_scooter", "fusion_lon": 0.0, "bike_id": "0334e7cc5de83e92c4f56e83d1cd82db", "is_disabled": 0, "lat": 38.9199445, "rental_uris": {"ios": "https://dc.lft.to/lastmile_qr_scan", "android": "https://dc.lft.to/lastmile_qr_scan"}, "is_reserved": 0, "lon": -77.01778466666667, "fusion_lat": 0.0, "name": "0334e7cc5de83e92c4f56e83d1cd82db"}, {"type": "electric_scooter", "fusion_lon": 0.0, "bike_id": "b49e22dbd6fa83cadfabf85b5dedc429", "is_disabled": 0, "lat": 38.87796083333333, "rental_uris": {"ios": "https://dc.lft.to/lastmile_qr_scan", "android": "https://dc.lft.to/lastmile_qr_scan"}, "is_reserved": 0, "lon": -77.00734716666666, "fusion_lat": 0.0, "name": "b49e22dbd6fa83cadfabf85b5dedc429"}, {"type": "electric_scooter", "fusion_lon": 0.0, "bike_id": "5e9c8a2b67cc4db9c89a10aa930f7e95", "is_disabled": 0, "lat": 38.907361333333334, "rental_uris": {"ios": "https://dc.lft.to/lastmile_qr_scan", "android": "https://dc.lft.to/lastmile_qr_scan"}, "is_reserved": 0, "lon": -77.04481116666666, "fusion_lat": 0.0, "name": "5e9c8a2b67cc4db9c89a10aa930f7e95"}, {"type": "electric_scooter", "fusion_lon": 0.0, "bike_id": "97abf3bf7ecee9fce74ab6d6346d4074", "is_disabled": 0, "lat": 38.875489333333334, "rental_uris": {"ios": "https://dc.lft.to/lastmile_qr_scan", "android": "https://dc.lft.to/lastmile_qr_scan"}, "is_reserved": 0, "lon": -77.00543066666667, "fusion_lat": 0.0, "name": "97abf3bf7ecee9fce74ab6d6346d4074"}, {"type": "electric_scooter", "fusion_lon": 0.0, "bike_id": "94d9fd98450ea1442042e0cce6e69ff1", "is_disabled": 0, "lat": 38.916087166666664, "rental_uris": {"ios": "https://dc.lft.to/lastmile_qr_scan", "android": "https://dc.lft.to/lastmile_qr_scan"}, "is_reserved": 0, "lon": -77.04370083333333, "fusion_lat": 0.0, "name": "94d9fd98450ea1442042e0cce6e69ff1"}, {"type": "electric_scooter", "fusion_lon": 0.0, "bike_id": "c97342ec48b0218553293b0aedd3a238", "is_disabled": 0, "lat": 38.8601105, "rental_uris": {"ios": "https://dc.lft.to/lastmile_qr_scan", "android": "https://dc.lft.to/lastmile_qr_scan"}, "is_reserved": 0, "lon": -76.967055, "fusion_lat": 0.0, "name": "c97342ec48b0218553293b0aedd3a238"}, {"type": "electric_scooter", "fusion_lon": 0.0, "bike_id": "5817ea1c919e615c20415faa832f3407", "is_disabled": 0, "lat": 38.892237, "rental_uris": {"ios": "https://dc.lft.to/lastmile_qr_scan", "android": "https://dc.lft.to/lastmile_qr_scan"}, "is_reserved": 0, "lon": -77.04865233333334, "fusion_lat": 0.0, "name": "5817ea1c919e615c20415faa832f3407"}, {"type": "electric_scooter", "fusion_lon": 0.0, "bike_id": "fdefb27f3f3f407917a6bf2175499caa", "is_disabled": 0, "lat": 38.91568083333333, "rental_uris": {"ios": "https://dc.lft.to/lastmile_qr_scan", "android": "https://dc.lft.to/lastmile_qr_scan"}, "is_reserved": 0, "lon": -77.03732466666666, "fusion_lat": 0.0, "name": "fdefb27f3f3f407917a6bf2175499caa"}, {"type": "electric_scooter", "fusion_lon": 0.0, "bike_id": "9a1b54fa53e148e712b7bd2d3243f2d8", "is_disabled": 0, "lat": 38.941954333333335, "rental_uris": {"ios": "https://dc.lft.to/lastmile_qr_scan", "android": "https://dc.lft.to/lastmile_qr_scan"}, "is_reserved": 0, "lon": -77.03329033333333, "fusion_lat": 0.0, "name": "9a1b54fa53e148e712b7bd2d3243f2d8"}, {"type": "electric_scooter", "fusion_lon": 0.0, "bike_id": "2d5395734dd536c94f75001b1ab5aa22", "is_disabled": 0, "lat": 38.8952505, "rental_uris": {"ios": "https://dc.lft.to/lastmile_qr_scan", "android": "https://dc.lft.to/lastmile_qr_scan"}, "is_reserved": 0, "lon": -77.03938666666667, "fusion_lat": 0.0, "name": "2d5395734dd536c94f75001b1ab5aa22"}, {"type": "electric_scooter", "fusion_lon": 0.0, "bike_id": "71eb4487ca0641260325088a8c009d01", "is_disabled": 0, "lat": 38.900253, "rental_uris": {"ios": "https://dc.lft.to/lastmile_qr_scan", "android": "https://dc.lft.to/lastmile_qr_scan"}, "is_reserved": 0, "lon": -77.0371945, "fusion_lat": 0.0, "name": "71eb4487ca0641260325088a8c009d01"}, {"type": "electric_scooter", "fusion_lon": 0.0, "bike_id": "0cc916d6f155b025c61defbe50a343f7", "is_disabled": 0, "lat": 38.918455333333334, "rental_uris": {"ios": "https://dc.lft.to/lastmile_qr_scan", "android": "https://dc.lft.to/lastmile_qr_scan"}, "is_reserved": 0, "lon": -77.045492, "fusion_lat": 0.0, "name": "0cc916d6f155b025c61defbe50a343f7"}, {"type": "electric_scooter", "fusion_lon": 0.0, "bike_id": "773ff1bfb344b0249edc3efcee43015b", "is_disabled": 0, "lat": 38.98430166666667, "rental_uris": {"ios": "https://dc.lft.to/lastmile_qr_scan", "android": "https://dc.lft.to/lastmile_qr_scan"}, "is_reserved": 0, "lon": -77.0267225, "fusion_lat": 0.0, "name": "773ff1bfb344b0249edc3efcee43015b"}, {"type": "electric_scooter", "fusion_lon": 0.0, "bike_id": "ce3cd89d684b6b18481d9c7361306cdb", "is_disabled": 0, "lat": 38.936583166666665, "rental_uris": {"ios": "https://dc.lft.to/lastmile_qr_scan", "android": "https://dc.lft.to/lastmile_qr_scan"}, "is_reserved": 0, "lon": -77.03662916666667, "fusion_lat": 0.0, "name": "ce3cd89d684b6b18481d9c7361306cdb"}, {"type": "electric_scooter", "fusion_lon": 0.0, "bike_id": "c6aabd58026771672af54f2f91cd39ce", "is_disabled": 0, "lat": 38.9096945, "rental_uris": {"ios": "https://dc.lft.to/lastmile_qr_scan", "android": "https://dc.lft.to/lastmile_qr_scan"}, "is_reserved": 0, "lon": -77.01710483333333, "fusion_lat": 0.0, "name": "c6aabd58026771672af54f2f91cd39ce"}, {"type": "electric_scooter", "fusion_lon": 0.0, "bike_id": "2a9fa5cafa4161aabe2486df1569350b", "is_disabled": 0, "lat": 38.893408, "rental_uris": {"ios": "https://dc.lft.to/lastmile_qr_scan", "android": "https://dc.lft.to/lastmile_qr_scan"}, "is_reserved": 0, "lon": -76.9915785, "fusion_lat": 0.0, "name": "2a9fa5cafa4161aabe2486df1569350b"}, {"type": "electric_scooter", "fusion_lon": 0.0, "bike_id": "8b2cb2926d78a9b49966c17b6316ad31", "is_disabled": 0, "lat": 38.927602666666665, "rental_uris": {"ios": "https://dc.lft.to/lastmile_qr_scan", "android": "https://dc.lft.to/lastmile_qr_scan"}, "is_reserved": 0, "lon": -77.03276183333334, "fusion_lat": 0.0, "name": "8b2cb2926d78a9b49966c17b6316ad31"}, {"type": "electric_scooter", "fusion_lon": 0.0, "bike_id": "14f9d5fad33ba172ea494a32a7b2d2c7", "is_disabled": 0, "lat": 38.93743716666667, "rental_uris": {"ios": "https://dc.lft.to/lastmile_qr_scan", "android": "https://dc.lft.to/lastmile_qr_scan"}, "is_reserved": 0, "lon": -77.06874183333333, "fusion_lat": 0.0, "name": "14f9d5fad33ba172ea494a32a7b2d2c7"}, {"type": "electric_scooter", "fusion_lon": 0.0, "bike_id": "05976b1e7a18b7a3889717629debcf81", "is_disabled": 0, "lat": 38.9048645, "rental_uris": {"ios": "https://dc.lft.to/lastmile_qr_scan", "android": "https://dc.lft.to/lastmile_qr_scan"}, "is_reserved": 0, "lon": -77.02717083333333, "fusion_lat": 0.0, "name": "05976b1e7a18b7a3889717629debcf81"}, {"type": "electric_bike", "fusion_lon": 0.0, "bike_id": "07b14f1d9185b76cb114a02ba844a033", "is_disabled": 0, "lat": 38.8358615, "rental_uris": {"ios": "https://dc.lft.to/lastmile_qr_scan", "android": "https://dc.lft.to/lastmile_qr_scan"}, "is_reserved": 0, "lon": -77.001415, "fusion_lat": 0.0, "name": "07b14f1d9185b76cb114a02ba844a033"}, {"type": "electric_scooter", "fusion_lon": 0.0, "bike_id": "5f0752aeefd04fe7b759255ed08aa963", "is_disabled": 0, "lat": 38.9195535, "rental_uris": {"ios": "https://dc.lft.to/lastmile_qr_scan", "android": "https://dc.lft.to/lastmile_qr_scan"}, "is_reserved": 0, "lon": -77.02593383333334, "fusion_lat": 0.0, "name": "5f0752aeefd04fe7b759255ed08aa963"}, {"type": "electric_scooter", "fusion_lon": 0.0, "bike_id": "4bc4facc2be297718465c92ecd6981cd", "is_disabled": 0, "lat": 38.9088295, "rental_uris": {"ios": "https://dc.lft.to/lastmile_qr_scan", "android": "https://dc.lft.to/lastmile_qr_scan"}, "is_reserved": 0, "lon": -77.044816, "fusion_lat": 0.0, "name": "4bc4facc2be297718465c92ecd6981cd"}, {"type": "electric_scooter", "fusion_lon": 0.0, "bike_id": "bd78b6dddbdef7f4ceeb25a389f18ae3", "is_disabled": 0, "lat": 38.88292833333333, "rental_uris": {"ios": "https://dc.lft.to/lastmile_qr_scan", "android": "https://dc.lft.to/lastmile_qr_scan"}, "is_reserved": 0, "lon": -77.022048, "fusion_lat": 0.0, "name": "bd78b6dddbdef7f4ceeb25a389f18ae3"}, {"type": "electric_scooter", "fusion_lon": 0.0, "bike_id": "303fdeaa58140be174b031f4c5d65dff", "is_disabled": 0, "lat": 38.8922665, "rental_uris": {"ios": "https://dc.lft.to/lastmile_qr_scan", "android": "https://dc.lft.to/lastmile_qr_scan"}, "is_reserved": 0, "lon": -77.03215583333333, "fusion_lat": 0.0, "name": "303fdeaa58140be174b031f4c5d65dff"}, {"type": "electric_scooter", "fusion_lon": 0.0, "bike_id": "4453998f3e808ecbc63d65b08384cc38", "is_disabled": 0, "lat": 38.886622, "rental_uris": {"ios": "https://dc.lft.to/lastmile_qr_scan", "android": "https://dc.lft.to/lastmile_qr_scan"}, "is_reserved": 0, "lon": -77.02824583333333, "fusion_lat": 0.0, "name": "4453998f3e808ecbc63d65b08384cc38"}, {"type": "electric_scooter", "fusion_lon": 0.0, "bike_id": "23e8ab9b8456a393954ce13b2035fb3c", "is_disabled": 0, "lat": 38.903847, "rental_uris": {"ios": "https://dc.lft.to/lastmile_qr_scan", "android": "https://dc.lft.to/lastmile_qr_scan"}, "is_reserved": 0, "lon": -77.018124, "fusion_lat": 0.0, "name": "23e8ab9b8456a393954ce13b2035fb3c"}, {"type": "electric_scooter", "fusion_lon": 0.0, "bike_id": "d7709765f1d0f4c2c0549ee5057618fc", "is_disabled": 0, "lat": 38.926543333333335, "rental_uris": {"ios": "https://dc.lft.to/lastmile_qr_scan", "android": "https://dc.lft.to/lastmile_qr_scan"}, "is_reserved": 0, "lon": -77.024349, "fusion_lat": 0.0, "name": "d7709765f1d0f4c2c0549ee5057618fc"}, {"type": "electric_scooter", "fusion_lon": 0.0, "bike_id": "df8ac6198160235714ef6fe1dfe9c3c7", "is_disabled": 0, "lat": 38.9141495, "rental_uris": {"ios": "https://dc.lft.to/lastmile_qr_scan", "android": "https://dc.lft.to/lastmile_qr_scan"}, "is_reserved": 0, "lon": -77.01076466666666, "fusion_lat": 0.0, "name": "df8ac6198160235714ef6fe1dfe9c3c7"}, {"type": "electric_scooter", "fusion_lon": 0.0, "bike_id": "ea940682de387e53a25d1bc1067c25da", "is_disabled": 0, "lat": 38.89231616666667, "rental_uris": {"ios": "https://dc.lft.to/lastmile_qr_scan", "android": "https://dc.lft.to/lastmile_qr_scan"}, "is_reserved": 0, "lon": -77.04658533333334, "fusion_lat": 0.0, "name": "ea940682de387e53a25d1bc1067c25da"}, {"type": "electric_scooter", "fusion_lon": 0.0, "bike_id": "76dd40d3b8ea42cc0edde5a5be33dae7", "is_disabled": 0, "lat": 38.88503266666667, "rental_uris": {"ios": "https://dc.lft.to/lastmile_qr_scan", "android": "https://dc.lft.to/lastmile_qr_scan"}, "is_reserved": 0, "lon": -76.95292033333334, "fusion_lat": 0.0, "name": "76dd40d3b8ea42cc0edde5a5be33dae7"}, {"type": "electric_bike", "fusion_lon": 0.0, "bike_id": "c6d4bd8f2a023f45c5c1691c04b5da0d", "is_disabled": 0, "lat": 38.886306833333336, "rental_uris": {"ios": "https://dc.lft.to/lastmile_qr_scan", "android": "https://dc.lft.to/lastmile_qr_scan"}, "is_reserved": 0, "lon": -76.923556, "fusion_lat": 0.0, "name": "c6d4bd8f2a023f45c5c1691c04b5da0d"}, {"type": "electric_scooter", "fusion_lon": 0.0, "bike_id": "403a9a52b97b5d941b1bf6f1abe38fe0", "is_disabled": 0, "lat": 38.92084066666666, "rental_uris": {"ios": "https://dc.lft.to/lastmile_qr_scan", "android": "https://dc.lft.to/lastmile_qr_scan"}, "is_reserved": 0, "lon": -77.02300116666666, "fusion_lat": 0.0, "name": "403a9a52b97b5d941b1bf6f1abe38fe0"}, {"type": "electric_scooter", "fusion_lon": 0.0, "bike_id": "780bc0f6d2630ec2e5b504e8b6bc1935", "is_disabled": 0, "lat": 38.9275505, "rental_uris": {"ios": "https://dc.lft.to/lastmile_qr_scan", "android": "https://dc.lft.to/lastmile_qr_scan"}, "is_reserved": 0, "lon": -77.03270766666667, "fusion_lat": 0.0, "name": "780bc0f6d2630ec2e5b504e8b6bc1935"}, {"type": "electric_scooter", "fusion_lon": 0.0, "bike_id": "31563418d4dc95ed770688f46ac7d4f2", "is_disabled": 0, "lat": 38.904946333333335, "rental_uris": {"ios": "https://dc.lft.to/lastmile_qr_scan", "android": "https://dc.lft.to/lastmile_qr_scan"}, "is_reserved": 0, "lon": -77.0321835, "fusion_lat": 0.0, "name": "31563418d4dc95ed770688f46ac7d4f2"}, {"type": "electric_scooter", "fusion_lon": 0.0, "bike_id": "f26a54e6caf0ee10ba226d6d8b5250b8", "is_disabled": 0, "lat": 38.9003425, "rental_uris": {"ios": "https://dc.lft.to/lastmile_qr_scan", "android": "https://dc.lft.to/lastmile_qr_scan"}, "is_reserved": 0, "lon": -77.01292533333333, "fusion_lat": 0.0, "name": "f26a54e6caf0ee10ba226d6d8b5250b8"}, {"type": "electric_bike", "fusion_lon": 0.0, "bike_id": "ba3b401488610ede8397684be7bb75d9", "is_disabled": 0, "lat": 38.95062633333333, "rental_uris": {"ios": "https://dc.lft.to/lastmile_qr_scan", "android": "https://dc.lft.to/lastmile_qr_scan"}, "is_reserved": 0, "lon": -77.066544, "fusion_lat": 0.0, "name": "ba3b401488610ede8397684be7bb75d9"}, {"type": "electric_scooter", "fusion_lon": 0.0, "bike_id": "eb8e84cda6da42ddb8e182f8ee77545e", "is_disabled": 0, "lat": 38.87170966666667, "rental_uris": {"ios": "https://dc.lft.to/lastmile_qr_scan", "android": "https://dc.lft.to/lastmile_qr_scan"}, "is_reserved": 0, "lon": -77.00626766666667, "fusion_lat": 0.0, "name": "eb8e84cda6da42ddb8e182f8ee77545e"}, {"type": "electric_scooter", "fusion_lon": 0.0, "bike_id": "5be0d89ceb772a892e06e9270fbece2f", "is_disabled": 0, "lat": 38.94907083333333, "rental_uris": {"ios": "https://dc.lft.to/lastmile_qr_scan", "android": "https://dc.lft.to/lastmile_qr_scan"}, "is_reserved": 0, "lon": -77.02392566666667, "fusion_lat": 0.0, "name": "5be0d89ceb772a892e06e9270fbece2f"}, {"type": "electric_scooter", "fusion_lon": 0.0, "bike_id": "a3e152d691a525c48799a71334d6d413", "is_disabled": 0, "lat": 38.90487433333333, "rental_uris": {"ios": "https://dc.lft.to/lastmile_qr_scan", "android": "https://dc.lft.to/lastmile_qr_scan"}, "is_reserved": 0, "lon": -77.02585116666667, "fusion_lat": 0.0, "name": "a3e152d691a525c48799a71334d6d413"}, {"type": "electric_scooter", "fusion_lon": 0.0, "bike_id": "5856c5307e202e8f4e04efa5d5a6795e", "is_disabled": 0, "lat": 38.923439333333334, "rental_uris": {"ios": "https://dc.lft.to/lastmile_qr_scan", "android": "https://dc.lft.to/lastmile_qr_scan"}, "is_reserved": 0, "lon": -77.03639, "fusion_lat": 0.0, "name": "5856c5307e202e8f4e04efa5d5a6795e"}, {"type": "electric_scooter", "fusion_lon": 0.0, "bike_id": "8861fecd3e5648d930b8e52769cc1d4f", "is_disabled": 0, "lat": 38.927959666666666, "rental_uris": {"ios": "https://dc.lft.to/lastmile_qr_scan", "android": "https://dc.lft.to/lastmile_qr_scan"}, "is_reserved": 0, "lon": -77.05416633333333, "fusion_lat": 0.0, "name": "8861fecd3e5648d930b8e52769cc1d4f"}, {"type": "electric_scooter", "fusion_lon": 0.0, "bike_id": "90c876042b5e6e81925d0067c4d97977", "is_disabled": 0, "lat": 38.923398166666665, "rental_uris": {"ios": "https://dc.lft.to/lastmile_qr_scan", "android": "https://dc.lft.to/lastmile_qr_scan"}, "is_reserved": 0, "lon": -77.03618416666667, "fusion_lat": 0.0, "name": "90c876042b5e6e81925d0067c4d97977"}, {"type": "electric_scooter", "fusion_lon": 0.0, "bike_id": "348167e2cfb714052da4dba8f7e44748", "is_disabled": 0, "lat": 38.902617666666664, "rental_uris": {"ios": "https://dc.lft.to/lastmile_qr_scan", "android": "https://dc.lft.to/lastmile_qr_scan"}, "is_reserved": 0, "lon": -77.0033165, "fusion_lat": 0.0, "name": "348167e2cfb714052da4dba8f7e44748"}, {"type": "electric_scooter", "fusion_lon": 0.0, "bike_id": "3c89ff4b44e0a68e9618f2184f974ad7", "is_disabled": 0, "lat": 38.87577616666667, "rental_uris": {"ios": "https://dc.lft.to/lastmile_qr_scan", "android": "https://dc.lft.to/lastmile_qr_scan"}, "is_reserved": 0, "lon": -77.00612983333333, "fusion_lat": 0.0, "name": "3c89ff4b44e0a68e9618f2184f974ad7"}, {"type": "electric_scooter", "fusion_lon": 0.0, "bike_id": "02dda65a7d9c98bd3bbfa6fa3fe826d5", "is_disabled": 0, "lat": 38.89228333333333, "rental_uris": {"ios": "https://dc.lft.to/lastmile_qr_scan", "android": "https://dc.lft.to/lastmile_qr_scan"}, "is_reserved": 0, "lon": -77.032153, "fusion_lat": 0.0, "name": "02dda65a7d9c98bd3bbfa6fa3fe826d5"}, {"type": "electric_scooter", "fusion_lon": 0.0, "bike_id": "b4bd2fb8ac87d3e2a822abe39c9bae58", "is_disabled": 0, "lat": 38.905537833333334, "rental_uris": {"ios": "https://dc.lft.to/lastmile_qr_scan", "android": "https://dc.lft.to/lastmile_qr_scan"}, "is_reserved": 0, "lon": -77.03481066666667, "fusion_lat": 0.0, "name": "b4bd2fb8ac87d3e2a822abe39c9bae58"}, {"type": "electric_scooter", "fusion_lon": 0.0, "bike_id": "ce0b19d3d10dad49b6cb076789051ff0", "is_disabled": 0, "lat": 38.89225316666667, "rental_uris": {"ios": "https://dc.lft.to/lastmile_qr_scan", "android": "https://dc.lft.to/lastmile_qr_scan"}, "is_reserved": 0, "lon": -77.04657683333333, "fusion_lat": 0.0, "name": "ce0b19d3d10dad49b6cb076789051ff0"}, {"type": "electric_bike", "fusion_lon": 0.0, "bike_id": "a8dde2b7e0d6c250496103ead348ead2", "is_disabled": 0, "lat": 38.96469316666666, "rental_uris": {"ios": "https://dc.lft.to/lastmile_qr_scan", "android": "https://dc.lft.to/lastmile_qr_scan"}, "is_reserved": 0, "lon": -77.0356005, "fusion_lat": 0.0, "name": "a8dde2b7e0d6c250496103ead348ead2"}, {"type": "electric_scooter", "fusion_lon": 0.0, "bike_id": "818ab2e0f21b88a782b4b7046a17d19d", "is_disabled": 0, "lat": 38.933297833333334, "rental_uris": {"ios": "https://dc.lft.to/lastmile_qr_scan", "android": "https://dc.lft.to/lastmile_qr_scan"}, "is_reserved": 0, "lon": -77.03820566666667, "fusion_lat": 0.0, "name": "818ab2e0f21b88a782b4b7046a17d19d"}, {"type": "electric_bike", "fusion_lon": 0.0, "bike_id": "05a36b88bbd2af4f1b1c615c200c11b7", "is_disabled": 0, "lat": 38.9227465, "rental_uris": {"ios": "https://dc.lft.to/lastmile_qr_scan", "android": "https://dc.lft.to/lastmile_qr_scan"}, "is_reserved": 0, "lon": -77.03693383333334, "fusion_lat": 0.0, "name": "05a36b88bbd2af4f1b1c615c200c11b7"}, {"type": "electric_bike", "fusion_lon": 0.0, "bike_id": "cf1c63d806fbfd41fa1d3ea5c929ea42", "is_disabled": 0, "lat": 38.89204516666667, "rental_uris": {"ios": "https://dc.lft.to/lastmile_qr_scan", "android": "https://dc.lft.to/lastmile_qr_scan"}, "is_reserved": 0, "lon": -76.99401216666666, "fusion_lat": 0.0, "name": "cf1c63d806fbfd41fa1d3ea5c929ea42"}, {"type": "electric_scooter", "fusion_lon": 0.0, "bike_id": "f36f42e2f2cc5275488a0188788476c9", "is_disabled": 0, "lat": 38.863696166666664, "rental_uris": {"ios": "https://dc.lft.to/lastmile_qr_scan", "android": "https://dc.lft.to/lastmile_qr_scan"}, "is_reserved": 0, "lon": -76.9904875, "fusion_lat": 0.0, "name": "f36f42e2f2cc5275488a0188788476c9"}, {"type": "electric_scooter", "fusion_lon": 0.0, "bike_id": "ee297147d07bde70fedf68183d53d516", "is_disabled": 0, "lat": 38.920488666666664, "rental_uris": {"ios": "https://dc.lft.to/lastmile_qr_scan", "android": "https://dc.lft.to/lastmile_qr_scan"}, "is_reserved": 0, "lon": -77.034402, "fusion_lat": 0.0, "name": "ee297147d07bde70fedf68183d53d516"}, {"type": "electric_scooter", "fusion_lon": 0.0, "bike_id": "d4c761dcd6ef85a0baddd83641e64fc5", "is_disabled": 0, "lat": 38.89225166666667, "rental_uris": {"ios": "https://dc.lft.to/lastmile_qr_scan", "android": "https://dc.lft.to/lastmile_qr_scan"}, "is_reserved": 0, "lon": -77.04336383333333, "fusion_lat": 0.0, "name": "d4c761dcd6ef85a0baddd83641e64fc5"}, {"type": "electric_scooter", "fusion_lon": 0.0, "bike_id": "61a9a035ad83a167626521d9a1332bb8", "is_disabled": 0, "lat": 38.9001125, "rental_uris": {"ios": "https://dc.lft.to/lastmile_qr_scan", "android": "https://dc.lft.to/lastmile_qr_scan"}, "is_reserved": 0, "lon": -77.0067895, "fusion_lat": 0.0, "name": "61a9a035ad83a167626521d9a1332bb8"}, {"type": "electric_scooter", "fusion_lon": 0.0, "bike_id": "c406a5aee935279323588d76fcdb359c", "is_disabled": 0, "lat": 38.903437833333335, "rental_uris": {"ios": "https://dc.lft.to/lastmile_qr_scan", "android": "https://dc.lft.to/lastmile_qr_scan"}, "is_reserved": 0, "lon": -77.02396133333333, "fusion_lat": 0.0, "name": "c406a5aee935279323588d76fcdb359c"}, {"type": "electric_scooter", "fusion_lon": 0.0, "bike_id": "d847c08cde1ef0ff3056844ea21a96c9", "is_disabled": 0, "lat": 38.92091533333333, "rental_uris": {"ios": "https://dc.lft.to/lastmile_qr_scan", "android": "https://dc.lft.to/lastmile_qr_scan"}, "is_reserved": 0, "lon": -77.024999, "fusion_lat": 0.0, "name": "d847c08cde1ef0ff3056844ea21a96c9"}, {"type": "electric_scooter", "fusion_lon": 0.0, "bike_id": "b2dbd06c6f73de0f2fdea7f623571436", "is_disabled": 0, "lat": 38.9721495, "rental_uris": {"ios": "https://dc.lft.to/lastmile_qr_scan", "android": "https://dc.lft.to/lastmile_qr_scan"}, "is_reserved": 0, "lon": -77.03335433333334, "fusion_lat": 0.0, "name": "b2dbd06c6f73de0f2fdea7f623571436"}, {"type": "electric_scooter", "fusion_lon": 0.0, "bike_id": "d5714de4848bb2b064dc9cea4e3ecadb", "is_disabled": 0, "lat": 38.90437683333333, "rental_uris": {"ios": "https://dc.lft.to/lastmile_qr_scan", "android": "https://dc.lft.to/lastmile_qr_scan"}, "is_reserved": 0, "lon": -77.04269283333333, "fusion_lat": 0.0, "name": "d5714de4848bb2b064dc9cea4e3ecadb"}, {"type": "electric_scooter", "fusion_lon": 0.0, "bike_id": "d2f6747acbdff92c2af1d707c595a40f", "is_disabled": 0, "lat": 38.904225833333335, "rental_uris": {"ios": "https://dc.lft.to/lastmile_qr_scan", "android": "https://dc.lft.to/lastmile_qr_scan"}, "is_reserved": 0, "lon": -77.032841, "fusion_lat": 0.0, "name": "d2f6747acbdff92c2af1d707c595a40f"}, {"type": "electric_scooter", "fusion_lon": 0.0, "bike_id": "02f014513b59f6a74bd493e06343cf3f", "is_disabled": 0, "lat": 38.918911666666666, "rental_uris": {"ios": "https://dc.lft.to/lastmile_qr_scan", "android": "https://dc.lft.to/lastmile_qr_scan"}, "is_reserved": 0, "lon": -77.03825683333334, "fusion_lat": 0.0, "name": "02f014513b59f6a74bd493e06343cf3f"}, {"type": "electric_scooter", "fusion_lon": 0.0, "bike_id": "007da1fa798c319a0cce58d259f8ca89", "is_disabled": 0, "lat": 38.90510583333333, "rental_uris": {"ios": "https://dc.lft.to/lastmile_qr_scan", "android": "https://dc.lft.to/lastmile_qr_scan"}, "is_reserved": 0, "lon": -76.952069, "fusion_lat": 0.0, "name": "007da1fa798c319a0cce58d259f8ca89"}, {"type": "electric_bike", "fusion_lon": 0.0, "bike_id": "373ed12350dd94d782d6be6c99c948bd", "is_disabled": 0, "lat": 38.871314166666664, "rental_uris": {"ios": "https://dc.lft.to/lastmile_qr_scan", "android": "https://dc.lft.to/lastmile_qr_scan"}, "is_reserved": 0, "lon": -76.93727866666667, "fusion_lat": 0.0, "name": "373ed12350dd94d782d6be6c99c948bd"}, {"type": "electric_scooter", "fusion_lon": 0.0, "bike_id": "43b992972354a35a91cf76e47c82c455", "is_disabled": 0, "lat": 38.89202516666667, "rental_uris": {"ios": "https://dc.lft.to/lastmile_qr_scan", "android": "https://dc.lft.to/lastmile_qr_scan"}, "is_reserved": 0, "lon": -77.00299983333333, "fusion_lat": 0.0, "name": "43b992972354a35a91cf76e47c82c455"}, {"type": "electric_scooter", "fusion_lon": 0.0, "bike_id": "85c994198fbf9a99e626d1e3483f6107", "is_disabled": 0, "lat": 38.895372333333334, "rental_uris": {"ios": "https://dc.lft.to/lastmile_qr_scan", "android": "https://dc.lft.to/lastmile_qr_scan"}, "is_reserved": 0, "lon": -76.9493385, "fusion_lat": 0.0, "name": "85c994198fbf9a99e626d1e3483f6107"}, {"type": "electric_scooter", "fusion_lon": 0.0, "bike_id": "fbdcaace081bd76580b77dd5a1b765a6", "is_disabled": 0, "lat": 38.865022833333335, "rental_uris": {"ios": "https://dc.lft.to/lastmile_qr_scan", "android": "https://dc.lft.to/lastmile_qr_scan"}, "is_reserved": 0, "lon": -76.98993233333333, "fusion_lat": 0.0, "name": "fbdcaace081bd76580b77dd5a1b765a6"}, {"type": "electric_bike", "fusion_lon": 0.0, "bike_id": "34152cfdfd4c272c7279e97c704cfde6", "is_disabled": 0, "lat": 38.96530833333333, "rental_uris": {"ios": "https://dc.lft.to/lastmile_qr_scan", "android": "https://dc.lft.to/lastmile_qr_scan"}, "is_reserved": 0, "lon": -77.02816216666666, "fusion_lat": 0.0, "name": "34152cfdfd4c272c7279e97c704cfde6"}, {"type": "electric_scooter", "fusion_lon": 0.0, "bike_id": "7ac6583c29e800373696fe964a201101", "is_disabled": 0, "lat": 38.932845666666665, "rental_uris": {"ios": "https://dc.lft.to/lastmile_qr_scan", "android": "https://dc.lft.to/lastmile_qr_scan"}, "is_reserved": 0, "lon": -77.02513516666667, "fusion_lat": 0.0, "name": "7ac6583c29e800373696fe964a201101"},