{"data": {"bikes": [{"rental_uris": {"android": "https://dc.lft.to/lastmile_qr_scan", "ios": "https://dc.lft.to/lastmile_qr_scan"}, "type": "electric_scooter", "lon": -77.03080016666667, "name": "cf5929efb0e73268c0a7396c0640e378", "bike_id": "cf5929efb0e73268c0a7396c0640e378", "fusion_lat": 0.0, "is_reserved": 0, "lat": 38.92728566666667, "fusion_lon": 0.0, "is_disabled": 0}, {"rental_uris": {"android": "https://dc.lft.to/lastmile_qr_scan", "ios": "https://dc.lft.to/lastmile_qr_scan"}, "type": "electric_scooter", "lon": -76.9968495, "name": "f91ff1e173629e6a35c8e3c1e657cb82", "bike_id": "f91ff1e173629e6a35c8e3c1e657cb82", "fusion_lat": 0.0, "is_reserved": 0, "lat": 38.88702033333333, "fusion_lon": 0.0, "is_disabled": 0}, {"rental_uris": {"android": "https://dc.lft.to/lastmile_qr_scan", "ios": "https://dc.lft.to/lastmile_qr_scan"}, "type": "electric_bike", "lon": -77.00503883333333, "name": "aa137572c54a444c4544934861b51f9c", "bike_id": "aa137572c54a444c4544934861b51f9c", "fusion_lat": 0.0, "is_reserved": 0, "lat": 38.875345833333334, "fusion_lon": 0.0, "is_disabled": 0}, {"rental_uris": {"android": "https://dc.lft.to/lastmile_qr_scan", "ios": "https://dc.lft.to/lastmile_qr_scan"}, "type": "electric_scooter", "lon": -77.0238955, "name": "d65a5540e851203cfa9377d270fad7bf", "bike_id": "d65a5540e851203cfa9377d270fad7bf", "fusion_lat": 0.0, "is_reserved": 0, "lat": 38.907069166666666, "fusion_lon": 0.0, "is_disabled": 0}, {"rental_uris": {"android": "https://dc.lft.to/lastmile_qr_scan", "ios": "https://dc.lft.to/lastmile_qr_scan"}, "type": "electric_scooter", "lon": -77.043213, "name": "c19f7ed39cdaeeb73edc90a8528fda65", "bike_id": "c19f7ed39cdaeeb73edc90a8528fda65", "fusion_lat": 0.0, "is_reserved": 0, "lat": 38.89221033333333, "fusion_lon": 0.0, "is_disabled": 0}, {"rental_uris": {"android": "https://dc.lft.to/lastmile_qr_scan", "ios": "https://dc.lft.to/lastmile_qr_scan"}, "type": "electric_scooter", "lon": -77.037785, "name": "ad616f05b0fe9451f6fdbf0b3af7600e", "bike_id": "ad616f05b0fe9451f6fdbf0b3af7600e", "fusion_lat": 0.0, "is_reserved": 0, "lat": 38.90691, "fusion_lon": 0.0, "is_disabled": 0}, {"rental_uris": {"android": "https://dc.lft.to/lastmile_qr_scan", "ios": "https://dc.lft.to/lastmile_qr_scan"}, "type": "electric_scooter", "lon": -77.068842, "name": "cfffbd6ed6c14e8a6fdbc98f470e9c5b", "bike_id": "cfffbd6ed6c14e8a6fdbc98f470e9c5b", "fusion_lat": 0.0, "is_reserved": 0, "lat": 38.905135666666666, "fusion_lon": 0.0, "is_disabled": 0}, {"rental_uris": {"android": "https://dc.lft.to/lastmile_qr_scan", "ios": "https://dc.lft.to/lastmile_qr_scan"}, "type": "electric_scooter", "lon": -77.01838683333334, "name": "df4972c7229da310618db29f0d42f760", "bike_id": "df4972c7229da310618db29f0d42f760", "fusion_lat": 0.0, "is_reserved": 0, "lat": 38.90959333333333, "fusion_lon": 0.0, "is_disabled": 0}, {"rental_uris": {"android": "https://dc.lft.to/lastmile_qr_scan", "ios": "https://dc.lft.to/lastmile_qr_scan"}, "type": "electric_scooter", "lon": -77.02168166666667, "name": "a0a6b9d016bfc6e55139511524798781", "bike_id": "a0a6b9d016bfc6e55139511524798781", "fusion_lat": 0.0, "is_reserved": 0, "lat": 38.88743983333333, "fusion_lon": 0.0, "is_disabled": 0}, {"rental_uris": {"android": "https://dc.lft.to/lastmile_qr_scan", "ios": "https://dc.lft.to/lastmile_qr_scan"}, "type": "electric_scooter", "lon": -76.99612433333333, "name": "3f7fa2ed66eb7000091055e1f2ce2cbf", "bike_id": "3f7fa2ed66eb7000091055e1f2ce2cbf", "fusion_lat": 0.0, "is_reserved": 0, "lat": 38.89755483333333, "fusion_lon": 0.0, "is_disabled": 0}, {"rental_uris": {"android": "https://dc.lft.to/lastmile_qr_scan", "ios": "https://dc.lft.to/lastmile_qr_scan"}, "type": "electric_scooter", "lon": -77.0218135, "name": "cf7899a5606c817b1b3bb4f37b4c5c5a", "bike_id": "cf7899a5606c817b1b3bb4f37b4c5c5a", "fusion_lat": 0.0, "is_reserved": 0, "lat": 38.89634683333333, "fusion_lon": 0.0, "is_disabled": 0}, {"rental_uris": {"android": "https://dc.lft.to/lastmile_qr_scan", "ios": "https://dc.lft.to/lastmile_qr_scan"}, "type": "electric_scooter", "lon": -77.0384905, "name": "35f0f030b462f04c42f7ba09f94a5067", "bike_id": "35f0f030b462f04c42f7ba09f94a5067", "fusion_lat": 0.0, "is_reserved": 0, "lat": 38.9153935, "fusion_lon": 0.0, "is_disabled": 0}, {"rental_uris": {"android": "https://dc.lft.to/lastmile_qr_scan", "ios": "https://dc.lft.to/lastmile_qr_scan"}, "type": "electric_scooter", "lon": -77.02420366666666, "name": "5740bf1e0a8a9f21c3efe56c5835d5a1", "bike_id": "5740bf1e0a8a9f21c3efe56c5835d5a1", "fusion_lat": 0.0, "is_reserved": 0, "lat": 38.89228166666667, "fusion_lon": 0.0, "is_disabled": 0}, {"rental_uris": {"android": "https://dc.lft.to/lastmile_qr_scan", "ios": "https://dc.lft.to/lastmile_qr_scan"}, "type": "electric_scooter", "lon": -77.0278055, "name": "8fc9f863529bf55e6e89072d12876a40", "bike_id": "8fc9f863529bf55e6e89072d12876a40", "fusion_lat": 0.0, "is_reserved": 0, "lat": 38.961424, "fusion_lon": 0.0, "is_disabled": 0}, {"rental_uris": {"android": "https://dc.lft.to/lastmile_qr_scan", "ios": "https://dc.lft.to/lastmile_qr_scan"}, "type": "electric_bike", "lon": -77.08541266666667, "name": "4db745ae0e552d564ed6872b4be717f0", "bike_id": "4db745ae0e552d564ed6872b4be717f0", "fusion_lat": 0.0, "is_reserved": 0, "lat": 38.856227, "fusion_lon": 0.0, "is_disabled": 0}, {"rental_uris": {"android": "https://dc.lft.to/lastmile_qr_scan", "ios": "https://dc.lft.to/lastmile_qr_scan"}, "type": "electric_scooter", "lon": -77.02555566666666, "name": "081459f2d790487e25ff31f8f50d386c", "bike_id": "081459f2d790487e25ff31f8f50d386c", "fusion_lat": 0.0, "is_reserved": 0, "lat": 38.94162883333333, "fusion_lon": 0.0, "is_disabled": 0}, {"rental_uris": {"android": "https://dc.lft.to/lastmile_qr_scan", "ios": "https://dc.lft.to/lastmile_qr_scan"}, "type": "electric_scooter", "lon": -76.9704535, "name": "e65d8a55dc781392991167bd1894bf1a", "bike_id": "e65d8a55dc781392991167bd1894bf1a", "fusion_lat": 0.0, "is_reserved": 0, "lat": 38.86776783333333, "fusion_lon": 0.0, "is_disabled": 0}, {"rental_uris": {"android": "https://dc.lft.to/lastmile_qr_scan", "ios": "https://dc.lft.to/lastmile_qr_scan"}, "type": "electric_scooter", "lon": -77.03746016666666, "name": "940707100a5c9a44ca75341562d2264f", "bike_id": "940707100a5c9a44ca75341562d2264f", "fusion_lat": 0.0, "is_reserved": 0, "lat": 38.91685983333333, "fusion_lon": 0.0, "is_disabled": 0}, {"rental_uris": {"android": "https://dc.lft.to/lastmile_qr_scan", "ios": "https://dc.lft.to/lastmile_qr_scan"}, "type": "electric_scooter", "lon": -76.9874935, "name": "f26e15246c70b80648b063b05ea78d54", "bike_id": "f26e15246c70b80648b063b05ea78d54", "fusion_lat": 0.0, "is_reserved": 0, "lat": 38.844596833333334, "fusion_lon": 0.0, "is_disabled": 0}, {"rental_uris": {"android": "https://dc.lft.to/lastmile_qr_scan", "ios": "https://dc.lft.to/lastmile_qr_scan"}, "type": "electric_scooter", "lon": -77.06531666666666, "name": "3b5c1f29412f7b61f23abce96e9d656d", "bike_id": "3b5c1f29412f7b61f23abce96e9d656d", "fusion_lat": 0.0, "is_reserved": 0, "lat": 38.95069016666667, "fusion_lon": 0.0, "is_disabled": 0}, {"rental_uris": {"android": "https://dc.lft.to/lastmile_qr_scan", "ios": "https://dc.lft.to/lastmile_qr_scan"}, "type": "electric_scooter", "lon": -77.02033816666666, "name": "881d7506d6cd14c36edaf665b164076e", "bike_id": "881d7506d6cd14c36edaf665b164076e", "fusion_lat": 0.0, "is_reserved": 0, "lat": 38.8927045, "fusion_lon": 0.0, "is_disabled": 0}, {"rental_uris": {"android": "https://dc.lft.to/lastmile_qr_scan", "ios": "https://dc.lft.to/lastmile_qr_scan"}, "type": "electric_bike", "lon": -77.17807716666667, "name": "b75a899d7b7ad08e3209e6735478e7aa", "bike_id": "b75a899d7b7ad08e3209e6735478e7aa", "fusion_lat": 0.0, "is_reserved": 0, "lat": 39.08841916666667, "fusion_lon": 0.0, "is_disabled": 0}, {"rental_uris": {"android": "https://dc.lft.to/lastmile_qr_scan", "ios": "https://dc.lft.to/lastmile_qr_scan"}, "type": "electric_scooter", "lon": -77.049975, "name": "91658591b57afa9ead1b34a0dc8f4320", "bike_id": "91658591b57afa9ead1b34a0dc8f4320", "fusion_lat": 0.0, "is_reserved": 0, "lat": 38.892283166666665, "fusion_lon": 0.0, "is_disabled": 0}, {"rental_uris": {"android": "https://dc.lft.to/lastmile_qr_scan", "ios": "https://dc.lft.to/lastmile_qr_scan"}, "type": "electric_scooter", "lon": -76.98708683333334, "name": "d2121a1f1830ba5df692b8b050c12d4e", "bike_id": "d2121a1f1830ba5df692b8b050c12d4e", "fusion_lat": 0.0, "is_reserved": 0, "lat": 38.9020045, "fusion_lon": 0.0, "is_disabled": 0}, {"rental_uris": {"android": "https://dc.lft.to/lastmile_qr_scan", "ios": "https://dc.lft.to/lastmile_qr_scan"}, "type": "electric_scooter", "lon": -77.03845666666666, "name": "9d58aee6e35b90c066e40bc226737453", "bike_id": "9d58aee6e35b90c066e40bc226737453", "fusion_lat": 0.0, "is_reserved": 0, "lat": 38.91286983333333, "fusion_lon": 0.0, "is_disabled": 0}, {"rental_uris": {"android": "https://dc.lft.to/lastmile_qr_scan", "ios": "https://dc.lft.to/lastmile_qr_scan"}, "type": "electric_bike", "lon": -77.026238, "name": "f4d197f71e7b7e4b6761b8f7883804cd", "bike_id": "f4d197f71e7b7e4b6761b8f7883804cd", "fusion_lat": 0.0, "is_reserved": 0, "lat": 38.962217333333335, "fusion_lon": 0.0, "is_disabled": 0}, {"rental_uris": {"android": "https://dc.lft.to/lastmile_qr_scan", "ios": "https://dc.lft.to/lastmile_qr_scan"}, "type": "electric_scooter", "lon": -76.99399416666667, "name": "3809187108b404d474af4b57b7c359f2", "bike_id": "3809187108b404d474af4b57b7c359f2", "fusion_lat": 0.0, "is_reserved": 0, "lat": 38.886012666666666, "fusion_lon": 0.0, "is_disabled": 0}, {"rental_uris": {"android": "https://dc.lft.to/lastmile_qr_scan", "ios": "https://dc.lft.to/lastmile_qr_scan"}, "type": "electric_scooter", "lon": -76.98882483333334, "name": "81c24a71c6d9fd3160c6c6eaa06d8a26", "bike_id": "81c24a71c6d9fd3160c6c6eaa06d8a26", "fusion_lat": 0.0, "is_reserved": 0, "lat": 38.86672933333333, "fusion_lon": 0.0, "is_disabled": 0}, {"rental_uris": {"android": "https://dc.lft.to/lastmile_qr_scan", "ios": "https://dc.lft.to/lastmile_qr_scan"}, "type": "electric_scooter", "lon": -77.02365566666667, "name": "0fba609b457a25b05ad2a9cdd1cbfdb3", "bike_id": "0fba609b457a25b05ad2a9cdd1cbfdb3", "fusion_lat": 0.0, "is_reserved": 0, "lat": 38.907300166666666, "fusion_lon": 0.0, "is_disabled": 0}, {"rental_uris": {"android": "https://dc.lft.to/lastmile_qr_scan", "ios": "https://dc.lft.to/lastmile_qr_scan"}, "type": "electric_scooter", "lon": -77.04589566666667, "name": "9647fb824c4c3124ecb3b2d964f426ae", "bike_id": "9647fb824c4c3124ecb3b2d964f426ae", "fusion_lat": 0.0, "is_reserved": 0, "lat": 38.92126066666667, "fusion_lon": 0.0, "is_disabled": 0}, {"rental_uris": {"android": "https://dc.lft.to/lastmile_qr_scan", "ios": "https://dc.lft.to/lastmile_qr_scan"}, "type": "electric_scooter", "lon": -77.00104733333333, "name": "94e72ef7c06174f4c547c9335c294a5b", "bike_id": "94e72ef7c06174f4c547c9335c294a5b", "fusion_lat": 0.0, "is_reserved": 0, "lat": 38.91631233333333, "fusion_lon": 0.0, "is_disabled": 0}, {"rental_uris": {"android": "https://dc.lft.to/lastmile_qr_scan", "ios": "https://dc.lft.to/lastmile_qr_scan"}, "type": "electric_scooter", "lon": -76.98602016666666, "name": "ef3fd128269a7de896eb1c0b4adda912", "bike_id": "ef3fd128269a7de896eb1c0b4adda912", "fusion_lat": 0.0, "is_reserved": 0, "lat": 38.854369, "fusion_lon": 0.0, "is_disabled": 0}, {"rental_uris": {"android": "https://dc.lft.to/lastmile_qr_scan", "ios": "https://dc.lft.to/lastmile_qr_scan"}, "type": "electric_scooter", "lon": -76.94855766666667, "name": "b5cfe1a07f639c6496f304f2ec087c46", "bike_id": "b5cfe1a07f639c6496f304f2ec087c46", "fusion_lat": 0.0, "is_reserved": 0, "lat": 38.882994, "fusion_lon": 0.0, "is_disabled": 0}, {"rental_uris": {"android": "https://dc.lft.to/lastmile_qr_scan", "ios": "https://dc.lft.to/lastmile_qr_scan"}, "type": "electric_scooter", "lon": -76.98922583333334, "name": "b991e97d725d1cd33efe293ec6de8467", "bike_id": "b991e97d725d1cd33efe293ec6de8467", "fusion_lat": 0.0, "is_reserved": 0, "lat": 38.902279, "fusion_lon": 0.0, "is_disabled": 0}, {"rental_uris": {"android": "https://dc.lft.to/lastmile_qr_scan", "ios": "https://dc.lft.to/lastmile_qr_scan"}, "type": "electric_scooter", "lon": -77.05880933333333, "name": "5599988a225dcd0f1912954fa11885be", "bike_id": "5599988a225dcd0f1912954fa11885be", "fusion_lat": 0.0, "is_reserved": 0, "lat": 38.93634633333333, "fusion_lon": 0.0, "is_disabled": 0}, {"rental_uris": {"android": "https://dc.lft.to/lastmile_qr_scan", "ios": "https://dc.lft.to/lastmile_qr_scan"}, "type": "electric_scooter", "lon": -77.0350705, "name": "8fdd9848d4c6a51de35b32a89976b39a", "bike_id": "8fdd9848d4c6a51de35b32a89976b39a", "fusion_lat": 0.0, "is_reserved": 0, "lat": 38.9263575, "fusion_lon": 0.0, "is_disabled": 0}, {"rental_uris": {"android": "https://dc.lft.to/lastmile_qr_scan", "ios": "https://dc.lft.to/lastmile_qr_scan"}, "type": "electric_scooter", "lon": -77.03146716666667, "name": "a5fd584dde33310d7ea19b051b73ad6c", "bike_id": "a5fd584dde33310d7ea19b051b73ad6c", "fusion_lat": 0.0, "is_reserved": 0, "lat": 38.887527, "fusion_lon": 0.0, "is_disabled": 0}, {"rental_uris": {"android": "https://dc.lft.to/lastmile_qr_scan", "ios": "https://dc.lft.to/lastmile_qr_scan"}, "type": "electric_scooter", "lon": -77.023849, "name": "e25524d61875d62a7cc26d5b0d2c9600", "bike_id": "e25524d61875d62a7cc26d5b0d2c9600", "fusion_lat": 0.0, "is_reserved": 0, "lat": 38.89396266666667, "fusion_lon": 0.0, "is_disabled": 0}, {"rental_uris": {"android": "https://dc.lft.to/lastmile_qr_scan", "ios": "https://dc.lft.to/lastmile_qr_scan"}, "type": "electric_scooter", "lon": -76.94841033333333, "name": "12e23c32d3d0bb2abf2c7b26d4e6eb71", "bike_id": "12e23c32d3d0bb2abf2c7b26d4e6eb71", "fusion_lat": 0.0, "is_reserved": 0, "lat": 38.894853499999996, "fusion_lon": 0.0, "is_disabled": 0}, {"rental_uris": {"android": "https://dc.lft.to/lastmile_qr_scan", "ios": "https://dc.lft.to/lastmile_qr_scan"}, "type": "electric_scooter", "lon": -77.0344625, "name": "1420f18f81d57990ff1bd2abdd271be3", "bike_id": "1420f18f81d57990ff1bd2abdd271be3", "fusion_lat": 0.0, "is_reserved": 0, "lat": 38.90266, "fusion_lon": 0.0, "is_disabled": 0}, {"rental_uris": {"android": "https://dc.lft.to/lastmile_qr_scan", "ios": "https://dc.lft.to/lastmile_qr_scan"}, "type": "electric_scooter", "lon": -77.055126, "name": "8604f0c658e5f2be117f01a352205de0", "bike_id": "8604f0c658e5f2be117f01a352205de0", "fusion_lat": 0.0, "is_reserved": 0, "lat": 38.9442185, "fusion_lon": 0.0, "is_disabled": 0}, {"rental_uris": {"android": "https://dc.lft.to/lastmile_qr_scan", "ios": "https://dc.lft.to/lastmile_qr_scan"}, "type": "electric_bike", "lon": -76.9939005, "name": "626bfdeaf1dc74b08c2bc4afed73e636", "bike_id": "626bfdeaf1dc74b08c2bc4afed73e636", "fusion_lat": 0.0, "is_reserved": 0, "lat": 38.92270283333333, "fusion_lon": 0.0, "is_disabled": 0}, {"rental_uris": {"android": "https://dc.lft.to/lastmile_qr_scan", "ios": "https://dc.lft.to/lastmile_qr_scan"}, "type": "electric_scooter", "lon": -77.03015216666667, "name": "49b59f6b31cc3f31df178dd69be54e1b", "bike_id": "49b59f6b31cc3f31df178dd69be54e1b", "fusion_lat": 0.0, "is_reserved": 0, "lat": 38.931182166666666, "fusion_lon": 0.0, "is_disabled": 0}, {"rental_uris": {"android": "https://dc.lft.to/lastmile_qr_scan", "ios": "https://dc.lft.to/lastmile_qr_scan"}, "type": "electric_scooter", "lon": -77.05104533333333, "name": "920e822419bec1e2e8140371c8d46adf", "bike_id": "920e822419bec1e2e8140371c8d46adf", "fusion_lat": 0.0, "is_reserved": 0, "lat": 38.90516433333333, "fusion_lon": 0.0, "is_disabled": 0}, {"rental_uris": {"android": "https://dc.lft.to/lastmile_qr_scan", "ios": "https://dc.lft.to/lastmile_qr_scan"}, "type": "electric_scooter", "lon": -77.00585466666666, "name": "53903b826e228d5add37fc9bd9412374", "bike_id": "53903b826e228d5add37fc9bd9412374", "fusion_lat": 0.0, "is_reserved": 0, "lat": 38.88379066666667, "fusion_lon": 0.0, "is_disabled": 0}, {"rental_uris": {"android": "https://dc.lft.to/lastmile_qr_scan", "ios": "https://dc.lft.to/lastmile_qr_scan"}, "type": "electric_scooter", "lon": -77.02561383333334, "name": "ae182821ea40717d8dce2bd1754b3a60", "bike_id": "ae182821ea40717d8dce2bd1754b3a60", "fusion_lat": 0.0, "is_reserved": 0, "lat": 38.941669, "fusion_lon": 0.0, "is_disabled": 0}, {"rental_uris": {"android": "https://dc.lft.to/lastmile_qr_scan", "ios": "https://dc.lft.to/lastmile_qr_scan"}, "type": "electric_scooter", "lon": -77.074446, "name": "264bcdb2d4d1b3293fcc560b13e74a0a", "bike_id": "264bcdb2d4d1b3293fcc560b13e74a0a", "fusion_lat": 0.0, "is_reserved": 0, "lat": 38.9109925, "fusion_lon": 0.0, "is_disabled": 0}, {"rental_uris": {"android": "https://dc.lft.to/lastmile_qr_scan", "ios": "https://dc.lft.to/lastmile_qr_scan"}, "type": "electric_scooter", "lon": -76.99984766666667, "name": "3bf7501270c27c541f586e6b7e50afb4", "bike_id": "3bf7501270c27c541f586e6b7e50afb4", "fusion_lat": 0.0, "is_reserved": 0, "lat": 38.90933166666667, "fusion_lon": 0.0, "is_disabled": 0}, {"rental_uris": {"android": "https://dc.lft.to/lastmile_qr_scan", "ios": "https://dc.lft.to/lastmile_qr_scan"}, "type": "electric_scooter", "lon": -77.0057705, "name": "d3e04261d9ccd905381a90c06b82eaa9", "bike_id": "d3e04261d9ccd905381a90c06b82eaa9", "fusion_lat": 0.0, "is_reserved": 0, "lat": 38.8852775, "fusion_lon": 0.0, "is_disabled": 0}, {"rental_uris": {"android": "https://dc.lft.to/lastmile_qr_scan", "ios": "https://dc.lft.to/lastmile_qr_scan"}, "type": "electric_scooter", "lon": -77.03250083333333, "name": "68589f5f079859436cdea67fbcc46eaa", "bike_id": "68589f5f079859436cdea67fbcc46eaa", "fusion_lat": 0.0, "is_reserved": 0, "lat": 38.933752166666665, "fusion_lon": 0.0, "is_disabled": 0}, {"rental_uris": {"android": "https://dc.lft.to/lastmile_qr_scan", "ios": "https://dc.lft.to/lastmile_qr_scan"}, "type": "electric_scooter", "lon": -77.03967566666667, "name": "a8de18e892fcc65e7457a094d2e1c624", "bike_id": "a8de18e892fcc65e7457a094d2e1c624", "fusion_lat": 0.0, "is_reserved": 0, "lat": 38.90920633333333, "fusion_lon": 0.0, "is_disabled": 0}, {"rental_uris": {"android": "https://dc.lft.to/lastmile_qr_scan", "ios": "https://dc.lft.to/lastmile_qr_scan"}, "type": "electric_scooter", "lon": -76.99386766666667, "name": "2cb7acba8b6d73e29eb2605610c08566", "bike_id": "2cb7acba8b6d73e29eb2605610c08566", "fusion_lat": 0.0, "is_reserved": 0, "lat": 38.884498666666666, "fusion_lon": 0.0, "is_disabled": 0}, {"rental_uris": {"android": "https://dc.lft.to/lastmile_qr_scan", "ios": "https://dc.lft.to/lastmile_qr_scan"}, "type": "electric_bike", "lon": -77.1290295, "name": "3424f316ebd178a364a2b81220a7a6a0", "bike_id": "3424f316ebd178a364a2b81220a7a6a0", "fusion_lat": 0.0, "is_reserved": 0, "lat": 38.8637555, "fusion_lon": 0.0, "is_disabled": 0}, {"rental_uris": {"android": "https://dc.lft.to/lastmile_qr_scan", "ios": "https://dc.lft.to/lastmile_qr_scan"}, "type": "electric_scooter", "lon": -77.04670433333334, "name": "8d4589e902a8637ee751bc68f0dd5cbf", "bike_id": "8d4589e902a8637ee751bc68f0dd5cbf", "fusion_lat": 0.0, "is_reserved": 0, "lat": 38.89555766666667, "fusion_lon": 0.0, "is_disabled": 0}, {"rental_uris": {"android": "https://dc.lft.to/lastmile_qr_scan", "ios": "https://dc.lft.to/lastmile_qr_scan"}, "type": "electric_scooter", "lon": -77.05765583333333, "name": "5ec07d8f1ac68364ec7fa85488d6df49", "bike_id": "5ec07d8f1ac68364ec7fa85488d6df49", "fusion_lat": 0.0, "is_reserved": 0, "lat": 38.9052605, "fusion_lon": 0.0, "is_disabled": 0}, {"rental_uris": {"android": "https://dc.lft.to/lastmile_qr_scan", "ios": "https://dc.lft.to/lastmile_qr_scan"}, "type": "electric_scooter", "lon": -77.03263016666666, "name": "28a1e2fe7faebb1f788ca788cc0b7e1f", "bike_id": "28a1e2fe7faebb1f788ca788cc0b7e1f", "fusion_lat": 0.0, "is_reserved": 0, "lat": 38.93662416666667, "fusion_lon": 0.0, "is_disabled": 0}, {"rental_uris": {"android": "https://dc.lft.to/lastmile_qr_scan", "ios": "https://dc.lft.to/lastmile_qr_scan"}, "type": "electric_scooter", "lon": -77.04826133333333, "name": "8aa053abf49e7f0592fb0c799b590bbd", "bike_id": "8aa053abf49e7f0592fb0c799b590bbd", "fusion_lat": 0.0, "is_reserved": 0, "lat": 38.92045316666667, "fusion_lon": 0.0, "is_disabled": 0}, {"rental_uris": {"android": "https://dc.lft.to/lastmile_qr_scan", "ios": "https://dc.lft.to/lastmile_qr_scan"}, "type": "electric_bike", "lon": -77.02104566666667, "name": "3fc66ed5beb814e6c2bf8eca58c8b32b", "bike_id": "3fc66ed5beb814e6c2bf8eca58c8b32b", "fusion_lat": 0.0, "is_reserved": 0, "lat": 39.0229495, "fusion_lon": 0.0, "is_disabled": 0}, {"rental_uris": {"android": "https://dc.lft.to/lastmile_qr_scan", "ios": "https://dc.lft.to/lastmile_qr_scan"}, "type": "electric_scooter", "lon": -77.0236, "name": "f137af4110eb807724472da7ecac1e4d", "bike_id": "f137af4110eb807724472da7ecac1e4d", "fusion_lat": 0.0, "is_reserved": 0, "lat": 38.917888166666664, "fusion_lon": 0.0, "is_disabled": 0}, {"rental_uris": {"android": "https://dc.lft.to/lastmile_qr_scan", "ios": "https://dc.lft.to/lastmile_qr_scan"}, "type": "electric_scooter", "lon": -77.06068383333333, "name": "53d1ffcf24d68c6ae4f55f09e75418d4", "bike_id": "53d1ffcf24d68c6ae4f55f09e75418d4", "fusion_lat": 0.0, "is_reserved": 0, "lat": 38.9389935, "fusion_lon": 0.0, "is_disabled": 0}, {"rental_uris": {"android": "https://dc.lft.to/lastmile_qr_scan", "ios": "https://dc.lft.to/lastmile_qr_scan"}, "type": "electric_scooter", "lon": -77.050462, "name": "594952124ae4d5f050ae234a287aa451", "bike_id": "594952124ae4d5f050ae234a287aa451", "fusion_lat": 0.0, "is_reserved": 0, "lat": 38.92354683333333, "fusion_lon": 0.0, "is_disabled": 0}, {"rental_uris": {"android": "https://dc.lft.to/lastmile_qr_scan", "ios": "https://dc.lft.to/lastmile_qr_scan"}, "type": "electric_scooter", "lon": -77.01217933333334, "name": "3edccae10b050924054af2d30af158d8", "bike_id": "3edccae10b050924054af2d30af158d8", "fusion_lat": 0.0, "is_reserved": 0, "lat": 38.8931605, "fusion_lon": 0.0, "is_disabled": 0}, {"rental_uris": {"android": "https://dc.lft.to/lastmile_qr_scan", "ios": "https://dc.lft.to/lastmile_qr_scan"}, "type": "electric_scooter", "lon": -77.02258016666667, "name": "12c90a54c7833e1ef513348593c13416", "bike_id": "12c90a54c7833e1ef513348593c13416", "fusion_lat": 0.0, "is_reserved": 0, "lat": 38.928202666666664, "fusion_lon": 0.0, "is_disabled": 0}, {"rental_uris": {"android": "https://dc.lft.to/lastmile_qr_scan", "ios": "https://dc.lft.to/lastmile_qr_scan"}, "type": "electric_bike", "lon": -77.1298485, "name": "9c466ac3f20f913351bb1b84524ddcaa", "bike_id": "9c466ac3f20f913351bb1b84524ddcaa", "fusion_lat": 0.0, "is_reserved": 0, "lat": 38.79985583333333, "fusion_lon": 0.0, "is_disabled": 0}, {"rental_uris": {"android": "https://dc.lft.to/lastmile_qr_scan", "ios": "https://dc.lft.to/lastmile_qr_scan"}, "type": "electric_scooter", "lon": -76.97627916666667, "name": "780d3932bc95d2d21630a6ee383f9857", "bike_id": "780d3932bc95d2d21630a6ee383f9857", "fusion_lat": 0.0, "is_reserved": 0, "lat": 38.905714, "fusion_lon": 0.0, "is_disabled": 0}, {"rental_uris": {"android": "https://dc.lft.to/lastmile_qr_scan", "ios": "https://dc.lft.to/lastmile_qr_scan"}, "type": "electric_bike", "lon": -77.07044216666667, "name": "6bf3e22231e7c4b27f3ed95bcef926d8", "bike_id": "6bf3e22231e7c4b27f3ed95bcef926d8", "fusion_lat": 0.0, "is_reserved": 0, "lat": 38.82444016666667, "fusion_lon": 0.0, "is_disabled": 0}, {"rental_uris": {"android": "https://dc.lft.to/lastmile_qr_scan", "ios": "https://dc.lft.to/lastmile_qr_scan"}, "type": "electric_scooter", "lon": -77.01940233333333, "name": "78174edd2b128b83da4b2a3c9c5e8553", "bike_id": "78174edd2b128b83da4b2a3c9c5e8553", "fusion_lat": 0.0, "is_reserved": 0, "lat": 38.909672, "fusion_lon": 0.0, "is_disabled": 0}, {"rental_uris": {"android": "https://dc.lft.to/lastmile_qr_scan", "ios": "https://dc.lft.to/lastmile_qr_scan"}, "type": "electric_bike", "lon": -77.128075, "name": "f770d42c9f6a15741e800f6312cc2ce7", "bike_id": "f770d42c9f6a15741e800f6312cc2ce7", "fusion_lat": 0.0, "is_reserved": 0, "lat": 38.8653595, "fusion_lon": 0.0, "is_disabled": 0}, {"rental_uris": {"android": "https://dc.lft.to/lastmile_qr_scan", "ios": "https://dc.lft.to/lastmile_qr_scan"}, "type": "electric_scooter", "lon": -76.99441633333333, "name": "d9875f4fd8bda4226e3d599d217fece0", "bike_id": "d9875f4fd8bda4226e3d599d217fece0", "fusion_lat": 0.0, "is_reserved": 0, "lat": 38.9050215, "fusion_lon": 0.0, "is_disabled": 0}, {"rental_uris": {"android": "https://dc.lft.to/lastmile_qr_scan", "ios": "https://dc.lft.to/lastmile_qr_scan"}, "type": "electric_scooter", "lon": -77.0326525, "name": "aa807e0cb5974b2f4c5125c05818619f", "bike_id": "aa807e0cb5974b2f4c5125c05818619f", "fusion_lat": 0.0, "is_reserved": 0, "lat": 38.92830266666667, "fusion_lon": 0.0, "is_disabled": 0}, {"rental_uris": {"android": "https://dc.lft.to/lastmile_qr_scan", "ios": "https://dc.lft.to/lastmile_qr_scan"}, "type": "electric_scooter", "lon": -77.06393316666667, "name": "d3866f1bd93a34dd2d84ccb72853b992", "bike_id": "d3866f1bd93a34dd2d84ccb72853b992", "fusion_lat": 0.0, "is_reserved": 0, "lat": 38.92907866666667, "fusion_lon": 0.0, "is_disabled": 0}, {"rental_uris": {"android": "https://dc.lft.to/lastmile_qr_scan", "ios": "https://dc.lft.to/lastmile_qr_scan"}, "type": "electric_bike", "lon": -76.915949, "name": "d540d2e736071676dc2374f7f1d049e8", "bike_id": "d540d2e736071676dc2374f7f1d049e8", "fusion_lat": 0.0, "is_reserved": 0, "lat": 38.87984066666667, "fusion_lon": 0.0, "is_disabled": 0}, {"rental_uris": {"android": "https://dc.lft.to/lastmile_qr_scan", "ios": "https://dc.lft.to/lastmile_qr_scan"}, "type": "electric_scooter", "lon": -76.98708633333334, "name": "8494a78464afe88e98689699470d6c35", "bike_id": "8494a78464afe88e98689699470d6c35", "fusion_lat": 0.0, "is_reserved": 0, "lat": 38.86534666666667, "fusion_lon": 0.0, "is_disabled": 0}, {"rental_uris": {"android": "https://dc.lft.to/lastmile_qr_scan", "ios": "https://dc.lft.to/lastmile_qr_scan"}, "type": "electric_scooter", "lon": -77.022124, "name": "9fa96021a72461abb1339ba0a3f7b1d5", "bike_id": "9fa96021a72461abb1339ba0a3f7b1d5", "fusion_lat": 0.0, "is_reserved": 0, "lat": 38.90575666666667, "fusion_lon": 0.0, "is_disabled": 0}, {"rental_uris": {"android": "https://dc.lft.to/lastmile_qr_scan", "ios": "https://dc.lft.to/lastmile_qr_scan"}, "type": "electric_scooter", "lon": -76.94706783333334, "name": "5965c510f13266abeef6c0f764dd8394", "bike_id": "5965c510f13266abeef6c0f764dd8394", "fusion_lat": 0.0, "is_reserved": 0, "lat": 38.89678383333333, "fusion_lon": 0.0, "is_disabled": 0}, {"rental_uris": {"android": "https://dc.lft.to/lastmile_qr_scan", "ios": "https://dc.lft.to/lastmile_qr_scan"}, "type": "electric_bike", "lon": -77.13175766666667, "name": "e58a441589bd9976fb2f28b3a0764dc3", "bike_id": "e58a441589bd9976fb2f28b3a0764dc3", "fusion_lat": 0.0, "is_reserved": 0, "lat": 38.869084666666666, "fusion_lon": 0.0, "is_disabled": 0}, {"rental_uris": {"android": "https://dc.lft.to/lastmile_qr_scan", "ios": "https://dc.lft.to/lastmile_qr_scan"}, "type": "electric_bike", "lon": -76.9976145, "name": "0133802c5052ffc3e11e4c9aea2f22a4", "bike_id": "0133802c5052ffc3e11e4c9aea2f22a4", "fusion_lat": 0.0, "is_reserved": 0, "lat": 39.00593, "fusion_lon": 0.0, "is_disabled": 0}, {"rental_uris": {"android": "https://dc.lft.to/lastmile_qr_scan", "ios": "https://dc.lft.to/lastmile_qr_scan"}, "type": "electric_scooter", "lon": -76.99151833333333, "name": "cd46803377e1bbb531a01a75cad1d35c", "bike_id": "cd46803377e1bbb531a01a75cad1d35c", "fusion_lat": 0.0, "is_reserved": 0, "lat": 38.87906433333333, "fusion_lon": 0.0, "is_disabled": 0}, {"rental_uris": {"android": "https://dc.lft.to/lastmile_qr_scan", "ios": "https://dc.lft.to/lastmile_qr_scan"}, "type": "electric_scooter", "lon": -76.92951183333334, "name": "d4cda602e3fd754f925e420afb634046", "bike_id": "d4cda602e3fd754f925e420afb634046", "fusion_lat": 0.0, "is_reserved": 0, "lat": 38.898785, "fusion_lon": 0.0, "is_disabled": 0}, {"rental_uris": {"android": "https://dc.lft.to/lastmile_qr_scan", "ios": "https://dc.lft.to/lastmile_qr_scan"}, "type": "electric_scooter", "lon": -77.04999183333334, "name": "5486499e7848cf965ea47b5dfbe26628", "bike_id": "5486499e7848cf965ea47b5dfbe26628", "fusion_lat": 0.0, "is_reserved": 0, "lat": 38.900743, "fusion_lon": 0.0, "is_disabled": 0}, {"rental_uris": {"android": "https://dc.lft.to/lastmile_qr_scan", "ios": "https://dc.lft.to/lastmile_qr_scan"}, "type": "electric_scooter", "lon": -77.03847716666667, "name": "e095493fa8f30ca1870335a148208734", "bike_id": "e095493fa8f30ca1870335a148208734", "fusion_lat": 0.0, "is_reserved": 0, "lat": 38.91535866666667, "fusion_lon": 0.0, "is_disabled": 0}, {"rental_uris": {"android": "https://dc.lft.to/lastmile_qr_scan", "ios": "https://dc.lft.to/lastmile_qr_scan"}, "type": "electric_scooter", "lon": -77.04661866666666, "name": "1782ee1e9a9a0daafd094fd455b54741", "bike_id": "1782ee1e9a9a0daafd094fd455b54741", "fusion_lat": 0.0, "is_reserved": 0, "lat": 38.915693, "fusion_lon": 0.0, "is_disabled": 0}, {"rental_uris": {"android": "https://dc.lft.to/lastmile_qr_scan", "ios": "https://dc.lft.to/lastmile_qr_scan"}, "type": "electric_scooter", "lon": -77.0341575, "name": "4a4a5884a021c1c44a25181c3290f21c", "bike_id": "4a4a5884a021c1c44a25181c3290f21c", "fusion_lat": 0.0, "is_reserved": 0, "lat": 38.929383, "fusion_lon": 0.0, "is_disabled": 0}, {"rental_uris": {"android": "https://dc.lft.to/lastmile_qr_scan", "ios": "https://dc.lft.to/lastmile_qr_scan"}, "type": "electric_scooter", "lon": -77.03650516666667, "name": "6d19f8cd6e97cb50a9f3ad3dfa5fe719", "bike_id": "6d19f8cd6e97cb50a9f3ad3dfa5fe719", "fusion_lat": 0.0, "is_reserved": 0, "lat": 38.92103016666667, "fusion_lon": 0.0, "is_disabled": 0}, {"rental_uris": {"android": "https://dc.lft.to/lastmile_qr_scan", "ios": "https://dc.lft.to/lastmile_qr_scan"}, "type": "electric_scooter", "lon": -77.01209766666666, "name": "f17f66891ac74c4e56c70c5df9209267", "bike_id": "f17f66891ac74c4e56c70c5df9209267", "fusion_lat": 0.0, "is_reserved": 0, "lat": 38.893327, "fusion_lon": 0.0, "is_disabled": 0}, {"rental_uris": {"android": "https://dc.lft.to/lastmile_qr_scan", "ios": "https://dc.lft.to/lastmile_qr_scan"}, "type": "electric_scooter", "lon": -77.03067416666667, "name": "ff183c4b5fb25d5207d9b203f4980331", "bike_id": "ff183c4b5fb25d5207d9b203f4980331", "fusion_lat": 0.0, "is_reserved": 0, "lat": 38.880421, "fusion_lon": 0.0, "is_disabled": 0}, {"rental_uris": {"android": "https://dc.lft.to/lastmile_qr_scan", "ios": "https://dc.lft.to/lastmile_qr_scan"}, "type": "electric_scooter", "lon": -77.0258665, "name": "c1f541a518bdb265f9731b056bee6346", "bike_id": "c1f541a518bdb265f9731b056bee6346", "fusion_lat": 0.0, "is_reserved": 0, "lat": 38.89694383333333, "fusion_lon": 0.0, "is_disabled": 0}, {"rental_uris": {"android": "https://dc.lft.to/lastmile_qr_scan", "ios": "https://dc.lft.to/lastmile_qr_scan"}, "type": "electric_scooter", "lon": -77.0346675, "name": "137d5a2d5810c39c98d6e2d92db3d65d", "bike_id": "137d5a2d5810c39c98d6e2d92db3d65d", "fusion_lat": 0.0, "is_reserved": 0, "lat": 38.902308166666664, "fusion_lon": 0.0, "is_disabled": 0}, {"rental_uris": {"android": "https://dc.lft.to/lastmile_qr_scan", "ios": "https://dc.lft.to/lastmile_qr_scan"}, "type": "electric_scooter", "lon": -77.03442566666666, "name": "52fb97aa396953679572fe1433fc622e", "bike_id": "52fb97aa396953679572fe1433fc622e", "fusion_lat": 0.0, "is_reserved": 0, "lat": 38.91803383333333, "fusion_lon": 0.0, "is_disabled": 0}, {"rental_uris": {"android": "https://dc.lft.to/lastmile_qr_scan", "ios": "https://dc.lft.to/lastmile_qr_scan"}, "type": "electric_scooter", "lon": -77.03175433333334, "name": "46ad0dbf8fc407e1062047ccf2b7f48c", "bike_id": "46ad0dbf8fc407e1062047ccf2b7f48c", "fusion_lat": 0.0, "is_reserved": 0, "lat": 38.914161166666666, "fusion_lon": 0.0, "is_disabled": 0}, {"rental_uris": {"android": "https://dc.lft.to/lastmile_qr_scan", "ios": "https://dc.lft.to/lastmile_qr_scan"}, "type": "electric_scooter", "lon": -77.00883466666667, "name": "0e4929bb106fd7281983094cf1351b6b", "bike_id": "0e4929bb106fd7281983094cf1351b6b", "fusion_lat": 0.0, "is_reserved": 0, "lat": 38.87631866666667, "fusion_lon": 0.0, "is_disabled": 0}, {"rental_uris": {"android": "https://dc.lft.to/lastmile_qr_scan", "ios": "https://dc.lft.to/lastmile_qr_scan"}, "type": "electric_scooter", "lon": -77.01205, "name": "8f0c2b3b248e3901e16dd29040d7c1a4", "bike_id": "8f0c2b3b248e3901e16dd29040d7c1a4", "fusion_lat": 0.0, "is_reserved": 0, "lat": 38.87151716666666, "fusion_lon": 0.0, "is_disabled": 0}, {"rental_uris": {"android": "https://dc.lft.to/lastmile_qr_scan", "ios": "https://dc.lft.to/lastmile_qr_scan"}, "type": "electric_bike", "lon": -76.997365, "name": "ec12741aad6ecf22e7afcb8660df3702", "bike_id": "ec12741aad6ecf22e7afcb8660df3702", "fusion_lat": 0.0, "is_reserved": 0, "lat": 38.89088783333333, "fusion_lon": 0.0, "is_disabled": 0}, {"rental_uris": {"android": "https://dc.lft.to/lastmile_qr_scan", "ios": "https://dc.lft.to/lastmile_qr_scan"}, "type": "electric_scooter", "lon": -77.0037005, "name": "d62f2a922c685abbc42ecb20cdc326da", "bike_id": "d62f2a922c685abbc42ecb20cdc326da", "fusion_lat": 0.0, "is_reserved": 0, "lat": 38.8973105, "fusion_lon": 0.0, "is_disabled": 0}, {"rental_uris": {"android": "https://dc.lft.to/lastmile_qr_scan", "ios": "https://dc.lft.to/lastmile_qr_scan"}, "type": "electric_scooter", "lon": -76.998992, "name": "217794bce4d921145956a57c59b10eaa", "bike_id": "217794bce4d921145956a57c59b10eaa", "fusion_lat": 0.0, "is_reserved": 0, "lat": 38.900128, "fusion_lon": 0.0, "is_disabled": 0}, {"rental_uris": {"android": "https://dc.lft.to/lastmile_qr_scan", "ios": "https://dc.lft.to/lastmile_qr_scan"}, "type": "electric_bike", "lon": -77.03622216666666, "name": "d2666614919d9b0eda29fae308f2e973", "bike_id": "d2666614919d9b0eda29fae308f2e973", "fusion_lat": 0.0, "is_reserved": 0, "lat": 38.93767533333333, "fusion_lon": 0.0, "is_disabled": 0}, {"rental_uris": {"android": "https://dc.lft.to/lastmile_qr_scan", "ios": "https://dc.lft.to/lastmile_qr_scan"}, "type": "electric_scooter", "lon": -76.9484055, "name": "330a6e5cd173615701a6ece53962fdc2", "bike_id": "330a6e5cd173615701a6ece53962fdc2", "fusion_lat": 0.0, "is_reserved": 0, "lat": 38.89485166666667, "fusion_lon": 0.0, "is_disabled": 0}, {"rental_uris": {"android": "https://dc.lft.to/lastmile_qr_scan", "ios": "https://dc.lft.to/lastmile_qr_scan"}, "type": "electric_scooter", "lon": -77.01105333333334, "name": "cdc5d97289a68890bdccc704229d5578", "bike_id": "cdc5d97289a68890bdccc704229d5578", "fusion_lat": 0.0, "is_reserved": 0, "lat": 38.903561, "fusion_lon": 0.0, "is_disabled": 0}, {"rental_uris": {"android": "https://dc.lft.to/lastmile_qr_scan", "ios": "https://dc.lft.to/lastmile_qr_scan"}, "type": "electric_scooter", "lon": -77.03266533333333, "name": "855617b0c537efa1996fd54b4079dcdd", "bike_id": "855617b0c537efa1996fd54b4079dcdd", "fusion_lat": 0.0, "is_reserved": 0, "lat": 38.9140145, "fusion_lon": 0.0, "is_disabled": 0}, {"rental_uris": {"android": "https://dc.lft.to/lastmile_qr_scan", "ios": "https://dc.lft.to/lastmile_qr_scan"}, "type": "electric_scooter", "lon": -77.05233866666667, "name": "9f46a9bb27c69c41c87319c8650ead4a", "bike_id": "9f46a9bb27c69c41c87319c8650ead4a", "fusion_lat": 0.0, "is_reserved": 0, "lat": 38.9246135, "fusion_lon": 0.0, "is_disabled": 0}, {"rental_uris": {"android": "https://dc.lft.to/lastmile_qr_scan", "ios": "https://dc.lft.to/lastmile_qr_scan"}, "type": "electric_bike", "lon": -77.01291383333333, "name": "8cc73442ca3f120d6d13d34fd44ae9df", "bike_id": "8cc73442ca3f120d6d13d34fd44ae9df", "fusion_lat": 0.0, "is_reserved": 0, "lat": 39.003760666666665, "fusion_lon": 0.0, "is_disabled": 0}, {"rental_uris": {"android": "https://dc.lft.to/lastmile_qr_scan", "ios": "https://dc.lft.to/lastmile_qr_scan"}, "type": "electric_scooter", "lon": -77.00602433333333, "name": "d9fcd7255232ac876aeaba8a7440ee97", "bike_id": "d9fcd7255232ac876aeaba8a7440ee97", "fusion_lat": 0.0, "is_reserved": 0, "lat": 38.87710416666667, "fusion_lon": 0.0, "is_disabled": 0}, {"rental_uris": {"android": "https://dc.lft.to/lastmile_qr_scan", "ios": "https://dc.lft.to/lastmile_qr_scan"}, "type": "electric_bike", "lon": -77.0852345, "name": "a30659c38ba3f23b9f6ccc83c6384b57", "bike_id": "a30659c38ba3f23b9f6ccc83c6384b57", "fusion_lat": 0.0, "is_reserved": 0, "lat": 38.85652233333333, "fusion_lon": 0.0, "is_disabled": 0}, {"rental_uris": {"android": "https://dc.lft.to/lastmile_qr_scan", "ios": "https://dc.lft.to/lastmile_qr_scan"}, "type": "electric_scooter", "lon": -77.04832483333334, "name": "be536b2ec3fa30f3c26cbb4e9ee6b189", "bike_id": "be536b2ec3fa30f3c26cbb4e9ee6b189", "fusion_lat": 0.0, "is_reserved": 0, "lat": 38.91343883333333, "fusion_lon": 0.0, "is_disabled": 0}, {"rental_uris": {"android": "https://dc.lft.to/lastmile_qr_scan", "ios": "https://dc.lft.to/lastmile_qr_scan"}, "type": "electric_scooter", "lon": -77.02545866666667, "name": "981dbab3fa70a4c4934b7d64c063326c", "bike_id": "981dbab3fa70a4c4934b7d64c063326c", "fusion_lat": 0.0, "is_reserved": 0, "lat": 38.8922355, "fusion_lon": 0.0, "is_disabled": 0}, {"rental_uris": {"android": "https://dc.lft.to/lastmile_qr_scan", "ios": "https://dc.lft.to/lastmile_qr_scan"}, "type": "electric_scooter", "lon": -77.06316466666667, "name": "02aef62febcae6b2c3e541ca53c36333", "bike_id": "02aef62febcae6b2c3e541ca53c36333", "fusion_lat": 0.0, "is_reserved": 0, "lat": 38.9217095, "fusion_lon": 0.0, "is_disabled": 0}, {"rental_uris": {"android": "https://dc.lft.to/lastmile_qr_scan", "ios": "https://dc.lft.to/lastmile_qr_scan"}, "type": "electric_scooter", "lon": -77.02682083333333, "name": "6881551a612337b1793c2425c3e1c84f", "bike_id": "6881551a612337b1793c2425c3e1c84f", "fusion_lat": 0.0, "is_reserved": 0, "lat": 38.909572, "fusion_lon": 0.0, "is_disabled": 0}, {"rental_uris": {"android": "https://dc.lft.to/lastmile_qr_scan", "ios": "https://dc.lft.to/lastmile_qr_scan"}, "type": "electric_scooter", "lon": -77.01719, "name": "944c993fd34710bd320c2b4328af20e7", "bike_id": "944c993fd34710bd320c2b4328af20e7", "fusion_lat": 0.0, "is_reserved": 0, "lat": 38.885921, "fusion_lon": 0.0, "is_disabled": 0}, {"rental_uris": {"android": "https://dc.lft.to/lastmile_qr_scan", "ios": "https://dc.lft.to/lastmile_qr_scan"}, "type": "electric_scooter", "lon": -76.9963075, "name": "fca5f5f5c398ef823e6a27f22ef86cfc", "bike_id": "fca5f5f5c398ef823e6a27f22ef86cfc", "fusion_lat": 0.0, "is_reserved": 0, "lat": 38.846201666666666, "fusion_lon": 0.0, "is_disabled": 0}, {"rental_uris": {"android": "https://dc.lft.to/lastmile_qr_scan", "ios": "https://dc.lft.to/lastmile_qr_scan"}, "type": "electric_bike", "lon": -76.98746133333333, "name": "150c9e72908c11fb45547164bbbf1603", "bike_id": "150c9e72908c11fb45547164bbbf1603", "fusion_lat": 0.0, "is_reserved": 0, "lat": 38.988243, "fusion_lon": 0.0, "is_disabled": 0}, {"rental_uris": {"android": "https://dc.lft.to/lastmile_qr_scan", "ios": "https://dc.lft.to/lastmile_qr_scan"}, "type": "electric_scooter", "lon": -77.02286766666667, "name": "e48eb40f976641bc336f0e77a32f99f4", "bike_id": "e48eb40f976641bc336f0e77a32f99f4", "fusion_lat": 0.0, "is_reserved": 0, "lat": 38.91765616666667, "fusion_lon": 0.0, "is_disabled": 0}, {"rental_uris": {"android": "https://dc.lft.to/lastmile_qr_scan", "ios": "https://dc.lft.to/lastmile_qr_scan"}, "type": "electric_scooter", "lon": -77.011372, "name": "977bc79cb61ee0ee990117fe97c2dcf5", "bike_id": "977bc79cb61ee0ee990117fe97c2dcf5", "fusion_lat": 0.0, "is_reserved": 0, "lat": 38.906442166666665, "fusion_lon": 0.0, "is_disabled": 0}, {"rental_uris": {"android": "https://dc.lft.to/lastmile_qr_scan", "ios": "https://dc.lft.to/lastmile_qr_scan"}, "type": "electric_scooter", "lon": -77.01948083333333, "name": "c5105bcb19065c14f4929808799b22ed", "bike_id": "c5105bcb19065c14f4929808799b22ed", "fusion_lat": 0.0, "is_reserved": 0, "lat": 38.924220166666665, "fusion_lon": 0.0, "is_disabled": 0}, {"rental_uris": {"android": "https://dc.lft.to/lastmile_qr_scan", "ios": "https://dc.lft.to/lastmile_qr_scan"}, "type": "electric_scooter", "lon": -76.93464, "name": "11706fb96c5ab053cd93f699ca5c5593", "bike_id": "11706fb96c5ab053cd93f699ca5c5593", "fusion_lat": 0.0, "is_reserved": 0, "lat": 38.90184216666667, "fusion_lon": 0.0, "is_disabled": 0}, {"rental_uris": {"android": "https://dc.lft.to/lastmile_qr_scan", "ios": "https://dc.lft.to/lastmile_qr_scan"}, "type": "electric_scooter", "lon": -76.99779133333334, "name": "9cb78bb5cbf12448a9f9076a83e527af", "bike_id": "9cb78bb5cbf12448a9f9076a83e527af", "fusion_lat": 0.0, "is_reserved": 0, "lat": 38.84422333333333, "fusion_lon": 0.0, "is_disabled": 0}, {"rental_uris": {"android": "https://dc.lft.to/lastmile_qr_scan", "ios": "https://dc.lft.to/lastmile_qr_scan"}, "type": "electric_scooter", "lon": -77.0280085, "name": "573a37dd338171bad1569a3ee4d0fca3", "bike_id": "573a37dd338171bad1569a3ee4d0fca3", "fusion_lat": 0.0, "is_reserved": 0, "lat": 38.895909833333334, "fusion_lon": 0.0, "is_disabled": 0}, {"rental_uris": {"android": "https://dc.lft.to/lastmile_qr_scan", "ios": "https://dc.lft.to/lastmile_qr_scan"}, "type": "electric_bike", "lon": -76.93451566666667, "name": "9a72ed86e7d3ea78a7eed95396184971", "bike_id": "9a72ed86e7d3ea78a7eed95396184971", "fusion_lat": 0.0, "is_reserved": 0, "lat": 38.969545333333336, "fusion_lon": 0.0, "is_disabled": 0}, {"rental_uris": {"android": "https://dc.lft.to/lastmile_qr_scan", "ios": "https://dc.lft.to/lastmile_qr_scan"}, "type": "electric_scooter", "lon": -77.04653816666666, "name": "2133381579a502b8d6af61ef530735d3", "bike_id": "2133381579a502b8d6af61ef530735d3", "fusion_lat": 0.0, "is_reserved": 0, "lat": 38.892368166666664, "fusion_lon": 0.0, "is_disabled": 0}, {"rental_uris": {"android": "https://dc.lft.to/lastmile_qr_scan", "ios": "https://dc.lft.to/lastmile_qr_scan"}, "type": "electric_scooter", "lon": -77.02277766666667, "name": "0100c49dedf893051ef4569b0070111e", "bike_id": "0100c49dedf893051ef4569b0070111e", "fusion_lat": 0.0, "is_reserved": 0, "lat": 38.91735216666667, "fusion_lon": 0.0, "is_disabled": 0}, {"rental_uris": {"android": "https://dc.lft.to/lastmile_qr_scan", "ios": "https://dc.lft.to/lastmile_qr_scan"}, "type": "electric_bike", "lon": -77.08577566666666, "name": "64c376396d8e8e004d3b4c3523985f10", "bike_id": "64c376396d8e8e004d3b4c3523985f10", "fusion_lat": 0.0, "is_reserved": 0, "lat": 38.87419933333334, "fusion_lon": 0.0, "is_disabled": 0}, {"rental_uris": {"android": "https://dc.lft.to/lastmile_qr_scan", "ios": "https://dc.lft.to/lastmile_qr_scan"}, "type": "electric_scooter", "lon": -77.054439, "name": "4053588bb9b005f5803e9727332073ca", "bike_id": "4053588bb9b005f5803e9727332073ca", "fusion_lat": 0.0, "is_reserved": 0, "lat": 38.92849866666667, "fusion_lon": 0.0, "is_disabled": 0}, {"rental_uris": {"android": "https://dc.lft.to/lastmile_qr_scan", "ios": "https://dc.lft.to/lastmile_qr_scan"}, "type": "electric_scooter", "lon": -77.02711166666667, "name": "0f9507a7c9c134c858a2fb270200d025", "bike_id": "0f9507a7c9c134c858a2fb270200d025", "fusion_lat": 0.0, "is_reserved": 0, "lat": 38.899522, "fusion_lon": 0.0, "is_disabled": 0}, {"rental_uris": {"android": "https://dc.lft.to/lastmile_qr_scan", "ios": "https://dc.lft.to/lastmile_qr_scan"}, "type": "electric_scooter", "lon": -77.02539766666666, "name": "dea9c38a0d3a9c8906749a77a6607d57", "bike_id": "dea9c38a0d3a9c8906749a77a6607d57", "fusion_lat": 0.0, "is_reserved": 0, "lat": 38.9072065, "fusion_lon": 0.0, "is_disabled": 0}, {"rental_uris": {"android": "https://dc.lft.to/lastmile_qr_scan", "ios": "https://dc.lft.to/lastmile_qr_scan"}, "type": "electric_scooter", "lon": -77.0057405, "name": "22fc5f916f58dd6a0e2bd0048bf98427", "bike_id": "22fc5f916f58dd6a0e2bd0048bf98427", "fusion_lat": 0.0, "is_reserved": 0, "lat": 38.90559733333333, "fusion_lon": 0.0, "is_disabled": 0}, {"rental_uris": {"android": "https://dc.lft.to/lastmile_qr_scan", "ios": "https://dc.lft.to/lastmile_qr_scan"}, "type": "electric_scooter", "lon": -77.02512233333333, "name": "4e060c1972ee66985475dc1181d21276", "bike_id": "4e060c1972ee66985475dc1181d21276", "fusion_lat": 0.0, "is_reserved": 0, "lat": 38.941785, "fusion_lon": 0.0, "is_disabled": 0}, {"rental_uris": {"android": "https://dc.lft.to/lastmile_qr_scan", "ios": "https://dc.lft.to/lastmile_qr_scan"}, "type": "electric_scooter", "lon": -76.98041516666666, "name": "ffc4ae33671a767e4be71ccc5a9d2e7b", "bike_id": "ffc4ae33671a767e4be71ccc5a9d2e7b", "fusion_lat": 0.0, "is_reserved": 0, "lat": 38.916776666666664, "fusion_lon": 0.0, "is_disabled": 0}, {"rental_uris": {"android": "https://dc.lft.to/lastmile_qr_scan", "ios": "https://dc.lft.to/lastmile_qr_scan"}, "type": "electric_scooter", "lon": -77.054384, "name": "41129299e26ddb65e24a9dbbdd3e5d6a", "bike_id": "41129299e26ddb65e24a9dbbdd3e5d6a", "fusion_lat": 0.0, "is_reserved": 0, "lat": 38.89600166666666, "fusion_lon": 0.0, "is_disabled": 0}, {"rental_uris": {"android": "https://dc.lft.to/lastmile_qr_scan", "ios": "https://dc.lft.to/lastmile_qr_scan"}, "type": "electric_bike", "lon": -77.02496233333333, "name": "059aa4688c3fa82929dd41b823054461", "bike_id": "059aa4688c3fa82929dd41b823054461", "fusion_lat": 0.0, "is_reserved": 0, "lat": 38.974039166666664, "fusion_lon": 0.0, "is_disabled": 0}, {"rental_uris": {"android": "https://dc.lft.to/lastmile_qr_scan", "ios": "https://dc.lft.to/lastmile_qr_scan"}, "type": "electric_scooter", "lon": -77.03361483333333, "name": "3cd38396363ca7bbbc04703ad6896670", "bike_id": "3cd38396363ca7bbbc04703ad6896670", "fusion_lat": 0.0, "is_reserved": 0, "lat": 38.91188233333333, "fusion_lon": 0.0, "is_disabled": 0}, {"rental_uris": {"android": "https://dc.lft.to/lastmile_qr_scan", "ios": "https://dc.lft.to/lastmile_qr_scan"}, "type": "electric_scooter", "lon": -76.94725533333333, "name": "b9434089db26f69c9dae3a8be6ad440a", "bike_id": "b9434089db26f69c9dae3a8be6ad440a", "fusion_lat": 0.0, "is_reserved": 0, "lat": 38.896756, "fusion_lon": 0.0, "is_disabled": 0}, {"rental_uris": {"android": "https://dc.lft.to/lastmile_qr_scan", "ios": "https://dc.lft.to/lastmile_qr_scan"}, "type": "electric_scooter", "lon": -76.99947166666666, "name": "1f0015ccfb6d710f9e469f22354d2911", "bike_id": "1f0015ccfb6d710f9e469f22354d2911", "fusion_lat": 0.0, "is_reserved": 0, "lat": 38.84289016666666, "fusion_lon": 0.0, "is_disabled": 0}, {"rental_uris": {"android": "https://dc.lft.to/lastmile_qr_scan", "ios": "https://dc.lft.to/lastmile_qr_scan"}, "type": "electric_scooter", "lon": -77.030217, "name": "56ee9d71040231e782f7ddffe1efc38b", "bike_id": "56ee9d71040231e782f7ddffe1efc38b", "fusion_lat": 0.0, "is_reserved": 0, "lat": 38.92686033333333, "fusion_lon": 0.0, "is_disabled": 0}, {"rental_uris": {"android": "https://dc.lft.to/lastmile_qr_scan", "ios": "https://dc.lft.to/lastmile_qr_scan"}, "type": "electric_scooter", "lon": -77.034472, "name": "950049a982c1da66e5fe69603449ca60", "bike_id": "950049a982c1da66e5fe69603449ca60", "fusion_lat": 0.0, "is_reserved": 0, "lat": 38.90584466666667, "fusion_lon": 0.0, "is_disabled": 0}, {"rental_uris": {"android": "https://dc.lft.to/lastmile_qr_scan", "ios": "https://dc.lft.to/lastmile_qr_scan"}, "type": "electric_bike", "lon": -77.032093, "name": "0a2dc7a03d240a8ffafa75a742bc5678", "bike_id": "0a2dc7a03d240a8ffafa75a742bc5678", "fusion_lat": 0.0, "is_reserved": 0, "lat": 38.91648883333333, "fusion_lon": 0.0, "is_disabled": 0}, {"rental_uris": {"android": "https://dc.lft.to/lastmile_qr_scan", "ios": "https://dc.lft.to/lastmile_qr_scan"}, "type": "electric_scooter", "lon": -77.02555116666667, "name": "3dbc6f923f5f1e91576583d659f7bba1", "bike_id": "3dbc6f923f5f1e91576583d659f7bba1", "fusion_lat": 0.0, "is_reserved": 0, "lat": 38.94164083333333, "fusion_lon": 0.0, "is_disabled": 0}, {"rental_uris": {"android": "https://dc.lft.to/lastmile_qr_scan", "ios": "https://dc.lft.to/lastmile_qr_scan"}, "type": "electric_scooter", "lon": -77.048811, "name": "3665d12248a2863694ec7f249215c047", "bike_id": "3665d12248a2863694ec7f249215c047", "fusion_lat": 0.0, "is_reserved": 0, "lat": 38.909739333333334, "fusion_lon": 0.0, "is_disabled": 0}, {"rental_uris": {"android": "https://dc.lft.to/lastmile_qr_scan", "ios": "https://dc.lft.to/lastmile_qr_scan"}, "type": "electric_scooter", "lon": -76.9921375, "name": "b70e3063f01ee440211fb03e7c6ad7f9", "bike_id": "b70e3063f01ee440211fb03e7c6ad7f9", "fusion_lat": 0.0, "is_reserved": 0, "lat": 38.8951115, "fusion_lon": 0.0, "is_disabled": 0}, {"rental_uris": {"android": "https://dc.lft.to/lastmile_qr_scan", "ios": "https://dc.lft.to/lastmile_qr_scan"}, "type": "electric_scooter", "lon": -77.029521, "name": "fbe39938c4083451e444718b294d9f20", "bike_id": "fbe39938c4083451e444718b294d9f20", "fusion_lat": 0.0, "is_reserved": 0, "lat": 38.89797033333333, "fusion_lon": 0.0, "is_disabled": 0}, {"rental_uris": {"android": "https://dc.lft.to/lastmile_qr_scan", "ios": "https://dc.lft.to/lastmile_qr_scan"}, "type": "electric_scooter", "lon": -77.02384033333334, "name": "f07589f52db7b47fd4b52d978edd1610", "bike_id": "f07589f52db7b47fd4b52d978edd1610", "fusion_lat": 0.0, "is_reserved": 0, "lat": 38.920844333333335, "fusion_lon": 0.0, "is_disabled": 0}, {"rental_uris": {"android": "https://dc.lft.to/lastmile_qr_scan", "ios": "https://dc.lft.to/lastmile_qr_scan"}, "type": "electric_scooter", "lon": -77.0318045, "name": "074cf6735b10e4e4c4fe2b96bebe1390", "bike_id": "074cf6735b10e4e4c4fe2b96bebe1390", "fusion_lat": 0.0, "is_reserved": 0, "lat": 38.88659416666667, "fusion_lon": 0.0, "is_disabled": 0}, {"rental_uris": {"android": "https://dc.lft.to/lastmile_qr_scan", "ios": "https://dc.lft.to/lastmile_qr_scan"}, "type": "electric_scooter", "lon": -77.03132316666667, "name": "8f538a5572d0851ff2ba71800f510884", "bike_id": "8f538a5572d0851ff2ba71800f510884", "fusion_lat": 0.0, "is_reserved": 0, "lat": 38.89721983333333, "fusion_lon": 0.0, "is_disabled": 0}, {"rental_uris": {"android": "https://dc.lft.to/lastmile_qr_scan", "ios": "https://dc.lft.to/lastmile_qr_scan"}, "type": "electric_scooter", "lon": -77.01919383333333, "name": "56b9164eac3549cfba711927d3be00e5", "bike_id": "56b9164eac3549cfba711927d3be00e5", "fusion_lat": 0.0, "is_reserved": 0, "lat": 38.9172725, "fusion_lon": 0.0, "is_disabled": 0}, {"rental_uris": {"android": "https://dc.lft.to/lastmile_qr_scan", "ios": "https://dc.lft.to/lastmile_qr_scan"}, "type": "electric_scooter", "lon": -76.9691805, "name": "f34c35cc8fc1028f5e517b8e68f2faae", "bike_id": "f34c35cc8fc1028f5e517b8e68f2faae", "fusion_lat": 0.0, "is_reserved": 0, "lat": 38.855261, "fusion_lon": 0.0, "is_disabled": 0}, {"rental_uris": {"android": "https://dc.lft.to/lastmile_qr_scan", "ios": "https://dc.lft.to/lastmile_qr_scan"}, "type": "electric_scooter", "lon": -77.05032983333334, "name": "fd84235f3d7bf6cdc9aece522c63ab96", "bike_id": "fd84235f3d7bf6cdc9aece522c63ab96", "fusion_lat": 0.0, "is_reserved": 0, "lat": 38.9236025, "fusion_lon": 0.0, "is_disabled": 0}, {"rental_uris": {"android": "https://dc.lft.to/lastmile_qr_scan", "ios": "https://dc.lft.to/lastmile_qr_scan"}, "type": "electric_scooter", "lon": -77.04054683333334, "name": "fb8c8589903d33b07e2a896d6ed6f9d6", "bike_id": "fb8c8589903d33b07e2a896d6ed6f9d6", "fusion_lat": 0.0, "is_reserved": 0, "lat": 38.928773666666665, "fusion_lon": 0.0, "is_disabled": 0}, {"rental_uris": {"android": "https://dc.lft.to/lastmile_qr_scan", "ios": "https://dc.lft.to/lastmile_qr_scan"}, "type": "electric_bike", "lon": -77.05038133333333, "name": "fb13dc7371081f9360d19f1a8011cb34", "bike_id": "fb13dc7371081f9360d19f1a8011cb34", "fusion_lat": 0.0, "is_reserved": 0, "lat": 38.911121666666666, "fusion_lon": 0.0, "is_disabled": 0}, {"rental_uris": {"android": "https://dc.lft.to/lastmile_qr_scan", "ios": "https://dc.lft.to/lastmile_qr_scan"}, "type": "electric_scooter", "lon": -77.02208666666667, "name": "aa7f898091cd3fe94536b04d91d9b9ed", "bike_id": "aa7f898091cd3fe94536b04d91d9b9ed", "fusion_lat": 0.0, "is_reserved": 0, "lat": 38.91270133333333, "fusion_lon": 0.0, "is_disabled": 0}, {"rental_uris": {"android": "https://dc.lft.to/lastmile_qr_scan", "ios": "https://dc.lft.to/lastmile_qr_scan"}, "type": "electric_scooter", "lon": -77.032063, "name": "8db840dd091929a2ff49039be32583f4", "bike_id": "8db840dd091929a2ff49039be32583f4", "fusion_lat": 0.0, "is_reserved": 0, "lat": 38.918550833333335, "fusion_lon": 0.0, "is_disabled": 0}, {"rental_uris": {"android": "https://dc.lft.to/lastmile_qr_scan", "ios": "https://dc.lft.to/lastmile_qr_scan"}, "type": "electric_scooter", "lon": -77.03260533333334, "name": "874f063831f005009d55fb764cc981a9", "bike_id": "874f063831f005009d55fb764cc981a9", "fusion_lat": 0.0, "is_reserved": 0, "lat": 38.94253366666667, "fusion_lon": 0.0, "is_disabled": 0}, {"rental_uris": {"android": "https://dc.lft.to/lastmile_qr_scan", "ios": "https://dc.lft.to/lastmile_qr_scan"}, "type": "electric_bike", "lon": -77.09160066666666, "name": "dc17a11bc3bc1b0ddb6f3b22dc79d6f1", "bike_id": "dc17a11bc3bc1b0ddb6f3b22dc79d6f1", "fusion_lat": 0.0, "is_reserved": 0, "lat": 38.96758966666667, "fusion_lon": 0.0, "is_disabled": 0}, {"rental_uris": {"android": "https://dc.lft.to/lastmile_qr_scan", "ios": "https://dc.lft.to/lastmile_qr_scan"}, "type": "electric_scooter", "lon": -77.03120166666666, "name": "4805b2b709a65e98e7758da82111b81c", "bike_id": "4805b2b709a65e98e7758da82111b81c", "fusion_lat": 0.0, "is_reserved": 0, "lat": 38.97376883333333, "fusion_lon": 0.0, "is_disabled": 0}, {"rental_uris": {"android": "https://dc.lft.to/lastmile_qr_scan", "ios": "https://dc.lft.to/lastmile_qr_scan"}, "type": "electric_scooter", "lon": -77.03259766666666, "name": "e6e5531af1077403ded6b2a70dc852cc", "bike_id": "e6e5531af1077403ded6b2a70dc852cc", "fusion_lat": 0.0, "is_reserved": 0, "lat": 38.932576833333336, "fusion_lon": 0.0, "is_disabled": 0}, {"rental_uris": {"android": "https://dc.lft.to/lastmile_qr_scan", "ios": "https://dc.lft.to/lastmile_qr_scan"}, "type": "electric_scooter", "lon": -77.046542, "name": "d689ecec6186fe3382b9d0f48b8fb8e5", "bike_id": "d689ecec6186fe3382b9d0f48b8fb8e5", "fusion_lat": 0.0, "is_reserved": 0, "lat": 38.89295, "fusion_lon": 0.0, "is_disabled": 0}, {"rental_uris": {"android": "https://dc.lft.to/lastmile_qr_scan", "ios": "https://dc.lft.to/lastmile_qr_scan"}, "type": "electric_scooter", "lon": -77.02400716666666, "name": "f942e2e54686e847119c4a724219f914", "bike_id": "f942e2e54686e847119c4a724219f914", "fusion_lat": 0.0, "is_reserved": 0, "lat": 38.91998183333333, "fusion_lon": 0.0, "is_disabled": 0}, {"rental_uris": {"android": "https://dc.lft.to/lastmile_qr_scan", "ios": "https://dc.lft.to/lastmile_qr_scan"}, "type": "electric_bike", "lon": -77.01462566666666, "name": "1c7358f0513030d5d6157cb7490342fa", "bike_id": "1c7358f0513030d5d6157cb7490342fa", "fusion_lat": 0.0, "is_reserved": 0, "lat": 38.876706166666665, "fusion_lon": 0.0, "is_disabled": 0}, {"rental_uris": {"android": "https://dc.lft.to/lastmile_qr_scan", "ios": "https://dc.lft.to/lastmile_qr_scan"}, "type": "electric_scooter", "lon": -77.02359783333333, "name": "843c801217b6f89188f53d4de890b832", "bike_id": "843c801217b6f89188f53d4de890b832", "fusion_lat": 0.0, "is_reserved": 0, "lat": 38.917859666666665, "fusion_lon": 0.0, "is_disabled": 0}, {"rental_uris": {"android": "https://dc.lft.to/lastmile_qr_scan", "ios": "https://dc.lft.to/lastmile_qr_scan"}, "type": "electric_scooter", "lon": -77.0440785, "name": "3ba91235b955c1e4bcef0a9f59ac86c7", "bike_id": "3ba91235b955c1e4bcef0a9f59ac86c7", "fusion_lat": 0.0, "is_reserved": 0, "lat": 38.87432916666667, "fusion_lon": 0.0, "is_disabled": 0}, {"rental_uris": {"android": "https://dc.lft.to/lastmile_qr_scan", "ios": "https://dc.lft.to/lastmile_qr_scan"}, "type": "electric_scooter", "lon": -76.99483116666667, "name": "29556de5be2cd1126e358b64d4c132ee", "bike_id": "29556de5be2cd1126e358b64d4c132ee", "fusion_lat": 0.0, "is_reserved": 0, "lat": 38.8623095, "fusion_lon": 0.0, "is_disabled": 0}, {"rental_uris": {"android": "https://dc.lft.to/lastmile_qr_scan", "ios": "https://dc.lft.to/lastmile_qr_scan"}, "type": "electric_scooter", "lon": -77.07863366666666, "name": "9a7d6999a049db5c37e9e9e87a161a2d", "bike_id": "9a7d6999a049db5c37e9e9e87a161a2d", "fusion_lat": 0.0, "is_reserved": 0, "lat": 38.91910266666667, "fusion_lon": 0.0, "is_disabled": 0}, {"rental_uris": {"android": "https://dc.lft.to/lastmile_qr_scan", "ios": "https://dc.lft.to/lastmile_qr_scan"}, "type": "electric_scooter", "lon": -77.0234445, "name": "f37e494e7b64a7155cf78378d0cef7d3", "bike_id": "f37e494e7b64a7155cf78378d0cef7d3", "fusion_lat": 0.0, "is_reserved": 0, "lat": 38.96201383333333, "fusion_lon": 0.0, "is_disabled": 0}, {"rental_uris": {"android": "https://dc.lft.to/lastmile_qr_scan", "ios": "https://dc.lft.to/lastmile_qr_scan"}, "type": "electric_scooter", "lon": -77.03561483333333, "name": "883db2d6de038824e8ec4c3510b8ce9d", "bike_id": "883db2d6de038824e8ec4c3510b8ce9d", "fusion_lat": 0.0, "is_reserved": 0, "lat": 38.90374283333333, "fusion_lon": 0.0, "is_disabled": 0}, {"rental_uris": {"android": "https://dc.lft.to/lastmile_qr_scan", "ios": "https://dc.lft.to/lastmile_qr_scan"}, "type": "electric_scooter", "lon": -77.0436285, "name": "151eccab76872838f0f271e0fe600ca6", "bike_id": "151eccab76872838f0f271e0fe600ca6", "fusion_lat": 0.0, "is_reserved": 0, "lat": 38.921237166666664, "fusion_lon": 0.0, "is_disabled": 0}, {"rental_uris": {"android": "https://dc.lft.to/lastmile_qr_scan", "ios": "https://dc.lft.to/lastmile_qr_scan"}, "type": "electric_scooter", "lon": -77.02691983333334, "name": "77cc79eb18e4544f6c514fbd5425a3a0", "bike_id": "77cc79eb18e4544f6c514fbd5425a3a0", "fusion_lat": 0.0, "is_reserved": 0, "lat": 38.9068645, "fusion_lon": 0.0, "is_disabled": 0}, {"rental_uris": {"android": "https://dc.lft.to/lastmile_qr_scan", "ios": "https://dc.lft.to/lastmile_qr_scan"}, "type": "electric_scooter", "lon": -77.029704, "name": "32aa720d13ce6cbaff5137c700096c47", "bike_id": "32aa720d13ce6cbaff5137c700096c47", "fusion_lat": 0.0, "is_reserved": 0, "lat": 38.923129333333335, "fusion_lon": 0.0, "is_disabled": 0}, {"rental_uris": {"android": "https://dc.lft.to/lastmile_qr_scan", "ios": "https://dc.lft.to/lastmile_qr_scan"}, "type": "electric_scooter", "lon": -77.04809616666667, "name": "ece50677cff4cc661892db1595ffaedd", "bike_id": "ece50677cff4cc661892db1595ffaedd", "fusion_lat": 0.0, "is_reserved": 0, "lat": 38.90455333333333, "fusion_lon": 0.0, "is_disabled": 0}, {"rental_uris": {"android": "https://dc.lft.to/lastmile_qr_scan", "ios": "https://dc.lft.to/lastmile_qr_scan"}, "type": "electric_bike", "lon": -77.12501433333334, "name": "d8b8fbfcb5388088c8a3204f173e9609", "bike_id": "d8b8fbfcb5388088c8a3204f173e9609", "fusion_lat": 0.0, "is_reserved": 0, "lat": 39.02419366666667, "fusion_lon": 0.0, "is_disabled": 0}, {"rental_uris": {"android": "https://dc.lft.to/lastmile_qr_scan", "ios": "https://dc.lft.to/lastmile_qr_scan"}, "type": "electric_bike", "lon": -77.00660433333333, "name": "f6257b498a1f8e19afaabd58a389fa0c", "bike_id": "f6257b498a1f8e19afaabd58a389fa0c", "fusion_lat": 0.0, "is_reserved": 0, "lat": 38.945028666666666, "fusion_lon": 0.0, "is_disabled": 0}, {"rental_uris": {"android": "https://dc.lft.to/lastmile_qr_scan", "ios": "https://dc.lft.to/lastmile_qr_scan"}, "type": "electric_scooter", "lon": -77.00590466666667, "name": "815289cb059c09cc3882723e61528eb1", "bike_id": "815289cb059c09cc3882723e61528eb1", "fusion_lat": 0.0, "is_reserved": 0, "lat": 38.915601333333335, "fusion_lon": 0.0, "is_disabled": 0}, {"rental_uris": {"android": "https://dc.lft.to/lastmile_qr_scan", "ios": "https://dc.lft.to/lastmile_qr_scan"}, "type": "electric_scooter", "lon": -76.93834583333333, "name": "6b695434a1b0b7a995dc033a2ea19c9b", "bike_id": "6b695434a1b0b7a995dc033a2ea19c9b", "fusion_lat": 0.0, "is_reserved": 0, "lat": 38.890064, "fusion_lon": 0.0, "is_disabled": 0}, {"rental_uris": {"android": "https://dc.lft.to/lastmile_qr_scan", "ios": "https://dc.lft.to/lastmile_qr_scan"}, "type": "electric_scooter", "lon": -77.02391516666667, "name": "b07dee38e3cdcabd96c753a3f52f552e", "bike_id": "b07dee38e3cdcabd96c753a3f52f552e", "fusion_lat": 0.0, "is_reserved": 0, "lat": 38.92089466666667, "fusion_lon": 0.0, "is_disabled": 0}, {"rental_uris": {"android": "https://dc.lft.to/lastmile_qr_scan", "ios": "https://dc.lft.to/lastmile_qr_scan"}, "type": "electric_scooter", "lon": -77.04319433333333, "name": "a01146d9086e031be6cd02bcc548b421", "bike_id": "a01146d9086e031be6cd02bcc548b421", "fusion_lat": 0.0, "is_reserved": 0, "lat": 38.926449166666664, "fusion_lon": 0.0, "is_disabled": 0}, {"rental_uris": {"android": "https://dc.lft.to/lastmile_qr_scan", "ios": "https://dc.lft.to/lastmile_qr_scan"}, "type": "electric_scooter", "lon": -77.02344533333333, "name": "6cab2323b9a44d505387be6175166b37", "bike_id": "6cab2323b9a44d505387be6175166b37", "fusion_lat": 0.0, "is_reserved": 0, "lat": 38.929862666666665, "fusion_lon": 0.0, "is_disabled": 0}, {"rental_uris": {"android": "https://dc.lft.to/lastmile_qr_scan", "ios": "https://dc.lft.to/lastmile_qr_scan"}, "type": "electric_bike", "lon": -76.93412166666667, "name": "b75fbcd075babe3eb135af2d68eb9fc1", "bike_id": "b75fbcd075babe3eb135af2d68eb9fc1", "fusion_lat": 0.0, "is_reserved": 0, "lat": 38.946253166666665, "fusion_lon": 0.0, "is_disabled": 0}, {"rental_uris": {"android": "https://dc.lft.to/lastmile_qr_scan", "ios": "https://dc.lft.to/lastmile_qr_scan"}, "type": "electric_scooter", "lon": -76.92400516666666, "name": "e259d227a2c1424e272101c844c69ec4", "bike_id": "e259d227a2c1424e272101c844c69ec4", "fusion_lat": 0.0, "is_reserved": 0, "lat": 38.889859333333334, "fusion_lon": 0.0, "is_disabled": 0}, {"rental_uris": {"android": "https://dc.lft.to/lastmile_qr_scan", "ios": "https://dc.lft.to/lastmile_qr_scan"}, "type": "electric_scooter", "lon": -76.97341683333333, "name": "72687ff8542c2ca46fde879ba37bfe77", "bike_id": "72687ff8542c2ca46fde879ba37bfe77", "fusion_lat": 0.0, "is_reserved": 0, "lat": 38.865117833333336, "fusion_lon": 0.0, "is_disabled": 0}, {"rental_uris": {"android": "https://dc.lft.to/lastmile_qr_scan", "ios": "https://dc.lft.to/lastmile_qr_scan"}, "type": "electric_scooter", "lon": -77.0271965, "name": "6b02cff41f3ccfd23c0bcd517cd74e52", "bike_id": "6b02cff41f3ccfd23c0bcd517cd74e52", "fusion_lat": 0.0, "is_reserved": 0, "lat": 38.909040166666664, "fusion_lon": 0.0, "is_disabled": 0}, {"rental_uris": {"android": "https://dc.lft.to/lastmile_qr_scan", "ios": "https://dc.lft.to/lastmile_qr_scan"}, "type": "electric_scooter", "lon": -77.02210683333334, "name": "e2dfe6711b30e1e495f875776389bc44", "bike_id": "e2dfe6711b30e1e495f875776389bc44", "fusion_lat": 0.0, "is_reserved": 0, "lat": 38.9057435, "fusion_lon": 0.0, "is_disabled": 0}, {"rental_uris": {"android": "https://dc.lft.to/lastmile_qr_scan", "ios": "https://dc.lft.to/lastmile_qr_scan"}, "type": "electric_scooter", "lon": -77.02961766666667, "name": "bb9c6a182eeec89314a6dd06058a6f7c", "bike_id": "bb9c6a182eeec89314a6dd06058a6f7c", "fusion_lat": 0.0, "is_reserved": 0, "lat": 38.89330433333333, "fusion_lon": 0.0, "is_disabled": 0}, {"rental_uris": {"android": "https://dc.lft.to/lastmile_qr_scan", "ios": "https://dc.lft.to/lastmile_qr_scan"}, "type": "electric_scooter", "lon": -76.99158316666667, "name": "db0d0c340f556c6638c501c204f6af08", "bike_id": "db0d0c340f556c6638c501c204f6af08", "fusion_lat": 0.0, "is_reserved": 0, "lat": 38.879218, "fusion_lon": 0.0, "is_disabled": 0}, {"rental_uris": {"android": "https://dc.lft.to/lastmile_qr_scan", "ios": "https://dc.lft.to/lastmile_qr_scan"}, "type": "electric_scooter", "lon": -77.04700566666666, "name": "9dab9b23757e3d0c9376e3ed534804e7", "bike_id": "9dab9b23757e3d0c9376e3ed534804e7", "fusion_lat": 0.0, "is_reserved": 0, "lat": 38.912613, "fusion_lon": 0.0, "is_disabled": 0}, {"rental_uris": {"android": "https://dc.lft.to/lastmile_qr_scan", "ios": "https://dc.lft.to/lastmile_qr_scan"}, "type": "electric_scooter", "lon": -77.02307733333333, "name": "c0ab3fae4f809151ad69222035121317", "bike_id": "c0ab3fae4f809151ad69222035121317", "fusion_lat": 0.0, "is_reserved": 0, "lat": 38.928901333333336, "fusion_lon": 0.0, "is_disabled": 0}, {"rental_uris": {"android": "https://dc.lft.to/lastmile_qr_scan", "ios": "https://dc.lft.to/lastmile_qr_scan"}, "type": "electric_scooter", "lon": -77.03146566666666, "name": "a8b89dbb40faf5bb840e490acb6a11d3", "bike_id": "a8b89dbb40faf5bb840e490acb6a11d3", "fusion_lat": 0.0, "is_reserved": 0, "lat": 38.91261866666667, "fusion_lon": 0.0, "is_disabled": 0}, {"rental_uris": {"android": "https://dc.lft.to/lastmile_qr_scan", "ios": "https://dc.lft.to/lastmile_qr_scan"}, "type": "electric_scooter", "lon": -77.02707716666667, "name": "3573cf09e23aa222e5874743e9e0110d", "bike_id": "3573cf09e23aa222e5874743e9e0110d", "fusion_lat": 0.0, "is_reserved": 0, "lat": 38.904622833333335, "fusion_lon": 0.0, "is_disabled": 0}, {"rental_uris": {"android": "https://dc.lft.to/lastmile_qr_scan", "ios": "https://dc.lft.to/lastmile_qr_scan"}, "type": "electric_scooter", "lon": -76.97819216666667, "name": "4863175bd9d9381a17c68b0f91f1cd24", "bike_id": "4863175bd9d9381a17c68b0f91f1cd24", "fusion_lat": 0.0, "is_reserved": 0, "lat": 38.8960595, "fusion_lon": 0.0, "is_disabled": 0}, {"rental_uris": {"android": "https://dc.lft.to/lastmile_qr_scan", "ios": "https://dc.lft.to/lastmile_qr_scan"}, "type": "electric_scooter", "lon": -77.04001216666667, "name": "a5aaffdc8d893043c98ea596bfd16663", "bike_id": "a5aaffdc8d893043c98ea596bfd16663", "fusion_lat": 0.0, "is_reserved": 0, "lat": 38.91805816666667, "fusion_lon": 0.0, "is_disabled": 0}, {"rental_uris": {"android": "https://dc.lft.to/lastmile_qr_scan", "ios": "https://dc.lft.to/lastmile_qr_scan"}, "type": "electric_scooter", "lon": -77.03983516666666, "name": "e0a645dec11cfcd46a440c8d7156c176", "bike_id": "e0a645dec11cfcd46a440c8d7156c176", "fusion_lat": 0.0, "is_reserved": 0, "lat": 38.91621, "fusion_lon": 0.0, "is_disabled": 0}, {"rental_uris": {"android": "https://dc.lft.to/lastmile_qr_scan", "ios": "https://dc.lft.to/lastmile_qr_scan"}, "type": "electric_bike", "lon": -77.12737433333334, "name": "39043c8b1e64cdc1925c4fba648814e9", "bike_id": "39043c8b1e64cdc1925c4fba648814e9", "fusion_lat": 0.0, "is_reserved": 0, "lat": 38.89565, "fusion_lon": 0.0, "is_disabled": 0}, {"rental_uris": {"android": "https://dc.lft.to/lastmile_qr_scan", "ios": "https://dc.lft.to/lastmile_qr_scan"}, "type": "electric_scooter", "lon": -77.03638533333333, "name": "b49edd9ba68ad99967bc2ffd363a0211", "bike_id": "b49edd9ba68ad99967bc2ffd363a0211", "fusion_lat": 0.0, "is_reserved": 0, "lat": 38.917706, "fusion_lon": 0.0, "is_disabled": 0}, {"rental_uris": {"android": "https://dc.lft.to/lastmile_qr_scan", "ios": "https://dc.lft.to/lastmile_qr_scan"}, "type": "electric_scooter", "lon": -77.04977583333333, "name": "74521acadfc504a92a033be5da60c417", "bike_id": "74521acadfc504a92a033be5da60c417", "fusion_lat": 0.0, "is_reserved": 0, "lat": 38.90403633333333, "fusion_lon": 0.0, "is_disabled": 0}, {"rental_uris": {"android": "https://dc.lft.to/lastmile_qr_scan", "ios": "https://dc.lft.to/lastmile_qr_scan"}, "type": "electric_scooter", "lon": -77.0103585, "name": "2ccbb0792b29a0cf9613040674ff16d4", "bike_id": "2ccbb0792b29a0cf9613040674ff16d4", "fusion_lat": 0.0, "is_reserved": 0, "lat": 38.86741, "fusion_lon": 0.0, "is_disabled": 0}, {"rental_uris": {"android": "https://dc.lft.to/lastmile_qr_scan", "ios": "https://dc.lft.to/lastmile_qr_scan"}, "type": "electric_scooter", "lon": -76.99368733333333, "name": "7d9701dbb0d27855e540ce30a3e66c55", "bike_id": "7d9701dbb0d27855e540ce30a3e66c55", "fusion_lat": 0.0, "is_reserved": 0, "lat": 38.90052933333333, "fusion_lon": 0.0, "is_disabled": 0}, {"rental_uris": {"android": "https://dc.lft.to/lastmile_qr_scan", "ios": "https://dc.lft.to/lastmile_qr_scan"}, "type": "electric_scooter", "lon": -76.98843666666667, "name": "4198a2a34a4aa97767a66c3af82ec844", "bike_id": "4198a2a34a4aa97767a66c3af82ec844", "fusion_lat": 0.0, "is_reserved": 0, "lat": 38.90345166666667, "fusion_lon": 0.0, "is_disabled": 0}, {"rental_uris": {"android": "https://dc.lft.to/lastmile_qr_scan", "ios": "https://dc.lft.to/lastmile_qr_scan"}, "type": "electric_scooter", "lon": -77.02772133333333, "name": "330f0abfb619830e1c1980914013d29b", "bike_id": "330f0abfb619830e1c1980914013d29b", "fusion_lat": 0.0, "is_reserved": 0, "lat": 38.892154166666664, "fusion_lon": 0.0, "is_disabled": 0}, {"rental_uris": {"android": "https://dc.lft.to/lastmile_qr_scan", "ios": "https://dc.lft.to/lastmile_qr_scan"}, "type": "electric_scooter", "lon": -77.03182016666666, "name": "813623efcbf3a06d467f4c5c70a46683", "bike_id": "813623efcbf3a06d467f4c5c70a46683", "fusion_lat": 0.0, "is_reserved": 0, "lat": 38.91544616666667, "fusion_lon": 0.0, "is_disabled": 0}, {"rental_uris": {"android": "https://dc.lft.to/lastmile_qr_scan", "ios": "https://dc.lft.to/lastmile_qr_scan"}, "type": "electric_scooter", "lon": -77.0249015, "name": "8e190f93364b89a2d580e517fb566881", "bike_id": "8e190f93364b89a2d580e517fb566881", "fusion_lat": 0.0, "is_reserved": 0, "lat": 38.932889, "fusion_lon": 0.0, "is_disabled": 0}, {"rental_uris": {"android": "https://dc.lft.to/lastmile_qr_scan", "ios": "https://dc.lft.to/lastmile_qr_scan"}, "type": "electric_scooter", "lon": -77.0328915, "name": "cfba7e8ac03107706e514875a9656596", "bike_id": "cfba7e8ac03107706e514875a9656596", "fusion_lat": 0.0, "is_reserved": 0, "lat": 38.956516666666666, "fusion_lon": 0.0, "is_disabled": 0}, {"rental_uris": {"android": "https://dc.lft.to/lastmile_qr_scan", "ios": "https://dc.lft.to/lastmile_qr_scan"}, "type": "electric_bike", "lon": -76.9461195, "name": "dd19aebf4c3a6a2ef4a8c97d3a1cd9f3", "bike_id": "dd19aebf4c3a6a2ef4a8c97d3a1cd9f3", "fusion_lat": 0.0, "is_reserved": 0, "lat": 38.83244333333333, "fusion_lon": 0.0, "is_disabled": 0}, {"rental_uris": {"android": "https://dc.lft.to/lastmile_qr_scan", "ios": "https://dc.lft.to/lastmile_qr_scan"}, "type": "electric_scooter", "lon": -77.05311016666667, "name": "92b7ac2b5d066b03b168876a5af416a6", "bike_id": "92b7ac2b5d066b03b168876a5af416a6", "fusion_lat": 0.0, "is_reserved": 0, "lat": 38.90681716666667, "fusion_lon": 0.0, "is_disabled": 0}, {"rental_uris": {"android": "https://dc.lft.to/lastmile_qr_scan", "ios": "https://dc.lft.to/lastmile_qr_scan"}, "type": "electric_scooter", "lon": -77.02717333333334, "name": "fe5c809e83acd4ee03a05b85b4b93b13", "bike_id": "fe5c809e83acd4ee03a05b85b4b93b13", "fusion_lat": 0.0, "is_reserved": 0, "lat": 38.951293666666665, "fusion_lon": 0.0, "is_disabled": 0}, {"rental_uris": {"android": "https://dc.lft.to/lastmile_qr_scan", "ios": "https://dc.lft.to/lastmile_qr_scan"}, "type": "electric_scooter", "lon": -77.03795083333333, "name": "0d5fc67b68e77063b5836dca68929bcc", "bike_id": "0d5fc67b68e77063b5836dca68929bcc", "fusion_lat": 0.0, "is_reserved": 0, "lat": 38.933177666666666, "fusion_lon": 0.0, "is_disabled": 0}, {"rental_uris": {"android": "https://dc.lft.to/lastmile_qr_scan", "ios": "https://dc.lft.to/lastmile_qr_scan"}, "type": "electric_scooter", "lon": -77.03267616666666, "name": "8dc28ea500d6397ad307cd98a886dc1f", "bike_id": "8dc28ea500d6397ad307cd98a886dc1f", "fusion_lat": 0.0, "is_reserved": 0, "lat": 38.928382666666664, "fusion_lon": 0.0, "is_disabled": 0}, {"rental_uris": {"android": "https://dc.lft.to/lastmile_qr_scan", "ios": "https://dc.lft.to/lastmile_qr_scan"}, "type": "electric_scooter", "lon": -77.025754, "name": "3623d9ec0ce64114361dec3301e1a3d0", "bike_id": "3623d9ec0ce64114361dec3301e1a3d0", "fusion_lat": 0.0, "is_reserved": 0, "lat": 38.925067166666665, "fusion_lon": 0.0, "is_disabled": 0}, {"rental_uris": {"android": "https://dc.lft.to/lastmile_qr_scan", "ios": "https://dc.lft.to/lastmile_qr_scan"}, "type": "electric_scooter", "lon": -76.98768116666666, "name": "970fd263e32aab0889f115bcb65157d2", "bike_id": "970fd263e32aab0889f115bcb65157d2", "fusion_lat": 0.0, "is_reserved": 0, "lat": 38.88309666666667, "fusion_lon": 0.0, "is_disabled": 0}, {"rental_uris": {"android": "https://dc.lft.to/lastmile_qr_scan", "ios": "https://dc.lft.to/lastmile_qr_scan"}, "type": "electric_scooter", "lon": -76.9946335, "name": "fc4f2602009e40306d572e4862dc4efd", "bike_id": "fc4f2602009e40306d572e4862dc4efd", "fusion_lat": 0.0, "is_reserved": 0, "lat": 38.922663166666666, "fusion_lon": 0.0, "is_disabled": 0}, {"rental_uris": {"android": "https://dc.lft.to/lastmile_qr_scan", "ios": "https://dc.lft.to/lastmile_qr_scan"}, "type": "electric_scooter", "lon": -77.0487755, "name": "a5f2c4097e41ea577c8cd8530c2d199d", "bike_id": "a5f2c4097e41ea577c8cd8530c2d199d", "fusion_lat": 0.0, "is_reserved": 0, "lat": 38.9030785, "fusion_lon": 0.0, "is_disabled": 0}, {"rental_uris": {"android": "https://dc.lft.to/lastmile_qr_scan", "ios": "https://dc.lft.to/lastmile_qr_scan"}, "type": "electric_scooter", "lon": -77.03937733333333, "name": "ccc642e259bc0d9ded05c8b7d22c22cd", "bike_id": "ccc642e259bc0d9ded05c8b7d22c22cd", "fusion_lat": 0.0, "is_reserved": 0, "lat": 38.908265, "fusion_lon": 0.0, "is_disabled": 0}, {"rental_uris": {"android": "https://dc.lft.to/lastmile_qr_scan", "ios": "https://dc.lft.to/lastmile_qr_scan"}, "type": "electric_scooter", "lon": -77.01363933333333, "name": "0ee0327fb829fa2686d9979c2ba26ce2", "bike_id": "0ee0327fb829fa2686d9979c2ba26ce2", "fusion_lat": 0.0, "is_reserved": 0, "lat": 38.9192545, "fusion_lon": 0.0, "is_disabled": 0}, {"rental_uris": {"android": "https://dc.lft.to/lastmile_qr_scan", "ios": "https://dc.lft.to/lastmile_qr_scan"}, "type": "electric_bike", "lon": -76.99852366666667, "name": "42dc35f0f1ee82d66307627bc5e2cf56", "bike_id": "42dc35f0f1ee82d66307627bc5e2cf56", "fusion_lat": 0.0, "is_reserved": 0, "lat": 38.902495333333334, "fusion_lon": 0.0, "is_disabled": 0}, {"rental_uris": {"android": "https://dc.lft.to/lastmile_qr_scan", "ios": "https://dc.lft.to/lastmile_qr_scan"}, "type": "electric_scooter", "lon": -77.01667116666667, "name": "9546fbe765384a906c32aaa7fb409355", "bike_id": "9546fbe765384a906c32aaa7fb409355", "fusion_lat": 0.0, "is_reserved": 0, "lat": 38.88342516666667, "fusion_lon": 0.0, "is_disabled": 0}, {"rental_uris": {"android": "https://dc.lft.to/lastmile_qr_scan", "ios": "https://dc.lft.to/lastmile_qr_scan"}, "type": "electric_scooter", "lon": -77.03823, "name": "58fb958b83d947af0255d094fad161dd", "bike_id": "58fb958b83d947af0255d094fad161dd", "fusion_lat": 0.0, "is_reserved": 0, "lat": 38.9032755, "fusion_lon": 0.0, "is_disabled": 0}, {"rental_uris": {"android": "https://dc.lft.to/lastmile_qr_scan", "ios": "https://dc.lft.to/lastmile_qr_scan"}, "type": "electric_scooter", "lon": -76.9379035, "name": "1223399909913ac3ba5e9ba34e4dd0f7", "bike_id": "1223399909913ac3ba5e9ba34e4dd0f7", "fusion_lat": 0.0, "is_reserved": 0, "lat": 38.899719, "fusion_lon": 0.0, "is_disabled": 0}, {"rental_uris": {"android": "https://dc.lft.to/lastmile_qr_scan", "ios": "https://dc.lft.to/lastmile_qr_scan"}, "type": "electric_scooter", "lon": -77.03432366666667, "name": "7edb8082f2eebc3f16545d27e58e8bef", "bike_id": "7edb8082f2eebc3f16545d27e58e8bef", "fusion_lat": 0.0, "is_reserved": 0, "lat": 38.9286605, "fusion_lon": 0.0, "is_disabled": 0}, {"rental_uris": {"android": "https://dc.lft.to/lastmile_qr_scan", "ios": "https://dc.lft.to/lastmile_qr_scan"}, "type": "electric_scooter", "lon": -77.02508433333334, "name": "e35c98afed29b552cf470d540e6a9439", "bike_id": "e35c98afed29b552cf470d540e6a9439", "fusion_lat": 0.0, "is_reserved": 0, "lat": 38.926411333333334, "fusion_lon": 0.0, "is_disabled": 0}, {"rental_uris": {"android": "https://dc.lft.to/lastmile_qr_scan", "ios": "https://dc.lft.to/lastmile_qr_scan"}, "type": "electric_scooter", "lon": -77.01954, "name": "afe3ac8bcbf627ad0256f5b5e52fda11", "bike_id": "afe3ac8bcbf627ad0256f5b5e52fda11", "fusion_lat": 0.0, "is_reserved": 0, "lat": 38.8766275, "fusion_lon": 0.0, "is_disabled": 0}, {"rental_uris": {"android": "https://dc.lft.to/lastmile_qr_scan", "ios": "https://dc.lft.to/lastmile_qr_scan"}, "type": "electric_scooter", "lon": -77.02881883333333, "name": "5281c9a2641caa90314cd53557d1c473", "bike_id": "5281c9a2641caa90314cd53557d1c473", "fusion_lat": 0.0, "is_reserved": 0, "lat": 38.9036155, "fusion_lon": 0.0, "is_disabled": 0}, {"rental_uris": {"android": "https://dc.lft.to/lastmile_qr_scan", "ios": "https://dc.lft.to/lastmile_qr_scan"}, "type": "electric_scooter", "lon": -76.990267, "name": "ccf06740e18d9618cc4b4f366acfe6c8", "bike_id": "ccf06740e18d9618cc4b4f366acfe6c8", "fusion_lat": 0.0, "is_reserved": 0, "lat": 38.86403466666667, "fusion_lon": 0.0, "is_disabled": 0}, {"rental_uris": {"android": "https://dc.lft.to/lastmile_qr_scan", "ios": "https://dc.lft.to/lastmile_qr_scan"}, "type": "electric_scooter", "lon": -76.99031266666667, "name": "c3d0e6f86ed9ff4ca2140afb12bc4aaf", "bike_id": "c3d0e6f86ed9ff4ca2140afb12bc4aaf", "fusion_lat": 0.0, "is_reserved": 0, "lat": 38.901536, "fusion_lon": 0.0, "is_disabled": 0}, {"rental_uris": {"android": "https://dc.lft.to/lastmile_qr_scan", "ios": "https://dc.lft.to/lastmile_qr_scan"}, "type": "electric_scooter", "lon": -77.034793, "name": "9196dedbd5b1bb12125421bad90b0fba", "bike_id": "9196dedbd5b1bb12125421bad90b0fba", "fusion_lat": 0.0, "is_reserved": 0, "lat": 38.924827, "fusion_lon": 0.0, "is_disabled": 0}, {"rental_uris": {"android": "https://dc.lft.to/lastmile_qr_scan", "ios": "https://dc.lft.to/lastmile_qr_scan"}, "type": "electric_scooter", "lon": -76.98250816666666, "name": "b80cd76ee9ee168c8aa394caef0d58bc", "bike_id": "b80cd76ee9ee168c8aa394caef0d58bc", "fusion_lat": 0.0, "is_reserved": 0, "lat": 38.90311783333333, "fusion_lon": 0.0, "is_disabled": 0}, {"rental_uris": {"android": "https://dc.lft.to/lastmile_qr_scan", "ios": "https://dc.lft.to/lastmile_qr_scan"}, "type": "electric_bike", "lon": -76.93189316666667, "name": "7915293f93e1cac8ff7b394bd2039b1e", "bike_id": "7915293f93e1cac8ff7b394bd2039b1e", "fusion_lat": 0.0, "is_reserved": 0, "lat": 38.898510333333334, "fusion_lon": 0.0, "is_disabled": 0}, {"rental_uris": {"android": "https://dc.lft.to/lastmile_qr_scan", "ios": "https://dc.lft.to/lastmile_qr_scan"}, "type": "electric_scooter", "lon": -76.99035833333333, "name": "2cde92fe51895a7b8faef756fc8b49e9", "bike_id": "2cde92fe51895a7b8faef756fc8b49e9", "fusion_lat": 0.0, "is_reserved": 0, "lat": 38.8887135, "fusion_lon": 0.0, "is_disabled": 0}, {"rental_uris": {"android": "https://dc.lft.to/lastmile_qr_scan", "ios": "https://dc.lft.to/lastmile_qr_scan"}, "type": "electric_bike", "lon": -77.06950266666666, "name": "206e9a6b98e3417c5d579dfe945e00ed", "bike_id": "206e9a6b98e3417c5d579dfe945e00ed", "fusion_lat": 0.0, "is_reserved": 0, "lat": 38.990391833333334, "fusion_lon": 0.0, "is_disabled": 0}, {"rental_uris": {"android": "https://dc.lft.to/lastmile_qr_scan", "ios": "https://dc.lft.to/lastmile_qr_scan"}, "type": "electric_scooter", "lon": -77.04683366666667, "name": "24ade27e6c2a4ae169c63be2ebec469d", "bike_id": "24ade27e6c2a4ae169c63be2ebec469d", "fusion_lat": 0.0, "is_reserved": 0, "lat": 38.90241483333333, "fusion_lon": 0.0, "is_disabled": 0}, {"rental_uris": {"android": "https://dc.lft.to/lastmile_qr_scan", "ios": "https://dc.lft.to/lastmile_qr_scan"}, "type": "electric_scooter", "lon": -77.06107716666666, "name": "c93bb71d538f87011bb5a0ce0088a489", "bike_id": "c93bb71d538f87011bb5a0ce0088a489", "fusion_lat": 0.0, "is_reserved": 0, "lat": 38.9431755, "fusion_lon": 0.0, "is_disabled": 0}, {"rental_uris": {"android": "https://dc.lft.to/lastmile_qr_scan", "ios": "https://dc.lft.to/lastmile_qr_scan"}, "type": "electric_scooter", "lon": -76.937489, "name": "dc659bb7fc60df7cac154e0991ff6e67", "bike_id": "dc659bb7fc60df7cac154e0991ff6e67", "fusion_lat": 0.0, "is_reserved": 0, "lat": 38.89046116666667, "fusion_lon": 0.0, "is_disabled": 0}, {"rental_uris": {"android": "https://dc.lft.to/lastmile_qr_scan", "ios": "https://dc.lft.to/lastmile_qr_scan"}, "type": "electric_scooter", "lon": -76.997506, "name": "525545b0d163e3133043da305b90680d", "bike_id": "525545b0d163e3133043da305b90680d", "fusion_lat": 0.0, "is_reserved": 0, "lat": 38.921911333333334, "fusion_lon": 0.0, "is_disabled": 0}, {"rental_uris": {"android": "https://dc.lft.to/lastmile_qr_scan", "ios": "https://dc.lft.to/lastmile_qr_scan"}, "type": "electric_scooter", "lon": -77.0318865, "name": "7d763d2872911076eabf06299388c769", "bike_id": "7d763d2872911076eabf06299388c769", "fusion_lat": 0.0, "is_reserved": 0, "lat": 38.90767, "fusion_lon": 0.0, "is_disabled": 0}, {"rental_uris": {"android": "https://dc.lft.to/lastmile_qr_scan", "ios": "https://dc.lft.to/lastmile_qr_scan"}, "type": "electric_scooter", "lon": -77.03203866666666, "name": "f92a09aa4108d37546010a4e95d54c3e", "bike_id": "f92a09aa4108d37546010a4e95d54c3e", "fusion_lat": 0.0, "is_reserved": 0, "lat": 38.907566, "fusion_lon": 0.0, "is_disabled": 0}, {"rental_uris": {"android": "https://dc.lft.to/lastmile_qr_scan", "ios": "https://dc.lft.to/lastmile_qr_scan"}, "type": "electric_scooter", "lon": -77.02457416666667, "name": "74c7592962174ef3ecdaf73ec53c2822", "bike_id": "74c7592962174ef3ecdaf73ec53c2822", "fusion_lat": 0.0, "is_reserved": 0, "lat": 38.939102, "fusion_lon": 0.0, "is_disabled": 0}, {"rental_uris": {"android": "https://dc.lft.to/lastmile_qr_scan", "ios": "https://dc.lft.to/lastmile_qr_scan"}, "type": "electric_scooter", "lon": -77.03996533333333, "name": "780bb6de536db791731d6eb9ddc02fe3", "bike_id": "780bb6de536db791731d6eb9ddc02fe3", "fusion_lat": 0.0, "is_reserved": 0, "lat": 38.918074833333336, "fusion_lon": 0.0, "is_disabled": 0}, {"rental_uris": {"android": "https://dc.lft.to/lastmile_qr_scan", "ios": "https://dc.lft.to/lastmile_qr_scan"}, "type": "electric_scooter", "lon": -77.02300683333333, "name": "1ecd2c62c39078d168fdf80d70684d0b", "bike_id": "1ecd2c62c39078d168fdf80d70684d0b", "fusion_lat": 0.0, "is_reserved": 0, "lat": 38.9181795, "fusion_lon": 0.0, "is_disabled": 0}, {"rental_uris": {"android": "https://dc.lft.to/lastmile_qr_scan", "ios": "https://dc.lft.to/lastmile_qr_scan"}, "type": "electric_scooter", "lon": -77.002709, "name": "e7551a391d72d356b00b6aa5cc61df8b", "bike_id": "e7551a391d72d356b00b6aa5cc61df8b", "fusion_lat": 0.0, "is_reserved": 0, "lat": 38.9148675, "fusion_lon": 0.0, "is_disabled": 0}, {"rental_uris": {"android": "https://dc.lft.to/lastmile_qr_scan", "ios": "https://dc.lft.to/lastmile_qr_scan"}, "type": "electric_scooter", "lon": -77.02548816666666, "name": "1cda42e9e440aa2fecc90767e056b00a", "bike_id": "1cda42e9e440aa2fecc90767e056b00a", "fusion_lat": 0.0, "is_reserved": 0, "lat": 38.89218183333333, "fusion_lon": 0.0, "is_disabled": 0}, {"rental_uris": {"android": "https://dc.lft.to/lastmile_qr_scan", "ios": "https://dc.lft.to/lastmile_qr_scan"}, "type": "electric_scooter", "lon": -77.031863, "name": "1f5916d179eda8a06b086d0b4e690784", "bike_id": "1f5916d179eda8a06b086d0b4e690784", "fusion_lat": 0.0, "is_reserved": 0, "lat": 38.90113233333334, "fusion_lon": 0.0, "is_disabled": 0}, {"rental_uris": {"android": "https://dc.lft.to/lastmile_qr_scan", "ios": "https://dc.lft.to/lastmile_qr_scan"}, "type": "electric_scooter", "lon": -76.98496083333333, "name": "2c76237ad5dab94b7d8799bd863f4737", "bike_id": "2c76237ad5dab94b7d8799bd863f4737", "fusion_lat": 0.0, "is_reserved": 0, "lat": 38.86045983333333, "fusion_lon": 0.0, "is_disabled": 0}, {"rental_uris": {"android": "https://dc.lft.to/lastmile_qr_scan", "ios": "https://dc.lft.to/lastmile_qr_scan"}, "type": "electric_bike", "lon": -77.18292583333333, "name": "4ca17eccf9a0e3f378ec5cc8e7b454c8", "bike_id": "4ca17eccf9a0e3f378ec5cc8e7b454c8", "fusion_lat": 0.0, "is_reserved": 0, "lat": 38.88340683333333, "fusion_lon": 0.0, "is_disabled": 0}, {"rental_uris": {"android": "https://dc.lft.to/lastmile_qr_scan", "ios": "https://dc.lft.to/lastmile_qr_scan"}, "type": "electric_scooter", "lon": -76.99020316666666, "name": "6890a67173b3b82698a94c3e48e9bb05", "bike_id": "6890a67173b3b82698a94c3e48e9bb05", "fusion_lat": 0.0, "is_reserved": 0, "lat": 38.858697666666664, "fusion_lon": 0.0, "is_disabled": 0}, {"rental_uris": {"android": "https://dc.lft.to/lastmile_qr_scan", "ios": "https://dc.lft.to/lastmile_qr_scan"}, "type": "electric_scooter", "lon": -77.02175183333334, "name": "8b45fc6c3b8fd3b4a33df76e1d32f6c0", "bike_id": "8b45fc6c3b8fd3b4a33df76e1d32f6c0", "fusion_lat": 0.0, "is_reserved": 0, "lat": 38.943101166666665, "fusion_lon": 0.0, "is_disabled": 0}, {"rental_uris": {"android": "https://dc.lft.to/lastmile_qr_scan", "ios": "https://dc.lft.to/lastmile_qr_scan"}, "type": "electric_scooter", "lon": -77.0544545, "name": "5cae33b7ac2dba3be91053d5f78cbb2b", "bike_id": "5cae33b7ac2dba3be91053d5f78cbb2b", "fusion_lat": 0.0, "is_reserved": 0, "lat": 38.928548166666666, "fusion_lon": 0.0, "is_disabled": 0}, {"rental_uris": {"android": "https://dc.lft.to/lastmile_qr_scan", "ios": "https://dc.lft.to/lastmile_qr_scan"}, "type": "electric_scooter", "lon": -77.05285483333333, "name": "d65f537734a029732d4d8027b53ddb24", "bike_id": "d65f537734a029732d4d8027b53ddb24", "fusion_lat": 0.0, "is_reserved": 0, "lat": 38.91061883333333, "fusion_lon": 0.0, "is_disabled": 0}, {"rental_uris": {"android": "https://dc.lft.to/lastmile_qr_scan", "ios": "https://dc.lft.to/lastmile_qr_scan"}, "type": "electric_scooter", "lon": -76.99546733333334, "name": "4ef1286ee0ef925260dfbd44e91d2f48", "bike_id": "4ef1286ee0ef925260dfbd44e91d2f48", "fusion_lat": 0.0, "is_reserved": 0, "lat": 38.884207333333336, "fusion_lon": 0.0, "is_disabled": 0}, {"rental_uris": {"android": "https://dc.lft.to/lastmile_qr_scan", "ios": "https://dc.lft.to/lastmile_qr_scan"}, "type": "electric_scooter", "lon": -77.03637066666667, "name": "a87140a9614dd209edd1fa868de9f4dc", "bike_id": "a87140a9614dd209edd1fa868de9f4dc", "fusion_lat": 0.0, "is_reserved": 0, "lat": 38.902607333333336, "fusion_lon": 0.0, "is_disabled": 0}, {"rental_uris": {"android": "https://dc.lft.to/lastmile_qr_scan", "ios": "https://dc.lft.to/lastmile_qr_scan"}, "type": "electric_scooter", "lon": -77.03464716666667, "name": "0d0c5353b147ec34f66ef9944530b5d4", "bike_id": "0d0c5353b147ec34f66ef9944530b5d4", "fusion_lat": 0.0, "is_reserved": 0, "lat": 38.914660833333336, "fusion_lon": 0.0, "is_disabled": 0}, {"rental_uris": {"android": "https://dc.lft.to/lastmile_qr_scan", "ios": "https://dc.lft.to/lastmile_qr_scan"}, "type": "electric_scooter", "lon": -76.98851816666667, "name": "8c30e5f0050fa2fd97897e6637430a57", "bike_id": "8c30e5f0050fa2fd97897e6637430a57", "fusion_lat": 0.0, "is_reserved": 0, "lat": 38.90030433333333, "fusion_lon": 0.0, "is_disabled": 0}, {"rental_uris": {"android": "https://dc.lft.to/lastmile_qr_scan", "ios": "https://dc.lft.to/lastmile_qr_scan"}, "type": "electric_scooter", "lon": -77.04217366666667, "name": "5b5857f32fa0fc281993d475f9e934d8", "bike_id": "5b5857f32fa0fc281993d475f9e934d8", "fusion_lat": 0.0, "is_reserved": 0, "lat": 38.9213235, "fusion_lon": 0.0, "is_disabled": 0}, {"rental_uris": {"android": "https://dc.lft.to/lastmile_qr_scan", "ios": "https://dc.lft.to/lastmile_qr_scan"}, "type": "electric_scooter", "lon": -77.04579216666667, "name": "d766151c944373ef407feb27a10970b9", "bike_id": "d766151c944373ef407feb27a10970b9", "fusion_lat": 0.0, "is_reserved": 0, "lat": 38.921327833333336, "fusion_lon": 0.0, "is_disabled": 0}, {"rental_uris": {"android": "https://dc.lft.to/lastmile_qr_scan", "ios": "https://dc.lft.to/lastmile_qr_scan"}, "type": "electric_bike", "lon": -77.0952135, "name": "7a78a53a413621c22742d1a7af3a59c9", "bike_id": "7a78a53a413621c22742d1a7af3a59c9", "fusion_lat": 0.0, "is_reserved": 0, "lat": 38.83810583333333, "fusion_lon": 0.0, "is_disabled": 0}, {"rental_uris": {"android": "https://dc.lft.to/lastmile_qr_scan", "ios": "https://dc.lft.to/lastmile_qr_scan"}, "type": "electric_scooter", "lon": -77.05430866666667, "name": "c22afd698e45856c32d176a4eac8852f", "bike_id": "c22afd698e45856c32d176a4eac8852f", "fusion_lat": 0.0, "is_reserved": 0, "lat": 38.9285445, "fusion_lon": 0.0, "is_disabled": 0}, {"rental_uris": {"android": "https://dc.lft.to/lastmile_qr_scan", "ios": "https://dc.lft.to/lastmile_qr_scan"}, "type": "electric_scooter", "lon": -77.01977133333334, "name": "1e617eab6e33640099031cd29de8497e", "bike_id": "1e617eab6e33640099031cd29de8497e", "fusion_lat": 0.0, "is_reserved": 0, "lat": 38.90153733333333, "fusion_lon": 0.0, "is_disabled": 0}, {"rental_uris": {"android": "https://dc.lft.to/lastmile_qr_scan", "ios": "https://dc.lft.to/lastmile_qr_scan"}, "type": "electric_scooter", "lon": -77.06530333333333, "name": "fc4ff1ff0ad9cd3ceac7cd40af78eba4", "bike_id": "fc4ff1ff0ad9cd3ceac7cd40af78eba4", "fusion_lat": 0.0, "is_reserved": 0, "lat": 38.934774, "fusion_lon": 0.0, "is_disabled": 0}, {"rental_uris": {"android": "https://dc.lft.to/lastmile_qr_scan", "ios": "https://dc.lft.to/lastmile_qr_scan"}, "type": "electric_scooter", "lon": -77.031905, "name": "a8a44c99bf4a0d196543108462ba9001", "bike_id": "a8a44c99bf4a0d196543108462ba9001", "fusion_lat": 0.0, "is_reserved": 0, "lat": 38.92977166666667, "fusion_lon": 0.0, "is_disabled": 0}, {"rental_uris": {"android": "https://dc.lft.to/lastmile_qr_scan", "ios": "https://dc.lft.to/lastmile_qr_scan"}, "type": "electric_bike", "lon": -76.91594933333333, "name": "7af7c51b7936a7074fffcd3559ca861b", "bike_id": "7af7c51b7936a7074fffcd3559ca861b", "fusion_lat": 0.0, "is_reserved": 0, "lat": 38.88010933333333, "fusion_lon": 0.0, "is_disabled": 0}, {"rental_uris": {"android": "https://dc.lft.to/lastmile_qr_scan", "ios": "https://dc.lft.to/lastmile_qr_scan"}, "type": "electric_bike", "lon": -76.97820766666666, "name": "de92a674e8c230cea2b39de7c28bd866", "bike_id": "de92a674e8c230cea2b39de7c28bd866", "fusion_lat": 0.0, "is_reserved": 0, "lat": 38.8460925, "fusion_lon": 0.0, "is_disabled": 0}, {"rental_uris": {"android": "https://dc.lft.to/lastmile_qr_scan", "ios": "https://dc.lft.to/lastmile_qr_scan"}, "type": "electric_scooter", "lon": -77.0021815, "name": "92b6be1d2eb0b55f17f76090628b585d", "bike_id": "92b6be1d2eb0b55f17f76090628b585d", "fusion_lat": 0.0, "is_reserved": 0, "lat": 38.9003055, "fusion_lon": 0.0, "is_disabled": 0}, {"rental_uris": {"android": "https://dc.lft.to/lastmile_qr_scan", "ios": "https://dc.lft.to/lastmile_qr_scan"}, "type": "electric_scooter", "lon": -77.06242066666667, "name": "80eda5f0096639470f90129b7e625680", "bike_id": "80eda5f0096639470f90129b7e625680", "fusion_lat": 0.0, "is_reserved": 0, "lat": 38.90532666666667, "fusion_lon": 0.0, "is_disabled": 0}, {"rental_uris": {"android": "https://dc.lft.to/lastmile_qr_scan", "ios": "https://dc.lft.to/lastmile_qr_scan"}, "type": "electric_scooter", "lon": -77.031959, "name": "ac1105db848b5659e6bf8954d79447a2", "bike_id": "ac1105db848b5659e6bf8954d79447a2", "fusion_lat": 0.0, "is_reserved": 0, "lat": 38.91122266666667, "fusion_lon": 0.0, "is_disabled": 0}, {"rental_uris": {"android": "https://dc.lft.to/lastmile_qr_scan", "ios": "https://dc.lft.to/lastmile_qr_scan"}, "type": "electric_bike", "lon": -76.908142, "name": "5f90f8232a230371613a3b75f55d144e", "bike_id": "5f90f8232a230371613a3b75f55d144e", "fusion_lat": 0.0, "is_reserved": 0, "lat": 38.99454033333333, "fusion_lon": 0.0, "is_disabled": 0}, {"rental_uris": {"android": "https://dc.lft.to/lastmile_qr_scan", "ios": "https://dc.lft.to/lastmile_qr_scan"}, "type": "electric_scooter", "lon": -76.99464383333333, "name": "9185b6d24d8f0579f8aba2bfb1260132", "bike_id": "9185b6d24d8f0579f8aba2bfb1260132", "fusion_lat": 0.0, "is_reserved": 0, "lat": 38.862171333333336, "fusion_lon": 0.0, "is_disabled": 0}, {"rental_uris": {"android": "https://dc.lft.to/lastmile_qr_scan", "ios": "https://dc.lft.to/lastmile_qr_scan"}, "type": "electric_scooter", "lon": -77.05736066666667, "name": "8752e5d442668c943878b313bdd0be9b", "bike_id": "8752e5d442668c943878b313bdd0be9b", "fusion_lat": 0.0, "is_reserved": 0, "lat": 38.93364283333333, "fusion_lon": 0.0, "is_disabled": 0}, {"rental_uris": {"android": "https://dc.lft.to/lastmile_qr_scan", "ios": "https://dc.lft.to/lastmile_qr_scan"}, "type": "electric_scooter", "lon": -77.10166966666667, "name": "6b5f844dcc0509d4c4752cd51b666c3c", "bike_id": "6b5f844dcc0509d4c4752cd51b666c3c", "fusion_lat": 0.0, "is_reserved": 0, "lat": 38.9254485, "fusion_lon": 0.0, "is_disabled": 0}, {"rental_uris": {"android": "https://dc.lft.to/lastmile_qr_scan", "ios": "https://dc.lft.to/lastmile_qr_scan"}, "type": "electric_scooter", "lon": -76.98716233333333, "name": "cd890ddf31dcdc01a1126f25a61696a9", "bike_id": "cd890ddf31dcdc01a1126f25a61696a9", "fusion_lat": 0.0, "is_reserved": 0, "lat": 38.89930116666667, "fusion_lon": 0.0, "is_disabled": 0}, {"rental_uris": {"android": "https://dc.lft.to/lastmile_qr_scan", "ios": "https://dc.lft.to/lastmile_qr_scan"}, "type": "electric_scooter", "lon": -77.044006, "name": "ef9b29a8c6c91b2571ea988ae61699a6", "bike_id": "ef9b29a8c6c91b2571ea988ae61699a6", "fusion_lat": 0.0, "is_reserved": 0, "lat": 38.92341833333333, "fusion_lon": 0.0, "is_disabled": 0}, {"rental_uris": {"android": "https://dc.lft.to/lastmile_qr_scan", "ios": "https://dc.lft.to/lastmile_qr_scan"}, "type": "electric_bike", "lon": -77.10127583333333, "name": "4685b60ee68770a29e64d2dfee55ef0a", "bike_id": "4685b60ee68770a29e64d2dfee55ef0a", "fusion_lat": 0.0, "is_reserved": 0, "lat": 38.852107333333336, "fusion_lon": 0.0, "is_disabled": 0}, {"rental_uris": {"android": "https://dc.lft.to/lastmile_qr_scan", "ios": "https://dc.lft.to/lastmile_qr_scan"}, "type": "electric_scooter", "lon": -77.03490333333333, "name": "824efd17f8af37940cc5e4721c820843", "bike_id": "824efd17f8af37940cc5e4721c820843", "fusion_lat": 0.0, "is_reserved": 0, "lat": 38.903772333333336, "fusion_lon": 0.0, "is_disabled": 0}, {"rental_uris": {"android": "https://dc.lft.to/lastmile_qr_scan", "ios": "https://dc.lft.to/lastmile_qr_scan"}, "type": "electric_scooter", "lon": -77.03396316666667, "name": "52f6143563a6bf1b330b87d4889273d0", "bike_id": "52f6143563a6bf1b330b87d4889273d0", "fusion_lat": 0.0, "is_reserved": 0, "lat": 38.92042816666667, "fusion_lon": 0.0, "is_disabled": 0}, {"rental_uris": {"android": "https://dc.lft.to/lastmile_qr_scan", "ios": "https://dc.lft.to/lastmile_qr_scan"}, "type": "electric_scooter", "lon": -77.02976083333333, "name": "3641da47a6ce199dea1186f87df60af1", "bike_id": "3641da47a6ce199dea1186f87df60af1", "fusion_lat": 0.0, "is_reserved": 0, "lat": 38.962295166666664, "fusion_lon": 0.0, "is_disabled": 0}, {"rental_uris": {"android": "https://dc.lft.to/lastmile_qr_scan", "ios": "https://dc.lft.to/lastmile_qr_scan"}, "type": "electric_scooter", "lon": -76.994907, "name": "ee9bb54c1149700fd78c160d5e09588b", "bike_id": "ee9bb54c1149700fd78c160d5e09588b", "fusion_lat": 0.0, "is_reserved": 0, "lat": 38.86219116666667, "fusion_lon": 0.0, "is_disabled": 0}, {"rental_uris": {"android": "https://dc.lft.to/lastmile_qr_scan", "ios": "https://dc.lft.to/lastmile_qr_scan"}, "type": "electric_scooter", "lon": -77.02374133333333, "name": "012f760b03fe09fb11f216ff2c371a9c", "bike_id": "012f760b03fe09fb11f216ff2c371a9c", "fusion_lat": 0.0, "is_reserved": 0, "lat": 38.91783366666667, "fusion_lon": 0.0, "is_disabled": 0}, {"rental_uris": {"android": "https://dc.lft.to/lastmile_qr_scan", "ios": "https://dc.lft.to/lastmile_qr_scan"}, "type": "electric_scooter", "lon": -77.00200233333334, "name": "753a766abe476812b817ff0c8e8c86d3", "bike_id": "753a766abe476812b817ff0c8e8c86d3", "fusion_lat": 0.0, "is_reserved": 0, "lat": 38.914282, "fusion_lon": 0.0, "is_disabled": 0}, {"rental_uris": {"android": "https://dc.lft.to/lastmile_qr_scan", "ios": "https://dc.lft.to/lastmile_qr_scan"}, "type": "electric_scooter", "lon": -77.0120415, "name": "12361033e513c278445e7769b1e2cd2f", "bike_id": "12361033e513c278445e7769b1e2cd2f", "fusion_lat": 0.0, "is_reserved": 0, "lat": 38.913066666666666, "fusion_lon": 0.0, "is_disabled": 0}, {"rental_uris": {"android": "https://dc.lft.to/lastmile_qr_scan", "ios": "https://dc.lft.to/lastmile_qr_scan"}, "type": "electric_scooter", "lon": -76.98326483333334, "name": "dbf84833bb5b0d66b49767b2f3cbe055", "bike_id": "dbf84833bb5b0d66b49767b2f3cbe055", "fusion_lat": 0.0, "is_reserved": 0, "lat": 38.907413, "fusion_lon": 0.0, "is_disabled": 0}, {"rental_uris": {"android": "https://dc.lft.to/lastmile_qr_scan", "ios": "https://dc.lft.to/lastmile_qr_scan"}, "type": "electric_scooter", "lon": -77.01179216666667, "name": "bfb052a79a205e250c381a8c665c233a", "bike_id": "bfb052a79a205e250c381a8c665c233a", "fusion_lat": 0.0, "is_reserved": 0, "lat": 38.900362333333334, "fusion_lon": 0.0, "is_disabled": 0}, {"rental_uris": {"android": "https://dc.lft.to/lastmile_qr_scan", "ios": "https://dc.lft.to/lastmile_qr_scan"}, "type": "electric_scooter", "lon": -77.04476366666667, "name": "b53758221fb96f47a08dc94d041590df", "bike_id": "b53758221fb96f47a08dc94d041590df", "fusion_lat": 0.0, "is_reserved": 0, "lat": 38.914046166666665, "fusion_lon": 0.0, "is_disabled": 0}, {"rental_uris": {"android": "https://dc.lft.to/lastmile_qr_scan", "ios": "https://dc.lft.to/lastmile_qr_scan"}, "type": "electric_scooter", "lon": -77.02941183333333, "name": "7b212a74c045f6acbb8f91af85ad2a3c", "bike_id": "7b212a74c045f6acbb8f91af85ad2a3c", "fusion_lat": 0.0, "is_reserved": 0, "lat": 38.906649333333334, "fusion_lon": 0.0, "is_disabled": 0}, {"rental_uris": {"android": "https://dc.lft.to/lastmile_qr_scan", "ios": "https://dc.lft.to/lastmile_qr_scan"}, "type": "electric_scooter", "lon": -77.03186916666667, "name": "aafc110789e6304ae6b50752a9317b4b", "bike_id": "aafc110789e6304ae6b50752a9317b4b", "fusion_lat": 0.0, "is_reserved": 0, "lat": 38.90046, "fusion_lon": 0.0, "is_disabled": 0}, {"rental_uris": {"android": "https://dc.lft.to/lastmile_qr_scan", "ios": "https://dc.lft.to/lastmile_qr_scan"}, "type": "electric_scooter", "lon": -77.00226466666666, "name": "44d01cae04d3ff4a24dd5a67c4f3c8ea", "bike_id": "44d01cae04d3ff4a24dd5a67c4f3c8ea", "fusion_lat": 0.0, "is_reserved": 0, "lat": 38.957275333333335, "fusion_lon": 0.0, "is_disabled": 0}, {"rental_uris": {"android": "https://dc.lft.to/lastmile_qr_scan", "ios": "https://dc.lft.to/lastmile_qr_scan"}, "type": "electric_scooter", "lon": -76.9900325, "name": "fed28f34963bd533b31c4fb8125ea2e4", "bike_id": "fed28f34963bd533b31c4fb8125ea2e4", "fusion_lat": 0.0, "is_reserved": 0, "lat": 38.865052, "fusion_lon": 0.0, "is_disabled": 0}, {"rental_uris": {"android": "https://dc.lft.to/lastmile_qr_scan", "ios": "https://dc.lft.to/lastmile_qr_scan"}, "type": "electric_scooter", "lon": -77.01765216666666, "name": "4d0766df5c951c1c6a0809412178e4f8", "bike_id": "4d0766df5c951c1c6a0809412178e4f8", "fusion_lat": 0.0, "is_reserved": 0, "lat": 38.872865, "fusion_lon": 0.0, "is_disabled": 0}, {"rental_uris": {"android": "https://dc.lft.to/lastmile_qr_scan", "ios": "https://dc.lft.to/lastmile_qr_scan"}, "type": "electric_bike", "lon": -76.99493033333333, "name": "f16d4d0e861dc914b7f42b9f9e985153", "bike_id": "f16d4d0e861dc914b7f42b9f9e985153", "fusion_lat": 0.0, "is_reserved": 0, "lat": 38.92572466666667, "fusion_lon": 0.0, "is_disabled": 0}, {"rental_uris": {"android": "https://dc.lft.to/lastmile_qr_scan", "ios": "https://dc.lft.to/lastmile_qr_scan"}, "type": "electric_scooter", "lon": -77.01132666666666, "name": "ed4a353a6b458d67c747372c7848e5ef", "bike_id": "ed4a353a6b458d67c747372c7848e5ef", "fusion_lat": 0.0, "is_reserved": 0, "lat": 38.90732, "fusion_lon": 0.0, "is_disabled": 0}, {"rental_uris": {"android": "https://dc.lft.to/lastmile_qr_scan", "ios": "https://dc.lft.to/lastmile_qr_scan"}, "type": "electric_scooter", "lon": -77.05140683333333, "name": "8185abd3743406db5031944a4cde58a8", "bike_id": "8185abd3743406db5031944a4cde58a8", "fusion_lat": 0.0, "is_reserved": 0, "lat": 38.908003, "fusion_lon": 0.0, "is_disabled": 0}, {"rental_uris": {"android": "https://dc.lft.to/lastmile_qr_scan", "ios": "https://dc.lft.to/lastmile_qr_scan"}, "type": "electric_scooter", "lon": -77.03900383333334, "name": "e3da809260a877e5c5a6ca7682e6cd2a", "bike_id": "e3da809260a877e5c5a6ca7682e6cd2a", "fusion_lat": 0.0, "is_reserved": 0, "lat": 38.922448, "fusion_lon": 0.0, "is_disabled": 0}, {"rental_uris": {"android": "https://dc.lft.to/lastmile_qr_scan", "ios": "https://dc.lft.to/lastmile_qr_scan"},