{"data": {"bikes": [{"bike_id": "daa5257aaa6f238a1a351366e21676a2", "fusion_lon": 0.0, "type": "electric_bike", "name": "daa5257aaa6f238a1a351366e21676a2", "rental_uris": {"android": "https://dc.lft.to/lastmile_qr_scan", "ios": "https://dc.lft.to/lastmile_qr_scan"}, "fusion_lat": 0.0, "lat": 38.8957685, "is_disabled": 0, "lon": -76.97625083333334, "is_reserved": 0}, {"bike_id": "9f34c1fdf51df2bc1ef0de71b1fc2122", "fusion_lon": 0.0, "type": "electric_scooter", "name": "9f34c1fdf51df2bc1ef0de71b1fc2122", "rental_uris": {"android": "https://dc.lft.to/lastmile_qr_scan", "ios": "https://dc.lft.to/lastmile_qr_scan"}, "fusion_lat": 0.0, "lat": 38.928472166666666, "is_disabled": 0, "lon": -77.015848, "is_reserved": 0}, {"bike_id": "828165f4372849e8d902d616a0d05a16", "fusion_lon": 0.0, "type": "electric_scooter", "name": "828165f4372849e8d902d616a0d05a16", "rental_uris": {"android": "https://dc.lft.to/lastmile_qr_scan", "ios": "https://dc.lft.to/lastmile_qr_scan"}, "fusion_lat": 0.0, "lat": 38.87245466666667, "is_disabled": 0, "lon": -77.01060366666667, "is_reserved": 0}, {"bike_id": "d3174056785ae5ef26831ffdcbaf4acf", "fusion_lon": 0.0, "type": "electric_scooter", "name": "d3174056785ae5ef26831ffdcbaf4acf", "rental_uris": {"android": "https://dc.lft.to/lastmile_qr_scan", "ios": "https://dc.lft.to/lastmile_qr_scan"}, "fusion_lat": 0.0, "lat": 38.89844683333333, "is_disabled": 0, "lon": -77.03187716666666, "is_reserved": 0}, {"bike_id": "bf807438c787c94a0d794501df987333", "fusion_lon": 0.0, "type": "electric_scooter", "name": "bf807438c787c94a0d794501df987333", "rental_uris": {"android": "https://dc.lft.to/lastmile_qr_scan", "ios": "https://dc.lft.to/lastmile_qr_scan"}, "fusion_lat": 0.0, "lat": 38.938801, "is_disabled": 0, "lon": -77.024849, "is_reserved": 0}, {"bike_id": "2076d22b0cd1e97cca313d6a468713cd", "fusion_lon": 0.0, "type": "electric_scooter", "name": "2076d22b0cd1e97cca313d6a468713cd", "rental_uris": {"android": "https://dc.lft.to/lastmile_qr_scan", "ios": "https://dc.lft.to/lastmile_qr_scan"}, "fusion_lat": 0.0, "lat": 38.90030983333333, "is_disabled": 0, "lon": -76.9962495, "is_reserved": 0}, {"bike_id": "02e077cc7e275d5e9a67a09281d7e4d7", "fusion_lon": 0.0, "type": "electric_scooter", "name": "02e077cc7e275d5e9a67a09281d7e4d7", "rental_uris": {"android": "https://dc.lft.to/lastmile_qr_scan", "ios": "https://dc.lft.to/lastmile_qr_scan"}, "fusion_lat": 0.0, "lat": 38.905165333333336, "is_disabled": 0, "lon": -77.05145733333333, "is_reserved": 0}, {"bike_id": "43d22645797774c7fd2f4cf521d0e6e7", "fusion_lon": 0.0, "type": "electric_scooter", "name": "43d22645797774c7fd2f4cf521d0e6e7", "rental_uris": {"android": "https://dc.lft.to/lastmile_qr_scan", "ios": "https://dc.lft.to/lastmile_qr_scan"}, "fusion_lat": 0.0, "lat": 38.917005333333336, "is_disabled": 0, "lon": -77.00804583333333, "is_reserved": 0}, {"bike_id": "1f302593a4cba5d39cfd7bcdab579749", "fusion_lon": 0.0, "type": "electric_scooter", "name": "1f302593a4cba5d39cfd7bcdab579749", "rental_uris": {"android": "https://dc.lft.to/lastmile_qr_scan", "ios": "https://dc.lft.to/lastmile_qr_scan"}, "fusion_lat": 0.0, "lat": 38.91712366666667, "is_disabled": 0, "lon": -77.03843466666666, "is_reserved": 0}, {"bike_id": "568fbb89068104201ccb4fffd7390e50", "fusion_lon": 0.0, "type": "electric_scooter", "name": "568fbb89068104201ccb4fffd7390e50", "rental_uris": {"android": "https://dc.lft.to/lastmile_qr_scan", "ios": "https://dc.lft.to/lastmile_qr_scan"}, "fusion_lat": 0.0, "lat": 38.93513, "is_disabled": 0, "lon": -77.03392966666667, "is_reserved": 0}, {"bike_id": "f66fbd2471db7cf2fdf245ae0cef0241", "fusion_lon": 0.0, "type": "electric_scooter", "name": "f66fbd2471db7cf2fdf245ae0cef0241", "rental_uris": {"android": "https://dc.lft.to/lastmile_qr_scan", "ios": "https://dc.lft.to/lastmile_qr_scan"}, "fusion_lat": 0.0, "lat": 38.9188025, "is_disabled": 0, "lon": -77.0219065, "is_reserved": 0}, {"bike_id": "c9fb604d4dd461d4543e1b08268c3a14", "fusion_lon": 0.0, "type": "electric_scooter", "name": "c9fb604d4dd461d4543e1b08268c3a14", "rental_uris": {"android": "https://dc.lft.to/lastmile_qr_scan", "ios": "https://dc.lft.to/lastmile_qr_scan"}, "fusion_lat": 0.0, "lat": 38.89219083333333, "is_disabled": 0, "lon": -77.0268715, "is_reserved": 0}, {"bike_id": "ab7614d0bc3df4264422c9d1040f2829", "fusion_lon": 0.0, "type": "electric_scooter", "name": "ab7614d0bc3df4264422c9d1040f2829", "rental_uris": {"android": "https://dc.lft.to/lastmile_qr_scan", "ios": "https://dc.lft.to/lastmile_qr_scan"}, "fusion_lat": 0.0, "lat": 38.89518666666667, "is_disabled": 0, "lon": -76.94909216666667, "is_reserved": 0}, {"bike_id": "4c455054d9a549b10491dab4432994a7", "fusion_lon": 0.0, "type": "electric_scooter", "name": "4c455054d9a549b10491dab4432994a7", "rental_uris": {"android": "https://dc.lft.to/lastmile_qr_scan", "ios": "https://dc.lft.to/lastmile_qr_scan"}, "fusion_lat": 0.0, "lat": 38.904450833333335, "is_disabled": 0, "lon": -77.0611145, "is_reserved": 0}, {"bike_id": "e4d11c4b805d1371d3f148f616949da6", "fusion_lon": 0.0, "type": "electric_scooter", "name": "e4d11c4b805d1371d3f148f616949da6", "rental_uris": {"android": "https://dc.lft.to/lastmile_qr_scan", "ios": "https://dc.lft.to/lastmile_qr_scan"}, "fusion_lat": 0.0, "lat": 38.938569666666666, "is_disabled": 0, "lon": -77.02491966666666, "is_reserved": 0}, {"bike_id": "7faba45d2eeb603e37627b6f4ce110a8", "fusion_lon": 0.0, "type": "electric_scooter", "name": "7faba45d2eeb603e37627b6f4ce110a8", "rental_uris": {"android": "https://dc.lft.to/lastmile_qr_scan", "ios": "https://dc.lft.to/lastmile_qr_scan"}, "fusion_lat": 0.0, "lat": 38.9464225, "is_disabled": 0, "lon": -77.03038016666666, "is_reserved": 0}, {"bike_id": "02e44e6f23ffe92ce803dc9742e2f0a2", "fusion_lon": 0.0, "type": "electric_scooter", "name": "02e44e6f23ffe92ce803dc9742e2f0a2", "rental_uris": {"android": "https://dc.lft.to/lastmile_qr_scan", "ios": "https://dc.lft.to/lastmile_qr_scan"}, "fusion_lat": 0.0, "lat": 38.929004666666664, "is_disabled": 0, "lon": -77.03763066666667, "is_reserved": 0}, {"bike_id": "5c38d69d0748bca78437b89c1afcc225", "fusion_lon": 0.0, "type": "electric_scooter", "name": "5c38d69d0748bca78437b89c1afcc225", "rental_uris": {"android": "https://dc.lft.to/lastmile_qr_scan", "ios": "https://dc.lft.to/lastmile_qr_scan"}, "fusion_lat": 0.0, "lat": 38.89696516666667, "is_disabled": 0, "lon": -77.02292416666667, "is_reserved": 0}, {"bike_id": "541e6938c22312cbfb464fe188c28bb7", "fusion_lon": 0.0, "type": "electric_scooter", "name": "541e6938c22312cbfb464fe188c28bb7", "rental_uris": {"android": "https://dc.lft.to/lastmile_qr_scan", "ios": "https://dc.lft.to/lastmile_qr_scan"}, "fusion_lat": 0.0, "lat": 38.892223666666666, "is_disabled": 0, "lon": -77.03227433333333, "is_reserved": 0}, {"bike_id": "1c56b03048e4fcb82e7a0c55c378d201", "fusion_lon": 0.0, "type": "electric_bike", "name": "1c56b03048e4fcb82e7a0c55c378d201", "rental_uris": {"android": "https://dc.lft.to/lastmile_qr_scan", "ios": "https://dc.lft.to/lastmile_qr_scan"}, "fusion_lat": 0.0, "lat": 38.86621383333333, "is_disabled": 0, "lon": -76.94574516666667, "is_reserved": 0}, {"bike_id": "f063e2d2d4a38617df012b2edc6f611e", "fusion_lon": 0.0, "type": "electric_scooter", "name": "f063e2d2d4a38617df012b2edc6f611e", "rental_uris": {"android": "https://dc.lft.to/lastmile_qr_scan", "ios": "https://dc.lft.to/lastmile_qr_scan"}, "fusion_lat": 0.0, "lat": 38.912190833333334, "is_disabled": 0, "lon": -77.0451405, "is_reserved": 0}, {"bike_id": "7e2fa1a7bbc0bc67b0a78d15d04dd957", "fusion_lon": 0.0, "type": "electric_scooter", "name": "7e2fa1a7bbc0bc67b0a78d15d04dd957", "rental_uris": {"android": "https://dc.lft.to/lastmile_qr_scan", "ios": "https://dc.lft.to/lastmile_qr_scan"}, "fusion_lat": 0.0, "lat": 38.92938, "is_disabled": 0, "lon": -77.0342175, "is_reserved": 0}, {"bike_id": "88d5c0986685ca384b7e834257187a9e", "fusion_lon": 0.0, "type": "electric_scooter", "name": "88d5c0986685ca384b7e834257187a9e", "rental_uris": {"android": "https://dc.lft.to/lastmile_qr_scan", "ios": "https://dc.lft.to/lastmile_qr_scan"}, "fusion_lat": 0.0, "lat": 38.92127383333333, "is_disabled": 0, "lon": -77.04441033333333, "is_reserved": 0}, {"bike_id": "a1432fe33f6f8c9b4540e779451514ec", "fusion_lon": 0.0, "type": "electric_scooter", "name": "a1432fe33f6f8c9b4540e779451514ec", "rental_uris": {"android": "https://dc.lft.to/lastmile_qr_scan", "ios": "https://dc.lft.to/lastmile_qr_scan"}, "fusion_lat": 0.0, "lat": 38.909638, "is_disabled": 0, "lon": -77.02416016666666, "is_reserved": 0}, {"bike_id": "85c9109b1f8736791b75cac75e92f177", "fusion_lon": 0.0, "type": "electric_scooter", "name": "85c9109b1f8736791b75cac75e92f177", "rental_uris": {"android": "https://dc.lft.to/lastmile_qr_scan", "ios": "https://dc.lft.to/lastmile_qr_scan"}, "fusion_lat": 0.0, "lat": 38.9004515, "is_disabled": 0, "lon": -77.01715766666666, "is_reserved": 0}, {"bike_id": "c3b9a84c7bd9b533a54dad5c1a845a84", "fusion_lon": 0.0, "type": "electric_scooter", "name": "c3b9a84c7bd9b533a54dad5c1a845a84", "rental_uris": {"android": "https://dc.lft.to/lastmile_qr_scan", "ios": "https://dc.lft.to/lastmile_qr_scan"}, "fusion_lat": 0.0, "lat": 38.884304166666666, "is_disabled": 0, "lon": -76.95763366666667, "is_reserved": 0}, {"bike_id": "d37f3549b049cea5673c1924ebbe2bdc", "fusion_lon": 0.0, "type": "electric_bike", "name": "d37f3549b049cea5673c1924ebbe2bdc", "rental_uris": {"android": "https://dc.lft.to/lastmile_qr_scan", "ios": "https://dc.lft.to/lastmile_qr_scan"}, "fusion_lat": 0.0, "lat": 38.996633833333334, "is_disabled": 0, "lon": -77.03799233333334, "is_reserved": 0}, {"bike_id": "e856dde50d850b408a287b525bc837e7", "fusion_lon": 0.0, "type": "electric_scooter", "name": "e856dde50d850b408a287b525bc837e7", "rental_uris": {"android": "https://dc.lft.to/lastmile_qr_scan", "ios": "https://dc.lft.to/lastmile_qr_scan"}, "fusion_lat": 0.0, "lat": 38.91568633333333, "is_disabled": 0, "lon": -77.04670016666667, "is_reserved": 0}, {"bike_id": "27237dac8d3e022ffaf8671fe8898104", "fusion_lon": 0.0, "type": "electric_scooter", "name": "27237dac8d3e022ffaf8671fe8898104", "rental_uris": {"android": "https://dc.lft.to/lastmile_qr_scan", "ios": "https://dc.lft.to/lastmile_qr_scan"}, "fusion_lat": 0.0, "lat": 38.89331983333334, "is_disabled": 0, "lon": -77.01216833333334, "is_reserved": 0}, {"bike_id": "ebdcc01b3111011378bf8fec01d12c6f", "fusion_lon": 0.0, "type": "electric_bike", "name": "ebdcc01b3111011378bf8fec01d12c6f", "rental_uris": {"android": "https://dc.lft.to/lastmile_qr_scan", "ios": "https://dc.lft.to/lastmile_qr_scan"}, "fusion_lat": 0.0, "lat": 38.8988435, "is_disabled": 0, "lon": -76.98392683333333, "is_reserved": 0}, {"bike_id": "64b24ccb07d463b5b04bf3fd9eb1373e", "fusion_lon": 0.0, "type": "electric_scooter", "name": "64b24ccb07d463b5b04bf3fd9eb1373e", "rental_uris": {"android": "https://dc.lft.to/lastmile_qr_scan", "ios": "https://dc.lft.to/lastmile_qr_scan"}, "fusion_lat": 0.0, "lat": 38.88837383333333, "is_disabled": 0, "lon": -77.04910733333334, "is_reserved": 0}, {"bike_id": "c969393579ca940fc84da484de26a6f4", "fusion_lon": 0.0, "type": "electric_scooter", "name": "c969393579ca940fc84da484de26a6f4", "rental_uris": {"android": "https://dc.lft.to/lastmile_qr_scan", "ios": "https://dc.lft.to/lastmile_qr_scan"}, "fusion_lat": 0.0, "lat": 38.880436333333336, "is_disabled": 0, "lon": -77.0306885, "is_reserved": 0}, {"bike_id": "054b671c655345b4f81e733484c5f686", "fusion_lon": 0.0, "type": "electric_bike", "name": "054b671c655345b4f81e733484c5f686", "rental_uris": {"android": "https://dc.lft.to/lastmile_qr_scan", "ios": "https://dc.lft.to/lastmile_qr_scan"}, "fusion_lat": 0.0, "lat": 38.8689725, "is_disabled": 0, "lon": -77.13183566666666, "is_reserved": 0}, {"bike_id": "bbd4e010cc15fc9e22ce1314c0127dee", "fusion_lon": 0.0, "type": "electric_scooter", "name": "bbd4e010cc15fc9e22ce1314c0127dee", "rental_uris": {"android": "https://dc.lft.to/lastmile_qr_scan", "ios": "https://dc.lft.to/lastmile_qr_scan"}, "fusion_lat": 0.0, "lat": 38.8790495, "is_disabled": 0, "lon": -76.99143, "is_reserved": 0}, {"bike_id": "99a66f49c81ee9053a99a72818c780f2", "fusion_lon": 0.0, "type": "electric_scooter", "name": "99a66f49c81ee9053a99a72818c780f2", "rental_uris": {"android": "https://dc.lft.to/lastmile_qr_scan", "ios": "https://dc.lft.to/lastmile_qr_scan"}, "fusion_lat": 0.0, "lat": 38.916803333333334, "is_disabled": 0, "lon": -77.029584, "is_reserved": 0}, {"bike_id": "bfed3eb9f9acb4392a8289d836f32032", "fusion_lon": 0.0, "type": "electric_scooter", "name": "bfed3eb9f9acb4392a8289d836f32032", "rental_uris": {"android": "https://dc.lft.to/lastmile_qr_scan", "ios": "https://dc.lft.to/lastmile_qr_scan"}, "fusion_lat": 0.0, "lat": 38.88187583333333, "is_disabled": 0, "lon": -77.0035635, "is_reserved": 0}, {"bike_id": "f2a0c0bd1e30a6177e35a13ff36dda2d", "fusion_lon": 0.0, "type": "electric_scooter", "name": "f2a0c0bd1e30a6177e35a13ff36dda2d", "rental_uris": {"android": "https://dc.lft.to/lastmile_qr_scan", "ios": "https://dc.lft.to/lastmile_qr_scan"}, "fusion_lat": 0.0, "lat": 38.92901033333333, "is_disabled": 0, "lon": -77.04386283333334, "is_reserved": 0}, {"bike_id": "0353682e5bb196cc6d4c064fe4c96ba0", "fusion_lon": 0.0, "type": "electric_scooter", "name": "0353682e5bb196cc6d4c064fe4c96ba0", "rental_uris": {"android": "https://dc.lft.to/lastmile_qr_scan", "ios": "https://dc.lft.to/lastmile_qr_scan"}, "fusion_lat": 0.0, "lat": 38.85716983333333, "is_disabled": 0, "lon": -76.9710195, "is_reserved": 0}, {"bike_id": "4f05d87808e3b7a769e0af55de8b9d29", "fusion_lon": 0.0, "type": "electric_scooter", "name": "4f05d87808e3b7a769e0af55de8b9d29", "rental_uris": {"android": "https://dc.lft.to/lastmile_qr_scan", "ios": "https://dc.lft.to/lastmile_qr_scan"}, "fusion_lat": 0.0, "lat": 38.899091166666665, "is_disabled": 0, "lon": -77.003436, "is_reserved": 0}, {"bike_id": "6019da71211239463e6fc8937f7953f5", "fusion_lon": 0.0, "type": "electric_scooter", "name": "6019da71211239463e6fc8937f7953f5", "rental_uris": {"android": "https://dc.lft.to/lastmile_qr_scan", "ios": "https://dc.lft.to/lastmile_qr_scan"}, "fusion_lat": 0.0, "lat": 38.89488883333333, "is_disabled": 0, "lon": -77.02681516666667, "is_reserved": 0}, {"bike_id": "7ca5469a4a16f06c1b1a18176cdb403d", "fusion_lon": 0.0, "type": "electric_scooter", "name": "7ca5469a4a16f06c1b1a18176cdb403d", "rental_uris": {"android": "https://dc.lft.to/lastmile_qr_scan", "ios": "https://dc.lft.to/lastmile_qr_scan"}, "fusion_lat": 0.0, "lat": 38.9150395, "is_disabled": 0, "lon": -77.031917, "is_reserved": 0}, {"bike_id": "f70694603283ff80b00f9a82b0e953b8", "fusion_lon": 0.0, "type": "electric_scooter", "name": "f70694603283ff80b00f9a82b0e953b8", "rental_uris": {"android": "https://dc.lft.to/lastmile_qr_scan", "ios": "https://dc.lft.to/lastmile_qr_scan"}, "fusion_lat": 0.0, "lat": 38.921766, "is_disabled": 0, "lon": -77.0401925, "is_reserved": 0}, {"bike_id": "1bf1d5c7d5feaa3a9cd785393de5ec71", "fusion_lon": 0.0, "type": "electric_bike", "name": "1bf1d5c7d5feaa3a9cd785393de5ec71", "rental_uris": {"android": "https://dc.lft.to/lastmile_qr_scan", "ios": "https://dc.lft.to/lastmile_qr_scan"}, "fusion_lat": 0.0, "lat": 38.957395, "is_disabled": 0, "lon": -76.97256416666667, "is_reserved": 0}, {"bike_id": "8eca1f5e22f9468135a6ffc223951e84", "fusion_lon": 0.0, "type": "electric_scooter", "name": "8eca1f5e22f9468135a6ffc223951e84", "rental_uris": {"android": "https://dc.lft.to/lastmile_qr_scan", "ios": "https://dc.lft.to/lastmile_qr_scan"}, "fusion_lat": 0.0, "lat": 38.89606083333334, "is_disabled": 0, "lon": -76.9565915, "is_reserved": 0}, {"bike_id": "04bb945c879e815d52f662c51970f110", "fusion_lon": 0.0, "type": "electric_scooter", "name": "04bb945c879e815d52f662c51970f110", "rental_uris": {"android": "https://dc.lft.to/lastmile_qr_scan", "ios": "https://dc.lft.to/lastmile_qr_scan"}, "fusion_lat": 0.0, "lat": 38.92463216666667, "is_disabled": 0, "lon": -77.078279, "is_reserved": 0}, {"bike_id": "3c20ba97025587c7ac2087460142a985", "fusion_lon": 0.0, "type": "electric_scooter", "name": "3c20ba97025587c7ac2087460142a985", "rental_uris": {"android": "https://dc.lft.to/lastmile_qr_scan", "ios": "https://dc.lft.to/lastmile_qr_scan"}, "fusion_lat": 0.0, "lat": 38.898278833333336, "is_disabled": 0, "lon": -76.9465465, "is_reserved": 0}, {"bike_id": "a1abed8e0278f03dd4145ebc7a2f8a39", "fusion_lon": 0.0, "type": "electric_scooter", "name": "a1abed8e0278f03dd4145ebc7a2f8a39", "rental_uris": {"android": "https://dc.lft.to/lastmile_qr_scan", "ios": "https://dc.lft.to/lastmile_qr_scan"}, "fusion_lat": 0.0, "lat": 38.912647, "is_disabled": 0, "lon": -77.03874533333334, "is_reserved": 0}, {"bike_id": "c057c919fd78d5cff8a08bcceb6ffb36", "fusion_lon": 0.0, "type": "electric_bike", "name": "c057c919fd78d5cff8a08bcceb6ffb36", "rental_uris": {"android": "https://dc.lft.to/lastmile_qr_scan", "ios": "https://dc.lft.to/lastmile_qr_scan"}, "fusion_lat": 0.0, "lat": 38.89350983333333, "is_disabled": 0, "lon": -77.18739383333333, "is_reserved": 0}, {"bike_id": "eba9679ea4423a6b32f703b4ef98e0ae", "fusion_lon": 0.0, "type": "electric_scooter", "name": "eba9679ea4423a6b32f703b4ef98e0ae", "rental_uris": {"android": "https://dc.lft.to/lastmile_qr_scan", "ios": "https://dc.lft.to/lastmile_qr_scan"}, "fusion_lat": 0.0, "lat": 38.908374, "is_disabled": 0, "lon": -77.02598333333333, "is_reserved": 0}, {"bike_id": "8c6fbb0bff062b8757015186f8fe52c3", "fusion_lon": 0.0, "type": "electric_bike", "name": "8c6fbb0bff062b8757015186f8fe52c3", "rental_uris": {"android": "https://dc.lft.to/lastmile_qr_scan", "ios": "https://dc.lft.to/lastmile_qr_scan"}, "fusion_lat": 0.0, "lat": 38.901253, "is_disabled": 0, "lon": -77.03186316666667, "is_reserved": 0}, {"bike_id": "c680455cfbdaf1b54e7e56d6e99db99f", "fusion_lon": 0.0, "type": "electric_scooter", "name": "c680455cfbdaf1b54e7e56d6e99db99f", "rental_uris": {"android": "https://dc.lft.to/lastmile_qr_scan", "ios": "https://dc.lft.to/lastmile_qr_scan"}, "fusion_lat": 0.0, "lat": 38.93039916666667, "is_disabled": 0, "lon": -77.04135983333333, "is_reserved": 0}, {"bike_id": "7e7e95ff903f2f3fb0bfa466b95c38bf", "fusion_lon": 0.0, "type": "electric_scooter", "name": "7e7e95ff903f2f3fb0bfa466b95c38bf", "rental_uris": {"android": "https://dc.lft.to/lastmile_qr_scan", "ios": "https://dc.lft.to/lastmile_qr_scan"}, "fusion_lat": 0.0, "lat": 38.91642266666667, "is_disabled": 0, "lon": -77.0227535, "is_reserved": 0}, {"bike_id": "50febadf992abaea5cc60382744c47de", "fusion_lon": 0.0, "type": "electric_bike", "name": "50febadf992abaea5cc60382744c47de", "rental_uris": {"android": "https://dc.lft.to/lastmile_qr_scan", "ios": "https://dc.lft.to/lastmile_qr_scan"}, "fusion_lat": 0.0, "lat": 38.951168333333335, "is_disabled": 0, "lon": -76.96551316666667, "is_reserved": 0}, {"bike_id": "c28a67092891a20cfb481bb43cbc97be", "fusion_lon": 0.0, "type": "electric_scooter", "name": "c28a67092891a20cfb481bb43cbc97be", "rental_uris": {"android": "https://dc.lft.to/lastmile_qr_scan", "ios": "https://dc.lft.to/lastmile_qr_scan"}, "fusion_lat": 0.0, "lat": 38.9037725, "is_disabled": 0, "lon": -77.02970983333333, "is_reserved": 0}, {"bike_id": "453e4b6ea699a6dadb67ab793789d0da", "fusion_lon": 0.0, "type": "electric_scooter", "name": "453e4b6ea699a6dadb67ab793789d0da", "rental_uris": {"android": "https://dc.lft.to/lastmile_qr_scan", "ios": "https://dc.lft.to/lastmile_qr_scan"}, "fusion_lat": 0.0, "lat": 38.9038535, "is_disabled": 0, "lon": -77.04043516666667, "is_reserved": 0}, {"bike_id": "8a410bf6cc5b1ba9e074e12c6f8f5f31", "fusion_lon": 0.0, "type": "electric_scooter", "name": "8a410bf6cc5b1ba9e074e12c6f8f5f31", "rental_uris": {"android": "https://dc.lft.to/lastmile_qr_scan", "ios": "https://dc.lft.to/lastmile_qr_scan"}, "fusion_lat": 0.0, "lat": 38.89221766666667, "is_disabled": 0, "lon": -77.02955333333334, "is_reserved": 0}, {"bike_id": "71632064038f4a1a58e9b09f4263f399", "fusion_lon": 0.0, "type": "electric_bike", "name": "71632064038f4a1a58e9b09f4263f399", "rental_uris": {"android": "https://dc.lft.to/lastmile_qr_scan", "ios": "https://dc.lft.to/lastmile_qr_scan"}, "fusion_lat": 0.0, "lat": 39.05809883333333, "is_disabled": 0, "lon": -77.12630333333334, "is_reserved": 0}, {"bike_id": "680b4deae8254f43a1ef17d5d232a6fb", "fusion_lon": 0.0, "type": "electric_scooter", "name": "680b4deae8254f43a1ef17d5d232a6fb", "rental_uris": {"android": "https://dc.lft.to/lastmile_qr_scan", "ios": "https://dc.lft.to/lastmile_qr_scan"}, "fusion_lat": 0.0, "lat": 38.91033433333333, "is_disabled": 0, "lon": -77.03127233333333, "is_reserved": 0}, {"bike_id": "fdb4144d049a5ce1698e642e2f7a3673", "fusion_lon": 0.0, "type": "electric_bike", "name": "fdb4144d049a5ce1698e642e2f7a3673", "rental_uris": {"android": "https://dc.lft.to/lastmile_qr_scan", "ios": "https://dc.lft.to/lastmile_qr_scan"}, "fusion_lat": 0.0, "lat": 38.85788266666667, "is_disabled": 0, "lon": -76.98746866666667, "is_reserved": 0}, {"bike_id": "1718efc261d586226d25619b516a8b3c", "fusion_lon": 0.0, "type": "electric_scooter", "name": "1718efc261d586226d25619b516a8b3c", "rental_uris": {"android": "https://dc.lft.to/lastmile_qr_scan", "ios": "https://dc.lft.to/lastmile_qr_scan"}, "fusion_lat": 0.0, "lat": 38.844204, "is_disabled": 0, "lon": -76.998375, "is_reserved": 0}, {"bike_id": "400e05cdc7b71dc6760b262283aee5f5", "fusion_lon": 0.0, "type": "electric_scooter", "name": "400e05cdc7b71dc6760b262283aee5f5", "rental_uris": {"android": "https://dc.lft.to/lastmile_qr_scan", "ios": "https://dc.lft.to/lastmile_qr_scan"}, "fusion_lat": 0.0, "lat": 38.92334733333333, "is_disabled": 0, "lon": -77.03616383333333, "is_reserved": 0}, {"bike_id": "0690d8ddc66ae76a29e21038041faea2", "fusion_lon": 0.0, "type": "electric_bike", "name": "0690d8ddc66ae76a29e21038041faea2", "rental_uris": {"android": "https://dc.lft.to/lastmile_qr_scan", "ios": "https://dc.lft.to/lastmile_qr_scan"}, "fusion_lat": 0.0, "lat": 38.922080666666666, "is_disabled": 0, "lon": -76.98801983333334, "is_reserved": 0}, {"bike_id": "f2a31303e33f5f89c59dd1dbdf8f35ab", "fusion_lon": 0.0, "type": "electric_scooter", "name": "f2a31303e33f5f89c59dd1dbdf8f35ab", "rental_uris": {"android": "https://dc.lft.to/lastmile_qr_scan", "ios": "https://dc.lft.to/lastmile_qr_scan"}, "fusion_lat": 0.0, "lat": 38.955829333333334, "is_disabled": 0, "lon": -77.03651966666666, "is_reserved": 0}, {"bike_id": "f28e6225b55ea86feaf49812e706bc42", "fusion_lon": 0.0, "type": "electric_scooter", "name": "f28e6225b55ea86feaf49812e706bc42", "rental_uris": {"android": "https://dc.lft.to/lastmile_qr_scan", "ios": "https://dc.lft.to/lastmile_qr_scan"}, "fusion_lat": 0.0, "lat": 38.906507833333336, "is_disabled": 0, "lon": -77.05323733333333, "is_reserved": 0}, {"bike_id": "1eafc119782c763c069bbdf8a296acb4", "fusion_lon": 0.0, "type": "electric_scooter", "name": "1eafc119782c763c069bbdf8a296acb4", "rental_uris": {"android": "https://dc.lft.to/lastmile_qr_scan", "ios": "https://dc.lft.to/lastmile_qr_scan"}, "fusion_lat": 0.0, "lat": 38.92358, "is_disabled": 0, "lon": -77.05267716666667, "is_reserved": 0}, {"bike_id": "895f385153e71f24d8230c9873dc223e", "fusion_lon": 0.0, "type": "electric_bike", "name": "895f385153e71f24d8230c9873dc223e", "rental_uris": {"android": "https://dc.lft.to/lastmile_qr_scan", "ios": "https://dc.lft.to/lastmile_qr_scan"}, "fusion_lat": 0.0, "lat": 38.8244285, "is_disabled": 0, "lon": -77.0705225, "is_reserved": 0}, {"bike_id": "505bb242a011cfc147330739633c9528", "fusion_lon": 0.0, "type": "electric_scooter", "name": "505bb242a011cfc147330739633c9528", "rental_uris": {"android": "https://dc.lft.to/lastmile_qr_scan", "ios": "https://dc.lft.to/lastmile_qr_scan"}, "fusion_lat": 0.0, "lat": 38.8653385, "is_disabled": 0, "lon": -76.987076, "is_reserved": 0}, {"bike_id": "0e949456a68cfa92cb50f2ed7d4957cf", "fusion_lon": 0.0, "type": "electric_scooter", "name": "0e949456a68cfa92cb50f2ed7d4957cf", "rental_uris": {"android": "https://dc.lft.to/lastmile_qr_scan", "ios": "https://dc.lft.to/lastmile_qr_scan"}, "fusion_lat": 0.0, "lat": 38.905735666666665, "is_disabled": 0, "lon": -77.04003816666666, "is_reserved": 0}, {"bike_id": "9e0e7b73ba14e1fabb7bfc62fb3387fd", "fusion_lon": 0.0, "type": "electric_bike", "name": "9e0e7b73ba14e1fabb7bfc62fb3387fd", "rental_uris": {"android": "https://dc.lft.to/lastmile_qr_scan", "ios": "https://dc.lft.to/lastmile_qr_scan"}, "fusion_lat": 0.0, "lat": 38.927608166666666, "is_disabled": 0, "lon": -77.02031083333334, "is_reserved": 0}, {"bike_id": "c2172877d5da74671f4b098b4d38a977", "fusion_lon": 0.0, "type": "electric_scooter", "name": "c2172877d5da74671f4b098b4d38a977", "rental_uris": {"android": "https://dc.lft.to/lastmile_qr_scan", "ios": "https://dc.lft.to/lastmile_qr_scan"}, "fusion_lat": 0.0, "lat": 38.90534233333333, "is_disabled": 0, "lon": -77.022099, "is_reserved": 0}, {"bike_id": "2d9da4bd2d99691e0ffdaa67a5078e9c", "fusion_lon": 0.0, "type": "electric_bike", "name": "2d9da4bd2d99691e0ffdaa67a5078e9c", "rental_uris": {"android": "https://dc.lft.to/lastmile_qr_scan", "ios": "https://dc.lft.to/lastmile_qr_scan"}, "fusion_lat": 0.0, "lat": 38.865271166666666, "is_disabled": 0, "lon": -77.12814516666667, "is_reserved": 0}, {"bike_id": "42c574bffb63d5c854eee119dc0a1589", "fusion_lon": 0.0, "type": "electric_bike", "name": "42c574bffb63d5c854eee119dc0a1589", "rental_uris": {"android": "https://dc.lft.to/lastmile_qr_scan", "ios": "https://dc.lft.to/lastmile_qr_scan"}, "fusion_lat": 0.0, "lat": 38.799816666666665, "is_disabled": 0, "lon": -77.12992333333334, "is_reserved": 0}, {"bike_id": "88be23436565caff99da39e641f27164", "fusion_lon": 0.0, "type": "electric_scooter", "name": "88be23436565caff99da39e641f27164", "rental_uris": {"android": "https://dc.lft.to/lastmile_qr_scan", "ios": "https://dc.lft.to/lastmile_qr_scan"}, "fusion_lat": 0.0, "lat": 38.92822616666667, "is_disabled": 0, "lon": -77.022625, "is_reserved": 0}, {"bike_id": "89f6cc74b95b0765a88333c38fceb216", "fusion_lon": 0.0, "type": "electric_scooter", "name": "89f6cc74b95b0765a88333c38fceb216", "rental_uris": {"android": "https://dc.lft.to/lastmile_qr_scan", "ios": "https://dc.lft.to/lastmile_qr_scan"}, "fusion_lat": 0.0, "lat": 38.923651, "is_disabled": 0, "lon": -77.050504, "is_reserved": 0}, {"bike_id": "51f94e4e5aa21320516bb84691450b2e", "fusion_lon": 0.0, "type": "electric_scooter", "name": "51f94e4e5aa21320516bb84691450b2e", "rental_uris": {"android": "https://dc.lft.to/lastmile_qr_scan", "ios": "https://dc.lft.to/lastmile_qr_scan"}, "fusion_lat": 0.0, "lat": 38.8967705, "is_disabled": 0, "lon": -76.94722383333334, "is_reserved": 0}, {"bike_id": "5d85de505959ee794f706e5a956f1df6", "fusion_lon": 0.0, "type": "electric_scooter", "name": "5d85de505959ee794f706e5a956f1df6", "rental_uris": {"android": "https://dc.lft.to/lastmile_qr_scan", "ios": "https://dc.lft.to/lastmile_qr_scan"}, "fusion_lat": 0.0, "lat": 38.93463283333333, "is_disabled": 0, "lon": -77.05784333333334, "is_reserved": 0}, {"bike_id": "d49e78f52bd78be2cf4195bb1dc0432f", "fusion_lon": 0.0, "type": "electric_scooter", "name": "d49e78f52bd78be2cf4195bb1dc0432f", "rental_uris": {"android": "https://dc.lft.to/lastmile_qr_scan", "ios": "https://dc.lft.to/lastmile_qr_scan"}, "fusion_lat": 0.0, "lat": 38.9263865, "is_disabled": 0, "lon": -77.02520633333333, "is_reserved": 0}, {"bike_id": "351024a964969a0a8c21424b7cbef3c7", "fusion_lon": 0.0, "type": "electric_scooter", "name": "351024a964969a0a8c21424b7cbef3c7", "rental_uris": {"android": "https://dc.lft.to/lastmile_qr_scan", "ios": "https://dc.lft.to/lastmile_qr_scan"}, "fusion_lat": 0.0, "lat": 38.89964066666667, "is_disabled": 0, "lon": -76.937633, "is_reserved": 0}, {"bike_id": "617e9214c08a350d013e3ea133745da5", "fusion_lon": 0.0, "type": "electric_scooter", "name": "617e9214c08a350d013e3ea133745da5", "rental_uris": {"android": "https://dc.lft.to/lastmile_qr_scan", "ios": "https://dc.lft.to/lastmile_qr_scan"}, "fusion_lat": 0.0, "lat": 38.90773983333333, "is_disabled": 0, "lon": -77.0305905, "is_reserved": 0}, {"bike_id": "3227e9f3bd1fb795b1b7ebc781e3d7ce", "fusion_lon": 0.0, "type": "electric_scooter", "name": "3227e9f3bd1fb795b1b7ebc781e3d7ce", "rental_uris": {"android": "https://dc.lft.to/lastmile_qr_scan", "ios": "https://dc.lft.to/lastmile_qr_scan"}, "fusion_lat": 0.0, "lat": 38.87454366666667, "is_disabled": 0, "lon": -77.00541216666667, "is_reserved": 0}, {"bike_id": "2874ba6f783c5b472ad54749edd70234", "fusion_lon": 0.0, "type": "electric_bike", "name": "2874ba6f783c5b472ad54749edd70234", "rental_uris": {"android": "https://dc.lft.to/lastmile_qr_scan", "ios": "https://dc.lft.to/lastmile_qr_scan"}, "fusion_lat": 0.0, "lat": 38.990415166666665, "is_disabled": 0, "lon": -77.06960283333333, "is_reserved": 0}, {"bike_id": "4d13eda7e8a51fd87afab6ecea59a8b7", "fusion_lon": 0.0, "type": "electric_scooter", "name": "4d13eda7e8a51fd87afab6ecea59a8b7", "rental_uris": {"android": "https://dc.lft.to/lastmile_qr_scan", "ios": "https://dc.lft.to/lastmile_qr_scan"}, "fusion_lat": 0.0, "lat": 38.917225333333334, "is_disabled": 0, "lon": -77.02700216666666, "is_reserved": 0}, {"bike_id": "f7ed9417c389e4646a834bcb5b4dbdc4", "fusion_lon": 0.0, "type": "electric_bike", "name": "f7ed9417c389e4646a834bcb5b4dbdc4", "rental_uris": {"android": "https://dc.lft.to/lastmile_qr_scan", "ios": "https://dc.lft.to/lastmile_qr_scan"}, "fusion_lat": 0.0, "lat": 38.906187, "is_disabled": 0, "lon": -76.98616483333333, "is_reserved": 0}, {"bike_id": "66f234c8a316ee1fe24e8c2c3f85872f", "fusion_lon": 0.0, "type": "electric_scooter", "name": "66f234c8a316ee1fe24e8c2c3f85872f", "rental_uris": {"android": "https://dc.lft.to/lastmile_qr_scan", "ios": "https://dc.lft.to/lastmile_qr_scan"}, "fusion_lat": 0.0, "lat": 38.911876166666666, "is_disabled": 0, "lon": -77.038593, "is_reserved": 0}, {"bike_id": "28ab6637def21bb3049d719b784adf65", "fusion_lon": 0.0, "type": "electric_scooter", "name": "28ab6637def21bb3049d719b784adf65", "rental_uris": {"android": "https://dc.lft.to/lastmile_qr_scan", "ios": "https://dc.lft.to/lastmile_qr_scan"}, "fusion_lat": 0.0, "lat": 38.90219333333334, "is_disabled": 0, "lon": -76.99019666666666, "is_reserved": 0}, {"bike_id": "bfc8bc8d6f93a972b6c3c30612eeac96", "fusion_lon": 0.0, "type": "electric_scooter", "name": "bfc8bc8d6f93a972b6c3c30612eeac96", "rental_uris": {"android": "https://dc.lft.to/lastmile_qr_scan", "ios": "https://dc.lft.to/lastmile_qr_scan"}, "fusion_lat": 0.0, "lat": 38.918147833333336, "is_disabled": 0, "lon": -77.03300466666667, "is_reserved": 0}, {"bike_id": "0cead565255207db225806458cf72fcc", "fusion_lon": 0.0, "type": "electric_scooter", "name": "0cead565255207db225806458cf72fcc", "rental_uris": {"android": "https://dc.lft.to/lastmile_qr_scan", "ios": "https://dc.lft.to/lastmile_qr_scan"}, "fusion_lat": 0.0, "lat": 38.90866416666667, "is_disabled": 0, "lon": -77.03224833333333, "is_reserved": 0}, {"bike_id": "1c702c748a18985561e044ce998dc6ce", "fusion_lon": 0.0, "type": "electric_scooter", "name": "1c702c748a18985561e044ce998dc6ce", "rental_uris": {"android": "https://dc.lft.to/lastmile_qr_scan", "ios": "https://dc.lft.to/lastmile_qr_scan"}, "fusion_lat": 0.0, "lat": 38.904991333333335, "is_disabled": 0, "lon": -77.0295595, "is_reserved": 0}, {"bike_id": "87ee52107fc79db8790b052bdefedbba", "fusion_lon": 0.0, "type": "electric_scooter", "name": "87ee52107fc79db8790b052bdefedbba", "rental_uris": {"android": "https://dc.lft.to/lastmile_qr_scan", "ios": "https://dc.lft.to/lastmile_qr_scan"}, "fusion_lat": 0.0, "lat": 38.930472, "is_disabled": 0, "lon": -77.03635766666666, "is_reserved": 0}, {"bike_id": "d5f923d398e720ac0d5301ac1f2bc877", "fusion_lon": 0.0, "type": "electric_bike", "name": "d5f923d398e720ac0d5301ac1f2bc877", "rental_uris": {"android": "https://dc.lft.to/lastmile_qr_scan", "ios": "https://dc.lft.to/lastmile_qr_scan"}, "fusion_lat": 0.0, "lat": 38.91933683333333, "is_disabled": 0, "lon": -76.975055, "is_reserved": 0}, {"bike_id": "9c92723cda39d07c3ed5ce7566d62472", "fusion_lon": 0.0, "type": "electric_scooter", "name": "9c92723cda39d07c3ed5ce7566d62472", "rental_uris": {"android": "https://dc.lft.to/lastmile_qr_scan", "ios": "https://dc.lft.to/lastmile_qr_scan"}, "fusion_lat": 0.0, "lat": 38.86245683333333, "is_disabled": 0, "lon": -76.99495516666667, "is_reserved": 0}, {"bike_id": "16aae0ca2aebfa37678871f23aaf94a7", "fusion_lon": 0.0, "type": "electric_scooter", "name": "16aae0ca2aebfa37678871f23aaf94a7", "rental_uris": {"android": "https://dc.lft.to/lastmile_qr_scan", "ios": "https://dc.lft.to/lastmile_qr_scan"}, "fusion_lat": 0.0, "lat": 38.90950333333333, "is_disabled": 0, "lon": -77.03214633333333, "is_reserved": 0}, {"bike_id": "ed68a9c8a28274b11d03a892001a11a1", "fusion_lon": 0.0, "type": "electric_scooter", "name": "ed68a9c8a28274b11d03a892001a11a1", "rental_uris": {"android": "https://dc.lft.to/lastmile_qr_scan", "ios": "https://dc.lft.to/lastmile_qr_scan"}, "fusion_lat": 0.0, "lat": 38.91934, "is_disabled": 0, "lon": -77.0459535, "is_reserved": 0}, {"bike_id": "85eeea9fa1922b607392e9d80aa4e01e", "fusion_lon": 0.0, "type": "electric_scooter", "name": "85eeea9fa1922b607392e9d80aa4e01e", "rental_uris": {"android": "https://dc.lft.to/lastmile_qr_scan", "ios": "https://dc.lft.to/lastmile_qr_scan"}, "fusion_lat": 0.0, "lat": 38.91721583333333, "is_disabled": 0, "lon": -77.036592, "is_reserved": 0}, {"bike_id": "03a11540d9805fa71edb2fab5a3d28cf", "fusion_lon": 0.0, "type": "electric_scooter", "name": "03a11540d9805fa71edb2fab5a3d28cf", "rental_uris": {"android": "https://dc.lft.to/lastmile_qr_scan", "ios": "https://dc.lft.to/lastmile_qr_scan"}, "fusion_lat": 0.0, "lat": 38.91646683333333, "is_disabled": 0, "lon": -76.9823655, "is_reserved": 0}, {"bike_id": "276bf13fa19997987c23f02cd26a5437", "fusion_lon": 0.0, "type": "electric_scooter", "name": "276bf13fa19997987c23f02cd26a5437", "rental_uris": {"android": "https://dc.lft.to/lastmile_qr_scan", "ios": "https://dc.lft.to/lastmile_qr_scan"}, "fusion_lat": 0.0, "lat": 38.93596083333333, "is_disabled": 0, "lon": -77.03790383333333, "is_reserved": 0}, {"bike_id": "2467938801041aec786ebbb9a2adf4eb", "fusion_lon": 0.0, "type": "electric_scooter", "name": "2467938801041aec786ebbb9a2adf4eb", "rental_uris": {"android": "https://dc.lft.to/lastmile_qr_scan", "ios": "https://dc.lft.to/lastmile_qr_scan"}, "fusion_lat": 0.0, "lat": 38.9044015, "is_disabled": 0, "lon": -76.97562633333334, "is_reserved": 0}, {"bike_id": "69a201f5d1c9e9c76027f6055aef1499", "fusion_lon": 0.0, "type": "electric_scooter", "name": "69a201f5d1c9e9c76027f6055aef1499", "rental_uris": {"android": "https://dc.lft.to/lastmile_qr_scan", "ios": "https://dc.lft.to/lastmile_qr_scan"}, "fusion_lat": 0.0, "lat": 38.900280333333335, "is_disabled": 0, "lon": -76.9877965, "is_reserved": 0}, {"bike_id": "11e8a3e14f58a2357f83b06e58256063", "fusion_lon": 0.0, "type": "electric_scooter", "name": "11e8a3e14f58a2357f83b06e58256063", "rental_uris": {"android": "https://dc.lft.to/lastmile_qr_scan", "ios": "https://dc.lft.to/lastmile_qr_scan"}, "fusion_lat": 0.0, "lat": 38.87821533333333, "is_disabled": 0, "lon": -77.00858766666667, "is_reserved": 0}, {"bike_id": "921e2835787c7b4701333cf49f5572d1", "fusion_lon": 0.0, "type": "electric_scooter", "name": "921e2835787c7b4701333cf49f5572d1", "rental_uris": {"android": "https://dc.lft.to/lastmile_qr_scan", "ios": "https://dc.lft.to/lastmile_qr_scan"}, "fusion_lat": 0.0, "lat": 38.90020533333333, "is_disabled": 0, "lon": -77.00171416666667, "is_reserved": 0}, {"bike_id": "67c8c770bcb4e5972b71ae0c1cda6c6b", "fusion_lon": 0.0, "type": "electric_scooter", "name": "67c8c770bcb4e5972b71ae0c1cda6c6b", "rental_uris": {"android": "https://dc.lft.to/lastmile_qr_scan", "ios": "https://dc.lft.to/lastmile_qr_scan"}, "fusion_lat": 0.0, "lat": 38.892215, "is_disabled": 0, "lon": -77.02844133333333, "is_reserved": 0}, {"bike_id": "4052cbea156fa9eddffbe50d856cb53f", "fusion_lon": 0.0, "type": "electric_scooter", "name": "4052cbea156fa9eddffbe50d856cb53f", "rental_uris": {"android": "https://dc.lft.to/lastmile_qr_scan", "ios": "https://dc.lft.to/lastmile_qr_scan"}, "fusion_lat": 0.0, "lat": 38.860813666666665, "is_disabled": 0, "lon": -76.98608466666667, "is_reserved": 0}, {"bike_id": "d8559056998a2e4de8c2d6480c309fcd", "fusion_lon": 0.0, "type": "electric_scooter", "name": "d8559056998a2e4de8c2d6480c309fcd", "rental_uris": {"android": "https://dc.lft.to/lastmile_qr_scan", "ios": "https://dc.lft.to/lastmile_qr_scan"}, "fusion_lat": 0.0, "lat": 38.90590233333333, "is_disabled": 0, "lon": -77.07018133333334, "is_reserved": 0}, {"bike_id": "995ab5ea46c0ec971da4fdf749fe79dc", "fusion_lon": 0.0, "type": "electric_scooter", "name": "995ab5ea46c0ec971da4fdf749fe79dc", "rental_uris": {"android": "https://dc.lft.to/lastmile_qr_scan", "ios": "https://dc.lft.to/lastmile_qr_scan"}, "fusion_lat": 0.0, "lat": 38.9037105, "is_disabled": 0, "lon": -77.033343, "is_reserved": 0}, {"bike_id": "c1ac352270966f5fbc42079577d92d9e", "fusion_lon": 0.0, "type": "electric_scooter", "name": "c1ac352270966f5fbc42079577d92d9e", "rental_uris": {"android": "https://dc.lft.to/lastmile_qr_scan", "ios": "https://dc.lft.to/lastmile_qr_scan"}, "fusion_lat": 0.0, "lat": 38.91707383333333, "is_disabled": 0, "lon": -77.03865466666667, "is_reserved": 0}, {"bike_id": "4149998866b527136e980ee96024feb1", "fusion_lon": 0.0, "type": "electric_scooter", "name": "4149998866b527136e980ee96024feb1", "rental_uris": {"android": "https://dc.lft.to/lastmile_qr_scan", "ios": "https://dc.lft.to/lastmile_qr_scan"}, "fusion_lat": 0.0, "lat": 38.90999933333333, "is_disabled": 0, "lon": -77.05271183333333, "is_reserved": 0}, {"bike_id": "20660f775cebd3df4705ec2bffa1a74a", "fusion_lon": 0.0, "type": "electric_scooter", "name": "20660f775cebd3df4705ec2bffa1a74a", "rental_uris": {"android": "https://dc.lft.to/lastmile_qr_scan", "ios": "https://dc.lft.to/lastmile_qr_scan"}, "fusion_lat": 0.0, "lat": 38.89725, "is_disabled": 0, "lon": -77.05563783333334, "is_reserved": 0}, {"bike_id": "958e75ef13aaa34c771c8c954ce1083e", "fusion_lon": 0.0, "type": "electric_scooter", "name": "958e75ef13aaa34c771c8c954ce1083e", "rental_uris": {"android": "https://dc.lft.to/lastmile_qr_scan", "ios": "https://dc.lft.to/lastmile_qr_scan"}, "fusion_lat": 0.0, "lat": 38.903658166666666, "is_disabled": 0, "lon": -77.01900983333333, "is_reserved": 0}, {"bike_id": "0bf0196163062abbcefeb6f5f3a53ef2", "fusion_lon": 0.0, "type": "electric_scooter", "name": "0bf0196163062abbcefeb6f5f3a53ef2", "rental_uris": {"android": "https://dc.lft.to/lastmile_qr_scan", "ios": "https://dc.lft.to/lastmile_qr_scan"}, "fusion_lat": 0.0, "lat": 38.9094555, "is_disabled": 0, "lon": -77.03208266666667, "is_reserved": 0}, {"bike_id": "96c4131a69c37d08558b0c082b35c613", "fusion_lon": 0.0, "type": "electric_scooter", "name": "96c4131a69c37d08558b0c082b35c613", "rental_uris": {"android": "https://dc.lft.to/lastmile_qr_scan", "ios": "https://dc.lft.to/lastmile_qr_scan"}, "fusion_lat": 0.0, "lat": 38.9114065, "is_disabled": 0, "lon": -77.028083, "is_reserved": 0}, {"bike_id": "31bc70ae7fa76d19cfd723bbbdb31b3c", "fusion_lon": 0.0, "type": "electric_bike", "name": "31bc70ae7fa76d19cfd723bbbdb31b3c", "rental_uris": {"android": "https://dc.lft.to/lastmile_qr_scan", "ios": "https://dc.lft.to/lastmile_qr_scan"}, "fusion_lat": 0.0, "lat": 38.850599833333334, "is_disabled": 0, "lon": -76.9733405, "is_reserved": 0}, {"bike_id": "c23d3d96af768beba212ea966bda7609", "fusion_lon": 0.0, "type": "electric_scooter", "name": "c23d3d96af768beba212ea966bda7609", "rental_uris": {"android": "https://dc.lft.to/lastmile_qr_scan", "ios": "https://dc.lft.to/lastmile_qr_scan"}, "fusion_lat": 0.0, "lat": 38.893854833333336, "is_disabled": 0, "lon": -77.02330366666666, "is_reserved": 0}, {"bike_id": "c19b5a59d12601f0a1641ace29116645", "fusion_lon": 0.0, "type": "electric_scooter", "name": "c19b5a59d12601f0a1641ace29116645", "rental_uris": {"android": "https://dc.lft.to/lastmile_qr_scan", "ios": "https://dc.lft.to/lastmile_qr_scan"}, "fusion_lat": 0.0, "lat": 38.90654933333333, "is_disabled": 0, "lon": -77.02468233333333, "is_reserved": 0}, {"bike_id": "0efaf54e5ed8f9d7547c98d85b177c55", "fusion_lon": 0.0, "type": "electric_scooter", "name": "0efaf54e5ed8f9d7547c98d85b177c55", "rental_uris": {"android": "https://dc.lft.to/lastmile_qr_scan", "ios": "https://dc.lft.to/lastmile_qr_scan"}, "fusion_lat": 0.0, "lat": 38.92878283333334, "is_disabled": 0, "lon": -77.02717033333333, "is_reserved": 0}, {"bike_id": "003f6bf664f64eccafc477ed3ee2800f", "fusion_lon": 0.0, "type": "electric_scooter", "name": "003f6bf664f64eccafc477ed3ee2800f", "rental_uris": {"android": "https://dc.lft.to/lastmile_qr_scan", "ios": "https://dc.lft.to/lastmile_qr_scan"}, "fusion_lat": 0.0, "lat": 38.91836083333333, "is_disabled": 0, "lon": -77.03209133333333, "is_reserved": 0}, {"bike_id": "9a952a9da080fcad8773d2815160e5f0", "fusion_lon": 0.0, "type": "electric_scooter", "name": "9a952a9da080fcad8773d2815160e5f0", "rental_uris": {"android": "https://dc.lft.to/lastmile_qr_scan", "ios": "https://dc.lft.to/lastmile_qr_scan"}, "fusion_lat": 0.0, "lat": 38.934012, "is_disabled": 0, "lon": -77.02468766666667, "is_reserved": 0}, {"bike_id": "afdbd4f75ce857f9d28016d45a3e6dbe", "fusion_lon": 0.0, "type": "electric_scooter", "name": "afdbd4f75ce857f9d28016d45a3e6dbe", "rental_uris": {"android": "https://dc.lft.to/lastmile_qr_scan", "ios": "https://dc.lft.to/lastmile_qr_scan"}, "fusion_lat": 0.0, "lat": 38.918812, "is_disabled": 0, "lon": -77.03767783333333, "is_reserved": 0}, {"bike_id": "2f0efba70faa0e496d231993986a9e98", "fusion_lon": 0.0, "type": "electric_scooter", "name": "2f0efba70faa0e496d231993986a9e98", "rental_uris": {"android": "https://dc.lft.to/lastmile_qr_scan", "ios": "https://dc.lft.to/lastmile_qr_scan"}, "fusion_lat": 0.0, "lat": 38.87773633333333, "is_disabled": 0, "lon": -76.99511116666666, "is_reserved": 0}, {"bike_id": "b608fbbc590b2b5fd9b1af08239f4847", "fusion_lon": 0.0, "type": "electric_scooter", "name": "b608fbbc590b2b5fd9b1af08239f4847", "rental_uris": {"android": "https://dc.lft.to/lastmile_qr_scan", "ios": "https://dc.lft.to/lastmile_qr_scan"}, "fusion_lat": 0.0, "lat": 38.924225666666665, "is_disabled": 0, "lon": -77.03632416666666, "is_reserved": 0}, {"bike_id": "9b9763d5dae3392b331ea817cc6f8470", "fusion_lon": 0.0, "type": "electric_scooter", "name": "9b9763d5dae3392b331ea817cc6f8470", "rental_uris": {"android": "https://dc.lft.to/lastmile_qr_scan", "ios": "https://dc.lft.to/lastmile_qr_scan"}, "fusion_lat": 0.0, "lat": 38.957583166666666, "is_disabled": 0, "lon": -77.01591, "is_reserved": 0}, {"bike_id": "395161459bb4b91d5bda2e59a6dc2c4b", "fusion_lon": 0.0, "type": "electric_scooter", "name": "395161459bb4b91d5bda2e59a6dc2c4b", "rental_uris": {"android": "https://dc.lft.to/lastmile_qr_scan", "ios": "https://dc.lft.to/lastmile_qr_scan"}, "fusion_lat": 0.0, "lat": 38.92709033333333, "is_disabled": 0, "lon": -77.0239785, "is_reserved": 0}, {"bike_id": "ae030677822e42ca95ed1be437ad50ca", "fusion_lon": 0.0, "type": "electric_scooter", "name": "ae030677822e42ca95ed1be437ad50ca", "rental_uris": {"android": "https://dc.lft.to/lastmile_qr_scan", "ios": "https://dc.lft.to/lastmile_qr_scan"}, "fusion_lat": 0.0, "lat": 38.91687983333333, "is_disabled": 0, "lon": -77.03499216666667, "is_reserved": 0}, {"bike_id": "71aa6e38f858b26e5b2f955e0b7113ff", "fusion_lon": 0.0, "type": "electric_scooter", "name": "71aa6e38f858b26e5b2f955e0b7113ff", "rental_uris": {"android": "https://dc.lft.to/lastmile_qr_scan", "ios": "https://dc.lft.to/lastmile_qr_scan"}, "fusion_lat": 0.0, "lat": 38.92095883333333, "is_disabled": 0, "lon": -77.04370666666667, "is_reserved": 0}, {"bike_id": "888140202eab4bde7f82e2b14fca9267", "fusion_lon": 0.0, "type": "electric_scooter", "name": "888140202eab4bde7f82e2b14fca9267", "rental_uris": {"android": "https://dc.lft.to/lastmile_qr_scan", "ios": "https://dc.lft.to/lastmile_qr_scan"}, "fusion_lat": 0.0, "lat": 38.8913195, "is_disabled": 0, "lon": -76.9519075, "is_reserved": 0}, {"bike_id": "6a622b81b316a130a36e5a5cb5bf8b40", "fusion_lon": 0.0, "type": "electric_scooter", "name": "6a622b81b316a130a36e5a5cb5bf8b40", "rental_uris": {"android": "https://dc.lft.to/lastmile_qr_scan", "ios": "https://dc.lft.to/lastmile_qr_scan"}, "fusion_lat": 0.0, "lat": 38.9385235, "is_disabled": 0, "lon": -77.02470516666666, "is_reserved": 0}, {"bike_id": "9c342f3567a5b0cdb9ce0ac3de5230e2", "fusion_lon": 0.0, "type": "electric_scooter", "name": "9c342f3567a5b0cdb9ce0ac3de5230e2", "rental_uris": {"android": "https://dc.lft.to/lastmile_qr_scan", "ios": "https://dc.lft.to/lastmile_qr_scan"}, "fusion_lat": 0.0, "lat": 38.89009983333333, "is_disabled": 0, "lon": -76.93740316666667, "is_reserved": 0}, {"bike_id": "977ebbba733e5ece8ab1b5be589ac6a6", "fusion_lon": 0.0, "type": "electric_scooter", "name": "977ebbba733e5ece8ab1b5be589ac6a6", "rental_uris": {"android": "https://dc.lft.to/lastmile_qr_scan", "ios": "https://dc.lft.to/lastmile_qr_scan"}, "fusion_lat": 0.0, "lat": 38.90874516666667, "is_disabled": 0, "lon": -77.01846166666667, "is_reserved": 0}, {"bike_id": "17bbe2dc2456ac863ef12ec9fb0c7722", "fusion_lon": 0.0, "type": "electric_scooter", "name": "17bbe2dc2456ac863ef12ec9fb0c7722", "rental_uris": {"android": "https://dc.lft.to/lastmile_qr_scan", "ios": "https://dc.lft.to/lastmile_qr_scan"}, "fusion_lat": 0.0, "lat": 38.953262, "is_disabled": 0, "lon": -77.0165715, "is_reserved": 0}, {"bike_id": "5760b4107a59a24b1e3b62aaf10c076a", "fusion_lon": 0.0, "type": "electric_scooter", "name": "5760b4107a59a24b1e3b62aaf10c076a", "rental_uris": {"android": "https://dc.lft.to/lastmile_qr_scan", "ios": "https://dc.lft.to/lastmile_qr_scan"}, "fusion_lat": 0.0, "lat": 38.9119485, "is_disabled": 0, "lon": -77.02953683333334, "is_reserved": 0}, {"bike_id": "a689189e7387a4b98bf5b9c5e73aa067", "fusion_lon": 0.0, "type": "electric_scooter", "name": "a689189e7387a4b98bf5b9c5e73aa067", "rental_uris": {"android": "https://dc.lft.to/lastmile_qr_scan", "ios": "https://dc.lft.to/lastmile_qr_scan"}, "fusion_lat": 0.0, "lat": 38.92266983333333, "is_disabled": 0, "lon": -76.997546, "is_reserved": 0}, {"bike_id": "13ff9ecfaeda87442776b4a3960c28db", "fusion_lon": 0.0, "type": "electric_scooter", "name": "13ff9ecfaeda87442776b4a3960c28db", "rental_uris": {"android": "https://dc.lft.to/lastmile_qr_scan", "ios": "https://dc.lft.to/lastmile_qr_scan"}, "fusion_lat": 0.0, "lat": 38.91700133333333, "is_disabled": 0, "lon": -77.02897283333333, "is_reserved": 0}, {"bike_id": "334707d2350ca9aecc31b85c117754b8", "fusion_lon": 0.0, "type": "electric_bike", "name": "334707d2350ca9aecc31b85c117754b8", "rental_uris": {"android": "https://dc.lft.to/lastmile_qr_scan", "ios": "https://dc.lft.to/lastmile_qr_scan"}, "fusion_lat": 0.0, "lat": 38.93561116666667, "is_disabled": 0, "lon": -76.95465066666667, "is_reserved": 0}, {"bike_id": "57e6e2ae0814f82e1e17dcec0ae7a290", "fusion_lon": 0.0, "type": "electric_scooter", "name": "57e6e2ae0814f82e1e17dcec0ae7a290", "rental_uris": {"android": "https://dc.lft.to/lastmile_qr_scan", "ios": "https://dc.lft.to/lastmile_qr_scan"}, "fusion_lat": 0.0, "lat": 38.89850366666667, "is_disabled": 0, "lon": -76.99038183333333, "is_reserved": 0}, {"bike_id": "40609e9f9de207f83725650cad1e24c9", "fusion_lon": 0.0, "type": "electric_bike", "name": "40609e9f9de207f83725650cad1e24c9", "rental_uris": {"android": "https://dc.lft.to/lastmile_qr_scan", "ios": "https://dc.lft.to/lastmile_qr_scan"}, "fusion_lat": 0.0, "lat": 38.938622, "is_disabled": 0, "lon": -77.0423685, "is_reserved": 0}, {"bike_id": "ceab2bb6af26666de3a2f77cb7c462f9", "fusion_lon": 0.0, "type": "electric_scooter", "name": "ceab2bb6af26666de3a2f77cb7c462f9", "rental_uris": {"android": "https://dc.lft.to/lastmile_qr_scan", "ios": "https://dc.lft.to/lastmile_qr_scan"}, "fusion_lat": 0.0, "lat": 38.929993, "is_disabled": 0, "lon": -77.0324985, "is_reserved": 0}, {"bike_id": "2ffbe854fce85dc25b7ba9224b6c1847", "fusion_lon": 0.0, "type": "electric_scooter", "name": "2ffbe854fce85dc25b7ba9224b6c1847", "rental_uris": {"android": "https://dc.lft.to/lastmile_qr_scan", "ios": "https://dc.lft.to/lastmile_qr_scan"}, "fusion_lat": 0.0, "lat": 38.956499666666666, "is_disabled": 0, "lon": -77.0329265, "is_reserved": 0}, {"bike_id": "8d5904515811ec2084556a827cf1c059", "fusion_lon": 0.0, "type": "electric_bike", "name": "8d5904515811ec2084556a827cf1c059", "rental_uris": {"android": "https://dc.lft.to/lastmile_qr_scan", "ios": "https://dc.lft.to/lastmile_qr_scan"}, "fusion_lat": 0.0, "lat": 38.975824333333335, "is_disabled": 0, "lon": -77.0351995, "is_reserved": 0}, {"bike_id": "744137b054ec8b88367127dc3d2b134b", "fusion_lon": 0.0, "type": "electric_scooter", "name": "744137b054ec8b88367127dc3d2b134b", "rental_uris": {"android": "https://dc.lft.to/lastmile_qr_scan", "ios": "https://dc.lft.to/lastmile_qr_scan"}, "fusion_lat": 0.0, "lat": 38.908629166666664, "is_disabled": 0, "lon": -77.02414633333333, "is_reserved": 0}, {"bike_id": "b77dc0fb2fe2ff87e7d1c26a0ef9ea95", "fusion_lon": 0.0, "type": "electric_bike", "name": "b77dc0fb2fe2ff87e7d1c26a0ef9ea95", "rental_uris": {"android": "https://dc.lft.to/lastmile_qr_scan", "ios": "https://dc.lft.to/lastmile_qr_scan"}, "fusion_lat": 0.0, "lat": 38.947978, "is_disabled": 0, "lon": -77.0215235, "is_reserved": 0}, {"bike_id": "d2cbe31aebdcc3eb0edae1b9143fcdc5", "fusion_lon": 0.0, "type": "electric_scooter", "name": "d2cbe31aebdcc3eb0edae1b9143fcdc5", "rental_uris": {"android": "https://dc.lft.to/lastmile_qr_scan", "ios": "https://dc.lft.to/lastmile_qr_scan"}, "fusion_lat": 0.0, "lat": 38.896206166666666, "is_disabled": 0, "lon": -76.947641, "is_reserved": 0}, {"bike_id": "0991787d3ca00f7db68c4ed81daa9c07", "fusion_lon": 0.0, "type": "electric_bike", "name": "0991787d3ca00f7db68c4ed81daa9c07", "rental_uris": {"android": "https://dc.lft.to/lastmile_qr_scan", "ios": "https://dc.lft.to/lastmile_qr_scan"}, "fusion_lat": 0.0, "lat": 38.84096533333334, "is_disabled": 0, "lon": -77.089396, "is_reserved": 0}, {"bike_id": "03886fdd8bee68e34044d60c0bde4412", "fusion_lon": 0.0, "type": "electric_scooter", "name": "03886fdd8bee68e34044d60c0bde4412", "rental_uris": {"android": "https://dc.lft.to/lastmile_qr_scan", "ios": "https://dc.lft.to/lastmile_qr_scan"}, "fusion_lat": 0.0, "lat": 38.89338716666666, "is_disabled": 0, "lon": -77.0116525, "is_reserved": 0}, {"bike_id": "cbeae65bbc6ae78204fba06cf59ccce9", "fusion_lon": 0.0, "type": "electric_scooter", "name": "cbeae65bbc6ae78204fba06cf59ccce9", "rental_uris": {"android": "https://dc.lft.to/lastmile_qr_scan", "ios": "https://dc.lft.to/lastmile_qr_scan"}, "fusion_lat": 0.0, "lat": 38.88317716666667, "is_disabled": 0, "lon": -76.94945433333334, "is_reserved": 0}, {"bike_id": "be18815631e5bdafd8344eb3f15fbaad", "fusion_lon": 0.0, "type": "electric_scooter", "name": "be18815631e5bdafd8344eb3f15fbaad", "rental_uris": {"android": "https://dc.lft.to/lastmile_qr_scan", "ios": "https://dc.lft.to/lastmile_qr_scan"}, "fusion_lat": 0.0, "lat": 38.899968333333334, "is_disabled": 0, "lon": -77.00143533333333, "is_reserved": 0}, {"bike_id": "130351b50415fe05042202c75fc21a9f", "fusion_lon": 0.0, "type": "electric_bike", "name": "130351b50415fe05042202c75fc21a9f", "rental_uris": {"android": "https://dc.lft.to/lastmile_qr_scan", "ios": "https://dc.lft.to/lastmile_qr_scan"}, "fusion_lat": 0.0, "lat": 38.8360495, "is_disabled": 0, "lon": -77.0037115, "is_reserved": 0}, {"bike_id": "b08bb4b832431dd3bea40a1b78a09ad3", "fusion_lon": 0.0, "type": "electric_scooter", "name": "b08bb4b832431dd3bea40a1b78a09ad3", "rental_uris": {"android": "https://dc.lft.to/lastmile_qr_scan", "ios": "https://dc.lft.to/lastmile_qr_scan"}, "fusion_lat": 0.0, "lat": 38.90362583333334, "is_disabled": 0, "lon": -77.0289665, "is_reserved": 0}, {"bike_id": "90eb6ef276d6ce5e06fc3cf5849b96ab", "fusion_lon": 0.0, "type": "electric_scooter", "name": "90eb6ef276d6ce5e06fc3cf5849b96ab", "rental_uris": {"android": "https://dc.lft.to/lastmile_qr_scan", "ios": "https://dc.lft.to/lastmile_qr_scan"}, "fusion_lat": 0.0, "lat": 38.91172366666667, "is_disabled": 0, "lon": -76.98771666666667, "is_reserved": 0}, {"bike_id": "554e4e6ec6b5e7e36469f125bc57b24d", "fusion_lon": 0.0, "type": "electric_scooter", "name": "554e4e6ec6b5e7e36469f125bc57b24d", "rental_uris": {"android": "https://dc.lft.to/lastmile_qr_scan", "ios": "https://dc.lft.to/lastmile_qr_scan"}, "fusion_lat": 0.0, "lat": 38.9042435, "is_disabled": 0, "lon": -77.04661166666666, "is_reserved": 0}, {"bike_id": "4d3e660b8382c8bcf9f4495382b19ae6", "fusion_lon": 0.0, "type": "electric_scooter", "name": "4d3e660b8382c8bcf9f4495382b19ae6", "rental_uris": {"android": "https://dc.lft.to/lastmile_qr_scan", "ios": "https://dc.lft.to/lastmile_qr_scan"}, "fusion_lat": 0.0, "lat": 38.9078975, "is_disabled": 0, "lon": -76.941232, "is_reserved": 0}, {"bike_id": "490f3a2718f6e551511a4f3e2daea430", "fusion_lon": 0.0, "type": "electric_scooter", "name": "490f3a2718f6e551511a4f3e2daea430", "rental_uris": {"android": "https://dc.lft.to/lastmile_qr_scan", "ios": "https://dc.lft.to/lastmile_qr_scan"}, "fusion_lat": 0.0, "lat": 38.89849, "is_disabled": 0, "lon": -77.01783566666667, "is_reserved": 0}, {"bike_id": "5a8d4221d42d124fba61b8f83adec225", "fusion_lon": 0.0, "type": "electric_scooter", "name": "5a8d4221d42d124fba61b8f83adec225", "rental_uris": {"android": "https://dc.lft.to/lastmile_qr_scan", "ios": "https://dc.lft.to/lastmile_qr_scan"}, "fusion_lat": 0.0, "lat": 38.902854833333336, "is_disabled": 0, "lon": -76.93660283333334, "is_reserved": 0}, {"bike_id": "aa0a7aafd26d787c25ce2090f193acd9", "fusion_lon": 0.0, "type": "electric_scooter", "name": "aa0a7aafd26d787c25ce2090f193acd9", "rental_uris": {"android": "https://dc.lft.to/lastmile_qr_scan", "ios": "https://dc.lft.to/lastmile_qr_scan"}, "fusion_lat": 0.0, "lat": 38.9141425, "is_disabled": 0, "lon": -77.04022116666667, "is_reserved": 0}, {"bike_id": "c0557c3e65d58fc122b9b1b774fc352d", "fusion_lon": 0.0, "type": "electric_scooter", "name": "c0557c3e65d58fc122b9b1b774fc352d", "rental_uris": {"android": "https://dc.lft.to/lastmile_qr_scan", "ios": "https://dc.lft.to/lastmile_qr_scan"}, "fusion_lat": 0.0, "lat": 38.88734866666667, "is_disabled": 0, "lon": -77.02396016666667, "is_reserved": 0}, {"bike_id": "990d1caaa6e0ad7cd2eabc87b342ec2d", "fusion_lon": 0.0, "type": "electric_scooter", "name": "990d1caaa6e0ad7cd2eabc87b342ec2d", "rental_uris": {"android": "https://dc.lft.to/lastmile_qr_scan", "ios": "https://dc.lft.to/lastmile_qr_scan"}, "fusion_lat": 0.0, "lat": 38.9108465, "is_disabled": 0, "lon": -77.02201816666667, "is_reserved": 0}, {"bike_id": "7f94bfbe89a3090f1e8dfaf1c39f7e60", "fusion_lon": 0.0, "type": "electric_scooter", "name": "7f94bfbe89a3090f1e8dfaf1c39f7e60", "rental_uris": {"android": "https://dc.lft.to/lastmile_qr_scan", "ios": "https://dc.lft.to/lastmile_qr_scan"}, "fusion_lat": 0.0, "lat": 38.855718333333336, "is_disabled": 0, "lon": -76.9867915, "is_reserved": 0}, {"bike_id": "6d7754dbd25fd6e5defb6d1aabd2f6de", "fusion_lon": 0.0, "type": "electric_scooter", "name": "6d7754dbd25fd6e5defb6d1aabd2f6de", "rental_uris": {"android": "https://dc.lft.to/lastmile_qr_scan", "ios": "https://dc.lft.to/lastmile_qr_scan"}, "fusion_lat": 0.0, "lat": 38.942137, "is_disabled": 0, "lon": -77.06163333333333, "is_reserved": 0}, {"bike_id": "3270072ec4266f79d15f11b0634a6997", "fusion_lon": 0.0, "type": "electric_scooter", "name": "3270072ec4266f79d15f11b0634a6997", "rental_uris": {"android": "https://dc.lft.to/lastmile_qr_scan", "ios": "https://dc.lft.to/lastmile_qr_scan"}, "fusion_lat": 0.0, "lat": 38.898786666666666, "is_disabled": 0, "lon": -76.93160866666666, "is_reserved": 0}, {"bike_id": "1eb4a3594b7270a0b8927792b8f389c4", "fusion_lon": 0.0, "type": "electric_scooter", "name": "1eb4a3594b7270a0b8927792b8f389c4", "rental_uris": {"android": "https://dc.lft.to/lastmile_qr_scan", "ios": "https://dc.lft.to/lastmile_qr_scan"}, "fusion_lat": 0.0, "lat": 38.924017166666665, "is_disabled": 0, "lon": -77.025479, "is_reserved": 0}, {"bike_id": "c5f823fb0ce20d73bdc4a88b338692d6", "fusion_lon": 0.0, "type": "electric_scooter", "name": "c5f823fb0ce20d73bdc4a88b338692d6", "rental_uris": {"android": "https://dc.lft.to/lastmile_qr_scan", "ios": "https://dc.lft.to/lastmile_qr_scan"}, "fusion_lat": 0.0, "lat": 38.911106, "is_disabled": 0, "lon": -77.0383465, "is_reserved": 0}, {"bike_id": "2dc20b4d4e948a9807167f4fbf61b1d3", "fusion_lon": 0.0, "type": "electric_scooter", "name": "2dc20b4d4e948a9807167f4fbf61b1d3", "rental_uris": {"android": "https://dc.lft.to/lastmile_qr_scan", "ios": "https://dc.lft.to/lastmile_qr_scan"}, "fusion_lat": 0.0, "lat": 38.9184545, "is_disabled": 0, "lon": -77.041756, "is_reserved": 0}, {"bike_id": "ed3e60c14cf6c8abc74f35148bd913f3", "fusion_lon": 0.0, "type": "electric_scooter", "name": "ed3e60c14cf6c8abc74f35148bd913f3", "rental_uris": {"android": "https://dc.lft.to/lastmile_qr_scan", "ios": "https://dc.lft.to/lastmile_qr_scan"}, "fusion_lat": 0.0, "lat": 38.9025375, "is_disabled": 0, "lon": -77.0344745, "is_reserved": 0}, {"bike_id": "45827ec01becac64f3b4bdb5ad5597e9", "fusion_lon": 0.0, "type": "electric_scooter", "name": "45827ec01becac64f3b4bdb5ad5597e9", "rental_uris": {"android": "https://dc.lft.to/lastmile_qr_scan", "ios": "https://dc.lft.to/lastmile_qr_scan"}, "fusion_lat": 0.0, "lat": 38.92164, "is_disabled": 0, "lon": -77.04353066666667, "is_reserved": 0}, {"bike_id": "5706c922d0d3afdb0a8d308924dcb240", "fusion_lon": 0.0, "type": "electric_scooter", "name": "5706c922d0d3afdb0a8d308924dcb240", "rental_uris": {"android": "https://dc.lft.to/lastmile_qr_scan", "ios": "https://dc.lft.to/lastmile_qr_scan"}, "fusion_lat": 0.0, "lat": 38.88219, "is_disabled": 0, "lon": -77.02930066666667, "is_reserved": 0}, {"bike_id": "762f79f797f153f31ee1e7c343ae18ab", "fusion_lon": 0.0, "type": "electric_scooter", "name": "762f79f797f153f31ee1e7c343ae18ab", "rental_uris": {"android": "https://dc.lft.to/lastmile_qr_scan", "ios": "https://dc.lft.to/lastmile_qr_scan"}, "fusion_lat": 0.0, "lat": 38.948908, "is_disabled": 0, "lon": -77.018732, "is_reserved": 0}, {"bike_id": "567c39954ce0b2f5119d73a9525dfbdc", "fusion_lon": 0.0, "type": "electric_scooter", "name": "567c39954ce0b2f5119d73a9525dfbdc", "rental_uris": {"android": "https://dc.lft.to/lastmile_qr_scan", "ios": "https://dc.lft.to/lastmile_qr_scan"}, "fusion_lat": 0.0, "lat": 38.900497333333334, "is_disabled": 0, "lon": -77.00072016666667, "is_reserved": 0}, {"bike_id": "17c83c89fd8b1414c7a14751add4ab0c", "fusion_lon": 0.0, "type": "electric_scooter", "name": "17c83c89fd8b1414c7a14751add4ab0c", "rental_uris": {"android": "https://dc.lft.to/lastmile_qr_scan", "ios": "https://dc.lft.to/lastmile_qr_scan"}, "fusion_lat": 0.0, "lat": 38.89978283333333, "is_disabled": 0, "lon": -77.05562916666666, "is_reserved": 0}, {"bike_id": "ab0f0045baf59e6424302d3710f4b7fc", "fusion_lon": 0.0, "type": "electric_bike", "name": "ab0f0045baf59e6424302d3710f4b7fc", "rental_uris": {"android": "https://dc.lft.to/lastmile_qr_scan", "ios": "https://dc.lft.to/lastmile_qr_scan"}, "fusion_lat": 0.0, "lat": 38.9447175, "is_disabled": 0, "lon": -77.02295116666667, "is_reserved": 0}, {"bike_id": "4d8759307ce41e1b768a0145956e2377", "fusion_lon": 0.0, "type": "electric_scooter", "name": "4d8759307ce41e1b768a0145956e2377", "rental_uris": {"android": "https://dc.lft.to/lastmile_qr_scan", "ios": "https://dc.lft.to/lastmile_qr_scan"}, "fusion_lat": 0.0, "lat": 38.926288166666666, "is_disabled": 0, "lon": -77.03798683333333, "is_reserved": 0}, {"bike_id": "6beb6194d075c483be4ca51846ffc900", "fusion_lon": 0.0, "type": "electric_scooter", "name": "6beb6194d075c483be4ca51846ffc900", "rental_uris": {"android": "https://dc.lft.to/lastmile_qr_scan", "ios": "https://dc.lft.to/lastmile_qr_scan"}, "fusion_lat": 0.0, "lat": 38.90168833333333, "is_disabled": 0, "lon": -76.980754, "is_reserved": 0}, {"bike_id": "580e285176104521ab1f8502506a6a55", "fusion_lon": 0.0, "type": "electric_bike", "name": "580e285176104521ab1f8502506a6a55", "rental_uris": {"android": "https://dc.lft.to/lastmile_qr_scan", "ios": "https://dc.lft.to/lastmile_qr_scan"}, "fusion_lat": 0.0, "lat": 38.8556165, "is_disabled": 0, "lon": -77.10698566666667, "is_reserved": 0}, {"bike_id": "dd6e4a1de9d71d5f2818296ef2b28382", "fusion_lon": 0.0, "type": "electric_bike", "name": "dd6e4a1de9d71d5f2818296ef2b28382", "rental_uris": {"android": "https://dc.lft.to/lastmile_qr_scan", "ios": "https://dc.lft.to/lastmile_qr_scan"}, "fusion_lat": 0.0, "lat": 38.99224866666667, "is_disabled": 0, "lon": -76.87776283333334, "is_reserved": 0}, {"bike_id": "e9a6dc4be2b94cb760fac1d72c120087", "fusion_lon": 0.0, "type": "electric_scooter", "name": "e9a6dc4be2b94cb760fac1d72c120087", "rental_uris": {"android": "https://dc.lft.to/lastmile_qr_scan", "ios": "https://dc.lft.to/lastmile_qr_scan"}, "fusion_lat": 0.0, "lat": 38.9073225, "is_disabled": 0, "lon": -77.04491483333334, "is_reserved": 0}, {"bike_id": "46e5b10a4a15d3a2892741525d88a815", "fusion_lon": 0.0, "type": "electric_scooter", "name": "46e5b10a4a15d3a2892741525d88a815", "rental_uris": {"android": "https://dc.lft.to/lastmile_qr_scan", "ios": "https://dc.lft.to/lastmile_qr_scan"}, "fusion_lat": 0.0, "lat": 38.89901, "is_disabled": 0, "lon": -77.0553355, "is_reserved": 0}, {"bike_id": "1fb9446f18a18bdf230112f0e30d8d43", "fusion_lon": 0.0, "type": "electric_scooter", "name": "1fb9446f18a18bdf230112f0e30d8d43", "rental_uris": {"android": "https://dc.lft.to/lastmile_qr_scan", "ios": "https://dc.lft.to/lastmile_qr_scan"}, "fusion_lat": 0.0, "lat": 38.90024783333333, "is_disabled": 0, "lon": -76.98788516666667, "is_reserved": 0}, {"bike_id": "2c72909c3e29ccc0b0c1696a609ccc25", "fusion_lon": 0.0, "type": "electric_scooter", "name": "2c72909c3e29ccc0b0c1696a609ccc25", "rental_uris": {"android": "https://dc.lft.to/lastmile_qr_scan", "ios": "https://dc.lft.to/lastmile_qr_scan"}, "fusion_lat": 0.0, "lat": 38.90008383333333, "is_disabled": 0, "lon": -76.97752633333333, "is_reserved": 0}, {"bike_id": "f37b2fbce2a8d8ed69fdc75d12ce92dc", "fusion_lon": 0.0, "type": "electric_bike", "name": "f37b2fbce2a8d8ed69fdc75d12ce92dc", "rental_uris": {"android": "https://dc.lft.to/lastmile_qr_scan", "ios": "https://dc.lft.to/lastmile_qr_scan"}, "fusion_lat": 0.0, "lat": 38.88954433333333, "is_disabled": 0, "lon": -76.94881083333334, "is_reserved": 0}, {"bike_id": "3796d28cb2336fe038a2cac1beb8c05f", "fusion_lon": 0.0, "type": "electric_bike", "name": "3796d28cb2336fe038a2cac1beb8c05f", "rental_uris": {"android": "https://dc.lft.to/lastmile_qr_scan", "ios": "https://dc.lft.to/lastmile_qr_scan"}, "fusion_lat": 0.0, "lat": 38.9249755, "is_disabled": 0, "lon": -76.98236433333334, "is_reserved": 0}, {"bike_id": "963c9dae641269c48b4ef5bd02b52b98", "fusion_lon": 0.0, "type": "electric_bike", "name": "963c9dae641269c48b4ef5bd02b52b98", "rental_uris": {"android": "https://dc.lft.to/lastmile_qr_scan", "ios": "https://dc.lft.to/lastmile_qr_scan"}, "fusion_lat": 0.0, "lat": 38.97574633333333, "is_disabled": 0, "lon": -76.963974, "is_reserved": 0}, {"bike_id": "d68d79d541962c33741218d192653680", "fusion_lon": 0.0, "type": "electric_scooter", "name": "d68d79d541962c33741218d192653680", "rental_uris": {"android": "https://dc.lft.to/lastmile_qr_scan", "ios": "https://dc.lft.to/lastmile_qr_scan"}, "fusion_lat": 0.0, "lat": 38.919150333333334, "is_disabled": 0, "lon": -77.03423533333333, "is_reserved": 0}, {"bike_id": "5f93fe03c6057017ed375fc29793cf25", "fusion_lon": 0.0, "type": "electric_scooter", "name": "5f93fe03c6057017ed375fc29793cf25", "rental_uris": {"android": "https://dc.lft.to/lastmile_qr_scan", "ios": "https://dc.lft.to/lastmile_qr_scan"}, "fusion_lat": 0.0, "lat": 38.923334833333335, "is_disabled": 0, "lon": -77.03558416666667, "is_reserved": 0}, {"bike_id": "7963924fa2d8c6040a0d509ea98b6e95", "fusion_lon": 0.0, "type": "electric_scooter", "name": "7963924fa2d8c6040a0d509ea98b6e95", "rental_uris": {"android": "https://dc.lft.to/lastmile_qr_scan", "ios": "https://dc.lft.to/lastmile_qr_scan"}, "fusion_lat": 0.0, "lat": 38.898720833333336, "is_disabled": 0, "lon": -76.931883, "is_reserved": 0}, {"bike_id": "0034c976739a6e7a78cca29103f7d152", "fusion_lon": 0.0, "type": "electric_scooter", "name": "0034c976739a6e7a78cca29103f7d152", "rental_uris": {"android": "https://dc.lft.to/lastmile_qr_scan", "ios": "https://dc.lft.to/lastmile_qr_scan"}, "fusion_lat": 0.0, "lat": 38.918715, "is_disabled": 0, "lon": -77.04183583333334, "is_reserved": 0}, {"bike_id": "2e030d40657591eac75c72065f7030ff", "fusion_lon": 0.0, "type": "electric_scooter", "name": "2e030d40657591eac75c72065f7030ff", "rental_uris": {"android": "https://dc.lft.to/lastmile_qr_scan", "ios": "https://dc.lft.to/lastmile_qr_scan"}, "fusion_lat": 0.0, "lat": 38.876828333333336, "is_disabled": 0, "lon": -77.016093, "is_reserved": 0}, {"bike_id": "1f0279a3e98e96a93ad55f98f1168436", "fusion_lon": 0.0, "type": "electric_scooter", "name": "1f0279a3e98e96a93ad55f98f1168436", "rental_uris": {"android": "https://dc.lft.to/lastmile_qr_scan", "ios": "https://dc.lft.to/lastmile_qr_scan"}, "fusion_lat": 0.0, "lat": 38.909324833333336, "is_disabled": 0, "lon": -77.04475083333334, "is_reserved": 0}, {"bike_id": "92f9360e180a40301fad673e716f666b", "fusion_lon": 0.0, "type": "electric_scooter", "name": "92f9360e180a40301fad673e716f666b", "rental_uris": {"android": "https://dc.lft.to/lastmile_qr_scan", "ios": "https://dc.lft.to/lastmile_qr_scan"}, "fusion_lat": 0.0, "lat": 38.929759, "is_disabled": 0, "lon": -77.02347916666666, "is_reserved": 0}, {"bike_id": "5baeb57dc9972fde66056d5834cc3c9f", "fusion_lon": 0.0, "type": "electric_scooter", "name": "5baeb57dc9972fde66056d5834cc3c9f", "rental_uris": {"android": "https://dc.lft.to/lastmile_qr_scan", "ios": "https://dc.lft.to/lastmile_qr_scan"}, "fusion_lat": 0.0, "lat": 38.90409066666667, "is_disabled": 0, "lon": -77.0014265, "is_reserved": 0}, {"bike_id": "a29e6fe646fd59ee60b1cd175435b6a5", "fusion_lon": 0.0, "type": "electric_bike", "name": "a29e6fe646fd59ee60b1cd175435b6a5", "rental_uris": {"android": "https://dc.lft.to/lastmile_qr_scan", "ios": "https://dc.lft.to/lastmile_qr_scan"}, "fusion_lat": 0.0, "lat": 38.936689, "is_disabled": 0, "lon": -76.95210466666667, "is_reserved": 0}, {"bike_id": "776e1f2ac82964aa729430503d7bddaf", "fusion_lon": 0.0, "type": "electric_bike", "name": "776e1f2ac82964aa729430503d7bddaf", "rental_uris": {"android": "https://dc.lft.to/lastmile_qr_scan", "ios": "https://dc.lft.to/lastmile_qr_scan"}, "fusion_lat": 0.0, "lat": 38.875477833333335, "is_disabled": 0, "lon": -76.96495666666667, "is_reserved": 0}, {"bike_id": "9f6e56583371fff52926566db1fdd3b2", "fusion_lon": 0.0, "type": "electric_bike", "name": "9f6e56583371fff52926566db1fdd3b2", "rental_uris": {"android": "https://dc.lft.to/lastmile_qr_scan", "ios": "https://dc.lft.to/lastmile_qr_scan"}, "fusion_lat": 0.0, "lat": 38.89805616666666, "is_disabled": 0, "lon": -76.99037133333333, "is_reserved": 0}, {"bike_id": "10ce7a68910d19bb1eb4da78d3ea52bf", "fusion_lon": 0.0, "type": "electric_scooter", "name": "10ce7a68910d19bb1eb4da78d3ea52bf", "rental_uris": {"android": "https://dc.lft.to/lastmile_qr_scan", "ios": "https://dc.lft.to/lastmile_qr_scan"}, "fusion_lat": 0.0, "lat": 38.910932333333335, "is_disabled": 0, "lon": -77.001499, "is_reserved": 0}, {"bike_id": "97922f8366ee3487b151fcdd6ef8a0c8", "fusion_lon": 0.0, "type": "electric_scooter", "name": "97922f8366ee3487b151fcdd6ef8a0c8", "rental_uris": {"android": "https://dc.lft.to/lastmile_qr_scan", "ios": "https://dc.lft.to/lastmile_qr_scan"}, "fusion_lat": 0.0, "lat": 38.92848016666667, "is_disabled": 0, "lon": -77.01393933333334, "is_reserved": 0}, {"bike_id": "7c8d3cb05d9de739e955465b6499c896", "fusion_lon": 0.0, "type": "electric_scooter", "name": "7c8d3cb05d9de739e955465b6499c896", "rental_uris": {"android": "https://dc.lft.to/lastmile_qr_scan", "ios": "https://dc.lft.to/lastmile_qr_scan"}, "fusion_lat": 0.0, "lat": 38.89612316666667, "is_disabled": 0, "lon": -76.9993815, "is_reserved": 0}, {"bike_id": "c4034eb53d7f6c87044f62641f6f9bd2", "fusion_lon": 0.0, "type": "electric_scooter", "name": "c4034eb53d7f6c87044f62641f6f9bd2", "rental_uris": {"android": "https://dc.lft.to/lastmile_qr_scan", "ios": "https://dc.lft.to/lastmile_qr_scan"}, "fusion_lat": 0.0, "lat": 38.895228333333336, "is_disabled": 0, "lon": -76.948978, "is_reserved": 0}, {"bike_id": "57ceb9267a718cf53f9df84a9d58abbd", "fusion_lon": 0.0, "type": "electric_scooter", "name": "57ceb9267a718cf53f9df84a9d58abbd", "rental_uris": {"android": "https://dc.lft.to/lastmile_qr_scan", "ios": "https://dc.lft.to/lastmile_qr_scan"}, "fusion_lat": 0.0, "lat": 38.949442, "is_disabled": 0, "lon": -76.9957955, "is_reserved": 0}, {"bike_id": "418f75dfad1908c3f8e64daaf5ad941d", "fusion_lon": 0.0, "type": "electric_scooter", "name": "418f75dfad1908c3f8e64daaf5ad941d", "rental_uris": {"android": "https://dc.lft.to/lastmile_qr_scan", "ios": "https://dc.lft.to/lastmile_qr_scan"}, "fusion_lat": 0.0, "lat": 38.90636333333333, "is_disabled": 0, "lon": -77.02498766666666, "is_reserved": 0}, {"bike_id": "faa60c90809e3863206434b11e33c45a", "fusion_lon": 0.0, "type": "electric_scooter", "name": "faa60c90809e3863206434b11e33c45a", "rental_uris": {"android": "https://dc.lft.to/lastmile_qr_scan", "ios": "https://dc.lft.to/lastmile_qr_scan"}, "fusion_lat": 0.0, "lat": 38.9057665, "is_disabled": 0, "lon": -77.05131583333333, "is_reserved": 0}, {"bike_id": "127764ee08b63f2457cb6b45d691325b", "fusion_lon": 0.0, "type": "electric_scooter", "name": "127764ee08b63f2457cb6b45d691325b", "rental_uris": {"android": "https://dc.lft.to/lastmile_qr_scan", "ios": "https://dc.lft.to/lastmile_qr_scan"}, "fusion_lat": 0.0, "lat": 38.898665, "is_disabled": 0, "lon": -76.94666433333333, "is_reserved": 0}, {"bike_id": "4c8f00f658fbf52d59d02e3d061ba13e", "fusion_lon": 0.0, "type": "electric_scooter", "name": "4c8f00f658fbf52d59d02e3d061ba13e", "rental_uris": {"android": "https://dc.lft.to/lastmile_qr_scan", "ios": "https://dc.lft.to/lastmile_qr_scan"}, "fusion_lat": 0.0, "lat": 38.9142475, "is_disabled": 0, "lon": -77.00203766666667, "is_reserved": 0}, {"bike_id": "8fab0129a3da9bd8e7cf3bd6b8d077b0", "fusion_lon": 0.0, "type": "electric_scooter", "name": "8fab0129a3da9bd8e7cf3bd6b8d077b0", "rental_uris": {"android": "https://dc.lft.to/lastmile_qr_scan", "ios": "https://dc.lft.to/lastmile_qr_scan"}, "fusion_lat": 0.0, "lat": 38.90813683333333, "is_disabled": 0, "lon": -77.03949716666666, "is_reserved": 0}, {"bike_id": "6a191699b819c23280182caa9eb551ad", "fusion_lon": 0.0, "type": "electric_scooter", "name": "6a191699b819c23280182caa9eb551ad", "rental_uris": {"android": "https://dc.lft.to/lastmile_qr_scan", "ios": "https://dc.lft.to/lastmile_qr_scan"}, "fusion_lat": 0.0, "lat": 38.89605783333333, "is_disabled": 0, "lon": -77.011644, "is_reserved": 0}, {"bike_id": "42ff648ccd874ff77230b98141de00b9", "fusion_lon": 0.0, "type": "electric_scooter", "name": "42ff648ccd874ff77230b98141de00b9", "rental_uris": {"android": "https://dc.lft.to/lastmile_qr_scan", "ios": "https://dc.lft.to/lastmile_qr_scan"}, "fusion_lat": 0.0, "lat": 38.92129166666667, "is_disabled": 0, "lon": -77.04688183333333, "is_reserved": 0}, {"bike_id": "e70a9f96566d7d16cae6c8ea37296f0b", "fusion_lon": 0.0, "type": "electric_scooter", "name": "e70a9f96566d7d16cae6c8ea37296f0b", "rental_uris": {"android": "https://dc.lft.to/lastmile_qr_scan", "ios": "https://dc.lft.to/lastmile_qr_scan"}, "fusion_lat": 0.0, "lat": 38.920659, "is_disabled": 0, "lon": -77.042575, "is_reserved": 0}, {"bike_id": "5f29cdb4b0ae18f1e8338a9684f175eb", "fusion_lon": 0.0, "type": "electric_scooter", "name": "5f29cdb4b0ae18f1e8338a9684f175eb", "rental_uris": {"android": "https://dc.lft.to/lastmile_qr_scan", "ios": "https://dc.lft.to/lastmile_qr_scan"}, "fusion_lat": 0.0, "lat": 38.911371333333335, "is_disabled": 0, "lon": -76.99013833333333, "is_reserved": 0}, {"bike_id": "15e615d3b4e08dc52ed779ce094fbdee", "fusion_lon": 0.0, "type": "electric_scooter", "name": "15e615d3b4e08dc52ed779ce094fbdee", "rental_uris": {"android": "https://dc.lft.to/lastmile_qr_scan", "ios": "https://dc.lft.to/lastmile_qr_scan"}, "fusion_lat": 0.0, "lat": 38.923292333333336, "is_disabled": 0, "lon": -77.0361575, "is_reserved": 0}, {"bike_id": "25a6ba43a8cf1917dfd6a49539637018", "fusion_lon": 0.0, "type": "electric_scooter", "name": "25a6ba43a8cf1917dfd6a49539637018", "rental_uris": {"android": "https://dc.lft.to/lastmile_qr_scan", "ios": "https://dc.lft.to/lastmile_qr_scan"}, "fusion_lat": 0.0, "lat": 38.9288075, "is_disabled": 0, "lon": -77.02712366666667, "is_reserved": 0}, {"bike_id": "683db256f60151d330f328db10f2d41f", "fusion_lon": 0.0, "type": "electric_scooter", "name": "683db256f60151d330f328db10f2d41f", "rental_uris": {"android": "https://dc.lft.to/lastmile_qr_scan", "ios": "https://dc.lft.to/lastmile_qr_scan"}, "fusion_lat": 0.0, "lat": 38.91043, "is_disabled": 0, "lon": -77.06458583333334, "is_reserved": 0}, {"bike_id": "d9f89bd8b0d8666eadd68f499598ad43", "fusion_lon": 0.0, "type": "electric_scooter", "name": "d9f89bd8b0d8666eadd68f499598ad43", "rental_uris": {"android": "https://dc.lft.to/lastmile_qr_scan", "ios": "https://dc.lft.to/lastmile_qr_scan"}, "fusion_lat": 0.0, "lat": 38.903870166666664, "is_disabled": 0, "lon": -76.979101, "is_reserved": 0}, {"bike_id": "9577c7d36d1a04a36e21d68f02d534b3", "fusion_lon": 0.0, "type": "electric_scooter", "name": "9577c7d36d1a04a36e21d68f02d534b3", "rental_uris": {"android": "https://dc.lft.to/lastmile_qr_scan", "ios": "https://dc.lft.to/lastmile_qr_scan"}, "fusion_lat": 0.0, "lat": 38.90836766666666, "is_disabled": 0, "lon": -77.03458883333333, "is_reserved": 0}, {"bike_id": "b359d0283ef6e1c8361a68b727a4a293", "fusion_lon": 0.0, "type": "electric_scooter", "name": "b359d0283ef6e1c8361a68b727a4a293", "rental_uris": {"android": "https://dc.lft.to/lastmile_qr_scan", "ios": "https://dc.lft.to/lastmile_qr_scan"}, "fusion_lat": 0.0, "lat": 38.87934516666667, "is_disabled": 0, "lon": -77.01725383333333, "is_reserved": 0}, {"bike_id": "98b6a1f7c6f1c3032f3405f8bbf8d4a3", "fusion_lon": 0.0, "type": "electric_scooter", "name": "98b6a1f7c6f1c3032f3405f8bbf8d4a3", "rental_uris": {"android": "https://dc.lft.to/lastmile_qr_scan", "ios": "https://dc.lft.to/lastmile_qr_scan"}, "fusion_lat": 0.0, "lat": 38.8793195, "is_disabled": 0, "lon": -77.0053455, "is_reserved": 0}, {"bike_id": "1016982f1a9608ea66092026214eea78", "fusion_lon": 0.0, "type": "electric_bike", "name": "1016982f1a9608ea66092026214eea78", "rental_uris": {"android": "https://dc.lft.to/lastmile_qr_scan", "ios": "https://dc.lft.to/lastmile_qr_scan"}, "fusion_lat": 0.0, "lat": 38.9064565, "is_disabled": 0, "lon": -77.01140966666667, "is_reserved": 0}, {"bike_id": "9b2745b6a5bda48438a552512320d692", "fusion_lon": 0.0, "type": "electric_scooter", "name": "9b2745b6a5bda48438a552512320d692", "rental_uris": {"android": "https://dc.lft.to/lastmile_qr_scan", "ios": "https://dc.lft.to/lastmile_qr_scan"}, "fusion_lat": 0.0, "lat": 38.9118475, "is_disabled": 0, "lon": -77.03842783333333, "is_reserved": 0}, {"bike_id": "7714522b83aa315e1c9e73167298115e", "fusion_lon": 0.0, "type": "electric_scooter", "name": "7714522b83aa315e1c9e73167298115e", "rental_uris": {"android": "https://dc.lft.to/lastmile_qr_scan", "ios": "https://dc.lft.to/lastmile_qr_scan"}, "fusion_lat": 0.0, "lat": 38.884432, "is_disabled": 0, "lon": -77.01042616666666, "is_reserved": 0}, {"bike_id": "7155346e66ac5e8ec164f140852635b7", "fusion_lon": 0.0, "type": "electric_scooter", "name": "7155346e66ac5e8ec164f140852635b7", "rental_uris": {"android": "https://dc.lft.to/lastmile_qr_scan", "ios": "https://dc.lft.to/lastmile_qr_scan"}, "fusion_lat": 0.0, "lat": 38.88593216666666, "is_disabled": 0, "lon": -76.95265566666667, "is_reserved": 0}, {"bike_id": "578c50223c48ea3a89a0f380d17214de", "fusion_lon": 0.0, "type": "electric_bike", "name": "578c50223c48ea3a89a0f380d17214de", "rental_uris": {"android": "https://dc.lft.to/lastmile_qr_scan", "ios": "https://dc.lft.to/lastmile_qr_scan"}, "fusion_lat": 0.0, "lat": 38.942121, "is_disabled": 0, "lon": -76.96619366666667, "is_reserved": 0}, {"bike_id": "0d95589f561c1142b8180dc9a0037382", "fusion_lon": 0.0, "type": "electric_scooter", "name": "0d95589f561c1142b8180dc9a0037382", "rental_uris": {"android": "https://dc.lft.to/lastmile_qr_scan", "ios": "https://dc.lft.to/lastmile_qr_scan"}, "fusion_lat": 0.0, "lat": 38.885579, "is_disabled": 0, "lon": -77.02214833333333, "is_reserved": 0}, {"bike_id": "538e2099470514d9c6a7c31dcade9775", "fusion_lon": 0.0, "type": "electric_scooter", "name": "538e2099470514d9c6a7c31dcade9775", "rental_uris": {"android": "https://dc.lft.to/lastmile_qr_scan", "ios": "https://dc.lft.to/lastmile_qr_scan"}, "fusion_lat": 0.0, "lat": 38.938679666666665, "is_disabled": 0, "lon": -77.02654433333333, "is_reserved": 0}, {"bike_id": "5b9fe76067dae4f240b072a7d6b689d3", "fusion_lon": 0.0, "type": "electric_scooter", "name": "5b9fe76067dae4f240b072a7d6b689d3", "rental_uris": {"android": "https://dc.lft.to/lastmile_qr_scan", "ios": "https://dc.lft.to/lastmile_qr_scan"}, "fusion_lat": 0.0, "lat": 38.9266755, "is_disabled": 0, "lon": -77.0783885, "is_reserved": 0}, {"bike_id": "e416ebf7725e4e6c1d574c7460e66755", "fusion_lon": 0.0, "type": "electric_scooter", "name": "e416ebf7725e4e6c1d574c7460e66755", "rental_uris": {"android": "https://dc.lft.to/lastmile_qr_scan", "ios": "https://dc.lft.to/lastmile_qr_scan"}, "fusion_lat": 0.0, "lat": 38.88725916666667, "is_disabled": 0, "lon": -77.02271816666666, "is_reserved": 0}, {"bike_id": "8af9ddb30e014ab5b9498ea29cb7f0e8", "fusion_lon": 0.0, "type": "electric_scooter", "name": "8af9ddb30e014ab5b9498ea29cb7f0e8", "rental_uris": {"android": "https://dc.lft.to/lastmile_qr_scan", "ios": "https://dc.lft.to/lastmile_qr_scan"}, "fusion_lat": 0.0, "lat": 38.90071, "is_disabled": 0, "lon": -77.00218116666667, "is_reserved": 0}, {"bike_id": "5f047568b7e0863e503c09e230d6af45", "fusion_lon": 0.0, "type": "electric_scooter", "name": "5f047568b7e0863e503c09e230d6af45", "rental_uris": {"android": "https://dc.lft.to/lastmile_qr_scan", "ios": "https://dc.lft.to/lastmile_qr_scan"}, "fusion_lat": 0.0, "lat": 38.90013866666666, "is_disabled": 0, "lon": -76.9870545, "is_reserved": 0}, {"bike_id": "277b6a6d96a15f4a03a2c10b1708c1a5", "fusion_lon": 0.0, "type": "electric_scooter", "name": "277b6a6d96a15f4a03a2c10b1708c1a5", "rental_uris": {"android": "https://dc.lft.to/lastmile_qr_scan", "ios": "https://dc.lft.to/lastmile_qr_scan"}, "fusion_lat": 0.0, "lat": 38.887375166666665, "is_disabled": 0, "lon": -77.01606833333334, "is_reserved": 0}, {"bike_id": "53b61c64822cc8dc2ad2c67eec204ff3", "fusion_lon": 0.0, "type": "electric_scooter", "name": "53b61c64822cc8dc2ad2c67eec204ff3", "rental_uris": {"android": "https://dc.lft.to/lastmile_qr_scan", "ios": "https://dc.lft.to/lastmile_qr_scan"}, "fusion_lat": 0.0, "lat": 38.917025, "is_disabled": 0, "lon": -77.0470895, "is_reserved": 0}, {"bike_id": "df923f8a781f375f4a4321c46407fe34", "fusion_lon": 0.0, "type": "electric_scooter", "name": "df923f8a781f375f4a4321c46407fe34", "rental_uris": {"android": "https://dc.lft.to/lastmile_qr_scan", "ios": "https://dc.lft.to/lastmile_qr_scan"}, "fusion_lat": 0.0, "lat": 38.922397333333336, "is_disabled": 0, "lon": -77.09966016666667, "is_reserved": 0}, {"bike_id": "04139537beaf544ec6b4e68ab75e01ba", "fusion_lon": 0.0, "type": "electric_scooter", "name": "04139537beaf544ec6b4e68ab75e01ba", "rental_uris": {"android": "https://dc.lft.to/lastmile_qr_scan", "ios": "https://dc.lft.to/lastmile_qr_scan"}, "fusion_lat": 0.0, "lat": 38.9198775, "is_disabled": 0, "lon": -77.03315833333333, "is_reserved": 0}, {"bike_id": "30b6d556e9482fc212ceecf8360f1477", "fusion_lon": 0.0, "type": "electric_scooter", "name": "30b6d556e9482fc212ceecf8360f1477", "rental_uris": {"android": "https://dc.lft.to/lastmile_qr_scan", "ios": "https://dc.lft.to/lastmile_qr_scan"}, "fusion_lat": 0.0, "lat": 38.950013166666665, "is_disabled": 0, "lon": -77.02710316666666, "is_reserved": 0}, {"bike_id": "6e73a00526dc91a787add98f33f549e5", "fusion_lon": 0.0, "type": "electric_scooter", "name": "6e73a00526dc91a787add98f33f549e5", "rental_uris": {"android": "https://dc.lft.to/lastmile_qr_scan", "ios": "https://dc.lft.to/lastmile_qr_scan"}, "fusion_lat": 0.0, "lat": 38.92498716666667, "is_disabled": 0, "lon": -77.0225805, "is_reserved": 0}, {"bike_id": "d82a3d9fce7f58f2058b24f4fef23222", "fusion_lon": 0.0, "type": "electric_scooter", "name": "d82a3d9fce7f58f2058b24f4fef23222", "rental_uris": {"android": "https://dc.lft.to/lastmile_qr_scan", "ios": "https://dc.lft.to/lastmile_qr_scan"}, "fusion_lat": 0.0, "lat": 38.90460983333333, "is_disabled": 0, "lon": -77.038229, "is_reserved": 0}, {"bike_id": "daae72ccc9f73d0cfca94d245f3682ab", "fusion_lon": 0.0, "type": "electric_scooter", "name": "daae72ccc9f73d0cfca94d245f3682ab", "rental_uris": {"android": "https://dc.lft.to/lastmile_qr_scan", "ios": "https://dc.lft.to/lastmile_qr_scan"}, "fusion_lat": 0.0, "lat": 38.91619433333334, "is_disabled": 0, "lon": -77.026111, "is_reserved": 0}, {"bike_id": "0ec146d501b57455ecef06079cdff17b", "fusion_lon": 0.0, "type": "electric_bike", "name": "0ec146d501b57455ecef06079cdff17b", "rental_uris": {"android": "https://dc.lft.to/lastmile_qr_scan", "ios": "https://dc.lft.to/lastmile_qr_scan"}, "fusion_lat": 0.0, "lat": 38.87232316666667, "is_disabled": 0, "lon": -76.93206916666666, "is_reserved": 0}, {"bike_id": "15fa147b9d045b1bd2a1f02727c3ed03", "fusion_lon": 0.0, "type": "electric_scooter", "name": "15fa147b9d045b1bd2a1f02727c3ed03", "rental_uris": {"android": "https://dc.lft.to/lastmile_qr_scan", "ios": "https://dc.lft.to/lastmile_qr_scan"}, "fusion_lat": 0.0, "lat": 38.902357333333335, "is_disabled": 0, "lon": -77.002049, "is_reserved": 0}, {"bike_id": "c3f96951645f6159fa4d795fe09ab0c8", "fusion_lon": 0.0, "type": "electric_scooter", "name": "c3f96951645f6159fa4d795fe09ab0c8", "rental_uris": {"android": "https://dc.lft.to/lastmile_qr_scan", "ios": "https://dc.lft.to/lastmile_qr_scan"}, "fusion_lat": 0.0, "lat": 38.93683333333333, "is_disabled": 0, "lon": -77.03290333333334, "is_reserved": 0}, {"bike_id": "892f47efea645b487de317654161d9be", "fusion_lon": 0.0, "type": "electric_scooter", "name": "892f47efea645b487de317654161d9be", "rental_uris": {"android": "https://dc.lft.to/lastmile_qr_scan", "ios": "https://dc.lft.to/lastmile_qr_scan"}, "fusion_lat": 0.0, "lat": 38.95624, "is_disabled": 0, "lon": -77.0299305, "is_reserved": 0}, {"bike_id": "90603297e0c8041eeb875c8606b8e76c", "fusion_lon": 0.0, "type": "electric_scooter", "name": "90603297e0c8041eeb875c8606b8e76c", "rental_uris": {"android": "https://dc.lft.to/lastmile_qr_scan", "ios": "https://dc.lft.to/lastmile_qr_scan"}, "fusion_lat": 0.0, "lat": 38.9159895, "is_disabled": 0, "lon": -77.02300116666666, "is_reserved": 0}, {"bike_id": "8676a5876a7f0f59862a853283dcf8b4", "fusion_lon": 0.0, "type": "electric_bike", "name": "8676a5876a7f0f59862a853283dcf8b4", "rental_uris": {"android": "https://dc.lft.to/lastmile_qr_scan", "ios": "https://dc.lft.to/lastmile_qr_scan"}, "fusion_lat": 0.0, "lat": 38.8410025, "is_disabled": 0, "lon": -77.08931366666667, "is_reserved": 0}, {"bike_id": "24dbee1ffd2738f2ff719f6ffb210d9c", "fusion_lon": 0.0, "type": "electric_bike", "name": "24dbee1ffd2738f2ff719f6ffb210d9c", "rental_uris": {"android": "https://dc.lft.to/lastmile_qr_scan", "ios": "https://dc.lft.to/lastmile_qr_scan"}, "fusion_lat": 0.0, "lat": 38.81242016666667, "is_disabled": 0, "lon": -77.04076633333334, "is_reserved": 0}, {"bike_id": "628f0c6ca0a28df2703137c794fd81b7", "fusion_lon": 0.0, "type": "electric_scooter", "name": "628f0c6ca0a28df2703137c794fd81b7", "rental_uris": {"android": "https://dc.lft.to/lastmile_qr_scan", "ios": "https://dc.lft.to/lastmile_qr_scan"}, "fusion_lat": 0.0, "lat": 38.9036305, "is_disabled": 0, "lon": -77.032096, "is_reserved": 0}, {"bike_id": "a2e5e37d54720346814cddfa85c43d20", "fusion_lon": 0.0, "type": "electric_bike", "name": "a2e5e37d54720346814cddfa85c43d20", "rental_uris": {"android": "https://dc.lft.to/lastmile_qr_scan", "ios": "https://dc.lft.to/lastmile_qr_scan"}, "fusion_lat": 0.0, "lat": 38.92408833333333, "is_disabled": 0, "lon": -77.05055016666667, "is_reserved": 0}, {"bike_id": "27900de29cd07a00303790ce8f3170af", "fusion_lon": 0.0, "type": "electric_scooter", "name": "27900de29cd07a00303790ce8f3170af", "rental_uris": {"android": "https://dc.lft.to/lastmile_qr_scan", "ios": "https://dc.lft.to/lastmile_qr_scan"}, "fusion_lat": 0.0, "lat": 38.887300333333336, "is_disabled": 0, "lon": -77.02628883333334, "is_reserved": 0}, {"bike_id": "b54f03fa694ef4f4036148e4354c2446", "fusion_lon": 0.0, "type": "electric_scooter", "name": "b54f03fa694ef4f4036148e4354c2446", "rental_uris": {"android": "https://dc.lft.to/lastmile_qr_scan", "ios": "https://dc.lft.to/lastmile_qr_scan"}, "fusion_lat": 0.0, "lat": 38.917219833333334, "is_disabled": 0, "lon": -77.019093, "is_reserved": 0}, {"bike_id": "d7e46b911df9442652020ec337947531", "fusion_lon": 0.0, "type": "electric_scooter", "name": "d7e46b911df9442652020ec337947531", "rental_uris": {"android": "https://dc.lft.to/lastmile_qr_scan", "ios": "https://dc.lft.to/lastmile_qr_scan"}, "fusion_lat": 0.0, "lat": 38.8868685, "is_disabled": 0, "lon": -76.95241183333333, "is_reserved": 0}, {"bike_id": "01601c0ff7c24c7ed5e54e915db17f1d", "fusion_lon": 0.0, "type": "electric_scooter", "name": "01601c0ff7c24c7ed5e54e915db17f1d", "rental_uris": {"android": "https://dc.lft.to/lastmile_qr_scan", "ios": "https://dc.lft.to/lastmile_qr_scan"}, "fusion_lat": 0.0, "lat": 38.956489166666664, "is_disabled": 0, "lon": -77.03293416666666, "is_reserved": 0}, {"bike_id": "8f41a087b92708b89076ede36ba199b1", "fusion_lon": 0.0, "type": "electric_scooter", "name": "8f41a087b92708b89076ede36ba199b1", "rental_uris": {"android": "https://dc.lft.to/lastmile_qr_scan", "ios": "https://dc.lft.to/lastmile_qr_scan"}, "fusion_lat": 0.0, "lat": 38.902620666666664, "is_disabled": 0, "lon": -77.03932083333333, "is_reserved": 0}, {"bike_id": "6b4b64be8b8b3ee4267a226a21a5e288", "fusion_lon": 0.0, "type": "electric_scooter", "name": "6b4b64be8b8b3ee4267a226a21a5e288", "rental_uris": {"android": "https://dc.lft.to/lastmile_qr_scan", "ios": "https://dc.lft.to/lastmile_qr_scan"}, "fusion_lat": 0.0, "lat": 38.876291, "is_disabled": 0, "lon": -76.96531083333333, "is_reserved": 0}, {"bike_id": "42eb5e00110b0e2731522666c74a8170", "fusion_lon": 0.0, "type": "electric_scooter", "name": "42eb5e00110b0e2731522666c74a8170", "rental_uris": {"android": "https://dc.lft.to/lastmile_qr_scan", "ios": "https://dc.lft.to/lastmile_qr_scan"}, "fusion_lat": 0.0, "lat": 38.9036535, "is_disabled": 0, "lon": -77.0110235, "is_reserved": 0}, {"bike_id": "802a567107df8d48040564260e4e75c3", "fusion_lon": 0.0, "type": "electric_bike", "name": "802a567107df8d48040564260e4e75c3", "rental_uris": {"android": "https://dc.lft.to/lastmile_qr_scan", "ios": "https://dc.lft.to/lastmile_qr_scan"}, "fusion_lat": 0.0, "lat": 38.934956666666665, "is_disabled": 0, "lon": -76.94954833333334, "is_reserved": 0}, {"bike_id": "96898f4aa0e0699d3a38e22744e1622c", "fusion_lon": 0.0, "type": "electric_scooter", "name": "96898f4aa0e0699d3a38e22744e1622c", "rental_uris": {"android": "https://dc.lft.to/lastmile_qr_scan", "ios": "https://dc.lft.to/lastmile_qr_scan"}, "fusion_lat": 0.0, "lat": 38.907533, "is_disabled": 0, "lon": -77.0321135, "is_reserved": 0}, {"bike_id": "9787abeba1ba700f19d4683b1102497f", "fusion_lon": 0.0, "type": "electric_scooter", "name": "9787abeba1ba700f19d4683b1102497f", "rental_uris": {"android": "https://dc.lft.to/lastmile_qr_scan", "ios": "https://dc.lft.to/lastmile_qr_scan"}, "fusion_lat": 0.0, "lat": 38.892208, "is_disabled": 0, "lon": -77.02718516666667, "is_reserved": 0}, {"bike_id": "ee1c39557391cb6247e765b188c9740c", "fusion_lon": 0.0, "type": "electric_bike", "name": "ee1c39557391cb6247e765b188c9740c", "rental_uris": {"android": "https://dc.lft.to/lastmile_qr_scan", "ios": "https://dc.lft.to/lastmile_qr_scan"}, "fusion_lat": 0.0, "lat": 38.92317633333333, "is_disabled": 0, "lon": -77.03799816666667, "is_reserved": 0}, {"bike_id": "9327112817721aa806ab38802094d1ef", "fusion_lon": 0.0, "type": "electric_scooter", "name": "9327112817721aa806ab38802094d1ef", "rental_uris": {"android": "https://dc.lft.to/lastmile_qr_scan", "ios": "https://dc.lft.to/lastmile_qr_scan"}, "fusion_lat": 0.0, "lat": 38.9159915, "is_disabled": 0, "lon": -77.02823666666667, "is_reserved": 0}, {"bike_id": "421f69d7e76cf9b65f78ff9b7d4c320f", "fusion_lon": 0.0, "type": "electric_scooter", "name": "421f69d7e76cf9b65f78ff9b7d4c320f", "rental_uris": {"android": "https://dc.lft.to/lastmile_qr_scan", "ios": "https://dc.lft.to/lastmile_qr_scan"}, "fusion_lat": 0.0, "lat": 38.922947666666666, "is_disabled": 0, "lon": -77.04146083333333, "is_reserved": 0}, {"bike_id": "47574bd4a506f77c3db529f6fe95cb55", "fusion_lon": 0.0, "type": "electric_scooter", "name": "47574bd4a506f77c3db529f6fe95cb55", "rental_uris": {"android": "https://dc.lft.to/lastmile_qr_scan", "ios": "https://dc.lft.to/lastmile_qr_scan"}, "fusion_lat": 0.0, "lat": 38.9023465, "is_disabled": 0, "lon": -77.00206383333334, "is_reserved": 0}, {"bike_id": "c57ef319197f3e9b6828bef6d08ad352", "fusion_lon": 0.0, "type": "electric_scooter", "name": "c57ef319197f3e9b6828bef6d08ad352", "rental_uris": {"android": "https://dc.lft.to/lastmile_qr_scan", "ios": "https://dc.lft.to/lastmile_qr_scan"}, "fusion_lat": 0.0, "lat": 38.89946783333333, "is_disabled": 0, "lon": -76.9855165, "is_reserved": 0}, {"bike_id": "ed5df188c5132ba3fd581b4eeae6c6c7", "fusion_lon": 0.0, "type": "electric_scooter", "name": "ed5df188c5132ba3fd581b4eeae6c6c7", "rental_uris": {"android": "https://dc.lft.to/lastmile_qr_scan", "ios": "https://dc.lft.to/lastmile_qr_scan"}, "fusion_lat": 0.0, "lat": 38.865631, "is_disabled": 0, "lon": -76.97435016666667, "is_reserved": 0}, {"bike_id": "6afea44cf59660b7f33cfe0ca14048b3", "fusion_lon": 0.0, "type": "electric_scooter", "name": "6afea44cf59660b7f33cfe0ca14048b3", "rental_uris": {"android": "https://dc.lft.to/lastmile_qr_scan", "ios": "https://dc.lft.to/lastmile_qr_scan"}, "fusion_lat": 0.0, "lat": 38.9234355, "is_disabled": 0, "lon": -77.0435175, "is_reserved": 0}, {"bike_id": "18e44e199f0aaa92046524a55cdff133", "fusion_lon": 0.0, "type": "electric_scooter", "name": "18e44e199f0aaa92046524a55cdff133", "rental_uris": {"android": "https://dc.lft.to/lastmile_qr_scan", "ios": "https://dc.lft.to/lastmile_qr_scan"}, "fusion_lat": 0.0, "lat": 38.914151333333336, "is_disabled": 0, "lon": -77.031793, "is_reserved": 0}, {"bike_id": "716094ac91f239f6d68d7bac79fd0228", "fusion_lon": 0.0, "type": "electric_scooter", "name": "716094ac91f239f6d68d7bac79fd0228", "rental_uris": {"android": "https://dc.lft.to/lastmile_qr_scan", "ios": "https://dc.lft.to/lastmile_qr_scan"}, "fusion_lat": 0.0, "lat": 38.89718716666667, "is_disabled": 0, "lon": -77.0045035, "is_reserved": 0}, {"bike_id": "2b7792233eb6854cd048b7ee4ec454e8", "fusion_lon": 0.0, "type": "electric_scooter", "name": "2b7792233eb6854cd048b7ee4ec454e8", "rental_uris": {"android": "https://dc.lft.to/lastmile_qr_scan", "ios": "https://dc.lft.to/lastmile_qr_scan"}, "fusion_lat": 0.0, "lat": 38.912633666666665, "is_disabled": 0, "lon": -77.03736566666667, "is_reserved": 0}, {"bike_id": "cbb778c528f4be5d7450cdf174afb281", "fusion_lon": 0.0, "type": "electric_scooter", "name": "cbb778c528f4be5d7450cdf174afb281", "rental_uris": {"android": "https://dc.lft.to/lastmile_qr_scan", "ios": "https://dc.lft.to/lastmile_qr_scan"}, "fusion_lat": 0.0, "lat": 38.90843483333333, "is_disabled": 0, "lon": -77.03306083333334, "is_reserved": 0}, {"bike_id": "f82b18650a79d7567867774ff63d7844", "fusion_lon": 0.0, "type": "electric_scooter", "name": "f82b18650a79d7567867774ff63d7844", "rental_uris": {"android": "https://dc.lft.to/lastmile_qr_scan", "ios": "https://dc.lft.to/lastmile_qr_scan"}, "fusion_lat": 0.0, "lat": 38.900070666666664, "is_disabled": 0, "lon": -77.00110116666667, "is_reserved": 0}, {"bike_id": "bdc3e166a3a974938c2ac8af69b841ee", "fusion_lon": 0.0, "type": "electric_scooter", "name": "bdc3e166a3a974938c2ac8af69b841ee", "rental_uris": {"android": "https://dc.lft.to/lastmile_qr_scan", "ios": "https://dc.lft.to/lastmile_qr_scan"}, "fusion_lat": 0.0, "lat": 38.874810833333335, "is_disabled": 0, "lon": -76.96523333333333, "is_reserved": 0}, {"bike_id": "e99fbbdf463115d22dd1b13f2e5d8d37", "fusion_lon": 0.0, "type": "electric_scooter", "name": "e99fbbdf463115d22dd1b13f2e5d8d37", "rental_uris": {"android": "https://dc.lft.to/lastmile_qr_scan", "ios": "https://dc.lft.to/lastmile_qr_scan"}, "fusion_lat": 0.0, "lat": 38.949947333333334, "is_disabled": 0, "lon": -77.02714983333334, "is_reserved": 0}, {"bike_id": "66622762108e42ade6857f1971d65e0a", "fusion_lon": 0.0, "type": "electric_scooter", "name": "66622762108e42ade6857f1971d65e0a", "rental_uris": {"android": "https://dc.lft.to/lastmile_qr_scan", "ios": "https://dc.lft.to/lastmile_qr_scan"}, "fusion_lat": 0.0, "lat": 38.922753166666666, "is_disabled": 0, "lon": -76.99423633333333, "is_reserved": 0}, {"bike_id": "7d74497dd243b4425fbfdf620d96c017", "fusion_lon": 0.0, "type": "electric_scooter", "name": "7d74497dd243b4425fbfdf620d96c017", "rental_uris": {"android": "https://dc.lft.to/lastmile_qr_scan", "ios": "https://dc.lft.to/lastmile_qr_scan"}, "fusion_lat": 0.0, "lat": 38.912702833333334, "is_disabled": 0, "lon": -77.02226166666667, "is_reserved": 0}, {"bike_id": "2c6d73d4d3c9e294c23d0f28c04adec5", "fusion_lon": 0.0, "type": "electric_scooter", "name": "2c6d73d4d3c9e294c23d0f28c04adec5", "rental_uris": {"android": "https://dc.lft.to/lastmile_qr_scan", "ios": "https://dc.lft.to/lastmile_qr_scan"}, "fusion_lat": 0.0, "lat": 38.9170145, "is_disabled": 0, "lon": -77.03862983333333, "is_reserved": 0}, {"bike_id": "b75c30fcee6a4c36ea4d2473744b948e", "fusion_lon": 0.0, "type": "electric_scooter", "name": "b75c30fcee6a4c36ea4d2473744b948e", "rental_uris": {"android": "https://dc.lft.to/lastmile_qr_scan", "ios": "https://dc.lft.to/lastmile_qr_scan"}, "fusion_lat": 0.0, "lat": 38.90006783333333, "is_disabled": 0, "lon": -76.9885705, "is_reserved": 0}, {"bike_id": "8cc3d8bd2a6dec80d0c074557d775e08", "fusion_lon": 0.0, "type": "electric_scooter", "name": "8cc3d8bd2a6dec80d0c074557d775e08", "rental_uris": {"android": "https://dc.lft.to/lastmile_qr_scan", "ios": "https://dc.lft.to/lastmile_qr_scan"}, "fusion_lat": 0.0, "lat": 38.91941333333333, "is_disabled": 0, "lon": -77.01359266666667, "is_reserved": 0}, {"bike_id": "b6fe5c6a627d22afa37f9fa967c975a2", "fusion_lon": 0.0, "type": "electric_scooter", "name": "b6fe5c6a627d22afa37f9fa967c975a2", "rental_uris": {"android": "https://dc.lft.to/lastmile_qr_scan", "ios": "https://dc.lft.to/lastmile_qr_scan"}, "fusion_lat": 0.0, "lat": 38.936507166666665, "is_disabled": 0, "lon": -77.05924233333333, "is_reserved": 0}, {"bike_id": "2af8e671dedceabd55e3e8a4edc9c680", "fusion_lon": 0.0, "type": "electric_bike", "name": "2af8e671dedceabd55e3e8a4edc9c680", "rental_uris": {"android": "https://dc.lft.to/lastmile_qr_scan", "ios": "https://dc.lft.to/lastmile_qr_scan"}, "fusion_lat": 0.0, "lat": 38.9065315, "is_disabled": 0, "lon": -77.01625866666667, "is_reserved": 0}, {"bike_id": "401a57bcbdbcf1e869fe42528c39ec82", "fusion_lon": 0.0, "type": "electric_scooter", "name": "401a57bcbdbcf1e869fe42528c39ec82", "rental_uris": {"android": "https://dc.lft.to/lastmile_qr_scan", "ios": "https://dc.lft.to/lastmile_qr_scan"}, "fusion_lat": 0.0, "lat": 38.906084166666666, "is_disabled": 0, "lon": -77.0058, "is_reserved": 0}, {"bike_id": "e7d8a216c5d9845f758d2eb6499342b9", "fusion_lon": 0.0, "type": "electric_scooter", "name": "e7d8a216c5d9845f758d2eb6499342b9", "rental_uris": {"android": "https://dc.lft.to/lastmile_qr_scan", "ios": "https://dc.lft.to/lastmile_qr_scan"}, "fusion_lat": 0.0, "lat": 38.908633333333334, "is_disabled": 0, "lon": -77.01249883333334, "is_reserved": 0}, {"bike_id": "f9012514a271937e4141299450dd020d", "fusion_lon": 0.0, "type": "electric_scooter", "name": "f9012514a271937e4141299450dd020d", "rental_uris": {"android": "https://dc.lft.to/lastmile_qr_scan", "ios": "https://dc.lft.to/lastmile_qr_scan"}, "fusion_lat": 0.0, "lat": 38.9333345, "is_disabled": 0, "lon": -77.03268616666666, "is_reserved": 0}, {"bike_id": "5a1a3cb3dbae95f737d2b39d40f58226", "fusion_lon": 0.0, "type": "electric_scooter", "name": "5a1a3cb3dbae95f737d2b39d40f58226", "rental_uris": {"android": "https://dc.lft.to/lastmile_qr_scan", "ios": "https://dc.lft.to/lastmile_qr_scan"}, "fusion_lat": 0.0, "lat": 38.898358333333334, "is_disabled": 0, "lon": -77.0282375, "is_reserved": 0}, {"bike_id": "3c3b3c1c8dc32ba1fe55506a1bc4bad6", "fusion_lon": 0.0, "type": "electric_scooter", "name": "3c3b3c1c8dc32ba1fe55506a1bc4bad6", "rental_uris": {"android": "https://dc.lft.to/lastmile_qr_scan", "ios": "https://dc.lft.to/lastmile_qr_scan"}, "fusion_lat": 0.0, "lat": 38.88428433333333, "is_disabled": 0, "lon": -76.95763316666667, "is_reserved": 0}, {"bike_id": "e5399b2573440a599e1c5177361d7247", "fusion_lon": 0.0, "type": "electric_scooter", "name": "e5399b2573440a599e1c5177361d7247", "rental_uris": {"android": "https://dc.lft.to/lastmile_qr_scan", "ios": "https://dc.lft.to/lastmile_qr_scan"}, "fusion_lat": 0.0, "lat": 38.92882983333333, "is_disabled": 0, "lon": -77.02640633333333, "is_reserved": 0}, {"bike_id": "1e22eb508e2a34d65d4e042c2ababaa1", "fusion_lon": 0.0, "type": "electric_scooter", "name": "1e22eb508e2a34d65d4e042c2ababaa1", "rental_uris": {"android": "https://dc.lft.to/lastmile_qr_scan", "ios": "https://dc.lft.to/lastmile_qr_scan"}, "fusion_lat": 0.0, "lat": 38.9062635, "is_disabled": 0, "lon": -77.03726416666667, "is_reserved": 0}, {"bike_id": "c19009fe0d33a3db4dd066edac24b7a5", "fusion_lon": 0.0, "type": "electric_scooter", "name": "c19009fe0d33a3db4dd066edac24b7a5", "rental_uris": {"android": "https://dc.lft.to/lastmile_qr_scan", "ios": "https://dc.lft.to/lastmile_qr_scan"}, "fusion_lat": 0.0, "lat": 38.88386933333334, "is_disabled": 0, "lon": -76.97469383333333, "is_reserved": 0}, {"bike_id": "e7503114a6af04c1d5ea32bfd5dab093", "fusion_lon": 0.0, "type": "electric_scooter", "name": "e7503114a6af04c1d5ea32bfd5dab093", "rental_uris": {"android": "https://dc.lft.to/lastmile_qr_scan", "ios": "https://dc.lft.to/lastmile_qr_scan"}, "fusion_lat": 0.0, "lat": 38.901218, "is_disabled": 0, "lon": -77.0330695, "is_reserved": 0}, {"bike_id": "d97ae875f2d8e601f00bdfd6df29a4dd", "fusion_lon": 0.0, "type": "electric_scooter", "name": "d97ae875f2d8e601f00bdfd6df29a4dd", "rental_uris": {"android": "https://dc.lft.to/lastmile_qr_scan", "ios": "https://dc.lft.to/lastmile_qr_scan"}, "fusion_lat": 0.0, "lat": 38.89472383333333, "is_disabled": 0, "lon": -76.93332683333334, "is_reserved": 0}, {"bike_id": "3f2352531d15fd43a07ac27937243e69", "fusion_lon": 0.0, "type": "electric_scooter", "name": "3f2352531d15fd43a07ac27937243e69", "rental_uris": {"android": "https://dc.lft.to/lastmile_qr_scan", "ios": "https://dc.lft.to/lastmile_qr_scan"}, "fusion_lat": 0.0, "lat": 38.90971733333333, "is_disabled": 0, "lon": -77.0366755, "is_reserved": 0}, {"bike_id": "572e4daccf6cc62ee7b091e0806d1c86", "fusion_lon": 0.0, "type": "electric_scooter", "name": "572e4daccf6cc62ee7b091e0806d1c86", "rental_uris": {"android": "https://dc.lft.to/lastmile_qr_scan", "ios": "https://dc.lft.to/lastmile_qr_scan"}, "fusion_lat": 0.0, "lat": 38.925144333333336, "is_disabled": 0, "lon": -77.03640183333333, "is_reserved": 0}, {"bike_id": "dd70833f7e3369232255a61bda63c6da", "fusion_lon": 0.0, "type": "electric_scooter", "name": "dd70833f7e3369232255a61bda63c6da", "rental_uris": {"android": "https://dc.lft.to/lastmile_qr_scan", "ios": "https://dc.lft.to/lastmile_qr_scan"}, "fusion_lat": 0.0, "lat": 38.909397166666665, "is_disabled": 0, "lon": -76.999239, "is_reserved": 0}, {"bike_id": "7833715552228ec38006e4e10b0269dc", "fusion_lon": 0.0, "type": "electric_scooter", "name": "7833715552228ec38006e4e10b0269dc", "rental_uris": {"android": "https://dc.lft.to/lastmile_qr_scan", "ios": "https://dc.lft.to/lastmile_qr_scan"},