{"data": {"bikes": [{"lon": -76.97496183333334, "bike_id": "b65ebfda8dd2d7ee17c6802f3b580661", "lat": 38.919264, "fusion_lon": 0.0, "fusion_lat": 0.0, "type": "electric_scooter", "name": "b65ebfda8dd2d7ee17c6802f3b580661", "is_disabled": 0, "rental_uris": {"ios": "https://dc.lft.to/lastmile_qr_scan", "android": "https://dc.lft.to/lastmile_qr_scan"}, "is_reserved": 0}, {"lon": -76.993558, "bike_id": "f5a162da2151075802e83725e9ed245f", "lat": 38.845074333333336, "fusion_lon": 0.0, "fusion_lat": 0.0, "type": "electric_bike", "name": "f5a162da2151075802e83725e9ed245f", "is_disabled": 0, "rental_uris": {"ios": "https://dc.lft.to/lastmile_qr_scan", "android": "https://dc.lft.to/lastmile_qr_scan"}, "is_reserved": 0}, {"lon": -76.9440295, "bike_id": "df7e83098110e1c0cc523b40830a21d7", "lat": 38.88142, "fusion_lon": 0.0, "fusion_lat": 0.0, "type": "electric_scooter", "name": "df7e83098110e1c0cc523b40830a21d7", "is_disabled": 0, "rental_uris": {"ios": "https://dc.lft.to/lastmile_qr_scan", "android": "https://dc.lft.to/lastmile_qr_scan"}, "is_reserved": 0}, {"lon": -77.03188433333334, "bike_id": "f08d97402a83afff9d23735d592832fd", "lat": 38.9181835, "fusion_lon": 0.0, "fusion_lat": 0.0, "type": "electric_scooter", "name": "f08d97402a83afff9d23735d592832fd", "is_disabled": 0, "rental_uris": {"ios": "https://dc.lft.to/lastmile_qr_scan", "android": "https://dc.lft.to/lastmile_qr_scan"}, "is_reserved": 0}, {"lon": -77.03181283333333, "bike_id": "c00b8ef410aaebe68927e11725de29a7", "lat": 38.892287833333334, "fusion_lon": 0.0, "fusion_lat": 0.0, "type": "electric_scooter", "name": "c00b8ef410aaebe68927e11725de29a7", "is_disabled": 0, "rental_uris": {"ios": "https://dc.lft.to/lastmile_qr_scan", "android": "https://dc.lft.to/lastmile_qr_scan"}, "is_reserved": 0}, {"lon": -77.0244645, "bike_id": "fb9797927a7f19c5a8295ea5ed840177", "lat": 38.9185335, "fusion_lon": 0.0, "fusion_lat": 0.0, "type": "electric_scooter", "name": "fb9797927a7f19c5a8295ea5ed840177", "is_disabled": 0, "rental_uris": {"ios": "https://dc.lft.to/lastmile_qr_scan", "android": "https://dc.lft.to/lastmile_qr_scan"}, "is_reserved": 0}, {"lon": -77.02283516666667, "bike_id": "e4c168abaa9ba625ef27a86870669d9c", "lat": 38.91217666666667, "fusion_lon": 0.0, "fusion_lat": 0.0, "type": "electric_scooter", "name": "e4c168abaa9ba625ef27a86870669d9c", "is_disabled": 0, "rental_uris": {"ios": "https://dc.lft.to/lastmile_qr_scan", "android": "https://dc.lft.to/lastmile_qr_scan"}, "is_reserved": 0}, {"lon": -77.01056016666666, "bike_id": "4c7ecacbc21ec8c53d65d9f4056a6bc8", "lat": 38.878690666666664, "fusion_lon": 0.0, "fusion_lat": 0.0, "type": "electric_scooter", "name": "4c7ecacbc21ec8c53d65d9f4056a6bc8", "is_disabled": 0, "rental_uris": {"ios": "https://dc.lft.to/lastmile_qr_scan", "android": "https://dc.lft.to/lastmile_qr_scan"}, "is_reserved": 0}, {"lon": -77.033127, "bike_id": "a53dc558205f3cc68f0fd6bda8b0a570", "lat": 38.900858, "fusion_lon": 0.0, "fusion_lat": 0.0, "type": "electric_scooter", "name": "a53dc558205f3cc68f0fd6bda8b0a570", "is_disabled": 0, "rental_uris": {"ios": "https://dc.lft.to/lastmile_qr_scan", "android": "https://dc.lft.to/lastmile_qr_scan"}, "is_reserved": 0}, {"lon": -77.03264683333333, "bike_id": "f3c2b0e7c9d0545ab011444d37b0cccc", "lat": 38.921604333333335, "fusion_lon": 0.0, "fusion_lat": 0.0, "type": "electric_scooter", "name": "f3c2b0e7c9d0545ab011444d37b0cccc", "is_disabled": 0, "rental_uris": {"ios": "https://dc.lft.to/lastmile_qr_scan", "android": "https://dc.lft.to/lastmile_qr_scan"}, "is_reserved": 0}, {"lon": -77.021832, "bike_id": "e500d43cdf4ffb02296437b11e0179d2", "lat": 38.90700266666666, "fusion_lon": 0.0, "fusion_lat": 0.0, "type": "electric_bike", "name": "e500d43cdf4ffb02296437b11e0179d2", "is_disabled": 0, "rental_uris": {"ios": "https://dc.lft.to/lastmile_qr_scan", "android": "https://dc.lft.to/lastmile_qr_scan"}, "is_reserved": 0}, {"lon": -76.98723583333333, "bike_id": "06b9dabb6e9c328f39526a160a92a165", "lat": 38.866326, "fusion_lon": 0.0, "fusion_lat": 0.0, "type": "electric_scooter", "name": "06b9dabb6e9c328f39526a160a92a165", "is_disabled": 0, "rental_uris": {"ios": "https://dc.lft.to/lastmile_qr_scan", "android": "https://dc.lft.to/lastmile_qr_scan"}, "is_reserved": 0}, {"lon": -77.03265633333334, "bike_id": "5cf78a84483e7732fac8245bd117def4", "lat": 38.935621, "fusion_lon": 0.0, "fusion_lat": 0.0, "type": "electric_scooter", "name": "5cf78a84483e7732fac8245bd117def4", "is_disabled": 0, "rental_uris": {"ios": "https://dc.lft.to/lastmile_qr_scan", "android": "https://dc.lft.to/lastmile_qr_scan"}, "is_reserved": 0}, {"lon": -77.0333355, "bike_id": "a04f4b5b1292582ad10c5b5326e3da36", "lat": 38.919733666666666, "fusion_lon": 0.0, "fusion_lat": 0.0, "type": "electric_scooter", "name": "a04f4b5b1292582ad10c5b5326e3da36", "is_disabled": 0, "rental_uris": {"ios": "https://dc.lft.to/lastmile_qr_scan", "android": "https://dc.lft.to/lastmile_qr_scan"}, "is_reserved": 0}, {"lon": -77.05864216666667, "bike_id": "0824d50dfe69cb3567a71e440f15ecdf", "lat": 38.93607083333333, "fusion_lon": 0.0, "fusion_lat": 0.0, "type": "electric_scooter", "name": "0824d50dfe69cb3567a71e440f15ecdf", "is_disabled": 0, "rental_uris": {"ios": "https://dc.lft.to/lastmile_qr_scan", "android": "https://dc.lft.to/lastmile_qr_scan"}, "is_reserved": 0}, {"lon": -76.98353016666667, "bike_id": "522d47fcb2485271d84c1b8aedc7131e", "lat": 38.904575666666666, "fusion_lon": 0.0, "fusion_lat": 0.0, "type": "electric_scooter", "name": "522d47fcb2485271d84c1b8aedc7131e", "is_disabled": 0, "rental_uris": {"ios": "https://dc.lft.to/lastmile_qr_scan", "android": "https://dc.lft.to/lastmile_qr_scan"}, "is_reserved": 0}, {"lon": -77.02719483333334, "bike_id": "14468f6034fa883578eaf77915ea26d4", "lat": 38.8973255, "fusion_lon": 0.0, "fusion_lat": 0.0, "type": "electric_scooter", "name": "14468f6034fa883578eaf77915ea26d4", "is_disabled": 0, "rental_uris": {"ios": "https://dc.lft.to/lastmile_qr_scan", "android": "https://dc.lft.to/lastmile_qr_scan"}, "is_reserved": 0}, {"lon": -77.02036483333333, "bike_id": "65c56ed579f213a809b793eec528e5fb", "lat": 38.924411, "fusion_lon": 0.0, "fusion_lat": 0.0, "type": "electric_scooter", "name": "65c56ed579f213a809b793eec528e5fb", "is_disabled": 0, "rental_uris": {"ios": "https://dc.lft.to/lastmile_qr_scan", "android": "https://dc.lft.to/lastmile_qr_scan"}, "is_reserved": 0}, {"lon": -76.9492985, "bike_id": "16c8bb97191fdbf33a8cd036d72612fa", "lat": 38.8935485, "fusion_lon": 0.0, "fusion_lat": 0.0, "type": "electric_scooter", "name": "16c8bb97191fdbf33a8cd036d72612fa", "is_disabled": 0, "rental_uris": {"ios": "https://dc.lft.to/lastmile_qr_scan", "android": "https://dc.lft.to/lastmile_qr_scan"}, "is_reserved": 0}, {"lon": -77.07328966666667, "bike_id": "02167df9c5393051c15e9531589772be", "lat": 38.92403633333333, "fusion_lon": 0.0, "fusion_lat": 0.0, "type": "electric_scooter", "name": "02167df9c5393051c15e9531589772be", "is_disabled": 0, "rental_uris": {"ios": "https://dc.lft.to/lastmile_qr_scan", "android": "https://dc.lft.to/lastmile_qr_scan"}, "is_reserved": 0}, {"lon": -77.0001015, "bike_id": "68c3dadab8f37c5b78960588425a65df", "lat": 38.91980133333333, "fusion_lon": 0.0, "fusion_lat": 0.0, "type": "electric_scooter", "name": "68c3dadab8f37c5b78960588425a65df", "is_disabled": 0, "rental_uris": {"ios": "https://dc.lft.to/lastmile_qr_scan", "android": "https://dc.lft.to/lastmile_qr_scan"}, "is_reserved": 0}, {"lon": -77.07426216666667, "bike_id": "dab7a4a27164b6ffe3eea273acd0ed61", "lat": 38.999467333333335, "fusion_lon": 0.0, "fusion_lat": 0.0, "type": "electric_bike", "name": "dab7a4a27164b6ffe3eea273acd0ed61", "is_disabled": 0, "rental_uris": {"ios": "https://dc.lft.to/lastmile_qr_scan", "android": "https://dc.lft.to/lastmile_qr_scan"}, "is_reserved": 0}, {"lon": -77.01361416666667, "bike_id": "fdd9c865bb87840978e5209e74303e83", "lat": 38.88674433333333, "fusion_lon": 0.0, "fusion_lat": 0.0, "type": "electric_scooter", "name": "fdd9c865bb87840978e5209e74303e83", "is_disabled": 0, "rental_uris": {"ios": "https://dc.lft.to/lastmile_qr_scan", "android": "https://dc.lft.to/lastmile_qr_scan"}, "is_reserved": 0}, {"lon": -77.0093295, "bike_id": "3422ae785558073af41bb7f17f8cc211", "lat": 38.874562166666664, "fusion_lon": 0.0, "fusion_lat": 0.0, "type": "electric_scooter", "name": "3422ae785558073af41bb7f17f8cc211", "is_disabled": 0, "rental_uris": {"ios": "https://dc.lft.to/lastmile_qr_scan", "android": "https://dc.lft.to/lastmile_qr_scan"}, "is_reserved": 0}, {"lon": -77.015135, "bike_id": "3bf8b3a589300a7d29a7c7a8dfba9604", "lat": 38.90024, "fusion_lon": 0.0, "fusion_lat": 0.0, "type": "electric_scooter", "name": "3bf8b3a589300a7d29a7c7a8dfba9604", "is_disabled": 0, "rental_uris": {"ios": "https://dc.lft.to/lastmile_qr_scan", "android": "https://dc.lft.to/lastmile_qr_scan"}, "is_reserved": 0}, {"lon": -77.0373825, "bike_id": "4ba30a046360f203472748587ca087a8", "lat": 38.902696166666665, "fusion_lon": 0.0, "fusion_lat": 0.0, "type": "electric_scooter", "name": "4ba30a046360f203472748587ca087a8", "is_disabled": 0, "rental_uris": {"ios": "https://dc.lft.to/lastmile_qr_scan", "android": "https://dc.lft.to/lastmile_qr_scan"}, "is_reserved": 0}, {"lon": -77.02298366666666, "bike_id": "19ea52cf642f1be873bcead1c33b316c", "lat": 38.918294, "fusion_lon": 0.0, "fusion_lat": 0.0, "type": "electric_scooter", "name": "19ea52cf642f1be873bcead1c33b316c", "is_disabled": 0, "rental_uris": {"ios": "https://dc.lft.to/lastmile_qr_scan", "android": "https://dc.lft.to/lastmile_qr_scan"}, "is_reserved": 0}, {"lon": -76.98110116666666, "bike_id": "3e5ce5b287dbefa97392d040370e4c2b", "lat": 38.90405883333333, "fusion_lon": 0.0, "fusion_lat": 0.0, "type": "electric_scooter", "name": "3e5ce5b287dbefa97392d040370e4c2b", "is_disabled": 0, "rental_uris": {"ios": "https://dc.lft.to/lastmile_qr_scan", "android": "https://dc.lft.to/lastmile_qr_scan"}, "is_reserved": 0}, {"lon": -77.0235095, "bike_id": "53c738828d5b90b12a2c56d175213379", "lat": 38.92249283333334, "fusion_lon": 0.0, "fusion_lat": 0.0, "type": "electric_scooter", "name": "53c738828d5b90b12a2c56d175213379", "is_disabled": 0, "rental_uris": {"ios": "https://dc.lft.to/lastmile_qr_scan", "android": "https://dc.lft.to/lastmile_qr_scan"}, "is_reserved": 0}, {"lon": -76.98684733333333, "bike_id": "654ef9010fb026444f20e3d9e8485a58", "lat": 38.912239, "fusion_lon": 0.0, "fusion_lat": 0.0, "type": "electric_scooter", "name": "654ef9010fb026444f20e3d9e8485a58", "is_disabled": 0, "rental_uris": {"ios": "https://dc.lft.to/lastmile_qr_scan", "android": "https://dc.lft.to/lastmile_qr_scan"}, "is_reserved": 0}, {"lon": -77.01229866666667, "bike_id": "f335dee137d91b65eeecaa60c2b3f35c", "lat": 38.915270166666666, "fusion_lon": 0.0, "fusion_lat": 0.0, "type": "electric_scooter", "name": "f335dee137d91b65eeecaa60c2b3f35c", "is_disabled": 0, "rental_uris": {"ios": "https://dc.lft.to/lastmile_qr_scan", "android": "https://dc.lft.to/lastmile_qr_scan"}, "is_reserved": 0}, {"lon": -77.03207566666667, "bike_id": "050b7295c34bcee71ac52a2fd0721e4f", "lat": 38.90734633333334, "fusion_lon": 0.0, "fusion_lat": 0.0, "type": "electric_scooter", "name": "050b7295c34bcee71ac52a2fd0721e4f", "is_disabled": 0, "rental_uris": {"ios": "https://dc.lft.to/lastmile_qr_scan", "android": "https://dc.lft.to/lastmile_qr_scan"}, "is_reserved": 0}, {"lon": -77.04025166666666, "bike_id": "9a78142897f66cff1e6e6d7be3538ff4", "lat": 38.92384, "fusion_lon": 0.0, "fusion_lat": 0.0, "type": "electric_scooter", "name": "9a78142897f66cff1e6e6d7be3538ff4", "is_disabled": 0, "rental_uris": {"ios": "https://dc.lft.to/lastmile_qr_scan", "android": "https://dc.lft.to/lastmile_qr_scan"}, "is_reserved": 0}, {"lon": -77.05759983333333, "bike_id": "fb4c3d677e2ddbd5dce8137346b7c041", "lat": 38.92381233333333, "fusion_lon": 0.0, "fusion_lat": 0.0, "type": "electric_scooter", "name": "fb4c3d677e2ddbd5dce8137346b7c041", "is_disabled": 0, "rental_uris": {"ios": "https://dc.lft.to/lastmile_qr_scan", "android": "https://dc.lft.to/lastmile_qr_scan"}, "is_reserved": 0}, {"lon": -77.03296633333333, "bike_id": "e960a9dc5ee6b78d41696951e672c31c", "lat": 38.9289125, "fusion_lon": 0.0, "fusion_lat": 0.0, "type": "electric_scooter", "name": "e960a9dc5ee6b78d41696951e672c31c", "is_disabled": 0, "rental_uris": {"ios": "https://dc.lft.to/lastmile_qr_scan", "android": "https://dc.lft.to/lastmile_qr_scan"}, "is_reserved": 0}, {"lon": -77.0212865, "bike_id": "71ab62feaebde25bb5e1d9299d870af6", "lat": 38.937019666666664, "fusion_lon": 0.0, "fusion_lat": 0.0, "type": "electric_scooter", "name": "71ab62feaebde25bb5e1d9299d870af6", "is_disabled": 0, "rental_uris": {"ios": "https://dc.lft.to/lastmile_qr_scan", "android": "https://dc.lft.to/lastmile_qr_scan"}, "is_reserved": 0}, {"lon": -76.965317, "bike_id": "bc6df333668f0983ecf742cb26dfa8fc", "lat": 38.874814, "fusion_lon": 0.0, "fusion_lat": 0.0, "type": "electric_scooter", "name": "bc6df333668f0983ecf742cb26dfa8fc", "is_disabled": 0, "rental_uris": {"ios": "https://dc.lft.to/lastmile_qr_scan", "android": "https://dc.lft.to/lastmile_qr_scan"}, "is_reserved": 0}, {"lon": -77.02241183333334, "bike_id": "37117df9de09d741cee4d27783c105b2", "lat": 38.92902316666667, "fusion_lon": 0.0, "fusion_lat": 0.0, "type": "electric_scooter", "name": "37117df9de09d741cee4d27783c105b2", "is_disabled": 0, "rental_uris": {"ios": "https://dc.lft.to/lastmile_qr_scan", "android": "https://dc.lft.to/lastmile_qr_scan"}, "is_reserved": 0}, {"lon": -76.94633233333333, "bike_id": "799c29b397a7713f6966d1fedfef7059", "lat": 38.898353, "fusion_lon": 0.0, "fusion_lat": 0.0, "type": "electric_scooter", "name": "799c29b397a7713f6966d1fedfef7059", "is_disabled": 0, "rental_uris": {"ios": "https://dc.lft.to/lastmile_qr_scan", "android": "https://dc.lft.to/lastmile_qr_scan"}, "is_reserved": 0}, {"lon": -76.97618083333333, "bike_id": "3fe9b5e9782234e3da8b945e43ee6580", "lat": 38.92656216666666, "fusion_lon": 0.0, "fusion_lat": 0.0, "type": "electric_scooter", "name": "3fe9b5e9782234e3da8b945e43ee6580", "is_disabled": 0, "rental_uris": {"ios": "https://dc.lft.to/lastmile_qr_scan", "android": "https://dc.lft.to/lastmile_qr_scan"}, "is_reserved": 0}, {"lon": -77.02618066666666, "bike_id": "b8b76d136ca6e82146c78ece9b54668f", "lat": 38.91915916666667, "fusion_lon": 0.0, "fusion_lat": 0.0, "type": "electric_scooter", "name": "b8b76d136ca6e82146c78ece9b54668f", "is_disabled": 0, "rental_uris": {"ios": "https://dc.lft.to/lastmile_qr_scan", "android": "https://dc.lft.to/lastmile_qr_scan"}, "is_reserved": 0}, {"lon": -77.021737, "bike_id": "88777909ee77f27b7f91e44f0fce438a", "lat": 38.94291533333333, "fusion_lon": 0.0, "fusion_lat": 0.0, "type": "electric_scooter", "name": "88777909ee77f27b7f91e44f0fce438a", "is_disabled": 0, "rental_uris": {"ios": "https://dc.lft.to/lastmile_qr_scan", "android": "https://dc.lft.to/lastmile_qr_scan"}, "is_reserved": 0}, {"lon": -77.00970633333333, "bike_id": "48d8c164d0fbaee3a003835539eac943", "lat": 38.90774416666667, "fusion_lon": 0.0, "fusion_lat": 0.0, "type": "electric_scooter", "name": "48d8c164d0fbaee3a003835539eac943", "is_disabled": 0, "rental_uris": {"ios": "https://dc.lft.to/lastmile_qr_scan", "android": "https://dc.lft.to/lastmile_qr_scan"}, "is_reserved": 0}, {"lon": -77.07301533333333, "bike_id": "67826b619328545eb43536e5e790a77b", "lat": 38.9305885, "fusion_lon": 0.0, "fusion_lat": 0.0, "type": "electric_scooter", "name": "67826b619328545eb43536e5e790a77b", "is_disabled": 0, "rental_uris": {"ios": "https://dc.lft.to/lastmile_qr_scan", "android": "https://dc.lft.to/lastmile_qr_scan"}, "is_reserved": 0}, {"lon": -76.99207083333333, "bike_id": "8bd69948c5dd0b7c4a4653059332f8c5", "lat": 38.898292833333336, "fusion_lon": 0.0, "fusion_lat": 0.0, "type": "electric_scooter", "name": "8bd69948c5dd0b7c4a4653059332f8c5", "is_disabled": 0, "rental_uris": {"ios": "https://dc.lft.to/lastmile_qr_scan", "android": "https://dc.lft.to/lastmile_qr_scan"}, "is_reserved": 0}, {"lon": -77.0204705, "bike_id": "ec52df7f6103a656fd683b093ec2561e", "lat": 38.923317833333336, "fusion_lon": 0.0, "fusion_lat": 0.0, "type": "electric_scooter", "name": "ec52df7f6103a656fd683b093ec2561e", "is_disabled": 0, "rental_uris": {"ios": "https://dc.lft.to/lastmile_qr_scan", "android": "https://dc.lft.to/lastmile_qr_scan"}, "is_reserved": 0}, {"lon": -77.036492, "bike_id": "d21667fa1d07eb6d69c594418b734dbd", "lat": 38.927459, "fusion_lon": 0.0, "fusion_lat": 0.0, "type": "electric_scooter", "name": "d21667fa1d07eb6d69c594418b734dbd", "is_disabled": 0, "rental_uris": {"ios": "https://dc.lft.to/lastmile_qr_scan", "android": "https://dc.lft.to/lastmile_qr_scan"}, "is_reserved": 0}, {"lon": -76.98571483333333, "bike_id": "8379cd85971a361c6ce31b43429b4010", "lat": 38.89886583333333, "fusion_lon": 0.0, "fusion_lat": 0.0, "type": "electric_scooter", "name": "8379cd85971a361c6ce31b43429b4010", "is_disabled": 0, "rental_uris": {"ios": "https://dc.lft.to/lastmile_qr_scan", "android": "https://dc.lft.to/lastmile_qr_scan"}, "is_reserved": 0}, {"lon": -77.06403716666667, "bike_id": "b51d175fefcfce9198e5b2736292b9a3", "lat": 38.943305, "fusion_lon": 0.0, "fusion_lat": 0.0, "type": "electric_scooter", "name": "b51d175fefcfce9198e5b2736292b9a3", "is_disabled": 0, "rental_uris": {"ios": "https://dc.lft.to/lastmile_qr_scan", "android": "https://dc.lft.to/lastmile_qr_scan"}, "is_reserved": 0}, {"lon": -77.02692516666667, "bike_id": "64fb84dd2131539baac2bde4ceae6b39", "lat": 38.916884333333336, "fusion_lon": 0.0, "fusion_lat": 0.0, "type": "electric_scooter", "name": "64fb84dd2131539baac2bde4ceae6b39", "is_disabled": 0, "rental_uris": {"ios": "https://dc.lft.to/lastmile_qr_scan", "android": "https://dc.lft.to/lastmile_qr_scan"}, "is_reserved": 0}, {"lon": -77.00208933333333, "bike_id": "82e4d446790f465289f8cc6e45955cb9", "lat": 38.90244833333333, "fusion_lon": 0.0, "fusion_lat": 0.0, "type": "electric_scooter", "name": "82e4d446790f465289f8cc6e45955cb9", "is_disabled": 0, "rental_uris": {"ios": "https://dc.lft.to/lastmile_qr_scan", "android": "https://dc.lft.to/lastmile_qr_scan"}, "is_reserved": 0}, {"lon": -77.00375383333333, "bike_id": "c3ca7034456367f90454459739d59e7b", "lat": 38.89733833333333, "fusion_lon": 0.0, "fusion_lat": 0.0, "type": "electric_scooter", "name": "c3ca7034456367f90454459739d59e7b", "is_disabled": 0, "rental_uris": {"ios": "https://dc.lft.to/lastmile_qr_scan", "android": "https://dc.lft.to/lastmile_qr_scan"}, "is_reserved": 0}, {"lon": -77.0251065, "bike_id": "18ae6df95616fc9beabdad603b71336e", "lat": 38.93988933333333, "fusion_lon": 0.0, "fusion_lat": 0.0, "type": "electric_scooter", "name": "18ae6df95616fc9beabdad603b71336e", "is_disabled": 0, "rental_uris": {"ios": "https://dc.lft.to/lastmile_qr_scan", "android": "https://dc.lft.to/lastmile_qr_scan"}, "is_reserved": 0}, {"lon": -76.98345166666667, "bike_id": "f2528210c0dc2faec65f7c7dbb9201fa", "lat": 38.86642416666667, "fusion_lon": 0.0, "fusion_lat": 0.0, "type": "electric_scooter", "name": "f2528210c0dc2faec65f7c7dbb9201fa", "is_disabled": 0, "rental_uris": {"ios": "https://dc.lft.to/lastmile_qr_scan", "android": "https://dc.lft.to/lastmile_qr_scan"}, "is_reserved": 0}, {"lon": -77.00064566666667, "bike_id": "dab5525a3b90b63d9981c2f2b7d2b4ae", "lat": 38.875567333333336, "fusion_lon": 0.0, "fusion_lat": 0.0, "type": "electric_scooter", "name": "dab5525a3b90b63d9981c2f2b7d2b4ae", "is_disabled": 0, "rental_uris": {"ios": "https://dc.lft.to/lastmile_qr_scan", "android": "https://dc.lft.to/lastmile_qr_scan"}, "is_reserved": 0}, {"lon": -76.922006, "bike_id": "c5f9cdb91fa00bbc0a1bb01b5ec86b97", "lat": 38.89503966666667, "fusion_lon": 0.0, "fusion_lat": 0.0, "type": "electric_bike", "name": "c5f9cdb91fa00bbc0a1bb01b5ec86b97", "is_disabled": 0, "rental_uris": {"ios": "https://dc.lft.to/lastmile_qr_scan", "android": "https://dc.lft.to/lastmile_qr_scan"}, "is_reserved": 0}, {"lon": -76.9318655, "bike_id": "b97920cc9f2c6b2ca39da8892f1a7630", "lat": 38.898775, "fusion_lon": 0.0, "fusion_lat": 0.0, "type": "electric_scooter", "name": "b97920cc9f2c6b2ca39da8892f1a7630", "is_disabled": 0, "rental_uris": {"ios": "https://dc.lft.to/lastmile_qr_scan", "android": "https://dc.lft.to/lastmile_qr_scan"}, "is_reserved": 0}, {"lon": -77.07751116666667, "bike_id": "f8dad51ff59da869719ad38d16591a76", "lat": 38.8419455, "fusion_lon": 0.0, "fusion_lat": 0.0, "type": "electric_bike", "name": "f8dad51ff59da869719ad38d16591a76", "is_disabled": 0, "rental_uris": {"ios": "https://dc.lft.to/lastmile_qr_scan", "android": "https://dc.lft.to/lastmile_qr_scan"}, "is_reserved": 0}, {"lon": -76.95369016666666, "bike_id": "42103b02a6b5beb35f305f25dc100df3", "lat": 38.8920225, "fusion_lon": 0.0, "fusion_lat": 0.0, "type": "electric_scooter", "name": "42103b02a6b5beb35f305f25dc100df3", "is_disabled": 0, "rental_uris": {"ios": "https://dc.lft.to/lastmile_qr_scan", "android": "https://dc.lft.to/lastmile_qr_scan"}, "is_reserved": 0}, {"lon": -77.0388745, "bike_id": "96e70ff6272bb7de8373026ebd7ec962", "lat": 38.910056833333336, "fusion_lon": 0.0, "fusion_lat": 0.0, "type": "electric_scooter", "name": "96e70ff6272bb7de8373026ebd7ec962", "is_disabled": 0, "rental_uris": {"ios": "https://dc.lft.to/lastmile_qr_scan", "android": "https://dc.lft.to/lastmile_qr_scan"}, "is_reserved": 0}, {"lon": -77.03869633333333, "bike_id": "f871a38205606e2726ce6756848357db", "lat": 38.94507383333333, "fusion_lon": 0.0, "fusion_lat": 0.0, "type": "electric_scooter", "name": "f871a38205606e2726ce6756848357db", "is_disabled": 0, "rental_uris": {"ios": "https://dc.lft.to/lastmile_qr_scan", "android": "https://dc.lft.to/lastmile_qr_scan"}, "is_reserved": 0}, {"lon": -76.98101816666667, "bike_id": "9141e81e1e00c4ad6a01b397ad9da330", "lat": 38.89556266666666, "fusion_lon": 0.0, "fusion_lat": 0.0, "type": "electric_scooter", "name": "9141e81e1e00c4ad6a01b397ad9da330", "is_disabled": 0, "rental_uris": {"ios": "https://dc.lft.to/lastmile_qr_scan", "android": "https://dc.lft.to/lastmile_qr_scan"}, "is_reserved": 0}, {"lon": -76.9985995, "bike_id": "5a7fc34b23fffd21eb39f3d825032661", "lat": 38.90036716666667, "fusion_lon": 0.0, "fusion_lat": 0.0, "type": "electric_scooter", "name": "5a7fc34b23fffd21eb39f3d825032661", "is_disabled": 0, "rental_uris": {"ios": "https://dc.lft.to/lastmile_qr_scan", "android": "https://dc.lft.to/lastmile_qr_scan"}, "is_reserved": 0}, {"lon": -76.96155633333333, "bike_id": "33cdfddd8d673f9907cfe2ce520183c9", "lat": 38.88360083333333, "fusion_lon": 0.0, "fusion_lat": 0.0, "type": "electric_scooter", "name": "33cdfddd8d673f9907cfe2ce520183c9", "is_disabled": 0, "rental_uris": {"ios": "https://dc.lft.to/lastmile_qr_scan", "android": "https://dc.lft.to/lastmile_qr_scan"}, "is_reserved": 0}, {"lon": -76.99048316666666, "bike_id": "2d6fb72e9206b3edad2ae4b95286f158", "lat": 38.887540333333334, "fusion_lon": 0.0, "fusion_lat": 0.0, "type": "electric_scooter", "name": "2d6fb72e9206b3edad2ae4b95286f158", "is_disabled": 0, "rental_uris": {"ios": "https://dc.lft.to/lastmile_qr_scan", "android": "https://dc.lft.to/lastmile_qr_scan"}, "is_reserved": 0}, {"lon": -76.967918, "bike_id": "169e4f3a7994bd7c69e6d00de494a2f6", "lat": 38.868458, "fusion_lon": 0.0, "fusion_lat": 0.0, "type": "electric_scooter", "name": "169e4f3a7994bd7c69e6d00de494a2f6", "is_disabled": 0, "rental_uris": {"ios": "https://dc.lft.to/lastmile_qr_scan", "android": "https://dc.lft.to/lastmile_qr_scan"}, "is_reserved": 0}, {"lon": -76.99846033333333, "bike_id": "f3061cda74cf1b8df27358967b55d215", "lat": 38.90213333333333, "fusion_lon": 0.0, "fusion_lat": 0.0, "type": "electric_scooter", "name": "f3061cda74cf1b8df27358967b55d215", "is_disabled": 0, "rental_uris": {"ios": "https://dc.lft.to/lastmile_qr_scan", "android": "https://dc.lft.to/lastmile_qr_scan"}, "is_reserved": 0}, {"lon": -77.02658766666667, "bike_id": "cd5d7000a5b3dd7590d2946e394d8600", "lat": 38.900508, "fusion_lon": 0.0, "fusion_lat": 0.0, "type": "electric_scooter", "name": "cd5d7000a5b3dd7590d2946e394d8600", "is_disabled": 0, "rental_uris": {"ios": "https://dc.lft.to/lastmile_qr_scan", "android": "https://dc.lft.to/lastmile_qr_scan"}, "is_reserved": 0}, {"lon": -77.02176616666667, "bike_id": "7a3e08f0a7437408cec1adae6bc1116f", "lat": 38.90963216666667, "fusion_lon": 0.0, "fusion_lat": 0.0, "type": "electric_scooter", "name": "7a3e08f0a7437408cec1adae6bc1116f", "is_disabled": 0, "rental_uris": {"ios": "https://dc.lft.to/lastmile_qr_scan", "android": "https://dc.lft.to/lastmile_qr_scan"}, "is_reserved": 0}, {"lon": -77.04195583333333, "bike_id": "cf37ee962bad9972361117b83bb60ae8", "lat": 38.920284, "fusion_lon": 0.0, "fusion_lat": 0.0, "type": "electric_scooter", "name": "cf37ee962bad9972361117b83bb60ae8", "is_disabled": 0, "rental_uris": {"ios": "https://dc.lft.to/lastmile_qr_scan", "android": "https://dc.lft.to/lastmile_qr_scan"}, "is_reserved": 0}, {"lon": -77.058624, "bike_id": "9c2efa4e5ba24889878f4441be1b3909", "lat": 38.936065666666664, "fusion_lon": 0.0, "fusion_lat": 0.0, "type": "electric_scooter", "name": "9c2efa4e5ba24889878f4441be1b3909", "is_disabled": 0, "rental_uris": {"ios": "https://dc.lft.to/lastmile_qr_scan", "android": "https://dc.lft.to/lastmile_qr_scan"}, "is_reserved": 0}, {"lon": -77.0735655, "bike_id": "16245bee09eed52d8ded4ab598e90cf4", "lat": 38.91107016666667, "fusion_lon": 0.0, "fusion_lat": 0.0, "type": "electric_scooter", "name": "16245bee09eed52d8ded4ab598e90cf4", "is_disabled": 0, "rental_uris": {"ios": "https://dc.lft.to/lastmile_qr_scan", "android": "https://dc.lft.to/lastmile_qr_scan"}, "is_reserved": 0}, {"lon": -77.02702233333333, "bike_id": "4f74e46b02532f6dc4d39207a2f73471", "lat": 38.917278333333336, "fusion_lon": 0.0, "fusion_lat": 0.0, "type": "electric_scooter", "name": "4f74e46b02532f6dc4d39207a2f73471", "is_disabled": 0, "rental_uris": {"ios": "https://dc.lft.to/lastmile_qr_scan", "android": "https://dc.lft.to/lastmile_qr_scan"}, "is_reserved": 0}, {"lon": -76.98211416666666, "bike_id": "694ca44dcf658f5fa9c88ac33d08b371", "lat": 38.866185333333334, "fusion_lon": 0.0, "fusion_lat": 0.0, "type": "electric_scooter", "name": "694ca44dcf658f5fa9c88ac33d08b371", "is_disabled": 0, "rental_uris": {"ios": "https://dc.lft.to/lastmile_qr_scan", "android": "https://dc.lft.to/lastmile_qr_scan"}, "is_reserved": 0}, {"lon": -77.04172266666667, "bike_id": "76b38e23e4a98be044b1901a10ff6127", "lat": 38.91921033333333, "fusion_lon": 0.0, "fusion_lat": 0.0, "type": "electric_scooter", "name": "76b38e23e4a98be044b1901a10ff6127", "is_disabled": 0, "rental_uris": {"ios": "https://dc.lft.to/lastmile_qr_scan", "android": "https://dc.lft.to/lastmile_qr_scan"}, "is_reserved": 0}, {"lon": -76.990498, "bike_id": "fcb0576fac02076943264866abd6c2ef", "lat": 38.88418583333333, "fusion_lon": 0.0, "fusion_lat": 0.0, "type": "electric_scooter", "name": "fcb0576fac02076943264866abd6c2ef", "is_disabled": 0, "rental_uris": {"ios": "https://dc.lft.to/lastmile_qr_scan", "android": "https://dc.lft.to/lastmile_qr_scan"}, "is_reserved": 0}, {"lon": -77.0321345, "bike_id": "da08d3ca1a4148b62bbfc33627c37024", "lat": 38.9037785, "fusion_lon": 0.0, "fusion_lat": 0.0, "type": "electric_scooter", "name": "da08d3ca1a4148b62bbfc33627c37024", "is_disabled": 0, "rental_uris": {"ios": "https://dc.lft.to/lastmile_qr_scan", "android": "https://dc.lft.to/lastmile_qr_scan"}, "is_reserved": 0}, {"lon": -77.02130783333334, "bike_id": "a6ce29ff2284d1ac5a1c920e97444226", "lat": 38.899761833333336, "fusion_lon": 0.0, "fusion_lat": 0.0, "type": "electric_scooter", "name": "a6ce29ff2284d1ac5a1c920e97444226", "is_disabled": 0, "rental_uris": {"ios": "https://dc.lft.to/lastmile_qr_scan", "android": "https://dc.lft.to/lastmile_qr_scan"}, "is_reserved": 0}, {"lon": -76.98851366666666, "bike_id": "201571444e2f82d837ccd8c99a8c0217", "lat": 38.9012985, "fusion_lon": 0.0, "fusion_lat": 0.0, "type": "electric_scooter", "name": "201571444e2f82d837ccd8c99a8c0217", "is_disabled": 0, "rental_uris": {"ios": "https://dc.lft.to/lastmile_qr_scan", "android": "https://dc.lft.to/lastmile_qr_scan"}, "is_reserved": 0}, {"lon": -77.01449683333334, "bike_id": "5669ae3dece9f8937b3b09591d76ffe2", "lat": 38.90518433333333, "fusion_lon": 0.0, "fusion_lat": 0.0, "type": "electric_scooter", "name": "5669ae3dece9f8937b3b09591d76ffe2", "is_disabled": 0, "rental_uris": {"ios": "https://dc.lft.to/lastmile_qr_scan", "android": "https://dc.lft.to/lastmile_qr_scan"}, "is_reserved": 0}, {"lon": -77.03453233333333, "bike_id": "1b2dbf4f8eae874482d8160c92e19c8a", "lat": 38.900229333333336, "fusion_lon": 0.0, "fusion_lat": 0.0, "type": "electric_scooter", "name": "1b2dbf4f8eae874482d8160c92e19c8a", "is_disabled": 0, "rental_uris": {"ios": "https://dc.lft.to/lastmile_qr_scan", "android": "https://dc.lft.to/lastmile_qr_scan"}, "is_reserved": 0}, {"lon": -77.02463116666667, "bike_id": "929cdff4b44a8c54127be4ced8692874", "lat": 38.916747666666666, "fusion_lon": 0.0, "fusion_lat": 0.0, "type": "electric_scooter", "name": "929cdff4b44a8c54127be4ced8692874", "is_disabled": 0, "rental_uris": {"ios": "https://dc.lft.to/lastmile_qr_scan", "android": "https://dc.lft.to/lastmile_qr_scan"}, "is_reserved": 0}, {"lon": -77.1222845, "bike_id": "78338210be806fd4fc9eed6f85c96b6a", "lat": 38.853005833333334, "fusion_lon": 0.0, "fusion_lat": 0.0, "type": "electric_bike", "name": "78338210be806fd4fc9eed6f85c96b6a", "is_disabled": 0, "rental_uris": {"ios": "https://dc.lft.to/lastmile_qr_scan", "android": "https://dc.lft.to/lastmile_qr_scan"}, "is_reserved": 0}, {"lon": -76.97749066666667, "bike_id": "f177af12ba915a405dc73676321f58cb", "lat": 38.8650305, "fusion_lon": 0.0, "fusion_lat": 0.0, "type": "electric_scooter", "name": "f177af12ba915a405dc73676321f58cb", "is_disabled": 0, "rental_uris": {"ios": "https://dc.lft.to/lastmile_qr_scan", "android": "https://dc.lft.to/lastmile_qr_scan"}, "is_reserved": 0}, {"lon": -77.04058816666667, "bike_id": "06b484aeb30d83d8583c445ae8e0bda5", "lat": 38.914884, "fusion_lon": 0.0, "fusion_lat": 0.0, "type": "electric_scooter", "name": "06b484aeb30d83d8583c445ae8e0bda5", "is_disabled": 0, "rental_uris": {"ios": "https://dc.lft.to/lastmile_qr_scan", "android": "https://dc.lft.to/lastmile_qr_scan"}, "is_reserved": 0}, {"lon": -77.0113825, "bike_id": "8be0a766f1ce06dce816f02954e2f597", "lat": 38.894696, "fusion_lon": 0.0, "fusion_lat": 0.0, "type": "electric_scooter", "name": "8be0a766f1ce06dce816f02954e2f597", "is_disabled": 0, "rental_uris": {"ios": "https://dc.lft.to/lastmile_qr_scan", "android": "https://dc.lft.to/lastmile_qr_scan"}, "is_reserved": 0}, {"lon": -77.02218683333334, "bike_id": "8034ac670d7703f192318c5aa4d8bff6", "lat": 38.921105, "fusion_lon": 0.0, "fusion_lat": 0.0, "type": "electric_scooter", "name": "8034ac670d7703f192318c5aa4d8bff6", "is_disabled": 0, "rental_uris": {"ios": "https://dc.lft.to/lastmile_qr_scan", "android": "https://dc.lft.to/lastmile_qr_scan"}, "is_reserved": 0}, {"lon": -77.01127333333334, "bike_id": "3745b29a011ab2feb5778f554783a285", "lat": 38.895777, "fusion_lon": 0.0, "fusion_lat": 0.0, "type": "electric_scooter", "name": "3745b29a011ab2feb5778f554783a285", "is_disabled": 0, "rental_uris": {"ios": "https://dc.lft.to/lastmile_qr_scan", "android": "https://dc.lft.to/lastmile_qr_scan"}, "is_reserved": 0}, {"lon": -77.020432, "bike_id": "d36c6955fa673d4e31de73e510c4738b", "lat": 38.908702, "fusion_lon": 0.0, "fusion_lat": 0.0, "type": "electric_scooter", "name": "d36c6955fa673d4e31de73e510c4738b", "is_disabled": 0, "rental_uris": {"ios": "https://dc.lft.to/lastmile_qr_scan", "android": "https://dc.lft.to/lastmile_qr_scan"}, "is_reserved": 0}, {"lon": -77.054092, "bike_id": "492244a49b44157d37c6a40900fd53a0", "lat": 38.95050766666667, "fusion_lon": 0.0, "fusion_lat": 0.0, "type": "electric_scooter", "name": "492244a49b44157d37c6a40900fd53a0", "is_disabled": 0, "rental_uris": {"ios": "https://dc.lft.to/lastmile_qr_scan", "android": "https://dc.lft.to/lastmile_qr_scan"}, "is_reserved": 0}, {"lon": -76.92625333333334, "bike_id": "719ac59b623fcba28a26c75ade044535", "lat": 38.8845775, "fusion_lon": 0.0, "fusion_lat": 0.0, "type": "electric_scooter", "name": "719ac59b623fcba28a26c75ade044535", "is_disabled": 0, "rental_uris": {"ios": "https://dc.lft.to/lastmile_qr_scan", "android": "https://dc.lft.to/lastmile_qr_scan"}, "is_reserved": 0}, {"lon": -77.022657, "bike_id": "d0fa964b1ab1f4b4faf25bb30426f508", "lat": 38.937705, "fusion_lon": 0.0, "fusion_lat": 0.0, "type": "electric_scooter", "name": "d0fa964b1ab1f4b4faf25bb30426f508", "is_disabled": 0, "rental_uris": {"ios": "https://dc.lft.to/lastmile_qr_scan", "android": "https://dc.lft.to/lastmile_qr_scan"}, "is_reserved": 0}, {"lon": -77.02221983333334, "bike_id": "9507e5b464fcfee12013360fb35aac16", "lat": 38.91116433333333, "fusion_lon": 0.0, "fusion_lat": 0.0, "type": "electric_scooter", "name": "9507e5b464fcfee12013360fb35aac16", "is_disabled": 0, "rental_uris": {"ios": "https://dc.lft.to/lastmile_qr_scan", "android": "https://dc.lft.to/lastmile_qr_scan"}, "is_reserved": 0}, {"lon": -77.00544966666666, "bike_id": "f2ecdf4f65df3ef60d37a4d5366aa29e", "lat": 38.87459416666667, "fusion_lon": 0.0, "fusion_lat": 0.0, "type": "electric_scooter", "name": "f2ecdf4f65df3ef60d37a4d5366aa29e", "is_disabled": 0, "rental_uris": {"ios": "https://dc.lft.to/lastmile_qr_scan", "android": "https://dc.lft.to/lastmile_qr_scan"}, "is_reserved": 0}, {"lon": -76.97305616666667, "bike_id": "0c674befddb1839b10dce1b498e233b0", "lat": 38.916478166666664, "fusion_lon": 0.0, "fusion_lat": 0.0, "type": "electric_scooter", "name": "0c674befddb1839b10dce1b498e233b0", "is_disabled": 0, "rental_uris": {"ios": "https://dc.lft.to/lastmile_qr_scan", "android": "https://dc.lft.to/lastmile_qr_scan"}, "is_reserved": 0}, {"lon": -76.97601033333333, "bike_id": "038bad0085f24a2291ed3080945450ec", "lat": 38.90566033333333, "fusion_lon": 0.0, "fusion_lat": 0.0, "type": "electric_scooter", "name": "038bad0085f24a2291ed3080945450ec", "is_disabled": 0, "rental_uris": {"ios": "https://dc.lft.to/lastmile_qr_scan", "android": "https://dc.lft.to/lastmile_qr_scan"}, "is_reserved": 0}, {"lon": -77.02943366666666, "bike_id": "27b93d394e44f17b536d4ce18c691fdb", "lat": 38.887283333333336, "fusion_lon": 0.0, "fusion_lat": 0.0, "type": "electric_scooter", "name": "27b93d394e44f17b536d4ce18c691fdb", "is_disabled": 0, "rental_uris": {"ios": "https://dc.lft.to/lastmile_qr_scan", "android": "https://dc.lft.to/lastmile_qr_scan"}, "is_reserved": 0}, {"lon": -76.98697433333334, "bike_id": "14004aa091e5539dbc76f6ff9f997cf0", "lat": 38.862526833333334, "fusion_lon": 0.0, "fusion_lat": 0.0, "type": "electric_scooter", "name": "14004aa091e5539dbc76f6ff9f997cf0", "is_disabled": 0, "rental_uris": {"ios": "https://dc.lft.to/lastmile_qr_scan", "android": "https://dc.lft.to/lastmile_qr_scan"}, "is_reserved": 0}, {"lon": -77.01475816666667, "bike_id": "8a642c808bffa64087b29873b85584bf", "lat": 38.94067616666667, "fusion_lon": 0.0, "fusion_lat": 0.0, "type": "electric_bike", "name": "8a642c808bffa64087b29873b85584bf", "is_disabled": 0, "rental_uris": {"ios": "https://dc.lft.to/lastmile_qr_scan", "android": "https://dc.lft.to/lastmile_qr_scan"}, "is_reserved": 0}, {"lon": -77.00193083333333, "bike_id": "aea1f3c2fab3464884ab87f9cf356e5c", "lat": 38.8953645, "fusion_lon": 0.0, "fusion_lat": 0.0, "type": "electric_scooter", "name": "aea1f3c2fab3464884ab87f9cf356e5c", "is_disabled": 0, "rental_uris": {"ios": "https://dc.lft.to/lastmile_qr_scan", "android": "https://dc.lft.to/lastmile_qr_scan"}, "is_reserved": 0}, {"lon": -76.99067266666667, "bike_id": "fbf2333884fdccb65c4c03b92fae9353", "lat": 38.9003095, "fusion_lon": 0.0, "fusion_lat": 0.0, "type": "electric_scooter", "name": "fbf2333884fdccb65c4c03b92fae9353", "is_disabled": 0, "rental_uris": {"ios": "https://dc.lft.to/lastmile_qr_scan", "android": "https://dc.lft.to/lastmile_qr_scan"}, "is_reserved": 0}, {"lon": -77.031813, "bike_id": "c8032bcd9adbef698cc7fe330e9ae36c", "lat": 38.88413116666667, "fusion_lon": 0.0, "fusion_lat": 0.0, "type": "electric_scooter", "name": "c8032bcd9adbef698cc7fe330e9ae36c", "is_disabled": 0, "rental_uris": {"ios": "https://dc.lft.to/lastmile_qr_scan", "android": "https://dc.lft.to/lastmile_qr_scan"}, "is_reserved": 0}, {"lon": -77.005386, "bike_id": "5e448d5aebdfa56fc8d57351eff936e8", "lat": 38.929744166666666, "fusion_lon": 0.0, "fusion_lat": 0.0, "type": "electric_scooter", "name": "5e448d5aebdfa56fc8d57351eff936e8", "is_disabled": 0, "rental_uris": {"ios": "https://dc.lft.to/lastmile_qr_scan", "android": "https://dc.lft.to/lastmile_qr_scan"}, "is_reserved": 0}, {"lon": -77.02810516666666, "bike_id": "1c175af39fc9974e759f12538f838896", "lat": 38.93082883333334, "fusion_lon": 0.0, "fusion_lat": 0.0, "type": "electric_scooter", "name": "1c175af39fc9974e759f12538f838896", "is_disabled": 0, "rental_uris": {"ios": "https://dc.lft.to/lastmile_qr_scan", "android": "https://dc.lft.to/lastmile_qr_scan"}, "is_reserved": 0}, {"lon": -77.06830733333334, "bike_id": "bcb03306795ce371799c06e623beaa31", "lat": 38.80570183333333, "fusion_lon": 0.0, "fusion_lat": 0.0, "type": "electric_bike", "name": "bcb03306795ce371799c06e623beaa31", "is_disabled": 0, "rental_uris": {"ios": "https://dc.lft.to/lastmile_qr_scan", "android": "https://dc.lft.to/lastmile_qr_scan"}, "is_reserved": 0}, {"lon": -77.05235283333333, "bike_id": "ba93494790cc0e250f924bcdaee7aca9", "lat": 38.92341866666666, "fusion_lon": 0.0, "fusion_lat": 0.0, "type": "electric_scooter", "name": "ba93494790cc0e250f924bcdaee7aca9", "is_disabled": 0, "rental_uris": {"ios": "https://dc.lft.to/lastmile_qr_scan", "android": "https://dc.lft.to/lastmile_qr_scan"}, "is_reserved": 0}, {"lon": -77.005641, "bike_id": "e010376a10adedd2426c287075a02676", "lat": 38.87474566666667, "fusion_lon": 0.0, "fusion_lat": 0.0, "type": "electric_scooter", "name": "e010376a10adedd2426c287075a02676", "is_disabled": 0, "rental_uris": {"ios": "https://dc.lft.to/lastmile_qr_scan", "android": "https://dc.lft.to/lastmile_qr_scan"}, "is_reserved": 0}, {"lon": -76.98087433333333, "bike_id": "a30bbf264483b55d09edc2f351a6215d", "lat": 38.907068833333334, "fusion_lon": 0.0, "fusion_lat": 0.0, "type": "electric_scooter", "name": "a30bbf264483b55d09edc2f351a6215d", "is_disabled": 0, "rental_uris": {"ios": "https://dc.lft.to/lastmile_qr_scan", "android": "https://dc.lft.to/lastmile_qr_scan"}, "is_reserved": 0}, {"lon": -77.033308, "bike_id": "bb4b146203a036405f8d28cc710b944c", "lat": 38.91568633333333, "fusion_lon": 0.0, "fusion_lat": 0.0, "type": "electric_scooter", "name": "bb4b146203a036405f8d28cc710b944c", "is_disabled": 0, "rental_uris": {"ios": "https://dc.lft.to/lastmile_qr_scan", "android": "https://dc.lft.to/lastmile_qr_scan"}, "is_reserved": 0}, {"lon": -77.0326895, "bike_id": "f4201db24499c8d46db3861c67b4d83a", "lat": 38.937207, "fusion_lon": 0.0, "fusion_lat": 0.0, "type": "electric_scooter", "name": "f4201db24499c8d46db3861c67b4d83a", "is_disabled": 0, "rental_uris": {"ios": "https://dc.lft.to/lastmile_qr_scan", "android": "https://dc.lft.to/lastmile_qr_scan"}, "is_reserved": 0}, {"lon": -76.9901105, "bike_id": "b51949e7cc9b8fdf965a14f5188b7664", "lat": 38.86508116666667, "fusion_lon": 0.0, "fusion_lat": 0.0, "type": "electric_scooter", "name": "b51949e7cc9b8fdf965a14f5188b7664", "is_disabled": 0, "rental_uris": {"ios": "https://dc.lft.to/lastmile_qr_scan", "android": "https://dc.lft.to/lastmile_qr_scan"}, "is_reserved": 0}, {"lon": -77.02768483333334, "bike_id": "584a39dca360e2739a430e04a4eb51fa", "lat": 38.954268, "fusion_lon": 0.0, "fusion_lat": 0.0, "type": "electric_scooter", "name": "584a39dca360e2739a430e04a4eb51fa", "is_disabled": 0, "rental_uris": {"ios": "https://dc.lft.to/lastmile_qr_scan", "android": "https://dc.lft.to/lastmile_qr_scan"}, "is_reserved": 0}, {"lon": -77.00338416666666, "bike_id": "d4a3c3747379df8f3241679f495b0402", "lat": 38.8972885, "fusion_lon": 0.0, "fusion_lat": 0.0, "type": "electric_scooter", "name": "d4a3c3747379df8f3241679f495b0402", "is_disabled": 0, "rental_uris": {"ios": "https://dc.lft.to/lastmile_qr_scan", "android": "https://dc.lft.to/lastmile_qr_scan"}, "is_reserved": 0}, {"lon": -77.00934233333334, "bike_id": "b3eec502f9a6f77805869d0947775e5a", "lat": 38.87458383333333, "fusion_lon": 0.0, "fusion_lat": 0.0, "type": "electric_scooter", "name": "b3eec502f9a6f77805869d0947775e5a", "is_disabled": 0, "rental_uris": {"ios": "https://dc.lft.to/lastmile_qr_scan", "android": "https://dc.lft.to/lastmile_qr_scan"}, "is_reserved": 0}, {"lon": -77.0315505, "bike_id": "d7ab442ebf6507a1a6a5e390b98bd934", "lat": 38.9285715, "fusion_lon": 0.0, "fusion_lat": 0.0, "type": "electric_scooter", "name": "d7ab442ebf6507a1a6a5e390b98bd934", "is_disabled": 0, "rental_uris": {"ios": "https://dc.lft.to/lastmile_qr_scan", "android": "https://dc.lft.to/lastmile_qr_scan"}, "is_reserved": 0}, {"lon": -76.88402583333334, "bike_id": "1dc49642cff3dd0ac7c1fac083237896", "lat": 38.93167433333333, "fusion_lon": 0.0, "fusion_lat": 0.0, "type": "electric_bike", "name": "1dc49642cff3dd0ac7c1fac083237896", "is_disabled": 0, "rental_uris": {"ios": "https://dc.lft.to/lastmile_qr_scan", "android": "https://dc.lft.to/lastmile_qr_scan"}, "is_reserved": 0}, {"lon": -77.03659216666667, "bike_id": "6889e475434add86c15f6b1055b61e7e", "lat": 38.932029, "fusion_lon": 0.0, "fusion_lat": 0.0, "type": "electric_scooter", "name": "6889e475434add86c15f6b1055b61e7e", "is_disabled": 0, "rental_uris": {"ios": "https://dc.lft.to/lastmile_qr_scan", "android": "https://dc.lft.to/lastmile_qr_scan"}, "is_reserved": 0}, {"lon": -76.95660666666667, "bike_id": "cc8fc1e71a5722114c0596a48c595f16", "lat": 38.89627483333334, "fusion_lon": 0.0, "fusion_lat": 0.0, "type": "electric_scooter", "name": "cc8fc1e71a5722114c0596a48c595f16", "is_disabled": 0, "rental_uris": {"ios": "https://dc.lft.to/lastmile_qr_scan", "android": "https://dc.lft.to/lastmile_qr_scan"}, "is_reserved": 0}, {"lon": -77.01812316666667, "bike_id": "93f4d667c1cda3d460265c6f0cf67848", "lat": 38.9648655, "fusion_lon": 0.0, "fusion_lat": 0.0, "type": "electric_scooter", "name": "93f4d667c1cda3d460265c6f0cf67848", "is_disabled": 0, "rental_uris": {"ios": "https://dc.lft.to/lastmile_qr_scan", "android": "https://dc.lft.to/lastmile_qr_scan"}, "is_reserved": 0}, {"lon": -77.04659383333333, "bike_id": "507e127efe8bc03229ff5838112b9a48", "lat": 39.0551285, "fusion_lon": 0.0, "fusion_lat": 0.0, "type": "electric_bike", "name": "507e127efe8bc03229ff5838112b9a48", "is_disabled": 0, "rental_uris": {"ios": "https://dc.lft.to/lastmile_qr_scan", "android": "https://dc.lft.to/lastmile_qr_scan"}, "is_reserved": 0}, {"lon": -77.06034466666667, "bike_id": "c920db04d7a071909a517b77677aaa15", "lat": 38.9335735, "fusion_lon": 0.0, "fusion_lat": 0.0, "type": "electric_scooter", "name": "c920db04d7a071909a517b77677aaa15", "is_disabled": 0, "rental_uris": {"ios": "https://dc.lft.to/lastmile_qr_scan", "android": "https://dc.lft.to/lastmile_qr_scan"}, "is_reserved": 0}, {"lon": -77.027758, "bike_id": "df5ff499d1df4381f9cd29d338a49598", "lat": 38.96570666666667, "fusion_lon": 0.0, "fusion_lat": 0.0, "type": "electric_bike", "name": "df5ff499d1df4381f9cd29d338a49598", "is_disabled": 0, "rental_uris": {"ios": "https://dc.lft.to/lastmile_qr_scan", "android": "https://dc.lft.to/lastmile_qr_scan"}, "is_reserved": 0}, {"lon": -77.12739416666666, "bike_id": "04426acb3e51e2b8acdf9ce3ec2db9b9", "lat": 38.895647833333335, "fusion_lon": 0.0, "fusion_lat": 0.0, "type": "electric_bike", "name": "04426acb3e51e2b8acdf9ce3ec2db9b9", "is_disabled": 0, "rental_uris": {"ios": "https://dc.lft.to/lastmile_qr_scan", "android": "https://dc.lft.to/lastmile_qr_scan"}, "is_reserved": 0}, {"lon": -77.0558685, "bike_id": "6001c046bfef0b90d4ba1d480ab007b2", "lat": 38.933566166666665, "fusion_lon": 0.0, "fusion_lat": 0.0, "type": "electric_scooter", "name": "6001c046bfef0b90d4ba1d480ab007b2", "is_disabled": 0, "rental_uris": {"ios": "https://dc.lft.to/lastmile_qr_scan", "android": "https://dc.lft.to/lastmile_qr_scan"}, "is_reserved": 0}, {"lon": -76.96147633333334, "bike_id": "b6f6fa465427ce06960c8988abcc52c0", "lat": 38.942113, "fusion_lon": 0.0, "fusion_lat": 0.0, "type": "electric_bike", "name": "b6f6fa465427ce06960c8988abcc52c0", "is_disabled": 0, "rental_uris": {"ios": "https://dc.lft.to/lastmile_qr_scan", "android": "https://dc.lft.to/lastmile_qr_scan"}, "is_reserved": 0}, {"lon": -77.038797, "bike_id": "a07e31c0ee950dab3af08d3ca2bedbfe", "lat": 38.9487115, "fusion_lon": 0.0, "fusion_lat": 0.0, "type": "electric_scooter", "name": "a07e31c0ee950dab3af08d3ca2bedbfe", "is_disabled": 0, "rental_uris": {"ios": "https://dc.lft.to/lastmile_qr_scan", "android": "https://dc.lft.to/lastmile_qr_scan"}, "is_reserved": 0}, {"lon": -77.01111366666666, "bike_id": "0121ee7faa86b61d7d7795e45665ee31", "lat": 38.907712833333335, "fusion_lon": 0.0, "fusion_lat": 0.0, "type": "electric_scooter", "name": "0121ee7faa86b61d7d7795e45665ee31", "is_disabled": 0, "rental_uris": {"ios": "https://dc.lft.to/lastmile_qr_scan", "android": "https://dc.lft.to/lastmile_qr_scan"}, "is_reserved": 0}, {"lon": -76.9953695, "bike_id": "d1ab648365fd9da7fd205ed4834cd185", "lat": 38.883720833333335, "fusion_lon": 0.0, "fusion_lat": 0.0, "type": "electric_scooter", "name": "d1ab648365fd9da7fd205ed4834cd185", "is_disabled": 0, "rental_uris": {"ios": "https://dc.lft.to/lastmile_qr_scan", "android": "https://dc.lft.to/lastmile_qr_scan"}, "is_reserved": 0}, {"lon": -77.025547, "bike_id": "6b85cc70d82710a14965ea0ba93e89eb", "lat": 38.90420233333333, "fusion_lon": 0.0, "fusion_lat": 0.0, "type": "electric_scooter", "name": "6b85cc70d82710a14965ea0ba93e89eb", "is_disabled": 0, "rental_uris": {"ios": "https://dc.lft.to/lastmile_qr_scan", "android": "https://dc.lft.to/lastmile_qr_scan"}, "is_reserved": 0}, {"lon": -77.00684366666667, "bike_id": "8eae787ae7b8eb498ee29f0b86feb1e4", "lat": 38.900124166666664, "fusion_lon": 0.0, "fusion_lat": 0.0, "type": "electric_scooter", "name": "8eae787ae7b8eb498ee29f0b86feb1e4", "is_disabled": 0, "rental_uris": {"ios": "https://dc.lft.to/lastmile_qr_scan", "android": "https://dc.lft.to/lastmile_qr_scan"}, "is_reserved": 0}, {"lon": -77.08069766666667, "bike_id": "45e1aace9ef585863f8b096c86490cde", "lat": 39.052824666666666, "fusion_lon": 0.0, "fusion_lat": 0.0, "type": "electric_bike", "name": "45e1aace9ef585863f8b096c86490cde", "is_disabled": 0, "rental_uris": {"ios": "https://dc.lft.to/lastmile_qr_scan", "android": "https://dc.lft.to/lastmile_qr_scan"}, "is_reserved": 0}, {"lon": -76.9909655, "bike_id": "91d73ef32e3c4cfcf86eca338ad6fa01", "lat": 38.862389, "fusion_lon": 0.0, "fusion_lat": 0.0, "type": "electric_bike", "name": "91d73ef32e3c4cfcf86eca338ad6fa01", "is_disabled": 0, "rental_uris": {"ios": "https://dc.lft.to/lastmile_qr_scan", "android": "https://dc.lft.to/lastmile_qr_scan"}, "is_reserved": 0}, {"lon": -77.06528616666667, "bike_id": "e7ba01f0cf2ca82403af116c33b05e6d", "lat": 38.904038666666665, "fusion_lon": 0.0, "fusion_lat": 0.0, "type": "electric_scooter", "name": "e7ba01f0cf2ca82403af116c33b05e6d", "is_disabled": 0, "rental_uris": {"ios": "https://dc.lft.to/lastmile_qr_scan", "android": "https://dc.lft.to/lastmile_qr_scan"}, "is_reserved": 0}, {"lon": -76.97485933333333, "bike_id": "9063d19f2a2ec940ad01ee32575b1720", "lat": 38.903567, "fusion_lon": 0.0, "fusion_lat": 0.0, "type": "electric_scooter", "name": "9063d19f2a2ec940ad01ee32575b1720", "is_disabled": 0, "rental_uris": {"ios": "https://dc.lft.to/lastmile_qr_scan", "android": "https://dc.lft.to/lastmile_qr_scan"}, "is_reserved": 0}, {"lon": -77.0364805, "bike_id": "06211181b1d1a4447799d5ea3f454f4c", "lat": 38.90438666666667, "fusion_lon": 0.0, "fusion_lat": 0.0, "type": "electric_scooter", "name": "06211181b1d1a4447799d5ea3f454f4c", "is_disabled": 0, "rental_uris": {"ios": "https://dc.lft.to/lastmile_qr_scan", "android": "https://dc.lft.to/lastmile_qr_scan"}, "is_reserved": 0}, {"lon": -77.02198466666667, "bike_id": "0a4ccfb6bc8b380b2f32b22d17a89fea", "lat": 38.91136866666667, "fusion_lon": 0.0, "fusion_lat": 0.0, "type": "electric_scooter", "name": "0a4ccfb6bc8b380b2f32b22d17a89fea", "is_disabled": 0, "rental_uris": {"ios": "https://dc.lft.to/lastmile_qr_scan", "android": "https://dc.lft.to/lastmile_qr_scan"}, "is_reserved": 0}, {"lon": -76.99018933333333, "bike_id": "a84bfab199414f8e5ae281bfcfe4ab49", "lat": 38.86644883333334, "fusion_lon": 0.0, "fusion_lat": 0.0, "type": "electric_scooter", "name": "a84bfab199414f8e5ae281bfcfe4ab49", "is_disabled": 0, "rental_uris": {"ios": "https://dc.lft.to/lastmile_qr_scan", "android": "https://dc.lft.to/lastmile_qr_scan"}, "is_reserved": 0}, {"lon": -77.02511033333333, "bike_id": "202eb650d400ca55abf3c7278b5719df", "lat": 38.93416083333334, "fusion_lon": 0.0, "fusion_lat": 0.0, "type": "electric_bike", "name": "202eb650d400ca55abf3c7278b5719df", "is_disabled": 0, "rental_uris": {"ios": "https://dc.lft.to/lastmile_qr_scan", "android": "https://dc.lft.to/lastmile_qr_scan"}, "is_reserved": 0}, {"lon": -77.01758733333334, "bike_id": "12ee9ccb4b49b712366da5c6ca3e5778", "lat": 38.87668216666667, "fusion_lon": 0.0, "fusion_lat": 0.0, "type": "electric_scooter", "name": "12ee9ccb4b49b712366da5c6ca3e5778", "is_disabled": 0, "rental_uris": {"ios": "https://dc.lft.to/lastmile_qr_scan", "android": "https://dc.lft.to/lastmile_qr_scan"}, "is_reserved": 0}, {"lon": -76.9968245, "bike_id": "0152cbf62f8f587350848b7676fb0c23", "lat": 38.8868485, "fusion_lon": 0.0, "fusion_lat": 0.0, "type": "electric_scooter", "name": "0152cbf62f8f587350848b7676fb0c23", "is_disabled": 0, "rental_uris": {"ios": "https://dc.lft.to/lastmile_qr_scan", "android": "https://dc.lft.to/lastmile_qr_scan"}, "is_reserved": 0}, {"lon": -77.02880116666667, "bike_id": "226967d13743edea35bff433b14ff7b1", "lat": 38.916995166666666, "fusion_lon": 0.0, "fusion_lat": 0.0, "type": "electric_scooter", "name": "226967d13743edea35bff433b14ff7b1", "is_disabled": 0, "rental_uris": {"ios": "https://dc.lft.to/lastmile_qr_scan", "android": "https://dc.lft.to/lastmile_qr_scan"}, "is_reserved": 0}, {"lon": -77.03130333333333, "bike_id": "61d5c5ecd707b6836b64619a072e43e8", "lat": 38.915612, "fusion_lon": 0.0, "fusion_lat": 0.0, "type": "electric_scooter", "name": "61d5c5ecd707b6836b64619a072e43e8", "is_disabled": 0, "rental_uris": {"ios": "https://dc.lft.to/lastmile_qr_scan", "android": "https://dc.lft.to/lastmile_qr_scan"}, "is_reserved": 0}, {"lon": -76.9652535, "bike_id": "cc563b2f56784728ca9506a1925b46e7", "lat": 38.8762865, "fusion_lon": 0.0, "fusion_lat": 0.0, "type": "electric_scooter", "name": "cc563b2f56784728ca9506a1925b46e7", "is_disabled": 0, "rental_uris": {"ios": "https://dc.lft.to/lastmile_qr_scan", "android": "https://dc.lft.to/lastmile_qr_scan"}, "is_reserved": 0}, {"lon": -77.100305, "bike_id": "5bbfb1b080bd357a33e99c7613bf1b27", "lat": 38.8714135, "fusion_lon": 0.0, "fusion_lat": 0.0, "type": "electric_bike", "name": "5bbfb1b080bd357a33e99c7613bf1b27", "is_disabled": 0, "rental_uris": {"ios": "https://dc.lft.to/lastmile_qr_scan", "android": "https://dc.lft.to/lastmile_qr_scan"}, "is_reserved": 0}, {"lon": -77.038541, "bike_id": "11d6dc9b9c7391e85c35500220f056a1", "lat": 38.931315166666664, "fusion_lon": 0.0, "fusion_lat": 0.0, "type": "electric_scooter", "name": "11d6dc9b9c7391e85c35500220f056a1", "is_disabled": 0, "rental_uris": {"ios": "https://dc.lft.to/lastmile_qr_scan", "android": "https://dc.lft.to/lastmile_qr_scan"}, "is_reserved": 0}, {"lon": -77.02351166666666, "bike_id": "b07b67bbaeff3776fcdebb2eef1ab867", "lat": 38.93533883333333, "fusion_lon": 0.0, "fusion_lat": 0.0, "type": "electric_scooter", "name": "b07b67bbaeff3776fcdebb2eef1ab867", "is_disabled": 0, "rental_uris": {"ios": "https://dc.lft.to/lastmile_qr_scan", "android": "https://dc.lft.to/lastmile_qr_scan"}, "is_reserved": 0}, {"lon": -77.02164316666666, "bike_id": "db9f9274b5f5d7734b8154edb0f10495", "lat": 38.914759, "fusion_lon": 0.0, "fusion_lat": 0.0, "type": "electric_scooter", "name": "db9f9274b5f5d7734b8154edb0f10495", "is_disabled": 0, "rental_uris": {"ios": "https://dc.lft.to/lastmile_qr_scan", "android": "https://dc.lft.to/lastmile_qr_scan"}, "is_reserved": 0}, {"lon": -76.941592, "bike_id": "f245decf1413394330a189a8bd4fd02c", "lat": 38.90829383333333, "fusion_lon": 0.0, "fusion_lat": 0.0, "type": "electric_bike", "name": "f245decf1413394330a189a8bd4fd02c", "is_disabled": 0, "rental_uris": {"ios": "https://dc.lft.to/lastmile_qr_scan", "android": "https://dc.lft.to/lastmile_qr_scan"}, "is_reserved": 0}, {"lon": -77.03267516666666, "bike_id": "3efdbc8b89ece3a6ee2e20e3cf9e7ed4", "lat": 38.91997666666666, "fusion_lon": 0.0, "fusion_lat": 0.0, "type": "electric_scooter", "name": "3efdbc8b89ece3a6ee2e20e3cf9e7ed4", "is_disabled": 0, "rental_uris": {"ios": "https://dc.lft.to/lastmile_qr_scan", "android": "https://dc.lft.to/lastmile_qr_scan"}, "is_reserved": 0}, {"lon": -77.02425466666666, "bike_id": "2d239d7cce314a488849f9bfb208c7c6", "lat": 38.92654533333334, "fusion_lon": 0.0, "fusion_lat": 0.0, "type": "electric_scooter", "name": "2d239d7cce314a488849f9bfb208c7c6", "is_disabled": 0, "rental_uris": {"ios": "https://dc.lft.to/lastmile_qr_scan", "android": "https://dc.lft.to/lastmile_qr_scan"}, "is_reserved": 0}, {"lon": -77.06418116666667, "bike_id": "4a62f4c6f889324eeadb52d41ca2bdd5", "lat": 38.99336266666667, "fusion_lon": 0.0, "fusion_lat": 0.0, "type": "electric_scooter", "name": "4a62f4c6f889324eeadb52d41ca2bdd5", "is_disabled": 0, "rental_uris": {"ios": "https://dc.lft.to/lastmile_qr_scan", "android": "https://dc.lft.to/lastmile_qr_scan"}, "is_reserved": 0}, {"lon": -77.02970316666666, "bike_id": "48be169bf6dcea93b9d0c7299b3771fd", "lat": 38.914591333333334, "fusion_lon": 0.0, "fusion_lat": 0.0, "type": "electric_scooter", "name": "48be169bf6dcea93b9d0c7299b3771fd", "is_disabled": 0, "rental_uris": {"ios": "https://dc.lft.to/lastmile_qr_scan", "android": "https://dc.lft.to/lastmile_qr_scan"}, "is_reserved": 0}, {"lon": -76.98735466666666, "bike_id": "bc79e99656cd852bc5d9462e1661198a", "lat": 38.86583016666667, "fusion_lon": 0.0, "fusion_lat": 0.0, "type": "electric_bike", "name": "bc79e99656cd852bc5d9462e1661198a", "is_disabled": 0, "rental_uris": {"ios": "https://dc.lft.to/lastmile_qr_scan", "android": "https://dc.lft.to/lastmile_qr_scan"}, "is_reserved": 0}, {"lon": -76.98684716666666, "bike_id": "1e6b1580b20ca2279814244ebcef94e8", "lat": 38.912942666666666, "fusion_lon": 0.0, "fusion_lat": 0.0, "type": "electric_bike", "name": "1e6b1580b20ca2279814244ebcef94e8", "is_disabled": 0, "rental_uris": {"ios": "https://dc.lft.to/lastmile_qr_scan", "android": "https://dc.lft.to/lastmile_qr_scan"}, "is_reserved": 0}, {"lon": -76.96524666666667, "bike_id": "0b1f4b3ade4f1d714fd33865efa63799", "lat": 38.8763075, "fusion_lon": 0.0, "fusion_lat": 0.0, "type": "electric_scooter", "name": "0b1f4b3ade4f1d714fd33865efa63799", "is_disabled": 0, "rental_uris": {"ios": "https://dc.lft.to/lastmile_qr_scan", "android": "https://dc.lft.to/lastmile_qr_scan"}, "is_reserved": 0}, {"lon": -77.03527083333333, "bike_id": "2b491b085796a26eb14aabb40b293141", "lat": 38.927296166666665, "fusion_lon": 0.0, "fusion_lat": 0.0, "type": "electric_scooter", "name": "2b491b085796a26eb14aabb40b293141", "is_disabled": 0, "rental_uris": {"ios": "https://dc.lft.to/lastmile_qr_scan", "android": "https://dc.lft.to/lastmile_qr_scan"}, "is_reserved": 0}, {"lon": -77.029853, "bike_id": "a0f7cbe7c2496d4f9cfd55274f38105f", "lat": 38.939282666666664, "fusion_lon": 0.0, "fusion_lat": 0.0, "type": "electric_scooter", "name": "a0f7cbe7c2496d4f9cfd55274f38105f", "is_disabled": 0, "rental_uris": {"ios": "https://dc.lft.to/lastmile_qr_scan", "android": "https://dc.lft.to/lastmile_qr_scan"}, "is_reserved": 0}, {"lon": -77.03634616666666, "bike_id": "82c5e1eac53b596782660b78f32529a8", "lat": 38.944973, "fusion_lon": 0.0, "fusion_lat": 0.0, "type": "electric_scooter", "name": "82c5e1eac53b596782660b78f32529a8", "is_disabled": 0, "rental_uris": {"ios": "https://dc.lft.to/lastmile_qr_scan", "android": "https://dc.lft.to/lastmile_qr_scan"}, "is_reserved": 0}, {"lon": -77.03953833333334, "bike_id": "a7ee6e04781d904dafd0881bfe1a5daf", "lat": 38.915674833333334, "fusion_lon": 0.0, "fusion_lat": 0.0, "type": "electric_scooter", "name": "a7ee6e04781d904dafd0881bfe1a5daf", "is_disabled": 0, "rental_uris": {"ios": "https://dc.lft.to/lastmile_qr_scan", "android": "https://dc.lft.to/lastmile_qr_scan"}, "is_reserved": 0}, {"lon": -76.975471, "bike_id": "9c3bd2ee0a22d713bc4284ce4ab781e5", "lat": 38.90317266666667, "fusion_lon": 0.0, "fusion_lat": 0.0, "type": "electric_scooter", "name": "9c3bd2ee0a22d713bc4284ce4ab781e5", "is_disabled": 0, "rental_uris": {"ios": "https://dc.lft.to/lastmile_qr_scan", "android": "https://dc.lft.to/lastmile_qr_scan"}, "is_reserved": 0}, {"lon": -77.0317285, "bike_id": "998d264968048d0fd45ba110c7b4bc45", "lat": 38.920937333333335, "fusion_lon": 0.0, "fusion_lat": 0.0, "type": "electric_scooter", "name": "998d264968048d0fd45ba110c7b4bc45", "is_disabled": 0, "rental_uris": {"ios": "https://dc.lft.to/lastmile_qr_scan", "android": "https://dc.lft.to/lastmile_qr_scan"}, "is_reserved": 0}, {"lon": -77.01992316666667, "bike_id": "16cf21d49604fd105ed3394c78840ae7", "lat": 38.901449, "fusion_lon": 0.0, "fusion_lat": 0.0, "type": "electric_scooter", "name": "16cf21d49604fd105ed3394c78840ae7", "is_disabled": 0, "rental_uris": {"ios": "https://dc.lft.to/lastmile_qr_scan", "android": "https://dc.lft.to/lastmile_qr_scan"}, "is_reserved": 0}, {"lon": -77.03052516666666, "bike_id": "017b07308a39d4395998ea07eae20171", "lat": 38.8841275, "fusion_lon": 0.0, "fusion_lat": 0.0, "type": "electric_scooter", "name": "017b07308a39d4395998ea07eae20171", "is_disabled": 0, "rental_uris": {"ios": "https://dc.lft.to/lastmile_qr_scan", "android": "https://dc.lft.to/lastmile_qr_scan"}, "is_reserved": 0}, {"lon": -77.04484233333334, "bike_id": "f6055cd34c1bba49e66747fa3eb1d251", "lat": 38.924245, "fusion_lon": 0.0, "fusion_lat": 0.0, "type": "electric_scooter", "name": "f6055cd34c1bba49e66747fa3eb1d251", "is_disabled": 0, "rental_uris": {"ios": "https://dc.lft.to/lastmile_qr_scan", "android": "https://dc.lft.to/lastmile_qr_scan"}, "is_reserved": 0}, {"lon": -77.03828116666666, "bike_id": "46e4838122c24c05d5ed37e09ec3f34d", "lat": 38.921652, "fusion_lon": 0.0, "fusion_lat": 0.0, "type": "electric_scooter", "name": "46e4838122c24c05d5ed37e09ec3f34d", "is_disabled": 0, "rental_uris": {"ios": "https://dc.lft.to/lastmile_qr_scan", "android": "https://dc.lft.to/lastmile_qr_scan"}, "is_reserved": 0}, {"lon": -77.02748116666666, "bike_id": "bbcbc0be4394e0e6fe48801672ad8170", "lat": 38.941857, "fusion_lon": 0.0, "fusion_lat": 0.0, "type": "electric_scooter", "name": "bbcbc0be4394e0e6fe48801672ad8170", "is_disabled": 0, "rental_uris": {"ios": "https://dc.lft.to/lastmile_qr_scan", "android": "https://dc.lft.to/lastmile_qr_scan"}, "is_reserved": 0}, {"lon": -77.03262566666666, "bike_id": "eb1e450c2eaba1115bfe505e76077824", "lat": 38.930081666666666, "fusion_lon": 0.0, "fusion_lat": 0.0, "type": "electric_scooter", "name": "eb1e450c2eaba1115bfe505e76077824", "is_disabled": 0, "rental_uris": {"ios": "https://dc.lft.to/lastmile_qr_scan", "android": "https://dc.lft.to/lastmile_qr_scan"}, "is_reserved": 0}, {"lon": -76.99680666666667, "bike_id": "022f929b427721952954977cb12dd82b", "lat": 38.90835216666667, "fusion_lon": 0.0, "fusion_lat": 0.0, "type": "electric_scooter", "name": "022f929b427721952954977cb12dd82b", "is_disabled": 0, "rental_uris": {"ios": "https://dc.lft.to/lastmile_qr_scan", "android": "https://dc.lft.to/lastmile_qr_scan"}, "is_reserved": 0}, {"lon": -77.0347005, "bike_id": "f133d14f1591d96258e117c73ed5a2a3", "lat": 38.9215295, "fusion_lon": 0.0, "fusion_lat": 0.0, "type": "electric_scooter", "name": "f133d14f1591d96258e117c73ed5a2a3", "is_disabled": 0, "rental_uris": {"ios": "https://dc.lft.to/lastmile_qr_scan", "android": "https://dc.lft.to/lastmile_qr_scan"}, "is_reserved": 0}, {"lon": -77.03829816666666, "bike_id": "0f9baa3f04b12904bbc4585289cbf677", "lat": 38.9025965, "fusion_lon": 0.0, "fusion_lat": 0.0, "type": "electric_scooter", "name": "0f9baa3f04b12904bbc4585289cbf677", "is_disabled": 0, "rental_uris": {"ios": "https://dc.lft.to/lastmile_qr_scan", "android": "https://dc.lft.to/lastmile_qr_scan"}, "is_reserved": 0}, {"lon": -76.9964315, "bike_id": "210ba37991688e9a779e59476cb77dc7", "lat": 38.900367833333334, "fusion_lon": 0.0, "fusion_lat": 0.0, "type": "electric_scooter", "name": "210ba37991688e9a779e59476cb77dc7", "is_disabled": 0, "rental_uris": {"ios": "https://dc.lft.to/lastmile_qr_scan", "android": "https://dc.lft.to/lastmile_qr_scan"}, "is_reserved": 0}, {"lon": -77.03433633333333, "bike_id": "9278269767f56578bcacd8eb6d33bfa7", "lat": 38.91925916666667, "fusion_lon": 0.0, "fusion_lat": 0.0, "type": "electric_scooter", "name": "9278269767f56578bcacd8eb6d33bfa7", "is_disabled": 0, "rental_uris": {"ios": "https://dc.lft.to/lastmile_qr_scan", "android": "https://dc.lft.to/lastmile_qr_scan"}, "is_reserved": 0}, {"lon": -77.02052883333333, "bike_id": "6ca8c9e53e3ff9a657a2a73f7173684c", "lat": 38.915584, "fusion_lon": 0.0, "fusion_lat": 0.0, "type": "electric_scooter", "name": "6ca8c9e53e3ff9a657a2a73f7173684c", "is_disabled": 0, "rental_uris": {"ios": "https://dc.lft.to/lastmile_qr_scan", "android": "https://dc.lft.to/lastmile_qr_scan"}, "is_reserved": 0}, {"lon": -77.00206216666666, "bike_id": "ceb8785cc618c152eb7c6c33b8e7f6b9", "lat": 38.902466, "fusion_lon": 0.0, "fusion_lat": 0.0, "type": "electric_scooter", "name": "ceb8785cc618c152eb7c6c33b8e7f6b9", "is_disabled": 0, "rental_uris": {"ios": "https://dc.lft.to/lastmile_qr_scan", "android": "https://dc.lft.to/lastmile_qr_scan"}, "is_reserved": 0}, {"lon": -77.059234, "bike_id": "173c4b91849bd60e2e3a530d61ed2134", "lat": 38.862513166666666, "fusion_lon": 0.0, "fusion_lat": 0.0, "type": "electric_scooter", "name": "173c4b91849bd60e2e3a530d61ed2134", "is_disabled": 0, "rental_uris": {"ios": "https://dc.lft.to/lastmile_qr_scan", "android": "https://dc.lft.to/lastmile_qr_scan"}, "is_reserved": 0}, {"lon": -77.0134745, "bike_id": "2860ca16588b0ca3643a4ad5df0b6efd", "lat": 38.91947733333333, "fusion_lon": 0.0, "fusion_lat": 0.0, "type": "electric_scooter", "name": "2860ca16588b0ca3643a4ad5df0b6efd", "is_disabled": 0, "rental_uris": {"ios": "https://dc.lft.to/lastmile_qr_scan", "android": "https://dc.lft.to/lastmile_qr_scan"}, "is_reserved": 0}, {"lon": -77.04151366666666, "bike_id": "790646f9f2eb469887056904dc6c0599", "lat": 38.904637, "fusion_lon": 0.0, "fusion_lat": 0.0, "type": "electric_scooter", "name": "790646f9f2eb469887056904dc6c0599", "is_disabled": 0, "rental_uris": {"ios": "https://dc.lft.to/lastmile_qr_scan", "android": "https://dc.lft.to/lastmile_qr_scan"}, "is_reserved": 0}, {"lon": -77.052122, "bike_id": "a78b59a40a8ce3a62ed414dee34b5f72", "lat": 38.9243485, "fusion_lon": 0.0, "fusion_lat": 0.0, "type": "electric_scooter", "name": "a78b59a40a8ce3a62ed414dee34b5f72", "is_disabled": 0, "rental_uris": {"ios": "https://dc.lft.to/lastmile_qr_scan", "android": "https://dc.lft.to/lastmile_qr_scan"}, "is_reserved": 0}, {"lon": -77.00837716666666, "bike_id": "4ca9a38613683d522a6a733d7d3060c0", "lat": 38.91624916666667, "fusion_lon": 0.0, "fusion_lat": 0.0, "type": "electric_scooter", "name": "4ca9a38613683d522a6a733d7d3060c0", "is_disabled": 0, "rental_uris": {"ios": "https://dc.lft.to/lastmile_qr_scan", "android": "https://dc.lft.to/lastmile_qr_scan"}, "is_reserved": 0}, {"lon": -77.02934966666666, "bike_id": "8cbb39702e0a2a10bc57b643976e5067", "lat": 38.9208, "fusion_lon": 0.0, "fusion_lat": 0.0, "type": "electric_scooter", "name": "8cbb39702e0a2a10bc57b643976e5067", "is_disabled": 0, "rental_uris": {"ios": "https://dc.lft.to/lastmile_qr_scan", "android": "https://dc.lft.to/lastmile_qr_scan"}, "is_reserved": 0}, {"lon": -76.98899916666667, "bike_id": "836a38e03f4cf23f5b68d5b1698d418f", "lat": 38.913489166666665, "fusion_lon": 0.0, "fusion_lat": 0.0, "type": "electric_scooter", "name": "836a38e03f4cf23f5b68d5b1698d418f", "is_disabled": 0, "rental_uris": {"ios": "https://dc.lft.to/lastmile_qr_scan", "android": "https://dc.lft.to/lastmile_qr_scan"}, "is_reserved": 0}, {"lon": -77.02082466666667, "bike_id": "abc1a690172adcd4ec6b983f0b194a7b", "lat": 38.92700766666667, "fusion_lon": 0.0, "fusion_lat": 0.0, "type": "electric_scooter", "name": "abc1a690172adcd4ec6b983f0b194a7b", "is_disabled": 0, "rental_uris": {"ios": "https://dc.lft.to/lastmile_qr_scan", "android": "https://dc.lft.to/lastmile_qr_scan"}, "is_reserved": 0}, {"lon": -77.02012066666667, "bike_id": "ad438761808f20042cc3f7c348214687", "lat": 38.92428683333333, "fusion_lon": 0.0, "fusion_lat": 0.0, "type": "electric_scooter", "name": "ad438761808f20042cc3f7c348214687", "is_disabled": 0, "rental_uris": {"ios": "https://dc.lft.to/lastmile_qr_scan", "android": "https://dc.lft.to/lastmile_qr_scan"}, "is_reserved": 0}, {"lon": -77.0522575, "bike_id": "a94017742a01d26072d687f557fbdad1", "lat": 38.924631, "fusion_lon": 0.0, "fusion_lat": 0.0, "type": "electric_scooter", "name": "a94017742a01d26072d687f557fbdad1", "is_disabled": 0, "rental_uris": {"ios": "https://dc.lft.to/lastmile_qr_scan", "android": "https://dc.lft.to/lastmile_qr_scan"}, "is_reserved": 0}, {"lon": -76.985597, "bike_id": "66c52cb9a5c373cb9c6b1d34d9fcceac", "lat": 38.89620433333333, "fusion_lon": 0.0, "fusion_lat": 0.0, "type": "electric_scooter", "name": "66c52cb9a5c373cb9c6b1d34d9fcceac", "is_disabled": 0, "rental_uris": {"ios": "https://dc.lft.to/lastmile_qr_scan", "android": "https://dc.lft.to/lastmile_qr_scan"}, "is_reserved": 0}, {"lon": -76.95751616666666, "bike_id": "093b02e9a4a0071259530d57aca9fef2", "lat": 38.88425483333333, "fusion_lon": 0.0, "fusion_lat": 0.0, "type": "electric_scooter", "name": "093b02e9a4a0071259530d57aca9fef2", "is_disabled": 0, "rental_uris": {"ios": "https://dc.lft.to/lastmile_qr_scan", "android": "https://dc.lft.to/lastmile_qr_scan"}, "is_reserved": 0}, {"lon": -77.030378, "bike_id": "375173ab318b4608edb253fdda6770cb", "lat": 38.8783545, "fusion_lon": 0.0, "fusion_lat": 0.0, "type": "electric_scooter", "name": "375173ab318b4608edb253fdda6770cb", "is_disabled": 0, "rental_uris": {"ios": "https://dc.lft.to/lastmile_qr_scan", "android": "https://dc.lft.to/lastmile_qr_scan"}, "is_reserved": 0}, {"lon": -77.01112666666667, "bike_id": "a1faa1467a89761508fe322bff7c04c1", "lat": 38.903477, "fusion_lon": 0.0, "fusion_lat": 0.0, "type": "electric_scooter", "name": "a1faa1467a89761508fe322bff7c04c1", "is_disabled": 0, "rental_uris": {"ios": "https://dc.lft.to/lastmile_qr_scan", "android": "https://dc.lft.to/lastmile_qr_scan"}, "is_reserved": 0}, {"lon": -76.99003216666667, "bike_id": "e2418376b831c0e3727e3246ed6d46c6", "lat": 38.86506683333333, "fusion_lon": 0.0, "fusion_lat": 0.0, "type": "electric_scooter", "name": "e2418376b831c0e3727e3246ed6d46c6", "is_disabled": 0, "rental_uris": {"ios": "https://dc.lft.to/lastmile_qr_scan", "android": "https://dc.lft.to/lastmile_qr_scan"}, "is_reserved": 0}, {"lon": -77.041712, "bike_id": "2f12f4567212a68f22a81cfd3997f985", "lat": 38.917706, "fusion_lon": 0.0, "fusion_lat": 0.0, "type": "electric_scooter", "name": "2f12f4567212a68f22a81cfd3997f985", "is_disabled": 0, "rental_uris": {"ios": "https://dc.lft.to/lastmile_qr_scan", "android": "https://dc.lft.to/lastmile_qr_scan"}, "is_reserved": 0}, {"lon": -77.047251, "bike_id": "0a9e78763be15a163216772995204439", "lat": 38.90232966666667, "fusion_lon": 0.0, "fusion_lat": 0.0, "type": "electric_scooter", "name": "0a9e78763be15a163216772995204439", "is_disabled": 0, "rental_uris": {"ios": "https://dc.lft.to/lastmile_qr_scan", "android": "https://dc.lft.to/lastmile_qr_scan"}, "is_reserved": 0}, {"lon": -76.937371, "bike_id": "9ecad2889abfc3a501263e4a9398dc15", "lat": 38.89019916666667, "fusion_lon": 0.0, "fusion_lat": 0.0, "type": "electric_scooter", "name": "9ecad2889abfc3a501263e4a9398dc15", "is_disabled": 0, "rental_uris": {"ios": "https://dc.lft.to/lastmile_qr_scan", "android": "https://dc.lft.to/lastmile_qr_scan"}, "is_reserved": 0}, {"lon": -77.0240685, "bike_id": "f5190b8c508d0892c5163e73b7119370", "lat": 38.93482, "fusion_lon": 0.0, "fusion_lat": 0.0, "type": "electric_bike", "name": "f5190b8c508d0892c5163e73b7119370", "is_disabled": 0, "rental_uris": {"ios": "https://dc.lft.to/lastmile_qr_scan", "android": "https://dc.lft.to/lastmile_qr_scan"}, "is_reserved": 0}, {"lon": -77.03766383333334, "bike_id": "ea286217c0687a1f9b955b4f115ff3a0", "lat": 38.929435, "fusion_lon": 0.0, "fusion_lat": 0.0, "type": "electric_scooter", "name": "ea286217c0687a1f9b955b4f115ff3a0", "is_disabled": 0, "rental_uris": {"ios": "https://dc.lft.to/lastmile_qr_scan", "android": "https://dc.lft.to/lastmile_qr_scan"}, "is_reserved": 0}, {"lon": -77.000739, "bike_id": "b2c4c23380ab69db920004b292853e41", "lat": 38.897243, "fusion_lon": 0.0, "fusion_lat": 0.0, "type": "electric_scooter", "name": "b2c4c23380ab69db920004b292853e41", "is_disabled": 0, "rental_uris": {"ios": "https://dc.lft.to/lastmile_qr_scan", "android": "https://dc.lft.to/lastmile_qr_scan"}, "is_reserved": 0}, {"lon": -77.0271155, "bike_id": "8a2a69871d9cba6caa9a293df6931516", "lat": 38.90226233333333, "fusion_lon": 0.0, "fusion_lat": 0.0, "type": "electric_scooter", "name": "8a2a69871d9cba6caa9a293df6931516", "is_disabled": 0, "rental_uris": {"ios": "https://dc.lft.to/lastmile_qr_scan", "android": "https://dc.lft.to/lastmile_qr_scan"}, "is_reserved": 0}, {"lon": -77.01549016666667, "bike_id": "d330fd90bfb326caf7044009408bea4a", "lat": 38.892294, "fusion_lon": 0.0, "fusion_lat": 0.0, "type": "electric_scooter", "name": "d330fd90bfb326caf7044009408bea4a", "is_disabled": 0, "rental_uris": {"ios": "https://dc.lft.to/lastmile_qr_scan", "android": "https://dc.lft.to/lastmile_qr_scan"}, "is_reserved": 0}, {"lon": -77.00033733333333, "bike_id": "6ef36b50b939b779f1c3761ed2322efc", "lat": 38.967865833333335, "fusion_lon": 0.0, "fusion_lat": 0.0, "type": "electric_bike", "name": "6ef36b50b939b779f1c3761ed2322efc", "is_disabled": 0, "rental_uris": {"ios": "https://dc.lft.to/lastmile_qr_scan", "android": "https://dc.lft.to/lastmile_qr_scan"}, "is_reserved": 0}, {"lon": -77.05422266666666, "bike_id": "68c5b6c473564c92a4302ca3d0a956f9", "lat": 38.90143716666667, "fusion_lon": 0.0, "fusion_lat": 0.0, "type": "electric_scooter", "name": "68c5b6c473564c92a4302ca3d0a956f9", "is_disabled": 0, "rental_uris": {"ios": "https://dc.lft.to/lastmile_qr_scan", "android": "https://dc.lft.to/lastmile_qr_scan"}, "is_reserved": 0}, {"lon": -77.00548066666667, "bike_id": "868e6d8aa497380685cdfc0adc1e24a9", "lat": 38.874607833333336, "fusion_lon": 0.0, "fusion_lat": 0.0, "type": "electric_scooter", "name": "868e6d8aa497380685cdfc0adc1e24a9", "is_disabled": 0, "rental_uris": {"ios": "https://dc.lft.to/lastmile_qr_scan", "android": "https://dc.lft.to/lastmile_qr_scan"}, "is_reserved": 0}, {"lon": -77.0286635, "bike_id": "1a789e136b6ade27d9d51ce856441291", "lat": 38.917029, "fusion_lon": 0.0, "fusion_lat": 0.0, "type": "electric_scooter", "name": "1a789e136b6ade27d9d51ce856441291", "is_disabled": 0, "rental_uris": {"ios": "https://dc.lft.to/lastmile_qr_scan", "android": "https://dc.lft.to/lastmile_qr_scan"}, "is_reserved": 0}, {"lon": -77.0395195, "bike_id": "811405d78b751ce553c63932d077e6aa", "lat": 38.91711566666667, "fusion_lon": 0.0, "fusion_lat": 0.0, "type": "electric_scooter", "name": "811405d78b751ce553c63932d077e6aa", "is_disabled": 0, "rental_uris": {"ios": "https://dc.lft.to/lastmile_qr_scan", "android": "https://dc.lft.to/lastmile_qr_scan"}, "is_reserved": 0}, {"lon": -77.03206033333333, "bike_id": "c8b5d2ae1d2e09e6c45244494a021c3a", "lat": 38.94409016666667, "fusion_lon": 0.0, "fusion_lat": 0.0, "type": "electric_scooter", "name": "c8b5d2ae1d2e09e6c45244494a021c3a", "is_disabled": 0, "rental_uris": {"ios": "https://dc.lft.to/lastmile_qr_scan", "android": "https://dc.lft.to/lastmile_qr_scan"}, "is_reserved": 0}, {"lon": -77.0431555, "bike_id": "e354aa2368214bdd290484cf1bd8bc50", "lat": 38.90037266666667, "fusion_lon": 0.0, "fusion_lat": 0.0, "type": "electric_scooter", "name": "e354aa2368214bdd290484cf1bd8bc50", "is_disabled": 0, "rental_uris": {"ios": "https://dc.lft.to/lastmile_qr_scan", "android": "https://dc.lft.to/lastmile_qr_scan"}, "is_reserved": 0}, {"lon": -77.02397116666667, "bike_id": "af4519ef030aa3017d2fcdd18d322377", "lat": 38.89212533333333, "fusion_lon": 0.0, "fusion_lat": 0.0, "type": "electric_scooter", "name": "af4519ef030aa3017d2fcdd18d322377", "is_disabled": 0, "rental_uris": {"ios": "https://dc.lft.to/lastmile_qr_scan", "android": "https://dc.lft.to/lastmile_qr_scan"}, "is_reserved": 0}, {"lon": -77.06875516666666, "bike_id": "16ec40cc45cc96ab4785802a5ed2beac", "lat": 38.90516866666667, "fusion_lon": 0.0, "fusion_lat": 0.0, "type": "electric_scooter", "name": "16ec40cc45cc96ab4785802a5ed2beac", "is_disabled": 0, "rental_uris": {"ios": "https://dc.lft.to/lastmile_qr_scan", "android": "https://dc.lft.to/lastmile_qr_scan"}, "is_reserved": 0}, {"lon": -77.05318033333333, "bike_id": "92e80ddaf95b8cfebc1c5659747ec0f4", "lat": 38.90075066666667, "fusion_lon": 0.0, "fusion_lat": 0.0, "type": "electric_scooter", "name": "92e80ddaf95b8cfebc1c5659747ec0f4", "is_disabled": 0, "rental_uris": {"ios": "https://dc.lft.to/lastmile_qr_scan", "android": "https://dc.lft.to/lastmile_qr_scan"}, "is_reserved": 0}, {"lon": -77.07122816666667, "bike_id": "4eccc754454286cb0f7677c4162a5e8a", "lat": 38.9197085, "fusion_lon": 0.0, "fusion_lat": 0.0, "type": "electric_scooter", "name": "4eccc754454286cb0f7677c4162a5e8a", "is_disabled": 0, "rental_uris": {"ios": "https://dc.lft.to/lastmile_qr_scan", "android": "https://dc.lft.to/lastmile_qr_scan"}, "is_reserved": 0}, {"lon": -77.05048583333334, "bike_id": "c28ded13c777249e124dbdd0b142ee12", "lat": 38.90721533333333, "fusion_lon": 0.0, "fusion_lat": 0.0, "type": "electric_scooter", "name": "c28ded13c777249e124dbdd0b142ee12", "is_disabled": 0, "rental_uris": {"ios": "https://dc.lft.to/lastmile_qr_scan", "android": "https://dc.lft.to/lastmile_qr_scan"}, "is_reserved": 0}, {"lon": -77.0385065, "bike_id": "7c07be1fe93ee4221487d9b86f3a8fa1", "lat": 38.93256733333333, "fusion_lon": 0.0, "fusion_lat": 0.0, "type": "electric_scooter", "name": "7c07be1fe93ee4221487d9b86f3a8fa1", "is_disabled": 0, "rental_uris": {"ios": "https://dc.lft.to/lastmile_qr_scan", "android": "https://dc.lft.to/lastmile_qr_scan"}, "is_reserved": 0}, {"lon": -77.04785933333334, "bike_id": "1e8bb6e9ad5208ccf8e8ddbb1b7c6d8c", "lat": 38.829421833333335, "fusion_lon": 0.0, "fusion_lat": 0.0, "type": "electric_bike", "name": "1e8bb6e9ad5208ccf8e8ddbb1b7c6d8c", "is_disabled": 0, "rental_uris": {"ios": "https://dc.lft.to/lastmile_qr_scan", "android": "https://dc.lft.to/lastmile_qr_scan"}, "is_reserved": 0}, {"lon": -77.0426555, "bike_id": "60307ea94923462cc3593c7054e90556", "lat": 38.922562666666664, "fusion_lon": 0.0, "fusion_lat": 0.0, "type": "electric_scooter", "name": "60307ea94923462cc3593c7054e90556", "is_disabled": 0, "rental_uris": {"ios": "https://dc.lft.to/lastmile_qr_scan", "android": "https://dc.lft.to/lastmile_qr_scan"}, "is_reserved": 0}, {"lon": -76.99681766666667, "bike_id": "d80a8687e4088c49a7302c690e566082", "lat": 38.86019816666666, "fusion_lon": 0.0, "fusion_lat": 0.0, "type": "electric_scooter", "name": "d80a8687e4088c49a7302c690e566082", "is_disabled": 0, "rental_uris": {"ios": "https://dc.lft.to/lastmile_qr_scan", "android": "https://dc.lft.to/lastmile_qr_scan"}, "is_reserved": 0}, {"lon": -76.97522983333333, "bike_id": "07ecd299e9c1644b4a05bdac75d6cde0", "lat": 38.966971666666666, "fusion_lon": 0.0, "fusion_lat": 0.0, "type": "electric_bike", "name": "07ecd299e9c1644b4a05bdac75d6cde0", "is_disabled": 0, "rental_uris": {"ios": "https://dc.lft.to/lastmile_qr_scan", "android": "https://dc.lft.to/lastmile_qr_scan"}, "is_reserved": 0}, {"lon": -77.04248416666667, "bike_id": "e543e3aa9c81e46cb73f65649c990691", "lat": 38.907629666666665, "fusion_lon": 0.0, "fusion_lat": 0.0, "type": "electric_scooter", "name": "e543e3aa9c81e46cb73f65649c990691", "is_disabled": 0, "rental_uris": {"ios": "https://dc.lft.to/lastmile_qr_scan", "android": "https://dc.lft.to/lastmile_qr_scan"}, "is_reserved": 0}, {"lon": -77.03782083333333, "bike_id": "7158411c51a91a7a414d9646d385ce4e", "lat": 38.929609666666664, "fusion_lon": 0.0, "fusion_lat": 0.0, "type": "electric_scooter", "name": "7158411c51a91a7a414d9646d385ce4e", "is_disabled": 0, "rental_uris": {"ios": "https://dc.lft.to/lastmile_qr_scan", "android": "https://dc.lft.to/lastmile_qr_scan"}, "is_reserved": 0}, {"lon": -77.02568616666667, "bike_id": "33c2b1130d0d64bf82519ebf35d323e6", "lat": 38.9133975, "fusion_lon": 0.0, "fusion_lat": 0.0, "type": "electric_scooter", "name": "33c2b1130d0d64bf82519ebf35d323e6", "is_disabled": 0, "rental_uris": {"ios": "https://dc.lft.to/lastmile_qr_scan", "android": "https://dc.lft.to/lastmile_qr_scan"}, "is_reserved": 0}, {"lon": -77.04026616666667, "bike_id": "27913c8a4261ef272f386636290b4dbf", "lat": 38.903897, "fusion_lon": 0.0, "fusion_lat": 0.0, "type": "electric_scooter", "name": "27913c8a4261ef272f386636290b4dbf", "is_disabled": 0, "rental_uris": {"ios": "https://dc.lft.to/lastmile_qr_scan", "android": "https://dc.lft.to/lastmile_qr_scan"}, "is_reserved": 0}, {"lon": -77.037052, "bike_id": "25dc8ff655a980ad5017f58c7b7aa6cb", "lat": 38.9352775, "fusion_lon": 0.0, "fusion_lat": 0.0, "type": "electric_scooter", "name": "25dc8ff655a980ad5017f58c7b7aa6cb", "is_disabled": 0, "rental_uris": {"ios": "https://dc.lft.to/lastmile_qr_scan", "android": "https://dc.lft.to/lastmile_qr_scan"}, "is_reserved": 0}, {"lon": -77.031968, "bike_id": "92cf80788c02ca6c634bd4903343e73a", "lat": 38.91574716666667, "fusion_lon": 0.0, "fusion_lat": 0.0, "type": "electric_scooter", "name": "92cf80788c02ca6c634bd4903343e73a", "is_disabled": 0, "rental_uris": {"ios": "https://dc.lft.to/lastmile_qr_scan", "android": "https://dc.lft.to/lastmile_qr_scan"}, "is_reserved": 0}, {"lon": -77.055881, "bike_id": "86d6cc54cfb55e3c1fc915fd28c91bea", "lat": 38.89309983333333, "fusion_lon": 0.0, "fusion_lat": 0.0, "type": "electric_scooter", "name": "86d6cc54cfb55e3c1fc915fd28c91bea", "is_disabled": 0, "rental_uris": {"ios": "https://dc.lft.to/lastmile_qr_scan", "android": "https://dc.lft.to/lastmile_qr_scan"}, "is_reserved": 0}, {"lon": -77.03928583333334, "bike_id": "3027e4045058275afbf514e9961ad0da", "lat": 38.920947, "fusion_lon": 0.0, "fusion_lat": 0.0, "type": "electric_scooter", "name": "3027e4045058275afbf514e9961ad0da", "is_disabled": 0, "rental_uris": {"ios": "https://dc.lft.to/lastmile_qr_scan", "android": "https://dc.lft.to/lastmile_qr_scan"}, "is_reserved": 0}, {"lon": -76.98413316666667, "bike_id": "a7f5a764206e93b54f9c32912e42a3b5", "lat": 38.906243333333336, "fusion_lon": 0.0, "fusion_lat": 0.0, "type": "electric_scooter", "name": "a7f5a764206e93b54f9c32912e42a3b5", "is_disabled": 0, "rental_uris": {"ios": "https://dc.lft.to/lastmile_qr_scan", "android": "https://dc.lft.to/lastmile_qr_scan"}, "is_reserved": 0}, {"lon": -77.0300165, "bike_id": "911ddbfc3ea3ff32c080d028825f87c8", "lat": 38.91257866666667, "fusion_lon": 0.0, "fusion_lat": 0.0, "type": "electric_scooter", "name": "911ddbfc3ea3ff32c080d028825f87c8", "is_disabled": 0, "rental_uris": {"ios": "https://dc.lft.to/lastmile_qr_scan", "android": "https://dc.lft.to/lastmile_qr_scan"}, "is_reserved": 0}, {"lon": -76.987714, "bike_id": "7cbbfea52ede60df37e76608832d9cd4", "lat": 38.85777733333333, "fusion_lon": 0.0, "fusion_lat": 0.0, "type": "electric_bike", "name": "7cbbfea52ede60df37e76608832d9cd4", "is_disabled": 0, "rental_uris": {"ios": "https://dc.lft.to/lastmile_qr_scan", "android": "https://dc.lft.to/lastmile_qr_scan"}, "is_reserved": 0}, {"lon": -76.98926683333333, "bike_id": "8df46c8867600300f200009e4c0c482c", "lat": 38.91838533333333, "fusion_lon": 0.0, "fusion_lat": 0.0, "type": "electric_scooter", "name": "8df46c8867600300f200009e4c0c482c", "is_disabled": 0, "rental_uris": {"ios": "https://dc.lft.to/lastmile_qr_scan", "android": "https://dc.lft.to/lastmile_qr_scan"}, "is_reserved": 0}, {"lon": -76.97429766666667, "bike_id": "9502a507b915e0bec731402258adfa42", "lat": 38.904030666666664, "fusion_lon": 0.0, "fusion_lat": 0.0, "type": "electric_scooter", "name": "9502a507b915e0bec731402258adfa42", "is_disabled": 0, "rental_uris": {"ios": "https://dc.lft.to/lastmile_qr_scan", "android": "https://dc.lft.to/lastmile_qr_scan"}, "is_reserved": 0}, {"lon": -77.049934, "bike_id": "a6b348cb31e909ae176c553c2a867147", "lat": 38.90066816666667, "fusion_lon": 0.0, "fusion_lat": 0.0, "type": "electric_scooter", "name": "a6b348cb31e909ae176c553c2a867147", "is_disabled": 0, "rental_uris": {"ios": "https://dc.lft.to/lastmile_qr_scan", "android": "https://dc.lft.to/lastmile_qr_scan"}, "is_reserved": 0}, {"lon": -77.0420945, "bike_id": "12708a7b955b94445c9294a3cf848c47", "lat": 38.92317283333333, "fusion_lon": 0.0, "fusion_lat": 0.0, "type": "electric_scooter", "name": "12708a7b955b94445c9294a3cf848c47", "is_disabled": 0, "rental_uris": {"ios": "https://dc.lft.to/lastmile_qr_scan", "android": "https://dc.lft.to/lastmile_qr_scan"}, "is_reserved": 0}, {"lon": -77.02727366666667, "bike_id": "d075e13cd7f6e3c9c41fc3cade9ee2f9", "lat": 38.90043983333333, "fusion_lon": 0.0, "fusion_lat": 0.0, "type": "electric_scooter", "name": "d075e13cd7f6e3c9c41fc3cade9ee2f9", "is_disabled": 0, "rental_uris": {"ios": "https://dc.lft.to/lastmile_qr_scan", "android": "https://dc.lft.to/lastmile_qr_scan"}, "is_reserved": 0}, {"lon": -77.00007266666667, "bike_id": "e07e5a48d5d3a64f95239a9510624d30", "lat": 38.89743266666667, "fusion_lon": 0.0, "fusion_lat": 0.0, "type": "electric_scooter", "name": "e07e5a48d5d3a64f95239a9510624d30", "is_disabled": 0, "rental_uris": {"ios": "https://dc.lft.to/lastmile_qr_scan", "android": "https://dc.lft.to/lastmile_qr_scan"}, "is_reserved": 0}, {"lon": -77.014445, "bike_id": "bb34770fa03ae20772f83eeac6cfa627", "lat": 38.87675983333333, "fusion_lon": 0.0, "fusion_lat": 0.0, "type": "electric_bike", "name": "bb34770fa03ae20772f83eeac6cfa627", "is_disabled": 0, "rental_uris": {"ios": "https://dc.lft.to/lastmile_qr_scan", "android": "https://dc.lft.to/lastmile_qr_scan"}, "is_reserved": 0}, {"lon": -77.10809683333333, "bike_id": "ad8171275c6b0b7e16b9d2de9ffe8e12", "lat": 38.8120555, "fusion_lon": 0.0, "fusion_lat": 0.0, "type": "electric_bike", "name": "ad8171275c6b0b7e16b9d2de9ffe8e12", "is_disabled": 0, "rental_uris": {"ios": "https://dc.lft.to/lastmile_qr_scan", "android": "https://dc.lft.to/lastmile_qr_scan"}, "is_reserved": 0}, {"lon": -76.998799, "bike_id": "4a2f9adbefa71b38df173ea90cce176d", "lat": 38.90029366666667, "fusion_lon": 0.0, "fusion_lat": 0.0, "type": "electric_scooter", "name": "4a2f9adbefa71b38df173ea90cce176d", "is_disabled": 0, "rental_uris": {"ios": "https://dc.lft.to/lastmile_qr_scan", "android": "https://dc.lft.to/lastmile_qr_scan"}, "is_reserved": 0}, {"lon": -77.06483066666667, "bike_id": "bb353851cc73c88af98cbe8b452c53f5", "lat": 38.90977916666667, "fusion_lon": 0.0, "fusion_lat": 0.0, "type": "electric_scooter", "name": "bb353851cc73c88af98cbe8b452c53f5", "is_disabled": 0, "rental_uris": {"ios": "https://dc.lft.to/lastmile_qr_scan", "android": "https://dc.lft.to/lastmile_qr_scan"}, "is_reserved": 0}, {"lon": -77.01528733333333, "bike_id": "e4a5e2af7d9917281ad885a2cb65c9d7", "lat": 38.884984833333334, "fusion_lon": 0.0, "fusion_lat": 0.0, "type": "electric_scooter", "name": "e4a5e2af7d9917281ad885a2cb65c9d7", "is_disabled": 0, "rental_uris": {"ios": "https://dc.lft.to/lastmile_qr_scan", "android": "https://dc.lft.to/lastmile_qr_scan"}, "is_reserved": 0}, {"lon": -77.04585383333334, "bike_id": "ff5ef8657a964631f803867578f2e84b", "lat": 38.91352883333333, "fusion_lon": 0.0, "fusion_lat": 0.0, "type": "electric_scooter", "name": "ff5ef8657a964631f803867578f2e84b", "is_disabled": 0, "rental_uris": {"ios": "https://dc.lft.to/lastmile_qr_scan", "android": "https://dc.lft.to/lastmile_qr_scan"}, "is_reserved": 0}, {"lon": -77.029238, "bike_id": "0cac17917218c0ce5663eae00b8b8a2d", "lat": 38.8972675, "fusion_lon": 0.0, "fusion_lat": 0.0, "type": "electric_scooter", "name": "0cac17917218c0ce5663eae00b8b8a2d", "is_disabled": 0, "rental_uris": {"ios": "https://dc.lft.to/lastmile_qr_scan", "android": "https://dc.lft.to/lastmile_qr_scan"}, "is_reserved": 0}, {"lon": -77.05434216666667, "bike_id": "4d4325a9f434055a417c7cf53ffb1024", "lat": 38.92851116666667, "fusion_lon": 0.0, "fusion_lat": 0.0, "type": "electric_bike", "name": "4d4325a9f434055a417c7cf53ffb1024", "is_disabled": 0, "rental_uris": {"ios": "https://dc.lft.to/lastmile_qr_scan", "android": "https://dc.lft.to/lastmile_qr_scan"}, "is_reserved": 0}, {"lon": -76.98839383333333, "bike_id": "c22b9869f511c81edb21942601fd0a28", "lat": 38.90129116666667, "fusion_lon": 0.0, "fusion_lat": 0.0, "type": "electric_scooter", "name": "c22b9869f511c81edb21942601fd0a28", "is_disabled": 0, "rental_uris": {"ios": "https://dc.lft.to/lastmile_qr_scan", "android": "https://dc.lft.to/lastmile_qr_scan"}, "is_reserved": 0}, {"lon": -77.04758216666667, "bike_id": "be15e636fe65ca1099b842627b4dfef5", "lat": 38.90558816666667, "fusion_lon": 0.0, "fusion_lat": 0.0, "type": "electric_scooter", "name": "be15e636fe65ca1099b842627b4dfef5", "is_disabled": 0, "rental_uris": {"ios": "https://dc.lft.to/lastmile_qr_scan", "android": "https://dc.lft.to/lastmile_qr_scan"}, "is_reserved": 0}, {"lon": -77.03433133333333, "bike_id": "56a5103826d36a24379ca62f163324cc", "lat": 38.9079505, "fusion_lon": 0.0, "fusion_lat": 0.0, "type": "electric_scooter", "name": "56a5103826d36a24379ca62f163324cc", "is_disabled": 0, "rental_uris": {"ios": "https://dc.lft.to/lastmile_qr_scan", "android": "https://dc.lft.to/lastmile_qr_scan"}, "is_reserved": 0}, {"lon": -77.02211916666667, "bike_id": "a14c21e203037138c0db0ec68bc46446", "lat": 38.920069833333336, "fusion_lon": 0.0, "fusion_lat": 0.0, "type": "electric_scooter", "name": "a14c21e203037138c0db0ec68bc46446", "is_disabled": 0, "rental_uris": {"ios": "https://dc.lft.to/lastmile_qr_scan", "android": "https://dc.lft.to/lastmile_qr_scan"}, "is_reserved": 0}, {"lon": -77.02780133333333, "bike_id": "d73802121c99f0fefb6101ef7e3bcbd5", "lat": 38.9026935, "fusion_lon": 0.0, "fusion_lat": 0.0, "type": "electric_scooter", "name": "d73802121c99f0fefb6101ef7e3bcbd5", "is_disabled": 0, "rental_uris": {"ios": "https://dc.lft.to/lastmile_qr_scan", "android": "https://dc.lft.to/lastmile_qr_scan"}, "is_reserved": 0}, {"lon": -76.98111866666666, "bike_id": "bac374581e774802f9315bf0d589090f", "lat": 38.90402316666667, "fusion_lon": 0.0, "fusion_lat": 0.0, "type": "electric_scooter", "name": "bac374581e774802f9315bf0d589090f", "is_disabled": 0, "rental_uris": {"ios": "https://dc.lft.to/lastmile_qr_scan", "android": "https://dc.lft.to/lastmile_qr_scan"}, "is_reserved": 0}, {"lon": -77.05512433333334, "bike_id": "6cb45cb6c2d06201ed36be3aae97648c", "lat": 38.90009716666667, "fusion_lon": 0.0, "fusion_lat": 0.0, "type": "electric_scooter", "name": "6cb45cb6c2d06201ed36be3aae97648c", "is_disabled": 0, "rental_uris": {"ios": "https://dc.lft.to/lastmile_qr_scan", "android": "https://dc.lft.to/lastmile_qr_scan"}, "is_reserved": 0}, {"lon": -77.0449455, "bike_id": "f6cdec93a4f45d66c7759f662d4019a2", "lat": 38.919292166666665, "fusion_lon": 0.0, "fusion_lat": 0.0, "type": "electric_scooter", "name": "f6cdec93a4f45d66c7759f662d4019a2", "is_disabled": 0, "rental_uris": {"ios": "https://dc.lft.to/lastmile_qr_scan", "android": "https://dc.lft.to/lastmile_qr_scan"}, "is_reserved": 0}, {"lon": -77.03654816666666, "bike_id": "0edddec368afd40708c4d6f21b3731b0", "lat": 38.902859, "fusion_lon": 0.0, "fusion_lat": 0.0, "type": "electric_scooter", "name": "0edddec368afd40708c4d6f21b3731b0", "is_disabled": 0, "rental_uris": {"ios": "https://dc.lft.to/lastmile_qr_scan", "android": "https://dc.lft.to/lastmile_qr_scan"}, "is_reserved": 0}, {"lon": -77.03851366666666, "bike_id": "16c2226c196fee60fe684826e3138aaa", "lat": 38.90954716666667, "fusion_lon": 0.0, "fusion_lat": 0.0, "type": "electric_scooter", "name": "16c2226c196fee60fe684826e3138aaa", "is_disabled": 0, "rental_uris": {"ios": "https://dc.lft.to/lastmile_qr_scan", "android": "https://dc.lft.to/lastmile_qr_scan"}, "is_reserved": 0}, {"lon": -76.94895533333333, "bike_id": "ba3df3f9fb77bcc420ab6b6f6939b38a", "lat": 38.895300166666665, "fusion_lon": 0.0, "fusion_lat": 0.0, "type": "electric_scooter", "name": "ba3df3f9fb77bcc420ab6b6f6939b38a", "is_disabled": 0, "rental_uris": {"ios": "https://dc.lft.to/lastmile_qr_scan", "android": "https://dc.lft.to/lastmile_qr_scan"}, "is_reserved": 0}, {"lon": -77.03216033333334, "bike_id": "0ab095664f7cf9b062cce0c87f9cabbb", "lat": 38.916922, "fusion_lon": 0.0, "fusion_lat": 0.0, "type": "electric_scooter", "name": "0ab095664f7cf9b062cce0c87f9cabbb", "is_disabled": 0, "rental_uris": {"ios": "https://dc.lft.to/lastmile_qr_scan", "android": "https://dc.lft.to/lastmile_qr_scan"}, "is_reserved": 0}, {"lon": -76.97847866666666, "bike_id": "37b21ca55987fa03854e0afaa9bd9dbf", "lat": 38.865699166666666, "fusion_lon": 0.0, "fusion_lat": 0.0, "type": "electric_scooter", "name": "37b21ca55987fa03854e0afaa9bd9dbf", "is_disabled": 0, "rental_uris": {"ios": "https://dc.lft.to/lastmile_qr_scan", "android": "https://dc.lft.to/lastmile_qr_scan"}, "is_reserved": 0}, {"lon": -76.97004566666666, "bike_id": "73c1f04f6d637b7d18cb183c50ac7941", "lat": 38.8637085, "fusion_lon": 0.0, "fusion_lat": 0.0, "type": "electric_bike", "name": "73c1f04f6d637b7d18cb183c50ac7941", "is_disabled": 0, "rental_uris": {"ios": "https://dc.lft.to/lastmile_qr_scan", "android": "https://dc.lft.to/lastmile_qr_scan"}, "is_reserved": 0}, {"lon": -77.02441416666667, "bike_id": "c77ff7415ce8d4f79a42aeb80937820a", "lat": 38.93602216666667, "fusion_lon": 0.0, "fusion_lat": 0.0, "type": "electric_scooter", "name": "c77ff7415ce8d4f79a42aeb80937820a", "is_disabled": 0, "rental_uris": {"ios": "https://dc.lft.to/lastmile_qr_scan", "android": "https://dc.lft.to/lastmile_qr_scan"}, "is_reserved": 0}, {"lon": -77.02810183333334, "bike_id": "57def9566d640250841c4d0548558684", "lat": 38.941913166666666, "fusion_lon": 0.0, "fusion_lat": 0.0, "type": "electric_scooter", "name": "57def9566d640250841c4d0548558684", "is_disabled": 0, "rental_uris": {"ios": "https://dc.lft.to/lastmile_qr_scan", "android": "https://dc.lft.to/lastmile_qr_scan"}, "is_reserved": 0}, {"lon": -77.04362316666666, "bike_id": "71443e35b7e72ab0db272dbe3c4fce0b", "lat": 39.01545766666667, "fusion_lon": 0.0, "fusion_lat": 0.0, "type": "electric_bike", "name": "71443e35b7e72ab0db272dbe3c4fce0b", "is_disabled": 0, "rental_uris": {"ios": "https://dc.lft.to/lastmile_qr_scan", "android": "https://dc.lft.to/lastmile_qr_scan"}, "is_reserved": 0}, {"lon": -77.02736666666667, "bike_id": "d3938a2481405ac195bfd893efb2d9bb", "lat": 38.897361333333336, "fusion_lon": 0.0, "fusion_lat": 0.0, "type": "electric_scooter", "name": "d3938a2481405ac195bfd893efb2d9bb", "is_disabled": 0, "rental_uris": {"ios": "https://dc.lft.to/lastmile_qr_scan", "android": "https://dc.lft.to/lastmile_qr_scan"}, "is_reserved": 0}, {"lon": -77.0105945, "bike_id": "34b84a568a414d7f7f0d563665438577", "lat": 38.91199116666667, "fusion_lon": 0.0, "fusion_lat": 0.0, "type": "electric_scooter", "name": "34b84a568a414d7f7f0d563665438577", "is_disabled": 0, "rental_uris": {"ios": "https://dc.lft.to/lastmile_qr_scan", "android": "https://dc.lft.to/lastmile_qr_scan"}, "is_reserved": 0}, {"lon": -77.03037733333333, "bike_id": "4044d48e0e2cd00957de3f5735cfded4", "lat": 38.91333266666667, "fusion_lon": 0.0, "fusion_lat": 0.0, "type": "electric_scooter", "name": "4044d48e0e2cd00957de3f5735cfded4", "is_disabled": 0, "rental_uris": {"ios": "https://dc.lft.to/lastmile_qr_scan", "android": "https://dc.lft.to/lastmile_qr_scan"}, "is_reserved": 0}, {"lon": -77.00788866666667, "bike_id": "d995764760416e84d19139e5587c6c1e", "lat": 38.9064355, "fusion_lon": 0.0, "fusion_lat": 0.0, "type": "electric_scooter", "name": "d995764760416e84d19139e5587c6c1e", "is_disabled": 0, "rental_uris": {"ios": "https://dc.lft.to/lastmile_qr_scan", "android": "https://dc.lft.to/lastmile_qr_scan"}, "is_reserved": 0}, {"lon": -77.05274616666667, "bike_id": "40dde6d70e8b50a8cbbacf39bbb21b95", "lat": 38.910159, "fusion_lon": 0.0, "fusion_lat": 0.0, "type": "electric_scooter", "name": "40dde6d70e8b50a8cbbacf39bbb21b95", "is_disabled": 0, "rental_uris": {"ios": "https://dc.lft.to/lastmile_qr_scan", "android": "https://dc.lft.to/lastmile_qr_scan"}, "is_reserved": 0}, {"lon": -77.02790833333333, "bike_id": "d41667671e7b97561c077bc8a426f6dc", "lat": 38.956791, "fusion_lon": 0.0, "fusion_lat": 0.0, "type": "electric_scooter", "name": "d41667671e7b97561c077bc8a426f6dc", "is_disabled": 0, "rental_uris": {"ios": "https://dc.lft.to/lastmile_qr_scan", "android": "https://dc.lft.to/lastmile_qr_scan"}, "is_reserved": 0}, {"lon": -77.03224016666667, "bike_id": "08af3ed33cc2d5ccee1b996d8859305f", "lat": 38.93319, "fusion_lon": 0.0, "fusion_lat": 0.0, "type": "electric_bike", "name": "08af3ed33cc2d5ccee1b996d8859305f", "is_disabled": 0, "rental_uris": {"ios": "https://dc.lft.to/lastmile_qr_scan", "android": "https://dc.lft.to/lastmile_qr_scan"}, "is_reserved": 0}, {"lon": -77.0227255, "bike_id": "81622b064b4106175b179b3639013048", "lat": 38.93772516666667, "fusion_lon": 0.0, "fusion_lat": 0.0, "type": "electric_scooter", "name": "81622b064b4106175b179b3639013048", "is_disabled": 0, "rental_uris": {"ios": "https://dc.lft.to/lastmile_qr_scan", "android": "https://dc.lft.to/lastmile_qr_scan"}, "is_reserved": 0}, {"lon": -77.0327415, "bike_id": "e2d248848f740ccc13286818b1bea507", "lat": 38.9275025, "fusion_lon": 0.0, "fusion_lat": 0.0, "type": "electric_scooter", "name": "e2d248848f740ccc13286818b1bea507", "is_disabled": 0, "rental_uris": {"ios": "https://dc.lft.to/lastmile_qr_scan", "android": "https://dc.lft.to/lastmile_qr_scan"}, "is_reserved": 0}, {"lon": -77.00294383333333, "bike_id": "982acf370b9e4b861322a994fb7241b0", "lat": 38.9073975, "fusion_lon": 0.0, "fusion_lat": 0.0, "type": "electric_bike", "name": "982acf370b9e4b861322a994fb7241b0", "is_disabled": 0, "rental_uris": {"ios": "https://dc.lft.to/lastmile_qr_scan", "android": "https://dc.lft.to/lastmile_qr_scan"}, "is_reserved": 0}, {"lon": -77.02308966666666, "bike_id": "c9b3ce2bc50ad22aab3755f1205567ce", "lat": 38.91839316666667, "fusion_lon": 0.0, "fusion_lat": 0.0, "type": "electric_scooter", "name": "c9b3ce2bc50ad22aab3755f1205567ce", "is_disabled": 0, "rental_uris": {"ios": "https://dc.lft.to/lastmile_qr_scan", "android": "https://dc.lft.to/lastmile_qr_scan"}, "is_reserved": 0}, {"lon": -77.02405616666667, "bike_id": "bfeb82fc5d1a8d65d6f5ca3cefc40ace", "lat": 38.93405666666666, "fusion_lon": 0.0, "fusion_lat": 0.0, "type": "electric_scooter", "name": "bfeb82fc5d1a8d65d6f5ca3cefc40ace", "is_disabled": 0, "rental_uris": {"ios": "https://dc.lft.to/lastmile_qr_scan", "android": "https://dc.lft.to/lastmile_qr_scan"}, "is_reserved": 0}, {"lon": -77.05235366666666, "bike_id": "05d08f6a00f872384d20a45b1116856d", "lat": 38.92465166666667, "fusion_lon": 0.0, "fusion_lat": 0.0, "type": "electric_scooter", "name": "05d08f6a00f872384d20a45b1116856d", "is_disabled": 0, "rental_uris": {"ios": "https://dc.lft.to/lastmile_qr_scan", "android": "https://dc.lft.to/lastmile_qr_scan"}, "is_reserved": 0}, {"lon": -77.032747, "bike_id": "81cd67ed1b3764d61bdb79b0cd542e07", "lat": 38.92544, "fusion_lon": 0.0, "fusion_lat": 0.0, "type": "electric_scooter", "name": "81cd67ed1b3764d61bdb79b0cd542e07", "is_disabled": 0, "rental_uris": {"ios": "https://dc.lft.to/lastmile_qr_scan", "android": "https://dc.lft.to/lastmile_qr_scan"}, "is_reserved": 0}, {"lon": -77.04252316666667, "bike_id": "5d86a28c925837e9ed7157b6f9013c66", "lat": 38.9262195, "fusion_lon": 0.0, "fusion_lat": 0.0, "type": "electric_scooter", "name": "5d86a28c925837e9ed7157b6f9013c66", "is_disabled": 0, "rental_uris": {"ios": "https://dc.lft.to/lastmile_qr_scan", "android": "https://dc.lft.to/lastmile_qr_scan"}, "is_reserved": 0}, {"lon": -77.027339, "bike_id": "eb1853845daa14d7ac46b9a571a212ab", "lat": 38.932139, "fusion_lon": 0.0, "fusion_lat": 0.0, "type": "electric_scooter", "name": "eb1853845daa14d7ac46b9a571a212ab", "is_disabled": 0, "rental_uris": {"ios": "https://dc.lft.to/lastmile_qr_scan", "android": "https://dc.lft.to/lastmile_qr_scan"}, "is_reserved": 0}, {"lon": -77.03652683333334, "bike_id": "cd373f3a82965c1cadf4455e8e8ee4ae", "lat": 38.936286, "fusion_lon": 0.0, "fusion_lat": 0.0, "type": "electric_scooter", "name": "cd373f3a82965c1cadf4455e8e8ee4ae", "is_disabled": 0, "rental_uris": {"ios": "https://dc.lft.to/lastmile_qr_scan", "android": "https://dc.lft.to/lastmile_qr_scan"}, "is_reserved": 0}, {"lon": -77.04416083333334, "bike_id": "a9fa6697f41701c12b2d9af4086543bf", "lat": 38.93325733333333, "fusion_lon": 0.0, "fusion_lat": 0.0, "type": "electric_scooter", "name": "a9fa6697f41701c12b2d9af4086543bf", "is_disabled": 0, "rental_uris": {"ios": "https://dc.lft.to/lastmile_qr_scan", "android": "https://dc.lft.to/lastmile_qr_scan"}, "is_reserved": 0}, {"lon": -77.04587033333334, "bike_id": "b492d4a3a2ab9ba9d10c1a3581708191", "lat": 38.9214, "fusion_lon": 0.0, "fusion_lat": 0.0, "type": "electric_scooter", "name": "b492d4a3a2ab9ba9d10c1a3581708191", "is_disabled": 0, "rental_uris": {"ios": "https://dc.lft.to/lastmile_qr_scan", "android": "https://dc.lft.to/lastmile_qr_scan"}, "is_reserved": 0}, {"lon": -77.048493, "bike_id": "4fcc942bb79f81d16be0cb8af2c3d3c0", "lat": 38.904634, "fusion_lon": 0.0, "fusion_lat": 0.0, "type": "electric_scooter", "name": "4fcc942bb79f81d16be0cb8af2c3d3c0", "is_disabled": 0, "rental_uris": {"ios": "https://dc.lft.to/lastmile_qr_scan", "android": "https://dc.lft.to/lastmile_qr_scan"}, "is_reserved": 0}, {"lon": -76.98754566666666, "bike_id": "648e8d02784b01bca7b8f34b8d75f077", "lat": 38.9003135, "fusion_lon": 0.0, "fusion_lat": 0.0, "type": "electric_scooter", "name": "648e8d02784b01bca7b8f34b8d75f077", "is_disabled": 0, "rental_uris": {"ios": "https://dc.lft.to/lastmile_qr_scan", "android": "https://dc.lft.to/lastmile_qr_scan"}, "is_reserved": 0}, {"lon": -76.98195366666667, "bike_id": "bb1e3379c100dcbc559cb698a606f179", "lat": 38.92601166666667, "fusion_lon": 0.0, "fusion_lat": 0.0, "type": "electric_scooter", "name": "bb1e3379c100dcbc559cb698a606f179", "is_disabled": 0, "rental_uris": {"ios": "https://dc.lft.to/lastmile_qr_scan", "android": "https://dc.lft.to/lastmile_qr_scan"}, "is_reserved": 0}, {"lon": -77.02969416666667, "bike_id": "8d7035f8622d4c9b42e15c08dc1066e7", "lat": 38.922795, "fusion_lon": 0.0, "fusion_lat": 0.0, "type": "electric_scooter", "name": "8d7035f8622d4c9b42e15c08dc1066e7", "is_disabled": 0, "rental_uris": {"ios": "https://dc.lft.to/lastmile_qr_scan", "android": "https://dc.lft.to/lastmile_qr_scan"}, "is_reserved": 0}, {"lon": -77.04476383333333, "bike_id": "b996cd14c776fdfc6d5ef15782bc0295", "lat": 38.91615683333333, "fusion_lon": 0.0, "fusion_lat": 0.0, "type": "electric_scooter", "name": "b996cd14c776fdfc6d5ef15782bc0295", "is_disabled": 0, "rental_uris": {"ios": "https://dc.lft.to/lastmile_qr_scan", "android": "https://dc.lft.to/lastmile_qr_scan"}, "is_reserved": 0}, {"lon": -77.0445395, "bike_id": "c88d7c211fe1656aa1188014d9b11af8", "lat": 38.91888566666667, "fusion_lon": 0.0, "fusion_lat": 0.0, "type": "electric_scooter", "name": "c88d7c211fe1656aa1188014d9b11af8", "is_disabled": 0, "rental_uris": {"ios": "https://dc.lft.to/lastmile_qr_scan", "android": "https://dc.lft.to/lastmile_qr_scan"}, "is_reserved": 0}, {"lon": -77.00216283333333, "bike_id": "f2a3b923545d53ad5ffeb5d837d5efec", "lat": 38.881319, "fusion_lon": 0.0, "fusion_lat": 0.0, "type": "electric_scooter", "name": "f2a3b923545d53ad5ffeb5d837d5efec", "is_disabled": 0, "rental_uris": {"ios": "https://dc.lft.to/lastmile_qr_scan", "android": "https://dc.lft.to/lastmile_qr_scan"}, "is_reserved": 0},