{"data": {"bikes": [{"is_disabled": 0, "fusion_lat": 0.0, "lat": 38.906513333333336, "type": "electric_scooter", "lon": -77.0390055, "is_reserved": 0, "fusion_lon": 0.0, "bike_id": "2f76defd85f1f1bf822d4080ca3c4eb7", "name": "2f76defd85f1f1bf822d4080ca3c4eb7", "rental_uris": {"ios": "https://dc.lft.to/lastmile_qr_scan", "android": "https://dc.lft.to/lastmile_qr_scan"}}, {"is_disabled": 0, "fusion_lat": 0.0, "lat": 38.91215866666667, "type": "electric_scooter", "lon": -77.01206616666667, "is_reserved": 0, "fusion_lon": 0.0, "bike_id": "f150262b7e2f5388c2b828cc5c976d19", "name": "f150262b7e2f5388c2b828cc5c976d19", "rental_uris": {"ios": "https://dc.lft.to/lastmile_qr_scan", "android": "https://dc.lft.to/lastmile_qr_scan"}}, {"is_disabled": 0, "fusion_lat": 0.0, "lat": 38.903856833333336, "type": "electric_scooter", "lon": -77.04510683333334, "is_reserved": 0, "fusion_lon": 0.0, "bike_id": "45075764771b20eb539706623639ce74", "name": "45075764771b20eb539706623639ce74", "rental_uris": {"ios": "https://dc.lft.to/lastmile_qr_scan", "android": "https://dc.lft.to/lastmile_qr_scan"}}, {"is_disabled": 0, "fusion_lat": 0.0, "lat": 38.88432016666667, "type": "electric_scooter", "lon": -77.0257115, "is_reserved": 0, "fusion_lon": 0.0, "bike_id": "56688ec0a60db9834da7b255314d93cc", "name": "56688ec0a60db9834da7b255314d93cc", "rental_uris": {"ios": "https://dc.lft.to/lastmile_qr_scan", "android": "https://dc.lft.to/lastmile_qr_scan"}}, {"is_disabled": 0, "fusion_lat": 0.0, "lat": 38.856482, "type": "electric_bike", "lon": -77.1125015, "is_reserved": 0, "fusion_lon": 0.0, "bike_id": "18d71fa6f0a405ee5ed599eb92327229", "name": "18d71fa6f0a405ee5ed599eb92327229", "rental_uris": {"ios": "https://dc.lft.to/lastmile_qr_scan", "android": "https://dc.lft.to/lastmile_qr_scan"}}, {"is_disabled": 0, "fusion_lat": 0.0, "lat": 38.91871616666667, "type": "electric_scooter", "lon": -77.03538, "is_reserved": 0, "fusion_lon": 0.0, "bike_id": "6007b7fd30a81cc7dd2ec1d5d1125061", "name": "6007b7fd30a81cc7dd2ec1d5d1125061", "rental_uris": {"ios": "https://dc.lft.to/lastmile_qr_scan", "android": "https://dc.lft.to/lastmile_qr_scan"}}, {"is_disabled": 0, "fusion_lat": 0.0, "lat": 38.920088, "type": "electric_scooter", "lon": -77.07116166666667, "is_reserved": 0, "fusion_lon": 0.0, "bike_id": "cf7a43a0437dd05cc4cf69ee914184af", "name": "cf7a43a0437dd05cc4cf69ee914184af", "rental_uris": {"ios": "https://dc.lft.to/lastmile_qr_scan", "android": "https://dc.lft.to/lastmile_qr_scan"}}, {"is_disabled": 0, "fusion_lat": 0.0, "lat": 38.90373316666667, "type": "electric_scooter", "lon": -77.0410815, "is_reserved": 0, "fusion_lon": 0.0, "bike_id": "325782765798c325811b96012125434f", "name": "325782765798c325811b96012125434f", "rental_uris": {"ios": "https://dc.lft.to/lastmile_qr_scan", "android": "https://dc.lft.to/lastmile_qr_scan"}}, {"is_disabled": 0, "fusion_lat": 0.0, "lat": 38.917030833333335, "type": "electric_scooter", "lon": -77.031043, "is_reserved": 0, "fusion_lon": 0.0, "bike_id": "de1b4da43a00e12b97cebf77a0dc3add", "name": "de1b4da43a00e12b97cebf77a0dc3add", "rental_uris": {"ios": "https://dc.lft.to/lastmile_qr_scan", "android": "https://dc.lft.to/lastmile_qr_scan"}}, {"is_disabled": 0, "fusion_lat": 0.0, "lat": 38.907078166666665, "type": "electric_scooter", "lon": -77.03087533333333, "is_reserved": 0, "fusion_lon": 0.0, "bike_id": "76c9f09ef0c4a08626f52af1cba1ba95", "name": "76c9f09ef0c4a08626f52af1cba1ba95", "rental_uris": {"ios": "https://dc.lft.to/lastmile_qr_scan", "android": "https://dc.lft.to/lastmile_qr_scan"}}, {"is_disabled": 0, "fusion_lat": 0.0, "lat": 38.906742, "type": "electric_scooter", "lon": -77.03820866666666, "is_reserved": 0, "fusion_lon": 0.0, "bike_id": "6a303a5ae8530583c8c39bb96fd1950a", "name": "6a303a5ae8530583c8c39bb96fd1950a", "rental_uris": {"ios": "https://dc.lft.to/lastmile_qr_scan", "android": "https://dc.lft.to/lastmile_qr_scan"}}, {"is_disabled": 0, "fusion_lat": 0.0, "lat": 38.925729833333335, "type": "electric_scooter", "lon": -77.03917683333333, "is_reserved": 0, "fusion_lon": 0.0, "bike_id": "a8a5f8ad93c62218953d8406e96f8a24", "name": "a8a5f8ad93c62218953d8406e96f8a24", "rental_uris": {"ios": "https://dc.lft.to/lastmile_qr_scan", "android": "https://dc.lft.to/lastmile_qr_scan"}}, {"is_disabled": 0, "fusion_lat": 0.0, "lat": 38.90973133333333, "type": "electric_scooter", "lon": -77.03420566666667, "is_reserved": 0, "fusion_lon": 0.0, "bike_id": "af8b81f9d6b865125c45286b81c85946", "name": "af8b81f9d6b865125c45286b81c85946", "rental_uris": {"ios": "https://dc.lft.to/lastmile_qr_scan", "android": "https://dc.lft.to/lastmile_qr_scan"}}, {"is_disabled": 0, "fusion_lat": 0.0, "lat": 38.89635916666667, "type": "electric_scooter", "lon": -77.02956516666667, "is_reserved": 0, "fusion_lon": 0.0, "bike_id": "9193b502dfeb6a8f1779ff3f1141cdbf", "name": "9193b502dfeb6a8f1779ff3f1141cdbf", "rental_uris": {"ios": "https://dc.lft.to/lastmile_qr_scan", "android": "https://dc.lft.to/lastmile_qr_scan"}}, {"is_disabled": 0, "fusion_lat": 0.0, "lat": 38.88436133333333, "type": "electric_scooter", "lon": -77.03041, "is_reserved": 0, "fusion_lon": 0.0, "bike_id": "3b6bba334e1705b71f18e727a243a806", "name": "3b6bba334e1705b71f18e727a243a806", "rental_uris": {"ios": "https://dc.lft.to/lastmile_qr_scan", "android": "https://dc.lft.to/lastmile_qr_scan"}}, {"is_disabled": 0, "fusion_lat": 0.0, "lat": 38.923669, "type": "electric_scooter", "lon": -77.05755766666667, "is_reserved": 0, "fusion_lon": 0.0, "bike_id": "56510298a36b717c9cc7fc6f56408874", "name": "56510298a36b717c9cc7fc6f56408874", "rental_uris": {"ios": "https://dc.lft.to/lastmile_qr_scan", "android": "https://dc.lft.to/lastmile_qr_scan"}}, {"is_disabled": 0, "fusion_lat": 0.0, "lat": 38.928775, "type": "electric_scooter", "lon": -77.01394066666667, "is_reserved": 0, "fusion_lon": 0.0, "bike_id": "f56a9584291bc81a04a51ba8f63b53fa", "name": "f56a9584291bc81a04a51ba8f63b53fa", "rental_uris": {"ios": "https://dc.lft.to/lastmile_qr_scan", "android": "https://dc.lft.to/lastmile_qr_scan"}}, {"is_disabled": 0, "fusion_lat": 0.0, "lat": 38.93205, "type": "electric_bike", "lon": -76.9742855, "is_reserved": 0, "fusion_lon": 0.0, "bike_id": "962ab5528898c4082081e53b54ec8f27", "name": "962ab5528898c4082081e53b54ec8f27", "rental_uris": {"ios": "https://dc.lft.to/lastmile_qr_scan", "android": "https://dc.lft.to/lastmile_qr_scan"}}, {"is_disabled": 0, "fusion_lat": 0.0, "lat": 38.89798166666667, "type": "electric_scooter", "lon": -77.02206683333333, "is_reserved": 0, "fusion_lon": 0.0, "bike_id": "a712e8955e6d2fbadea6f341ce383b26", "name": "a712e8955e6d2fbadea6f341ce383b26", "rental_uris": {"ios": "https://dc.lft.to/lastmile_qr_scan", "android": "https://dc.lft.to/lastmile_qr_scan"}}, {"is_disabled": 0, "fusion_lat": 0.0, "lat": 38.903683666666666, "type": "electric_scooter", "lon": -77.016361, "is_reserved": 0, "fusion_lon": 0.0, "bike_id": "abf13e633c2604df2566732a22214e92", "name": "abf13e633c2604df2566732a22214e92", "rental_uris": {"ios": "https://dc.lft.to/lastmile_qr_scan", "android": "https://dc.lft.to/lastmile_qr_scan"}}, {"is_disabled": 0, "fusion_lat": 0.0, "lat": 38.901810166666664, "type": "electric_scooter", "lon": -77.00002533333334, "is_reserved": 0, "fusion_lon": 0.0, "bike_id": "00a3d57ba5425ef692eaa8a3539ac6d3", "name": "00a3d57ba5425ef692eaa8a3539ac6d3", "rental_uris": {"ios": "https://dc.lft.to/lastmile_qr_scan", "android": "https://dc.lft.to/lastmile_qr_scan"}}, {"is_disabled": 0, "fusion_lat": 0.0, "lat": 38.903227333333334, "type": "electric_scooter", "lon": -77.034647, "is_reserved": 0, "fusion_lon": 0.0, "bike_id": "c89f6412f335e4178513816b75b2ba70", "name": "c89f6412f335e4178513816b75b2ba70", "rental_uris": {"ios": "https://dc.lft.to/lastmile_qr_scan", "android": "https://dc.lft.to/lastmile_qr_scan"}}, {"is_disabled": 0, "fusion_lat": 0.0, "lat": 38.925834333333334, "type": "electric_scooter", "lon": -77.05759283333333, "is_reserved": 0, "fusion_lon": 0.0, "bike_id": "3cce13b483b29816aaf7813196af758c", "name": "3cce13b483b29816aaf7813196af758c", "rental_uris": {"ios": "https://dc.lft.to/lastmile_qr_scan", "android": "https://dc.lft.to/lastmile_qr_scan"}}, {"is_disabled": 0, "fusion_lat": 0.0, "lat": 38.8722415, "type": "electric_scooter", "lon": -77.01765583333334, "is_reserved": 0, "fusion_lon": 0.0, "bike_id": "6d8bbf95424923ad9eb1f5de7e9c20c4", "name": "6d8bbf95424923ad9eb1f5de7e9c20c4", "rental_uris": {"ios": "https://dc.lft.to/lastmile_qr_scan", "android": "https://dc.lft.to/lastmile_qr_scan"}}, {"is_disabled": 0, "fusion_lat": 0.0, "lat": 38.90053316666667, "type": "electric_scooter", "lon": -77.00736583333334, "is_reserved": 0, "fusion_lon": 0.0, "bike_id": "e8c59e0152fdd02697e12d326ef8426f", "name": "e8c59e0152fdd02697e12d326ef8426f", "rental_uris": {"ios": "https://dc.lft.to/lastmile_qr_scan", "android": "https://dc.lft.to/lastmile_qr_scan"}}, {"is_disabled": 0, "fusion_lat": 0.0, "lat": 38.8941065, "type": "electric_scooter", "lon": -76.95666233333333, "is_reserved": 0, "fusion_lon": 0.0, "bike_id": "0ad0c158ab1963f3025d5d1027365a24", "name": "0ad0c158ab1963f3025d5d1027365a24", "rental_uris": {"ios": "https://dc.lft.to/lastmile_qr_scan", "android": "https://dc.lft.to/lastmile_qr_scan"}}, {"is_disabled": 0, "fusion_lat": 0.0, "lat": 38.8935305, "type": "electric_scooter", "lon": -77.00333216666667, "is_reserved": 0, "fusion_lon": 0.0, "bike_id": "b0ead3ffdd241490650d6faed1e6e53b", "name": "b0ead3ffdd241490650d6faed1e6e53b", "rental_uris": {"ios": "https://dc.lft.to/lastmile_qr_scan", "android": "https://dc.lft.to/lastmile_qr_scan"}}, {"is_disabled": 0, "fusion_lat": 0.0, "lat": 38.900105833333335, "type": "electric_scooter", "lon": -76.99792883333333, "is_reserved": 0, "fusion_lon": 0.0, "bike_id": "2a7b3d1306e4514d666c134ceeb208a0", "name": "2a7b3d1306e4514d666c134ceeb208a0", "rental_uris": {"ios": "https://dc.lft.to/lastmile_qr_scan", "android": "https://dc.lft.to/lastmile_qr_scan"}}, {"is_disabled": 0, "fusion_lat": 0.0, "lat": 38.910957333333336, "type": "electric_scooter", "lon": -77.03179283333333, "is_reserved": 0, "fusion_lon": 0.0, "bike_id": "8813c0773d39c174cd6508d7e3c4bac9", "name": "8813c0773d39c174cd6508d7e3c4bac9", "rental_uris": {"ios": "https://dc.lft.to/lastmile_qr_scan", "android": "https://dc.lft.to/lastmile_qr_scan"}}, {"is_disabled": 0, "fusion_lat": 0.0, "lat": 38.91546316666667, "type": "electric_scooter", "lon": -77.03844566666666, "is_reserved": 0, "fusion_lon": 0.0, "bike_id": "b366c4b827f680062b83b55ae8d907bf", "name": "b366c4b827f680062b83b55ae8d907bf", "rental_uris": {"ios": "https://dc.lft.to/lastmile_qr_scan", "android": "https://dc.lft.to/lastmile_qr_scan"}}, {"is_disabled": 0, "fusion_lat": 0.0, "lat": 38.93081983333333, "type": "electric_scooter", "lon": -77.02795033333334, "is_reserved": 0, "fusion_lon": 0.0, "bike_id": "fca8ce80e4b7166669bc03e4daaa1bda", "name": "fca8ce80e4b7166669bc03e4daaa1bda", "rental_uris": {"ios": "https://dc.lft.to/lastmile_qr_scan", "android": "https://dc.lft.to/lastmile_qr_scan"}}, {"is_disabled": 0, "fusion_lat": 0.0, "lat": 38.852218, "type": "electric_bike", "lon": -77.129561, "is_reserved": 0, "fusion_lon": 0.0, "bike_id": "4822cb5ef1723ec3937bcc07819661bc", "name": "4822cb5ef1723ec3937bcc07819661bc", "rental_uris": {"ios": "https://dc.lft.to/lastmile_qr_scan", "android": "https://dc.lft.to/lastmile_qr_scan"}}, {"is_disabled": 0, "fusion_lat": 0.0, "lat": 38.8922205, "type": "electric_scooter", "lon": -77.02138233333334, "is_reserved": 0, "fusion_lon": 0.0, "bike_id": "1643274c479d549ff0f8ffb0d7cdfa16", "name": "1643274c479d549ff0f8ffb0d7cdfa16", "rental_uris": {"ios": "https://dc.lft.to/lastmile_qr_scan", "android": "https://dc.lft.to/lastmile_qr_scan"}}, {"is_disabled": 0, "fusion_lat": 0.0, "lat": 38.86593633333333, "type": "electric_bike", "lon": -76.93231866666666, "is_reserved": 0, "fusion_lon": 0.0, "bike_id": "c8b4e800d42fa6c7c8b6649c92bb5546", "name": "c8b4e800d42fa6c7c8b6649c92bb5546", "rental_uris": {"ios": "https://dc.lft.to/lastmile_qr_scan", "android": "https://dc.lft.to/lastmile_qr_scan"}}, {"is_disabled": 0, "fusion_lat": 0.0, "lat": 38.98465366666667, "type": "electric_bike", "lon": -76.95529383333333, "is_reserved": 0, "fusion_lon": 0.0, "bike_id": "ce488a17b5bdc8a82e9f9b613a14c7ce", "name": "ce488a17b5bdc8a82e9f9b613a14c7ce", "rental_uris": {"ios": "https://dc.lft.to/lastmile_qr_scan", "android": "https://dc.lft.to/lastmile_qr_scan"}}, {"is_disabled": 0, "fusion_lat": 0.0, "lat": 38.902763, "type": "electric_scooter", "lon": -77.040538, "is_reserved": 0, "fusion_lon": 0.0, "bike_id": "2f1ae14ef044534bf0be1909771e810b", "name": "2f1ae14ef044534bf0be1909771e810b", "rental_uris": {"ios": "https://dc.lft.to/lastmile_qr_scan", "android": "https://dc.lft.to/lastmile_qr_scan"}}, {"is_disabled": 0, "fusion_lat": 0.0, "lat": 38.98596283333333, "type": "electric_bike", "lon": -77.0375315, "is_reserved": 0, "fusion_lon": 0.0, "bike_id": "c9fdbb71878e583d20229bdb2c120fad", "name": "c9fdbb71878e583d20229bdb2c120fad", "rental_uris": {"ios": "https://dc.lft.to/lastmile_qr_scan", "android": "https://dc.lft.to/lastmile_qr_scan"}}, {"is_disabled": 0, "fusion_lat": 0.0, "lat": 38.942729, "type": "electric_scooter", "lon": -77.0325595, "is_reserved": 0, "fusion_lon": 0.0, "bike_id": "83c4df9a08194a74142ba9e2229134f0", "name": "83c4df9a08194a74142ba9e2229134f0", "rental_uris": {"ios": "https://dc.lft.to/lastmile_qr_scan", "android": "https://dc.lft.to/lastmile_qr_scan"}}, {"is_disabled": 0, "fusion_lat": 0.0, "lat": 38.923422333333335, "type": "electric_scooter", "lon": -77.01907483333333, "is_reserved": 0, "fusion_lon": 0.0, "bike_id": "16ec38428135efbdd526b01d5457cb44", "name": "16ec38428135efbdd526b01d5457cb44", "rental_uris": {"ios": "https://dc.lft.to/lastmile_qr_scan", "android": "https://dc.lft.to/lastmile_qr_scan"}}, {"is_disabled": 0, "fusion_lat": 0.0, "lat": 38.908471166666665, "type": "electric_scooter", "lon": -77.03187833333334, "is_reserved": 0, "fusion_lon": 0.0, "bike_id": "54c4eca08e5f818bfd14405e9091375a", "name": "54c4eca08e5f818bfd14405e9091375a", "rental_uris": {"ios": "https://dc.lft.to/lastmile_qr_scan", "android": "https://dc.lft.to/lastmile_qr_scan"}}, {"is_disabled": 0, "fusion_lat": 0.0, "lat": 38.911059333333334, "type": "electric_scooter", "lon": -77.04499766666666, "is_reserved": 0, "fusion_lon": 0.0, "bike_id": "c3fc05938c91bf85aaf8a2a1deb0c376", "name": "c3fc05938c91bf85aaf8a2a1deb0c376", "rental_uris": {"ios": "https://dc.lft.to/lastmile_qr_scan", "android": "https://dc.lft.to/lastmile_qr_scan"}}, {"is_disabled": 0, "fusion_lat": 0.0, "lat": 38.9213235, "type": "electric_scooter", "lon": -77.01797483333333, "is_reserved": 0, "fusion_lon": 0.0, "bike_id": "ad3716a4c5fe81907025d244c5e2ea49", "name": "ad3716a4c5fe81907025d244c5e2ea49", "rental_uris": {"ios": "https://dc.lft.to/lastmile_qr_scan", "android": "https://dc.lft.to/lastmile_qr_scan"}}, {"is_disabled": 0, "fusion_lat": 0.0, "lat": 38.921699, "type": "electric_scooter", "lon": -77.05137216666667, "is_reserved": 0, "fusion_lon": 0.0, "bike_id": "999abc722b7faa0d827ffbcd093b3813", "name": "999abc722b7faa0d827ffbcd093b3813", "rental_uris": {"ios": "https://dc.lft.to/lastmile_qr_scan", "android": "https://dc.lft.to/lastmile_qr_scan"}}, {"is_disabled": 0, "fusion_lat": 0.0, "lat": 38.93247316666667, "type": "electric_scooter", "lon": -77.02970433333333, "is_reserved": 0, "fusion_lon": 0.0, "bike_id": "a881167bcda0180b2dbd2c6403c00764", "name": "a881167bcda0180b2dbd2c6403c00764", "rental_uris": {"ios": "https://dc.lft.to/lastmile_qr_scan", "android": "https://dc.lft.to/lastmile_qr_scan"}}, {"is_disabled": 0, "fusion_lat": 0.0, "lat": 38.9006085, "type": "electric_scooter", "lon": -77.04588666666666, "is_reserved": 0, "fusion_lon": 0.0, "bike_id": "3d25721dd24aad5069923f31068a8d14", "name": "3d25721dd24aad5069923f31068a8d14", "rental_uris": {"ios": "https://dc.lft.to/lastmile_qr_scan", "android": "https://dc.lft.to/lastmile_qr_scan"}}, {"is_disabled": 0, "fusion_lat": 0.0, "lat": 38.938247, "type": "electric_scooter", "lon": -77.06174366666667, "is_reserved": 0, "fusion_lon": 0.0, "bike_id": "81e5a6236c61447b5dcf35e461f63295", "name": "81e5a6236c61447b5dcf35e461f63295", "rental_uris": {"ios": "https://dc.lft.to/lastmile_qr_scan", "android": "https://dc.lft.to/lastmile_qr_scan"}}, {"is_disabled": 0, "fusion_lat": 0.0, "lat": 38.898364666666666, "type": "electric_scooter", "lon": -76.93102566666667, "is_reserved": 0, "fusion_lon": 0.0, "bike_id": "7847b65d7c24c21d0720f0b163a34b60", "name": "7847b65d7c24c21d0720f0b163a34b60", "rental_uris": {"ios": "https://dc.lft.to/lastmile_qr_scan", "android": "https://dc.lft.to/lastmile_qr_scan"}}, {"is_disabled": 0, "fusion_lat": 0.0, "lat": 38.966037166666666, "type": "electric_bike", "lon": -76.98333883333333, "is_reserved": 0, "fusion_lon": 0.0, "bike_id": "4b228d8b808766caf45014e1dfcdd58c", "name": "4b228d8b808766caf45014e1dfcdd58c", "rental_uris": {"ios": "https://dc.lft.to/lastmile_qr_scan", "android": "https://dc.lft.to/lastmile_qr_scan"}}, {"is_disabled": 0, "fusion_lat": 0.0, "lat": 38.92702533333333, "type": "electric_scooter", "lon": -77.02325066666667, "is_reserved": 0, "fusion_lon": 0.0, "bike_id": "29f043dcc4ce77068e566eedb86a5395", "name": "29f043dcc4ce77068e566eedb86a5395", "rental_uris": {"ios": "https://dc.lft.to/lastmile_qr_scan", "android": "https://dc.lft.to/lastmile_qr_scan"}}, {"is_disabled": 0, "fusion_lat": 0.0, "lat": 38.91475633333334, "type": "electric_scooter", "lon": -77.03219566666667, "is_reserved": 0, "fusion_lon": 0.0, "bike_id": "b4d218c37037e75b75f49ca5ea46badd", "name": "b4d218c37037e75b75f49ca5ea46badd", "rental_uris": {"ios": "https://dc.lft.to/lastmile_qr_scan", "android": "https://dc.lft.to/lastmile_qr_scan"}}, {"is_disabled": 0, "fusion_lat": 0.0, "lat": 38.92525033333333, "type": "electric_scooter", "lon": -77.04121016666667, "is_reserved": 0, "fusion_lon": 0.0, "bike_id": "a29916ef8759a97435ad244f5411c14b", "name": "a29916ef8759a97435ad244f5411c14b", "rental_uris": {"ios": "https://dc.lft.to/lastmile_qr_scan", "android": "https://dc.lft.to/lastmile_qr_scan"}}, {"is_disabled": 0, "fusion_lat": 0.0, "lat": 38.91489983333334, "type": "electric_scooter", "lon": -77.04638633333333, "is_reserved": 0, "fusion_lon": 0.0, "bike_id": "cbb6249a00a833452c019f4d5b3215af", "name": "cbb6249a00a833452c019f4d5b3215af", "rental_uris": {"ios": "https://dc.lft.to/lastmile_qr_scan", "android": "https://dc.lft.to/lastmile_qr_scan"}}, {"is_disabled": 0, "fusion_lat": 0.0, "lat": 38.891974833333336, "type": "electric_scooter", "lon": -77.03109466666666, "is_reserved": 0, "fusion_lon": 0.0, "bike_id": "09eb346205d49022763f2b1b6c41a752", "name": "09eb346205d49022763f2b1b6c41a752", "rental_uris": {"ios": "https://dc.lft.to/lastmile_qr_scan", "android": "https://dc.lft.to/lastmile_qr_scan"}}, {"is_disabled": 0, "fusion_lat": 0.0, "lat": 38.905738166666666, "type": "electric_scooter", "lon": -77.022045, "is_reserved": 0, "fusion_lon": 0.0, "bike_id": "0f9a2b7f96d8f2fc708e89b4bbd3878b", "name": "0f9a2b7f96d8f2fc708e89b4bbd3878b", "rental_uris": {"ios": "https://dc.lft.to/lastmile_qr_scan", "android": "https://dc.lft.to/lastmile_qr_scan"}}, {"is_disabled": 0, "fusion_lat": 0.0, "lat": 38.90484416666666, "type": "electric_scooter", "lon": -77.05332766666666, "is_reserved": 0, "fusion_lon": 0.0, "bike_id": "ac62bf79200331f167e952976a60a959", "name": "ac62bf79200331f167e952976a60a959", "rental_uris": {"ios": "https://dc.lft.to/lastmile_qr_scan", "android": "https://dc.lft.to/lastmile_qr_scan"}}, {"is_disabled": 0, "fusion_lat": 0.0, "lat": 38.90964, "type": "electric_scooter", "lon": -77.03233533333334, "is_reserved": 0, "fusion_lon": 0.0, "bike_id": "fac6aa99c20eada315252b5acd9dc3b0", "name": "fac6aa99c20eada315252b5acd9dc3b0", "rental_uris": {"ios": "https://dc.lft.to/lastmile_qr_scan", "android": "https://dc.lft.to/lastmile_qr_scan"}}, {"is_disabled": 0, "fusion_lat": 0.0, "lat": 38.96702116666667, "type": "electric_bike", "lon": -77.10222166666667, "is_reserved": 0, "fusion_lon": 0.0, "bike_id": "dd126c9315bd4c36feab4e668f511d45", "name": "dd126c9315bd4c36feab4e668f511d45", "rental_uris": {"ios": "https://dc.lft.to/lastmile_qr_scan", "android": "https://dc.lft.to/lastmile_qr_scan"}}, {"is_disabled": 0, "fusion_lat": 0.0, "lat": 38.9140455, "type": "electric_scooter", "lon": -77.02048133333334, "is_reserved": 0, "fusion_lon": 0.0, "bike_id": "a22e958529ca02e1dbb31cc45f8b4e8e", "name": "a22e958529ca02e1dbb31cc45f8b4e8e", "rental_uris": {"ios": "https://dc.lft.to/lastmile_qr_scan", "android": "https://dc.lft.to/lastmile_qr_scan"}}, {"is_disabled": 0, "fusion_lat": 0.0, "lat": 38.919760833333335, "type": "electric_scooter", "lon": -77.041865, "is_reserved": 0, "fusion_lon": 0.0, "bike_id": "26934cc37ff9420468c45289fe6aaf10", "name": "26934cc37ff9420468c45289fe6aaf10", "rental_uris": {"ios": "https://dc.lft.to/lastmile_qr_scan", "android": "https://dc.lft.to/lastmile_qr_scan"}}, {"is_disabled": 0, "fusion_lat": 0.0, "lat": 38.88926883333333, "type": "electric_scooter", "lon": -76.97375483333333, "is_reserved": 0, "fusion_lon": 0.0, "bike_id": "6e07e5c99c586a665a91da5ef4bb086b", "name": "6e07e5c99c586a665a91da5ef4bb086b", "rental_uris": {"ios": "https://dc.lft.to/lastmile_qr_scan", "android": "https://dc.lft.to/lastmile_qr_scan"}}, {"is_disabled": 0, "fusion_lat": 0.0, "lat": 38.89763883333333, "type": "electric_scooter", "lon": -77.0269005, "is_reserved": 0, "fusion_lon": 0.0, "bike_id": "711daa4ecc2d7f98b603912cbc1aa74f", "name": "711daa4ecc2d7f98b603912cbc1aa74f", "rental_uris": {"ios": "https://dc.lft.to/lastmile_qr_scan", "android": "https://dc.lft.to/lastmile_qr_scan"}}, {"is_disabled": 0, "fusion_lat": 0.0, "lat": 38.921061333333334, "type": "electric_scooter", "lon": -77.04212283333334, "is_reserved": 0, "fusion_lon": 0.0, "bike_id": "26f1b627542c00b91ebd423c90e43339", "name": "26f1b627542c00b91ebd423c90e43339", "rental_uris": {"ios": "https://dc.lft.to/lastmile_qr_scan", "android": "https://dc.lft.to/lastmile_qr_scan"}}, {"is_disabled": 0, "fusion_lat": 0.0, "lat": 38.93233466666667, "type": "electric_bike", "lon": -76.9742305, "is_reserved": 0, "fusion_lon": 0.0, "bike_id": "73b0668c404ac544977299314ff4fe84", "name": "73b0668c404ac544977299314ff4fe84", "rental_uris": {"ios": "https://dc.lft.to/lastmile_qr_scan", "android": "https://dc.lft.to/lastmile_qr_scan"}}, {"is_disabled": 0, "fusion_lat": 0.0, "lat": 38.914948, "type": "electric_scooter", "lon": -77.03642466666666, "is_reserved": 0, "fusion_lon": 0.0, "bike_id": "b2fb9acc57a368fca76e8d2eeb21c225", "name": "b2fb9acc57a368fca76e8d2eeb21c225", "rental_uris": {"ios": "https://dc.lft.to/lastmile_qr_scan", "android": "https://dc.lft.to/lastmile_qr_scan"}}, {"is_disabled": 0, "fusion_lat": 0.0, "lat": 38.903704, "type": "electric_scooter", "lon": -77.04179016666667, "is_reserved": 0, "fusion_lon": 0.0, "bike_id": "2c6c1db12299b6cd5938aaeee4d0c7a8", "name": "2c6c1db12299b6cd5938aaeee4d0c7a8", "rental_uris": {"ios": "https://dc.lft.to/lastmile_qr_scan", "android": "https://dc.lft.to/lastmile_qr_scan"}}, {"is_disabled": 0, "fusion_lat": 0.0, "lat": 38.912554666666665, "type": "electric_scooter", "lon": -77.03498133333333, "is_reserved": 0, "fusion_lon": 0.0, "bike_id": "5959628a33e920f06bb7d64856185603", "name": "5959628a33e920f06bb7d64856185603", "rental_uris": {"ios": "https://dc.lft.to/lastmile_qr_scan", "android": "https://dc.lft.to/lastmile_qr_scan"}}, {"is_disabled": 0, "fusion_lat": 0.0, "lat": 38.90903483333334, "type": "electric_scooter", "lon": -77.04205333333333, "is_reserved": 0, "fusion_lon": 0.0, "bike_id": "abfdc627ac7c9f841d9db79ade7711f8", "name": "abfdc627ac7c9f841d9db79ade7711f8", "rental_uris": {"ios": "https://dc.lft.to/lastmile_qr_scan", "android": "https://dc.lft.to/lastmile_qr_scan"}}, {"is_disabled": 0, "fusion_lat": 0.0, "lat": 38.885907333333336, "type": "electric_scooter", "lon": -77.00063616666667, "is_reserved": 0, "fusion_lon": 0.0, "bike_id": "123e6b0ee9af9758f5d41d0e68293b78", "name": "123e6b0ee9af9758f5d41d0e68293b78", "rental_uris": {"ios": "https://dc.lft.to/lastmile_qr_scan", "android": "https://dc.lft.to/lastmile_qr_scan"}}, {"is_disabled": 0, "fusion_lat": 0.0, "lat": 38.8968035, "type": "electric_scooter", "lon": -76.935328, "is_reserved": 0, "fusion_lon": 0.0, "bike_id": "efc5ab6f607338ded1084341c3c9a5d6", "name": "efc5ab6f607338ded1084341c3c9a5d6", "rental_uris": {"ios": "https://dc.lft.to/lastmile_qr_scan", "android": "https://dc.lft.to/lastmile_qr_scan"}}, {"is_disabled": 0, "fusion_lat": 0.0, "lat": 38.8956055, "type": "electric_scooter", "lon": -77.029339, "is_reserved": 0, "fusion_lon": 0.0, "bike_id": "f55039a3f915d549cc2f2c3e80a315c8", "name": "f55039a3f915d549cc2f2c3e80a315c8", "rental_uris": {"ios": "https://dc.lft.to/lastmile_qr_scan", "android": "https://dc.lft.to/lastmile_qr_scan"}}, {"is_disabled": 0, "fusion_lat": 0.0, "lat": 38.91527283333333, "type": "electric_scooter", "lon": -77.04492216666667, "is_reserved": 0, "fusion_lon": 0.0, "bike_id": "d97e866f7933c052002ba50dbc833462", "name": "d97e866f7933c052002ba50dbc833462", "rental_uris": {"ios": "https://dc.lft.to/lastmile_qr_scan", "android": "https://dc.lft.to/lastmile_qr_scan"}}, {"is_disabled": 0, "fusion_lat": 0.0, "lat": 38.91973683333333, "type": "electric_scooter", "lon": -77.02370683333334, "is_reserved": 0, "fusion_lon": 0.0, "bike_id": "613dc6980105fcf9e07b5106a9e70771", "name": "613dc6980105fcf9e07b5106a9e70771", "rental_uris": {"ios": "https://dc.lft.to/lastmile_qr_scan", "android": "https://dc.lft.to/lastmile_qr_scan"}}, {"is_disabled": 0, "fusion_lat": 0.0, "lat": 38.88127133333333, "type": "electric_bike", "lon": -77.01663016666667, "is_reserved": 0, "fusion_lon": 0.0, "bike_id": "cd66aa9e2e60e6fdcd3281ebc064da1b", "name": "cd66aa9e2e60e6fdcd3281ebc064da1b", "rental_uris": {"ios": "https://dc.lft.to/lastmile_qr_scan", "android": "https://dc.lft.to/lastmile_qr_scan"}}, {"is_disabled": 0, "fusion_lat": 0.0, "lat": 38.90342366666667, "type": "electric_scooter", "lon": -76.9724555, "is_reserved": 0, "fusion_lon": 0.0, "bike_id": "9130fed5e296cf5dd5d015ab146c5e5f", "name": "9130fed5e296cf5dd5d015ab146c5e5f", "rental_uris": {"ios": "https://dc.lft.to/lastmile_qr_scan", "android": "https://dc.lft.to/lastmile_qr_scan"}}, {"is_disabled": 0, "fusion_lat": 0.0, "lat": 38.86621366666667, "type": "electric_scooter", "lon": -76.98669033333333, "is_reserved": 0, "fusion_lon": 0.0, "bike_id": "03b0cbf4e6b6ca1749f91475bf914633", "name": "03b0cbf4e6b6ca1749f91475bf914633", "rental_uris": {"ios": "https://dc.lft.to/lastmile_qr_scan", "android": "https://dc.lft.to/lastmile_qr_scan"}}, {"is_disabled": 0, "fusion_lat": 0.0, "lat": 38.90186466666667, "type": "electric_scooter", "lon": -77.021695, "is_reserved": 0, "fusion_lon": 0.0, "bike_id": "2d18707abfd8ff47fe755897bf814309", "name": "2d18707abfd8ff47fe755897bf814309", "rental_uris": {"ios": "https://dc.lft.to/lastmile_qr_scan", "android": "https://dc.lft.to/lastmile_qr_scan"}}, {"is_disabled": 0, "fusion_lat": 0.0, "lat": 38.9101065, "type": "electric_scooter", "lon": -76.99385966666667, "is_reserved": 0, "fusion_lon": 0.0, "bike_id": "4ab639703d38f04464b9ad7907183985", "name": "4ab639703d38f04464b9ad7907183985", "rental_uris": {"ios": "https://dc.lft.to/lastmile_qr_scan", "android": "https://dc.lft.to/lastmile_qr_scan"}}, {"is_disabled": 0, "fusion_lat": 0.0, "lat": 38.892204, "type": "electric_scooter", "lon": -77.04373683333333, "is_reserved": 0, "fusion_lon": 0.0, "bike_id": "96ea2108c86f1434f93406e48cdbc1d3", "name": "96ea2108c86f1434f93406e48cdbc1d3", "rental_uris": {"ios": "https://dc.lft.to/lastmile_qr_scan", "android": "https://dc.lft.to/lastmile_qr_scan"}}, {"is_disabled": 0, "fusion_lat": 0.0, "lat": 38.92361433333333, "type": "electric_scooter", "lon": -77.05090033333333, "is_reserved": 0, "fusion_lon": 0.0, "bike_id": "3ef6e3068c7d5b6a9446c5e6a956899d", "name": "3ef6e3068c7d5b6a9446c5e6a956899d", "rental_uris": {"ios": "https://dc.lft.to/lastmile_qr_scan", "android": "https://dc.lft.to/lastmile_qr_scan"}}, {"is_disabled": 0, "fusion_lat": 0.0, "lat": 38.96144283333334, "type": "electric_bike", "lon": -77.03236033333333, "is_reserved": 0, "fusion_lon": 0.0, "bike_id": "4a2489e89ef0c474d265913cce0f96cc", "name": "4a2489e89ef0c474d265913cce0f96cc", "rental_uris": {"ios": "https://dc.lft.to/lastmile_qr_scan", "android": "https://dc.lft.to/lastmile_qr_scan"}}, {"is_disabled": 0, "fusion_lat": 0.0, "lat": 38.89218433333333, "type": "electric_scooter", "lon": -77.02846866666667, "is_reserved": 0, "fusion_lon": 0.0, "bike_id": "f969511ddde57ba085d7fbab6f8c26c1", "name": "f969511ddde57ba085d7fbab6f8c26c1", "rental_uris": {"ios": "https://dc.lft.to/lastmile_qr_scan", "android": "https://dc.lft.to/lastmile_qr_scan"}}, {"is_disabled": 0, "fusion_lat": 0.0, "lat": 38.89036566666667, "type": "electric_scooter", "lon": -76.93752366666666, "is_reserved": 0, "fusion_lon": 0.0, "bike_id": "304821cfa4da7e6e691ef3c0864d3198", "name": "304821cfa4da7e6e691ef3c0864d3198", "rental_uris": {"ios": "https://dc.lft.to/lastmile_qr_scan", "android": "https://dc.lft.to/lastmile_qr_scan"}}, {"is_disabled": 0, "fusion_lat": 0.0, "lat": 38.904471, "type": "electric_scooter", "lon": -77.05919366666667, "is_reserved": 0, "fusion_lon": 0.0, "bike_id": "998db2963af048a5f7f4889837f2b789", "name": "998db2963af048a5f7f4889837f2b789", "rental_uris": {"ios": "https://dc.lft.to/lastmile_qr_scan", "android": "https://dc.lft.to/lastmile_qr_scan"}}, {"is_disabled": 0, "fusion_lat": 0.0, "lat": 38.900344, "type": "electric_scooter", "lon": -77.03339933333334, "is_reserved": 0, "fusion_lon": 0.0, "bike_id": "ef595a221f842f06d70dddfc35f613a9", "name": "ef595a221f842f06d70dddfc35f613a9", "rental_uris": {"ios": "https://dc.lft.to/lastmile_qr_scan", "android": "https://dc.lft.to/lastmile_qr_scan"}}, {"is_disabled": 0, "fusion_lat": 0.0, "lat": 38.8975875, "type": "electric_scooter", "lon": -76.94182433333333, "is_reserved": 0, "fusion_lon": 0.0, "bike_id": "71e52f79a20ccf291c1bfae4c5689bef", "name": "71e52f79a20ccf291c1bfae4c5689bef", "rental_uris": {"ios": "https://dc.lft.to/lastmile_qr_scan", "android": "https://dc.lft.to/lastmile_qr_scan"}}, {"is_disabled": 0, "fusion_lat": 0.0, "lat": 38.90619983333333, "type": "electric_scooter", "lon": -77.043298, "is_reserved": 0, "fusion_lon": 0.0, "bike_id": "7007177202e0ff812b952ff3e53c7485", "name": "7007177202e0ff812b952ff3e53c7485", "rental_uris": {"ios": "https://dc.lft.to/lastmile_qr_scan", "android": "https://dc.lft.to/lastmile_qr_scan"}}, {"is_disabled": 0, "fusion_lat": 0.0, "lat": 38.9036075, "type": "electric_scooter", "lon": -77.04533883333333, "is_reserved": 0, "fusion_lon": 0.0, "bike_id": "15f4a8ce07917e930e8dcc322b18cbc2", "name": "15f4a8ce07917e930e8dcc322b18cbc2", "rental_uris": {"ios": "https://dc.lft.to/lastmile_qr_scan", "android": "https://dc.lft.to/lastmile_qr_scan"}}, {"is_disabled": 0, "fusion_lat": 0.0, "lat": 38.92583, "type": "electric_scooter", "lon": -77.05052666666667, "is_reserved": 0, "fusion_lon": 0.0, "bike_id": "7eb7f029c3e692c69e4e6d4366a269c7", "name": "7eb7f029c3e692c69e4e6d4366a269c7", "rental_uris": {"ios": "https://dc.lft.to/lastmile_qr_scan", "android": "https://dc.lft.to/lastmile_qr_scan"}}, {"is_disabled": 0, "fusion_lat": 0.0, "lat": 38.855179666666665, "type": "electric_bike", "lon": -76.984223, "is_reserved": 0, "fusion_lon": 0.0, "bike_id": "ab8e682090ebf5b441ece6266d71787e", "name": "ab8e682090ebf5b441ece6266d71787e", "rental_uris": {"ios": "https://dc.lft.to/lastmile_qr_scan", "android": "https://dc.lft.to/lastmile_qr_scan"}}, {"is_disabled": 0, "fusion_lat": 0.0, "lat": 38.91687866666667, "type": "electric_scooter", "lon": -77.02956916666666, "is_reserved": 0, "fusion_lon": 0.0, "bike_id": "f7a9b9730fd1500909b9a0f5eac23466", "name": "f7a9b9730fd1500909b9a0f5eac23466", "rental_uris": {"ios": "https://dc.lft.to/lastmile_qr_scan", "android": "https://dc.lft.to/lastmile_qr_scan"}}, {"is_disabled": 0, "fusion_lat": 0.0, "lat": 38.884334, "type": "electric_scooter", "lon": -76.95761916666666, "is_reserved": 0, "fusion_lon": 0.0, "bike_id": "dc9b3a8e2228e2f0e8d7d969fa7804ab", "name": "dc9b3a8e2228e2f0e8d7d969fa7804ab", "rental_uris": {"ios": "https://dc.lft.to/lastmile_qr_scan", "android": "https://dc.lft.to/lastmile_qr_scan"}}, {"is_disabled": 0, "fusion_lat": 0.0, "lat": 38.911555666666665, "type": "electric_scooter", "lon": -77.01993133333333, "is_reserved": 0, "fusion_lon": 0.0, "bike_id": "1935aa623b1808e2ed254d2889bf9a32", "name": "1935aa623b1808e2ed254d2889bf9a32", "rental_uris": {"ios": "https://dc.lft.to/lastmile_qr_scan", "android": "https://dc.lft.to/lastmile_qr_scan"}}, {"is_disabled": 0, "fusion_lat": 0.0, "lat": 38.8978245, "type": "electric_scooter", "lon": -77.03202966666667, "is_reserved": 0, "fusion_lon": 0.0, "bike_id": "380cf2d956b0b407b179735af2f652ad", "name": "380cf2d956b0b407b179735af2f652ad", "rental_uris": {"ios": "https://dc.lft.to/lastmile_qr_scan", "android": "https://dc.lft.to/lastmile_qr_scan"}}, {"is_disabled": 0, "fusion_lat": 0.0, "lat": 38.905538666666665, "type": "electric_scooter", "lon": -77.046583, "is_reserved": 0, "fusion_lon": 0.0, "bike_id": "48715ba9777398da72ba7419acbc2d00", "name": "48715ba9777398da72ba7419acbc2d00", "rental_uris": {"ios": "https://dc.lft.to/lastmile_qr_scan", "android": "https://dc.lft.to/lastmile_qr_scan"}}, {"is_disabled": 0, "fusion_lat": 0.0, "lat": 38.857885833333334, "type": "electric_bike", "lon": -77.09960466666666, "is_reserved": 0, "fusion_lon": 0.0, "bike_id": "e4bebaaab857d8513524110c025afdd2", "name": "e4bebaaab857d8513524110c025afdd2", "rental_uris": {"ios": "https://dc.lft.to/lastmile_qr_scan", "android": "https://dc.lft.to/lastmile_qr_scan"}}, {"is_disabled": 0, "fusion_lat": 0.0, "lat": 38.91661466666667, "type": "electric_scooter", "lon": -77.02712, "is_reserved": 0, "fusion_lon": 0.0, "bike_id": "d8723ec4e654a73d6b55482c58d7413c", "name": "d8723ec4e654a73d6b55482c58d7413c", "rental_uris": {"ios": "https://dc.lft.to/lastmile_qr_scan", "android": "https://dc.lft.to/lastmile_qr_scan"}}, {"is_disabled": 0, "fusion_lat": 0.0, "lat": 38.894586833333335, "type": "electric_scooter", "lon": -77.04676383333333, "is_reserved": 0, "fusion_lon": 0.0, "bike_id": "0cc6b4ba5b436e1630a1b4d700a14735", "name": "0cc6b4ba5b436e1630a1b4d700a14735", "rental_uris": {"ios": "https://dc.lft.to/lastmile_qr_scan", "android": "https://dc.lft.to/lastmile_qr_scan"}}, {"is_disabled": 0, "fusion_lat": 0.0, "lat": 38.91109333333333, "type": "electric_scooter", "lon": -77.02229183333333, "is_reserved": 0, "fusion_lon": 0.0, "bike_id": "7c0b986736f45c7ab89f730cd1161cda", "name": "7c0b986736f45c7ab89f730cd1161cda", "rental_uris": {"ios": "https://dc.lft.to/lastmile_qr_scan", "android": "https://dc.lft.to/lastmile_qr_scan"}}, {"is_disabled": 0, "fusion_lat": 0.0, "lat": 38.892383833333334, "type": "electric_scooter", "lon": -77.0280605, "is_reserved": 0, "fusion_lon": 0.0, "bike_id": "f0ee9a63be514f8c750a0c53605498df", "name": "f0ee9a63be514f8c750a0c53605498df", "rental_uris": {"ios": "https://dc.lft.to/lastmile_qr_scan", "android": "https://dc.lft.to/lastmile_qr_scan"}}, {"is_disabled": 0, "fusion_lat": 0.0, "lat": 38.89046116666667, "type": "electric_scooter", "lon": -76.93752166666667, "is_reserved": 0, "fusion_lon": 0.0, "bike_id": "f15cbf1e81cf0975d1d013ac7b605c78", "name": "f15cbf1e81cf0975d1d013ac7b605c78", "rental_uris": {"ios": "https://dc.lft.to/lastmile_qr_scan", "android": "https://dc.lft.to/lastmile_qr_scan"}}, {"is_disabled": 0, "fusion_lat": 0.0, "lat": 38.902983166666665, "type": "electric_scooter", "lon": -76.99257483333334, "is_reserved": 0, "fusion_lon": 0.0, "bike_id": "c903d9bc3e4643be7c828d33b653b6ed", "name": "c903d9bc3e4643be7c828d33b653b6ed", "rental_uris": {"ios": "https://dc.lft.to/lastmile_qr_scan", "android": "https://dc.lft.to/lastmile_qr_scan"}}, {"is_disabled": 0, "fusion_lat": 0.0, "lat": 38.947013166666665, "type": "electric_scooter", "lon": -77.09273316666666, "is_reserved": 0, "fusion_lon": 0.0, "bike_id": "71442dcf4cd60d1fc43469d4a6460d35", "name": "71442dcf4cd60d1fc43469d4a6460d35", "rental_uris": {"ios": "https://dc.lft.to/lastmile_qr_scan", "android": "https://dc.lft.to/lastmile_qr_scan"}}, {"is_disabled": 0, "fusion_lat": 0.0, "lat": 38.902931833333334, "type": "electric_scooter", "lon": -77.03840383333333, "is_reserved": 0, "fusion_lon": 0.0, "bike_id": "b211955a920e7b1ffdcc5d535cd76fa0", "name": "b211955a920e7b1ffdcc5d535cd76fa0", "rental_uris": {"ios": "https://dc.lft.to/lastmile_qr_scan", "android": "https://dc.lft.to/lastmile_qr_scan"}}, {"is_disabled": 0, "fusion_lat": 0.0, "lat": 38.844233333333335, "type": "electric_scooter", "lon": -76.99779333333333, "is_reserved": 0, "fusion_lon": 0.0, "bike_id": "f7527777c1132cf36f757de68a028e35", "name": "f7527777c1132cf36f757de68a028e35", "rental_uris": {"ios": "https://dc.lft.to/lastmile_qr_scan", "android": "https://dc.lft.to/lastmile_qr_scan"}}, {"is_disabled": 0, "fusion_lat": 0.0, "lat": 38.97327666666666, "type": "electric_bike", "lon": -77.02148766666667, "is_reserved": 0, "fusion_lon": 0.0, "bike_id": "50cc8d41321f7fa0adb4be45e2e5e1d4", "name": "50cc8d41321f7fa0adb4be45e2e5e1d4", "rental_uris": {"ios": "https://dc.lft.to/lastmile_qr_scan", "android": "https://dc.lft.to/lastmile_qr_scan"}}, {"is_disabled": 0, "fusion_lat": 0.0, "lat": 38.9097375, "type": "electric_scooter", "lon": -77.0343835, "is_reserved": 0, "fusion_lon": 0.0, "bike_id": "f466c80c64a4fd04d0c3b650a6f48e4a", "name": "f466c80c64a4fd04d0c3b650a6f48e4a", "rental_uris": {"ios": "https://dc.lft.to/lastmile_qr_scan", "android": "https://dc.lft.to/lastmile_qr_scan"}}, {"is_disabled": 0, "fusion_lat": 0.0, "lat": 38.89638433333333, "type": "electric_scooter", "lon": -77.02961116666667, "is_reserved": 0, "fusion_lon": 0.0, "bike_id": "1a85cb10a9f1f8915e3d46c0aa585b0b", "name": "1a85cb10a9f1f8915e3d46c0aa585b0b", "rental_uris": {"ios": "https://dc.lft.to/lastmile_qr_scan", "android": "https://dc.lft.to/lastmile_qr_scan"}}, {"is_disabled": 0, "fusion_lat": 0.0, "lat": 38.9184875, "type": "electric_scooter", "lon": -77.04504783333333, "is_reserved": 0, "fusion_lon": 0.0, "bike_id": "1fa47b84db51c25face2eddbdbe51c42", "name": "1fa47b84db51c25face2eddbdbe51c42", "rental_uris": {"ios": "https://dc.lft.to/lastmile_qr_scan", "android": "https://dc.lft.to/lastmile_qr_scan"}}, {"is_disabled": 0, "fusion_lat": 0.0, "lat": 38.9168295, "type": "electric_scooter", "lon": -77.02287916666667, "is_reserved": 0, "fusion_lon": 0.0, "bike_id": "a230f6c1078208959a2be4755af46d27", "name": "a230f6c1078208959a2be4755af46d27", "rental_uris": {"ios": "https://dc.lft.to/lastmile_qr_scan", "android": "https://dc.lft.to/lastmile_qr_scan"}}, {"is_disabled": 0, "fusion_lat": 0.0, "lat": 38.91165616666667, "type": "electric_scooter", "lon": -77.06858433333333, "is_reserved": 0, "fusion_lon": 0.0, "bike_id": "5bf4eaba6657cf7664fd70d31d2f5b4d", "name": "5bf4eaba6657cf7664fd70d31d2f5b4d", "rental_uris": {"ios": "https://dc.lft.to/lastmile_qr_scan", "android": "https://dc.lft.to/lastmile_qr_scan"}}, {"is_disabled": 0, "fusion_lat": 0.0, "lat": 38.925085, "type": "electric_scooter", "lon": -77.03880983333333, "is_reserved": 0, "fusion_lon": 0.0, "bike_id": "ba640e2c4a1c454e1fa5086d30b0ae33", "name": "ba640e2c4a1c454e1fa5086d30b0ae33", "rental_uris": {"ios": "https://dc.lft.to/lastmile_qr_scan", "android": "https://dc.lft.to/lastmile_qr_scan"}}, {"is_disabled": 0, "fusion_lat": 0.0, "lat": 38.94556933333333, "type": "electric_bike", "lon": -76.89536933333333, "is_reserved": 0, "fusion_lon": 0.0, "bike_id": "1fff6a8f1f287c670414f8383d86ceea", "name": "1fff6a8f1f287c670414f8383d86ceea", "rental_uris": {"ios": "https://dc.lft.to/lastmile_qr_scan", "android": "https://dc.lft.to/lastmile_qr_scan"}}, {"is_disabled": 0, "fusion_lat": 0.0, "lat": 38.89832583333333, "type": "electric_scooter", "lon": -76.94634283333333, "is_reserved": 0, "fusion_lon": 0.0, "bike_id": "b44c42963901869b216db915ca4b3cc4", "name": "b44c42963901869b216db915ca4b3cc4", "rental_uris": {"ios": "https://dc.lft.to/lastmile_qr_scan", "android": "https://dc.lft.to/lastmile_qr_scan"}}, {"is_disabled": 0, "fusion_lat": 0.0, "lat": 38.916158333333335, "type": "electric_scooter", "lon": -77.0315205, "is_reserved": 0, "fusion_lon": 0.0, "bike_id": "099d78933f1de48147ffb26669e198be", "name": "099d78933f1de48147ffb26669e198be", "rental_uris": {"ios": "https://dc.lft.to/lastmile_qr_scan", "android": "https://dc.lft.to/lastmile_qr_scan"}}, {"is_disabled": 0, "fusion_lat": 0.0, "lat": 38.89787416666667, "type": "electric_scooter", "lon": -77.03190866666667, "is_reserved": 0, "fusion_lon": 0.0, "bike_id": "5c43392452f835eea512e635ae53bffd", "name": "5c43392452f835eea512e635ae53bffd", "rental_uris": {"ios": "https://dc.lft.to/lastmile_qr_scan", "android": "https://dc.lft.to/lastmile_qr_scan"}}, {"is_disabled": 0, "fusion_lat": 0.0, "lat": 38.907100166666666, "type": "electric_scooter", "lon": -77.043425, "is_reserved": 0, "fusion_lon": 0.0, "bike_id": "a3575b20ce2754c11964bab77016a848", "name": "a3575b20ce2754c11964bab77016a848", "rental_uris": {"ios": "https://dc.lft.to/lastmile_qr_scan", "android": "https://dc.lft.to/lastmile_qr_scan"}}, {"is_disabled": 0, "fusion_lat": 0.0, "lat": 38.92995716666667, "type": "electric_scooter", "lon": -77.03271066666667, "is_reserved": 0, "fusion_lon": 0.0, "bike_id": "f1c402e7b9cba15a532998967bb545e0", "name": "f1c402e7b9cba15a532998967bb545e0", "rental_uris": {"ios": "https://dc.lft.to/lastmile_qr_scan", "android": "https://dc.lft.to/lastmile_qr_scan"}}, {"is_disabled": 0, "fusion_lat": 0.0, "lat": 38.9250485, "type": "electric_scooter", "lon": -77.03880066666666, "is_reserved": 0, "fusion_lon": 0.0, "bike_id": "4b3f459b40f5f2643cb41588411474bf", "name": "4b3f459b40f5f2643cb41588411474bf", "rental_uris": {"ios": "https://dc.lft.to/lastmile_qr_scan", "android": "https://dc.lft.to/lastmile_qr_scan"}}, {"is_disabled": 0, "fusion_lat": 0.0, "lat": 38.941516666666665, "type": "electric_scooter", "lon": -77.029816, "is_reserved": 0, "fusion_lon": 0.0, "bike_id": "e9095d1d7cf5980d14704c2520be1644", "name": "e9095d1d7cf5980d14704c2520be1644", "rental_uris": {"ios": "https://dc.lft.to/lastmile_qr_scan", "android": "https://dc.lft.to/lastmile_qr_scan"}}, {"is_disabled": 0, "fusion_lat": 0.0, "lat": 38.8937015, "type": "electric_scooter", "lon": -76.94959916666667, "is_reserved": 0, "fusion_lon": 0.0, "bike_id": "eb51572e692bc236eee662e87a1207d9", "name": "eb51572e692bc236eee662e87a1207d9", "rental_uris": {"ios": "https://dc.lft.to/lastmile_qr_scan", "android": "https://dc.lft.to/lastmile_qr_scan"}}, {"is_disabled": 0, "fusion_lat": 0.0, "lat": 38.846559666666664, "type": "electric_bike", "lon": -76.97932616666667, "is_reserved": 0, "fusion_lon": 0.0, "bike_id": "5b6f4d5911b6b7f48b8c050969ee232f", "name": "5b6f4d5911b6b7f48b8c050969ee232f", "rental_uris": {"ios": "https://dc.lft.to/lastmile_qr_scan", "android": "https://dc.lft.to/lastmile_qr_scan"}}, {"is_disabled": 0, "fusion_lat": 0.0, "lat": 38.8981775, "type": "electric_scooter", "lon": -77.03311633333334, "is_reserved": 0, "fusion_lon": 0.0, "bike_id": "3d64d24a1a5278b61e2263c3e09c68d7", "name": "3d64d24a1a5278b61e2263c3e09c68d7", "rental_uris": {"ios": "https://dc.lft.to/lastmile_qr_scan", "android": "https://dc.lft.to/lastmile_qr_scan"}}, {"is_disabled": 0, "fusion_lat": 0.0, "lat": 38.896201833333336, "type": "electric_scooter", "lon": -76.9985385, "is_reserved": 0, "fusion_lon": 0.0, "bike_id": "c001bf6a1a1533ffb8f488dbbaebbfb2", "name": "c001bf6a1a1533ffb8f488dbbaebbfb2", "rental_uris": {"ios": "https://dc.lft.to/lastmile_qr_scan", "android": "https://dc.lft.to/lastmile_qr_scan"}}, {"is_disabled": 0, "fusion_lat": 0.0, "lat": 38.93287483333334, "type": "electric_scooter", "lon": -77.0397615, "is_reserved": 0, "fusion_lon": 0.0, "bike_id": "3e27ef7b1595fa9fec23bdcccecc939e", "name": "3e27ef7b1595fa9fec23bdcccecc939e", "rental_uris": {"ios": "https://dc.lft.to/lastmile_qr_scan", "android": "https://dc.lft.to/lastmile_qr_scan"}}, {"is_disabled": 0, "fusion_lat": 0.0, "lat": 38.911000666666666, "type": "electric_scooter", "lon": -77.0483805, "is_reserved": 0, "fusion_lon": 0.0, "bike_id": "80e8d90008052e9c32b13ee607cd493e", "name": "80e8d90008052e9c32b13ee607cd493e", "rental_uris": {"ios": "https://dc.lft.to/lastmile_qr_scan", "android": "https://dc.lft.to/lastmile_qr_scan"}}, {"is_disabled": 0, "fusion_lat": 0.0, "lat": 38.89222066666667, "type": "electric_scooter", "lon": -77.046405, "is_reserved": 0, "fusion_lon": 0.0, "bike_id": "f8625d3cdb4e02f793bc57ed502e2579", "name": "f8625d3cdb4e02f793bc57ed502e2579", "rental_uris": {"ios": "https://dc.lft.to/lastmile_qr_scan", "android": "https://dc.lft.to/lastmile_qr_scan"}}, {"is_disabled": 0, "fusion_lat": 0.0, "lat": 38.905692333333334, "type": "electric_scooter", "lon": -77.03071583333333, "is_reserved": 0, "fusion_lon": 0.0, "bike_id": "d19d608777e88408e07339af6a0e2adf", "name": "d19d608777e88408e07339af6a0e2adf", "rental_uris": {"ios": "https://dc.lft.to/lastmile_qr_scan", "android": "https://dc.lft.to/lastmile_qr_scan"}}, {"is_disabled": 0, "fusion_lat": 0.0, "lat": 38.89642116666667, "type": "electric_scooter", "lon": -77.0267905, "is_reserved": 0, "fusion_lon": 0.0, "bike_id": "22ef076c3047882a42da3ebcf73cd203", "name": "22ef076c3047882a42da3ebcf73cd203", "rental_uris": {"ios": "https://dc.lft.to/lastmile_qr_scan", "android": "https://dc.lft.to/lastmile_qr_scan"}}, {"is_disabled": 0, "fusion_lat": 0.0, "lat": 38.8951595, "type": "electric_scooter", "lon": -77.02282766666667, "is_reserved": 0, "fusion_lon": 0.0, "bike_id": "0000c8ae681290db8cfb2143ba4c21ee", "name": "0000c8ae681290db8cfb2143ba4c21ee", "rental_uris": {"ios": "https://dc.lft.to/lastmile_qr_scan", "android": "https://dc.lft.to/lastmile_qr_scan"}}, {"is_disabled": 0, "fusion_lat": 0.0, "lat": 38.92850416666667, "type": "electric_scooter", "lon": -77.05427916666666, "is_reserved": 0, "fusion_lon": 0.0, "bike_id": "45e6f37cf520b3e3572a00159bc3ced4", "name": "45e6f37cf520b3e3572a00159bc3ced4", "rental_uris": {"ios": "https://dc.lft.to/lastmile_qr_scan", "android": "https://dc.lft.to/lastmile_qr_scan"}}, {"is_disabled": 0, "fusion_lat": 0.0, "lat": 38.87183433333333, "type": "electric_bike", "lon": -77.08409, "is_reserved": 0, "fusion_lon": 0.0, "bike_id": "a64b60b5e746ef8b5c04d18461ddab8f", "name": "a64b60b5e746ef8b5c04d18461ddab8f", "rental_uris": {"ios": "https://dc.lft.to/lastmile_qr_scan", "android": "https://dc.lft.to/lastmile_qr_scan"}}, {"is_disabled": 0, "fusion_lat": 0.0, "lat": 38.902249166666664, "type": "electric_scooter", "lon": -77.02659716666666, "is_reserved": 0, "fusion_lon": 0.0, "bike_id": "872ad940d10d2f96391b9700c7a39431", "name": "872ad940d10d2f96391b9700c7a39431", "rental_uris": {"ios": "https://dc.lft.to/lastmile_qr_scan", "android": "https://dc.lft.to/lastmile_qr_scan"}}, {"is_disabled": 0, "fusion_lat": 0.0, "lat": 38.8690585, "type": "electric_bike", "lon": -77.131832, "is_reserved": 0, "fusion_lon": 0.0, "bike_id": "0236eb342cbc759c9dea7382253354c0", "name": "0236eb342cbc759c9dea7382253354c0", "rental_uris": {"ios": "https://dc.lft.to/lastmile_qr_scan", "android": "https://dc.lft.to/lastmile_qr_scan"}}, {"is_disabled": 0, "fusion_lat": 0.0, "lat": 38.890012166666665, "type": "electric_bike", "lon": -76.999432, "is_reserved": 0, "fusion_lon": 0.0, "bike_id": "26903f77e643fe611c98c16954446409", "name": "26903f77e643fe611c98c16954446409", "rental_uris": {"ios": "https://dc.lft.to/lastmile_qr_scan", "android": "https://dc.lft.to/lastmile_qr_scan"}}, {"is_disabled": 0, "fusion_lat": 0.0, "lat": 38.938776833333336, "type": "electric_scooter", "lon": -77.02480916666667, "is_reserved": 0, "fusion_lon": 0.0, "bike_id": "3dcf1064cff2218199110a68bd2ad413", "name": "3dcf1064cff2218199110a68bd2ad413", "rental_uris": {"ios": "https://dc.lft.to/lastmile_qr_scan", "android": "https://dc.lft.to/lastmile_qr_scan"}}, {"is_disabled": 0, "fusion_lat": 0.0, "lat": 38.9026705, "type": "electric_scooter", "lon": -77.04134983333333, "is_reserved": 0, "fusion_lon": 0.0, "bike_id": "01a8c75d935d6882a04a662c61e7907d", "name": "01a8c75d935d6882a04a662c61e7907d", "rental_uris": {"ios": "https://dc.lft.to/lastmile_qr_scan", "android": "https://dc.lft.to/lastmile_qr_scan"}}, {"is_disabled": 0, "fusion_lat": 0.0, "lat": 38.916122333333334, "type": "electric_scooter", "lon": -77.04879433333333, "is_reserved": 0, "fusion_lon": 0.0, "bike_id": "0178e22810540949af1474dc2fd9ca08", "name": "0178e22810540949af1474dc2fd9ca08", "rental_uris": {"ios": "https://dc.lft.to/lastmile_qr_scan", "android": "https://dc.lft.to/lastmile_qr_scan"}}, {"is_disabled": 0, "fusion_lat": 0.0, "lat": 38.8550245, "type": "electric_bike", "lon": -77.12035133333333, "is_reserved": 0, "fusion_lon": 0.0, "bike_id": "0170007de18c83fa4d9994a68e12e13a", "name": "0170007de18c83fa4d9994a68e12e13a", "rental_uris": {"ios": "https://dc.lft.to/lastmile_qr_scan", "android": "https://dc.lft.to/lastmile_qr_scan"}}, {"is_disabled": 0, "fusion_lat": 0.0, "lat": 38.896115, "type": "electric_scooter", "lon": -77.04555366666666, "is_reserved": 0, "fusion_lon": 0.0, "bike_id": "1be71385a6a27cd23b6b06a6a36e073b", "name": "1be71385a6a27cd23b6b06a6a36e073b", "rental_uris": {"ios": "https://dc.lft.to/lastmile_qr_scan", "android": "https://dc.lft.to/lastmile_qr_scan"}}, {"is_disabled": 0, "fusion_lat": 0.0, "lat": 38.999423166666666, "type": "electric_bike", "lon": -77.01766533333333, "is_reserved": 0, "fusion_lon": 0.0, "bike_id": "5d42faf983c0ec3adb6ec22bd37b0979", "name": "5d42faf983c0ec3adb6ec22bd37b0979", "rental_uris": {"ios": "https://dc.lft.to/lastmile_qr_scan", "android": "https://dc.lft.to/lastmile_qr_scan"}}, {"is_disabled": 0, "fusion_lat": 0.0, "lat": 38.93243783333333, "type": "electric_scooter", "lon": -77.03864333333334, "is_reserved": 0, "fusion_lon": 0.0, "bike_id": "cce6f85998ce9943f5c304e1a1440d63", "name": "cce6f85998ce9943f5c304e1a1440d63", "rental_uris": {"ios": "https://dc.lft.to/lastmile_qr_scan", "android": "https://dc.lft.to/lastmile_qr_scan"}}, {"is_disabled": 0, "fusion_lat": 0.0, "lat": 38.92422166666667, "type": "electric_scooter", "lon": -77.0506365, "is_reserved": 0, "fusion_lon": 0.0, "bike_id": "464c74843997c478484103cf84003308", "name": "464c74843997c478484103cf84003308", "rental_uris": {"ios": "https://dc.lft.to/lastmile_qr_scan", "android": "https://dc.lft.to/lastmile_qr_scan"}}, {"is_disabled": 0, "fusion_lat": 0.0, "lat": 38.922942666666664, "type": "electric_scooter", "lon": -77.02424833333333, "is_reserved": 0, "fusion_lon": 0.0, "bike_id": "b6ff674dc1aaf904f3672abd3b85bd7d", "name": "b6ff674dc1aaf904f3672abd3b85bd7d", "rental_uris": {"ios": "https://dc.lft.to/lastmile_qr_scan", "android": "https://dc.lft.to/lastmile_qr_scan"}}, {"is_disabled": 0, "fusion_lat": 0.0, "lat": 38.9146615, "type": "electric_scooter", "lon": -77.02384233333333, "is_reserved": 0, "fusion_lon": 0.0, "bike_id": "0a7413840ab1035649acca71a78e34fe", "name": "0a7413840ab1035649acca71a78e34fe", "rental_uris": {"ios": "https://dc.lft.to/lastmile_qr_scan", "android": "https://dc.lft.to/lastmile_qr_scan"}}, {"is_disabled": 0, "fusion_lat": 0.0, "lat": 38.909467166666666, "type": "electric_scooter", "lon": -77.04661333333334, "is_reserved": 0, "fusion_lon": 0.0, "bike_id": "0c8c816239ea8f80e67928b00e47bc44", "name": "0c8c816239ea8f80e67928b00e47bc44", "rental_uris": {"ios": "https://dc.lft.to/lastmile_qr_scan", "android": "https://dc.lft.to/lastmile_qr_scan"}}, {"is_disabled": 0, "fusion_lat": 0.0, "lat": 38.866644666666666, "type": "electric_scooter", "lon": -76.98909416666666, "is_reserved": 0, "fusion_lon": 0.0, "bike_id": "3d0c0d0b89b26aee22d6d8341820d01f", "name": "3d0c0d0b89b26aee22d6d8341820d01f", "rental_uris": {"ios": "https://dc.lft.to/lastmile_qr_scan", "android": "https://dc.lft.to/lastmile_qr_scan"}}, {"is_disabled": 0, "fusion_lat": 0.0, "lat": 38.916340166666664, "type": "electric_scooter", "lon": -77.013721, "is_reserved": 0, "fusion_lon": 0.0, "bike_id": "40337ecaab2a16f2f707ca2c80acef95", "name": "40337ecaab2a16f2f707ca2c80acef95", "rental_uris": {"ios": "https://dc.lft.to/lastmile_qr_scan", "android": "https://dc.lft.to/lastmile_qr_scan"}}, {"is_disabled": 0, "fusion_lat": 0.0, "lat": 38.914133, "type": "electric_scooter", "lon": -77.02565683333333, "is_reserved": 0, "fusion_lon": 0.0, "bike_id": "fd6c226cc1122b9e5d00554ac81d1b73", "name": "fd6c226cc1122b9e5d00554ac81d1b73", "rental_uris": {"ios": "https://dc.lft.to/lastmile_qr_scan", "android": "https://dc.lft.to/lastmile_qr_scan"}}, {"is_disabled": 0, "fusion_lat": 0.0, "lat": 38.945948, "type": "electric_scooter", "lon": -77.02983366666666, "is_reserved": 0, "fusion_lon": 0.0, "bike_id": "894eb578f4e9ad4a4890ee760be9c35b", "name": "894eb578f4e9ad4a4890ee760be9c35b", "rental_uris": {"ios": "https://dc.lft.to/lastmile_qr_scan", "android": "https://dc.lft.to/lastmile_qr_scan"}}, {"is_disabled": 0, "fusion_lat": 0.0, "lat": 38.91609066666667, "type": "electric_scooter", "lon": -77.02126833333334, "is_reserved": 0, "fusion_lon": 0.0, "bike_id": "de59fc8529dfb5363e07c161debee7f6", "name": "de59fc8529dfb5363e07c161debee7f6", "rental_uris": {"ios": "https://dc.lft.to/lastmile_qr_scan", "android": "https://dc.lft.to/lastmile_qr_scan"}}, {"is_disabled": 0, "fusion_lat": 0.0, "lat": 38.889723333333336, "type": "electric_scooter", "lon": -76.93737333333334, "is_reserved": 0, "fusion_lon": 0.0, "bike_id": "a6944d505a45836171887bd98c3094c8", "name": "a6944d505a45836171887bd98c3094c8", "rental_uris": {"ios": "https://dc.lft.to/lastmile_qr_scan", "android": "https://dc.lft.to/lastmile_qr_scan"}}, {"is_disabled": 0, "fusion_lat": 0.0, "lat": 38.92472266666667, "type": "electric_scooter", "lon": -77.0353565, "is_reserved": 0, "fusion_lon": 0.0, "bike_id": "aaba9aed247bd1b9c58e772458d47ba6", "name": "aaba9aed247bd1b9c58e772458d47ba6", "rental_uris": {"ios": "https://dc.lft.to/lastmile_qr_scan", "android": "https://dc.lft.to/lastmile_qr_scan"}}, {"is_disabled": 0, "fusion_lat": 0.0, "lat": 38.8746035, "type": "electric_scooter", "lon": -77.00492383333334, "is_reserved": 0, "fusion_lon": 0.0, "bike_id": "96e08cbdbb8553f817a389a9ef75924f", "name": "96e08cbdbb8553f817a389a9ef75924f", "rental_uris": {"ios": "https://dc.lft.to/lastmile_qr_scan", "android": "https://dc.lft.to/lastmile_qr_scan"}}, {"is_disabled": 0, "fusion_lat": 0.0, "lat": 38.884344166666665, "type": "electric_scooter", "lon": -76.95759433333333, "is_reserved": 0, "fusion_lon": 0.0, "bike_id": "a2a87171a679bf325a501e374585818d", "name": "a2a87171a679bf325a501e374585818d", "rental_uris": {"ios": "https://dc.lft.to/lastmile_qr_scan", "android": "https://dc.lft.to/lastmile_qr_scan"}}, {"is_disabled": 0, "fusion_lat": 0.0, "lat": 38.96496366666667, "type": "electric_bike", "lon": -77.06487116666666, "is_reserved": 0, "fusion_lon": 0.0, "bike_id": "189d2a492fc8ac9051194f0df9f96774", "name": "189d2a492fc8ac9051194f0df9f96774", "rental_uris": {"ios": "https://dc.lft.to/lastmile_qr_scan", "android": "https://dc.lft.to/lastmile_qr_scan"}}, {"is_disabled": 0, "fusion_lat": 0.0, "lat": 38.896262, "type": "electric_scooter", "lon": -77.03955933333333, "is_reserved": 0, "fusion_lon": 0.0, "bike_id": "ce07bea4f6f879820e6aeb51f0a06ed0", "name": "ce07bea4f6f879820e6aeb51f0a06ed0", "rental_uris": {"ios": "https://dc.lft.to/lastmile_qr_scan", "android": "https://dc.lft.to/lastmile_qr_scan"}}, {"is_disabled": 0, "fusion_lat": 0.0, "lat": 38.90440733333333, "type": "electric_scooter", "lon": -77.04033266666667, "is_reserved": 0, "fusion_lon": 0.0, "bike_id": "2b33dfd1479b16077395649c2e69ec22", "name": "2b33dfd1479b16077395649c2e69ec22", "rental_uris": {"ios": "https://dc.lft.to/lastmile_qr_scan", "android": "https://dc.lft.to/lastmile_qr_scan"}}, {"is_disabled": 0, "fusion_lat": 0.0, "lat": 38.898328666666664, "type": "electric_scooter", "lon": -76.946359, "is_reserved": 0, "fusion_lon": 0.0, "bike_id": "5b8fe1cca8037a263db81ff6581a63df", "name": "5b8fe1cca8037a263db81ff6581a63df", "rental_uris": {"ios": "https://dc.lft.to/lastmile_qr_scan", "android": "https://dc.lft.to/lastmile_qr_scan"}}, {"is_disabled": 0, "fusion_lat": 0.0, "lat": 38.88062033333333, "type": "electric_scooter", "lon": -76.93222433333334, "is_reserved": 0, "fusion_lon": 0.0, "bike_id": "cb96726a69d8581c0ad3cc81e712a888", "name": "cb96726a69d8581c0ad3cc81e712a888", "rental_uris": {"ios": "https://dc.lft.to/lastmile_qr_scan", "android": "https://dc.lft.to/lastmile_qr_scan"}}, {"is_disabled": 0, "fusion_lat": 0.0, "lat": 38.99836716666667, "type": "electric_bike", "lon": -77.02906333333334, "is_reserved": 0, "fusion_lon": 0.0, "bike_id": "193ce6505da631f538184bdb0e650c86", "name": "193ce6505da631f538184bdb0e650c86", "rental_uris": {"ios": "https://dc.lft.to/lastmile_qr_scan", "android": "https://dc.lft.to/lastmile_qr_scan"}}, {"is_disabled": 0, "fusion_lat": 0.0, "lat": 38.8981495, "type": "electric_scooter", "lon": -77.0330355, "is_reserved": 0, "fusion_lon": 0.0, "bike_id": "2e2f156c23768be849e7cb1175d57653", "name": "2e2f156c23768be849e7cb1175d57653", "rental_uris": {"ios": "https://dc.lft.to/lastmile_qr_scan", "android": "https://dc.lft.to/lastmile_qr_scan"}}, {"is_disabled": 0, "fusion_lat": 0.0, "lat": 38.934268833333334, "type": "electric_scooter", "lon": -76.9650635, "is_reserved": 0, "fusion_lon": 0.0, "bike_id": "5eb9e5edbdb5c525c04b86e1556f69fe", "name": "5eb9e5edbdb5c525c04b86e1556f69fe", "rental_uris": {"ios": "https://dc.lft.to/lastmile_qr_scan", "android": "https://dc.lft.to/lastmile_qr_scan"}}, {"is_disabled": 0, "fusion_lat": 0.0, "lat": 38.922107, "type": "electric_scooter", "lon": -77.03656583333333, "is_reserved": 0, "fusion_lon": 0.0, "bike_id": "ed836a57be1d8dc57f0812730002127e", "name": "ed836a57be1d8dc57f0812730002127e", "rental_uris": {"ios": "https://dc.lft.to/lastmile_qr_scan", "android": "https://dc.lft.to/lastmile_qr_scan"}}, {"is_disabled": 0, "fusion_lat": 0.0, "lat": 38.88716933333333, "type": "electric_bike", "lon": -77.13305083333333, "is_reserved": 0, "fusion_lon": 0.0, "bike_id": "648c3bf77cc407744b4c768bb6c15f35", "name": "648c3bf77cc407744b4c768bb6c15f35", "rental_uris": {"ios": "https://dc.lft.to/lastmile_qr_scan", "android": "https://dc.lft.to/lastmile_qr_scan"}}, {"is_disabled": 0, "fusion_lat": 0.0, "lat": 38.91824733333333, "type": "electric_scooter", "lon": -77.02708066666666, "is_reserved": 0, "fusion_lon": 0.0, "bike_id": "a86044a7ebf5e410416e3140a6e9f6e2", "name": "a86044a7ebf5e410416e3140a6e9f6e2", "rental_uris": {"ios": "https://dc.lft.to/lastmile_qr_scan", "android": "https://dc.lft.to/lastmile_qr_scan"}}, {"is_disabled": 0, "fusion_lat": 0.0, "lat": 38.928428833333335, "type": "electric_scooter", "lon": -77.01594683333333, "is_reserved": 0, "fusion_lon": 0.0, "bike_id": "0d9d14b49417e2a3042e9f5f476b9265", "name": "0d9d14b49417e2a3042e9f5f476b9265", "rental_uris": {"ios": "https://dc.lft.to/lastmile_qr_scan", "android": "https://dc.lft.to/lastmile_qr_scan"}}, {"is_disabled": 0, "fusion_lat": 0.0, "lat": 38.8719465, "type": "electric_scooter", "lon": -77.00608816666667, "is_reserved": 0, "fusion_lon": 0.0, "bike_id": "a812f7eeebb25a66782c80bb0db66642", "name": "a812f7eeebb25a66782c80bb0db66642", "rental_uris": {"ios": "https://dc.lft.to/lastmile_qr_scan", "android": "https://dc.lft.to/lastmile_qr_scan"}}, {"is_disabled": 0, "fusion_lat": 0.0, "lat": 38.905776833333334, "type": "electric_scooter", "lon": -77.04185816666667, "is_reserved": 0, "fusion_lon": 0.0, "bike_id": "26f7f24c0f1136aadaeaee42440eef02", "name": "26f7f24c0f1136aadaeaee42440eef02", "rental_uris": {"ios": "https://dc.lft.to/lastmile_qr_scan", "android": "https://dc.lft.to/lastmile_qr_scan"}}, {"is_disabled": 0, "fusion_lat": 0.0, "lat": 38.901531166666665, "type": "electric_scooter", "lon": -77.02561033333333, "is_reserved": 0, "fusion_lon": 0.0, "bike_id": "20467411d8d1c9bfcac0436c400fff63", "name": "20467411d8d1c9bfcac0436c400fff63", "rental_uris": {"ios": "https://dc.lft.to/lastmile_qr_scan", "android": "https://dc.lft.to/lastmile_qr_scan"}}, {"is_disabled": 0, "fusion_lat": 0.0, "lat": 38.919804, "type": "electric_scooter", "lon": -77.03805083333333, "is_reserved": 0, "fusion_lon": 0.0, "bike_id": "c01620d09653c7054ddcbf588f90fb14", "name": "c01620d09653c7054ddcbf588f90fb14", "rental_uris": {"ios": "https://dc.lft.to/lastmile_qr_scan", "android": "https://dc.lft.to/lastmile_qr_scan"}}, {"is_disabled": 0, "fusion_lat": 0.0, "lat": 38.885471, "type": "electric_bike", "lon": -77.11786183333334, "is_reserved": 0, "fusion_lon": 0.0, "bike_id": "20ce2d478caebe881dcdc5dbfe02200e", "name": "20ce2d478caebe881dcdc5dbfe02200e", "rental_uris": {"ios": "https://dc.lft.to/lastmile_qr_scan", "android": "https://dc.lft.to/lastmile_qr_scan"}}, {"is_disabled": 0, "fusion_lat": 0.0, "lat": 38.92542566666667, "type": "electric_scooter", "lon": -77.04077716666667, "is_reserved": 0, "fusion_lon": 0.0, "bike_id": "95231b8da965921979e2478b2ce850be", "name": "95231b8da965921979e2478b2ce850be", "rental_uris": {"ios": "https://dc.lft.to/lastmile_qr_scan", "android": "https://dc.lft.to/lastmile_qr_scan"}}, {"is_disabled": 0, "fusion_lat": 0.0, "lat": 38.92850383333333, "type": "electric_bike", "lon": -77.1067985, "is_reserved": 0, "fusion_lon": 0.0, "bike_id": "2f8fbd23d673a1ccd4f93d06f0739800", "name": "2f8fbd23d673a1ccd4f93d06f0739800", "rental_uris": {"ios": "https://dc.lft.to/lastmile_qr_scan", "android": "https://dc.lft.to/lastmile_qr_scan"}}, {"is_disabled": 0, "fusion_lat": 0.0, "lat": 38.90610233333334, "type": "electric_scooter", "lon": -77.06515433333334, "is_reserved": 0, "fusion_lon": 0.0, "bike_id": "bf5bd376c2d5ff13df6866a98c1d3c52", "name": "bf5bd376c2d5ff13df6866a98c1d3c52", "rental_uris": {"ios": "https://dc.lft.to/lastmile_qr_scan", "android": "https://dc.lft.to/lastmile_qr_scan"}}, {"is_disabled": 0, "fusion_lat": 0.0, "lat": 38.93002383333334, "type": "electric_scooter", "lon": -77.0443735, "is_reserved": 0, "fusion_lon": 0.0, "bike_id": "89cb2427bb4ae1b8837516560131632d", "name": "89cb2427bb4ae1b8837516560131632d", "rental_uris": {"ios": "https://dc.lft.to/lastmile_qr_scan", "android": "https://dc.lft.to/lastmile_qr_scan"}}, {"is_disabled": 0, "fusion_lat": 0.0, "lat": 38.90165283333333, "type": "electric_scooter", "lon": -77.0499975, "is_reserved": 0, "fusion_lon": 0.0, "bike_id": "d73917f490c6736537f8e8fd28720ecf", "name": "d73917f490c6736537f8e8fd28720ecf", "rental_uris": {"ios": "https://dc.lft.to/lastmile_qr_scan", "android": "https://dc.lft.to/lastmile_qr_scan"}}, {"is_disabled": 0, "fusion_lat": 0.0, "lat": 38.910573666666664, "type": "electric_scooter", "lon": -77.04582483333333, "is_reserved": 0, "fusion_lon": 0.0, "bike_id": "c1f194769dd80e05dc5fa105442d5899", "name": "c1f194769dd80e05dc5fa105442d5899", "rental_uris": {"ios": "https://dc.lft.to/lastmile_qr_scan", "android": "https://dc.lft.to/lastmile_qr_scan"}}, {"is_disabled": 0, "fusion_lat": 0.0, "lat": 38.807443, "type": "electric_bike", "lon": -77.09431483333333, "is_reserved": 0, "fusion_lon": 0.0, "bike_id": "af7894deb67750dc052c46c87818ad1a", "name": "af7894deb67750dc052c46c87818ad1a", "rental_uris": {"ios": "https://dc.lft.to/lastmile_qr_scan", "android": "https://dc.lft.to/lastmile_qr_scan"}}, {"is_disabled": 0, "fusion_lat": 0.0, "lat": 38.89877966666667, "type": "electric_scooter", "lon": -76.93160416666667, "is_reserved": 0, "fusion_lon": 0.0, "bike_id": "e181565d5065f0790c61294a09214a70", "name": "e181565d5065f0790c61294a09214a70", "rental_uris": {"ios": "https://dc.lft.to/lastmile_qr_scan", "android": "https://dc.lft.to/lastmile_qr_scan"}}, {"is_disabled": 0, "fusion_lat": 0.0, "lat": 38.93243583333334, "type": "electric_scooter", "lon": -77.0307565, "is_reserved": 0, "fusion_lon": 0.0, "bike_id": "c35918d2a7c75d815316216cfe835a9e", "name": "c35918d2a7c75d815316216cfe835a9e", "rental_uris": {"ios": "https://dc.lft.to/lastmile_qr_scan", "android": "https://dc.lft.to/lastmile_qr_scan"}}, {"is_disabled": 0, "fusion_lat": 0.0, "lat": 38.9341915, "type": "electric_scooter", "lon": -77.044058, "is_reserved": 0, "fusion_lon": 0.0, "bike_id": "2b4089fd2c16ccb85909ce83c5a2b28d", "name": "2b4089fd2c16ccb85909ce83c5a2b28d", "rental_uris": {"ios": "https://dc.lft.to/lastmile_qr_scan", "android": "https://dc.lft.to/lastmile_qr_scan"}}, {"is_disabled": 0, "fusion_lat": 0.0, "lat": 38.91966383333333, "type": "electric_scooter", "lon": -77.04152816666667, "is_reserved": 0, "fusion_lon": 0.0, "bike_id": "c5163c04bf7f94617ad9d97c6ee3f3d2", "name": "c5163c04bf7f94617ad9d97c6ee3f3d2", "rental_uris": {"ios": "https://dc.lft.to/lastmile_qr_scan", "android": "https://dc.lft.to/lastmile_qr_scan"}}, {"is_disabled": 0, "fusion_lat": 0.0, "lat": 38.92456266666667, "type": "electric_scooter", "lon": -77.03272966666667, "is_reserved": 0, "fusion_lon": 0.0, "bike_id": "d46d2be30bef713f696e1436b5d0d3dd", "name": "d46d2be30bef713f696e1436b5d0d3dd", "rental_uris": {"ios": "https://dc.lft.to/lastmile_qr_scan", "android": "https://dc.lft.to/lastmile_qr_scan"}}, {"is_disabled": 0, "fusion_lat": 0.0, "lat": 38.90281566666667, "type": "electric_scooter", "lon": -77.03434483333334, "is_reserved": 0, "fusion_lon": 0.0, "bike_id": "bbad9f1f5e558df53081162afa727551", "name": "bbad9f1f5e558df53081162afa727551", "rental_uris": {"ios": "https://dc.lft.to/lastmile_qr_scan", "android": "https://dc.lft.to/lastmile_qr_scan"}}, {"is_disabled": 0, "fusion_lat": 0.0, "lat": 38.902691833333336, "type": "electric_scooter", "lon": -77.04600533333333, "is_reserved": 0, "fusion_lon": 0.0, "bike_id": "85d3417573adf05541c2c061c8a0fdf3", "name": "85d3417573adf05541c2c061c8a0fdf3", "rental_uris": {"ios": "https://dc.lft.to/lastmile_qr_scan", "android": "https://dc.lft.to/lastmile_qr_scan"}}, {"is_disabled": 0, "fusion_lat": 0.0, "lat": 38.921507, "type": "electric_scooter", "lon": -77.02426233333334, "is_reserved": 0, "fusion_lon": 0.0, "bike_id": "55c9238386f2f441d2f5e4f33d986052", "name": "55c9238386f2f441d2f5e4f33d986052", "rental_uris": {"ios": "https://dc.lft.to/lastmile_qr_scan", "android": "https://dc.lft.to/lastmile_qr_scan"}}, {"is_disabled": 0, "fusion_lat": 0.0, "lat": 38.9375595, "type": "electric_scooter", "lon": -77.031427, "is_reserved": 0, "fusion_lon": 0.0, "bike_id": "6525a2bba39c35be2e144d572ef87863", "name": "6525a2bba39c35be2e144d572ef87863", "rental_uris": {"ios": "https://dc.lft.to/lastmile_qr_scan", "android": "https://dc.lft.to/lastmile_qr_scan"}}, {"is_disabled": 0, "fusion_lat": 0.0, "lat": 38.948293666666665, "type": "electric_scooter", "lon": -77.02429283333333, "is_reserved": 0, "fusion_lon": 0.0, "bike_id": "c2dbf539e9d9a2a10de13630e949fef4", "name": "c2dbf539e9d9a2a10de13630e949fef4", "rental_uris": {"ios": "https://dc.lft.to/lastmile_qr_scan", "android": "https://dc.lft.to/lastmile_qr_scan"}}, {"is_disabled": 0, "fusion_lat": 0.0, "lat": 38.8872555, "type": "electric_scooter", "lon": -77.03181666666667, "is_reserved": 0, "fusion_lon": 0.0, "bike_id": "f2315738718be029c84cade4fa796cc9", "name": "f2315738718be029c84cade4fa796cc9", "rental_uris": {"ios": "https://dc.lft.to/lastmile_qr_scan", "android": "https://dc.lft.to/lastmile_qr_scan"}}, {"is_disabled": 0, "fusion_lat": 0.0, "lat": 38.90267133333333, "type": "electric_scooter", "lon": -77.06005083333334, "is_reserved": 0, "fusion_lon": 0.0, "bike_id": "7fc051f34a21c4285bf8a8b7775eb60c", "name": "7fc051f34a21c4285bf8a8b7775eb60c", "rental_uris": {"ios": "https://dc.lft.to/lastmile_qr_scan", "android": "https://dc.lft.to/lastmile_qr_scan"}}, {"is_disabled": 0, "fusion_lat": 0.0, "lat": 38.9429675, "type": "electric_scooter", "lon": -77.03264333333334, "is_reserved": 0, "fusion_lon": 0.0, "bike_id": "cb6a80d2bb9392b4768fd4e67a1558a6", "name": "cb6a80d2bb9392b4768fd4e67a1558a6", "rental_uris": {"ios": "https://dc.lft.to/lastmile_qr_scan", "android": "https://dc.lft.to/lastmile_qr_scan"}}, {"is_disabled": 0, "fusion_lat": 0.0, "lat": 38.89273566666667, "type": "electric_scooter", "lon": -77.050299, "is_reserved": 0, "fusion_lon": 0.0, "bike_id": "05cfdaa0f5bcb34a43f2db934be1d2ca", "name": "05cfdaa0f5bcb34a43f2db934be1d2ca", "rental_uris": {"ios": "https://dc.lft.to/lastmile_qr_scan", "android": "https://dc.lft.to/lastmile_qr_scan"}}, {"is_disabled": 0, "fusion_lat": 0.0, "lat": 38.91485133333333, "type": "electric_scooter", "lon": -77.03241966666667, "is_reserved": 0, "fusion_lon": 0.0, "bike_id": "d834c2df5442a4c1663b08d445a0fb0f", "name": "d834c2df5442a4c1663b08d445a0fb0f", "rental_uris": {"ios": "https://dc.lft.to/lastmile_qr_scan", "android": "https://dc.lft.to/lastmile_qr_scan"}}, {"is_disabled": 0, "fusion_lat": 0.0, "lat": 38.9216965, "type": "electric_scooter", "lon": -77.04009716666667, "is_reserved": 0, "fusion_lon": 0.0, "bike_id": "c2e7a3790656e8e67adeac4ac5493587", "name": "c2e7a3790656e8e67adeac4ac5493587", "rental_uris": {"ios": "https://dc.lft.to/lastmile_qr_scan", "android": "https://dc.lft.to/lastmile_qr_scan"}}, {"is_disabled": 0, "fusion_lat": 0.0, "lat": 38.846213666666664, "type": "electric_bike", "lon": -77.0693945, "is_reserved": 0, "fusion_lon": 0.0, "bike_id": "727d2706a98f85a36e1041ae0c2935c8", "name": "727d2706a98f85a36e1041ae0c2935c8", "rental_uris": {"ios": "https://dc.lft.to/lastmile_qr_scan", "android": "https://dc.lft.to/lastmile_qr_scan"}}, {"is_disabled": 0, "fusion_lat": 0.0, "lat": 38.874958, "type": "electric_scooter", "lon": -77.00336583333333, "is_reserved": 0, "fusion_lon": 0.0, "bike_id": "3ee1130e8f8eea41282870255474651e", "name": "3ee1130e8f8eea41282870255474651e", "rental_uris": {"ios": "https://dc.lft.to/lastmile_qr_scan", "android": "https://dc.lft.to/lastmile_qr_scan"}}, {"is_disabled": 0, "fusion_lat": 0.0, "lat": 38.902572, "type": "electric_scooter", "lon": -77.03358366666667, "is_reserved": 0, "fusion_lon": 0.0, "bike_id": "70eb06bced9808799878f498602d28df", "name": "70eb06bced9808799878f498602d28df", "rental_uris": {"ios": "https://dc.lft.to/lastmile_qr_scan", "android": "https://dc.lft.to/lastmile_qr_scan"}}, {"is_disabled": 0, "fusion_lat": 0.0, "lat": 38.912047333333334, "type": "electric_scooter", "lon": -77.0364135, "is_reserved": 0, "fusion_lon": 0.0, "bike_id": "dc90bd83f62bec770a1fda41e887d368", "name": "dc90bd83f62bec770a1fda41e887d368", "rental_uris": {"ios": "https://dc.lft.to/lastmile_qr_scan", "android": "https://dc.lft.to/lastmile_qr_scan"}}, {"is_disabled": 0, "fusion_lat": 0.0, "lat": 38.917941166666665, "type": "electric_scooter", "lon": -77.03664683333334, "is_reserved": 0, "fusion_lon": 0.0, "bike_id": "6b80f2abb73ebf19b1e73dcb3bb7253e", "name": "6b80f2abb73ebf19b1e73dcb3bb7253e", "rental_uris": {"ios": "https://dc.lft.to/lastmile_qr_scan", "android": "https://dc.lft.to/lastmile_qr_scan"}}, {"is_disabled": 0, "fusion_lat": 0.0, "lat": 38.8762765, "type": "electric_scooter", "lon": -76.965236, "is_reserved": 0, "fusion_lon": 0.0, "bike_id": "e75c4ac3bd41dae1055b8518b8039eff", "name": "e75c4ac3bd41dae1055b8518b8039eff", "rental_uris": {"ios": "https://dc.lft.to/lastmile_qr_scan", "android": "https://dc.lft.to/lastmile_qr_scan"}}, {"is_disabled": 0, "fusion_lat": 0.0, "lat": 38.918715666666664, "type": "electric_scooter", "lon": -77.021795, "is_reserved": 0, "fusion_lon": 0.0, "bike_id": "6729cfb027edd8abad92ca68186fb83b", "name": "6729cfb027edd8abad92ca68186fb83b", "rental_uris": {"ios": "https://dc.lft.to/lastmile_qr_scan", "android": "https://dc.lft.to/lastmile_qr_scan"}}, {"is_disabled": 0, "fusion_lat": 0.0, "lat": 38.894864166666665, "type": "electric_scooter", "lon": -77.0218155, "is_reserved": 0, "fusion_lon": 0.0, "bike_id": "7d439ab46cda9c3d5d36b237b938d7f0", "name": "7d439ab46cda9c3d5d36b237b938d7f0", "rental_uris": {"ios": "https://dc.lft.to/lastmile_qr_scan", "android": "https://dc.lft.to/lastmile_qr_scan"}}, {"is_disabled": 0, "fusion_lat": 0.0, "lat": 38.9417535, "type": "electric_scooter", "lon": -77.02503183333333, "is_reserved": 0, "fusion_lon": 0.0, "bike_id": "13946eaf7638a764e939f102be0da2b7", "name": "13946eaf7638a764e939f102be0da2b7", "rental_uris": {"ios": "https://dc.lft.to/lastmile_qr_scan", "android": "https://dc.lft.to/lastmile_qr_scan"}}, {"is_disabled": 0, "fusion_lat": 0.0, "lat": 38.84292116666667, "type": "electric_scooter", "lon": -76.99945233333334, "is_reserved": 0, "fusion_lon": 0.0, "bike_id": "bd4a04fdd5b031f1c50d66b87ffc5db6", "name": "bd4a04fdd5b031f1c50d66b87ffc5db6", "rental_uris": {"ios": "https://dc.lft.to/lastmile_qr_scan", "android": "https://dc.lft.to/lastmile_qr_scan"}}, {"is_disabled": 0, "fusion_lat": 0.0, "lat": 38.89723516666667, "type": "electric_scooter", "lon": -77.02695966666667, "is_reserved": 0, "fusion_lon": 0.0, "bike_id": "6288844da77f8c5fd69e507300a094b4", "name": "6288844da77f8c5fd69e507300a094b4", "rental_uris": {"ios": "https://dc.lft.to/lastmile_qr_scan", "android": "https://dc.lft.to/lastmile_qr_scan"}}, {"is_disabled": 0, "fusion_lat": 0.0, "lat": 38.9331525, "type": "electric_scooter", "lon": -77.03267383333333, "is_reserved": 0, "fusion_lon": 0.0, "bike_id": "d80a8fac93f7e9b69cb0a1f85619acc5", "name": "d80a8fac93f7e9b69cb0a1f85619acc5", "rental_uris": {"ios": "https://dc.lft.to/lastmile_qr_scan", "android": "https://dc.lft.to/lastmile_qr_scan"}}, {"is_disabled": 0, "fusion_lat": 0.0, "lat": 38.89873766666667, "type": "electric_scooter", "lon": -77.04062133333333, "is_reserved": 0, "fusion_lon": 0.0, "bike_id": "86572ca0795a17cda52df28969e9f722", "name": "86572ca0795a17cda52df28969e9f722", "rental_uris": {"ios": "https://dc.lft.to/lastmile_qr_scan", "android": "https://dc.lft.to/lastmile_qr_scan"}}, {"is_disabled": 0, "fusion_lat": 0.0, "lat": 38.95556583333333, "type": "electric_bike", "lon": -76.9354735, "is_reserved": 0, "fusion_lon": 0.0, "bike_id": "37ffc7eea196ce07ac658054e90cd870", "name": "37ffc7eea196ce07ac658054e90cd870", "rental_uris": {"ios": "https://dc.lft.to/lastmile_qr_scan", "android": "https://dc.lft.to/lastmile_qr_scan"}}, {"is_disabled": 0, "fusion_lat": 0.0, "lat": 38.863434166666664, "type": "electric_scooter", "lon": -76.99005483333333, "is_reserved": 0, "fusion_lon": 0.0, "bike_id": "1f37c147c3f2629f53885488066c452e", "name": "1f37c147c3f2629f53885488066c452e", "rental_uris": {"ios": "https://dc.lft.to/lastmile_qr_scan", "android": "https://dc.lft.to/lastmile_qr_scan"}}, {"is_disabled": 0, "fusion_lat": 0.0, "lat": 38.89811, "type": "electric_scooter", "lon": -77.0328995, "is_reserved": 0, "fusion_lon": 0.0, "bike_id": "ee570d65c45188669fd867c96c03d03d", "name": "ee570d65c45188669fd867c96c03d03d", "rental_uris": {"ios": "https://dc.lft.to/lastmile_qr_scan", "android": "https://dc.lft.to/lastmile_qr_scan"}}, {"is_disabled": 0, "fusion_lat": 0.0, "lat": 38.921246333333336, "type": "electric_scooter", "lon": -77.04428666666666, "is_reserved": 0, "fusion_lon": 0.0, "bike_id": "023024fff59fd3f6a877f8f807998899", "name": "023024fff59fd3f6a877f8f807998899", "rental_uris": {"ios": "https://dc.lft.to/lastmile_qr_scan", "android": "https://dc.lft.to/lastmile_qr_scan"}}, {"is_disabled": 0, "fusion_lat": 0.0, "lat": 38.90722733333333, "type": "electric_scooter", "lon": -77.02501483333333, "is_reserved": 0, "fusion_lon": 0.0, "bike_id": "cdd652c2495c4a4615a2d4616f898287", "name": "cdd652c2495c4a4615a2d4616f898287", "rental_uris": {"ios": "https://dc.lft.to/lastmile_qr_scan", "android": "https://dc.lft.to/lastmile_qr_scan"}}, {"is_disabled": 0, "fusion_lat": 0.0, "lat": 38.9032995, "type": "electric_scooter", "lon": -77.065959, "is_reserved": 0, "fusion_lon": 0.0, "bike_id": "6a52c6eec99280a4d446f0c47e3b80db", "name": "6a52c6eec99280a4d446f0c47e3b80db", "rental_uris": {"ios": "https://dc.lft.to/lastmile_qr_scan", "android": "https://dc.lft.to/lastmile_qr_scan"}}, {"is_disabled": 0, "fusion_lat": 0.0, "lat": 38.957764166666664, "type": "electric_scooter", "lon": -77.0246545, "is_reserved": 0, "fusion_lon": 0.0, "bike_id": "6e0087fd21d58de879e00d820132c89c", "name": "6e0087fd21d58de879e00d820132c89c", "rental_uris": {"ios": "https://dc.lft.to/lastmile_qr_scan", "android": "https://dc.lft.to/lastmile_qr_scan"}}, {"is_disabled": 0, "fusion_lat": 0.0, "lat": 38.90532366666667, "type": "electric_scooter", "lon": -77.04745883333334, "is_reserved": 0, "fusion_lon": 0.0, "bike_id": "766491f767ed11515abbacf06e9c9bd2", "name": "766491f767ed11515abbacf06e9c9bd2", "rental_uris": {"ios": "https://dc.lft.to/lastmile_qr_scan", "android": "https://dc.lft.to/lastmile_qr_scan"}}, {"is_disabled": 0, "fusion_lat": 0.0, "lat": 38.84295066666667, "type": "electric_scooter", "lon": -76.99949133333334, "is_reserved": 0, "fusion_lon": 0.0, "bike_id": "c9ae2ec6a247cff02298f0797c6f2124", "name": "c9ae2ec6a247cff02298f0797c6f2124", "rental_uris": {"ios": "https://dc.lft.to/lastmile_qr_scan", "android": "https://dc.lft.to/lastmile_qr_scan"}}, {"is_disabled": 0, "fusion_lat": 0.0, "lat": 38.89916733333333, "type": "electric_scooter", "lon": -76.93380916666666, "is_reserved": 0, "fusion_lon": 0.0, "bike_id": "44913203e66a788f1f628ceb630d1eb2", "name": "44913203e66a788f1f628ceb630d1eb2", "rental_uris": {"ios": "https://dc.lft.to/lastmile_qr_scan", "android": "https://dc.lft.to/lastmile_qr_scan"}}, {"is_disabled": 0, "fusion_lat": 0.0, "lat": 38.9049725, "type": "electric_scooter", "lon": -77.062835, "is_reserved": 0, "fusion_lon": 0.0, "bike_id": "af6dbdcf498344427afc4c03b6c7ab7b", "name": "af6dbdcf498344427afc4c03b6c7ab7b", "rental_uris": {"ios": "https://dc.lft.to/lastmile_qr_scan", "android": "https://dc.lft.to/lastmile_qr_scan"}}, {"is_disabled": 0, "fusion_lat": 0.0, "lat": 38.896072833333335, "type": "electric_scooter", "lon": -77.0279075, "is_reserved": 0, "fusion_lon": 0.0, "bike_id": "ea23996d2f35158e00c9819a111ad590", "name": "ea23996d2f35158e00c9819a111ad590", "rental_uris": {"ios": "https://dc.lft.to/lastmile_qr_scan", "android": "https://dc.lft.to/lastmile_qr_scan"}}, {"is_disabled": 0, "fusion_lat": 0.0, "lat": 38.91896933333334, "type": "electric_scooter", "lon": -77.04155016666667, "is_reserved": 0, "fusion_lon": 0.0, "bike_id": "47f4adab962757330b2b42f4d416ab08", "name": "47f4adab962757330b2b42f4d416ab08", "rental_uris": {"ios": "https://dc.lft.to/lastmile_qr_scan", "android": "https://dc.lft.to/lastmile_qr_scan"}}, {"is_disabled": 0, "fusion_lat": 0.0, "lat": 38.909777166666665, "type": "electric_scooter", "lon": -77.03181, "is_reserved": 0, "fusion_lon": 0.0, "bike_id": "2ca3b57c35c2700f11c243b2a1b7a637", "name": "2ca3b57c35c2700f11c243b2a1b7a637", "rental_uris": {"ios": "https://dc.lft.to/lastmile_qr_scan", "android": "https://dc.lft.to/lastmile_qr_scan"}}, {"is_disabled": 0, "fusion_lat": 0.0, "lat": 38.923771, "type": "electric_scooter", "lon": -77.02562666666667, "is_reserved": 0, "fusion_lon": 0.0, "bike_id": "cae22f37b94896887a472d9a85900e51", "name": "cae22f37b94896887a472d9a85900e51", "rental_uris": {"ios": "https://dc.lft.to/lastmile_qr_scan", "android": "https://dc.lft.to/lastmile_qr_scan"}}, {"is_disabled": 0, "fusion_lat": 0.0, "lat": 38.9416515, "type": "electric_scooter", "lon": -77.0253485, "is_reserved": 0, "fusion_lon": 0.0, "bike_id": "f81fd5f32982947078aab5121e1eae84", "name": "f81fd5f32982947078aab5121e1eae84", "rental_uris": {"ios": "https://dc.lft.to/lastmile_qr_scan", "android": "https://dc.lft.to/lastmile_qr_scan"}}, {"is_disabled": 0, "fusion_lat": 0.0, "lat": 38.941690333333334, "type": "electric_scooter", "lon": -77.02343816666666, "is_reserved": 0, "fusion_lon": 0.0, "bike_id": "406ddec28caf1e780a7bc4c3affeb46a", "name": "406ddec28caf1e780a7bc4c3affeb46a", "rental_uris": {"ios": "https://dc.lft.to/lastmile_qr_scan", "android": "https://dc.lft.to/lastmile_qr_scan"}}, {"is_disabled": 0, "fusion_lat": 0.0, "lat": 38.909627, "type": "electric_scooter", "lon": -77.01443833333333, "is_reserved": 0, "fusion_lon": 0.0, "bike_id": "6d782d383f88fd2bff70b4e5ff2b36fd", "name": "6d782d383f88fd2bff70b4e5ff2b36fd", "rental_uris": {"ios": "https://dc.lft.to/lastmile_qr_scan", "android": "https://dc.lft.to/lastmile_qr_scan"}}, {"is_disabled": 0, "fusion_lat": 0.0, "lat": 38.89218416666667, "type": "electric_scooter", "lon": -77.02634516666667, "is_reserved": 0, "fusion_lon": 0.0, "bike_id": "df00ad9a02da21024fb4cf21dddd6177", "name": "df00ad9a02da21024fb4cf21dddd6177", "rental_uris": {"ios": "https://dc.lft.to/lastmile_qr_scan", "android": "https://dc.lft.to/lastmile_qr_scan"}}, {"is_disabled": 0, "fusion_lat": 0.0, "lat": 38.862767833333336, "type": "electric_scooter", "lon": -76.99236083333334, "is_reserved": 0, "fusion_lon": 0.0, "bike_id": "8e5309fcc66047084db2a29eb65c6a67", "name": "8e5309fcc66047084db2a29eb65c6a67", "rental_uris": {"ios": "https://dc.lft.to/lastmile_qr_scan", "android": "https://dc.lft.to/lastmile_qr_scan"}}, {"is_disabled": 0, "fusion_lat": 0.0, "lat": 38.92445266666667, "type": "electric_scooter", "lon": -77.03271216666667, "is_reserved": 0, "fusion_lon": 0.0, "bike_id": "35c77591485132ed98c0cef35babc8d6", "name": "35c77591485132ed98c0cef35babc8d6", "rental_uris": {"ios": "https://dc.lft.to/lastmile_qr_scan", "android": "https://dc.lft.to/lastmile_qr_scan"}}, {"is_disabled": 0, "fusion_lat": 0.0, "lat": 38.923217666666666, "type": "electric_scooter", "lon": -77.03908033333333, "is_reserved": 0, "fusion_lon": 0.0, "bike_id": "2d8372ab0ff0258068ba6b17e30b4db2", "name": "2d8372ab0ff0258068ba6b17e30b4db2", "rental_uris": {"ios": "https://dc.lft.to/lastmile_qr_scan", "android": "https://dc.lft.to/lastmile_qr_scan"}}, {"is_disabled": 0, "fusion_lat": 0.0, "lat": 38.90552383333333, "type": "electric_scooter", "lon": -77.0465525, "is_reserved": 0, "fusion_lon": 0.0, "bike_id": "4cd031f0efde9b0c326c3a274fe65b97", "name": "4cd031f0efde9b0c326c3a274fe65b97", "rental_uris": {"ios": "https://dc.lft.to/lastmile_qr_scan", "android": "https://dc.lft.to/lastmile_qr_scan"}}, {"is_disabled": 0, "fusion_lat": 0.0, "lat": 39.030463166666664, "type": "electric_bike", "lon": -77.0948205, "is_reserved": 0, "fusion_lon": 0.0, "bike_id": "a24abecb2f36c7cf9b9d2a4e1e3933bd", "name": "a24abecb2f36c7cf9b9d2a4e1e3933bd", "rental_uris": {"ios": "https://dc.lft.to/lastmile_qr_scan", "android": "https://dc.lft.to/lastmile_qr_scan"}}, {"is_disabled": 0, "fusion_lat": 0.0, "lat": 38.887045, "type": "electric_scooter", "lon": -77.00153383333334, "is_reserved": 0, "fusion_lon": 0.0, "bike_id": "c671eecd3b0d4b0b08b438fbffbf7d96", "name": "c671eecd3b0d4b0b08b438fbffbf7d96", "rental_uris": {"ios": "https://dc.lft.to/lastmile_qr_scan", "android": "https://dc.lft.to/lastmile_qr_scan"}}, {"is_disabled": 0, "fusion_lat": 0.0, "lat": 38.90778683333333, "type": "electric_scooter", "lon": -77.032135, "is_reserved": 0, "fusion_lon": 0.0, "bike_id": "eb4eda55ffa667bb90419a0fd7587e29", "name": "eb4eda55ffa667bb90419a0fd7587e29", "rental_uris": {"ios": "https://dc.lft.to/lastmile_qr_scan", "android": "https://dc.lft.to/lastmile_qr_scan"}}, {"is_disabled": 0, "fusion_lat": 0.0, "lat": 38.897703, "type": "electric_scooter", "lon": -76.97726783333333, "is_reserved": 0, "fusion_lon": 0.0, "bike_id": "aec2f9bd4e4a7f9a4210f3d29841f334", "name": "aec2f9bd4e4a7f9a4210f3d29841f334", "rental_uris": {"ios": "https://dc.lft.to/lastmile_qr_scan", "android": "https://dc.lft.to/lastmile_qr_scan"}}, {"is_disabled": 0, "fusion_lat": 0.0, "lat": 38.91554283333333, "type": "electric_scooter", "lon": -77.03507683333333, "is_reserved": 0, "fusion_lon": 0.0, "bike_id": "c131cc06601822e330c6adaced6b43ee", "name": "c131cc06601822e330c6adaced6b43ee", "rental_uris": {"ios": "https://dc.lft.to/lastmile_qr_scan", "android": "https://dc.lft.to/lastmile_qr_scan"}}, {"is_disabled": 0, "fusion_lat": 0.0, "lat": 38.923131833333336, "type": "electric_scooter", "lon": -77.021215, "is_reserved": 0, "fusion_lon": 0.0, "bike_id": "28f425a9e341944072700e5c9367d6fa", "name": "28f425a9e341944072700e5c9367d6fa", "rental_uris": {"ios": "https://dc.lft.to/lastmile_qr_scan", "android": "https://dc.lft.to/lastmile_qr_scan"}}, {"is_disabled": 0, "fusion_lat": 0.0, "lat": 38.931626, "type": "electric_scooter", "lon": -77.03628016666667, "is_reserved": 0, "fusion_lon": 0.0, "bike_id": "5fe55b2ac856b2f7af3a40711b35b852", "name": "5fe55b2ac856b2f7af3a40711b35b852", "rental_uris": {"ios": "https://dc.lft.to/lastmile_qr_scan", "android": "https://dc.lft.to/lastmile_qr_scan"}}, {"is_disabled": 0, "fusion_lat": 0.0, "lat": 38.894650166666665, "type": "electric_scooter", "lon": -76.99383183333333, "is_reserved": 0, "fusion_lon": 0.0, "bike_id": "6392f2ed6be6c87852f0ddf5b6b56f39", "name": "6392f2ed6be6c87852f0ddf5b6b56f39", "rental_uris": {"ios": "https://dc.lft.to/lastmile_qr_scan", "android": "https://dc.lft.to/lastmile_qr_scan"}}, {"is_disabled": 0, "fusion_lat": 0.0, "lat": 38.91711316666667, "type": "electric_scooter", "lon": -77.02888816666666, "is_reserved": 0, "fusion_lon": 0.0, "bike_id": "235e7d969cbfedfb974f62ef1e6662a5", "name": "235e7d969cbfedfb974f62ef1e6662a5", "rental_uris": {"ios": "https://dc.lft.to/lastmile_qr_scan", "android": "https://dc.lft.to/lastmile_qr_scan"}}, {"is_disabled": 0, "fusion_lat": 0.0, "lat": 38.9204985, "type": "electric_scooter", "lon": -77.04670383333334, "is_reserved": 0, "fusion_lon": 0.0, "bike_id": "3111e080bfd12a7ee2a952e557a47ff3", "name": "3111e080bfd12a7ee2a952e557a47ff3", "rental_uris": {"ios": "https://dc.lft.to/lastmile_qr_scan", "android": "https://dc.lft.to/lastmile_qr_scan"}}, {"is_disabled": 0, "fusion_lat": 0.0, "lat": 38.892209, "type": "electric_scooter", "lon": -77.0284455, "is_reserved": 0, "fusion_lon": 0.0, "bike_id": "954bdb4ceedf7dd33e4c3289ec1fef99", "name": "954bdb4ceedf7dd33e4c3289ec1fef99", "rental_uris": {"ios": "https://dc.lft.to/lastmile_qr_scan", "android": "https://dc.lft.to/lastmile_qr_scan"}}, {"is_disabled": 0, "fusion_lat": 0.0, "lat": 38.902236, "type": "electric_scooter", "lon": -77.06039283333334, "is_reserved": 0, "fusion_lon": 0.0, "bike_id": "474b2abde2ad7f5381fbf656112bbda8", "name": "474b2abde2ad7f5381fbf656112bbda8", "rental_uris": {"ios": "https://dc.lft.to/lastmile_qr_scan", "android": "https://dc.lft.to/lastmile_qr_scan"}}, {"is_disabled": 0, "fusion_lat": 0.0, "lat": 38.9218535, "type": "electric_scooter", "lon": -77.042253, "is_reserved": 0, "fusion_lon": 0.0, "bike_id": "02bc9ecfdc00a8c11b09ad65368edad4", "name": "02bc9ecfdc00a8c11b09ad65368edad4", "rental_uris": {"ios": "https://dc.lft.to/lastmile_qr_scan", "android": "https://dc.lft.to/lastmile_qr_scan"}}, {"is_disabled": 0, "fusion_lat": 0.0, "lat": 38.898507333333335, "type": "electric_bike", "lon": -76.9319115, "is_reserved": 0, "fusion_lon": 0.0, "bike_id": "79c965599389b9b5d34fa790db70e6b5", "name": "79c965599389b9b5d34fa790db70e6b5", "rental_uris": {"ios": "https://dc.lft.to/lastmile_qr_scan", "android": "https://dc.lft.to/lastmile_qr_scan"}}, {"is_disabled": 0, "fusion_lat": 0.0, "lat": 38.905111166666664, "type": "electric_scooter", "lon": -77.04343183333333, "is_reserved": 0, "fusion_lon": 0.0, "bike_id": "0286f24b874fa5c2988cc8c316bd4a50", "name": "0286f24b874fa5c2988cc8c316bd4a50", "rental_uris": {"ios": "https://dc.lft.to/lastmile_qr_scan", "android": "https://dc.lft.to/lastmile_qr_scan"}}, {"is_disabled": 0, "fusion_lat": 0.0, "lat": 38.92314316666667, "type": "electric_scooter", "lon": -77.04521916666667, "is_reserved": 0, "fusion_lon": 0.0, "bike_id": "55c59d4302277fa7b5c1fd3bc9642460", "name": "55c59d4302277fa7b5c1fd3bc9642460", "rental_uris": {"ios": "https://dc.lft.to/lastmile_qr_scan", "android": "https://dc.lft.to/lastmile_qr_scan"}}, {"is_disabled": 0, "fusion_lat": 0.0, "lat": 38.901517166666665, "type": "electric_scooter", "lon": -76.97630616666666, "is_reserved": 0, "fusion_lon": 0.0, "bike_id": "d46564ade8221c804020403d0c674717", "name": "d46564ade8221c804020403d0c674717", "rental_uris": {"ios": "https://dc.lft.to/lastmile_qr_scan", "android": "https://dc.lft.to/lastmile_qr_scan"}}, {"is_disabled": 0, "fusion_lat": 0.0, "lat": 39.088552, "type": "electric_bike", "lon": -77.17841166666666, "is_reserved": 0, "fusion_lon": 0.0, "bike_id": "614dc7f0108bac24b4c86b2fdcd0eeb2", "name": "614dc7f0108bac24b4c86b2fdcd0eeb2", "rental_uris": {"ios": "https://dc.lft.to/lastmile_qr_scan", "android": "https://dc.lft.to/lastmile_qr_scan"}}, {"is_disabled": 0, "fusion_lat": 0.0, "lat": 38.898187666666665, "type": "electric_bike", "lon": -76.99066266666667, "is_reserved": 0, "fusion_lon": 0.0, "bike_id": "c545e00aa7f7fe5e90884a01673f7aa8", "name": "c545e00aa7f7fe5e90884a01673f7aa8", "rental_uris": {"ios": "https://dc.lft.to/lastmile_qr_scan", "android": "https://dc.lft.to/lastmile_qr_scan"}}, {"is_disabled": 0, "fusion_lat": 0.0, "lat": 38.915500333333334, "type": "electric_scooter", "lon": -77.03840833333334, "is_reserved": 0, "fusion_lon": 0.0, "bike_id": "c6bc377b587ca9f9944d0a08fa11e77b", "name": "c6bc377b587ca9f9944d0a08fa11e77b", "rental_uris": {"ios": "https://dc.lft.to/lastmile_qr_scan", "android": "https://dc.lft.to/lastmile_qr_scan"}}, {"is_disabled": 0, "fusion_lat": 0.0, "lat": 38.922125666666666, "type": "electric_scooter", "lon": -77.0329775, "is_reserved": 0, "fusion_lon": 0.0, "bike_id": "77f4b673ec3de7abc3d5111fecfff5fb", "name": "77f4b673ec3de7abc3d5111fecfff5fb", "rental_uris": {"ios": "https://dc.lft.to/lastmile_qr_scan", "android": "https://dc.lft.to/lastmile_qr_scan"}}, {"is_disabled": 0, "fusion_lat": 0.0, "lat": 38.92851183333333, "type": "electric_bike", "lon": -77.22221283333333, "is_reserved": 0, "fusion_lon": 0.0, "bike_id": "babcb1e89faf913d340b717686dde572", "name": "babcb1e89faf913d340b717686dde572", "rental_uris": {"ios": "https://dc.lft.to/lastmile_qr_scan", "android": "https://dc.lft.to/lastmile_qr_scan"}}, {"is_disabled": 0, "fusion_lat": 0.0, "lat": 38.93242016666667, "type": "electric_scooter", "lon": -77.038607, "is_reserved": 0, "fusion_lon": 0.0, "bike_id": "a46b28052d5b816b0c01375fa590545e", "name": "a46b28052d5b816b0c01375fa590545e", "rental_uris": {"ios": "https://dc.lft.to/lastmile_qr_scan", "android": "https://dc.lft.to/lastmile_qr_scan"}}, {"is_disabled": 0, "fusion_lat": 0.0, "lat": 38.887227, "type": "electric_scooter", "lon": -77.03173183333334, "is_reserved": 0, "fusion_lon": 0.0, "bike_id": "5c1f5c8760917ff51ca66fbbbaf2d1c2", "name": "5c1f5c8760917ff51ca66fbbbaf2d1c2", "rental_uris": {"ios": "https://dc.lft.to/lastmile_qr_scan", "android": "https://dc.lft.to/lastmile_qr_scan"}}, {"is_disabled": 0, "fusion_lat": 0.0, "lat": 38.9072735, "type": "electric_scooter", "lon": -77.040066, "is_reserved": 0, "fusion_lon": 0.0, "bike_id": "1af69d8d7c21b616240b48075ecf2612", "name": "1af69d8d7c21b616240b48075ecf2612", "rental_uris": {"ios": "https://dc.lft.to/lastmile_qr_scan", "android": "https://dc.lft.to/lastmile_qr_scan"}}, {"is_disabled": 0, "fusion_lat": 0.0, "lat": 38.983657, "type": "electric_scooter", "lon": -77.02645466666667, "is_reserved": 0, "fusion_lon": 0.0, "bike_id": "74e0b6966301b9dcaeb21e86039326a8", "name": "74e0b6966301b9dcaeb21e86039326a8", "rental_uris": {"ios": "https://dc.lft.to/lastmile_qr_scan", "android": "https://dc.lft.to/lastmile_qr_scan"}}, {"is_disabled": 0, "fusion_lat": 0.0, "lat": 38.893710166666665, "type": "electric_scooter", "lon": -76.94999966666667, "is_reserved": 0, "fusion_lon": 0.0, "bike_id": "0b93e1c992d52d37d2be1cb24530e5f8", "name": "0b93e1c992d52d37d2be1cb24530e5f8", "rental_uris": {"ios": "https://dc.lft.to/lastmile_qr_scan", "android": "https://dc.lft.to/lastmile_qr_scan"}}, {"is_disabled": 0, "fusion_lat": 0.0, "lat": 38.84293516666666, "type": "electric_scooter", "lon": -76.999502, "is_reserved": 0, "fusion_lon": 0.0, "bike_id": "e7a6990546b62fcb3f77bc02aa7b7f86", "name": "e7a6990546b62fcb3f77bc02aa7b7f86", "rental_uris": {"ios": "https://dc.lft.to/lastmile_qr_scan", "android": "https://dc.lft.to/lastmile_qr_scan"}}, {"is_disabled": 0, "fusion_lat": 0.0, "lat": 38.9188135, "type": "electric_scooter", "lon": -77.02969333333333, "is_reserved": 0, "fusion_lon": 0.0, "bike_id": "6e0618ee88e440c1f0112e0f2798b3a7", "name": "6e0618ee88e440c1f0112e0f2798b3a7", "rental_uris": {"ios": "https://dc.lft.to/lastmile_qr_scan", "android": "https://dc.lft.to/lastmile_qr_scan"}}, {"is_disabled": 0, "fusion_lat": 0.0, "lat": 38.907091, "type": "electric_scooter", "lon": -77.04345433333333, "is_reserved": 0, "fusion_lon": 0.0, "bike_id": "a01a37b2780ffaacf365cdac228566e9", "name": "a01a37b2780ffaacf365cdac228566e9", "rental_uris": {"ios": "https://dc.lft.to/lastmile_qr_scan", "android": "https://dc.lft.to/lastmile_qr_scan"}}, {"is_disabled": 0, "fusion_lat": 0.0, "lat": 38.930794166666665, "type": "electric_scooter", "lon": -77.0375145, "is_reserved": 0, "fusion_lon": 0.0, "bike_id": "4d76c691fcacec506187138f4f290964", "name": "4d76c691fcacec506187138f4f290964", "rental_uris": {"ios": "https://dc.lft.to/lastmile_qr_scan", "android": "https://dc.lft.to/lastmile_qr_scan"}}, {"is_disabled": 0, "fusion_lat": 0.0, "lat": 38.90560416666667, "type": "electric_scooter", "lon": -77.0381405, "is_reserved": 0, "fusion_lon": 0.0, "bike_id": "0dfba355c49e56729920d179beda3205", "name": "0dfba355c49e56729920d179beda3205", "rental_uris": {"ios": "https://dc.lft.to/lastmile_qr_scan", "android": "https://dc.lft.to/lastmile_qr_scan"}}, {"is_disabled": 0, "fusion_lat": 0.0, "lat": 38.90526, "type": "electric_scooter", "lon": -77.05126083333333, "is_reserved": 0, "fusion_lon": 0.0, "bike_id": "a352cbc8f9a7c8351d8bb1652db7e9ab", "name": "a352cbc8f9a7c8351d8bb1652db7e9ab", "rental_uris": {"ios": "https://dc.lft.to/lastmile_qr_scan", "android": "https://dc.lft.to/lastmile_qr_scan"}}, {"is_disabled": 0, "fusion_lat": 0.0, "lat": 38.88483633333333, "type": "electric_scooter", "lon": -77.01508716666666, "is_reserved": 0, "fusion_lon": 0.0, "bike_id": "c5c3450a39f25b25e4dec3a8da62a709", "name": "c5c3450a39f25b25e4dec3a8da62a709", "rental_uris": {"ios": "https://dc.lft.to/lastmile_qr_scan", "android": "https://dc.lft.to/lastmile_qr_scan"}}, {"is_disabled": 0, "fusion_lat": 0.0, "lat": 38.919998166666666, "type": "electric_scooter", "lon": -77.03177383333333, "is_reserved": 0, "fusion_lon": 0.0, "bike_id": "c1bc36c0107accfb1c2ad15997d4d4cb", "name": "c1bc36c0107accfb1c2ad15997d4d4cb", "rental_uris": {"ios": "https://dc.lft.to/lastmile_qr_scan", "android": "https://dc.lft.to/lastmile_qr_scan"}}, {"is_disabled": 0, "fusion_lat": 0.0, "lat": 38.952673833333336, "type": "electric_bike", "lon": -77.0019615, "is_reserved": 0, "fusion_lon": 0.0, "bike_id": "86cff40d67a25fdf7e1dbbc477a787a4", "name": "86cff40d67a25fdf7e1dbbc477a787a4", "rental_uris": {"ios": "https://dc.lft.to/lastmile_qr_scan", "android": "https://dc.lft.to/lastmile_qr_scan"}}, {"is_disabled": 0, "fusion_lat": 0.0, "lat": 38.9213205, "type": "electric_scooter", "lon": -77.01798816666667, "is_reserved": 0, "fusion_lon": 0.0, "bike_id": "5d0dca9f6f5f0262639431d8f6d02d02", "name": "5d0dca9f6f5f0262639431d8f6d02d02", "rental_uris": {"ios": "https://dc.lft.to/lastmile_qr_scan", "android": "https://dc.lft.to/lastmile_qr_scan"}}, {"is_disabled": 0, "fusion_lat": 0.0, "lat": 38.90535166666667, "type": "electric_scooter", "lon": -77.02211083333333, "is_reserved": 0, "fusion_lon": 0.0, "bike_id": "58981c068565a7a532c76046ee76fb2d", "name": "58981c068565a7a532c76046ee76fb2d", "rental_uris": {"ios": "https://dc.lft.to/lastmile_qr_scan", "android": "https://dc.lft.to/lastmile_qr_scan"}}, {"is_disabled": 0, "fusion_lat": 0.0, "lat": 38.90131866666667, "type": "electric_scooter", "lon": -77.00280566666666, "is_reserved": 0, "fusion_lon": 0.0, "bike_id": "e12584bcde8c3974347dd8b20f98c441", "name": "e12584bcde8c3974347dd8b20f98c441", "rental_uris": {"ios": "https://dc.lft.to/lastmile_qr_scan", "android": "https://dc.lft.to/lastmile_qr_scan"}}, {"is_disabled": 0, "fusion_lat": 0.0, "lat": 38.8493345, "type": "electric_bike", "lon": -77.1001885, "is_reserved": 0, "fusion_lon": 0.0, "bike_id": "843e0c99cd5d73addffbe889ffe6d3c2", "name": "843e0c99cd5d73addffbe889ffe6d3c2", "rental_uris": {"ios": "https://dc.lft.to/lastmile_qr_scan", "android": "https://dc.lft.to/lastmile_qr_scan"}}, {"is_disabled": 0, "fusion_lat": 0.0, "lat": 38.8661905, "type": "electric_scooter", "lon": -76.98694366666666, "is_reserved": 0, "fusion_lon": 0.0, "bike_id": "41717b660df76a327cb0ad67034ae89c", "name": "41717b660df76a327cb0ad67034ae89c", "rental_uris": {"ios": "https://dc.lft.to/lastmile_qr_scan", "android": "https://dc.lft.to/lastmile_qr_scan"}}, {"is_disabled": 0, "fusion_lat": 0.0, "lat": 38.879588166666665, "type": "electric_scooter", "lon": -77.00492733333333, "is_reserved": 0, "fusion_lon": 0.0, "bike_id": "63b366a52813a1702aaa9ede046b0d2b", "name": "63b366a52813a1702aaa9ede046b0d2b", "rental_uris": {"ios": "https://dc.lft.to/lastmile_qr_scan", "android": "https://dc.lft.to/lastmile_qr_scan"}}, {"is_disabled": 0, "fusion_lat": 0.0, "lat": 38.86921483333333, "type": "electric_scooter", "lon": -76.983046, "is_reserved": 0, "fusion_lon": 0.0, "bike_id": "a562c5e1c7467bd1dcf0645aca6411d8", "name": "a562c5e1c7467bd1dcf0645aca6411d8", "rental_uris": {"ios": "https://dc.lft.to/lastmile_qr_scan", "android": "https://dc.lft.to/lastmile_qr_scan"}}, {"is_disabled": 0, "fusion_lat": 0.0, "lat": 38.986521333333336, "type": "electric_bike", "lon": -77.05635683333334, "is_reserved": 0, "fusion_lon": 0.0, "bike_id": "0d79da989df87156036e2f02d7cc6bf2", "name": "0d79da989df87156036e2f02d7cc6bf2", "rental_uris": {"ios": "https://dc.lft.to/lastmile_qr_scan", "android": "https://dc.lft.to/lastmile_qr_scan"}}, {"is_disabled": 0, "fusion_lat": 0.0, "lat": 38.885016, "type": "electric_scooter", "lon": -77.00566, "is_reserved": 0, "fusion_lon": 0.0, "bike_id": "2a8f10a36d590485642dc864d10b1123", "name": "2a8f10a36d590485642dc864d10b1123", "rental_uris": {"ios": "https://dc.lft.to/lastmile_qr_scan", "android": "https://dc.lft.to/lastmile_qr_scan"}}, {"is_disabled": 0, "fusion_lat": 0.0, "lat": 38.91172733333333, "type": "electric_scooter", "lon": -77.06829083333334, "is_reserved": 0, "fusion_lon": 0.0, "bike_id": "e822f66bd4b81b182527d8b296f2c5c5", "name": "e822f66bd4b81b182527d8b296f2c5c5", "rental_uris": {"ios": "https://dc.lft.to/lastmile_qr_scan", "android": "https://dc.lft.to/lastmile_qr_scan"}}, {"is_disabled": 0, "fusion_lat": 0.0, "lat": 38.904293, "type": "electric_scooter", "lon": -77.03269116666667, "is_reserved": 0, "fusion_lon": 0.0, "bike_id": "b558288cf4c2e94f93340b6284be9fd5", "name": "b558288cf4c2e94f93340b6284be9fd5", "rental_uris": {"ios": "https://dc.lft.to/lastmile_qr_scan", "android": "https://dc.lft.to/lastmile_qr_scan"}}, {"is_disabled": 0, "fusion_lat": 0.0, "lat": 38.844215, "type": "electric_scooter", "lon": -76.9977785, "is_reserved": 0, "fusion_lon": 0.0, "bike_id": "497aa6280a7d07ad3b786a242a4dcc9a", "name": "497aa6280a7d07ad3b786a242a4dcc9a", "rental_uris": {"ios": "https://dc.lft.to/lastmile_qr_scan", "android": "https://dc.lft.to/lastmile_qr_scan"}}, {"is_disabled": 0, "fusion_lat": 0.0, "lat": 38.903424666666666, "type": "electric_scooter", "lon": -77.04331633333334, "is_reserved": 0, "fusion_lon": 0.0, "bike_id": "8262bb873f4747172454a035cef16cce", "name": "8262bb873f4747172454a035cef16cce", "rental_uris": {"ios": "https://dc.lft.to/lastmile_qr_scan", "android": "https://dc.lft.to/lastmile_qr_scan"}}, {"is_disabled": 0, "fusion_lat": 0.0, "lat": 38.907208, "type": "electric_scooter", "lon": -76.99795716666667, "is_reserved": 0, "fusion_lon": 0.0, "bike_id": "7c56128b0066d8b61a562290f9a6186c", "name": "7c56128b0066d8b61a562290f9a6186c", "rental_uris": {"ios": "https://dc.lft.to/lastmile_qr_scan", "android": "https://dc.lft.to/lastmile_qr_scan"}}, {"is_disabled": 0, "fusion_lat": 0.0, "lat": 38.94167216666666, "type": "electric_scooter", "lon": -77.02536166666667, "is_reserved": 0, "fusion_lon": 0.0, "bike_id": "16d4e252e914d4209df7cd01a8bb86bb", "name": "16d4e252e914d4209df7cd01a8bb86bb", "rental_uris": {"ios": "https://dc.lft.to/lastmile_qr_scan", "android": "https://dc.lft.to/lastmile_qr_scan"}}, {"is_disabled": 0, "fusion_lat": 0.0, "lat": 38.93596083333333, "type": "electric_scooter", "lon": -77.023338, "is_reserved": 0, "fusion_lon": 0.0, "bike_id": "2e1b97d360c59677194d8804e4c8786f", "name": "2e1b97d360c59677194d8804e4c8786f", "rental_uris": {"ios": "https://dc.lft.to/lastmile_qr_scan", "android": "https://dc.lft.to/lastmile_qr_scan"}},