{"data": {"bikes": [{"is_disabled": 0, "lat": 38.90036933333333, "bike_id": "b54138cf13d09cadecf0f5ca0cb2633b", "fusion_lon": 0.0, "is_reserved": 0, "type": "electric_scooter", "name": "b54138cf13d09cadecf0f5ca0cb2633b", "lon": -76.9964005, "rental_uris": {"android": "https://dc.lft.to/lastmile_qr_scan", "ios": "https://dc.lft.to/lastmile_qr_scan"}, "fusion_lat": 0.0}, {"is_disabled": 0, "lat": 38.973706166666666, "bike_id": "3a4f2b5bc011add3af8a7b2dfa4b5b0e", "fusion_lon": 0.0, "is_reserved": 0, "type": "electric_scooter", "name": "3a4f2b5bc011add3af8a7b2dfa4b5b0e", "lon": -77.01862833333334, "rental_uris": {"android": "https://dc.lft.to/lastmile_qr_scan", "ios": "https://dc.lft.to/lastmile_qr_scan"}, "fusion_lat": 0.0}, {"is_disabled": 0, "lat": 38.93346783333333, "bike_id": "673174750652ab39811c030eb3dc8388", "fusion_lon": 0.0, "is_reserved": 0, "type": "electric_scooter", "name": "673174750652ab39811c030eb3dc8388", "lon": -77.0731425, "rental_uris": {"android": "https://dc.lft.to/lastmile_qr_scan", "ios": "https://dc.lft.to/lastmile_qr_scan"}, "fusion_lat": 0.0}, {"is_disabled": 0, "lat": 38.936048, "bike_id": "ff9626052d83ed11bd37df643ef0c87c", "fusion_lon": 0.0, "is_reserved": 0, "type": "electric_scooter", "name": "ff9626052d83ed11bd37df643ef0c87c", "lon": -77.03163883333333, "rental_uris": {"android": "https://dc.lft.to/lastmile_qr_scan", "ios": "https://dc.lft.to/lastmile_qr_scan"}, "fusion_lat": 0.0}, {"is_disabled": 0, "lat": 38.9057455, "bike_id": "e4d76593c8f30ecc6a541f52b79addb7", "fusion_lon": 0.0, "is_reserved": 0, "type": "electric_scooter", "name": "e4d76593c8f30ecc6a541f52b79addb7", "lon": -77.06278116666667, "rental_uris": {"android": "https://dc.lft.to/lastmile_qr_scan", "ios": "https://dc.lft.to/lastmile_qr_scan"}, "fusion_lat": 0.0}, {"is_disabled": 0, "lat": 38.90843366666667, "bike_id": "153b8d4a812456687de39f0d3f9ae997", "fusion_lon": 0.0, "is_reserved": 0, "type": "electric_scooter", "name": "153b8d4a812456687de39f0d3f9ae997", "lon": -77.0319995, "rental_uris": {"android": "https://dc.lft.to/lastmile_qr_scan", "ios": "https://dc.lft.to/lastmile_qr_scan"}, "fusion_lat": 0.0}, {"is_disabled": 0, "lat": 38.92098166666667, "bike_id": "8f4481221562166ff20358c75c7cd771", "fusion_lon": 0.0, "is_reserved": 0, "type": "electric_bike", "name": "8f4481221562166ff20358c75c7cd771", "lon": -77.06332833333333, "rental_uris": {"android": "https://dc.lft.to/lastmile_qr_scan", "ios": "https://dc.lft.to/lastmile_qr_scan"}, "fusion_lat": 0.0}, {"is_disabled": 0, "lat": 38.919747666666666, "bike_id": "cbcb2f3593cdebb9f5acecdbcbe61435", "fusion_lon": 0.0, "is_reserved": 0, "type": "electric_scooter", "name": "cbcb2f3593cdebb9f5acecdbcbe61435", "lon": -77.0419665, "rental_uris": {"android": "https://dc.lft.to/lastmile_qr_scan", "ios": "https://dc.lft.to/lastmile_qr_scan"}, "fusion_lat": 0.0}, {"is_disabled": 0, "lat": 38.941391, "bike_id": "06312eec34d6c03e642a9ae5dd51a0ab", "fusion_lon": 0.0, "is_reserved": 0, "type": "electric_scooter", "name": "06312eec34d6c03e642a9ae5dd51a0ab", "lon": -77.02551483333333, "rental_uris": {"android": "https://dc.lft.to/lastmile_qr_scan", "ios": "https://dc.lft.to/lastmile_qr_scan"}, "fusion_lat": 0.0}, {"is_disabled": 0, "lat": 38.900264666666665, "bike_id": "49622d1b17b112fb48eadd62d57f05de", "fusion_lon": 0.0, "is_reserved": 0, "type": "electric_scooter", "name": "49622d1b17b112fb48eadd62d57f05de", "lon": -76.997689, "rental_uris": {"android": "https://dc.lft.to/lastmile_qr_scan", "ios": "https://dc.lft.to/lastmile_qr_scan"}, "fusion_lat": 0.0}, {"is_disabled": 0, "lat": 38.84297433333333, "bike_id": "26ba9d59a71f8bfd2b9a1961dddec662", "fusion_lon": 0.0, "is_reserved": 0, "type": "electric_scooter", "name": "26ba9d59a71f8bfd2b9a1961dddec662", "lon": -76.99931933333333, "rental_uris": {"android": "https://dc.lft.to/lastmile_qr_scan", "ios": "https://dc.lft.to/lastmile_qr_scan"}, "fusion_lat": 0.0}, {"is_disabled": 0, "lat": 38.89524216666667, "bike_id": "a5694dcdb08686469238f3c86b2dbfc3", "fusion_lon": 0.0, "is_reserved": 0, "type": "electric_scooter", "name": "a5694dcdb08686469238f3c86b2dbfc3", "lon": -77.00347466666666, "rental_uris": {"android": "https://dc.lft.to/lastmile_qr_scan", "ios": "https://dc.lft.to/lastmile_qr_scan"}, "fusion_lat": 0.0}, {"is_disabled": 0, "lat": 38.895459, "bike_id": "2e867ea051d1a73167eb816e7e1e7c39", "fusion_lon": 0.0, "is_reserved": 0, "type": "electric_scooter", "name": "2e867ea051d1a73167eb816e7e1e7c39", "lon": -76.94870883333333, "rental_uris": {"android": "https://dc.lft.to/lastmile_qr_scan", "ios": "https://dc.lft.to/lastmile_qr_scan"}, "fusion_lat": 0.0}, {"is_disabled": 0, "lat": 38.91766666666667, "bike_id": "3c60d041a78a07fcc8221e9b8b86b8b9", "fusion_lon": 0.0, "is_reserved": 0, "type": "electric_scooter", "name": "3c60d041a78a07fcc8221e9b8b86b8b9", "lon": -77.01074383333334, "rental_uris": {"android": "https://dc.lft.to/lastmile_qr_scan", "ios": "https://dc.lft.to/lastmile_qr_scan"}, "fusion_lat": 0.0}, {"is_disabled": 0, "lat": 38.90548966666667, "bike_id": "22680ed2da589188bad2c938cb184ddc", "fusion_lon": 0.0, "is_reserved": 0, "type": "electric_scooter", "name": "22680ed2da589188bad2c938cb184ddc", "lon": -77.04752483333333, "rental_uris": {"android": "https://dc.lft.to/lastmile_qr_scan", "ios": "https://dc.lft.to/lastmile_qr_scan"}, "fusion_lat": 0.0}, {"is_disabled": 0, "lat": 38.971964, "bike_id": "1f90476f1fb21a6e58c8ddb3c9aea846", "fusion_lon": 0.0, "is_reserved": 0, "type": "electric_bike", "name": "1f90476f1fb21a6e58c8ddb3c9aea846", "lon": -76.99369116666666, "rental_uris": {"android": "https://dc.lft.to/lastmile_qr_scan", "ios": "https://dc.lft.to/lastmile_qr_scan"}, "fusion_lat": 0.0}, {"is_disabled": 0, "lat": 38.91671433333333, "bike_id": "56ba196908f5792e29a5133fc2316627", "fusion_lon": 0.0, "is_reserved": 0, "type": "electric_scooter", "name": "56ba196908f5792e29a5133fc2316627", "lon": -77.03692433333333, "rental_uris": {"android": "https://dc.lft.to/lastmile_qr_scan", "ios": "https://dc.lft.to/lastmile_qr_scan"}, "fusion_lat": 0.0}, {"is_disabled": 0, "lat": 38.895517, "bike_id": "36c01463e84097410c65a1ae620d462b", "fusion_lon": 0.0, "is_reserved": 0, "type": "electric_scooter", "name": "36c01463e84097410c65a1ae620d462b", "lon": -76.94879316666666, "rental_uris": {"android": "https://dc.lft.to/lastmile_qr_scan", "ios": "https://dc.lft.to/lastmile_qr_scan"}, "fusion_lat": 0.0}, {"is_disabled": 0, "lat": 38.904584166666666, "bike_id": "7ab735872f9a77fea9a1f04907c30fee", "fusion_lon": 0.0, "is_reserved": 0, "type": "electric_scooter", "name": "7ab735872f9a77fea9a1f04907c30fee", "lon": -76.9824415, "rental_uris": {"android": "https://dc.lft.to/lastmile_qr_scan", "ios": "https://dc.lft.to/lastmile_qr_scan"}, "fusion_lat": 0.0}, {"is_disabled": 0, "lat": 38.9540075, "bike_id": "eb3d2a4734da709898373eb95446a115", "fusion_lon": 0.0, "is_reserved": 0, "type": "electric_scooter", "name": "eb3d2a4734da709898373eb95446a115", "lon": -77.0269465, "rental_uris": {"android": "https://dc.lft.to/lastmile_qr_scan", "ios": "https://dc.lft.to/lastmile_qr_scan"}, "fusion_lat": 0.0}, {"is_disabled": 0, "lat": 38.8980635, "bike_id": "a69a69427373547e03109838599329bc", "fusion_lon": 0.0, "is_reserved": 0, "type": "electric_scooter", "name": "a69a69427373547e03109838599329bc", "lon": -77.02674666666667, "rental_uris": {"android": "https://dc.lft.to/lastmile_qr_scan", "ios": "https://dc.lft.to/lastmile_qr_scan"}, "fusion_lat": 0.0}, {"is_disabled": 0, "lat": 38.89671366666666, "bike_id": "b872ce67dcdd2d267bf5337a74095b8a", "fusion_lon": 0.0, "is_reserved": 0, "type": "electric_scooter", "name": "b872ce67dcdd2d267bf5337a74095b8a", "lon": -77.05081066666666, "rental_uris": {"android": "https://dc.lft.to/lastmile_qr_scan", "ios": "https://dc.lft.to/lastmile_qr_scan"}, "fusion_lat": 0.0}, {"is_disabled": 0, "lat": 38.8984275, "bike_id": "48594da4410fcb5e414cc2c701136987", "fusion_lon": 0.0, "is_reserved": 0, "type": "electric_scooter", "name": "48594da4410fcb5e414cc2c701136987", "lon": -76.946357, "rental_uris": {"android": "https://dc.lft.to/lastmile_qr_scan", "ios": "https://dc.lft.to/lastmile_qr_scan"}, "fusion_lat": 0.0}, {"is_disabled": 0, "lat": 38.88497266666667, "bike_id": "dd108d6643e457e7545ea41ae3a7584b", "fusion_lon": 0.0, "is_reserved": 0, "type": "electric_scooter", "name": "dd108d6643e457e7545ea41ae3a7584b", "lon": -77.00727766666667, "rental_uris": {"android": "https://dc.lft.to/lastmile_qr_scan", "ios": "https://dc.lft.to/lastmile_qr_scan"}, "fusion_lat": 0.0}, {"is_disabled": 0, "lat": 38.9067795, "bike_id": "b23e2edc984ed5eb09f3049f8731f617", "fusion_lon": 0.0, "is_reserved": 0, "type": "electric_scooter", "name": "b23e2edc984ed5eb09f3049f8731f617", "lon": -77.05013616666666, "rental_uris": {"android": "https://dc.lft.to/lastmile_qr_scan", "ios": "https://dc.lft.to/lastmile_qr_scan"}, "fusion_lat": 0.0}, {"is_disabled": 0, "lat": 38.89436966666667, "bike_id": "bbd769f0a1453b48992cf64bb5c80dae", "fusion_lon": 0.0, "is_reserved": 0, "type": "electric_scooter", "name": "bbd769f0a1453b48992cf64bb5c80dae", "lon": -77.02426266666667, "rental_uris": {"android": "https://dc.lft.to/lastmile_qr_scan", "ios": "https://dc.lft.to/lastmile_qr_scan"}, "fusion_lat": 0.0}, {"is_disabled": 0, "lat": 38.920469833333335, "bike_id": "b0a47caaec9eddc7303e7b31f622cc29", "fusion_lon": 0.0, "is_reserved": 0, "type": "electric_scooter", "name": "b0a47caaec9eddc7303e7b31f622cc29", "lon": -77.0243685, "rental_uris": {"android": "https://dc.lft.to/lastmile_qr_scan", "ios": "https://dc.lft.to/lastmile_qr_scan"}, "fusion_lat": 0.0}, {"is_disabled": 0, "lat": 38.905204833333336, "bike_id": "c1589a3df11c1fbef2d87e6ffae8f160", "fusion_lon": 0.0, "is_reserved": 0, "type": "electric_scooter", "name": "c1589a3df11c1fbef2d87e6ffae8f160", "lon": -77.04889566666667, "rental_uris": {"android": "https://dc.lft.to/lastmile_qr_scan", "ios": "https://dc.lft.to/lastmile_qr_scan"}, "fusion_lat": 0.0}, {"is_disabled": 0, "lat": 38.900347833333335, "bike_id": "32a33e766aad0b4dea88996eaa266e8f", "fusion_lon": 0.0, "is_reserved": 0, "type": "electric_scooter", "name": "32a33e766aad0b4dea88996eaa266e8f", "lon": -77.00660516666667, "rental_uris": {"android": "https://dc.lft.to/lastmile_qr_scan", "ios": "https://dc.lft.to/lastmile_qr_scan"}, "fusion_lat": 0.0}, {"is_disabled": 0, "lat": 38.883204666666664, "bike_id": "9ae3951b7bed70fc5a5aaf5a5be9140d", "fusion_lon": 0.0, "is_reserved": 0, "type": "electric_scooter", "name": "9ae3951b7bed70fc5a5aaf5a5be9140d", "lon": -76.998327, "rental_uris": {"android": "https://dc.lft.to/lastmile_qr_scan", "ios": "https://dc.lft.to/lastmile_qr_scan"}, "fusion_lat": 0.0}, {"is_disabled": 0, "lat": 38.9078815, "bike_id": "39b57943665fe6b5fab300903468082c", "fusion_lon": 0.0, "is_reserved": 0, "type": "electric_scooter", "name": "39b57943665fe6b5fab300903468082c", "lon": -77.03867383333333, "rental_uris": {"android": "https://dc.lft.to/lastmile_qr_scan", "ios": "https://dc.lft.to/lastmile_qr_scan"}, "fusion_lat": 0.0}, {"is_disabled": 0, "lat": 38.881412833333336, "bike_id": "b69ed27e5ffc2ab16c193e1be84ced2f", "fusion_lon": 0.0, "is_reserved": 0, "type": "electric_scooter", "name": "b69ed27e5ffc2ab16c193e1be84ced2f", "lon": -76.944023, "rental_uris": {"android": "https://dc.lft.to/lastmile_qr_scan", "ios": "https://dc.lft.to/lastmile_qr_scan"}, "fusion_lat": 0.0}, {"is_disabled": 0, "lat": 38.927729166666666, "bike_id": "923f2d23591592e2db0cceb5aa9558fd", "fusion_lon": 0.0, "is_reserved": 0, "type": "electric_scooter", "name": "923f2d23591592e2db0cceb5aa9558fd", "lon": -77.05264016666666, "rental_uris": {"android": "https://dc.lft.to/lastmile_qr_scan", "ios": "https://dc.lft.to/lastmile_qr_scan"}, "fusion_lat": 0.0}, {"is_disabled": 0, "lat": 38.92118933333333, "bike_id": "0e2ef78c9890be3c630c35c50b7d857b", "fusion_lon": 0.0, "is_reserved": 0, "type": "electric_scooter", "name": "0e2ef78c9890be3c630c35c50b7d857b", "lon": -77.04576566666667, "rental_uris": {"android": "https://dc.lft.to/lastmile_qr_scan", "ios": "https://dc.lft.to/lastmile_qr_scan"}, "fusion_lat": 0.0}, {"is_disabled": 0, "lat": 38.917046666666664, "bike_id": "7be714527708ec66e8c390fa93ecf985", "fusion_lon": 0.0, "is_reserved": 0, "type": "electric_scooter", "name": "7be714527708ec66e8c390fa93ecf985", "lon": -77.028708, "rental_uris": {"android": "https://dc.lft.to/lastmile_qr_scan", "ios": "https://dc.lft.to/lastmile_qr_scan"}, "fusion_lat": 0.0}, {"is_disabled": 0, "lat": 38.926723, "bike_id": "0372d60a3ae68a47d7a2cb18f080ac3a", "fusion_lon": 0.0, "is_reserved": 0, "type": "electric_scooter", "name": "0372d60a3ae68a47d7a2cb18f080ac3a", "lon": -77.01472716666666, "rental_uris": {"android": "https://dc.lft.to/lastmile_qr_scan", "ios": "https://dc.lft.to/lastmile_qr_scan"}, "fusion_lat": 0.0}, {"is_disabled": 0, "lat": 38.845041333333334, "bike_id": "8c5d4a3a4f52725b55fdd0a57c59eeda", "fusion_lon": 0.0, "is_reserved": 0, "type": "electric_bike", "name": "8c5d4a3a4f52725b55fdd0a57c59eeda", "lon": -76.99351883333334, "rental_uris": {"android": "https://dc.lft.to/lastmile_qr_scan", "ios": "https://dc.lft.to/lastmile_qr_scan"}, "fusion_lat": 0.0}, {"is_disabled": 0, "lat": 38.92391033333333, "bike_id": "3d4b63d67dea84b7bd77ed6d86446711", "fusion_lon": 0.0, "is_reserved": 0, "type": "electric_scooter", "name": "3d4b63d67dea84b7bd77ed6d86446711", "lon": -77.0309465, "rental_uris": {"android": "https://dc.lft.to/lastmile_qr_scan", "ios": "https://dc.lft.to/lastmile_qr_scan"}, "fusion_lat": 0.0}, {"is_disabled": 0, "lat": 38.92390866666667, "bike_id": "956f0ef088cb0385c217187ce7e3b927", "fusion_lon": 0.0, "is_reserved": 0, "type": "electric_scooter", "name": "956f0ef088cb0385c217187ce7e3b927", "lon": -77.02743866666667, "rental_uris": {"android": "https://dc.lft.to/lastmile_qr_scan", "ios": "https://dc.lft.to/lastmile_qr_scan"}, "fusion_lat": 0.0}, {"is_disabled": 0, "lat": 38.897508, "bike_id": "b441212bb0e28f997dea7eefa7761dba", "fusion_lon": 0.0, "is_reserved": 0, "type": "electric_scooter", "name": "b441212bb0e28f997dea7eefa7761dba", "lon": -76.97607566666667, "rental_uris": {"android": "https://dc.lft.to/lastmile_qr_scan", "ios": "https://dc.lft.to/lastmile_qr_scan"}, "fusion_lat": 0.0}, {"is_disabled": 0, "lat": 38.88148316666667, "bike_id": "05ad51242d10e2054d05edeceb4c9c34", "fusion_lon": 0.0, "is_reserved": 0, "type": "electric_scooter", "name": "05ad51242d10e2054d05edeceb4c9c34", "lon": -76.99491883333333, "rental_uris": {"android": "https://dc.lft.to/lastmile_qr_scan", "ios": "https://dc.lft.to/lastmile_qr_scan"}, "fusion_lat": 0.0}, {"is_disabled": 0, "lat": 38.944036833333335, "bike_id": "24e8fb1a9ddb373fa8df17c627b4a1d9", "fusion_lon": 0.0, "is_reserved": 0, "type": "electric_bike", "name": "24e8fb1a9ddb373fa8df17c627b4a1d9", "lon": -77.03214066666666, "rental_uris": {"android": "https://dc.lft.to/lastmile_qr_scan", "ios": "https://dc.lft.to/lastmile_qr_scan"}, "fusion_lat": 0.0}, {"is_disabled": 0, "lat": 38.927187333333336, "bike_id": "930e4334d835694dddade306d4461c51", "fusion_lon": 0.0, "is_reserved": 0, "type": "electric_scooter", "name": "930e4334d835694dddade306d4461c51", "lon": -77.020844, "rental_uris": {"android": "https://dc.lft.to/lastmile_qr_scan", "ios": "https://dc.lft.to/lastmile_qr_scan"}, "fusion_lat": 0.0}, {"is_disabled": 0, "lat": 38.90052383333333, "bike_id": "612f70fdcf0d8b021bbcabdedbb200df", "fusion_lon": 0.0, "is_reserved": 0, "type": "electric_scooter", "name": "612f70fdcf0d8b021bbcabdedbb200df", "lon": -77.00218033333333, "rental_uris": {"android": "https://dc.lft.to/lastmile_qr_scan", "ios": "https://dc.lft.to/lastmile_qr_scan"}, "fusion_lat": 0.0}, {"is_disabled": 0, "lat": 38.95322, "bike_id": "0121409e36cff3afed31bd0c23b4be13", "fusion_lon": 0.0, "is_reserved": 0, "type": "electric_bike", "name": "0121409e36cff3afed31bd0c23b4be13", "lon": -77.01573916666666, "rental_uris": {"android": "https://dc.lft.to/lastmile_qr_scan", "ios": "https://dc.lft.to/lastmile_qr_scan"}, "fusion_lat": 0.0}, {"is_disabled": 0, "lat": 38.91048166666667, "bike_id": "85b0f60622c19bde9ea749ed99582155", "fusion_lon": 0.0, "is_reserved": 0, "type": "electric_scooter", "name": "85b0f60622c19bde9ea749ed99582155", "lon": -77.048208, "rental_uris": {"android": "https://dc.lft.to/lastmile_qr_scan", "ios": "https://dc.lft.to/lastmile_qr_scan"}, "fusion_lat": 0.0}, {"is_disabled": 0, "lat": 38.8856555, "bike_id": "e5bbb0bc9ae2ea85ce056d01282db8c1", "fusion_lon": 0.0, "is_reserved": 0, "type": "electric_scooter", "name": "e5bbb0bc9ae2ea85ce056d01282db8c1", "lon": -76.9980515, "rental_uris": {"android": "https://dc.lft.to/lastmile_qr_scan", "ios": "https://dc.lft.to/lastmile_qr_scan"}, "fusion_lat": 0.0}, {"is_disabled": 0, "lat": 38.8754745, "bike_id": "11d8626d29db9d3f41bb5ed4bd47895a", "fusion_lon": 0.0, "is_reserved": 0, "type": "electric_scooter", "name": "11d8626d29db9d3f41bb5ed4bd47895a", "lon": -77.006063, "rental_uris": {"android": "https://dc.lft.to/lastmile_qr_scan", "ios": "https://dc.lft.to/lastmile_qr_scan"}, "fusion_lat": 0.0}, {"is_disabled": 0, "lat": 38.895494666666664, "bike_id": "937de63349c9ad1b96ab91071d4cb213", "fusion_lon": 0.0, "is_reserved": 0, "type": "electric_scooter", "name": "937de63349c9ad1b96ab91071d4cb213", "lon": -77.01972633333334, "rental_uris": {"android": "https://dc.lft.to/lastmile_qr_scan", "ios": "https://dc.lft.to/lastmile_qr_scan"}, "fusion_lat": 0.0}, {"is_disabled": 0, "lat": 38.89605266666667, "bike_id": "6ff4f8ae2a34e97a2221260f3377f1fb", "fusion_lon": 0.0, "is_reserved": 0, "type": "electric_scooter", "name": "6ff4f8ae2a34e97a2221260f3377f1fb", "lon": -77.00930433333333, "rental_uris": {"android": "https://dc.lft.to/lastmile_qr_scan", "ios": "https://dc.lft.to/lastmile_qr_scan"}, "fusion_lat": 0.0}, {"is_disabled": 0, "lat": 38.897659166666664, "bike_id": "7ae2f777af4095d554b83754fbaba4af", "fusion_lon": 0.0, "is_reserved": 0, "type": "electric_scooter", "name": "7ae2f777af4095d554b83754fbaba4af", "lon": -76.995013, "rental_uris": {"android": "https://dc.lft.to/lastmile_qr_scan", "ios": "https://dc.lft.to/lastmile_qr_scan"}, "fusion_lat": 0.0}, {"is_disabled": 0, "lat": 38.8443125, "bike_id": "dc27e39c70da9d3a4a6fe56383a6ba68", "fusion_lon": 0.0, "is_reserved": 0, "type": "electric_scooter", "name": "dc27e39c70da9d3a4a6fe56383a6ba68", "lon": -76.997069, "rental_uris": {"android": "https://dc.lft.to/lastmile_qr_scan", "ios": "https://dc.lft.to/lastmile_qr_scan"}, "fusion_lat": 0.0}, {"is_disabled": 0, "lat": 38.925114666666666, "bike_id": "25bf0d1f34a2e7cce164b485779399f1", "fusion_lon": 0.0, "is_reserved": 0, "type": "electric_scooter", "name": "25bf0d1f34a2e7cce164b485779399f1", "lon": -77.03880366666667, "rental_uris": {"android": "https://dc.lft.to/lastmile_qr_scan", "ios": "https://dc.lft.to/lastmile_qr_scan"}, "fusion_lat": 0.0}, {"is_disabled": 0, "lat": 38.924247333333334, "bike_id": "374645bce22589c23607062ccc3d80e6", "fusion_lon": 0.0, "is_reserved": 0, "type": "electric_scooter", "name": "374645bce22589c23607062ccc3d80e6", "lon": -77.05182483333333, "rental_uris": {"android": "https://dc.lft.to/lastmile_qr_scan", "ios": "https://dc.lft.to/lastmile_qr_scan"}, "fusion_lat": 0.0}, {"is_disabled": 0, "lat": 38.92600916666667, "bike_id": "a3832deb0c7967d68787776df9414d01", "fusion_lon": 0.0, "is_reserved": 0, "type": "electric_scooter", "name": "a3832deb0c7967d68787776df9414d01", "lon": -77.02152483333333, "rental_uris": {"android": "https://dc.lft.to/lastmile_qr_scan", "ios": "https://dc.lft.to/lastmile_qr_scan"}, "fusion_lat": 0.0}, {"is_disabled": 0, "lat": 38.9003345, "bike_id": "85f28f7a86429ee9d87743e353e019a4", "fusion_lon": 0.0, "is_reserved": 0, "type": "electric_scooter", "name": "85f28f7a86429ee9d87743e353e019a4", "lon": -76.98764616666666, "rental_uris": {"android": "https://dc.lft.to/lastmile_qr_scan", "ios": "https://dc.lft.to/lastmile_qr_scan"}, "fusion_lat": 0.0}, {"is_disabled": 0, "lat": 38.92059, "bike_id": "7cd27e4c55e057305d114aba52ade5f2", "fusion_lon": 0.0, "is_reserved": 0, "type": "electric_scooter", "name": "7cd27e4c55e057305d114aba52ade5f2", "lon": -77.07606616666666, "rental_uris": {"android": "https://dc.lft.to/lastmile_qr_scan", "ios": "https://dc.lft.to/lastmile_qr_scan"}, "fusion_lat": 0.0}, {"is_disabled": 0, "lat": 38.87289883333333, "bike_id": "383e98d8451bdea3a8a819981a4b4b67", "fusion_lon": 0.0, "is_reserved": 0, "type": "electric_scooter", "name": "383e98d8451bdea3a8a819981a4b4b67", "lon": -76.97727, "rental_uris": {"android": "https://dc.lft.to/lastmile_qr_scan", "ios": "https://dc.lft.to/lastmile_qr_scan"}, "fusion_lat": 0.0}, {"is_disabled": 0, "lat": 38.9036945, "bike_id": "506b6afe05b464711fa286145dda939f", "fusion_lon": 0.0, "is_reserved": 0, "type": "electric_scooter", "name": "506b6afe05b464711fa286145dda939f", "lon": -77.04016733333333, "rental_uris": {"android": "https://dc.lft.to/lastmile_qr_scan", "ios": "https://dc.lft.to/lastmile_qr_scan"}, "fusion_lat": 0.0}, {"is_disabled": 0, "lat": 38.863584333333336, "bike_id": "fdc9cca0f29d234fe1fbb40038042f44", "fusion_lon": 0.0, "is_reserved": 0, "type": "electric_scooter", "name": "fdc9cca0f29d234fe1fbb40038042f44", "lon": -76.99059283333334, "rental_uris": {"android": "https://dc.lft.to/lastmile_qr_scan", "ios": "https://dc.lft.to/lastmile_qr_scan"}, "fusion_lat": 0.0}, {"is_disabled": 0, "lat": 38.90568016666667, "bike_id": "133583e9a0436e079bda66152d2763fc", "fusion_lon": 0.0, "is_reserved": 0, "type": "electric_scooter", "name": "133583e9a0436e079bda66152d2763fc", "lon": -77.03472033333334, "rental_uris": {"android": "https://dc.lft.to/lastmile_qr_scan", "ios": "https://dc.lft.to/lastmile_qr_scan"}, "fusion_lat": 0.0}, {"is_disabled": 0, "lat": 38.9216605, "bike_id": "85f18cace5b2d2ffd5c9c6da60074491", "fusion_lon": 0.0, "is_reserved": 0, "type": "electric_scooter", "name": "85f18cace5b2d2ffd5c9c6da60074491", "lon": -77.04450783333333, "rental_uris": {"android": "https://dc.lft.to/lastmile_qr_scan", "ios": "https://dc.lft.to/lastmile_qr_scan"}, "fusion_lat": 0.0}, {"is_disabled": 0, "lat": 38.9169615, "bike_id": "44ae7e39c08d5dfb7c8a7401bebc136d", "fusion_lon": 0.0, "is_reserved": 0, "type": "electric_scooter", "name": "44ae7e39c08d5dfb7c8a7401bebc136d", "lon": -77.04151533333334, "rental_uris": {"android": "https://dc.lft.to/lastmile_qr_scan", "ios": "https://dc.lft.to/lastmile_qr_scan"}, "fusion_lat": 0.0}, {"is_disabled": 0, "lat": 38.911197, "bike_id": "758afe1ea6541c6c07a499425de3adaf", "fusion_lon": 0.0, "is_reserved": 0, "type": "electric_scooter", "name": "758afe1ea6541c6c07a499425de3adaf", "lon": -77.04235183333333, "rental_uris": {"android": "https://dc.lft.to/lastmile_qr_scan", "ios": "https://dc.lft.to/lastmile_qr_scan"}, "fusion_lat": 0.0}, {"is_disabled": 0, "lat": 38.92088283333333, "bike_id": "0be2f30444d13b1fed32c6581613e2e5", "fusion_lon": 0.0, "is_reserved": 0, "type": "electric_scooter", "name": "0be2f30444d13b1fed32c6581613e2e5", "lon": -77.031676, "rental_uris": {"android": "https://dc.lft.to/lastmile_qr_scan", "ios": "https://dc.lft.to/lastmile_qr_scan"}, "fusion_lat": 0.0}, {"is_disabled": 0, "lat": 38.90526933333334, "bike_id": "e695a89b0e625edaa4da68ddc64b6b5f", "fusion_lon": 0.0, "is_reserved": 0, "type": "electric_scooter", "name": "e695a89b0e625edaa4da68ddc64b6b5f", "lon": -77.0514325, "rental_uris": {"android": "https://dc.lft.to/lastmile_qr_scan", "ios": "https://dc.lft.to/lastmile_qr_scan"}, "fusion_lat": 0.0}, {"is_disabled": 0, "lat": 38.903426833333334, "bike_id": "d090f7319bf7a83feef4d2a724f82c6b", "fusion_lon": 0.0, "is_reserved": 0, "type": "electric_scooter", "name": "d090f7319bf7a83feef4d2a724f82c6b", "lon": -77.0590425, "rental_uris": {"android": "https://dc.lft.to/lastmile_qr_scan", "ios": "https://dc.lft.to/lastmile_qr_scan"}, "fusion_lat": 0.0}, {"is_disabled": 0, "lat": 38.92418466666667, "bike_id": "c52b25200b0635dfa16991019bd83797", "fusion_lon": 0.0, "is_reserved": 0, "type": "electric_scooter", "name": "c52b25200b0635dfa16991019bd83797", "lon": -77.0201335, "rental_uris": {"android": "https://dc.lft.to/lastmile_qr_scan", "ios": "https://dc.lft.to/lastmile_qr_scan"}, "fusion_lat": 0.0}, {"is_disabled": 0, "lat": 38.93082583333333, "bike_id": "852084cf9aa9335c2eadb9d312c6e93f", "fusion_lon": 0.0, "is_reserved": 0, "type": "electric_scooter", "name": "852084cf9aa9335c2eadb9d312c6e93f", "lon": -77.02157683333333, "rental_uris": {"android": "https://dc.lft.to/lastmile_qr_scan", "ios": "https://dc.lft.to/lastmile_qr_scan"}, "fusion_lat": 0.0}, {"is_disabled": 0, "lat": 38.928612666666666, "bike_id": "7ea195fd31914f18374fbc937f872f31", "fusion_lon": 0.0, "is_reserved": 0, "type": "electric_scooter", "name": "7ea195fd31914f18374fbc937f872f31", "lon": -77.0141115, "rental_uris": {"android": "https://dc.lft.to/lastmile_qr_scan", "ios": "https://dc.lft.to/lastmile_qr_scan"}, "fusion_lat": 0.0}, {"is_disabled": 0, "lat": 38.930599, "bike_id": "09d387e0be681ddf972bb943187ceae1", "fusion_lon": 0.0, "is_reserved": 0, "type": "electric_scooter", "name": "09d387e0be681ddf972bb943187ceae1", "lon": -77.03667516666667, "rental_uris": {"android": "https://dc.lft.to/lastmile_qr_scan", "ios": "https://dc.lft.to/lastmile_qr_scan"}, "fusion_lat": 0.0}, {"is_disabled": 0, "lat": 38.88616116666667, "bike_id": "15be65084a986f3dc0db6928c83b5517", "fusion_lon": 0.0, "is_reserved": 0, "type": "electric_scooter", "name": "15be65084a986f3dc0db6928c83b5517", "lon": -77.01584166666666, "rental_uris": {"android": "https://dc.lft.to/lastmile_qr_scan", "ios": "https://dc.lft.to/lastmile_qr_scan"}, "fusion_lat": 0.0}, {"is_disabled": 0, "lat": 39.023937833333335, "bike_id": "6f18f7388c2fa3c1a83603fee21b3fa6", "fusion_lon": 0.0, "is_reserved": 0, "type": "electric_bike", "name": "6f18f7388c2fa3c1a83603fee21b3fa6", "lon": -77.04690216666667, "rental_uris": {"android": "https://dc.lft.to/lastmile_qr_scan", "ios": "https://dc.lft.to/lastmile_qr_scan"}, "fusion_lat": 0.0}, {"is_disabled": 0, "lat": 38.88763333333333, "bike_id": "30201f935993c209a76c9ef6938665c9", "fusion_lon": 0.0, "is_reserved": 0, "type": "electric_scooter", "name": "30201f935993c209a76c9ef6938665c9", "lon": -77.02866083333333, "rental_uris": {"android": "https://dc.lft.to/lastmile_qr_scan", "ios": "https://dc.lft.to/lastmile_qr_scan"}, "fusion_lat": 0.0}, {"is_disabled": 0, "lat": 38.8552045, "bike_id": "83bd4859cf07bb937c309e4d137f6f22", "fusion_lon": 0.0, "is_reserved": 0, "type": "electric_bike", "name": "83bd4859cf07bb937c309e4d137f6f22", "lon": -77.1116475, "rental_uris": {"android": "https://dc.lft.to/lastmile_qr_scan", "ios": "https://dc.lft.to/lastmile_qr_scan"}, "fusion_lat": 0.0}, {"is_disabled": 0, "lat": 38.904471, "bike_id": "e4f4afc2af15d863c6890972a32b4c5a", "fusion_lon": 0.0, "is_reserved": 0, "type": "electric_scooter", "name": "e4f4afc2af15d863c6890972a32b4c5a", "lon": -77.05333166666667, "rental_uris": {"android": "https://dc.lft.to/lastmile_qr_scan", "ios": "https://dc.lft.to/lastmile_qr_scan"}, "fusion_lat": 0.0}, {"is_disabled": 0, "lat": 38.89349766666667, "bike_id": "bf0493d1245399f5c9e034da96690b73", "fusion_lon": 0.0, "is_reserved": 0, "type": "electric_bike", "name": "bf0493d1245399f5c9e034da96690b73", "lon": -77.18742033333334, "rental_uris": {"android": "https://dc.lft.to/lastmile_qr_scan", "ios": "https://dc.lft.to/lastmile_qr_scan"}, "fusion_lat": 0.0}, {"is_disabled": 0, "lat": 38.927475, "bike_id": "90a7dfb47eef14275707ed9ebc095d1b", "fusion_lon": 0.0, "is_reserved": 0, "type": "electric_scooter", "name": "90a7dfb47eef14275707ed9ebc095d1b", "lon": -77.064651, "rental_uris": {"android": "https://dc.lft.to/lastmile_qr_scan", "ios": "https://dc.lft.to/lastmile_qr_scan"}, "fusion_lat": 0.0}, {"is_disabled": 0, "lat": 38.86580216666667, "bike_id": "0f024fef2e4866a294288b60430413e7", "fusion_lon": 0.0, "is_reserved": 0, "type": "electric_scooter", "name": "0f024fef2e4866a294288b60430413e7", "lon": -76.9736825, "rental_uris": {"android": "https://dc.lft.to/lastmile_qr_scan", "ios": "https://dc.lft.to/lastmile_qr_scan"}, "fusion_lat": 0.0}, {"is_disabled": 0, "lat": 38.9043505, "bike_id": "7922e720a15ed1d5f62ff0254a4359fd", "fusion_lon": 0.0, "is_reserved": 0, "type": "electric_scooter", "name": "7922e720a15ed1d5f62ff0254a4359fd", "lon": -77.06291483333334, "rental_uris": {"android": "https://dc.lft.to/lastmile_qr_scan", "ios": "https://dc.lft.to/lastmile_qr_scan"}, "fusion_lat": 0.0}, {"is_disabled": 0, "lat": 38.8864835, "bike_id": "7ae0c30b9cf2aedf4b87f20ea5038311", "fusion_lon": 0.0, "is_reserved": 0, "type": "electric_scooter", "name": "7ae0c30b9cf2aedf4b87f20ea5038311", "lon": -76.98230483333333, "rental_uris": {"android": "https://dc.lft.to/lastmile_qr_scan", "ios": "https://dc.lft.to/lastmile_qr_scan"}, "fusion_lat": 0.0}, {"is_disabled": 0, "lat": 38.871836, "bike_id": "66adf64762fe27c402e1db715874d17d", "fusion_lon": 0.0, "is_reserved": 0, "type": "electric_scooter", "name": "66adf64762fe27c402e1db715874d17d", "lon": -77.01222816666667, "rental_uris": {"android": "https://dc.lft.to/lastmile_qr_scan", "ios": "https://dc.lft.to/lastmile_qr_scan"}, "fusion_lat": 0.0}, {"is_disabled": 0, "lat": 38.91746716666667, "bike_id": "36a3c01252f18bbc3ce8a3ca4fa6a189", "fusion_lon": 0.0, "is_reserved": 0, "type": "electric_scooter", "name": "36a3c01252f18bbc3ce8a3ca4fa6a189", "lon": -77.03188316666666, "rental_uris": {"android": "https://dc.lft.to/lastmile_qr_scan", "ios": "https://dc.lft.to/lastmile_qr_scan"}, "fusion_lat": 0.0}, {"is_disabled": 0, "lat": 38.9126665, "bike_id": "da99461268673fdb88cdae16bebb827c", "fusion_lon": 0.0, "is_reserved": 0, "type": "electric_scooter", "name": "da99461268673fdb88cdae16bebb827c", "lon": -77.04549183333333, "rental_uris": {"android": "https://dc.lft.to/lastmile_qr_scan", "ios": "https://dc.lft.to/lastmile_qr_scan"}, "fusion_lat": 0.0}, {"is_disabled": 0, "lat": 38.92067766666667, "bike_id": "db4c4143fa3a2e6b253c5f257aee312e", "fusion_lon": 0.0, "is_reserved": 0, "type": "electric_scooter", "name": "db4c4143fa3a2e6b253c5f257aee312e", "lon": -77.04357066666667, "rental_uris": {"android": "https://dc.lft.to/lastmile_qr_scan", "ios": "https://dc.lft.to/lastmile_qr_scan"}, "fusion_lat": 0.0}, {"is_disabled": 0, "lat": 38.8765325, "bike_id": "422e5407f97dac6ffb26447060664924", "fusion_lon": 0.0, "is_reserved": 0, "type": "electric_scooter", "name": "422e5407f97dac6ffb26447060664924", "lon": -77.00035383333334, "rental_uris": {"android": "https://dc.lft.to/lastmile_qr_scan", "ios": "https://dc.lft.to/lastmile_qr_scan"}, "fusion_lat": 0.0}, {"is_disabled": 0, "lat": 38.892500166666665, "bike_id": "540ea0ebcf7e1de3548d6f9b9baa8cda", "fusion_lon": 0.0, "is_reserved": 0, "type": "electric_scooter", "name": "540ea0ebcf7e1de3548d6f9b9baa8cda", "lon": -77.03957033333333, "rental_uris": {"android": "https://dc.lft.to/lastmile_qr_scan", "ios": "https://dc.lft.to/lastmile_qr_scan"}, "fusion_lat": 0.0}, {"is_disabled": 0, "lat": 38.91489383333333, "bike_id": "5047fe6e258f3d5ab33d45430d61de12", "fusion_lon": 0.0, "is_reserved": 0, "type": "electric_scooter", "name": "5047fe6e258f3d5ab33d45430d61de12", "lon": -76.98357616666667, "rental_uris": {"android": "https://dc.lft.to/lastmile_qr_scan", "ios": "https://dc.lft.to/lastmile_qr_scan"}, "fusion_lat": 0.0}, {"is_disabled": 0, "lat": 38.917063666666664, "bike_id": "4827890cbb9097f8858fca5873f95c90", "fusion_lon": 0.0, "is_reserved": 0, "type": "electric_scooter", "name": "4827890cbb9097f8858fca5873f95c90", "lon": -77.03721733333333, "rental_uris": {"android": "https://dc.lft.to/lastmile_qr_scan", "ios": "https://dc.lft.to/lastmile_qr_scan"}, "fusion_lat": 0.0}, {"is_disabled": 0, "lat": 38.92485466666667, "bike_id": "47c03154d044caf61cf4e9a90d5e5f8e", "fusion_lon": 0.0, "is_reserved": 0, "type": "electric_scooter", "name": "47c03154d044caf61cf4e9a90d5e5f8e", "lon": -77.03493633333333, "rental_uris": {"android": "https://dc.lft.to/lastmile_qr_scan", "ios": "https://dc.lft.to/lastmile_qr_scan"}, "fusion_lat": 0.0}, {"is_disabled": 0, "lat": 38.91804333333333, "bike_id": "893dc94f939a2c60dc0ad96cf5dff4e5", "fusion_lon": 0.0, "is_reserved": 0, "type": "electric_scooter", "name": "893dc94f939a2c60dc0ad96cf5dff4e5", "lon": -77.03428066666666, "rental_uris": {"android": "https://dc.lft.to/lastmile_qr_scan", "ios": "https://dc.lft.to/lastmile_qr_scan"}, "fusion_lat": 0.0}, {"is_disabled": 0, "lat": 38.94598083333333, "bike_id": "7acfe17c5fb0638eb605f3406551fe3f", "fusion_lon": 0.0, "is_reserved": 0, "type": "electric_scooter", "name": "7acfe17c5fb0638eb605f3406551fe3f", "lon": -76.99013033333334, "rental_uris": {"android": "https://dc.lft.to/lastmile_qr_scan", "ios": "https://dc.lft.to/lastmile_qr_scan"}, "fusion_lat": 0.0}, {"is_disabled": 0, "lat": 39.06293766666667, "bike_id": "0b0868f0962cd663ba3efd237b4d3c55", "fusion_lon": 0.0, "is_reserved": 0, "type": "electric_bike", "name": "0b0868f0962cd663ba3efd237b4d3c55", "lon": -77.04977983333333, "rental_uris": {"android": "https://dc.lft.to/lastmile_qr_scan", "ios": "https://dc.lft.to/lastmile_qr_scan"}, "fusion_lat": 0.0}, {"is_disabled": 0, "lat": 38.899726333333334, "bike_id": "1c60fe8a90aa2e9cab8bf9b1d3ea62e9", "fusion_lon": 0.0, "is_reserved": 0, "type": "electric_scooter", "name": "1c60fe8a90aa2e9cab8bf9b1d3ea62e9", "lon": -76.93775783333334, "rental_uris": {"android": "https://dc.lft.to/lastmile_qr_scan", "ios": "https://dc.lft.to/lastmile_qr_scan"}, "fusion_lat": 0.0}, {"is_disabled": 0, "lat": 38.89613133333334, "bike_id": "cd3f6589c1ad3127d546ef13fd744da7", "fusion_lon": 0.0, "is_reserved": 0, "type": "electric_scooter", "name": "cd3f6589c1ad3127d546ef13fd744da7", "lon": -77.04598533333333, "rental_uris": {"android": "https://dc.lft.to/lastmile_qr_scan", "ios": "https://dc.lft.to/lastmile_qr_scan"}, "fusion_lat": 0.0}, {"is_disabled": 0, "lat": 38.903936, "bike_id": "eab23c6981e146b62046be17867f86d0", "fusion_lon": 0.0, "is_reserved": 0, "type": "electric_scooter", "name": "eab23c6981e146b62046be17867f86d0", "lon": -77.0452655, "rental_uris": {"android": "https://dc.lft.to/lastmile_qr_scan", "ios": "https://dc.lft.to/lastmile_qr_scan"}, "fusion_lat": 0.0}, {"is_disabled": 0, "lat": 38.8786115, "bike_id": "2b271842f99d9828b2b1fd4adbed5e21", "fusion_lon": 0.0, "is_reserved": 0, "type": "electric_scooter", "name": "2b271842f99d9828b2b1fd4adbed5e21", "lon": -76.93768116666666, "rental_uris": {"android": "https://dc.lft.to/lastmile_qr_scan", "ios": "https://dc.lft.to/lastmile_qr_scan"}, "fusion_lat": 0.0}, {"is_disabled": 0, "lat": 38.915675666666665, "bike_id": "59c31c3c18a58eb9c6a05c1d5349fbd8", "fusion_lon": 0.0, "is_reserved": 0, "type": "electric_scooter", "name": "59c31c3c18a58eb9c6a05c1d5349fbd8", "lon": -77.0301575, "rental_uris": {"android": "https://dc.lft.to/lastmile_qr_scan", "ios": "https://dc.lft.to/lastmile_qr_scan"}, "fusion_lat": 0.0}, {"is_disabled": 0, "lat": 38.89843416666667, "bike_id": "16e697cc715079b3ff677ee44dcf5c4c", "fusion_lon": 0.0, "is_reserved": 0, "type": "electric_scooter", "name": "16e697cc715079b3ff677ee44dcf5c4c", "lon": -77.030478, "rental_uris": {"android": "https://dc.lft.to/lastmile_qr_scan", "ios": "https://dc.lft.to/lastmile_qr_scan"}, "fusion_lat": 0.0}, {"is_disabled": 0, "lat": 38.90879666666667, "bike_id": "71b8f805f7fda1b3316d1a1bafdde430", "fusion_lon": 0.0, "is_reserved": 0, "type": "electric_scooter", "name": "71b8f805f7fda1b3316d1a1bafdde430", "lon": -77.02317066666667, "rental_uris": {"android": "https://dc.lft.to/lastmile_qr_scan", "ios": "https://dc.lft.to/lastmile_qr_scan"}, "fusion_lat": 0.0}, {"is_disabled": 0, "lat": 38.89412383333333, "bike_id": "e6ce4cd82dd609654bc6f1a40d355c52", "fusion_lon": 0.0, "is_reserved": 0, "type": "electric_scooter", "name": "e6ce4cd82dd609654bc6f1a40d355c52", "lon": -76.99860366666667, "rental_uris": {"android": "https://dc.lft.to/lastmile_qr_scan", "ios": "https://dc.lft.to/lastmile_qr_scan"}, "fusion_lat": 0.0}, {"is_disabled": 0, "lat": 38.90503316666667, "bike_id": "3572c5badd02be6aefb81ff9c2a9f15f", "fusion_lon": 0.0, "is_reserved": 0, "type": "electric_scooter", "name": "3572c5badd02be6aefb81ff9c2a9f15f", "lon": -77.00120133333333, "rental_uris": {"android": "https://dc.lft.to/lastmile_qr_scan", "ios": "https://dc.lft.to/lastmile_qr_scan"}, "fusion_lat": 0.0}, {"is_disabled": 0, "lat": 38.864883, "bike_id": "df33cbcdb1f6f695781831334f9c3f12", "fusion_lon": 0.0, "is_reserved": 0, "type": "electric_bike", "name": "df33cbcdb1f6f695781831334f9c3f12", "lon": -76.94505916666667, "rental_uris": {"android": "https://dc.lft.to/lastmile_qr_scan", "ios": "https://dc.lft.to/lastmile_qr_scan"}, "fusion_lat": 0.0}, {"is_disabled": 0, "lat": 38.926001666666664, "bike_id": "62554be627f7f6d5d38fc00be5ad079b", "fusion_lon": 0.0, "is_reserved": 0, "type": "electric_scooter", "name": "62554be627f7f6d5d38fc00be5ad079b", "lon": -77.03545933333334, "rental_uris": {"android": "https://dc.lft.to/lastmile_qr_scan", "ios": "https://dc.lft.to/lastmile_qr_scan"}, "fusion_lat": 0.0}, {"is_disabled": 0, "lat": 38.92605416666667, "bike_id": "f26b665049fd49b3458172f4199131b9", "fusion_lon": 0.0, "is_reserved": 0, "type": "electric_scooter", "name": "f26b665049fd49b3458172f4199131b9", "lon": -77.02154783333333, "rental_uris": {"android": "https://dc.lft.to/lastmile_qr_scan", "ios": "https://dc.lft.to/lastmile_qr_scan"}, "fusion_lat": 0.0}, {"is_disabled": 0, "lat": 38.89821966666667, "bike_id": "82ad9e54e48efcc0cfea9fbeebc06f60", "fusion_lon": 0.0, "is_reserved": 0, "type": "electric_scooter", "name": "82ad9e54e48efcc0cfea9fbeebc06f60", "lon": -77.04353033333334, "rental_uris": {"android": "https://dc.lft.to/lastmile_qr_scan", "ios": "https://dc.lft.to/lastmile_qr_scan"}, "fusion_lat": 0.0}, {"is_disabled": 0, "lat": 38.90707916666667, "bike_id": "89eb2f33eabe1cdb1bda8d35c07010bf", "fusion_lon": 0.0, "is_reserved": 0, "type": "electric_scooter", "name": "89eb2f33eabe1cdb1bda8d35c07010bf", "lon": -77.04499266666667, "rental_uris": {"android": "https://dc.lft.to/lastmile_qr_scan", "ios": "https://dc.lft.to/lastmile_qr_scan"}, "fusion_lat": 0.0}, {"is_disabled": 0, "lat": 38.907154166666665, "bike_id": "6d10064e4f91067849df1b6c40e0af09", "fusion_lon": 0.0, "is_reserved": 0, "type": "electric_scooter", "name": "6d10064e4f91067849df1b6c40e0af09", "lon": -77.04162483333333, "rental_uris": {"android": "https://dc.lft.to/lastmile_qr_scan", "ios": "https://dc.lft.to/lastmile_qr_scan"}, "fusion_lat": 0.0}, {"is_disabled": 0, "lat": 38.943542, "bike_id": "005b34392a340324e0a90da244a5b628", "fusion_lon": 0.0, "is_reserved": 0, "type": "electric_scooter", "name": "005b34392a340324e0a90da244a5b628", "lon": -77.06139233333333, "rental_uris": {"android": "https://dc.lft.to/lastmile_qr_scan", "ios": "https://dc.lft.to/lastmile_qr_scan"}, "fusion_lat": 0.0}, {"is_disabled": 0, "lat": 38.907411, "bike_id": "73afbabf05e4abd4a764e1b4d3174849", "fusion_lon": 0.0, "is_reserved": 0, "type": "electric_scooter", "name": "73afbabf05e4abd4a764e1b4d3174849", "lon": -77.046708, "rental_uris": {"android": "https://dc.lft.to/lastmile_qr_scan", "ios": "https://dc.lft.to/lastmile_qr_scan"}, "fusion_lat": 0.0}, {"is_disabled": 0, "lat": 38.9287245, "bike_id": "3b0a7bf0ce4ede9dcae76d3125dff481", "fusion_lon": 0.0, "is_reserved": 0, "type": "electric_scooter", "name": "3b0a7bf0ce4ede9dcae76d3125dff481", "lon": -77.0344825, "rental_uris": {"android": "https://dc.lft.to/lastmile_qr_scan", "ios": "https://dc.lft.to/lastmile_qr_scan"}, "fusion_lat": 0.0}, {"is_disabled": 0, "lat": 38.90736116666667, "bike_id": "eca9a9b3586a5c3420832518ba4a0feb", "fusion_lon": 0.0, "is_reserved": 0, "type": "electric_scooter", "name": "eca9a9b3586a5c3420832518ba4a0feb", "lon": -77.04829116666667, "rental_uris": {"android": "https://dc.lft.to/lastmile_qr_scan", "ios": "https://dc.lft.to/lastmile_qr_scan"}, "fusion_lat": 0.0}, {"is_disabled": 0, "lat": 38.910516666666666, "bike_id": "3d4668a3382624419a8ed55205eb50a0", "fusion_lon": 0.0, "is_reserved": 0, "type": "electric_scooter", "name": "3d4668a3382624419a8ed55205eb50a0", "lon": -77.03838266666666, "rental_uris": {"android": "https://dc.lft.to/lastmile_qr_scan", "ios": "https://dc.lft.to/lastmile_qr_scan"}, "fusion_lat": 0.0}, {"is_disabled": 0, "lat": 38.9039105, "bike_id": "5da8a3a1257782899f72a0eeceb4ff6d", "fusion_lon": 0.0, "is_reserved": 0, "type": "electric_scooter", "name": "5da8a3a1257782899f72a0eeceb4ff6d", "lon": -77.04523216666666, "rental_uris": {"android": "https://dc.lft.to/lastmile_qr_scan", "ios": "https://dc.lft.to/lastmile_qr_scan"}, "fusion_lat": 0.0}, {"is_disabled": 0, "lat": 38.894865833333334, "bike_id": "5664d198b0a84df6e94d073631acac2f", "fusion_lon": 0.0, "is_reserved": 0, "type": "electric_scooter", "name": "5664d198b0a84df6e94d073631acac2f", "lon": -77.002279, "rental_uris": {"android": "https://dc.lft.to/lastmile_qr_scan", "ios": "https://dc.lft.to/lastmile_qr_scan"}, "fusion_lat": 0.0}, {"is_disabled": 0, "lat": 38.929493, "bike_id": "41f452fab15218f58e03d5cdb5705b00", "fusion_lon": 0.0, "is_reserved": 0, "type": "electric_bike", "name": "41f452fab15218f58e03d5cdb5705b00", "lon": -77.22561433333334, "rental_uris": {"android": "https://dc.lft.to/lastmile_qr_scan", "ios": "https://dc.lft.to/lastmile_qr_scan"}, "fusion_lat": 0.0}, {"is_disabled": 0, "lat": 38.8962995, "bike_id": "5e9264a81b4cfd5d8f47c45357b2ec67", "fusion_lon": 0.0, "is_reserved": 0, "type": "electric_scooter", "name": "5e9264a81b4cfd5d8f47c45357b2ec67", "lon": -77.02666016666667, "rental_uris": {"android": "https://dc.lft.to/lastmile_qr_scan", "ios": "https://dc.lft.to/lastmile_qr_scan"}, "fusion_lat": 0.0}, {"is_disabled": 0, "lat": 38.905576, "bike_id": "bb231659d5f3c7ee9364aafd8039345a", "fusion_lon": 0.0, "is_reserved": 0, "type": "electric_bike", "name": "bb231659d5f3c7ee9364aafd8039345a", "lon": -77.00579166666667, "rental_uris": {"android": "https://dc.lft.to/lastmile_qr_scan", "ios": "https://dc.lft.to/lastmile_qr_scan"}, "fusion_lat": 0.0}, {"is_disabled": 0, "lat": 38.90664483333333, "bike_id": "4241538966f113f75b929ea50ac6a71f", "fusion_lon": 0.0, "is_reserved": 0, "type": "electric_scooter", "name": "4241538966f113f75b929ea50ac6a71f", "lon": -77.03876033333333, "rental_uris": {"android": "https://dc.lft.to/lastmile_qr_scan", "ios": "https://dc.lft.to/lastmile_qr_scan"}, "fusion_lat": 0.0}, {"is_disabled": 0, "lat": 38.9170475, "bike_id": "3552fa9e01f410f10f000e2d637b8c8d", "fusion_lon": 0.0, "is_reserved": 0, "type": "electric_scooter", "name": "3552fa9e01f410f10f000e2d637b8c8d", "lon": -77.02831283333333, "rental_uris": {"android": "https://dc.lft.to/lastmile_qr_scan", "ios": "https://dc.lft.to/lastmile_qr_scan"}, "fusion_lat": 0.0}, {"is_disabled": 0, "lat": 38.938643666666664, "bike_id": "dd58e7ec45610bb459225dfe82bad032", "fusion_lon": 0.0, "is_reserved": 0, "type": "electric_scooter", "name": "dd58e7ec45610bb459225dfe82bad032", "lon": -77.02491916666666, "rental_uris": {"android": "https://dc.lft.to/lastmile_qr_scan", "ios": "https://dc.lft.to/lastmile_qr_scan"}, "fusion_lat": 0.0}, {"is_disabled": 0, "lat": 38.955245166666664, "bike_id": "570c687167776f5cdd016e3e9604371d", "fusion_lon": 0.0, "is_reserved": 0, "type": "electric_scooter", "name": "570c687167776f5cdd016e3e9604371d", "lon": -77.02317866666667, "rental_uris": {"android": "https://dc.lft.to/lastmile_qr_scan", "ios": "https://dc.lft.to/lastmile_qr_scan"}, "fusion_lat": 0.0}, {"is_disabled": 0, "lat": 38.9171055, "bike_id": "3079c0286f9e63312b077943c22be897", "fusion_lon": 0.0, "is_reserved": 0, "type": "electric_scooter", "name": "3079c0286f9e63312b077943c22be897", "lon": -77.034425, "rental_uris": {"android": "https://dc.lft.to/lastmile_qr_scan", "ios": "https://dc.lft.to/lastmile_qr_scan"}, "fusion_lat": 0.0}, {"is_disabled": 0, "lat": 38.900278, "bike_id": "9f0a7cf59f9befad39ad94987cf6de43", "fusion_lon": 0.0, "is_reserved": 0, "type": "electric_scooter", "name": "9f0a7cf59f9befad39ad94987cf6de43", "lon": -76.99931016666666, "rental_uris": {"android": "https://dc.lft.to/lastmile_qr_scan", "ios": "https://dc.lft.to/lastmile_qr_scan"}, "fusion_lat": 0.0}, {"is_disabled": 0, "lat": 38.92510733333334, "bike_id": "d50dd1f96a9fc438015bfe9fae7b7849", "fusion_lon": 0.0, "is_reserved": 0, "type": "electric_scooter", "name": "d50dd1f96a9fc438015bfe9fae7b7849", "lon": -77.05234516666667, "rental_uris": {"android": "https://dc.lft.to/lastmile_qr_scan", "ios": "https://dc.lft.to/lastmile_qr_scan"}, "fusion_lat": 0.0}, {"is_disabled": 0, "lat": 38.8977155, "bike_id": "e6f0597802bc5c4ae3233b4ba7e5f2af", "fusion_lon": 0.0, "is_reserved": 0, "type": "electric_scooter", "name": "e6f0597802bc5c4ae3233b4ba7e5f2af", "lon": -77.03166733333333, "rental_uris": {"android": "https://dc.lft.to/lastmile_qr_scan", "ios": "https://dc.lft.to/lastmile_qr_scan"}, "fusion_lat": 0.0}, {"is_disabled": 0, "lat": 38.94052966666667, "bike_id": "b38e88d4e640992931bff4d2cffe3b32", "fusion_lon": 0.0, "is_reserved": 0, "type": "electric_scooter", "name": "b38e88d4e640992931bff4d2cffe3b32", "lon": -77.02978766666666, "rental_uris": {"android": "https://dc.lft.to/lastmile_qr_scan", "ios": "https://dc.lft.to/lastmile_qr_scan"}, "fusion_lat": 0.0}, {"is_disabled": 0, "lat": 38.9373975, "bike_id": "38597557c2e09b3f879c7bab61a0f41f", "fusion_lon": 0.0, "is_reserved": 0, "type": "electric_bike", "name": "38597557c2e09b3f879c7bab61a0f41f", "lon": -76.94571716666667, "rental_uris": {"android": "https://dc.lft.to/lastmile_qr_scan", "ios": "https://dc.lft.to/lastmile_qr_scan"}, "fusion_lat": 0.0}, {"is_disabled": 0, "lat": 38.8924375, "bike_id": "6de19458d9d9dd337418b307cb7f408c", "fusion_lon": 0.0, "is_reserved": 0, "type": "electric_scooter", "name": "6de19458d9d9dd337418b307cb7f408c", "lon": -77.03953666666666, "rental_uris": {"android": "https://dc.lft.to/lastmile_qr_scan", "ios": "https://dc.lft.to/lastmile_qr_scan"}, "fusion_lat": 0.0}, {"is_disabled": 0, "lat": 38.8954005, "bike_id": "c8a33d3915e642f2be226ef08c48046d", "fusion_lon": 0.0, "is_reserved": 0, "type": "electric_scooter", "name": "c8a33d3915e642f2be226ef08c48046d", "lon": -77.01991466666666, "rental_uris": {"android": "https://dc.lft.to/lastmile_qr_scan", "ios": "https://dc.lft.to/lastmile_qr_scan"}, "fusion_lat": 0.0}, {"is_disabled": 0, "lat": 38.91802216666667, "bike_id": "73fbdc0d045f5533c900cfbcd7d770ef", "fusion_lon": 0.0, "is_reserved": 0, "type": "electric_scooter", "name": "73fbdc0d045f5533c900cfbcd7d770ef", "lon": -77.0319455, "rental_uris": {"android": "https://dc.lft.to/lastmile_qr_scan", "ios": "https://dc.lft.to/lastmile_qr_scan"}, "fusion_lat": 0.0}, {"is_disabled": 0, "lat": 38.91526116666667, "bike_id": "8b875a5b6471dc9d520a94ecdd1234ac", "fusion_lon": 0.0, "is_reserved": 0, "type": "electric_scooter", "name": "8b875a5b6471dc9d520a94ecdd1234ac", "lon": -77.03199516666666, "rental_uris": {"android": "https://dc.lft.to/lastmile_qr_scan", "ios": "https://dc.lft.to/lastmile_qr_scan"}, "fusion_lat": 0.0}, {"is_disabled": 0, "lat": 38.9491645, "bike_id": "d66911c653a761e15e23af376b0721cb", "fusion_lon": 0.0, "is_reserved": 0, "type": "electric_bike", "name": "d66911c653a761e15e23af376b0721cb", "lon": -76.97705633333334, "rental_uris": {"android": "https://dc.lft.to/lastmile_qr_scan", "ios": "https://dc.lft.to/lastmile_qr_scan"}, "fusion_lat": 0.0}, {"is_disabled": 0, "lat": 38.8785805, "bike_id": "42d9a461b1a28bab7b26d65cadce91ea", "fusion_lon": 0.0, "is_reserved": 0, "type": "electric_scooter", "name": "42d9a461b1a28bab7b26d65cadce91ea", "lon": -77.017535, "rental_uris": {"android": "https://dc.lft.to/lastmile_qr_scan", "ios": "https://dc.lft.to/lastmile_qr_scan"}, "fusion_lat": 0.0}, {"is_disabled": 0, "lat": 38.88756716666666, "bike_id": "2ac3f29ef74d6a81d9b4644fed458bc4", "fusion_lon": 0.0, "is_reserved": 0, "type": "electric_scooter", "name": "2ac3f29ef74d6a81d9b4644fed458bc4", "lon": -77.03158, "rental_uris": {"android": "https://dc.lft.to/lastmile_qr_scan", "ios": "https://dc.lft.to/lastmile_qr_scan"}, "fusion_lat": 0.0}, {"is_disabled": 0, "lat": 38.907183333333336, "bike_id": "e49adb052c1fa9594b7cfcfa03fdc9f4", "fusion_lon": 0.0, "is_reserved": 0, "type": "electric_scooter", "name": "e49adb052c1fa9594b7cfcfa03fdc9f4", "lon": -77.05020533333334, "rental_uris": {"android": "https://dc.lft.to/lastmile_qr_scan", "ios": "https://dc.lft.to/lastmile_qr_scan"}, "fusion_lat": 0.0}, {"is_disabled": 0, "lat": 38.885214500000004, "bike_id": "9202572d387f7ba99f9fb2e311edf1e5", "fusion_lon": 0.0, "is_reserved": 0, "type": "electric_scooter", "name": "9202572d387f7ba99f9fb2e311edf1e5", "lon": -77.00599033333333, "rental_uris": {"android": "https://dc.lft.to/lastmile_qr_scan", "ios": "https://dc.lft.to/lastmile_qr_scan"}, "fusion_lat": 0.0}, {"is_disabled": 0, "lat": 38.93953666666667, "bike_id": "cd6d5f8d6db9109c88aed41f69ecd528", "fusion_lon": 0.0, "is_reserved": 0, "type": "electric_bike", "name": "cd6d5f8d6db9109c88aed41f69ecd528", "lon": -77.3608935, "rental_uris": {"android": "https://dc.lft.to/lastmile_qr_scan", "ios": "https://dc.lft.to/lastmile_qr_scan"}, "fusion_lat": 0.0}, {"is_disabled": 0, "lat": 38.916554833333336, "bike_id": "f45033e1885b04ab892ef11459243dad", "fusion_lon": 0.0, "is_reserved": 0, "type": "electric_scooter", "name": "f45033e1885b04ab892ef11459243dad", "lon": -77.04178566666667, "rental_uris": {"android": "https://dc.lft.to/lastmile_qr_scan", "ios": "https://dc.lft.to/lastmile_qr_scan"}, "fusion_lat": 0.0}, {"is_disabled": 0, "lat": 38.9027915, "bike_id": "b453f7bb61a96ef193b0fef69acb8a0d", "fusion_lon": 0.0, "is_reserved": 0, "type": "electric_scooter", "name": "b453f7bb61a96ef193b0fef69acb8a0d", "lon": -77.03862283333333, "rental_uris": {"android": "https://dc.lft.to/lastmile_qr_scan", "ios": "https://dc.lft.to/lastmile_qr_scan"}, "fusion_lat": 0.0}, {"is_disabled": 0, "lat": 38.903796, "bike_id": "e5242131518a671201091d07eefe1ab8", "fusion_lon": 0.0, "is_reserved": 0, "type": "electric_scooter", "name": "e5242131518a671201091d07eefe1ab8", "lon": -77.036521, "rental_uris": {"android": "https://dc.lft.to/lastmile_qr_scan", "ios": "https://dc.lft.to/lastmile_qr_scan"}, "fusion_lat": 0.0}, {"is_disabled": 0, "lat": 38.962276333333335, "bike_id": "95131d7391d43c7f31c9ba76741cfc8b", "fusion_lon": 0.0, "is_reserved": 0, "type": "electric_bike", "name": "95131d7391d43c7f31c9ba76741cfc8b", "lon": -77.02628083333333, "rental_uris": {"android": "https://dc.lft.to/lastmile_qr_scan", "ios": "https://dc.lft.to/lastmile_qr_scan"}, "fusion_lat": 0.0}, {"is_disabled": 0, "lat": 38.93825733333333, "bike_id": "535d49d961c0e0a6f4c843f594a121c8", "fusion_lon": 0.0, "is_reserved": 0, "type": "electric_scooter", "name": "535d49d961c0e0a6f4c843f594a121c8", "lon": -76.98612216666666, "rental_uris": {"android": "https://dc.lft.to/lastmile_qr_scan", "ios": "https://dc.lft.to/lastmile_qr_scan"}, "fusion_lat": 0.0}, {"is_disabled": 0, "lat": 38.906335, "bike_id": "74170eb3877049ae29273e9f6a4d7029", "fusion_lon": 0.0, "is_reserved": 0, "type": "electric_scooter", "name": "74170eb3877049ae29273e9f6a4d7029", "lon": -77.02502383333334, "rental_uris": {"android": "https://dc.lft.to/lastmile_qr_scan", "ios": "https://dc.lft.to/lastmile_qr_scan"}, "fusion_lat": 0.0}, {"is_disabled": 0, "lat": 38.890369666666665, "bike_id": "a03f1b460b8f6c371c70285966c0d774", "fusion_lon": 0.0, "is_reserved": 0, "type": "electric_scooter", "name": "a03f1b460b8f6c371c70285966c0d774", "lon": -76.95148616666667, "rental_uris": {"android": "https://dc.lft.to/lastmile_qr_scan", "ios": "https://dc.lft.to/lastmile_qr_scan"}, "fusion_lat": 0.0}, {"is_disabled": 0, "lat": 38.899421, "bike_id": "994d30ed8df67b622005148dbca5d318", "fusion_lon": 0.0, "is_reserved": 0, "type": "electric_scooter", "name": "994d30ed8df67b622005148dbca5d318", "lon": -77.04336533333333, "rental_uris": {"android": "https://dc.lft.to/lastmile_qr_scan", "ios": "https://dc.lft.to/lastmile_qr_scan"}, "fusion_lat": 0.0}, {"is_disabled": 0, "lat": 38.914188833333334, "bike_id": "e18188fadeaccc77081329d7d3d2252b", "fusion_lon": 0.0, "is_reserved": 0, "type": "electric_scooter", "name": "e18188fadeaccc77081329d7d3d2252b", "lon": -77.024043, "rental_uris": {"android": "https://dc.lft.to/lastmile_qr_scan", "ios": "https://dc.lft.to/lastmile_qr_scan"}, "fusion_lat": 0.0}, {"is_disabled": 0, "lat": 38.917587833333336, "bike_id": "63097d0b1fac54476e4db2fc7e1018fa", "fusion_lon": 0.0, "is_reserved": 0, "type": "electric_scooter", "name": "63097d0b1fac54476e4db2fc7e1018fa", "lon": -77.0239895, "rental_uris": {"android": "https://dc.lft.to/lastmile_qr_scan", "ios": "https://dc.lft.to/lastmile_qr_scan"}, "fusion_lat": 0.0}, {"is_disabled": 0, "lat": 38.8897805, "bike_id": "78b1c3185703c94831d273a57fd3d021", "fusion_lon": 0.0, "is_reserved": 0, "type": "electric_scooter", "name": "78b1c3185703c94831d273a57fd3d021", "lon": -77.00080216666667, "rental_uris": {"android": "https://dc.lft.to/lastmile_qr_scan", "ios": "https://dc.lft.to/lastmile_qr_scan"}, "fusion_lat": 0.0}, {"is_disabled": 0, "lat": 38.900297333333334, "bike_id": "12f3bdfc08f40181a83a865d535fc027", "fusion_lon": 0.0, "is_reserved": 0, "type": "electric_scooter", "name": "12f3bdfc08f40181a83a865d535fc027", "lon": -77.04060466666667, "rental_uris": {"android": "https://dc.lft.to/lastmile_qr_scan", "ios": "https://dc.lft.to/lastmile_qr_scan"}, "fusion_lat": 0.0}, {"is_disabled": 0, "lat": 38.984312833333334, "bike_id": "372d0c843079fc5c953d725fd2ca9640", "fusion_lon": 0.0, "is_reserved": 0, "type": "electric_scooter", "name": "372d0c843079fc5c953d725fd2ca9640", "lon": -77.02672033333333, "rental_uris": {"android": "https://dc.lft.to/lastmile_qr_scan", "ios": "https://dc.lft.to/lastmile_qr_scan"}, "fusion_lat": 0.0}, {"is_disabled": 0, "lat": 38.91705433333333, "bike_id": "e615d05e815f37329fae745b602559cb", "fusion_lon": 0.0, "is_reserved": 0, "type": "electric_scooter", "name": "e615d05e815f37329fae745b602559cb", "lon": -77.03377983333333, "rental_uris": {"android": "https://dc.lft.to/lastmile_qr_scan", "ios": "https://dc.lft.to/lastmile_qr_scan"}, "fusion_lat": 0.0}, {"is_disabled": 0, "lat": 38.91836633333333, "bike_id": "d775a79d0d552a1a6837e00e76f4f1df", "fusion_lon": 0.0, "is_reserved": 0, "type": "electric_scooter", "name": "d775a79d0d552a1a6837e00e76f4f1df", "lon": -77.01209016666667, "rental_uris": {"android": "https://dc.lft.to/lastmile_qr_scan", "ios": "https://dc.lft.to/lastmile_qr_scan"}, "fusion_lat": 0.0}, {"is_disabled": 0, "lat": 38.89242, "bike_id": "c03c48615e32603c61e949a8a27e2fe6", "fusion_lon": 0.0, "is_reserved": 0, "type": "electric_scooter", "name": "c03c48615e32603c61e949a8a27e2fe6", "lon": -77.026174, "rental_uris": {"android": "https://dc.lft.to/lastmile_qr_scan", "ios": "https://dc.lft.to/lastmile_qr_scan"}, "fusion_lat": 0.0}, {"is_disabled": 0, "lat": 38.913431, "bike_id": "a779aaa4a6e8667ff2234644b99f0c70", "fusion_lon": 0.0, "is_reserved": 0, "type": "electric_scooter", "name": "a779aaa4a6e8667ff2234644b99f0c70", "lon": -77.04237933333333, "rental_uris": {"android": "https://dc.lft.to/lastmile_qr_scan", "ios": "https://dc.lft.to/lastmile_qr_scan"}, "fusion_lat": 0.0}, {"is_disabled": 0, "lat": 38.917093333333334, "bike_id": "9e86832f1dfec9ba3a713b07dcbee5e7", "fusion_lon": 0.0, "is_reserved": 0, "type": "electric_scooter", "name": "9e86832f1dfec9ba3a713b07dcbee5e7", "lon": -77.00888516666667, "rental_uris": {"android": "https://dc.lft.to/lastmile_qr_scan", "ios": "https://dc.lft.to/lastmile_qr_scan"}, "fusion_lat": 0.0}, {"is_disabled": 0, "lat": 38.855142, "bike_id": "50cfb725849437db5b91cbc49046491f", "fusion_lon": 0.0, "is_reserved": 0, "type": "electric_bike", "name": "50cfb725849437db5b91cbc49046491f", "lon": -76.9842985, "rental_uris": {"android": "https://dc.lft.to/lastmile_qr_scan", "ios": "https://dc.lft.to/lastmile_qr_scan"}, "fusion_lat": 0.0}, {"is_disabled": 0, "lat": 38.862057666666665, "bike_id": "1051012a0002c0ad78624f0ed3be9234", "fusion_lon": 0.0, "is_reserved": 0, "type": "electric_scooter", "name": "1051012a0002c0ad78624f0ed3be9234", "lon": -76.99122133333333, "rental_uris": {"android": "https://dc.lft.to/lastmile_qr_scan", "ios": "https://dc.lft.to/lastmile_qr_scan"}, "fusion_lat": 0.0}, {"is_disabled": 0, "lat": 38.86225566666667, "bike_id": "e7327b9455d9008b3b08e6eae0aea074", "fusion_lon": 0.0, "is_reserved": 0, "type": "electric_scooter", "name": "e7327b9455d9008b3b08e6eae0aea074", "lon": -76.99467133333333, "rental_uris": {"android": "https://dc.lft.to/lastmile_qr_scan", "ios": "https://dc.lft.to/lastmile_qr_scan"}, "fusion_lat": 0.0}, {"is_disabled": 0, "lat": 38.9038665, "bike_id": "146962353833857f2a5d0dfc135ca269", "fusion_lon": 0.0, "is_reserved": 0, "type": "electric_scooter", "name": "146962353833857f2a5d0dfc135ca269", "lon": -77.04516416666667, "rental_uris": {"android": "https://dc.lft.to/lastmile_qr_scan", "ios": "https://dc.lft.to/lastmile_qr_scan"}, "fusion_lat": 0.0}, {"is_disabled": 0, "lat": 38.92910283333333, "bike_id": "f88d0604bd8233ae9be5ce812e71b378", "fusion_lon": 0.0, "is_reserved": 0, "type": "electric_scooter", "name": "f88d0604bd8233ae9be5ce812e71b378", "lon": -77.06491466666667, "rental_uris": {"android": "https://dc.lft.to/lastmile_qr_scan", "ios": "https://dc.lft.to/lastmile_qr_scan"}, "fusion_lat": 0.0}, {"is_disabled": 0, "lat": 38.902909333333334, "bike_id": "7b73aee0c65c9dd7faad7c2168e4633e", "fusion_lon": 0.0, "is_reserved": 0, "type": "electric_scooter", "name": "7b73aee0c65c9dd7faad7c2168e4633e", "lon": -77.05015016666667, "rental_uris": {"android": "https://dc.lft.to/lastmile_qr_scan", "ios": "https://dc.lft.to/lastmile_qr_scan"}, "fusion_lat": 0.0}, {"is_disabled": 0, "lat": 38.8922685, "bike_id": "1c48630a9fbea3d7d26d93e55b931a21", "fusion_lon": 0.0, "is_reserved": 0, "type": "electric_scooter", "name": "1c48630a9fbea3d7d26d93e55b931a21", "lon": -77.0499825, "rental_uris": {"android": "https://dc.lft.to/lastmile_qr_scan", "ios": "https://dc.lft.to/lastmile_qr_scan"}, "fusion_lat": 0.0}, {"is_disabled": 0, "lat": 38.925442333333336, "bike_id": "915725de5ce35986b87be6ec9fff0c2a", "fusion_lon": 0.0, "is_reserved": 0, "type": "electric_scooter", "name": "915725de5ce35986b87be6ec9fff0c2a", "lon": -77.00740583333334, "rental_uris": {"android": "https://dc.lft.to/lastmile_qr_scan", "ios": "https://dc.lft.to/lastmile_qr_scan"}, "fusion_lat": 0.0}, {"is_disabled": 0, "lat": 38.923443, "bike_id": "dda43dfdc03fd7ec130fb857327f3b9d", "fusion_lon": 0.0, "is_reserved": 0, "type": "electric_scooter", "name": "dda43dfdc03fd7ec130fb857327f3b9d", "lon": -77.05169233333334, "rental_uris": {"android": "https://dc.lft.to/lastmile_qr_scan", "ios": "https://dc.lft.to/lastmile_qr_scan"}, "fusion_lat": 0.0}, {"is_disabled": 0, "lat": 38.922663, "bike_id": "00f5f0543ae88c6702b413afdf193421", "fusion_lon": 0.0, "is_reserved": 0, "type": "electric_scooter", "name": "00f5f0543ae88c6702b413afdf193421", "lon": -77.03639683333333, "rental_uris": {"android": "https://dc.lft.to/lastmile_qr_scan", "ios": "https://dc.lft.to/lastmile_qr_scan"}, "fusion_lat": 0.0}, {"is_disabled": 0, "lat": 38.88434133333333, "bike_id": "158e911dfa57a63b79c80c6adae61af1", "fusion_lon": 0.0, "is_reserved": 0, "type": "electric_scooter", "name": "158e911dfa57a63b79c80c6adae61af1", "lon": -76.9575675, "rental_uris": {"android": "https://dc.lft.to/lastmile_qr_scan", "ios": "https://dc.lft.to/lastmile_qr_scan"}, "fusion_lat": 0.0}, {"is_disabled": 0, "lat": 38.90496066666667, "bike_id": "acf0f28b6af75a5db35e8bf14009e8a5", "fusion_lon": 0.0, "is_reserved": 0, "type": "electric_scooter", "name": "acf0f28b6af75a5db35e8bf14009e8a5", "lon": -76.94956, "rental_uris": {"android": "https://dc.lft.to/lastmile_qr_scan", "ios": "https://dc.lft.to/lastmile_qr_scan"}, "fusion_lat": 0.0}, {"is_disabled": 0, "lat": 38.92151166666667, "bike_id": "6526eaa4ad9c9545176de5f330934134", "fusion_lon": 0.0, "is_reserved": 0, "type": "electric_scooter", "name": "6526eaa4ad9c9545176de5f330934134", "lon": -77.02428183333333, "rental_uris": {"android": "https://dc.lft.to/lastmile_qr_scan", "ios": "https://dc.lft.to/lastmile_qr_scan"}, "fusion_lat": 0.0}, {"is_disabled": 0, "lat": 38.903745666666666, "bike_id": "c89cd8d3c2dc820091ef558977fc24f4", "fusion_lon": 0.0, "is_reserved": 0, "type": "electric_scooter", "name": "c89cd8d3c2dc820091ef558977fc24f4", "lon": -77.00190333333333, "rental_uris": {"android": "https://dc.lft.to/lastmile_qr_scan", "ios": "https://dc.lft.to/lastmile_qr_scan"}, "fusion_lat": 0.0}, {"is_disabled": 0, "lat": 38.910447166666664, "bike_id": "0ab6fa3c327240d4c46f3a6d15392394", "fusion_lon": 0.0, "is_reserved": 0, "type": "electric_scooter", "name": "0ab6fa3c327240d4c46f3a6d15392394", "lon": -77.06457166666667, "rental_uris": {"android": "https://dc.lft.to/lastmile_qr_scan", "ios": "https://dc.lft.to/lastmile_qr_scan"}, "fusion_lat": 0.0}, {"is_disabled": 0, "lat": 38.9167535, "bike_id": "68aeedf26b4b42d2e33e8be9e59076bc", "fusion_lon": 0.0, "is_reserved": 0, "type": "electric_scooter", "name": "68aeedf26b4b42d2e33e8be9e59076bc", "lon": -77.0297105, "rental_uris": {"android": "https://dc.lft.to/lastmile_qr_scan", "ios": "https://dc.lft.to/lastmile_qr_scan"}, "fusion_lat": 0.0}, {"is_disabled": 0, "lat": 38.914945, "bike_id": "270693e42ed8ed2d4be32edee1beb00d", "fusion_lon": 0.0, "is_reserved": 0, "type": "electric_scooter", "name": "270693e42ed8ed2d4be32edee1beb00d", "lon": -77.03121133333333, "rental_uris": {"android": "https://dc.lft.to/lastmile_qr_scan", "ios": "https://dc.lft.to/lastmile_qr_scan"}, "fusion_lat": 0.0}, {"is_disabled": 0, "lat": 38.88611566666667, "bike_id": "e793086706f6f78415259e55fe705e11", "fusion_lon": 0.0, "is_reserved": 0, "type": "electric_scooter", "name": "e793086706f6f78415259e55fe705e11", "lon": -76.98744933333333, "rental_uris": {"android": "https://dc.lft.to/lastmile_qr_scan", "ios": "https://dc.lft.to/lastmile_qr_scan"}, "fusion_lat": 0.0}, {"is_disabled": 0, "lat": 38.907811833333334, "bike_id": "fe7c24bc80ebebb17c6a2e677be5a122", "fusion_lon": 0.0, "is_reserved": 0, "type": "electric_scooter", "name": "fe7c24bc80ebebb17c6a2e677be5a122", "lon": -77.04665066666666, "rental_uris": {"android": "https://dc.lft.to/lastmile_qr_scan", "ios": "https://dc.lft.to/lastmile_qr_scan"}, "fusion_lat": 0.0}, {"is_disabled": 0, "lat": 38.9217285, "bike_id": "d1da8a7e07d7e17eae2334f4c6f2fd24", "fusion_lon": 0.0, "is_reserved": 0, "type": "electric_scooter", "name": "d1da8a7e07d7e17eae2334f4c6f2fd24", "lon": -77.03827316666667, "rental_uris": {"android": "https://dc.lft.to/lastmile_qr_scan", "ios": "https://dc.lft.to/lastmile_qr_scan"}, "fusion_lat": 0.0}, {"is_disabled": 0, "lat": 38.92228083333333, "bike_id": "851a89a72a2aa2db1b7095747792da88", "fusion_lon": 0.0, "is_reserved": 0, "type": "electric_scooter", "name": "851a89a72a2aa2db1b7095747792da88", "lon": -77.03892383333333, "rental_uris": {"android": "https://dc.lft.to/lastmile_qr_scan", "ios": "https://dc.lft.to/lastmile_qr_scan"}, "fusion_lat": 0.0}, {"is_disabled": 0, "lat": 38.93716216666667, "bike_id": "52dfee7042ba5d36d01b2e020c1b835c", "fusion_lon": 0.0, "is_reserved": 0, "type": "electric_scooter", "name": "52dfee7042ba5d36d01b2e020c1b835c", "lon": -77.0242675, "rental_uris": {"android": "https://dc.lft.to/lastmile_qr_scan", "ios": "https://dc.lft.to/lastmile_qr_scan"}, "fusion_lat": 0.0}, {"is_disabled": 0, "lat": 38.905491166666664, "bike_id": "3f14db6b4bd1aa3bbce299af20b86668", "fusion_lon": 0.0, "is_reserved": 0, "type": "electric_scooter", "name": "3f14db6b4bd1aa3bbce299af20b86668", "lon": -77.0449905, "rental_uris": {"android": "https://dc.lft.to/lastmile_qr_scan", "ios": "https://dc.lft.to/lastmile_qr_scan"}, "fusion_lat": 0.0}, {"is_disabled": 0, "lat": 38.91572766666667, "bike_id": "1e7a393cb258571bf8ef045292463780", "fusion_lon": 0.0, "is_reserved": 0, "type": "electric_scooter", "name": "1e7a393cb258571bf8ef045292463780", "lon": -77.01990933333333, "rental_uris": {"android": "https://dc.lft.to/lastmile_qr_scan", "ios": "https://dc.lft.to/lastmile_qr_scan"}, "fusion_lat": 0.0}, {"is_disabled": 0, "lat": 38.9024385, "bike_id": "ebf9651b32bd692188a1a512843cef6a", "fusion_lon": 0.0, "is_reserved": 0, "type": "electric_scooter", "name": "ebf9651b32bd692188a1a512843cef6a", "lon": -77.0020265, "rental_uris": {"android": "https://dc.lft.to/lastmile_qr_scan", "ios": "https://dc.lft.to/lastmile_qr_scan"}, "fusion_lat": 0.0}, {"is_disabled": 0, "lat": 38.866599, "bike_id": "7b1c81ac534cc3f4d35ac980e1f9f5b9", "fusion_lon": 0.0, "is_reserved": 0, "type": "electric_scooter", "name": "7b1c81ac534cc3f4d35ac980e1f9f5b9", "lon": -76.98887966666666, "rental_uris": {"android": "https://dc.lft.to/lastmile_qr_scan", "ios": "https://dc.lft.to/lastmile_qr_scan"}, "fusion_lat": 0.0}, {"is_disabled": 0, "lat": 38.923165833333336, "bike_id": "c96115b562a33d2e68279e091e0fc566", "fusion_lon": 0.0, "is_reserved": 0, "type": "electric_bike", "name": "c96115b562a33d2e68279e091e0fc566", "lon": -76.99908016666667, "rental_uris": {"android": "https://dc.lft.to/lastmile_qr_scan", "ios": "https://dc.lft.to/lastmile_qr_scan"}, "fusion_lat": 0.0}, {"is_disabled": 0, "lat": 38.892472, "bike_id": "f01816c093471b87a4237bd6a3456aef", "fusion_lon": 0.0, "is_reserved": 0, "type": "electric_scooter", "name": "f01816c093471b87a4237bd6a3456aef", "lon": -77.01357183333333, "rental_uris": {"android": "https://dc.lft.to/lastmile_qr_scan", "ios": "https://dc.lft.to/lastmile_qr_scan"}, "fusion_lat": 0.0}, {"is_disabled": 0, "lat": 38.896202, "bike_id": "a247595a587c5d7a4d08238523e8ca19", "fusion_lon": 0.0, "is_reserved": 0, "type": "electric_scooter", "name": "a247595a587c5d7a4d08238523e8ca19", "lon": -77.02936333333334, "rental_uris": {"android": "https://dc.lft.to/lastmile_qr_scan", "ios": "https://dc.lft.to/lastmile_qr_scan"}, "fusion_lat": 0.0}, {"is_disabled": 0, "lat": 38.9201855, "bike_id": "872ebe4811df62c6ce4ca603f211b32e", "fusion_lon": 0.0, "is_reserved": 0, "type": "electric_bike", "name": "872ebe4811df62c6ce4ca603f211b32e", "lon": -77.03132533333333, "rental_uris": {"android": "https://dc.lft.to/lastmile_qr_scan", "ios": "https://dc.lft.to/lastmile_qr_scan"}, "fusion_lat": 0.0}, {"is_disabled": 0, "lat": 38.906916333333335, "bike_id": "9e45c1f18a8a5ee54adc6a75adbd7e1d", "fusion_lon": 0.0, "is_reserved": 0, "type": "electric_scooter", "name": "9e45c1f18a8a5ee54adc6a75adbd7e1d", "lon": -77.06108533333334, "rental_uris": {"android": "https://dc.lft.to/lastmile_qr_scan", "ios": "https://dc.lft.to/lastmile_qr_scan"}, "fusion_lat": 0.0}, {"is_disabled": 0, "lat": 38.905333666666664, "bike_id": "ba333611daeba20bfc7a8aaa328ba3dc", "fusion_lon": 0.0, "is_reserved": 0, "type": "electric_scooter", "name": "ba333611daeba20bfc7a8aaa328ba3dc", "lon": -77.06247716666667, "rental_uris": {"android": "https://dc.lft.to/lastmile_qr_scan", "ios": "https://dc.lft.to/lastmile_qr_scan"}, "fusion_lat": 0.0}, {"is_disabled": 0, "lat": 38.917029166666666, "bike_id": "10474d8dff3d15c63151df0c972efb84", "fusion_lon": 0.0, "is_reserved": 0, "type": "electric_scooter", "name": "10474d8dff3d15c63151df0c972efb84", "lon": -77.034428, "rental_uris": {"android": "https://dc.lft.to/lastmile_qr_scan", "ios": "https://dc.lft.to/lastmile_qr_scan"}, "fusion_lat": 0.0}, {"is_disabled": 0, "lat": 38.875923, "bike_id": "c67527164eca5db59d7307e8dc4af164", "fusion_lon": 0.0, "is_reserved": 0, "type": "electric_scooter", "name": "c67527164eca5db59d7307e8dc4af164", "lon": -77.01987516666667, "rental_uris": {"android": "https://dc.lft.to/lastmile_qr_scan", "ios": "https://dc.lft.to/lastmile_qr_scan"}, "fusion_lat": 0.0}, {"is_disabled": 0, "lat": 38.8861795, "bike_id": "cd77c7d0e9c12fb11f58620c25d8e947", "fusion_lon": 0.0, "is_reserved": 0, "type": "electric_scooter", "name": "cd77c7d0e9c12fb11f58620c25d8e947", "lon": -77.00344916666667, "rental_uris": {"android": "https://dc.lft.to/lastmile_qr_scan", "ios": "https://dc.lft.to/lastmile_qr_scan"}, "fusion_lat": 0.0}, {"is_disabled": 0, "lat": 38.905214666666666, "bike_id": "027692d75577f7c3c7c62f0647c53d8f", "fusion_lon": 0.0, "is_reserved": 0, "type": "electric_scooter", "name": "027692d75577f7c3c7c62f0647c53d8f", "lon": -77.05128666666667, "rental_uris": {"android": "https://dc.lft.to/lastmile_qr_scan", "ios": "https://dc.lft.to/lastmile_qr_scan"}, "fusion_lat": 0.0}, {"is_disabled": 0, "lat": 38.90922033333333, "bike_id": "42cc6dc1f9105650612eb242d22fb56f", "fusion_lon": 0.0, "is_reserved": 0, "type": "electric_scooter", "name": "42cc6dc1f9105650612eb242d22fb56f", "lon": -77.00571966666666, "rental_uris": {"android": "https://dc.lft.to/lastmile_qr_scan", "ios": "https://dc.lft.to/lastmile_qr_scan"}, "fusion_lat": 0.0}, {"is_disabled": 0, "lat": 38.92113466666667, "bike_id": "248725a39ebaca6469c4cbd22f56aba3", "fusion_lon": 0.0, "is_reserved": 0, "type": "electric_bike", "name": "248725a39ebaca6469c4cbd22f56aba3", "lon": -76.98093366666667, "rental_uris": {"android": "https://dc.lft.to/lastmile_qr_scan", "ios": "https://dc.lft.to/lastmile_qr_scan"}, "fusion_lat": 0.0}, {"is_disabled": 0, "lat": 38.90256883333333, "bike_id": "be3feb041fcb0d44c630a461d1e561c5", "fusion_lon": 0.0, "is_reserved": 0, "type": "electric_scooter", "name": "be3feb041fcb0d44c630a461d1e561c5", "lon": -77.0284745, "rental_uris": {"android": "https://dc.lft.to/lastmile_qr_scan", "ios": "https://dc.lft.to/lastmile_qr_scan"}, "fusion_lat": 0.0}, {"is_disabled": 0, "lat": 38.91709616666667, "bike_id": "f7be011160ceeb849e3a51130708f1e3", "fusion_lon": 0.0, "is_reserved": 0, "type": "electric_scooter", "name": "f7be011160ceeb849e3a51130708f1e3", "lon": -77.0288745, "rental_uris": {"android": "https://dc.lft.to/lastmile_qr_scan", "ios": "https://dc.lft.to/lastmile_qr_scan"}, "fusion_lat": 0.0}, {"is_disabled": 0, "lat": 38.892235, "bike_id": "553c36424336ef39c08247cd881a0b6f", "fusion_lon": 0.0, "is_reserved": 0, "type": "electric_scooter", "name": "553c36424336ef39c08247cd881a0b6f", "lon": -77.04326483333334, "rental_uris": {"android": "https://dc.lft.to/lastmile_qr_scan", "ios": "https://dc.lft.to/lastmile_qr_scan"}, "fusion_lat": 0.0}, {"is_disabled": 0, "lat": 38.921818333333334, "bike_id": "20eb8fec438220ff2e01661b191f892b", "fusion_lon": 0.0, "is_reserved": 0, "type": "electric_scooter", "name": "20eb8fec438220ff2e01661b191f892b", "lon": -76.99792883333333, "rental_uris": {"android": "https://dc.lft.to/lastmile_qr_scan", "ios": "https://dc.lft.to/lastmile_qr_scan"}, "fusion_lat": 0.0}, {"is_disabled": 0, "lat": 38.90269266666667, "bike_id": "1a7ae040464269e3f15969535ca75928", "fusion_lon": 0.0, "is_reserved": 0, "type": "electric_scooter", "name": "1a7ae040464269e3f15969535ca75928", "lon": -77.03830733333334, "rental_uris": {"android": "https://dc.lft.to/lastmile_qr_scan", "ios": "https://dc.lft.to/lastmile_qr_scan"}, "fusion_lat": 0.0}, {"is_disabled": 0, "lat": 38.897654, "bike_id": "9017cd12fe330eecb4a91f1eabf6b680", "fusion_lon": 0.0, "is_reserved": 0, "type": "electric_scooter", "name": "9017cd12fe330eecb4a91f1eabf6b680", "lon": -76.994975, "rental_uris": {"android": "https://dc.lft.to/lastmile_qr_scan", "ios": "https://dc.lft.to/lastmile_qr_scan"}, "fusion_lat": 0.0}, {"is_disabled": 0, "lat": 38.88773483333333, "bike_id": "b8a757c9da502026022017bd7d5a04ef", "fusion_lon": 0.0, "is_reserved": 0, "type": "electric_scooter", "name": "b8a757c9da502026022017bd7d5a04ef", "lon": -76.95524183333333, "rental_uris": {"android": "https://dc.lft.to/lastmile_qr_scan", "ios": "https://dc.lft.to/lastmile_qr_scan"}, "fusion_lat": 0.0}, {"is_disabled": 0, "lat": 38.956396, "bike_id": "313cd6372c6e5202e10e28966d2ed51b", "fusion_lon": 0.0, "is_reserved": 0, "type": "electric_bike", "name": "313cd6372c6e5202e10e28966d2ed51b", "lon": -76.99808116666667, "rental_uris": {"android": "https://dc.lft.to/lastmile_qr_scan", "ios": "https://dc.lft.to/lastmile_qr_scan"}, "fusion_lat": 0.0}, {"is_disabled": 0, "lat": 38.87471733333334, "bike_id": "a31a891e5fceba4f88fab7d8bc5b0d20", "fusion_lon": 0.0, "is_reserved": 0, "type": "electric_scooter", "name": "a31a891e5fceba4f88fab7d8bc5b0d20", "lon": -77.00486216666667, "rental_uris": {"android": "https://dc.lft.to/lastmile_qr_scan", "ios": "https://dc.lft.to/lastmile_qr_scan"}, "fusion_lat": 0.0}, {"is_disabled": 0, "lat": 38.918698, "bike_id": "96e7f6097730bf3c702ededb8346b25e", "fusion_lon": 0.0, "is_reserved": 0, "type": "electric_scooter", "name": "96e7f6097730bf3c702ededb8346b25e", "lon": -77.03462583333334, "rental_uris": {"android": "https://dc.lft.to/lastmile_qr_scan", "ios": "https://dc.lft.to/lastmile_qr_scan"}, "fusion_lat": 0.0}, {"is_disabled": 0, "lat": 38.89531316666667, "bike_id": "e66c24d34dc4445042a3efc93851d2e5", "fusion_lon": 0.0, "is_reserved": 0, "type": "electric_scooter", "name": "e66c24d34dc4445042a3efc93851d2e5", "lon": -77.0493005, "rental_uris": {"android": "https://dc.lft.to/lastmile_qr_scan", "ios": "https://dc.lft.to/lastmile_qr_scan"}, "fusion_lat": 0.0}, {"is_disabled": 0, "lat": 38.8529605, "bike_id": "66a6f95d7744214f687c36df88fc1e7d", "fusion_lon": 0.0, "is_reserved": 0, "type": "electric_bike", "name": "66a6f95d7744214f687c36df88fc1e7d", "lon": -76.9958165, "rental_uris": {"android": "https://dc.lft.to/lastmile_qr_scan", "ios": "https://dc.lft.to/lastmile_qr_scan"}, "fusion_lat": 0.0}, {"is_disabled": 0, "lat": 38.9246975, "bike_id": "f0a5625d242e4e5b53d269e4e7c05e83", "fusion_lon": 0.0, "is_reserved": 0, "type": "electric_scooter", "name": "f0a5625d242e4e5b53d269e4e7c05e83", "lon": -77.0255625, "rental_uris": {"android": "https://dc.lft.to/lastmile_qr_scan", "ios": "https://dc.lft.to/lastmile_qr_scan"}, "fusion_lat": 0.0}, {"is_disabled": 0, "lat": 38.91039716666667, "bike_id": "8e590d667f855b8a96c1c20df57ebced", "fusion_lon": 0.0, "is_reserved": 0, "type": "electric_scooter", "name": "8e590d667f855b8a96c1c20df57ebced", "lon": -77.0435265, "rental_uris": {"android": "https://dc.lft.to/lastmile_qr_scan", "ios": "https://dc.lft.to/lastmile_qr_scan"}, "fusion_lat": 0.0}, {"is_disabled": 0, "lat": 38.8991385, "bike_id": "494d396afe10e72f5e7d8d1c747dae5d", "fusion_lon": 0.0, "is_reserved": 0, "type": "electric_scooter", "name": "494d396afe10e72f5e7d8d1c747dae5d", "lon": -76.93364966666667, "rental_uris": {"android": "https://dc.lft.to/lastmile_qr_scan", "ios": "https://dc.lft.to/lastmile_qr_scan"}, "fusion_lat": 0.0}, {"is_disabled": 0, "lat": 38.909444666666666, "bike_id": "3337740fe706748d62734be2b2fd2f3b", "fusion_lon": 0.0, "is_reserved": 0, "type": "electric_scooter", "name": "3337740fe706748d62734be2b2fd2f3b", "lon": -77.03198783333333, "rental_uris": {"android": "https://dc.lft.to/lastmile_qr_scan", "ios": "https://dc.lft.to/lastmile_qr_scan"}, "fusion_lat": 0.0}, {"is_disabled": 0, "lat": 38.892280666666665, "bike_id": "48615d7678d4ba8bcc89cc9763e25a89", "fusion_lon": 0.0, "is_reserved": 0, "type": "electric_scooter", "name": "48615d7678d4ba8bcc89cc9763e25a89", "lon": -76.99604566666666, "rental_uris": {"android": "https://dc.lft.to/lastmile_qr_scan", "ios": "https://dc.lft.to/lastmile_qr_scan"}, "fusion_lat": 0.0}, {"is_disabled": 0, "lat": 38.90763033333333, "bike_id": "3222a19888f5b2aadc24e74d1b258c1d", "fusion_lon": 0.0, "is_reserved": 0, "type": "electric_scooter", "name": "3222a19888f5b2aadc24e74d1b258c1d", "lon": -77.00388133333334, "rental_uris": {"android": "https://dc.lft.to/lastmile_qr_scan", "ios": "https://dc.lft.to/lastmile_qr_scan"}, "fusion_lat": 0.0}, {"is_disabled": 0, "lat": 38.90945266666667, "bike_id": "d4f41d301605bec7dc948890d0fa48c8", "fusion_lon": 0.0, "is_reserved": 0, "type": "electric_scooter", "name": "d4f41d301605bec7dc948890d0fa48c8", "lon": -77.0269845, "rental_uris": {"android": "https://dc.lft.to/lastmile_qr_scan", "ios": "https://dc.lft.to/lastmile_qr_scan"}, "fusion_lat": 0.0}, {"is_disabled": 0, "lat": 38.92144833333333, "bike_id": "60f7239b2a306fd10d22bdbb8d02ff53", "fusion_lon": 0.0, "is_reserved": 0, "type": "electric_scooter", "name": "60f7239b2a306fd10d22bdbb8d02ff53", "lon": -77.04780616666666, "rental_uris": {"android": "https://dc.lft.to/lastmile_qr_scan", "ios": "https://dc.lft.to/lastmile_qr_scan"}, "fusion_lat": 0.0}, {"is_disabled": 0, "lat": 38.9321725, "bike_id": "ea9c967183b5b6043297236357270ed4", "fusion_lon": 0.0, "is_reserved": 0, "type": "electric_scooter", "name": "ea9c967183b5b6043297236357270ed4", "lon": -77.03379816666667, "rental_uris": {"android": "https://dc.lft.to/lastmile_qr_scan", "ios": "https://dc.lft.to/lastmile_qr_scan"}, "fusion_lat": 0.0}, {"is_disabled": 0, "lat": 38.92614116666667, "bike_id": "429813ca69a07220fb16e972401dc5f4", "fusion_lon": 0.0, "is_reserved": 0, "type": "electric_scooter", "name": "429813ca69a07220fb16e972401dc5f4", "lon": -77.02160333333333, "rental_uris": {"android": "https://dc.lft.to/lastmile_qr_scan", "ios": "https://dc.lft.to/lastmile_qr_scan"}, "fusion_lat": 0.0}, {"is_disabled": 0, "lat": 38.90802466666667, "bike_id": "125e0a6cf07339157cb7e45caf450cc4", "fusion_lon": 0.0, "is_reserved": 0, "type": "electric_scooter", "name": "125e0a6cf07339157cb7e45caf450cc4", "lon": -77.03426016666667, "rental_uris": {"android": "https://dc.lft.to/lastmile_qr_scan", "ios": "https://dc.lft.to/lastmile_qr_scan"}, "fusion_lat": 0.0}, {"is_disabled": 0, "lat": 38.841030833333335, "bike_id": "4302acbc29f08211f38dd7c531e0debc", "fusion_lon": 0.0, "is_reserved": 0, "type": "electric_bike", "name": "4302acbc29f08211f38dd7c531e0debc", "lon": -77.08941816666666, "rental_uris": {"android": "https://dc.lft.to/lastmile_qr_scan", "ios": "https://dc.lft.to/lastmile_qr_scan"}, "fusion_lat": 0.0}, {"is_disabled": 0, "lat": 38.9149085, "bike_id": "cb9527d1fa63d88ae1819f633d4ad020", "fusion_lon": 0.0, "is_reserved": 0, "type": "electric_scooter", "name": "cb9527d1fa63d88ae1819f633d4ad020", "lon": -76.98370533333333, "rental_uris": {"android": "https://dc.lft.to/lastmile_qr_scan", "ios": "https://dc.lft.to/lastmile_qr_scan"}, "fusion_lat": 0.0}, {"is_disabled": 0, "lat": 38.95425916666667, "bike_id": "0335453978a8deb51d82393e61227e4a", "fusion_lon": 0.0, "is_reserved": 0, "type": "electric_scooter", "name": "0335453978a8deb51d82393e61227e4a", "lon": -77.02764566666667, "rental_uris": {"android": "https://dc.lft.to/lastmile_qr_scan", "ios": "https://dc.lft.to/lastmile_qr_scan"}, "fusion_lat": 0.0}, {"is_disabled": 0, "lat": 38.9003965, "bike_id": "02ceb0c4840e62efe008d8667392cf52", "fusion_lon": 0.0, "is_reserved": 0, "type": "electric_scooter", "name": "02ceb0c4840e62efe008d8667392cf52", "lon": -77.0055075, "rental_uris": {"android": "https://dc.lft.to/lastmile_qr_scan", "ios": "https://dc.lft.to/lastmile_qr_scan"}, "fusion_lat": 0.0}, {"is_disabled": 0, "lat": 38.89222516666667, "bike_id": "67be3f0e4e3a55fcff7099ff93356494", "fusion_lon": 0.0, "is_reserved": 0, "type": "electric_scooter", "name": "67be3f0e4e3a55fcff7099ff93356494", "lon": -77.0222255, "rental_uris": {"android": "https://dc.lft.to/lastmile_qr_scan", "ios": "https://dc.lft.to/lastmile_qr_scan"}, "fusion_lat": 0.0}, {"is_disabled": 0, "lat": 38.904024, "bike_id": "095c962ef9853c51602543e7991f2b57", "fusion_lon": 0.0, "is_reserved": 0, "type": "electric_scooter", "name": "095c962ef9853c51602543e7991f2b57", "lon": -77.04210233333333, "rental_uris": {"android": "https://dc.lft.to/lastmile_qr_scan", "ios": "https://dc.lft.to/lastmile_qr_scan"}, "fusion_lat": 0.0}, {"is_disabled": 0, "lat": 38.93863366666667, "bike_id": "1529539d1dea93fbd20fd23a42e2999b", "fusion_lon": 0.0, "is_reserved": 0, "type": "electric_scooter", "name": "1529539d1dea93fbd20fd23a42e2999b", "lon": -77.02493133333333, "rental_uris": {"android": "https://dc.lft.to/lastmile_qr_scan", "ios": "https://dc.lft.to/lastmile_qr_scan"}, "fusion_lat": 0.0}, {"is_disabled": 0, "lat": 38.88183266666667, "bike_id": "39c51379abea064924c5a1e5c6c6b7bb", "fusion_lon": 0.0, "is_reserved": 0, "type": "electric_scooter", "name": "39c51379abea064924c5a1e5c6c6b7bb", "lon": -77.02814366666667, "rental_uris": {"android": "https://dc.lft.to/lastmile_qr_scan", "ios": "https://dc.lft.to/lastmile_qr_scan"}, "fusion_lat": 0.0}, {"is_disabled": 0, "lat": 38.8770585, "bike_id": "eac7f7173ab11c95f031db8290e7e279", "fusion_lon": 0.0, "is_reserved": 0, "type": "electric_scooter", "name": "eac7f7173ab11c95f031db8290e7e279", "lon": -77.0176255, "rental_uris": {"android": "https://dc.lft.to/lastmile_qr_scan", "ios": "https://dc.lft.to/lastmile_qr_scan"}, "fusion_lat": 0.0}, {"is_disabled": 0, "lat": 38.9268, "bike_id": "84cb75e7bd225d17f9699c9d41be1b53", "fusion_lon": 0.0, "is_reserved": 0, "type": "electric_scooter", "name": "84cb75e7bd225d17f9699c9d41be1b53", "lon": -77.01512033333333, "rental_uris": {"android": "https://dc.lft.to/lastmile_qr_scan", "ios": "https://dc.lft.to/lastmile_qr_scan"}, "fusion_lat": 0.0}, {"is_disabled": 0, "lat": 38.966233, "bike_id": "c5b053735d476f9b6c3c43a860badbb0", "fusion_lon": 0.0, "is_reserved": 0, "type": "electric_scooter", "name": "c5b053735d476f9b6c3c43a860badbb0", "lon": -77.02002283333333, "rental_uris": {"android": "https://dc.lft.to/lastmile_qr_scan", "ios": "https://dc.lft.to/lastmile_qr_scan"}, "fusion_lat": 0.0}, {"is_disabled": 0, "lat": 38.88311366666667, "bike_id": "81b146d8993d8ae3e208e742dce4347e", "fusion_lon": 0.0, "is_reserved": 0, "type": "electric_scooter", "name": "81b146d8993d8ae3e208e742dce4347e", "lon": -76.99371, "rental_uris": {"android": "https://dc.lft.to/lastmile_qr_scan", "ios": "https://dc.lft.to/lastmile_qr_scan"}, "fusion_lat": 0.0}, {"is_disabled": 0, "lat": 38.928416666666664, "bike_id": "5adb91797919a4d4bb4cae54c481e694", "fusion_lon": 0.0, "is_reserved": 0, "type": "electric_scooter", "name": "5adb91797919a4d4bb4cae54c481e694", "lon": -77.03271566666666, "rental_uris": {"android": "https://dc.lft.to/lastmile_qr_scan", "ios": "https://dc.lft.to/lastmile_qr_scan"}, "fusion_lat": 0.0}, {"is_disabled": 0, "lat": 38.89224683333333, "bike_id": "d8e67e0b0f58786b798caa0de8ff171a", "fusion_lon": 0.0, "is_reserved": 0, "type": "electric_scooter", "name": "d8e67e0b0f58786b798caa0de8ff171a", "lon": -76.99596766666667, "rental_uris": {"android": "https://dc.lft.to/lastmile_qr_scan", "ios": "https://dc.lft.to/lastmile_qr_scan"}, "fusion_lat": 0.0}, {"is_disabled": 0, "lat": 38.90241433333333, "bike_id": "05a488c9ee0019801230caa95da210e2", "fusion_lon": 0.0, "is_reserved": 0, "type": "electric_scooter", "name": "05a488c9ee0019801230caa95da210e2", "lon": -77.002002, "rental_uris": {"android": "https://dc.lft.to/lastmile_qr_scan", "ios": "https://dc.lft.to/lastmile_qr_scan"}, "fusion_lat": 0.0}, {"is_disabled": 0, "lat": 38.914169666666666, "bike_id": "b6941a0bb134d3f4d3cb96b4e783e965", "fusion_lon": 0.0, "is_reserved": 0, "type": "electric_scooter", "name": "b6941a0bb134d3f4d3cb96b4e783e965", "lon": -77.02616866666666, "rental_uris": {"android": "https://dc.lft.to/lastmile_qr_scan", "ios": "https://dc.lft.to/lastmile_qr_scan"}, "fusion_lat": 0.0}, {"is_disabled": 0, "lat": 38.905068, "bike_id": "83dd9214c50f831a3324bf34619dc4db", "fusion_lon": 0.0, "is_reserved": 0, "type": "electric_scooter", "name": "83dd9214c50f831a3324bf34619dc4db", "lon": -77.04488683333334, "rental_uris": {"android": "https://dc.lft.to/lastmile_qr_scan", "ios": "https://dc.lft.to/lastmile_qr_scan"}, "fusion_lat": 0.0}, {"is_disabled": 0, "lat": 38.921537666666666, "bike_id": "49e0040106502f2aff6e30d251219104", "fusion_lon": 0.0, "is_reserved": 0, "type": "electric_scooter", "name": "49e0040106502f2aff6e30d251219104", "lon": -77.04233333333333, "rental_uris": {"android": "https://dc.lft.to/lastmile_qr_scan", "ios": "https://dc.lft.to/lastmile_qr_scan"}, "fusion_lat": 0.0}, {"is_disabled": 0, "lat": 38.9001535, "bike_id": "5e0e5bd732ec82b06541699c1ef07beb", "fusion_lon": 0.0, "is_reserved": 0, "type": "electric_scooter", "name": "5e0e5bd732ec82b06541699c1ef07beb", "lon": -77.04656566666667, "rental_uris": {"android": "https://dc.lft.to/lastmile_qr_scan", "ios": "https://dc.lft.to/lastmile_qr_scan"}, "fusion_lat": 0.0}, {"is_disabled": 0, "lat": 38.92813866666667, "bike_id": "e47ced3cf81c54db52b4fe5fb14e52b4", "fusion_lon": 0.0, "is_reserved": 0, "type": "electric_scooter", "name": "e47ced3cf81c54db52b4fe5fb14e52b4", "lon": -77.02906133333333, "rental_uris": {"android": "https://dc.lft.to/lastmile_qr_scan", "ios": "https://dc.lft.to/lastmile_qr_scan"}, "fusion_lat": 0.0}, {"is_disabled": 0, "lat": 38.92034433333333, "bike_id": "6ec5bf52304623461a12c741fbddd69d", "fusion_lon": 0.0, "is_reserved": 0, "type": "electric_scooter", "name": "6ec5bf52304623461a12c741fbddd69d", "lon": -77.02590333333333, "rental_uris": {"android": "https://dc.lft.to/lastmile_qr_scan", "ios": "https://dc.lft.to/lastmile_qr_scan"}, "fusion_lat": 0.0}, {"is_disabled": 0, "lat": 38.901317666666664, "bike_id": "b0ae7f53fe0cfbe51ed933511d0dd0e5", "fusion_lon": 0.0, "is_reserved": 0, "type": "electric_scooter", "name": "b0ae7f53fe0cfbe51ed933511d0dd0e5", "lon": -76.99883283333334, "rental_uris": {"android": "https://dc.lft.to/lastmile_qr_scan", "ios": "https://dc.lft.to/lastmile_qr_scan"}, "fusion_lat": 0.0}, {"is_disabled": 0, "lat": 38.923892, "bike_id": "5b87ef3b60dda4d738d48b8cad68bc0c", "fusion_lon": 0.0, "is_reserved": 0, "type": "electric_scooter", "name": "5b87ef3b60dda4d738d48b8cad68bc0c", "lon": -77.08036016666667, "rental_uris": {"android": "https://dc.lft.to/lastmile_qr_scan", "ios": "https://dc.lft.to/lastmile_qr_scan"}, "fusion_lat": 0.0}, {"is_disabled": 0, "lat": 38.93245366666667, "bike_id": "1d48f1ce88907f0e99e27430af367e10", "fusion_lon": 0.0, "is_reserved": 0, "type": "electric_scooter", "name": "1d48f1ce88907f0e99e27430af367e10", "lon": -77.032726, "rental_uris": {"android": "https://dc.lft.to/lastmile_qr_scan", "ios": "https://dc.lft.to/lastmile_qr_scan"}, "fusion_lat": 0.0}, {"is_disabled": 0, "lat": 38.902919833333335, "bike_id": "10647041d6b184452eb2eb53941ad392", "fusion_lon": 0.0, "is_reserved": 0, "type": "electric_scooter", "name": "10647041d6b184452eb2eb53941ad392", "lon": -76.98020933333333, "rental_uris": {"android": "https://dc.lft.to/lastmile_qr_scan", "ios": "https://dc.lft.to/lastmile_qr_scan"}, "fusion_lat": 0.0}, {"is_disabled": 0, "lat": 38.92077183333333, "bike_id": "21c470e7420cd026d91b03e7a24ca41a", "fusion_lon": 0.0, "is_reserved": 0, "type": "electric_scooter", "name": "21c470e7420cd026d91b03e7a24ca41a", "lon": -77.02382616666667, "rental_uris": {"android": "https://dc.lft.to/lastmile_qr_scan", "ios": "https://dc.lft.to/lastmile_qr_scan"}, "fusion_lat": 0.0}, {"is_disabled": 0, "lat": 38.89849933333333, "bike_id": "bd1c6a3df7e0117d8cb5a10e086ccc48", "fusion_lon": 0.0, "is_reserved": 0, "type": "electric_scooter", "name": "bd1c6a3df7e0117d8cb5a10e086ccc48", "lon": -77.00731816666666, "rental_uris": {"android": "https://dc.lft.to/lastmile_qr_scan", "ios": "https://dc.lft.to/lastmile_qr_scan"}, "fusion_lat": 0.0}, {"is_disabled": 0, "lat": 38.923680833333336, "bike_id": "a2f48f1590ed303de54dd43557bd80fb", "fusion_lon": 0.0, "is_reserved": 0, "type": "electric_scooter", "name": "a2f48f1590ed303de54dd43557bd80fb", "lon": -77.01819466666667, "rental_uris": {"android": "https://dc.lft.to/lastmile_qr_scan", "ios": "https://dc.lft.to/lastmile_qr_scan"}, "fusion_lat": 0.0}, {"is_disabled": 0, "lat": 38.958404333333334, "bike_id": "cb854947c5127c82e918ded7ca550416", "fusion_lon": 0.0, "is_reserved": 0, "type": "electric_scooter", "name": "cb854947c5127c82e918ded7ca550416", "lon": -77.07170816666667, "rental_uris": {"android": "https://dc.lft.to/lastmile_qr_scan", "ios": "https://dc.lft.to/lastmile_qr_scan"}, "fusion_lat": 0.0}, {"is_disabled": 0, "lat": 38.906652666666666, "bike_id": "35d84970bbbe454e7a93084accdc965f", "fusion_lon": 0.0, "is_reserved": 0, "type": "electric_scooter", "name": "35d84970bbbe454e7a93084accdc965f", "lon": -77.03861516666667, "rental_uris": {"android": "https://dc.lft.to/lastmile_qr_scan", "ios": "https://dc.lft.to/lastmile_qr_scan"}, "fusion_lat": 0.0}, {"is_disabled": 0, "lat": 38.88677933333334, "bike_id": "1a6a6107dfe2be9875081ee65011d814", "fusion_lon": 0.0, "is_reserved": 0, "type": "electric_scooter", "name": "1a6a6107dfe2be9875081ee65011d814", "lon": -77.00200383333333, "rental_uris": {"android": "https://dc.lft.to/lastmile_qr_scan", "ios": "https://dc.lft.to/lastmile_qr_scan"}, "fusion_lat": 0.0}, {"is_disabled": 0, "lat": 38.91558966666667, "bike_id": "caffee378a21b41822856bc812ec1552", "fusion_lon": 0.0, "is_reserved": 0, "type": "electric_scooter", "name": "caffee378a21b41822856bc812ec1552", "lon": -77.03177133333334, "rental_uris": {"android": "https://dc.lft.to/lastmile_qr_scan", "ios": "https://dc.lft.to/lastmile_qr_scan"}, "fusion_lat": 0.0}, {"is_disabled": 0, "lat": 38.874931333333336, "bike_id": "233e0f2037aac83c0c328aa8f37d394d", "fusion_lon": 0.0, "is_reserved": 0, "type": "electric_scooter", "name": "233e0f2037aac83c0c328aa8f37d394d", "lon": -77.00082783333333, "rental_uris": {"android": "https://dc.lft.to/lastmile_qr_scan", "ios": "https://dc.lft.to/lastmile_qr_scan"}, "fusion_lat": 0.0}, {"is_disabled": 0, "lat": 38.90738133333333, "bike_id": "94a810c8134722100f3ff4fcecfcf622", "fusion_lon": 0.0, "is_reserved": 0, "type": "electric_scooter", "name": "94a810c8134722100f3ff4fcecfcf622", "lon": -77.0122555, "rental_uris": {"android": "https://dc.lft.to/lastmile_qr_scan", "ios": "https://dc.lft.to/lastmile_qr_scan"}, "fusion_lat": 0.0}, {"is_disabled": 0, "lat": 38.925059, "bike_id": "fdd2d42658786ad412085d74e2166fea", "fusion_lon": 0.0, "is_reserved": 0, "type": "electric_scooter", "name": "fdd2d42658786ad412085d74e2166fea", "lon": -77.03793116666667, "rental_uris": {"android": "https://dc.lft.to/lastmile_qr_scan", "ios": "https://dc.lft.to/lastmile_qr_scan"}, "fusion_lat": 0.0}, {"is_disabled": 0, "lat": 38.909657833333334, "bike_id": "1a67c9af4b091e0db17b49a624a6daeb", "fusion_lon": 0.0, "is_reserved": 0, "type": "electric_scooter", "name": "1a67c9af4b091e0db17b49a624a6daeb", "lon": -77.04540866666666, "rental_uris": {"android": "https://dc.lft.to/lastmile_qr_scan", "ios": "https://dc.lft.to/lastmile_qr_scan"}, "fusion_lat": 0.0}, {"is_disabled": 0, "lat": 38.91680616666667, "bike_id": "c7b3ca41874347d0307d9b8fbb4d8692", "fusion_lon": 0.0, "is_reserved": 0, "type": "electric_scooter", "name": "c7b3ca41874347d0307d9b8fbb4d8692", "lon": -77.0414185, "rental_uris": {"android": "https://dc.lft.to/lastmile_qr_scan", "ios": "https://dc.lft.to/lastmile_qr_scan"}, "fusion_lat": 0.0}, {"is_disabled": 0, "lat": 38.93484983333333, "bike_id": "e3c5fb0c39a65b0c6a2bf836c9de735c", "fusion_lon": 0.0, "is_reserved": 0, "type": "electric_scooter", "name": "e3c5fb0c39a65b0c6a2bf836c9de735c", "lon": -77.07272666666667, "rental_uris": {"android": "https://dc.lft.to/lastmile_qr_scan", "ios": "https://dc.lft.to/lastmile_qr_scan"}, "fusion_lat": 0.0}, {"is_disabled": 0, "lat": 38.932969, "bike_id": "f452441b406ce90af882c04cb61e6774", "fusion_lon": 0.0, "is_reserved": 0, "type": "electric_scooter", "name": "f452441b406ce90af882c04cb61e6774", "lon": -77.02397383333333, "rental_uris": {"android": "https://dc.lft.to/lastmile_qr_scan", "ios": "https://dc.lft.to/lastmile_qr_scan"}, "fusion_lat": 0.0}, {"is_disabled": 0, "lat": 38.90018033333333, "bike_id": "dddb4933f4decae0b6f4e6b5342e6e62", "fusion_lon": 0.0, "is_reserved": 0, "type": "electric_scooter", "name": "dddb4933f4decae0b6f4e6b5342e6e62", "lon": -76.98465516666667, "rental_uris": {"android": "https://dc.lft.to/lastmile_qr_scan", "ios": "https://dc.lft.to/lastmile_qr_scan"}, "fusion_lat": 0.0}, {"is_disabled": 0, "lat": 38.93253333333333, "bike_id": "e5c6ec430bd7a73ad48dbd0ad5106af7", "fusion_lon": 0.0, "is_reserved": 0, "type": "electric_scooter", "name": "e5c6ec430bd7a73ad48dbd0ad5106af7", "lon": -77.03882183333333, "rental_uris": {"android": "https://dc.lft.to/lastmile_qr_scan", "ios": "https://dc.lft.to/lastmile_qr_scan"}, "fusion_lat": 0.0}, {"is_disabled": 0, "lat": 38.90338533333333, "bike_id": "1ab7add90f3e771eda0df29102c6f0ae", "fusion_lon": 0.0, "is_reserved": 0, "type": "electric_scooter", "name": "1ab7add90f3e771eda0df29102c6f0ae", "lon": -77.03855283333333, "rental_uris": {"android": "https://dc.lft.to/lastmile_qr_scan", "ios": "https://dc.lft.to/lastmile_qr_scan"}, "fusion_lat": 0.0}, {"is_disabled": 0, "lat": 38.93604, "bike_id": "bcd0f9697a881549083c12d877f7ebd6", "fusion_lon": 0.0, "is_reserved": 0, "type": "electric_scooter", "name": "bcd0f9697a881549083c12d877f7ebd6", "lon": -77.03755166666667, "rental_uris": {"android": "https://dc.lft.to/lastmile_qr_scan", "ios": "https://dc.lft.to/lastmile_qr_scan"}, "fusion_lat": 0.0}, {"is_disabled": 0, "lat": 38.9056555, "bike_id": "9e99e2c01171fa8edd1c6ac2852be135", "fusion_lon": 0.0, "is_reserved": 0, "type": "electric_scooter", "name": "9e99e2c01171fa8edd1c6ac2852be135", "lon": -77.0451145, "rental_uris": {"android": "https://dc.lft.to/lastmile_qr_scan", "ios": "https://dc.lft.to/lastmile_qr_scan"}, "fusion_lat": 0.0}, {"is_disabled": 0, "lat": 38.90240083333333, "bike_id": "050a6cf138df19165743944193760541", "fusion_lon": 0.0, "is_reserved": 0, "type": "electric_scooter", "name": "050a6cf138df19165743944193760541", "lon": -77.00196766666667, "rental_uris": {"android": "https://dc.lft.to/lastmile_qr_scan", "ios": "https://dc.lft.to/lastmile_qr_scan"}, "fusion_lat": 0.0}, {"is_disabled": 0, "lat": 38.90275033333333, "bike_id": "4fb75bedbb4c9c16a2bac49e5fac077f", "fusion_lon": 0.0, "is_reserved": 0, "type": "electric_scooter", "name": "4fb75bedbb4c9c16a2bac49e5fac077f", "lon": -77.03360233333333, "rental_uris": {"android": "https://dc.lft.to/lastmile_qr_scan", "ios": "https://dc.lft.to/lastmile_qr_scan"}, "fusion_lat": 0.0}, {"is_disabled": 0, "lat": 38.89561633333334, "bike_id": "b6fa4707038b22aa2234141b8b48d415", "fusion_lon": 0.0, "is_reserved": 0, "type": "electric_scooter", "name": "b6fa4707038b22aa2234141b8b48d415", "lon": -77.00923783333333, "rental_uris": {"android": "https://dc.lft.to/lastmile_qr_scan", "ios": "https://dc.lft.to/lastmile_qr_scan"}, "fusion_lat": 0.0}, {"is_disabled": 0, "lat": 38.92797766666666, "bike_id": "8f80e1f0b44bdc0afb206c19e6253e98", "fusion_lon": 0.0, "is_reserved": 0, "type": "electric_scooter", "name": "8f80e1f0b44bdc0afb206c19e6253e98", "lon": -77.04107183333333, "rental_uris": {"android": "https://dc.lft.to/lastmile_qr_scan", "ios": "https://dc.lft.to/lastmile_qr_scan"}, "fusion_lat": 0.0}, {"is_disabled": 0, "lat": 38.94598416666667, "bike_id": "85952412d5840cef744084abf2885771", "fusion_lon": 0.0, "is_reserved": 0, "type": "electric_bike", "name": "85952412d5840cef744084abf2885771", "lon": -77.344171, "rental_uris": {"android": "https://dc.lft.to/lastmile_qr_scan", "ios": "https://dc.lft.to/lastmile_qr_scan"}, "fusion_lat": 0.0}, {"is_disabled": 0, "lat": 38.8529415, "bike_id": "56bca679c2ed1589b50e844da4b995d2", "fusion_lon": 0.0, "is_reserved": 0, "type": "electric_bike", "name": "56bca679c2ed1589b50e844da4b995d2", "lon": -76.9958155, "rental_uris": {"android": "https://dc.lft.to/lastmile_qr_scan", "ios": "https://dc.lft.to/lastmile_qr_scan"}, "fusion_lat": 0.0}, {"is_disabled": 0, "lat": 38.884023166666665, "bike_id": "1ee5143f918d11ce604f7147203dbda9", "fusion_lon": 0.0, "is_reserved": 0, "type": "electric_scooter", "name": "1ee5143f918d11ce604f7147203dbda9", "lon": -76.988683, "rental_uris": {"android": "https://dc.lft.to/lastmile_qr_scan", "ios": "https://dc.lft.to/lastmile_qr_scan"}, "fusion_lat": 0.0}, {"is_disabled": 0, "lat": 38.916773166666665, "bike_id": "7e3887f97dbe181e9709af1f4efc1048", "fusion_lon": 0.0, "is_reserved": 0, "type": "electric_scooter", "name": "7e3887f97dbe181e9709af1f4efc1048", "lon": -77.02965266666666, "rental_uris": {"android": "https://dc.lft.to/lastmile_qr_scan", "ios": "https://dc.lft.to/lastmile_qr_scan"}, "fusion_lat": 0.0}, {"is_disabled": 0, "lat": 38.924693500000004, "bike_id": "2bc538280825e28334aaa930082eefae", "fusion_lon": 0.0, "is_reserved": 0, "type": "electric_scooter", "name": "2bc538280825e28334aaa930082eefae", "lon": -77.02270133333333, "rental_uris": {"android": "https://dc.lft.to/lastmile_qr_scan", "ios": "https://dc.lft.to/lastmile_qr_scan"}, "fusion_lat": 0.0}, {"is_disabled": 0, "lat": 38.933036333333334, "bike_id": "352ca70fe536e1c1875d5567c945dc11", "fusion_lon": 0.0, "is_reserved": 0, "type": "electric_scooter", "name": "352ca70fe536e1c1875d5567c945dc11", "lon": -77.02472466666667, "rental_uris": {"android": "https://dc.lft.to/lastmile_qr_scan", "ios": "https://dc.lft.to/lastmile_qr_scan"}, "fusion_lat": 0.0}, {"is_disabled": 0, "lat": 38.88314916666667, "bike_id": "88d843a9e2fbd750d4aaa6c7fae4b297", "fusion_lon": 0.0, "is_reserved": 0, "type": "electric_scooter", "name": "88d843a9e2fbd750d4aaa6c7fae4b297", "lon": -77.0093625, "rental_uris": {"android": "https://dc.lft.to/lastmile_qr_scan", "ios": "https://dc.lft.to/lastmile_qr_scan"}, "fusion_lat": 0.0}, {"is_disabled": 0, "lat": 38.89759466666667, "bike_id": "52a07045aa0c3ac17f11e8566623c346", "fusion_lon": 0.0, "is_reserved": 0, "type": "electric_scooter", "name": "52a07045aa0c3ac17f11e8566623c346", "lon": -77.027236, "rental_uris": {"android": "https://dc.lft.to/lastmile_qr_scan", "ios": "https://dc.lft.to/lastmile_qr_scan"}, "fusion_lat": 0.0}, {"is_disabled": 0, "lat": 38.923514, "bike_id": "478f86f6810488dad0e179897b8ff1cb", "fusion_lon": 0.0, "is_reserved": 0, "type": "electric_scooter", "name": "478f86f6810488dad0e179897b8ff1cb", "lon": -77.01913483333334, "rental_uris": {"android": "https://dc.lft.to/lastmile_qr_scan", "ios": "https://dc.lft.to/lastmile_qr_scan"}, "fusion_lat": 0.0}, {"is_disabled": 0, "lat": 38.91099333333333, "bike_id": "5dd7dbf913d2997cf773737f0b169908", "fusion_lon": 0.0, "is_reserved": 0, "type": "electric_scooter", "name": "5dd7dbf913d2997cf773737f0b169908", "lon": -77.044578, "rental_uris": {"android": "https://dc.lft.to/lastmile_qr_scan", "ios": "https://dc.lft.to/lastmile_qr_scan"}, "fusion_lat": 0.0}, {"is_disabled": 0, "lat": 38.9050615, "bike_id": "6e695466edb24f9a7532168a01fa0ae9", "fusion_lon": 0.0, "is_reserved": 0, "type": "electric_scooter", "name": "6e695466edb24f9a7532168a01fa0ae9", "lon": -77.044936, "rental_uris": {"android": "https://dc.lft.to/lastmile_qr_scan", "ios": "https://dc.lft.to/lastmile_qr_scan"}, "fusion_lat": 0.0}, {"is_disabled": 0, "lat": 38.903585, "bike_id": "a23e572e26f1c7701b505fbbaefb2a2a", "fusion_lon": 0.0, "is_reserved": 0, "type": "electric_scooter", "name": "a23e572e26f1c7701b505fbbaefb2a2a", "lon": -77.00342166666667, "rental_uris": {"android": "https://dc.lft.to/lastmile_qr_scan", "ios": "https://dc.lft.to/lastmile_qr_scan"}, "fusion_lat": 0.0}, {"is_disabled": 0, "lat": 38.876383833333335, "bike_id": "3911f844fc2fd8401d3f2805971b230b", "fusion_lon": 0.0, "is_reserved": 0, "type": "electric_scooter", "name": "3911f844fc2fd8401d3f2805971b230b", "lon": -77.003827, "rental_uris": {"android": "https://dc.lft.to/lastmile_qr_scan", "ios": "https://dc.lft.to/lastmile_qr_scan"}, "fusion_lat": 0.0}, {"is_disabled": 0, "lat": 38.93523783333333, "bike_id": "23f18b4b9da005556b217c9e51153c7b", "fusion_lon": 0.0, "is_reserved": 0, "type": "electric_scooter", "name": "23f18b4b9da005556b217c9e51153c7b", "lon": -77.032663, "rental_uris": {"android": "https://dc.lft.to/lastmile_qr_scan", "ios": "https://dc.lft.to/lastmile_qr_scan"}, "fusion_lat": 0.0}, {"is_disabled": 0, "lat": 38.910575, "bike_id": "505fef027d69f1d678f7e94ec153a801", "fusion_lon": 0.0, "is_reserved": 0, "type": "electric_bike", "name": "505fef027d69f1d678f7e94ec153a801", "lon": -77.0558275, "rental_uris": {"android": "https://dc.lft.to/lastmile_qr_scan", "ios": "https://dc.lft.to/lastmile_qr_scan"}, "fusion_lat": 0.0}, {"is_disabled": 0, "lat": 38.9087715, "bike_id": "f05bb6f46ff53197cd51d4d270abb8e8", "fusion_lon": 0.0, "is_reserved": 0, "type": "electric_bike", "name": "f05bb6f46ff53197cd51d4d270abb8e8", "lon": -77.06422183333333, "rental_uris": {"android": "https://dc.lft.to/lastmile_qr_scan", "ios": "https://dc.lft.to/lastmile_qr_scan"}, "fusion_lat": 0.0}, {"is_disabled": 0, "lat": 38.89620033333333, "bike_id": "d831acebd2044ddf827696f0e5da0408", "fusion_lon": 0.0, "is_reserved": 0, "type": "electric_scooter", "name": "d831acebd2044ddf827696f0e5da0408", "lon": -77.02386116666666, "rental_uris": {"android": "https://dc.lft.to/lastmile_qr_scan", "ios": "https://dc.lft.to/lastmile_qr_scan"}, "fusion_lat": 0.0},