{"data": {"bikes": [{"name": "62f155aa47e1c997fa630a61eda5678a", "fusion_lon": 0.0, "lat": 38.914182, "is_reserved": 0, "type": "electric_scooter", "bike_id": "62f155aa47e1c997fa630a61eda5678a", "is_disabled": 0, "rental_uris": {"android": "https://dc.lft.to/lastmile_qr_scan", "ios": "https://dc.lft.to/lastmile_qr_scan"}, "lon": -77.0316855, "fusion_lat": 0.0}, {"name": "a003b6b1ad6127e5528bddfaba074ab3", "fusion_lon": 0.0, "lat": 38.900080333333335, "is_reserved": 0, "type": "electric_scooter", "bike_id": "a003b6b1ad6127e5528bddfaba074ab3", "is_disabled": 0, "rental_uris": {"android": "https://dc.lft.to/lastmile_qr_scan", "ios": "https://dc.lft.to/lastmile_qr_scan"}, "lon": -76.99297116666666, "fusion_lat": 0.0}, {"name": "41baad43fece050cb0a38b8f54b8bf16", "fusion_lon": 0.0, "lat": 38.92354433333333, "is_reserved": 0, "type": "electric_scooter", "bike_id": "41baad43fece050cb0a38b8f54b8bf16", "is_disabled": 0, "rental_uris": {"android": "https://dc.lft.to/lastmile_qr_scan", "ios": "https://dc.lft.to/lastmile_qr_scan"}, "lon": -77.03228566666667, "fusion_lat": 0.0}, {"name": "19bd0b1a604903b1a4f6cfb01a662cbe", "fusion_lon": 0.0, "lat": 39.014815166666665, "is_reserved": 0, "type": "electric_bike", "bike_id": "19bd0b1a604903b1a4f6cfb01a662cbe", "is_disabled": 0, "rental_uris": {"android": "https://dc.lft.to/lastmile_qr_scan", "ios": "https://dc.lft.to/lastmile_qr_scan"}, "lon": -77.05495016666667, "fusion_lat": 0.0}, {"name": "b3f00f51ca96e37bfd9ba3577c8457be", "fusion_lon": 0.0, "lat": 38.92237266666667, "is_reserved": 0, "type": "electric_scooter", "bike_id": "b3f00f51ca96e37bfd9ba3577c8457be", "is_disabled": 0, "rental_uris": {"android": "https://dc.lft.to/lastmile_qr_scan", "ios": "https://dc.lft.to/lastmile_qr_scan"}, "lon": -77.03899166666666, "fusion_lat": 0.0}, {"name": "45fac15033d8578a3acf6938cc3cb136", "fusion_lon": 0.0, "lat": 38.93880766666667, "is_reserved": 0, "type": "electric_scooter", "bike_id": "45fac15033d8578a3acf6938cc3cb136", "is_disabled": 0, "rental_uris": {"android": "https://dc.lft.to/lastmile_qr_scan", "ios": "https://dc.lft.to/lastmile_qr_scan"}, "lon": -77.0248505, "fusion_lat": 0.0}, {"name": "0c437e06f4458b89c8b4b5e0e7181568", "fusion_lon": 0.0, "lat": 38.91930766666667, "is_reserved": 0, "type": "electric_scooter", "bike_id": "0c437e06f4458b89c8b4b5e0e7181568", "is_disabled": 0, "rental_uris": {"android": "https://dc.lft.to/lastmile_qr_scan", "ios": "https://dc.lft.to/lastmile_qr_scan"}, "lon": -77.03427466666666, "fusion_lat": 0.0}, {"name": "b8363b04779f82cc304faaa948f9bef5", "fusion_lon": 0.0, "lat": 38.9037585, "is_reserved": 0, "type": "electric_scooter", "bike_id": "b8363b04779f82cc304faaa948f9bef5", "is_disabled": 0, "rental_uris": {"android": "https://dc.lft.to/lastmile_qr_scan", "ios": "https://dc.lft.to/lastmile_qr_scan"}, "lon": -77.0220395, "fusion_lat": 0.0}, {"name": "621feaac83755f48699d9eb003a17cf0", "fusion_lon": 0.0, "lat": 38.90633533333333, "is_reserved": 0, "type": "electric_scooter", "bike_id": "621feaac83755f48699d9eb003a17cf0", "is_disabled": 0, "rental_uris": {"android": "https://dc.lft.to/lastmile_qr_scan", "ios": "https://dc.lft.to/lastmile_qr_scan"}, "lon": -77.02390133333333, "fusion_lat": 0.0}, {"name": "c42216223b12c1ec4e8b5939c54c2f05", "fusion_lon": 0.0, "lat": 38.90382233333333, "is_reserved": 0, "type": "electric_scooter", "bike_id": "c42216223b12c1ec4e8b5939c54c2f05", "is_disabled": 0, "rental_uris": {"android": "https://dc.lft.to/lastmile_qr_scan", "ios": "https://dc.lft.to/lastmile_qr_scan"}, "lon": -77.0407925, "fusion_lat": 0.0}, {"name": "945f98bce1dbd9b277ec2e396dd2e385", "fusion_lon": 0.0, "lat": 38.90278166666667, "is_reserved": 0, "type": "electric_scooter", "bike_id": "945f98bce1dbd9b277ec2e396dd2e385", "is_disabled": 0, "rental_uris": {"android": "https://dc.lft.to/lastmile_qr_scan", "ios": "https://dc.lft.to/lastmile_qr_scan"}, "lon": -77.03406383333333, "fusion_lat": 0.0}, {"name": "81ec9000613c325e32e781e46a86b79c", "fusion_lon": 0.0, "lat": 38.920702166666665, "is_reserved": 0, "type": "electric_scooter", "bike_id": "81ec9000613c325e32e781e46a86b79c", "is_disabled": 0, "rental_uris": {"android": "https://dc.lft.to/lastmile_qr_scan", "ios": "https://dc.lft.to/lastmile_qr_scan"}, "lon": -77.023997, "fusion_lat": 0.0}, {"name": "609d50c4d8f883e34eeb66b259889ea4", "fusion_lon": 0.0, "lat": 38.928753666666665, "is_reserved": 0, "type": "electric_scooter", "bike_id": "609d50c4d8f883e34eeb66b259889ea4", "is_disabled": 0, "rental_uris": {"android": "https://dc.lft.to/lastmile_qr_scan", "ios": "https://dc.lft.to/lastmile_qr_scan"}, "lon": -77.02644716666667, "fusion_lat": 0.0}, {"name": "e7ef936e47eb645585cd48d8e3b56a81", "fusion_lon": 0.0, "lat": 38.9176875, "is_reserved": 0, "type": "electric_scooter", "bike_id": "e7ef936e47eb645585cd48d8e3b56a81", "is_disabled": 0, "rental_uris": {"android": "https://dc.lft.to/lastmile_qr_scan", "ios": "https://dc.lft.to/lastmile_qr_scan"}, "lon": -77.04057666666667, "fusion_lat": 0.0}, {"name": "c6a15de738fec3493952eff8ed067a2d", "fusion_lon": 0.0, "lat": 38.907266166666666, "is_reserved": 0, "type": "electric_scooter", "bike_id": "c6a15de738fec3493952eff8ed067a2d", "is_disabled": 0, "rental_uris": {"android": "https://dc.lft.to/lastmile_qr_scan", "ios": "https://dc.lft.to/lastmile_qr_scan"}, "lon": -77.04008733333333, "fusion_lat": 0.0}, {"name": "7f1cbf6a3da97c7d4debc03a601f48ae", "fusion_lon": 0.0, "lat": 38.916313833333334, "is_reserved": 0, "type": "electric_scooter", "bike_id": "7f1cbf6a3da97c7d4debc03a601f48ae", "is_disabled": 0, "rental_uris": {"android": "https://dc.lft.to/lastmile_qr_scan", "ios": "https://dc.lft.to/lastmile_qr_scan"}, "lon": -77.03844083333334, "fusion_lat": 0.0}, {"name": "04ab147de61a62877bf67f45406bb4da", "fusion_lon": 0.0, "lat": 38.907782833333336, "is_reserved": 0, "type": "electric_scooter", "bike_id": "04ab147de61a62877bf67f45406bb4da", "is_disabled": 0, "rental_uris": {"android": "https://dc.lft.to/lastmile_qr_scan", "ios": "https://dc.lft.to/lastmile_qr_scan"}, "lon": -77.038302, "fusion_lat": 0.0}, {"name": "d2cb8a227ae4c82108b4ab48f3a4a43e", "fusion_lon": 0.0, "lat": 38.86181, "is_reserved": 0, "type": "electric_scooter", "bike_id": "d2cb8a227ae4c82108b4ab48f3a4a43e", "is_disabled": 0, "rental_uris": {"android": "https://dc.lft.to/lastmile_qr_scan", "ios": "https://dc.lft.to/lastmile_qr_scan"}, "lon": -77.08821783333333, "fusion_lat": 0.0}, {"name": "ac8b6eb8a7fefa48dc8d22bb058a4274", "fusion_lon": 0.0, "lat": 38.9132035, "is_reserved": 0, "type": "electric_scooter", "bike_id": "ac8b6eb8a7fefa48dc8d22bb058a4274", "is_disabled": 0, "rental_uris": {"android": "https://dc.lft.to/lastmile_qr_scan", "ios": "https://dc.lft.to/lastmile_qr_scan"}, "lon": -77.062519, "fusion_lat": 0.0}, {"name": "b4b637411146b4e5851c50625d7529af", "fusion_lon": 0.0, "lat": 38.916411833333335, "is_reserved": 0, "type": "electric_scooter", "bike_id": "b4b637411146b4e5851c50625d7529af", "is_disabled": 0, "rental_uris": {"android": "https://dc.lft.to/lastmile_qr_scan", "ios": "https://dc.lft.to/lastmile_qr_scan"}, "lon": -77.027004, "fusion_lat": 0.0}, {"name": "f53c4b74c369b20078ffac8b8d1d5223", "fusion_lon": 0.0, "lat": 38.9167935, "is_reserved": 0, "type": "electric_scooter", "bike_id": "f53c4b74c369b20078ffac8b8d1d5223", "is_disabled": 0, "rental_uris": {"android": "https://dc.lft.to/lastmile_qr_scan", "ios": "https://dc.lft.to/lastmile_qr_scan"}, "lon": -77.03204683333334, "fusion_lat": 0.0}, {"name": "66a8d47d8bd1d9d56cb11d7c38b8ddc2", "fusion_lon": 0.0, "lat": 38.89608783333333, "is_reserved": 0, "type": "electric_scooter", "bike_id": "66a8d47d8bd1d9d56cb11d7c38b8ddc2", "is_disabled": 0, "rental_uris": {"android": "https://dc.lft.to/lastmile_qr_scan", "ios": "https://dc.lft.to/lastmile_qr_scan"}, "lon": -77.054403, "fusion_lat": 0.0}, {"name": "d4c0a94af10e2e17f9d339784da0ddf3", "fusion_lon": 0.0, "lat": 38.95180766666667, "is_reserved": 0, "type": "electric_scooter", "bike_id": "d4c0a94af10e2e17f9d339784da0ddf3", "is_disabled": 0, "rental_uris": {"android": "https://dc.lft.to/lastmile_qr_scan", "ios": "https://dc.lft.to/lastmile_qr_scan"}, "lon": -77.0261115, "fusion_lat": 0.0}, {"name": "90f17269dc455aa8af39ebdaa46e7d20", "fusion_lon": 0.0, "lat": 38.876388166666665, "is_reserved": 0, "type": "electric_scooter", "bike_id": "90f17269dc455aa8af39ebdaa46e7d20", "is_disabled": 0, "rental_uris": {"android": "https://dc.lft.to/lastmile_qr_scan", "ios": "https://dc.lft.to/lastmile_qr_scan"}, "lon": -77.0045505, "fusion_lat": 0.0}, {"name": "3c1816874ed7e028c9a4a8178cbe344e", "fusion_lon": 0.0, "lat": 38.95869666666667, "is_reserved": 0, "type": "electric_bike", "bike_id": "3c1816874ed7e028c9a4a8178cbe344e", "is_disabled": 0, "rental_uris": {"android": "https://dc.lft.to/lastmile_qr_scan", "ios": "https://dc.lft.to/lastmile_qr_scan"}, "lon": -77.00141183333334, "fusion_lat": 0.0}, {"name": "88887c71d1b7862aaf1537e1e03af76a", "fusion_lon": 0.0, "lat": 38.932290333333334, "is_reserved": 0, "type": "electric_bike", "bike_id": "88887c71d1b7862aaf1537e1e03af76a", "is_disabled": 0, "rental_uris": {"android": "https://dc.lft.to/lastmile_qr_scan", "ios": "https://dc.lft.to/lastmile_qr_scan"}, "lon": -77.18120066666667, "fusion_lat": 0.0}, {"name": "284b8f2e68ba20202884027391a41f2e", "fusion_lon": 0.0, "lat": 38.913663666666665, "is_reserved": 0, "type": "electric_scooter", "bike_id": "284b8f2e68ba20202884027391a41f2e", "is_disabled": 0, "rental_uris": {"android": "https://dc.lft.to/lastmile_qr_scan", "ios": "https://dc.lft.to/lastmile_qr_scan"}, "lon": -77.06619566666667, "fusion_lat": 0.0}, {"name": "4817e418f8059b385f99589c4e7fd202", "fusion_lon": 0.0, "lat": 38.92790016666667, "is_reserved": 0, "type": "electric_scooter", "bike_id": "4817e418f8059b385f99589c4e7fd202", "is_disabled": 0, "rental_uris": {"android": "https://dc.lft.to/lastmile_qr_scan", "ios": "https://dc.lft.to/lastmile_qr_scan"}, "lon": -77.0302215, "fusion_lat": 0.0}, {"name": "b82c6a44a0e462cca7d5021563db59ea", "fusion_lon": 0.0, "lat": 38.957548333333335, "is_reserved": 0, "type": "electric_scooter", "bike_id": "b82c6a44a0e462cca7d5021563db59ea", "is_disabled": 0, "rental_uris": {"android": "https://dc.lft.to/lastmile_qr_scan", "ios": "https://dc.lft.to/lastmile_qr_scan"}, "lon": -77.02098133333334, "fusion_lat": 0.0}, {"name": "b3b20b01868df5200ab76c0e40ccaaa8", "fusion_lon": 0.0, "lat": 38.90174616666667, "is_reserved": 0, "type": "electric_scooter", "bike_id": "b3b20b01868df5200ab76c0e40ccaaa8", "is_disabled": 0, "rental_uris": {"android": "https://dc.lft.to/lastmile_qr_scan", "ios": "https://dc.lft.to/lastmile_qr_scan"}, "lon": -77.02486616666667, "fusion_lat": 0.0}, {"name": "977d3a8fd8db94f0d69e404c73c3c385", "fusion_lon": 0.0, "lat": 38.8345355, "is_reserved": 0, "type": "electric_scooter", "bike_id": "977d3a8fd8db94f0d69e404c73c3c385", "is_disabled": 0, "rental_uris": {"android": "https://dc.lft.to/lastmile_qr_scan", "ios": "https://dc.lft.to/lastmile_qr_scan"}, "lon": -76.99073933333334, "fusion_lat": 0.0}, {"name": "867e74cd457f43d630ec0139937606a9", "fusion_lon": 0.0, "lat": 38.896247333333335, "is_reserved": 0, "type": "electric_scooter", "bike_id": "867e74cd457f43d630ec0139937606a9", "is_disabled": 0, "rental_uris": {"android": "https://dc.lft.to/lastmile_qr_scan", "ios": "https://dc.lft.to/lastmile_qr_scan"}, "lon": -77.02975933333333, "fusion_lat": 0.0}, {"name": "a7bc3fedc2fc6992953b6f51c21ba34e", "fusion_lon": 0.0, "lat": 38.904398, "is_reserved": 0, "type": "electric_scooter", "bike_id": "a7bc3fedc2fc6992953b6f51c21ba34e", "is_disabled": 0, "rental_uris": {"android": "https://dc.lft.to/lastmile_qr_scan", "ios": "https://dc.lft.to/lastmile_qr_scan"}, "lon": -76.98495383333334, "fusion_lat": 0.0}, {"name": "d1b94ad0eff389d8d92a146c1276a015", "fusion_lon": 0.0, "lat": 38.915248166666665, "is_reserved": 0, "type": "electric_scooter", "bike_id": "d1b94ad0eff389d8d92a146c1276a015", "is_disabled": 0, "rental_uris": {"android": "https://dc.lft.to/lastmile_qr_scan", "ios": "https://dc.lft.to/lastmile_qr_scan"}, "lon": -77.038511, "fusion_lat": 0.0}, {"name": "89c3687f4cc31f91a36643f70c145c41", "fusion_lon": 0.0, "lat": 38.91191116666667, "is_reserved": 0, "type": "electric_scooter", "bike_id": "89c3687f4cc31f91a36643f70c145c41", "is_disabled": 0, "rental_uris": {"android": "https://dc.lft.to/lastmile_qr_scan", "ios": "https://dc.lft.to/lastmile_qr_scan"}, "lon": -77.01776316666667, "fusion_lat": 0.0}, {"name": "996568bcf970f62728b7bd78608138b3", "fusion_lon": 0.0, "lat": 38.9003775, "is_reserved": 0, "type": "electric_scooter", "bike_id": "996568bcf970f62728b7bd78608138b3", "is_disabled": 0, "rental_uris": {"android": "https://dc.lft.to/lastmile_qr_scan", "ios": "https://dc.lft.to/lastmile_qr_scan"}, "lon": -77.01780366666667, "fusion_lat": 0.0}, {"name": "aa540fbc74f4c3054a8f42c932940bb4", "fusion_lon": 0.0, "lat": 38.900214, "is_reserved": 0, "type": "electric_scooter", "bike_id": "aa540fbc74f4c3054a8f42c932940bb4", "is_disabled": 0, "rental_uris": {"android": "https://dc.lft.to/lastmile_qr_scan", "ios": "https://dc.lft.to/lastmile_qr_scan"}, "lon": -76.99686283333334, "fusion_lat": 0.0}, {"name": "31fd9f2769f728e3f29c317f80e95cd6", "fusion_lon": 0.0, "lat": 38.900239, "is_reserved": 0, "type": "electric_scooter", "bike_id": "31fd9f2769f728e3f29c317f80e95cd6", "is_disabled": 0, "rental_uris": {"android": "https://dc.lft.to/lastmile_qr_scan", "ios": "https://dc.lft.to/lastmile_qr_scan"}, "lon": -76.980499, "fusion_lat": 0.0}, {"name": "8f028ad2644583b5e5ea026392dcb2bc", "fusion_lon": 0.0, "lat": 38.910330333333334, "is_reserved": 0, "type": "electric_scooter", "bike_id": "8f028ad2644583b5e5ea026392dcb2bc", "is_disabled": 0, "rental_uris": {"android": "https://dc.lft.to/lastmile_qr_scan", "ios": "https://dc.lft.to/lastmile_qr_scan"}, "lon": -77.0292595, "fusion_lat": 0.0}, {"name": "f68e9aa20805a38c21ad186ccfc253d8", "fusion_lon": 0.0, "lat": 38.951828666666664, "is_reserved": 0, "type": "electric_scooter", "bike_id": "f68e9aa20805a38c21ad186ccfc253d8", "is_disabled": 0, "rental_uris": {"android": "https://dc.lft.to/lastmile_qr_scan", "ios": "https://dc.lft.to/lastmile_qr_scan"}, "lon": -77.027293, "fusion_lat": 0.0}, {"name": "8fe38f2e24e69c2ca8639c61bcbfe929", "fusion_lon": 0.0, "lat": 38.918870166666665, "is_reserved": 0, "type": "electric_scooter", "bike_id": "8fe38f2e24e69c2ca8639c61bcbfe929", "is_disabled": 0, "rental_uris": {"android": "https://dc.lft.to/lastmile_qr_scan", "ios": "https://dc.lft.to/lastmile_qr_scan"}, "lon": -77.024711, "fusion_lat": 0.0}, {"name": "ca38a5451aa4c9b85695dcc1c84f4b8f", "fusion_lon": 0.0, "lat": 38.923605333333334, "is_reserved": 0, "type": "electric_scooter", "bike_id": "ca38a5451aa4c9b85695dcc1c84f4b8f", "is_disabled": 0, "rental_uris": {"android": "https://dc.lft.to/lastmile_qr_scan", "ios": "https://dc.lft.to/lastmile_qr_scan"}, "lon": -77.042385, "fusion_lat": 0.0}, {"name": "e57a6ca52ddd8f6ce5b825fdd38e6d1a", "fusion_lon": 0.0, "lat": 38.86243433333333, "is_reserved": 0, "type": "electric_scooter", "bike_id": "e57a6ca52ddd8f6ce5b825fdd38e6d1a", "is_disabled": 0, "rental_uris": {"android": "https://dc.lft.to/lastmile_qr_scan", "ios": "https://dc.lft.to/lastmile_qr_scan"}, "lon": -76.99495166666667, "fusion_lat": 0.0}, {"name": "3b67bc34c4f5e16cb7beb7f1d3cd669c", "fusion_lon": 0.0, "lat": 38.917943333333334, "is_reserved": 0, "type": "electric_scooter", "bike_id": "3b67bc34c4f5e16cb7beb7f1d3cd669c", "is_disabled": 0, "rental_uris": {"android": "https://dc.lft.to/lastmile_qr_scan", "ios": "https://dc.lft.to/lastmile_qr_scan"}, "lon": -77.03443866666667, "fusion_lat": 0.0}, {"name": "7c99f8301b43e275b3452e0ca090ff77", "fusion_lon": 0.0, "lat": 38.89539333333333, "is_reserved": 0, "type": "electric_scooter", "bike_id": "7c99f8301b43e275b3452e0ca090ff77", "is_disabled": 0, "rental_uris": {"android": "https://dc.lft.to/lastmile_qr_scan", "ios": "https://dc.lft.to/lastmile_qr_scan"}, "lon": -77.0111565, "fusion_lat": 0.0}, {"name": "bcf44a23af270e3bded63d849343b631", "fusion_lon": 0.0, "lat": 38.909588, "is_reserved": 0, "type": "electric_scooter", "bike_id": "bcf44a23af270e3bded63d849343b631", "is_disabled": 0, "rental_uris": {"android": "https://dc.lft.to/lastmile_qr_scan", "ios": "https://dc.lft.to/lastmile_qr_scan"}, "lon": -77.026865, "fusion_lat": 0.0}, {"name": "95b50e56057314d1bdc6199d397af972", "fusion_lon": 0.0, "lat": 38.90343333333333, "is_reserved": 0, "type": "electric_scooter", "bike_id": "95b50e56057314d1bdc6199d397af972", "is_disabled": 0, "rental_uris": {"android": "https://dc.lft.to/lastmile_qr_scan", "ios": "https://dc.lft.to/lastmile_qr_scan"}, "lon": -77.03760033333333, "fusion_lat": 0.0}, {"name": "c9957c3bef6779bbb2fe4b6642cf7a6b", "fusion_lon": 0.0, "lat": 38.9164815, "is_reserved": 0, "type": "electric_scooter", "bike_id": "c9957c3bef6779bbb2fe4b6642cf7a6b", "is_disabled": 0, "rental_uris": {"android": "https://dc.lft.to/lastmile_qr_scan", "ios": "https://dc.lft.to/lastmile_qr_scan"}, "lon": -77.02970283333333, "fusion_lat": 0.0}, {"name": "b899bee4bc8f1f76899408dafd8b6c8a", "fusion_lon": 0.0, "lat": 38.920102166666666, "is_reserved": 0, "type": "electric_scooter", "bike_id": "b899bee4bc8f1f76899408dafd8b6c8a", "is_disabled": 0, "rental_uris": {"android": "https://dc.lft.to/lastmile_qr_scan", "ios": "https://dc.lft.to/lastmile_qr_scan"}, "lon": -77.03885433333333, "fusion_lat": 0.0}, {"name": "af7a9792b9371075ef03819a44321a17", "fusion_lon": 0.0, "lat": 38.956844833333335, "is_reserved": 0, "type": "electric_scooter", "bike_id": "af7a9792b9371075ef03819a44321a17", "is_disabled": 0, "rental_uris": {"android": "https://dc.lft.to/lastmile_qr_scan", "ios": "https://dc.lft.to/lastmile_qr_scan"}, "lon": -77.02229066666666, "fusion_lat": 0.0}, {"name": "8b95bf95d16ef7a65bade33fb0d54775", "fusion_lon": 0.0, "lat": 38.949288333333335, "is_reserved": 0, "type": "electric_bike", "bike_id": "8b95bf95d16ef7a65bade33fb0d54775", "is_disabled": 0, "rental_uris": {"android": "https://dc.lft.to/lastmile_qr_scan", "ios": "https://dc.lft.to/lastmile_qr_scan"}, "lon": -77.007985, "fusion_lat": 0.0}, {"name": "872f0636ca178d25b65bb33d5184b12f", "fusion_lon": 0.0, "lat": 38.90243733333333, "is_reserved": 0, "type": "electric_scooter", "bike_id": "872f0636ca178d25b65bb33d5184b12f", "is_disabled": 0, "rental_uris": {"android": "https://dc.lft.to/lastmile_qr_scan", "ios": "https://dc.lft.to/lastmile_qr_scan"}, "lon": -77.00196716666666, "fusion_lat": 0.0}, {"name": "19487f88e079df5b692c8f3c9afeb2a3", "fusion_lon": 0.0, "lat": 38.903234166666664, "is_reserved": 0, "type": "electric_bike", "bike_id": "19487f88e079df5b692c8f3c9afeb2a3", "is_disabled": 0, "rental_uris": {"android": "https://dc.lft.to/lastmile_qr_scan", "ios": "https://dc.lft.to/lastmile_qr_scan"}, "lon": -76.97298516666666, "fusion_lat": 0.0}, {"name": "f0486aa30db99c8ea53e7c6b2ba24748", "fusion_lon": 0.0, "lat": 38.876641, "is_reserved": 0, "type": "electric_scooter", "bike_id": "f0486aa30db99c8ea53e7c6b2ba24748", "is_disabled": 0, "rental_uris": {"android": "https://dc.lft.to/lastmile_qr_scan", "ios": "https://dc.lft.to/lastmile_qr_scan"}, "lon": -77.018274, "fusion_lat": 0.0}, {"name": "5cc200271ed4d85c75cd7ec45ab429e9", "fusion_lon": 0.0, "lat": 38.902044833333335, "is_reserved": 0, "type": "electric_scooter", "bike_id": "5cc200271ed4d85c75cd7ec45ab429e9", "is_disabled": 0, "rental_uris": {"android": "https://dc.lft.to/lastmile_qr_scan", "ios": "https://dc.lft.to/lastmile_qr_scan"}, "lon": -77.021703, "fusion_lat": 0.0}, {"name": "46647b8287843d142619433ac1125ff9", "fusion_lon": 0.0, "lat": 38.9118305, "is_reserved": 0, "type": "electric_scooter", "bike_id": "46647b8287843d142619433ac1125ff9", "is_disabled": 0, "rental_uris": {"android": "https://dc.lft.to/lastmile_qr_scan", "ios": "https://dc.lft.to/lastmile_qr_scan"}, "lon": -77.04330983333334, "fusion_lat": 0.0}, {"name": "3aa5c61052ad9ad201e3b8c93cf54e0b", "fusion_lon": 0.0, "lat": 38.904281, "is_reserved": 0, "type": "electric_scooter", "bike_id": "3aa5c61052ad9ad201e3b8c93cf54e0b", "is_disabled": 0, "rental_uris": {"android": "https://dc.lft.to/lastmile_qr_scan", "ios": "https://dc.lft.to/lastmile_qr_scan"}, "lon": -77.04369083333333, "fusion_lat": 0.0}, {"name": "8b91bf734a57f3ca168199edb42b3208", "fusion_lon": 0.0, "lat": 38.908336166666665, "is_reserved": 0, "type": "electric_scooter", "bike_id": "8b91bf734a57f3ca168199edb42b3208", "is_disabled": 0, "rental_uris": {"android": "https://dc.lft.to/lastmile_qr_scan", "ios": "https://dc.lft.to/lastmile_qr_scan"}, "lon": -77.044534, "fusion_lat": 0.0}, {"name": "90d948eed54db8bb0a4c7171df2c508c", "fusion_lon": 0.0, "lat": 38.92245316666666, "is_reserved": 0, "type": "electric_scooter", "bike_id": "90d948eed54db8bb0a4c7171df2c508c", "is_disabled": 0, "rental_uris": {"android": "https://dc.lft.to/lastmile_qr_scan", "ios": "https://dc.lft.to/lastmile_qr_scan"}, "lon": -77.04271066666666, "fusion_lat": 0.0}, {"name": "996fc954086937b0f56c8f842fcc6ff1", "fusion_lon": 0.0, "lat": 38.956626166666666, "is_reserved": 0, "type": "electric_scooter", "bike_id": "996fc954086937b0f56c8f842fcc6ff1", "is_disabled": 0, "rental_uris": {"android": "https://dc.lft.to/lastmile_qr_scan", "ios": "https://dc.lft.to/lastmile_qr_scan"}, "lon": -77.0103945, "fusion_lat": 0.0}, {"name": "66e9ffaa5c2fe757ca871481f1c6c869", "fusion_lon": 0.0, "lat": 38.928784, "is_reserved": 0, "type": "electric_bike", "bike_id": "66e9ffaa5c2fe757ca871481f1c6c869", "is_disabled": 0, "rental_uris": {"android": "https://dc.lft.to/lastmile_qr_scan", "ios": "https://dc.lft.to/lastmile_qr_scan"}, "lon": -77.0123895, "fusion_lat": 0.0}, {"name": "835adf3d6a259b22c4191f05ba774187", "fusion_lon": 0.0, "lat": 38.907534166666665, "is_reserved": 0, "type": "electric_scooter", "bike_id": "835adf3d6a259b22c4191f05ba774187", "is_disabled": 0, "rental_uris": {"android": "https://dc.lft.to/lastmile_qr_scan", "ios": "https://dc.lft.to/lastmile_qr_scan"}, "lon": -76.9988695, "fusion_lat": 0.0}, {"name": "3b50316a487079596ba05d079ab85e99", "fusion_lon": 0.0, "lat": 38.9241565, "is_reserved": 0, "type": "electric_scooter", "bike_id": "3b50316a487079596ba05d079ab85e99", "is_disabled": 0, "rental_uris": {"android": "https://dc.lft.to/lastmile_qr_scan", "ios": "https://dc.lft.to/lastmile_qr_scan"}, "lon": -77.01945933333333, "fusion_lat": 0.0}, {"name": "0186556fb97a0b8a990a7910397ae9c7", "fusion_lon": 0.0, "lat": 38.910994, "is_reserved": 0, "type": "electric_scooter", "bike_id": "0186556fb97a0b8a990a7910397ae9c7", "is_disabled": 0, "rental_uris": {"android": "https://dc.lft.to/lastmile_qr_scan", "ios": "https://dc.lft.to/lastmile_qr_scan"}, "lon": -77.04206366666666, "fusion_lat": 0.0}, {"name": "8f02a49e5aa0d9977b3bae29005a961f", "fusion_lon": 0.0, "lat": 38.9138065, "is_reserved": 0, "type": "electric_bike", "bike_id": "8f02a49e5aa0d9977b3bae29005a961f", "is_disabled": 0, "rental_uris": {"android": "https://dc.lft.to/lastmile_qr_scan", "ios": "https://dc.lft.to/lastmile_qr_scan"}, "lon": -77.089278, "fusion_lat": 0.0}, {"name": "e17530c847742a23bf338c1d2f2b6ded", "fusion_lon": 0.0, "lat": 38.92507, "is_reserved": 0, "type": "electric_scooter", "bike_id": "e17530c847742a23bf338c1d2f2b6ded", "is_disabled": 0, "rental_uris": {"android": "https://dc.lft.to/lastmile_qr_scan", "ios": "https://dc.lft.to/lastmile_qr_scan"}, "lon": -77.02706783333333, "fusion_lat": 0.0}, {"name": "29f518006efc32d4ab082c23ad97c52e", "fusion_lon": 0.0, "lat": 38.892180833333335, "is_reserved": 0, "type": "electric_bike", "bike_id": "29f518006efc32d4ab082c23ad97c52e", "is_disabled": 0, "rental_uris": {"android": "https://dc.lft.to/lastmile_qr_scan", "ios": "https://dc.lft.to/lastmile_qr_scan"}, "lon": -76.97082983333334, "fusion_lat": 0.0}, {"name": "181a444f14bc05c40a157b003705c1bb", "fusion_lon": 0.0, "lat": 38.834226666666666, "is_reserved": 0, "type": "electric_bike", "bike_id": "181a444f14bc05c40a157b003705c1bb", "is_disabled": 0, "rental_uris": {"android": "https://dc.lft.to/lastmile_qr_scan", "ios": "https://dc.lft.to/lastmile_qr_scan"}, "lon": -77.10357616666667, "fusion_lat": 0.0}, {"name": "eb5ff24b2f369eb27dd69190162d0397", "fusion_lon": 0.0, "lat": 38.92810583333333, "is_reserved": 0, "type": "electric_scooter", "bike_id": "eb5ff24b2f369eb27dd69190162d0397", "is_disabled": 0, "rental_uris": {"android": "https://dc.lft.to/lastmile_qr_scan", "ios": "https://dc.lft.to/lastmile_qr_scan"}, "lon": -77.01399583333334, "fusion_lat": 0.0}, {"name": "e79028c286f71eea7d5fb3845f429d4d", "fusion_lon": 0.0, "lat": 38.844331333333336, "is_reserved": 0, "type": "electric_scooter", "bike_id": "e79028c286f71eea7d5fb3845f429d4d", "is_disabled": 0, "rental_uris": {"android": "https://dc.lft.to/lastmile_qr_scan", "ios": "https://dc.lft.to/lastmile_qr_scan"}, "lon": -76.9981495, "fusion_lat": 0.0}, {"name": "b2dc7b223040291fe83cf85bafcd789d", "fusion_lon": 0.0, "lat": 38.919787666666664, "is_reserved": 0, "type": "electric_scooter", "bike_id": "b2dc7b223040291fe83cf85bafcd789d", "is_disabled": 0, "rental_uris": {"android": "https://dc.lft.to/lastmile_qr_scan", "ios": "https://dc.lft.to/lastmile_qr_scan"}, "lon": -77.07697583333334, "fusion_lat": 0.0}, {"name": "cffa97746e87503dfc7642ba502c3b8a", "fusion_lon": 0.0, "lat": 38.91726883333333, "is_reserved": 0, "type": "electric_scooter", "bike_id": "cffa97746e87503dfc7642ba502c3b8a", "is_disabled": 0, "rental_uris": {"android": "https://dc.lft.to/lastmile_qr_scan", "ios": "https://dc.lft.to/lastmile_qr_scan"}, "lon": -77.02501066666666, "fusion_lat": 0.0}, {"name": "5e1f6a2ed5477484a53450706c1c9ec1", "fusion_lon": 0.0, "lat": 38.935332833333334, "is_reserved": 0, "type": "electric_scooter", "bike_id": "5e1f6a2ed5477484a53450706c1c9ec1", "is_disabled": 0, "rental_uris": {"android": "https://dc.lft.to/lastmile_qr_scan", "ios": "https://dc.lft.to/lastmile_qr_scan"}, "lon": -77.03478766666667, "fusion_lat": 0.0}, {"name": "0db7e831ff33c9d0e9fb9fa2ae0e404d", "fusion_lon": 0.0, "lat": 38.89372266666667, "is_reserved": 0, "type": "electric_scooter", "bike_id": "0db7e831ff33c9d0e9fb9fa2ae0e404d", "is_disabled": 0, "rental_uris": {"android": "https://dc.lft.to/lastmile_qr_scan", "ios": "https://dc.lft.to/lastmile_qr_scan"}, "lon": -77.04682766666667, "fusion_lat": 0.0}, {"name": "8ba135011e595f78b3ac1462da722c83", "fusion_lon": 0.0, "lat": 38.89902633333333, "is_reserved": 0, "type": "electric_scooter", "bike_id": "8ba135011e595f78b3ac1462da722c83", "is_disabled": 0, "rental_uris": {"android": "https://dc.lft.to/lastmile_qr_scan", "ios": "https://dc.lft.to/lastmile_qr_scan"}, "lon": -77.0486915, "fusion_lat": 0.0}, {"name": "b2e2b84027d12f887878784f52171255", "fusion_lon": 0.0, "lat": 38.923550666666664, "is_reserved": 0, "type": "electric_scooter", "bike_id": "b2e2b84027d12f887878784f52171255", "is_disabled": 0, "rental_uris": {"android": "https://dc.lft.to/lastmile_qr_scan", "ios": "https://dc.lft.to/lastmile_qr_scan"}, "lon": -77.04156033333334, "fusion_lat": 0.0}, {"name": "7279cd1894665b9dbbf030c438a0e5b5", "fusion_lon": 0.0, "lat": 38.90514483333333, "is_reserved": 0, "type": "electric_scooter", "bike_id": "7279cd1894665b9dbbf030c438a0e5b5", "is_disabled": 0, "rental_uris": {"android": "https://dc.lft.to/lastmile_qr_scan", "ios": "https://dc.lft.to/lastmile_qr_scan"}, "lon": -77.001405, "fusion_lat": 0.0}, {"name": "8321fde85cd87b4dcdf3612416c289c5", "fusion_lon": 0.0, "lat": 38.945937, "is_reserved": 0, "type": "electric_scooter", "bike_id": "8321fde85cd87b4dcdf3612416c289c5", "is_disabled": 0, "rental_uris": {"android": "https://dc.lft.to/lastmile_qr_scan", "ios": "https://dc.lft.to/lastmile_qr_scan"}, "lon": -77.06467683333334, "fusion_lat": 0.0}, {"name": "0af597b63976aadd586970212b736a62", "fusion_lon": 0.0, "lat": 38.87680483333333, "is_reserved": 0, "type": "electric_scooter", "bike_id": "0af597b63976aadd586970212b736a62", "is_disabled": 0, "rental_uris": {"android": "https://dc.lft.to/lastmile_qr_scan", "ios": "https://dc.lft.to/lastmile_qr_scan"}, "lon": -76.9982415, "fusion_lat": 0.0}, {"name": "3879ca6d31a8496fb8b73e25d5b54161", "fusion_lon": 0.0, "lat": 38.89737, "is_reserved": 0, "type": "electric_scooter", "bike_id": "3879ca6d31a8496fb8b73e25d5b54161", "is_disabled": 0, "rental_uris": {"android": "https://dc.lft.to/lastmile_qr_scan", "ios": "https://dc.lft.to/lastmile_qr_scan"}, "lon": -77.00764083333334, "fusion_lat": 0.0}, {"name": "3dc2fed639527cd9f7f35877d578b396", "fusion_lon": 0.0, "lat": 38.897444, "is_reserved": 0, "type": "electric_scooter", "bike_id": "3dc2fed639527cd9f7f35877d578b396", "is_disabled": 0, "rental_uris": {"android": "https://dc.lft.to/lastmile_qr_scan", "ios": "https://dc.lft.to/lastmile_qr_scan"}, "lon": -77.026744, "fusion_lat": 0.0}, {"name": "c5bca743a549edfa5e7de86e2922f744", "fusion_lon": 0.0, "lat": 38.903394666666664, "is_reserved": 0, "type": "electric_scooter", "bike_id": "c5bca743a549edfa5e7de86e2922f744", "is_disabled": 0, "rental_uris": {"android": "https://dc.lft.to/lastmile_qr_scan", "ios": "https://dc.lft.to/lastmile_qr_scan"}, "lon": -77.0272945, "fusion_lat": 0.0}, {"name": "5bb4be73f0de392500f113a5849a19df", "fusion_lon": 0.0, "lat": 38.9376795, "is_reserved": 0, "type": "electric_scooter", "bike_id": "5bb4be73f0de392500f113a5849a19df", "is_disabled": 0, "rental_uris": {"android": "https://dc.lft.to/lastmile_qr_scan", "ios": "https://dc.lft.to/lastmile_qr_scan"}, "lon": -77.025152, "fusion_lat": 0.0}, {"name": "c0cced85ff39dc7eb006b1fa8ec5f7ff", "fusion_lon": 0.0, "lat": 38.9128105, "is_reserved": 0, "type": "electric_scooter", "bike_id": "c0cced85ff39dc7eb006b1fa8ec5f7ff", "is_disabled": 0, "rental_uris": {"android": "https://dc.lft.to/lastmile_qr_scan", "ios": "https://dc.lft.to/lastmile_qr_scan"}, "lon": -77.04498866666667, "fusion_lat": 0.0}, {"name": "af23af31fd253e517778d6fe032e0981", "fusion_lon": 0.0, "lat": 39.039895666666666, "is_reserved": 0, "type": "electric_bike", "bike_id": "af23af31fd253e517778d6fe032e0981", "is_disabled": 0, "rental_uris": {"android": "https://dc.lft.to/lastmile_qr_scan", "ios": "https://dc.lft.to/lastmile_qr_scan"}, "lon": -76.99926133333334, "fusion_lat": 0.0}, {"name": "187f143f24297f1cc0852fd36f0f058c", "fusion_lon": 0.0, "lat": 38.961482833333335, "is_reserved": 0, "type": "electric_scooter", "bike_id": "187f143f24297f1cc0852fd36f0f058c", "is_disabled": 0, "rental_uris": {"android": "https://dc.lft.to/lastmile_qr_scan", "ios": "https://dc.lft.to/lastmile_qr_scan"}, "lon": -77.032412, "fusion_lat": 0.0}, {"name": "100545a4f47594938d483ddd78dbfefb", "fusion_lon": 0.0, "lat": 38.907367666666666, "is_reserved": 0, "type": "electric_scooter", "bike_id": "100545a4f47594938d483ddd78dbfefb", "is_disabled": 0, "rental_uris": {"android": "https://dc.lft.to/lastmile_qr_scan", "ios": "https://dc.lft.to/lastmile_qr_scan"}, "lon": -77.0434375, "fusion_lat": 0.0}, {"name": "f556801bf3245d59546b21435da08fd9", "fusion_lon": 0.0, "lat": 38.92724783333333, "is_reserved": 0, "type": "electric_scooter", "bike_id": "f556801bf3245d59546b21435da08fd9", "is_disabled": 0, "rental_uris": {"android": "https://dc.lft.to/lastmile_qr_scan", "ios": "https://dc.lft.to/lastmile_qr_scan"}, "lon": -77.02281683333334, "fusion_lat": 0.0}, {"name": "d5e2803587577b149f93cb83143a3276", "fusion_lon": 0.0, "lat": 38.83382983333333, "is_reserved": 0, "type": "electric_scooter", "bike_id": "d5e2803587577b149f93cb83143a3276", "is_disabled": 0, "rental_uris": {"android": "https://dc.lft.to/lastmile_qr_scan", "ios": "https://dc.lft.to/lastmile_qr_scan"}, "lon": -76.99569333333334, "fusion_lat": 0.0}, {"name": "cc9eab137d037d67584496f2f4df86e1", "fusion_lon": 0.0, "lat": 38.929260166666666, "is_reserved": 0, "type": "electric_scooter", "bike_id": "cc9eab137d037d67584496f2f4df86e1", "is_disabled": 0, "rental_uris": {"android": "https://dc.lft.to/lastmile_qr_scan", "ios": "https://dc.lft.to/lastmile_qr_scan"}, "lon": -77.03255316666667, "fusion_lat": 0.0}, {"name": "9099770db66dc59d3f2ad8a6225df017", "fusion_lon": 0.0, "lat": 38.92421683333333, "is_reserved": 0, "type": "electric_scooter", "bike_id": "9099770db66dc59d3f2ad8a6225df017", "is_disabled": 0, "rental_uris": {"android": "https://dc.lft.to/lastmile_qr_scan", "ios": "https://dc.lft.to/lastmile_qr_scan"}, "lon": -77.0505695, "fusion_lat": 0.0}, {"name": "a13fd71125c06ef8aad12fbb27ae8dac", "fusion_lon": 0.0, "lat": 38.91241483333334, "is_reserved": 0, "type": "electric_scooter", "bike_id": "a13fd71125c06ef8aad12fbb27ae8dac", "is_disabled": 0, "rental_uris": {"android": "https://dc.lft.to/lastmile_qr_scan", "ios": "https://dc.lft.to/lastmile_qr_scan"}, "lon": -77.00209116666667, "fusion_lat": 0.0}, {"name": "b37fa1cf73906c2ef960e254df5481d2", "fusion_lon": 0.0, "lat": 38.9323645, "is_reserved": 0, "type": "electric_scooter", "bike_id": "b37fa1cf73906c2ef960e254df5481d2", "is_disabled": 0, "rental_uris": {"android": "https://dc.lft.to/lastmile_qr_scan", "ios": "https://dc.lft.to/lastmile_qr_scan"}, "lon": -77.03413566666667, "fusion_lat": 0.0}, {"name": "7c103f0f84607ddd903346ccc127e9c6", "fusion_lon": 0.0, "lat": 38.87720916666667, "is_reserved": 0, "type": "electric_scooter", "bike_id": "7c103f0f84607ddd903346ccc127e9c6", "is_disabled": 0, "rental_uris": {"android": "https://dc.lft.to/lastmile_qr_scan", "ios": "https://dc.lft.to/lastmile_qr_scan"}, "lon": -77.01762833333333, "fusion_lat": 0.0}, {"name": "295610f34b33f0ddaf21b79be7539b9b", "fusion_lon": 0.0, "lat": 38.89323133333333, "is_reserved": 0, "type": "electric_scooter", "bike_id": "295610f34b33f0ddaf21b79be7539b9b", "is_disabled": 0, "rental_uris": {"android": "https://dc.lft.to/lastmile_qr_scan", "ios": "https://dc.lft.to/lastmile_qr_scan"}, "lon": -77.04867633333333, "fusion_lat": 0.0}, {"name": "bec2ac8c44238f631f593601dec5e19b", "fusion_lon": 0.0, "lat": 38.91661783333333, "is_reserved": 0, "type": "electric_scooter", "bike_id": "bec2ac8c44238f631f593601dec5e19b", "is_disabled": 0, "rental_uris": {"android": "https://dc.lft.to/lastmile_qr_scan", "ios": "https://dc.lft.to/lastmile_qr_scan"}, "lon": -77.029685, "fusion_lat": 0.0}, {"name": "6f0dea44d49e9498d3b623ab51f97134", "fusion_lon": 0.0, "lat": 38.951535166666666, "is_reserved": 0, "type": "electric_scooter", "bike_id": "6f0dea44d49e9498d3b623ab51f97134", "is_disabled": 0, "rental_uris": {"android": "https://dc.lft.to/lastmile_qr_scan", "ios": "https://dc.lft.to/lastmile_qr_scan"}, "lon": -77.01869766666667, "fusion_lat": 0.0}, {"name": "03f510b913cf4ba9457600778ac445a6", "fusion_lon": 0.0, "lat": 38.90198733333333, "is_reserved": 0, "type": "electric_scooter", "bike_id": "03f510b913cf4ba9457600778ac445a6", "is_disabled": 0, "rental_uris": {"android": "https://dc.lft.to/lastmile_qr_scan", "ios": "https://dc.lft.to/lastmile_qr_scan"}, "lon": -77.0237025, "fusion_lat": 0.0}, {"name": "344085d6da27c30bf8453aab01aceb73", "fusion_lon": 0.0, "lat": 38.9264505, "is_reserved": 0, "type": "electric_scooter", "bike_id": "344085d6da27c30bf8453aab01aceb73", "is_disabled": 0, "rental_uris": {"android": "https://dc.lft.to/lastmile_qr_scan", "ios": "https://dc.lft.to/lastmile_qr_scan"}, "lon": -77.041418, "fusion_lat": 0.0}, {"name": "606bb2a33f39d5522ef203f9d1a3621e", "fusion_lon": 0.0, "lat": 38.90202033333333, "is_reserved": 0, "type": "electric_scooter", "bike_id": "606bb2a33f39d5522ef203f9d1a3621e", "is_disabled": 0, "rental_uris": {"android": "https://dc.lft.to/lastmile_qr_scan", "ios": "https://dc.lft.to/lastmile_qr_scan"}, "lon": -77.02373233333333, "fusion_lat": 0.0}, {"name": "4bb61f50e3877d6b91f568f28d4e5a0c", "fusion_lon": 0.0, "lat": 38.87419166666667, "is_reserved": 0, "type": "electric_scooter", "bike_id": "4bb61f50e3877d6b91f568f28d4e5a0c", "is_disabled": 0, "rental_uris": {"android": "https://dc.lft.to/lastmile_qr_scan", "ios": "https://dc.lft.to/lastmile_qr_scan"}, "lon": -76.97115383333333, "fusion_lat": 0.0}, {"name": "1f0b0dbcab3c5abc77c9551f5d9054a0", "fusion_lon": 0.0, "lat": 38.91665016666666, "is_reserved": 0, "type": "electric_scooter", "bike_id": "1f0b0dbcab3c5abc77c9551f5d9054a0", "is_disabled": 0, "rental_uris": {"android": "https://dc.lft.to/lastmile_qr_scan", "ios": "https://dc.lft.to/lastmile_qr_scan"}, "lon": -77.02970633333334, "fusion_lat": 0.0}, {"name": "7eb35185b065e95abc2d8a0a817f5dc8", "fusion_lon": 0.0, "lat": 38.900290166666665, "is_reserved": 0, "type": "electric_scooter", "bike_id": "7eb35185b065e95abc2d8a0a817f5dc8", "is_disabled": 0, "rental_uris": {"android": "https://dc.lft.to/lastmile_qr_scan", "ios": "https://dc.lft.to/lastmile_qr_scan"}, "lon": -76.99903633333334, "fusion_lat": 0.0}, {"name": "fa7c8fb4f79eccb665b963c4cbe6cd95", "fusion_lon": 0.0, "lat": 38.90052566666667, "is_reserved": 0, "type": "electric_scooter", "bike_id": "fa7c8fb4f79eccb665b963c4cbe6cd95", "is_disabled": 0, "rental_uris": {"android": "https://dc.lft.to/lastmile_qr_scan", "ios": "https://dc.lft.to/lastmile_qr_scan"}, "lon": -77.0216785, "fusion_lat": 0.0}, {"name": "4e44c67985e0bc6fc3d7d391fcac141e", "fusion_lon": 0.0, "lat": 38.8735175, "is_reserved": 0, "type": "electric_scooter", "bike_id": "4e44c67985e0bc6fc3d7d391fcac141e", "is_disabled": 0, "rental_uris": {"android": "https://dc.lft.to/lastmile_qr_scan", "ios": "https://dc.lft.to/lastmile_qr_scan"}, "lon": -77.002596, "fusion_lat": 0.0}, {"name": "31293a3fd7022c23a0b9f123e1091aac", "fusion_lon": 0.0, "lat": 38.90086933333333, "is_reserved": 0, "type": "electric_scooter", "bike_id": "31293a3fd7022c23a0b9f123e1091aac", "is_disabled": 0, "rental_uris": {"android": "https://dc.lft.to/lastmile_qr_scan", "ios": "https://dc.lft.to/lastmile_qr_scan"}, "lon": -77.01228183333333, "fusion_lat": 0.0}, {"name": "0689e4eda15ea2bd6bfe855114136892", "fusion_lon": 0.0, "lat": 38.948227333333335, "is_reserved": 0, "type": "electric_scooter", "bike_id": "0689e4eda15ea2bd6bfe855114136892", "is_disabled": 0, "rental_uris": {"android": "https://dc.lft.to/lastmile_qr_scan", "ios": "https://dc.lft.to/lastmile_qr_scan"}, "lon": -77.07892533333333, "fusion_lat": 0.0}, {"name": "f7ab1c553dc32cf1d1f77cad24fc70e1", "fusion_lon": 0.0, "lat": 38.86082666666667, "is_reserved": 0, "type": "electric_scooter", "bike_id": "f7ab1c553dc32cf1d1f77cad24fc70e1", "is_disabled": 0, "rental_uris": {"android": "https://dc.lft.to/lastmile_qr_scan", "ios": "https://dc.lft.to/lastmile_qr_scan"}, "lon": -76.96874383333333, "fusion_lat": 0.0}, {"name": "d12c746adaa1995e8fbd7b0d48164944", "fusion_lon": 0.0, "lat": 38.916792, "is_reserved": 0, "type": "electric_scooter", "bike_id": "d12c746adaa1995e8fbd7b0d48164944", "is_disabled": 0, "rental_uris": {"android": "https://dc.lft.to/lastmile_qr_scan", "ios": "https://dc.lft.to/lastmile_qr_scan"}, "lon": -77.0368855, "fusion_lat": 0.0}, {"name": "4886a0a72c9a57a9909f61f72dcb12b9", "fusion_lon": 0.0, "lat": 38.922363, "is_reserved": 0, "type": "electric_scooter", "bike_id": "4886a0a72c9a57a9909f61f72dcb12b9", "is_disabled": 0, "rental_uris": {"android": "https://dc.lft.to/lastmile_qr_scan", "ios": "https://dc.lft.to/lastmile_qr_scan"}, "lon": -77.0352055, "fusion_lat": 0.0}, {"name": "64c993df1706366d01f3abc260e5847a", "fusion_lon": 0.0, "lat": 38.875755166666664, "is_reserved": 0, "type": "electric_scooter", "bike_id": "64c993df1706366d01f3abc260e5847a", "is_disabled": 0, "rental_uris": {"android": "https://dc.lft.to/lastmile_qr_scan", "ios": "https://dc.lft.to/lastmile_qr_scan"}, "lon": -77.00585433333333, "fusion_lat": 0.0}, {"name": "8a5cdbf80eff4d664801761befd47705", "fusion_lon": 0.0, "lat": 38.923869833333335, "is_reserved": 0, "type": "electric_scooter", "bike_id": "8a5cdbf80eff4d664801761befd47705", "is_disabled": 0, "rental_uris": {"android": "https://dc.lft.to/lastmile_qr_scan", "ios": "https://dc.lft.to/lastmile_qr_scan"}, "lon": -77.0518385, "fusion_lat": 0.0}, {"name": "205a806c697bd56ba59fcf4d5356f543", "fusion_lon": 0.0, "lat": 38.87470483333333, "is_reserved": 0, "type": "electric_scooter", "bike_id": "205a806c697bd56ba59fcf4d5356f543", "is_disabled": 0, "rental_uris": {"android": "https://dc.lft.to/lastmile_qr_scan", "ios": "https://dc.lft.to/lastmile_qr_scan"}, "lon": -77.0159695, "fusion_lat": 0.0}, {"name": "3db259cf382a9c5a7410307f309addc6", "fusion_lon": 0.0, "lat": 38.918446833333334, "is_reserved": 0, "type": "electric_scooter", "bike_id": "3db259cf382a9c5a7410307f309addc6", "is_disabled": 0, "rental_uris": {"android": "https://dc.lft.to/lastmile_qr_scan", "ios": "https://dc.lft.to/lastmile_qr_scan"}, "lon": -77.02293783333333, "fusion_lat": 0.0}, {"name": "5cd5134a23ec6ed34f273e6b9265b0b9", "fusion_lon": 0.0, "lat": 38.90849016666667, "is_reserved": 0, "type": "electric_scooter", "bike_id": "5cd5134a23ec6ed34f273e6b9265b0b9", "is_disabled": 0, "rental_uris": {"android": "https://dc.lft.to/lastmile_qr_scan", "ios": "https://dc.lft.to/lastmile_qr_scan"}, "lon": -77.0366745, "fusion_lat": 0.0}, {"name": "c8e292fb82a9658ef46c61d89c4872f5", "fusion_lon": 0.0, "lat": 38.898678833333335, "is_reserved": 0, "type": "electric_scooter", "bike_id": "c8e292fb82a9658ef46c61d89c4872f5", "is_disabled": 0, "rental_uris": {"android": "https://dc.lft.to/lastmile_qr_scan", "ios": "https://dc.lft.to/lastmile_qr_scan"}, "lon": -76.94663066666666, "fusion_lat": 0.0}, {"name": "3d72b55be16e6a43600a716348bdaf4c", "fusion_lon": 0.0, "lat": 38.93086266666667, "is_reserved": 0, "type": "electric_scooter", "bike_id": "3d72b55be16e6a43600a716348bdaf4c", "is_disabled": 0, "rental_uris": {"android": "https://dc.lft.to/lastmile_qr_scan", "ios": "https://dc.lft.to/lastmile_qr_scan"}, "lon": -77.02563, "fusion_lat": 0.0}, {"name": "62f9b14fe055ae6f5005cf87a70b20e6", "fusion_lon": 0.0, "lat": 38.94202266666667, "is_reserved": 0, "type": "electric_scooter", "bike_id": "62f9b14fe055ae6f5005cf87a70b20e6", "is_disabled": 0, "rental_uris": {"android": "https://dc.lft.to/lastmile_qr_scan", "ios": "https://dc.lft.to/lastmile_qr_scan"}, "lon": -77.02513483333334, "fusion_lat": 0.0}, {"name": "8af9f0142dd19c8440b68c4532270089", "fusion_lon": 0.0, "lat": 38.87207816666667, "is_reserved": 0, "type": "electric_scooter", "bike_id": "8af9f0142dd19c8440b68c4532270089", "is_disabled": 0, "rental_uris": {"android": "https://dc.lft.to/lastmile_qr_scan", "ios": "https://dc.lft.to/lastmile_qr_scan"}, "lon": -76.978378, "fusion_lat": 0.0}, {"name": "c64b0fcfff285ae6188fe229d69cd89d", "fusion_lon": 0.0, "lat": 38.939594166666666, "is_reserved": 0, "type": "electric_scooter", "bike_id": "c64b0fcfff285ae6188fe229d69cd89d", "is_disabled": 0, "rental_uris": {"android": "https://dc.lft.to/lastmile_qr_scan", "ios": "https://dc.lft.to/lastmile_qr_scan"}, "lon": -77.072382, "fusion_lat": 0.0}, {"name": "956182b70893dc63fa1552fc164cb08c", "fusion_lon": 0.0, "lat": 38.885118166666665, "is_reserved": 0, "type": "electric_scooter", "bike_id": "956182b70893dc63fa1552fc164cb08c", "is_disabled": 0, "rental_uris": {"android": "https://dc.lft.to/lastmile_qr_scan", "ios": "https://dc.lft.to/lastmile_qr_scan"}, "lon": -76.998456, "fusion_lat": 0.0}, {"name": "477003cda29dc3852b4c38bf4bf59144", "fusion_lon": 0.0, "lat": 38.898434333333334, "is_reserved": 0, "type": "electric_scooter", "bike_id": "477003cda29dc3852b4c38bf4bf59144", "is_disabled": 0, "rental_uris": {"android": "https://dc.lft.to/lastmile_qr_scan", "ios": "https://dc.lft.to/lastmile_qr_scan"}, "lon": -77.03332116666667, "fusion_lat": 0.0}, {"name": "eecbdc39ab7af568d8bf3a93cd06ef1f", "fusion_lon": 0.0, "lat": 38.92324716666667, "is_reserved": 0, "type": "electric_scooter", "bike_id": "eecbdc39ab7af568d8bf3a93cd06ef1f", "is_disabled": 0, "rental_uris": {"android": "https://dc.lft.to/lastmile_qr_scan", "ios": "https://dc.lft.to/lastmile_qr_scan"}, "lon": -77.03566283333333, "fusion_lat": 0.0}, {"name": "db2fe46486e5d39cc910ea4b05138aae", "fusion_lon": 0.0, "lat": 38.879355833333335, "is_reserved": 0, "type": "electric_scooter", "bike_id": "db2fe46486e5d39cc910ea4b05138aae", "is_disabled": 0, "rental_uris": {"android": "https://dc.lft.to/lastmile_qr_scan", "ios": "https://dc.lft.to/lastmile_qr_scan"}, "lon": -77.00397666666667, "fusion_lat": 0.0}, {"name": "743ed006b180dc57780251649c26923b", "fusion_lon": 0.0, "lat": 38.9018375, "is_reserved": 0, "type": "electric_scooter", "bike_id": "743ed006b180dc57780251649c26923b", "is_disabled": 0, "rental_uris": {"android": "https://dc.lft.to/lastmile_qr_scan", "ios": "https://dc.lft.to/lastmile_qr_scan"}, "lon": -77.01298083333333, "fusion_lat": 0.0}, {"name": "78c5576a64b457fe3e2bea7b4a95da95", "fusion_lon": 0.0, "lat": 38.85525616666666, "is_reserved": 0, "type": "electric_bike", "bike_id": "78c5576a64b457fe3e2bea7b4a95da95", "is_disabled": 0, "rental_uris": {"android": "https://dc.lft.to/lastmile_qr_scan", "ios": "https://dc.lft.to/lastmile_qr_scan"}, "lon": -76.98443866666666, "fusion_lat": 0.0}, {"name": "4e8f2ec34b2dc8b2b61545f18a4c09a2", "fusion_lon": 0.0, "lat": 38.91253, "is_reserved": 0, "type": "electric_scooter", "bike_id": "4e8f2ec34b2dc8b2b61545f18a4c09a2", "is_disabled": 0, "rental_uris": {"android": "https://dc.lft.to/lastmile_qr_scan", "ios": "https://dc.lft.to/lastmile_qr_scan"}, "lon": -77.04442066666667, "fusion_lat": 0.0}, {"name": "b1e69acbca0fae398a8e73883fa071a9", "fusion_lon": 0.0, "lat": 38.908552666666665, "is_reserved": 0, "type": "electric_scooter", "bike_id": "b1e69acbca0fae398a8e73883fa071a9", "is_disabled": 0, "rental_uris": {"android": "https://dc.lft.to/lastmile_qr_scan", "ios": "https://dc.lft.to/lastmile_qr_scan"}, "lon": -76.99969333333334, "fusion_lat": 0.0}, {"name": "88f2aa5aff5cb0a9b08f65aaabdb489c", "fusion_lon": 0.0, "lat": 38.883115833333335, "is_reserved": 0, "type": "electric_scooter", "bike_id": "88f2aa5aff5cb0a9b08f65aaabdb489c", "is_disabled": 0, "rental_uris": {"android": "https://dc.lft.to/lastmile_qr_scan", "ios": "https://dc.lft.to/lastmile_qr_scan"}, "lon": -77.000491, "fusion_lat": 0.0}, {"name": "a1d02a0424c4318249dabd171e55aafa", "fusion_lon": 0.0, "lat": 38.874556166666665, "is_reserved": 0, "type": "electric_scooter", "bike_id": "a1d02a0424c4318249dabd171e55aafa", "is_disabled": 0, "rental_uris": {"android": "https://dc.lft.to/lastmile_qr_scan", "ios": "https://dc.lft.to/lastmile_qr_scan"}, "lon": -77.0093945, "fusion_lat": 0.0}, {"name": "135b433a0903ef9f49c3bde21e5f1224", "fusion_lon": 0.0, "lat": 38.84316466666667, "is_reserved": 0, "type": "electric_scooter", "bike_id": "135b433a0903ef9f49c3bde21e5f1224", "is_disabled": 0, "rental_uris": {"android": "https://dc.lft.to/lastmile_qr_scan", "ios": "https://dc.lft.to/lastmile_qr_scan"}, "lon": -76.99930116666667, "fusion_lat": 0.0}, {"name": "cc7a02e70c27e5fb279fff48b58ffd1b", "fusion_lon": 0.0, "lat": 38.920459666666666, "is_reserved": 0, "type": "electric_scooter", "bike_id": "cc7a02e70c27e5fb279fff48b58ffd1b", "is_disabled": 0, "rental_uris": {"android": "https://dc.lft.to/lastmile_qr_scan", "ios": "https://dc.lft.to/lastmile_qr_scan"}, "lon": -77.02592616666666, "fusion_lat": 0.0}, {"name": "569502138e2e5cb6fc8d9e8bee23764a", "fusion_lon": 0.0, "lat": 38.921522833333334, "is_reserved": 0, "type": "electric_scooter", "bike_id": "569502138e2e5cb6fc8d9e8bee23764a", "is_disabled": 0, "rental_uris": {"android": "https://dc.lft.to/lastmile_qr_scan", "ios": "https://dc.lft.to/lastmile_qr_scan"}, "lon": -77.03226316666667, "fusion_lat": 0.0}, {"name": "1247213b287eb91adb337710850f4397", "fusion_lon": 0.0, "lat": 39.01369916666667, "is_reserved": 0, "type": "electric_bike", "bike_id": "1247213b287eb91adb337710850f4397", "is_disabled": 0, "rental_uris": {"android": "https://dc.lft.to/lastmile_qr_scan", "ios": "https://dc.lft.to/lastmile_qr_scan"}, "lon": -76.9213345, "fusion_lat": 0.0}, {"name": "48562d15820ccda70ea6f377ef29e011", "fusion_lon": 0.0, "lat": 38.919074, "is_reserved": 0, "type": "electric_scooter", "bike_id": "48562d15820ccda70ea6f377ef29e011", "is_disabled": 0, "rental_uris": {"android": "https://dc.lft.to/lastmile_qr_scan", "ios": "https://dc.lft.to/lastmile_qr_scan"}, "lon": -77.02136816666666, "fusion_lat": 0.0}, {"name": "c7143ce1dc2529763af3d756d4b1c779", "fusion_lon": 0.0, "lat": 38.89225283333333, "is_reserved": 0, "type": "electric_scooter", "bike_id": "c7143ce1dc2529763af3d756d4b1c779", "is_disabled": 0, "rental_uris": {"android": "https://dc.lft.to/lastmile_qr_scan", "ios": "https://dc.lft.to/lastmile_qr_scan"}, "lon": -77.0480435, "fusion_lat": 0.0}, {"name": "55a7777ec7a0645885be448bcb4183f5", "fusion_lon": 0.0, "lat": 38.896669, "is_reserved": 0, "type": "electric_scooter", "bike_id": "55a7777ec7a0645885be448bcb4183f5", "is_disabled": 0, "rental_uris": {"android": "https://dc.lft.to/lastmile_qr_scan", "ios": "https://dc.lft.to/lastmile_qr_scan"}, "lon": -77.02733, "fusion_lat": 0.0}, {"name": "2b6466cd2c1934746ac8eb68e8c2974e", "fusion_lon": 0.0, "lat": 38.89641983333333, "is_reserved": 0, "type": "electric_scooter", "bike_id": "2b6466cd2c1934746ac8eb68e8c2974e", "is_disabled": 0, "rental_uris": {"android": "https://dc.lft.to/lastmile_qr_scan", "ios": "https://dc.lft.to/lastmile_qr_scan"}, "lon": -77.00922783333333, "fusion_lat": 0.0}, {"name": "045ad0767b849ebd75f741cf7c6d0abb", "fusion_lon": 0.0, "lat": 38.919265833333334, "is_reserved": 0, "type": "electric_bike", "bike_id": "045ad0767b849ebd75f741cf7c6d0abb", "is_disabled": 0, "rental_uris": {"android": "https://dc.lft.to/lastmile_qr_scan", "ios": "https://dc.lft.to/lastmile_qr_scan"}, "lon": -77.07382333333334, "fusion_lat": 0.0}, {"name": "d8283d26028ac3ba3f35fea969c84669", "fusion_lon": 0.0, "lat": 38.8827595, "is_reserved": 0, "type": "electric_scooter", "bike_id": "d8283d26028ac3ba3f35fea969c84669", "is_disabled": 0, "rental_uris": {"android": "https://dc.lft.to/lastmile_qr_scan", "ios": "https://dc.lft.to/lastmile_qr_scan"}, "lon": -77.00837766666666, "fusion_lat": 0.0}, {"name": "6a95c3fdbe4e88a99b67043d15242c2a", "fusion_lon": 0.0, "lat": 38.94285083333333, "is_reserved": 0, "type": "electric_bike", "bike_id": "6a95c3fdbe4e88a99b67043d15242c2a", "is_disabled": 0, "rental_uris": {"android": "https://dc.lft.to/lastmile_qr_scan", "ios": "https://dc.lft.to/lastmile_qr_scan"}, "lon": -76.98787883333334, "fusion_lat": 0.0}, {"name": "277d5f670b75c0f4b02659f218e19dc2", "fusion_lon": 0.0, "lat": 38.91778633333333, "is_reserved": 0, "type": "electric_scooter", "bike_id": "277d5f670b75c0f4b02659f218e19dc2", "is_disabled": 0, "rental_uris": {"android": "https://dc.lft.to/lastmile_qr_scan", "ios": "https://dc.lft.to/lastmile_qr_scan"}, "lon": -77.0179375, "fusion_lat": 0.0}, {"name": "309beb670649f9defca55b8a4c9afac1", "fusion_lon": 0.0, "lat": 38.92316816666667, "is_reserved": 0, "type": "electric_scooter", "bike_id": "309beb670649f9defca55b8a4c9afac1", "is_disabled": 0, "rental_uris": {"android": "https://dc.lft.to/lastmile_qr_scan", "ios": "https://dc.lft.to/lastmile_qr_scan"}, "lon": -77.04179, "fusion_lat": 0.0}, {"name": "cb08291aa30ce3254dfc3a4bbd743f2f", "fusion_lon": 0.0, "lat": 38.916919166666666, "is_reserved": 0, "type": "electric_scooter", "bike_id": "cb08291aa30ce3254dfc3a4bbd743f2f", "is_disabled": 0, "rental_uris": {"android": "https://dc.lft.to/lastmile_qr_scan", "ios": "https://dc.lft.to/lastmile_qr_scan"}, "lon": -77.02339416666666, "fusion_lat": 0.0}, {"name": "3ec239a65cc4bb51a79878170100dbec", "fusion_lon": 0.0, "lat": 38.919659333333335, "is_reserved": 0, "type": "electric_scooter", "bike_id": "3ec239a65cc4bb51a79878170100dbec", "is_disabled": 0, "rental_uris": {"android": "https://dc.lft.to/lastmile_qr_scan", "ios": "https://dc.lft.to/lastmile_qr_scan"}, "lon": -77.0385645, "fusion_lat": 0.0}, {"name": "6b46ffd86ad167c8dc51626a2bd2ef01", "fusion_lon": 0.0, "lat": 38.8887405, "is_reserved": 0, "type": "electric_scooter", "bike_id": "6b46ffd86ad167c8dc51626a2bd2ef01", "is_disabled": 0, "rental_uris": {"android": "https://dc.lft.to/lastmile_qr_scan", "ios": "https://dc.lft.to/lastmile_qr_scan"}, "lon": -76.99029283333333, "fusion_lat": 0.0}, {"name": "a7605ef579a6d49c014f89ba2daf1a45", "fusion_lon": 0.0, "lat": 38.909735833333336, "is_reserved": 0, "type": "electric_scooter", "bike_id": "a7605ef579a6d49c014f89ba2daf1a45", "is_disabled": 0, "rental_uris": {"android": "https://dc.lft.to/lastmile_qr_scan", "ios": "https://dc.lft.to/lastmile_qr_scan"}, "lon": -77.04229333333333, "fusion_lat": 0.0}, {"name": "6079233d5fa7b1f6afb40096a4214c97", "fusion_lon": 0.0, "lat": 38.90081216666667, "is_reserved": 0, "type": "electric_scooter", "bike_id": "6079233d5fa7b1f6afb40096a4214c97", "is_disabled": 0, "rental_uris": {"android": "https://dc.lft.to/lastmile_qr_scan", "ios": "https://dc.lft.to/lastmile_qr_scan"}, "lon": -77.04758933333333, "fusion_lat": 0.0}, {"name": "be4f81501cceccc2eeaf25ac20b0b234", "fusion_lon": 0.0, "lat": 38.892239833333335, "is_reserved": 0, "type": "electric_scooter", "bike_id": "be4f81501cceccc2eeaf25ac20b0b234", "is_disabled": 0, "rental_uris": {"android": "https://dc.lft.to/lastmile_qr_scan", "ios": "https://dc.lft.to/lastmile_qr_scan"}, "lon": -77.04863583333334, "fusion_lat": 0.0}, {"name": "df2ba0f604f490da15207a2bc246afd8", "fusion_lon": 0.0, "lat": 38.92727766666667, "is_reserved": 0, "type": "electric_scooter", "bike_id": "df2ba0f604f490da15207a2bc246afd8", "is_disabled": 0, "rental_uris": {"android": "https://dc.lft.to/lastmile_qr_scan", "ios": "https://dc.lft.to/lastmile_qr_scan"}, "lon": -77.02309166666667, "fusion_lat": 0.0}, {"name": "9ebbb5a2be0da1a7b0815f4d23c1a21b", "fusion_lon": 0.0, "lat": 38.902707, "is_reserved": 0, "type": "electric_scooter", "bike_id": "9ebbb5a2be0da1a7b0815f4d23c1a21b", "is_disabled": 0, "rental_uris": {"android": "https://dc.lft.to/lastmile_qr_scan", "ios": "https://dc.lft.to/lastmile_qr_scan"}, "lon": -77.02823916666667, "fusion_lat": 0.0}, {"name": "b2fedd624ea52fb6b7afbf57ce57cde1", "fusion_lon": 0.0, "lat": 38.87862716666667, "is_reserved": 0, "type": "electric_scooter", "bike_id": "b2fedd624ea52fb6b7afbf57ce57cde1", "is_disabled": 0, "rental_uris": {"android": "https://dc.lft.to/lastmile_qr_scan", "ios": "https://dc.lft.to/lastmile_qr_scan"}, "lon": -77.00808583333334, "fusion_lat": 0.0}, {"name": "37fdd19291f3a97e30dee8a02f288aa1", "fusion_lon": 0.0, "lat": 38.9093675, "is_reserved": 0, "type": "electric_scooter", "bike_id": "37fdd19291f3a97e30dee8a02f288aa1", "is_disabled": 0, "rental_uris": {"android": "https://dc.lft.to/lastmile_qr_scan", "ios": "https://dc.lft.to/lastmile_qr_scan"}, "lon": -77.02698983333333, "fusion_lat": 0.0}, {"name": "63899ee27fba755e72279cbfacce6a4c", "fusion_lon": 0.0, "lat": 38.89607566666667, "is_reserved": 0, "type": "electric_scooter", "bike_id": "63899ee27fba755e72279cbfacce6a4c", "is_disabled": 0, "rental_uris": {"android": "https://dc.lft.to/lastmile_qr_scan", "ios": "https://dc.lft.to/lastmile_qr_scan"}, "lon": -77.05058833333334, "fusion_lat": 0.0}, {"name": "ee216910d1c65812410ce9e3b3a1922d", "fusion_lon": 0.0, "lat": 38.902724, "is_reserved": 0, "type": "electric_scooter", "bike_id": "ee216910d1c65812410ce9e3b3a1922d", "is_disabled": 0, "rental_uris": {"android": "https://dc.lft.to/lastmile_qr_scan", "ios": "https://dc.lft.to/lastmile_qr_scan"}, "lon": -77.00325683333334, "fusion_lat": 0.0}, {"name": "03506f6059dc4befa2e0894db8929f58", "fusion_lon": 0.0, "lat": 38.9225305, "is_reserved": 0, "type": "electric_scooter", "bike_id": "03506f6059dc4befa2e0894db8929f58", "is_disabled": 0, "rental_uris": {"android": "https://dc.lft.to/lastmile_qr_scan", "ios": "https://dc.lft.to/lastmile_qr_scan"}, "lon": -77.03084883333334, "fusion_lat": 0.0}, {"name": "92b90e9495665242922ceffdb7a6ee27", "fusion_lon": 0.0, "lat": 38.876542, "is_reserved": 0, "type": "electric_scooter", "bike_id": "92b90e9495665242922ceffdb7a6ee27", "is_disabled": 0, "rental_uris": {"android": "https://dc.lft.to/lastmile_qr_scan", "ios": "https://dc.lft.to/lastmile_qr_scan"}, "lon": -77.00239716666667, "fusion_lat": 0.0}, {"name": "cd3aa89416b7e685dbc25fb21f3ef0b2", "fusion_lon": 0.0, "lat": 38.90599666666667, "is_reserved": 0, "type": "electric_scooter", "bike_id": "cd3aa89416b7e685dbc25fb21f3ef0b2", "is_disabled": 0, "rental_uris": {"android": "https://dc.lft.to/lastmile_qr_scan", "ios": "https://dc.lft.to/lastmile_qr_scan"}, "lon": -77.04148133333334, "fusion_lat": 0.0}, {"name": "c04df0377efa3e05f184e5c6dc1a1b6c", "fusion_lon": 0.0, "lat": 38.911928, "is_reserved": 0, "type": "electric_scooter", "bike_id": "c04df0377efa3e05f184e5c6dc1a1b6c", "is_disabled": 0, "rental_uris": {"android": "https://dc.lft.to/lastmile_qr_scan", "ios": "https://dc.lft.to/lastmile_qr_scan"}, "lon": -77.0120895, "fusion_lat": 0.0}, {"name": "9882e934737ee9f558f27925a0ac1043", "fusion_lon": 0.0, "lat": 38.9276305, "is_reserved": 0, "type": "electric_scooter", "bike_id": "9882e934737ee9f558f27925a0ac1043", "is_disabled": 0, "rental_uris": {"android": "https://dc.lft.to/lastmile_qr_scan", "ios": "https://dc.lft.to/lastmile_qr_scan"}, "lon": -77.0326195, "fusion_lat": 0.0}, {"name": "07445e53afa7b2be0fd5a4b4ddeab7ef", "fusion_lon": 0.0, "lat": 38.93431016666667, "is_reserved": 0, "type": "electric_scooter", "bike_id": "07445e53afa7b2be0fd5a4b4ddeab7ef", "is_disabled": 0, "rental_uris": {"android": "https://dc.lft.to/lastmile_qr_scan", "ios": "https://dc.lft.to/lastmile_qr_scan"}, "lon": -77.04539866666667, "fusion_lat": 0.0}, {"name": "b2e9abf8a28b52b1d4845fb08c7dec77", "fusion_lon": 0.0, "lat": 38.912780166666664, "is_reserved": 0, "type": "electric_scooter", "bike_id": "b2e9abf8a28b52b1d4845fb08c7dec77", "is_disabled": 0, "rental_uris": {"android": "https://dc.lft.to/lastmile_qr_scan", "ios": "https://dc.lft.to/lastmile_qr_scan"}, "lon": -77.04499133333333, "fusion_lat": 0.0}, {"name": "a84e19c918dc155ba4c00c3c37c0da70", "fusion_lon": 0.0, "lat": 38.9031395, "is_reserved": 0, "type": "electric_scooter", "bike_id": "a84e19c918dc155ba4c00c3c37c0da70", "is_disabled": 0, "rental_uris": {"android": "https://dc.lft.to/lastmile_qr_scan", "ios": "https://dc.lft.to/lastmile_qr_scan"}, "lon": -77.02222166666667, "fusion_lat": 0.0}, {"name": "cac5c972f2655717972c05792896a9bf", "fusion_lon": 0.0, "lat": 38.94205983333333, "is_reserved": 0, "type": "electric_scooter", "bike_id": "cac5c972f2655717972c05792896a9bf", "is_disabled": 0, "rental_uris": {"android": "https://dc.lft.to/lastmile_qr_scan", "ios": "https://dc.lft.to/lastmile_qr_scan"}, "lon": -77.02514966666666, "fusion_lat": 0.0}, {"name": "1ee0e1926e6a792dac64d1aba93c69b6", "fusion_lon": 0.0, "lat": 38.90405483333333, "is_reserved": 0, "type": "electric_scooter", "bike_id": "1ee0e1926e6a792dac64d1aba93c69b6", "is_disabled": 0, "rental_uris": {"android": "https://dc.lft.to/lastmile_qr_scan", "ios": "https://dc.lft.to/lastmile_qr_scan"}, "lon": -77.04363616666667, "fusion_lat": 0.0}, {"name": "3f19c2cfcf6a0f3a4fddee593d1e7748", "fusion_lon": 0.0, "lat": 38.949955833333334, "is_reserved": 0, "type": "electric_scooter", "bike_id": "3f19c2cfcf6a0f3a4fddee593d1e7748", "is_disabled": 0, "rental_uris": {"android": "https://dc.lft.to/lastmile_qr_scan", "ios": "https://dc.lft.to/lastmile_qr_scan"}, "lon": -77.03333166666667, "fusion_lat": 0.0}, {"name": "b43dcc6125b2b320c7b9cf4f0e1cd7d9", "fusion_lon": 0.0, "lat": 38.9238135, "is_reserved": 0, "type": "electric_scooter", "bike_id": "b43dcc6125b2b320c7b9cf4f0e1cd7d9", "is_disabled": 0, "rental_uris": {"android": "https://dc.lft.to/lastmile_qr_scan", "ios": "https://dc.lft.to/lastmile_qr_scan"}, "lon": -77.0206145, "fusion_lat": 0.0}, {"name": "b2d76c6d59e31cc8b74140c6e1813b8c", "fusion_lon": 0.0, "lat": 38.86640666666667, "is_reserved": 0, "type": "electric_scooter", "bike_id": "b2d76c6d59e31cc8b74140c6e1813b8c", "is_disabled": 0, "rental_uris": {"android": "https://dc.lft.to/lastmile_qr_scan", "ios": "https://dc.lft.to/lastmile_qr_scan"}, "lon": -76.98260966666666, "fusion_lat": 0.0}, {"name": "8de4e81f3c63d97906e14a45e514c5fa", "fusion_lon": 0.0, "lat": 38.90186333333333, "is_reserved": 0, "type": "electric_scooter", "bike_id": "8de4e81f3c63d97906e14a45e514c5fa", "is_disabled": 0, "rental_uris": {"android": "https://dc.lft.to/lastmile_qr_scan", "ios": "https://dc.lft.to/lastmile_qr_scan"}, "lon": -76.98819066666667, "fusion_lat": 0.0}, {"name": "33501ad074d495e98b75adf7f8b50acb", "fusion_lon": 0.0, "lat": 38.928704833333335, "is_reserved": 0, "type": "electric_scooter", "bike_id": "33501ad074d495e98b75adf7f8b50acb", "is_disabled": 0, "rental_uris": {"android": "https://dc.lft.to/lastmile_qr_scan", "ios": "https://dc.lft.to/lastmile_qr_scan"}, "lon": -77.01394716666667, "fusion_lat": 0.0}, {"name": "35eedb52e1273253d384ed1c145f92c4", "fusion_lon": 0.0, "lat": 38.91845383333333, "is_reserved": 0, "type": "electric_scooter", "bike_id": "35eedb52e1273253d384ed1c145f92c4", "is_disabled": 0, "rental_uris": {"android": "https://dc.lft.to/lastmile_qr_scan", "ios": "https://dc.lft.to/lastmile_qr_scan"}, "lon": -77.02294383333333, "fusion_lat": 0.0}, {"name": "ecc83340b720599b7cefd049156bd788", "fusion_lon": 0.0, "lat": 38.95174933333333, "is_reserved": 0, "type": "electric_bike", "bike_id": "ecc83340b720599b7cefd049156bd788", "is_disabled": 0, "rental_uris": {"android": "https://dc.lft.to/lastmile_qr_scan", "ios": "https://dc.lft.to/lastmile_qr_scan"}, "lon": -76.97733333333333, "fusion_lat": 0.0}, {"name": "df5d5a7fea0524bd4d12eb9eddd9d2f7", "fusion_lon": 0.0, "lat": 38.962793166666664, "is_reserved": 0, "type": "electric_bike", "bike_id": "df5d5a7fea0524bd4d12eb9eddd9d2f7", "is_disabled": 0, "rental_uris": {"android": "https://dc.lft.to/lastmile_qr_scan", "ios": "https://dc.lft.to/lastmile_qr_scan"}, "lon": -77.01461016666667, "fusion_lat": 0.0}, {"name": "f6e6368c9eb0fb068296d5d282f96754", "fusion_lon": 0.0, "lat": 38.907922, "is_reserved": 0, "type": "electric_scooter", "bike_id": "f6e6368c9eb0fb068296d5d282f96754", "is_disabled": 0, "rental_uris": {"android": "https://dc.lft.to/lastmile_qr_scan", "ios": "https://dc.lft.to/lastmile_qr_scan"}, "lon": -77.003859, "fusion_lat": 0.0}, {"name": "defe15ef3dcff7110c1f947fbc2f77fa", "fusion_lon": 0.0, "lat": 38.9095845, "is_reserved": 0, "type": "electric_scooter", "bike_id": "defe15ef3dcff7110c1f947fbc2f77fa", "is_disabled": 0, "rental_uris": {"android": "https://dc.lft.to/lastmile_qr_scan", "ios": "https://dc.lft.to/lastmile_qr_scan"}, "lon": -77.026872, "fusion_lat": 0.0}, {"name": "0ffab8d609230a210084ba646d0432fa", "fusion_lon": 0.0, "lat": 38.904909333333336, "is_reserved": 0, "type": "electric_scooter", "bike_id": "0ffab8d609230a210084ba646d0432fa", "is_disabled": 0, "rental_uris": {"android": "https://dc.lft.to/lastmile_qr_scan", "ios": "https://dc.lft.to/lastmile_qr_scan"}, "lon": -76.94962016666666, "fusion_lat": 0.0}, {"name": "68975baf10eebccef9a2bf227510a0a0", "fusion_lon": 0.0, "lat": 38.923426666666664, "is_reserved": 0, "type": "electric_scooter", "bike_id": "68975baf10eebccef9a2bf227510a0a0", "is_disabled": 0, "rental_uris": {"android": "https://dc.lft.to/lastmile_qr_scan", "ios": "https://dc.lft.to/lastmile_qr_scan"}, "lon": -77.0508235, "fusion_lat": 0.0}, {"name": "ad679b2f2dab57c01b254a169cb34d77", "fusion_lon": 0.0, "lat": 38.983615, "is_reserved": 0, "type": "electric_bike", "bike_id": "ad679b2f2dab57c01b254a169cb34d77", "is_disabled": 0, "rental_uris": {"android": "https://dc.lft.to/lastmile_qr_scan", "ios": "https://dc.lft.to/lastmile_qr_scan"}, "lon": -76.97214116666666, "fusion_lat": 0.0}, {"name": "6862533f38dc1a3e0d25f0f32b16e5df", "fusion_lon": 0.0, "lat": 38.88440533333333, "is_reserved": 0, "type": "electric_scooter", "bike_id": "6862533f38dc1a3e0d25f0f32b16e5df", "is_disabled": 0, "rental_uris": {"android": "https://dc.lft.to/lastmile_qr_scan", "ios": "https://dc.lft.to/lastmile_qr_scan"}, "lon": -77.02961933333333, "fusion_lat": 0.0}, {"name": "24bf1af4c46e6992c86af57c24183fbe", "fusion_lon": 0.0, "lat": 38.92424316666666, "is_reserved": 0, "type": "electric_scooter", "bike_id": "24bf1af4c46e6992c86af57c24183fbe", "is_disabled": 0, "rental_uris": {"android": "https://dc.lft.to/lastmile_qr_scan", "ios": "https://dc.lft.to/lastmile_qr_scan"}, "lon": -77.05058633333333, "fusion_lat": 0.0}, {"name": "fe395f0216038147515d7a77fe1440f7", "fusion_lon": 0.0, "lat": 38.862428, "is_reserved": 0, "type": "electric_scooter", "bike_id": "fe395f0216038147515d7a77fe1440f7", "is_disabled": 0, "rental_uris": {"android": "https://dc.lft.to/lastmile_qr_scan", "ios": "https://dc.lft.to/lastmile_qr_scan"}, "lon": -76.99494033333333, "fusion_lat": 0.0}, {"name": "2366dfccc4e9ed7e57a27cca27c97f25", "fusion_lon": 0.0, "lat": 38.925687333333336, "is_reserved": 0, "type": "electric_scooter", "bike_id": "2366dfccc4e9ed7e57a27cca27c97f25", "is_disabled": 0, "rental_uris": {"android": "https://dc.lft.to/lastmile_qr_scan", "ios": "https://dc.lft.to/lastmile_qr_scan"}, "lon": -77.03910383333333, "fusion_lat": 0.0}, {"name": "219e348049cd52c851c47cc9a46d9daa", "fusion_lon": 0.0, "lat": 38.90266333333334, "is_reserved": 0, "type": "electric_scooter", "bike_id": "219e348049cd52c851c47cc9a46d9daa", "is_disabled": 0, "rental_uris": {"android": "https://dc.lft.to/lastmile_qr_scan", "ios": "https://dc.lft.to/lastmile_qr_scan"}, "lon": -77.043891, "fusion_lat": 0.0}, {"name": "713cc4fbbd01525924f1f775f4714fa5", "fusion_lon": 0.0, "lat": 38.95745, "is_reserved": 0, "type": "electric_scooter", "bike_id": "713cc4fbbd01525924f1f775f4714fa5", "is_disabled": 0, "rental_uris": {"android": "https://dc.lft.to/lastmile_qr_scan", "ios": "https://dc.lft.to/lastmile_qr_scan"}, "lon": -77.020626, "fusion_lat": 0.0}, {"name": "5d92a6480e3e93d7f72c98024985716d", "fusion_lon": 0.0, "lat": 38.83156316666667, "is_reserved": 0, "type": "electric_scooter", "bike_id": "5d92a6480e3e93d7f72c98024985716d", "is_disabled": 0, "rental_uris": {"android": "https://dc.lft.to/lastmile_qr_scan", "ios": "https://dc.lft.to/lastmile_qr_scan"}, "lon": -77.05122516666667, "fusion_lat": 0.0}, {"name": "5e1faff4a45dfe44fa52c6a8607bed3d", "fusion_lon": 0.0, "lat": 38.917467333333335, "is_reserved": 0, "type": "electric_scooter", "bike_id": "5e1faff4a45dfe44fa52c6a8607bed3d", "is_disabled": 0, "rental_uris": {"android": "https://dc.lft.to/lastmile_qr_scan", "ios": "https://dc.lft.to/lastmile_qr_scan"}, "lon": -77.0146265, "fusion_lat": 0.0}, {"name": "568b38e88f3ed41fb37bcea768382a9b", "fusion_lon": 0.0, "lat": 38.918237500000004, "is_reserved": 0, "type": "electric_scooter", "bike_id": "568b38e88f3ed41fb37bcea768382a9b", "is_disabled": 0, "rental_uris": {"android": "https://dc.lft.to/lastmile_qr_scan", "ios": "https://dc.lft.to/lastmile_qr_scan"}, "lon": -77.027117, "fusion_lat": 0.0}, {"name": "3fd9bc9df54551dc648a8496c81ed6d3", "fusion_lon": 0.0, "lat": 38.89722166666667, "is_reserved": 0, "type": "electric_scooter", "bike_id": "3fd9bc9df54551dc648a8496c81ed6d3", "is_disabled": 0, "rental_uris": {"android": "https://dc.lft.to/lastmile_qr_scan", "ios": "https://dc.lft.to/lastmile_qr_scan"}, "lon": -76.97345983333334, "fusion_lat": 0.0}, {"name": "0f281170986dbf9f8103cdf8f45896f8", "fusion_lon": 0.0, "lat": 38.92354683333333, "is_reserved": 0, "type": "electric_scooter", "bike_id": "0f281170986dbf9f8103cdf8f45896f8", "is_disabled": 0, "rental_uris": {"android": "https://dc.lft.to/lastmile_qr_scan", "ios": "https://dc.lft.to/lastmile_qr_scan"}, "lon": -77.052751, "fusion_lat": 0.0}, {"name": "a694dc1a69de32fbd0b01911e8cfd93d", "fusion_lon": 0.0, "lat": 38.9205485, "is_reserved": 0, "type": "electric_scooter", "bike_id": "a694dc1a69de32fbd0b01911e8cfd93d", "is_disabled": 0, "rental_uris": {"android": "https://dc.lft.to/lastmile_qr_scan", "ios": "https://dc.lft.to/lastmile_qr_scan"}, "lon": -77.0298505, "fusion_lat": 0.0}, {"name": "4ae890092aa1ffa6455679e08508b7f3", "fusion_lon": 0.0, "lat": 38.922144833333334, "is_reserved": 0, "type": "electric_scooter", "bike_id": "4ae890092aa1ffa6455679e08508b7f3", "is_disabled": 0, "rental_uris": {"android": "https://dc.lft.to/lastmile_qr_scan", "ios": "https://dc.lft.to/lastmile_qr_scan"}, "lon": -77.03295133333333, "fusion_lat": 0.0}, {"name": "3573d55dc1551eda2d34652d58d8591e", "fusion_lon": 0.0, "lat": 38.9418275, "is_reserved": 0, "type": "electric_scooter", "bike_id": "3573d55dc1551eda2d34652d58d8591e", "is_disabled": 0, "rental_uris": {"android": "https://dc.lft.to/lastmile_qr_scan", "ios": "https://dc.lft.to/lastmile_qr_scan"}, "lon": -77.024916, "fusion_lat": 0.0}, {"name": "5605375ab39cbe1c38cc17b71eca1c4f", "fusion_lon": 0.0, "lat": 38.9461905, "is_reserved": 0, "type": "electric_scooter", "bike_id": "5605375ab39cbe1c38cc17b71eca1c4f", "is_disabled": 0, "rental_uris": {"android": "https://dc.lft.to/lastmile_qr_scan", "ios": "https://dc.lft.to/lastmile_qr_scan"}, "lon": -77.02170316666667, "fusion_lat": 0.0}, {"name": "415928033c1b963f1561e962634f8de0", "fusion_lon": 0.0, "lat": 38.91961766666667, "is_reserved": 0, "type": "electric_scooter", "bike_id": "415928033c1b963f1561e962634f8de0", "is_disabled": 0, "rental_uris": {"android": "https://dc.lft.to/lastmile_qr_scan", "ios": "https://dc.lft.to/lastmile_qr_scan"}, "lon": -77.03480066666667, "fusion_lat": 0.0}, {"name": "3be5541929ecbcd14eea2d65dafd529c", "fusion_lon": 0.0, "lat": 38.91628733333334, "is_reserved": 0, "type": "electric_scooter", "bike_id": "3be5541929ecbcd14eea2d65dafd529c", "is_disabled": 0, "rental_uris": {"android": "https://dc.lft.to/lastmile_qr_scan", "ios": "https://dc.lft.to/lastmile_qr_scan"}, "lon": -77.03856783333333, "fusion_lat": 0.0}, {"name": "82c422a8dd6d754ae7cbe925ceeb041d", "fusion_lon": 0.0, "lat": 38.92695466666667, "is_reserved": 0, "type": "electric_scooter", "bike_id": "82c422a8dd6d754ae7cbe925ceeb041d", "is_disabled": 0, "rental_uris": {"android": "https://dc.lft.to/lastmile_qr_scan", "ios": "https://dc.lft.to/lastmile_qr_scan"}, "lon": -77.024248, "fusion_lat": 0.0}, {"name": "11f16a73adff2e9aac466e64cd9e7e4b", "fusion_lon": 0.0, "lat": 38.898482333333334, "is_reserved": 0, "type": "electric_scooter", "bike_id": "11f16a73adff2e9aac466e64cd9e7e4b", "is_disabled": 0, "rental_uris": {"android": "https://dc.lft.to/lastmile_qr_scan", "ios": "https://dc.lft.to/lastmile_qr_scan"}, "lon": -77.02381933333334, "fusion_lat": 0.0}, {"name": "5011d0f3b9b597b6eee27b5eb3452bdd", "fusion_lon": 0.0, "lat": 38.99345116666667, "is_reserved": 0, "type": "electric_bike", "bike_id": "5011d0f3b9b597b6eee27b5eb3452bdd", "is_disabled": 0, "rental_uris": {"android": "https://dc.lft.to/lastmile_qr_scan", "ios": "https://dc.lft.to/lastmile_qr_scan"}, "lon": -77.11576133333334, "fusion_lat": 0.0}, {"name": "a20a7ee30d5a8dbb76c779dd604e051d", "fusion_lon": 0.0, "lat": 38.8076405, "is_reserved": 0, "type": "electric_bike", "bike_id": "a20a7ee30d5a8dbb76c779dd604e051d", "is_disabled": 0, "rental_uris": {"android": "https://dc.lft.to/lastmile_qr_scan", "ios": "https://dc.lft.to/lastmile_qr_scan"}, "lon": -77.09469, "fusion_lat": 0.0}, {"name": "6f3f2135a5fcf00f8ee405b512d4911b", "fusion_lon": 0.0, "lat": 38.88410783333333, "is_reserved": 0, "type": "electric_bike", "bike_id": "6f3f2135a5fcf00f8ee405b512d4911b", "is_disabled": 0, "rental_uris": {"android": "https://dc.lft.to/lastmile_qr_scan", "ios": "https://dc.lft.to/lastmile_qr_scan"}, "lon": -76.96057433333333, "fusion_lat": 0.0}, {"name": "db859e0565368459b8408fe11f673018", "fusion_lon": 0.0, "lat": 38.916891166666666, "is_reserved": 0, "type": "electric_scooter", "bike_id": "db859e0565368459b8408fe11f673018", "is_disabled": 0, "rental_uris": {"android": "https://dc.lft.to/lastmile_qr_scan", "ios": "https://dc.lft.to/lastmile_qr_scan"}, "lon": -77.02514883333333, "fusion_lat": 0.0}, {"name": "86b08578561bc550d413f39a37470b3f", "fusion_lon": 0.0, "lat": 38.86509616666667, "is_reserved": 0, "type": "electric_scooter", "bike_id": "86b08578561bc550d413f39a37470b3f", "is_disabled": 0, "rental_uris": {"android": "https://dc.lft.to/lastmile_qr_scan", "ios": "https://dc.lft.to/lastmile_qr_scan"}, "lon": -76.99000416666667, "fusion_lat": 0.0}, {"name": "e4ef3a01c46888d788c2ddeb4e252b4e", "fusion_lon": 0.0, "lat": 38.926990833333335, "is_reserved": 0, "type": "electric_scooter", "bike_id": "e4ef3a01c46888d788c2ddeb4e252b4e", "is_disabled": 0, "rental_uris": {"android": "https://dc.lft.to/lastmile_qr_scan", "ios": "https://dc.lft.to/lastmile_qr_scan"}, "lon": -77.02106816666667, "fusion_lat": 0.0}, {"name": "aa1098410bfa93dd66ba9d577489dfc9", "fusion_lon": 0.0, "lat": 38.897486, "is_reserved": 0, "type": "electric_scooter", "bike_id": "aa1098410bfa93dd66ba9d577489dfc9", "is_disabled": 0, "rental_uris": {"android": "https://dc.lft.to/lastmile_qr_scan", "ios": "https://dc.lft.to/lastmile_qr_scan"}, "lon": -77.021508, "fusion_lat": 0.0}, {"name": "fe251a5586996eee6b429e9cf367daa7", "fusion_lon": 0.0, "lat": 38.909457833333335, "is_reserved": 0, "type": "electric_scooter", "bike_id": "fe251a5586996eee6b429e9cf367daa7", "is_disabled": 0, "rental_uris": {"android": "https://dc.lft.to/lastmile_qr_scan", "ios": "https://dc.lft.to/lastmile_qr_scan"}, "lon": -77.0493715, "fusion_lat": 0.0}, {"name": "85f590cfefb99d6e1f86223c59e2bd2a", "fusion_lon": 0.0, "lat": 38.90676066666666, "is_reserved": 0, "type": "electric_scooter", "bike_id": "85f590cfefb99d6e1f86223c59e2bd2a", "is_disabled": 0, "rental_uris": {"android": "https://dc.lft.to/lastmile_qr_scan", "ios": "https://dc.lft.to/lastmile_qr_scan"}, "lon": -77.03757816666666, "fusion_lat": 0.0}, {"name": "6ca1e9db957f5b9303cd973cd4e7ed97", "fusion_lon": 0.0, "lat": 38.9111615, "is_reserved": 0, "type": "electric_scooter", "bike_id": "6ca1e9db957f5b9303cd973cd4e7ed97", "is_disabled": 0, "rental_uris": {"android": "https://dc.lft.to/lastmile_qr_scan", "ios": "https://dc.lft.to/lastmile_qr_scan"}, "lon": -77.00604766666666, "fusion_lat": 0.0}, {"name": "893103e99014024582cf388d5e7d9609", "fusion_lon": 0.0, "lat": 38.92229366666667, "is_reserved": 0, "type": "electric_scooter", "bike_id": "893103e99014024582cf388d5e7d9609", "is_disabled": 0, "rental_uris": {"android": "https://dc.lft.to/lastmile_qr_scan", "ios": "https://dc.lft.to/lastmile_qr_scan"}, "lon": -77.04494616666666, "fusion_lat": 0.0}, {"name": "762d23f171cf321ee92931ba324bbc1f", "fusion_lon": 0.0, "lat": 38.9156675, "is_reserved": 0, "type": "electric_scooter", "bike_id": "762d23f171cf321ee92931ba324bbc1f", "is_disabled": 0, "rental_uris": {"android": "https://dc.lft.to/lastmile_qr_scan", "ios": "https://dc.lft.to/lastmile_qr_scan"}, "lon": -77.04280866666667, "fusion_lat": 0.0}, {"name": "ddd8f098469904c9ffe74e68a807df3d", "fusion_lon": 0.0, "lat": 38.884944, "is_reserved": 0, "type": "electric_scooter", "bike_id": "ddd8f098469904c9ffe74e68a807df3d", "is_disabled": 0, "rental_uris": {"android": "https://dc.lft.to/lastmile_qr_scan", "ios": "https://dc.lft.to/lastmile_qr_scan"}, "lon": -77.00712216666666, "fusion_lat": 0.0}, {"name": "c2e7e7ad66cfcfd4933b50706830a4cf", "fusion_lon": 0.0, "lat": 38.9287775, "is_reserved": 0, "type": "electric_scooter", "bike_id": "c2e7e7ad66cfcfd4933b50706830a4cf", "is_disabled": 0, "rental_uris": {"android": "https://dc.lft.to/lastmile_qr_scan", "ios": "https://dc.lft.to/lastmile_qr_scan"}, "lon": -77.01364416666667, "fusion_lat": 0.0}, {"name": "c009dbc2a262662db1834e232e56bd04", "fusion_lon": 0.0, "lat": 38.90577116666667, "is_reserved": 0, "type": "electric_scooter", "bike_id": "c009dbc2a262662db1834e232e56bd04", "is_disabled": 0, "rental_uris": {"android": "https://dc.lft.to/lastmile_qr_scan", "ios": "https://dc.lft.to/lastmile_qr_scan"}, "lon": -77.03442133333333, "fusion_lat": 0.0}, {"name": "15b9b6c534102bff9e96062fb40397a4", "fusion_lon": 0.0, "lat": 38.892905166666665, "is_reserved": 0, "type": "electric_bike", "bike_id": "15b9b6c534102bff9e96062fb40397a4", "is_disabled": 0, "rental_uris": {"android": "https://dc.lft.to/lastmile_qr_scan", "ios": "https://dc.lft.to/lastmile_qr_scan"}, "lon": -76.97618883333334, "fusion_lat": 0.0}, {"name": "9c3de4a8732f89a60570856ffc9bb018", "fusion_lon": 0.0, "lat": 38.924561833333335, "is_reserved": 0, "type": "electric_scooter", "bike_id": "9c3de4a8732f89a60570856ffc9bb018", "is_disabled": 0, "rental_uris": {"android": "https://dc.lft.to/lastmile_qr_scan", "ios": "https://dc.lft.to/lastmile_qr_scan"}, "lon": -77.02715133333334, "fusion_lat": 0.0}, {"name": "54147135c305ba0593aaf815cc8c931f", "fusion_lon": 0.0, "lat": 38.906136833333335, "is_reserved": 0, "type": "electric_scooter", "bike_id": "54147135c305ba0593aaf815cc8c931f", "is_disabled": 0, "rental_uris": {"android": "https://dc.lft.to/lastmile_qr_scan", "ios": "https://dc.lft.to/lastmile_qr_scan"}, "lon": -77.06410966666667, "fusion_lat": 0.0}, {"name": "d13745a07488327dd48516a9008561db", "fusion_lon": 0.0, "lat": 38.887482166666665, "is_reserved": 0, "type": "electric_scooter", "bike_id": "d13745a07488327dd48516a9008561db", "is_disabled": 0, "rental_uris": {"android": "https://dc.lft.to/lastmile_qr_scan", "ios": "https://dc.lft.to/lastmile_qr_scan"}, "lon": -77.028439, "fusion_lat": 0.0}, {"name": "a9b902a33d62d522630533fdcc52613f", "fusion_lon": 0.0, "lat": 38.8961315, "is_reserved": 0, "type": "electric_scooter", "bike_id": "a9b902a33d62d522630533fdcc52613f", "is_disabled": 0, "rental_uris": {"android": "https://dc.lft.to/lastmile_qr_scan", "ios": "https://dc.lft.to/lastmile_qr_scan"}, "lon": -77.022028, "fusion_lat": 0.0}, {"name": "32b47a5d6e6fb79ea6bab3cef26421a9", "fusion_lon": 0.0, "lat": 38.9177095, "is_reserved": 0, "type": "electric_scooter", "bike_id": "32b47a5d6e6fb79ea6bab3cef26421a9", "is_disabled": 0, "rental_uris": {"android": "https://dc.lft.to/lastmile_qr_scan", "ios": "https://dc.lft.to/lastmile_qr_scan"}, "lon": -77.04057333333333, "fusion_lat": 0.0}, {"name": "d5a221d7ae8e6729626daefd8ce57385", "fusion_lon": 0.0, "lat": 38.95294766666667, "is_reserved": 0, "type": "electric_bike", "bike_id": "d5a221d7ae8e6729626daefd8ce57385", "is_disabled": 0, "rental_uris": {"android": "https://dc.lft.to/lastmile_qr_scan", "ios": "https://dc.lft.to/lastmile_qr_scan"}, "lon": -77.023997, "fusion_lat": 0.0}, {"name": "2953e5efaa90b0a60d34952c4f522bc2", "fusion_lon": 0.0, "lat": 38.915552, "is_reserved": 0, "type": "electric_scooter", "bike_id": "2953e5efaa90b0a60d34952c4f522bc2", "is_disabled": 0, "rental_uris": {"android": "https://dc.lft.to/lastmile_qr_scan", "ios": "https://dc.lft.to/lastmile_qr_scan"}, "lon": -77.04178316666666, "fusion_lat": 0.0}, {"name": "10a1fc68cd111a21455877fcb3122f88", "fusion_lon": 0.0, "lat": 38.9174055, "is_reserved": 0, "type": "electric_scooter", "bike_id": "10a1fc68cd111a21455877fcb3122f88", "is_disabled": 0, "rental_uris": {"android": "https://dc.lft.to/lastmile_qr_scan", "ios": "https://dc.lft.to/lastmile_qr_scan"}, "lon": -77.0211785, "fusion_lat": 0.0}, {"name": "306a71aff1566af2efa57b56513717b1", "fusion_lon": 0.0, "lat": 38.8788485, "is_reserved": 0, "type": "electric_bike", "bike_id": "306a71aff1566af2efa57b56513717b1", "is_disabled": 0, "rental_uris": {"android": "https://dc.lft.to/lastmile_qr_scan", "ios": "https://dc.lft.to/lastmile_qr_scan"}, "lon": -77.09614533333334, "fusion_lat": 0.0}, {"name": "ad4e0032e3db58c247cf5686259a20f1", "fusion_lon": 0.0, "lat": 38.925065833333335, "is_reserved": 0, "type": "electric_scooter", "bike_id": "ad4e0032e3db58c247cf5686259a20f1", "is_disabled": 0, "rental_uris": {"android": "https://dc.lft.to/lastmile_qr_scan", "ios": "https://dc.lft.to/lastmile_qr_scan"}, "lon": -77.0235625, "fusion_lat": 0.0}, {"name": "4ca5b8d584d9e50713dc9fe21fadebae", "fusion_lon": 0.0, "lat": 38.916934499999996, "is_reserved": 0, "type": "electric_scooter", "bike_id": "4ca5b8d584d9e50713dc9fe21fadebae", "is_disabled": 0, "rental_uris": {"android": "https://dc.lft.to/lastmile_qr_scan", "ios": "https://dc.lft.to/lastmile_qr_scan"}, "lon": -77.0426475, "fusion_lat": 0.0}, {"name": "547cc573b71178b1fb8e0b3b38032467", "fusion_lon": 0.0, "lat": 38.9244365, "is_reserved": 0, "type": "electric_scooter", "bike_id": "547cc573b71178b1fb8e0b3b38032467", "is_disabled": 0, "rental_uris": {"android": "https://dc.lft.to/lastmile_qr_scan", "ios": "https://dc.lft.to/lastmile_qr_scan"}, "lon": -77.04116933333333, "fusion_lat": 0.0}, {"name": "69c27f3b05c13523a98ad6c597e4a4e0", "fusion_lon": 0.0, "lat": 38.9034325, "is_reserved": 0, "type": "electric_scooter", "bike_id": "69c27f3b05c13523a98ad6c597e4a4e0", "is_disabled": 0, "rental_uris": {"android": "https://dc.lft.to/lastmile_qr_scan", "ios": "https://dc.lft.to/lastmile_qr_scan"}, "lon": -77.05017066666667, "fusion_lat": 0.0}, {"name": "3bee8a02059d4619a93ef84e8ea3af5d", "fusion_lon": 0.0, "lat": 38.88818466666667, "is_reserved": 0, "type": "electric_scooter", "bike_id": "3bee8a02059d4619a93ef84e8ea3af5d", "is_disabled": 0, "rental_uris": {"android": "https://dc.lft.to/lastmile_qr_scan", "ios": "https://dc.lft.to/lastmile_qr_scan"}, "lon": -77.01492433333334, "fusion_lat": 0.0}, {"name": "b457b8e9f48eeb4350381a7550b3b776", "fusion_lon": 0.0, "lat": 38.91275566666667, "is_reserved": 0, "type": "electric_scooter", "bike_id": "b457b8e9f48eeb4350381a7550b3b776", "is_disabled": 0, "rental_uris": {"android": "https://dc.lft.to/lastmile_qr_scan", "ios": "https://dc.lft.to/lastmile_qr_scan"}, "lon": -77.0450035, "fusion_lat": 0.0}, {"name": "1eaaa2e0bed0dde94c3a00a07cc4dba7", "fusion_lon": 0.0, "lat": 38.90972033333333, "is_reserved": 0, "type": "electric_scooter", "bike_id": "1eaaa2e0bed0dde94c3a00a07cc4dba7", "is_disabled": 0, "rental_uris": {"android": "https://dc.lft.to/lastmile_qr_scan", "ios": "https://dc.lft.to/lastmile_qr_scan"}, "lon": -77.038391, "fusion_lat": 0.0}, {"name": "81ccd26cccc900c939464354386b52f7", "fusion_lon": 0.0, "lat": 38.8977505, "is_reserved": 0, "type": "electric_scooter", "bike_id": "81ccd26cccc900c939464354386b52f7", "is_disabled": 0, "rental_uris": {"android": "https://dc.lft.to/lastmile_qr_scan", "ios": "https://dc.lft.to/lastmile_qr_scan"}, "lon": -77.00910466666667, "fusion_lat": 0.0}, {"name": "fa6eb23c1375f39ac79ba09123e07c07", "fusion_lon": 0.0, "lat": 38.93689083333334, "is_reserved": 0, "type": "electric_bike", "bike_id": "fa6eb23c1375f39ac79ba09123e07c07", "is_disabled": 0, "rental_uris": {"android": "https://dc.lft.to/lastmile_qr_scan", "ios": "https://dc.lft.to/lastmile_qr_scan"}, "lon": -76.99059566666666, "fusion_lat": 0.0}, {"name": "c140293c0f73416a2127d6ff4f914ce6", "fusion_lon": 0.0, "lat": 38.89540183333333, "is_reserved": 0, "type": "electric_scooter", "bike_id": "c140293c0f73416a2127d6ff4f914ce6", "is_disabled": 0, "rental_uris": {"android": "https://dc.lft.to/lastmile_qr_scan", "ios": "https://dc.lft.to/lastmile_qr_scan"}, "lon": -76.9490765, "fusion_lat": 0.0}, {"name": "e743df217aaa2352e8a51a6f12244bd7", "fusion_lon": 0.0, "lat": 38.92905566666667, "is_reserved": 0, "type": "electric_scooter", "bike_id": "e743df217aaa2352e8a51a6f12244bd7", "is_disabled": 0, "rental_uris": {"android": "https://dc.lft.to/lastmile_qr_scan", "ios": "https://dc.lft.to/lastmile_qr_scan"}, "lon": -77.062687, "fusion_lat": 0.0}, {"name": "92ec3cf6b377b983a60a09b18c5b2c4f", "fusion_lon": 0.0, "lat": 38.902660833333336, "is_reserved": 0, "type": "electric_scooter", "bike_id": "92ec3cf6b377b983a60a09b18c5b2c4f", "is_disabled": 0, "rental_uris": {"android": "https://dc.lft.to/lastmile_qr_scan", "ios": "https://dc.lft.to/lastmile_qr_scan"}, "lon": -77.0032575, "fusion_lat": 0.0}, {"name": "8695f06d7d0a073141c3f455b5a1a0e0", "fusion_lon": 0.0, "lat": 38.909117333333334, "is_reserved": 0, "type": "electric_scooter", "bike_id": "8695f06d7d0a073141c3f455b5a1a0e0", "is_disabled": 0, "rental_uris": {"android": "https://dc.lft.to/lastmile_qr_scan", "ios": "https://dc.lft.to/lastmile_qr_scan"}, "lon": -77.04210133333333, "fusion_lat": 0.0}, {"name": "533cc92f59c14c4c77a0bdce34da4ccd", "fusion_lon": 0.0, "lat": 38.89222683333333, "is_reserved": 0, "type": "electric_scooter", "bike_id": "533cc92f59c14c4c77a0bdce34da4ccd", "is_disabled": 0, "rental_uris": {"android": "https://dc.lft.to/lastmile_qr_scan", "ios": "https://dc.lft.to/lastmile_qr_scan"}, "lon": -77.0479895, "fusion_lat": 0.0}, {"name": "bf7a99e20e098545a7c2d7bcfdd404f5", "fusion_lon": 0.0, "lat": 38.9007195, "is_reserved": 0, "type": "electric_scooter", "bike_id": "bf7a99e20e098545a7c2d7bcfdd404f5", "is_disabled": 0, "rental_uris": {"android": "https://dc.lft.to/lastmile_qr_scan", "ios": "https://dc.lft.to/lastmile_qr_scan"}, "lon": -77.04875666666666, "fusion_lat": 0.0}, {"name": "bcb313ed776db4e3bb4c9a5a62b4dfe7", "fusion_lon": 0.0, "lat": 38.844265666666665, "is_reserved": 0, "type": "electric_scooter", "bike_id": "bcb313ed776db4e3bb4c9a5a62b4dfe7", "is_disabled": 0, "rental_uris": {"android": "https://dc.lft.to/lastmile_qr_scan", "ios": "https://dc.lft.to/lastmile_qr_scan"}, "lon": -76.99774983333333, "fusion_lat": 0.0}, {"name": "944930e2a162c0afcf6a0bcba2e929fe", "fusion_lon": 0.0, "lat": 38.92252283333333, "is_reserved": 0, "type": "electric_bike", "bike_id": "944930e2a162c0afcf6a0bcba2e929fe", "is_disabled": 0, "rental_uris": {"android": "https://dc.lft.to/lastmile_qr_scan", "ios": "https://dc.lft.to/lastmile_qr_scan"}, "lon": -77.01946016666666, "fusion_lat": 0.0}, {"name": "ba42054967fdb447fc3b106099aa6e25", "fusion_lon": 0.0, "lat": 38.891139833333334, "is_reserved": 0, "type": "electric_scooter", "bike_id": "ba42054967fdb447fc3b106099aa6e25", "is_disabled": 0, "rental_uris": {"android": "https://dc.lft.to/lastmile_qr_scan", "ios": "https://dc.lft.to/lastmile_qr_scan"}, "lon": -76.9915935, "fusion_lat": 0.0}, {"name": "ee166608d4fd4d1552d2b312630bb17f", "fusion_lon": 0.0, "lat": 38.916898333333336, "is_reserved": 0, "type": "electric_scooter", "bike_id": "ee166608d4fd4d1552d2b312630bb17f", "is_disabled": 0, "rental_uris": {"android": "https://dc.lft.to/lastmile_qr_scan", "ios": "https://dc.lft.to/lastmile_qr_scan"}, "lon": -77.033875, "fusion_lat": 0.0}, {"name": "3e404ccb977d07e234fc55776d60318d", "fusion_lon": 0.0, "lat": 38.922839833333335, "is_reserved": 0, "type": "electric_scooter", "bike_id": "3e404ccb977d07e234fc55776d60318d", "is_disabled": 0, "rental_uris": {"android": "https://dc.lft.to/lastmile_qr_scan", "ios": "https://dc.lft.to/lastmile_qr_scan"}, "lon": -77.04473883333333, "fusion_lat": 0.0}, {"name": "1c015f009500470e685471981d256f01", "fusion_lon": 0.0, "lat": 38.88742116666667, "is_reserved": 0, "type": "electric_scooter", "bike_id": "1c015f009500470e685471981d256f01", "is_disabled": 0, "rental_uris": {"android": "https://dc.lft.to/lastmile_qr_scan", "ios": "https://dc.lft.to/lastmile_qr_scan"}, "lon": -77.0257305, "fusion_lat": 0.0}, {"name": "f16d883347a9165acfbdee470b516d2d", "fusion_lon": 0.0, "lat": 38.90596716666667, "is_reserved": 0, "type": "electric_scooter", "bike_id": "f16d883347a9165acfbdee470b516d2d", "is_disabled": 0, "rental_uris": {"android": "https://dc.lft.to/lastmile_qr_scan", "ios": "https://dc.lft.to/lastmile_qr_scan"}, "lon": -77.02192533333333, "fusion_lat": 0.0}, {"name": "d6b4658d119e91cba3953fdada47573f", "fusion_lon": 0.0, "lat": 38.90254616666667, "is_reserved": 0, "type": "electric_scooter", "bike_id": "d6b4658d119e91cba3953fdada47573f", "is_disabled": 0, "rental_uris": {"android": "https://dc.lft.to/lastmile_qr_scan", "ios": "https://dc.lft.to/lastmile_qr_scan"}, "lon": -77.01725283333333, "fusion_lat": 0.0}, {"name": "6291e71285f282a3dcd4ec2eb38e177b", "fusion_lon": 0.0, "lat": 38.92947616666667, "is_reserved": 0, "type": "electric_scooter", "bike_id": "6291e71285f282a3dcd4ec2eb38e177b", "is_disabled": 0, "rental_uris": {"android": "https://dc.lft.to/lastmile_qr_scan", "ios": "https://dc.lft.to/lastmile_qr_scan"}, "lon": -77.032839, "fusion_lat": 0.0}, {"name": "e4c989da2d71467960250a86c6e7e971", "fusion_lon": 0.0, "lat": 38.90567033333333, "is_reserved": 0, "type": "electric_scooter", "bike_id": "e4c989da2d71467960250a86c6e7e971", "is_disabled": 0, "rental_uris": {"android": "https://dc.lft.to/lastmile_qr_scan", "ios": "https://dc.lft.to/lastmile_qr_scan"}, "lon": -77.00580116666667, "fusion_lat": 0.0}, {"name": "6998d8e34470bbca41f51f86ec444032", "fusion_lon": 0.0, "lat": 38.8757625, "is_reserved": 0, "type": "electric_scooter", "bike_id": "6998d8e34470bbca41f51f86ec444032", "is_disabled": 0, "rental_uris": {"android": "https://dc.lft.to/lastmile_qr_scan", "ios": "https://dc.lft.to/lastmile_qr_scan"}, "lon": -77.00587516666667, "fusion_lat": 0.0}, {"name": "b51bb3875d2c2dd9e4c362b9cdb9b8c2", "fusion_lon": 0.0, "lat": 38.8621515, "is_reserved": 0, "type": "electric_bike", "bike_id": "b51bb3875d2c2dd9e4c362b9cdb9b8c2", "is_disabled": 0, "rental_uris": {"android": "https://dc.lft.to/lastmile_qr_scan", "ios": "https://dc.lft.to/lastmile_qr_scan"}, "lon": -76.995553, "fusion_lat": 0.0}, {"name": "80c1523e4c4f0e28bdb40d257e281e42", "fusion_lon": 0.0, "lat": 38.915701, "is_reserved": 0, "type": "electric_scooter", "bike_id": "80c1523e4c4f0e28bdb40d257e281e42", "is_disabled": 0, "rental_uris": {"android": "https://dc.lft.to/lastmile_qr_scan", "ios": "https://dc.lft.to/lastmile_qr_scan"}, "lon": -77.0238545, "fusion_lat": 0.0}, {"name": "87f47caa71a70708d8e93ee4f048d8ba", "fusion_lon": 0.0, "lat": 38.916881833333335, "is_reserved": 0, "type": "electric_scooter", "bike_id": "87f47caa71a70708d8e93ee4f048d8ba", "is_disabled": 0, "rental_uris": {"android": "https://dc.lft.to/lastmile_qr_scan", "ios": "https://dc.lft.to/lastmile_qr_scan"}, "lon": -77.03154416666666, "fusion_lat": 0.0}, {"name": "d0f19807997bd74f7f6cd08ed3b7da20", "fusion_lon": 0.0, "lat": 38.914139666666664, "is_reserved": 0, "type": "electric_scooter", "bike_id": "d0f19807997bd74f7f6cd08ed3b7da20", "is_disabled": 0, "rental_uris": {"android": "https://dc.lft.to/lastmile_qr_scan", "ios": "https://dc.lft.to/lastmile_qr_scan"}, "lon": -77.04181783333334, "fusion_lat": 0.0}, {"name": "1519772f625dd96d401087e0e4e31184", "fusion_lon": 0.0, "lat": 38.92468183333333, "is_reserved": 0, "type": "electric_scooter", "bike_id": "1519772f625dd96d401087e0e4e31184", "is_disabled": 0, "rental_uris": {"android": "https://dc.lft.to/lastmile_qr_scan", "ios": "https://dc.lft.to/lastmile_qr_scan"}, "lon": -77.02833066666666, "fusion_lat": 0.0}, {"name": "17dea25023650e7c663d1006fd6d6e7e", "fusion_lon": 0.0, "lat": 38.95714683333333, "is_reserved": 0, "type": "electric_scooter", "bike_id": "17dea25023650e7c663d1006fd6d6e7e", "is_disabled": 0, "rental_uris": {"android": "https://dc.lft.to/lastmile_qr_scan", "ios": "https://dc.lft.to/lastmile_qr_scan"}, "lon": -77.07090283333334, "fusion_lat": 0.0}, {"name": "75a8dc72d5b61a2f374a563db932e90c", "fusion_lon": 0.0, "lat": 38.912751, "is_reserved": 0, "type": "electric_scooter", "bike_id": "75a8dc72d5b61a2f374a563db932e90c", "is_disabled": 0, "rental_uris": {"android": "https://dc.lft.to/lastmile_qr_scan", "ios": "https://dc.lft.to/lastmile_qr_scan"}, "lon": -77.0269245, "fusion_lat": 0.0}, {"name": "74cb4e1aa46430909e4262e5c705cab3", "fusion_lon": 0.0, "lat": 38.9176715, "is_reserved": 0, "type": "electric_scooter", "bike_id": "74cb4e1aa46430909e4262e5c705cab3", "is_disabled": 0, "rental_uris": {"android": "https://dc.lft.to/lastmile_qr_scan", "ios": "https://dc.lft.to/lastmile_qr_scan"}, "lon": -77.0146865, "fusion_lat": 0.0}, {"name": "49ed8af42dbc4df74af80efaf6e3e95d", "fusion_lon": 0.0, "lat": 38.903727833333335, "is_reserved": 0, "type": "electric_scooter", "bike_id": "49ed8af42dbc4df74af80efaf6e3e95d", "is_disabled": 0, "rental_uris": {"android": "https://dc.lft.to/lastmile_qr_scan", "ios": "https://dc.lft.to/lastmile_qr_scan"}, "lon": -76.937662, "fusion_lat": 0.0}, {"name": "881d686d81cf5e52c364af2ac10c5e46", "fusion_lon": 0.0, "lat": 38.90152633333334, "is_reserved": 0, "type": "electric_scooter", "bike_id": "881d686d81cf5e52c364af2ac10c5e46", "is_disabled": 0, "rental_uris": {"android": "https://dc.lft.to/lastmile_qr_scan", "ios": "https://dc.lft.to/lastmile_qr_scan"}, "lon": -76.93060983333334, "fusion_lat": 0.0}, {"name": "9508147116ca37116b49280b4d94d12d", "fusion_lon": 0.0, "lat": 38.918427333333334, "is_reserved": 0, "type": "electric_scooter", "bike_id": "9508147116ca37116b49280b4d94d12d", "is_disabled": 0, "rental_uris": {"android": "https://dc.lft.to/lastmile_qr_scan", "ios": "https://dc.lft.to/lastmile_qr_scan"}, "lon": -77.02198433333334, "fusion_lat": 0.0}, {"name": "b5ec7e385f4f0724c971361ba1fcfbd0", "fusion_lon": 0.0, "lat": 39.06296433333333, "is_reserved": 0, "type": "electric_bike", "bike_id": "b5ec7e385f4f0724c971361ba1fcfbd0", "is_disabled": 0, "rental_uris": {"android": "https://dc.lft.to/lastmile_qr_scan", "ios": "https://dc.lft.to/lastmile_qr_scan"}, "lon": -77.04979183333333, "fusion_lat": 0.0}, {"name": "c9e55afe462aa97ca37f9888d7725eef", "fusion_lon": 0.0, "lat": 38.90876, "is_reserved": 0, "type": "electric_scooter", "bike_id": "c9e55afe462aa97ca37f9888d7725eef", "is_disabled": 0, "rental_uris": {"android": "https://dc.lft.to/lastmile_qr_scan", "ios": "https://dc.lft.to/lastmile_qr_scan"}, "lon": -77.03751433333333, "fusion_lat": 0.0}, {"name": "09334a1a62dda956f625036137ac0ae7", "fusion_lon": 0.0, "lat": 38.89223466666667, "is_reserved": 0, "type": "electric_scooter", "bike_id": "09334a1a62dda956f625036137ac0ae7", "is_disabled": 0, "rental_uris": {"android": "https://dc.lft.to/lastmile_qr_scan", "ios": "https://dc.lft.to/lastmile_qr_scan"}, "lon": -77.0408435, "fusion_lat": 0.0}, {"name": "b1c66c05fbc5e4518cb8e30441bd4cdf", "fusion_lon": 0.0, "lat": 38.9181745, "is_reserved": 0, "type": "electric_scooter", "bike_id": "b1c66c05fbc5e4518cb8e30441bd4cdf", "is_disabled": 0, "rental_uris": {"android": "https://dc.lft.to/lastmile_qr_scan", "ios": "https://dc.lft.to/lastmile_qr_scan"}, "lon": -77.0249285, "fusion_lat": 0.0}, {"name": "09bbb953c45d3ccf32762d6a3b10a01d", "fusion_lon": 0.0, "lat": 38.90711733333333, "is_reserved": 0, "type": "electric_scooter", "bike_id": "09bbb953c45d3ccf32762d6a3b10a01d", "is_disabled": 0, "rental_uris": {"android": "https://dc.lft.to/lastmile_qr_scan", "ios": "https://dc.lft.to/lastmile_qr_scan"}, "lon": -77.010117, "fusion_lat": 0.0}, {"name": "19f8e280691a47c5d5e83eb97d1a61d0", "fusion_lon": 0.0, "lat": 38.905628, "is_reserved": 0, "type": "electric_scooter", "bike_id": "19f8e280691a47c5d5e83eb97d1a61d0", "is_disabled": 0, "rental_uris": {"android": "https://dc.lft.to/lastmile_qr_scan", "ios": "https://dc.lft.to/lastmile_qr_scan"}, "lon": -77.0433365, "fusion_lat": 0.0}, {"name": "b63661c4753e847bd3763862add86ca1", "fusion_lon": 0.0, "lat": 38.90045466666667, "is_reserved": 0, "type": "electric_scooter", "bike_id": "b63661c4753e847bd3763862add86ca1", "is_disabled": 0, "rental_uris": {"android": "https://dc.lft.to/lastmile_qr_scan", "ios": "https://dc.lft.to/lastmile_qr_scan"}, "lon": -76.98837633333333, "fusion_lat": 0.0}, {"name": "3b689395178aa205eeeed301ca1b6582", "fusion_lon": 0.0, "lat": 38.92838483333333, "is_reserved": 0, "type": "electric_scooter", "bike_id": "3b689395178aa205eeeed301ca1b6582", "is_disabled": 0, "rental_uris": {"android": "https://dc.lft.to/lastmile_qr_scan", "ios": "https://dc.lft.to/lastmile_qr_scan"}, "lon": -77.014041, "fusion_lat": 0.0}, {"name": "41fde33b654657b1291f5bb79f5706b7", "fusion_lon": 0.0, "lat": 38.90357783333333, "is_reserved": 0, "type": "electric_scooter", "bike_id": "41fde33b654657b1291f5bb79f5706b7", "is_disabled": 0, "rental_uris": {"android": "https://dc.lft.to/lastmile_qr_scan", "ios": "https://dc.lft.to/lastmile_qr_scan"}, "lon": -76.97477833333333, "fusion_lat": 0.0}, {"name": "c94b81425f16c22424bd0bdae30dea25", "fusion_lon": 0.0, "lat": 38.91912883333333, "is_reserved": 0, "type": "electric_scooter", "bike_id": "c94b81425f16c22424bd0bdae30dea25", "is_disabled": 0, "rental_uris": {"android": "https://dc.lft.to/lastmile_qr_scan", "ios": "https://dc.lft.to/lastmile_qr_scan"}, "lon": -77.02512383333334, "fusion_lat": 0.0}, {"name": "eeb82c6ed00cf1b0775219c2f1e713f4", "fusion_lon": 0.0, "lat": 38.92120116666667, "is_reserved": 0, "type": "electric_scooter", "bike_id": "eeb82c6ed00cf1b0775219c2f1e713f4", "is_disabled": 0, "rental_uris": {"android": "https://dc.lft.to/lastmile_qr_scan", "ios": "https://dc.lft.to/lastmile_qr_scan"}, "lon": -77.045774, "fusion_lat": 0.0}, {"name": "f7574616fe7c472ad0626873315d1942", "fusion_lon": 0.0, "lat": 38.900354, "is_reserved": 0, "type": "electric_scooter", "bike_id": "f7574616fe7c472ad0626873315d1942", "is_disabled": 0, "rental_uris": {"android": "https://dc.lft.to/lastmile_qr_scan", "ios": "https://dc.lft.to/lastmile_qr_scan"}, "lon": -77.02907683333333, "fusion_lat": 0.0}, {"name": "72cde91efa535103544cfe960e25c9a3", "fusion_lon": 0.0, "lat": 38.92511066666667, "is_reserved": 0, "type": "electric_scooter", "bike_id": "72cde91efa535103544cfe960e25c9a3", "is_disabled": 0, "rental_uris": {"android": "https://dc.lft.to/lastmile_qr_scan", "ios": "https://dc.lft.to/lastmile_qr_scan"}, "lon": -77.05256116666666, "fusion_lat": 0.0}, {"name": "0315808fad38a3442620e5dc7a62e5f8", "fusion_lon": 0.0, "lat": 38.907327, "is_reserved": 0, "type": "electric_scooter", "bike_id": "0315808fad38a3442620e5dc7a62e5f8", "is_disabled": 0, "rental_uris": {"android": "https://dc.lft.to/lastmile_qr_scan", "ios": "https://dc.lft.to/lastmile_qr_scan"}, "lon": -77.0438575, "fusion_lat": 0.0}, {"name": "651b83e9be880d8344887f46b4a5e58c", "fusion_lon": 0.0, "lat": 38.90243133333333, "is_reserved": 0, "type": "electric_scooter", "bike_id": "651b83e9be880d8344887f46b4a5e58c", "is_disabled": 0, "rental_uris": {"android": "https://dc.lft.to/lastmile_qr_scan", "ios": "https://dc.lft.to/lastmile_qr_scan"}, "lon": -77.0019905, "fusion_lat": 0.0}, {"name": "1137012a429c02f142a1f11de32d6803", "fusion_lon": 0.0, "lat": 38.92151, "is_reserved": 0, "type": "electric_scooter", "bike_id": "1137012a429c02f142a1f11de32d6803", "is_disabled": 0, "rental_uris": {"android": "https://dc.lft.to/lastmile_qr_scan", "ios": "https://dc.lft.to/lastmile_qr_scan"}, "lon": -77.03463616666667, "fusion_lat": 0.0}, {"name": "cbd45ca79f5bbc711a8ced081f2bdfba", "fusion_lon": 0.0, "lat": 38.934521, "is_reserved": 0, "type": "electric_scooter", "bike_id": "cbd45ca79f5bbc711a8ced081f2bdfba", "is_disabled": 0, "rental_uris": {"android": "https://dc.lft.to/lastmile_qr_scan", "ios": "https://dc.lft.to/lastmile_qr_scan"}, "lon": -77.02730583333333, "fusion_lat": 0.0}, {"name": "208859c3366641f930f6e1567c9f6d68", "fusion_lon": 0.0, "lat": 38.905987833333334, "is_reserved": 0, "type": "electric_scooter", "bike_id": "208859c3366641f930f6e1567c9f6d68", "is_disabled": 0, "rental_uris": {"android": "https://dc.lft.to/lastmile_qr_scan", "ios": "https://dc.lft.to/lastmile_qr_scan"}, "lon": -77.02113416666667, "fusion_lat": 0.0}, {"name": "a86d651b451a8f7b7a37cbe6fb49b9fb", "fusion_lon": 0.0, "lat": 38.900194666666664, "is_reserved": 0, "type": "electric_scooter", "bike_id": "a86d651b451a8f7b7a37cbe6fb49b9fb", "is_disabled": 0, "rental_uris": {"android": "https://dc.lft.to/lastmile_qr_scan", "ios": "https://dc.lft.to/lastmile_qr_scan"}, "lon": -77.045043, "fusion_lat": 0.0}, {"name": "637d60de3a2c2917310b34734463f437", "fusion_lon": 0.0, "lat": 38.838389166666666, "is_reserved": 0, "type": "electric_bike", "bike_id": "637d60de3a2c2917310b34734463f437", "is_disabled": 0, "rental_uris": {"android": "https://dc.lft.to/lastmile_qr_scan", "ios": "https://dc.lft.to/lastmile_qr_scan"}, "lon": -77.00242433333334, "fusion_lat": 0.0}, {"name": "71dec00d42c5d12124e07f6cd815603a", "fusion_lon": 0.0, "lat": 38.892390166666665, "is_reserved": 0, "type": "electric_scooter", "bike_id": "71dec00d42c5d12124e07f6cd815603a", "is_disabled": 0, "rental_uris": {"android": "https://dc.lft.to/lastmile_qr_scan", "ios": "https://dc.lft.to/lastmile_qr_scan"}, "lon": -77.03209466666667, "fusion_lat": 0.0}, {"name": "3188c1016ce10a9f4d510167711c2548", "fusion_lon": 0.0, "lat": 38.908539833333336, "is_reserved": 0, "type": "electric_scooter", "bike_id": "3188c1016ce10a9f4d510167711c2548", "is_disabled": 0, "rental_uris": {"android": "https://dc.lft.to/lastmile_qr_scan", "ios": "https://dc.lft.to/lastmile_qr_scan"}, "lon": -77.02543666666666, "fusion_lat": 0.0}, {"name": "de7694c95b7d1a6d30b593c6db3717f8", "fusion_lon": 0.0, "lat": 38.90661683333333, "is_reserved": 0, "type": "electric_scooter", "bike_id": "de7694c95b7d1a6d30b593c6db3717f8", "is_disabled": 0, "rental_uris": {"android": "https://dc.lft.to/lastmile_qr_scan", "ios": "https://dc.lft.to/lastmile_qr_scan"}, "lon": -77.0385025, "fusion_lat": 0.0},