{"data": {"bikes": [{"lon": -77.03096166666667, "name": "5e4dc969624f7244b8ceac548ab85eb2", "is_disabled": 0, "type": "electric_scooter", "is_reserved": 0, "fusion_lon": 0.0, "lat": 38.89528116666666, "rental_uris": {"ios": "https://dc.lft.to/lastmile_qr_scan", "android": "https://dc.lft.to/lastmile_qr_scan"}, "bike_id": "5e4dc969624f7244b8ceac548ab85eb2", "fusion_lat": 0.0}, {"lon": -77.02851583333333, "name": "c340502f1079ebaffd416d0cccdd714e", "is_disabled": 0, "type": "electric_scooter", "is_reserved": 0, "fusion_lon": 0.0, "lat": 38.94491433333334, "rental_uris": {"ios": "https://dc.lft.to/lastmile_qr_scan", "android": "https://dc.lft.to/lastmile_qr_scan"}, "bike_id": "c340502f1079ebaffd416d0cccdd714e", "fusion_lat": 0.0}, {"lon": -77.02415716666667, "name": "f3d962ef1344c578a751fc431dfac685", "is_disabled": 0, "type": "electric_bike", "is_reserved": 0, "fusion_lon": 0.0, "lat": 38.95692, "rental_uris": {"ios": "https://dc.lft.to/lastmile_qr_scan", "android": "https://dc.lft.to/lastmile_qr_scan"}, "bike_id": "f3d962ef1344c578a751fc431dfac685", "fusion_lat": 0.0}, {"lon": -77.02136233333333, "name": "244c58d5318f3fff0ba447061185cc68", "is_disabled": 0, "type": "electric_scooter", "is_reserved": 0, "fusion_lon": 0.0, "lat": 38.92248716666667, "rental_uris": {"ios": "https://dc.lft.to/lastmile_qr_scan", "android": "https://dc.lft.to/lastmile_qr_scan"}, "bike_id": "244c58d5318f3fff0ba447061185cc68", "fusion_lat": 0.0}, {"lon": -76.93723483333333, "name": "a430b82718f6a474c397715401799a94", "is_disabled": 0, "type": "electric_scooter", "is_reserved": 0, "fusion_lon": 0.0, "lat": 38.886572, "rental_uris": {"ios": "https://dc.lft.to/lastmile_qr_scan", "android": "https://dc.lft.to/lastmile_qr_scan"}, "bike_id": "a430b82718f6a474c397715401799a94", "fusion_lat": 0.0}, {"lon": -77.02166016666666, "name": "2793910d435e8ba70f1fb831146cce34", "is_disabled": 0, "type": "electric_scooter", "is_reserved": 0, "fusion_lon": 0.0, "lat": 38.9260845, "rental_uris": {"ios": "https://dc.lft.to/lastmile_qr_scan", "android": "https://dc.lft.to/lastmile_qr_scan"}, "bike_id": "2793910d435e8ba70f1fb831146cce34", "fusion_lat": 0.0}, {"lon": -77.00921616666666, "name": "82862da501dc614e0673564704ec7fae", "is_disabled": 0, "type": "electric_scooter", "is_reserved": 0, "fusion_lon": 0.0, "lat": 38.895573166666665, "rental_uris": {"ios": "https://dc.lft.to/lastmile_qr_scan", "android": "https://dc.lft.to/lastmile_qr_scan"}, "bike_id": "82862da501dc614e0673564704ec7fae", "fusion_lat": 0.0}, {"lon": -77.04682233333334, "name": "f835be4c707fe0a93bf2c8afc01b714b", "is_disabled": 0, "type": "electric_scooter", "is_reserved": 0, "fusion_lon": 0.0, "lat": 38.892203333333335, "rental_uris": {"ios": "https://dc.lft.to/lastmile_qr_scan", "android": "https://dc.lft.to/lastmile_qr_scan"}, "bike_id": "f835be4c707fe0a93bf2c8afc01b714b", "fusion_lat": 0.0}, {"lon": -77.03187366666667, "name": "d0ea2fa47b9165ceb66e21dea95f3747", "is_disabled": 0, "type": "electric_scooter", "is_reserved": 0, "fusion_lon": 0.0, "lat": 38.917985333333334, "rental_uris": {"ios": "https://dc.lft.to/lastmile_qr_scan", "android": "https://dc.lft.to/lastmile_qr_scan"}, "bike_id": "d0ea2fa47b9165ceb66e21dea95f3747", "fusion_lat": 0.0}, {"lon": -77.01989666666667, "name": "fc3d5fc8782fc35d40eb4419598bed00", "is_disabled": 0, "type": "electric_scooter", "is_reserved": 0, "fusion_lon": 0.0, "lat": 38.9155635, "rental_uris": {"ios": "https://dc.lft.to/lastmile_qr_scan", "android": "https://dc.lft.to/lastmile_qr_scan"}, "bike_id": "fc3d5fc8782fc35d40eb4419598bed00", "fusion_lat": 0.0}, {"lon": -76.981149, "name": "801e701c7559a80773cbb8d7d14e52c0", "is_disabled": 0, "type": "electric_bike", "is_reserved": 0, "fusion_lon": 0.0, "lat": 38.94568616666667, "rental_uris": {"ios": "https://dc.lft.to/lastmile_qr_scan", "android": "https://dc.lft.to/lastmile_qr_scan"}, "bike_id": "801e701c7559a80773cbb8d7d14e52c0", "fusion_lat": 0.0}, {"lon": -77.02434816666667, "name": "d0dc5e652c5226745a3f5af61219d9f9", "is_disabled": 0, "type": "electric_scooter", "is_reserved": 0, "fusion_lon": 0.0, "lat": 38.96793316666667, "rental_uris": {"ios": "https://dc.lft.to/lastmile_qr_scan", "android": "https://dc.lft.to/lastmile_qr_scan"}, "bike_id": "d0dc5e652c5226745a3f5af61219d9f9", "fusion_lat": 0.0}, {"lon": -77.01942783333334, "name": "7e3eb225a5c39cfb1735132cc8c7df46", "is_disabled": 0, "type": "electric_scooter", "is_reserved": 0, "fusion_lon": 0.0, "lat": 38.92249566666667, "rental_uris": {"ios": "https://dc.lft.to/lastmile_qr_scan", "android": "https://dc.lft.to/lastmile_qr_scan"}, "bike_id": "7e3eb225a5c39cfb1735132cc8c7df46", "fusion_lat": 0.0}, {"lon": -77.02258866666666, "name": "0a777a965c659c7f83736c0ff7a994ba", "is_disabled": 0, "type": "electric_scooter", "is_reserved": 0, "fusion_lon": 0.0, "lat": 38.9282185, "rental_uris": {"ios": "https://dc.lft.to/lastmile_qr_scan", "android": "https://dc.lft.to/lastmile_qr_scan"}, "bike_id": "0a777a965c659c7f83736c0ff7a994ba", "fusion_lat": 0.0}, {"lon": -77.03898266666667, "name": "7f1213bf05f77d20d2aa09dff8f1b6f1", "is_disabled": 0, "type": "electric_scooter", "is_reserved": 0, "fusion_lon": 0.0, "lat": 38.920432166666664, "rental_uris": {"ios": "https://dc.lft.to/lastmile_qr_scan", "android": "https://dc.lft.to/lastmile_qr_scan"}, "bike_id": "7f1213bf05f77d20d2aa09dff8f1b6f1", "fusion_lat": 0.0}, {"lon": -77.23411833333333, "name": "266afc9610abe16b24f4e4a5c3dd5a19", "is_disabled": 0, "type": "electric_bike", "is_reserved": 0, "fusion_lon": 0.0, "lat": 38.875753, "rental_uris": {"ios": "https://dc.lft.to/lastmile_qr_scan", "android": "https://dc.lft.to/lastmile_qr_scan"}, "bike_id": "266afc9610abe16b24f4e4a5c3dd5a19", "fusion_lat": 0.0}, {"lon": -77.07704033333333, "name": "111311a5b3054f483cca382e370c247b", "is_disabled": 0, "type": "electric_scooter", "is_reserved": 0, "fusion_lon": 0.0, "lat": 38.92242866666667, "rental_uris": {"ios": "https://dc.lft.to/lastmile_qr_scan", "android": "https://dc.lft.to/lastmile_qr_scan"}, "bike_id": "111311a5b3054f483cca382e370c247b", "fusion_lat": 0.0}, {"lon": -77.00552083333334, "name": "92d6ba7b73af477256cb5d5b620c578c", "is_disabled": 0, "type": "electric_bike", "is_reserved": 0, "fusion_lon": 0.0, "lat": 38.9274035, "rental_uris": {"ios": "https://dc.lft.to/lastmile_qr_scan", "android": "https://dc.lft.to/lastmile_qr_scan"}, "bike_id": "92d6ba7b73af477256cb5d5b620c578c", "fusion_lat": 0.0}, {"lon": -77.00575733333334, "name": "86c1a46127f052b9b1cb04009414e330", "is_disabled": 0, "type": "electric_scooter", "is_reserved": 0, "fusion_lon": 0.0, "lat": 38.8850015, "rental_uris": {"ios": "https://dc.lft.to/lastmile_qr_scan", "android": "https://dc.lft.to/lastmile_qr_scan"}, "bike_id": "86c1a46127f052b9b1cb04009414e330", "fusion_lat": 0.0}, {"lon": -77.02188983333333, "name": "46cd1342f045269d6e9c26b9228f6801", "is_disabled": 0, "type": "electric_scooter", "is_reserved": 0, "fusion_lon": 0.0, "lat": 38.919843166666666, "rental_uris": {"ios": "https://dc.lft.to/lastmile_qr_scan", "android": "https://dc.lft.to/lastmile_qr_scan"}, "bike_id": "46cd1342f045269d6e9c26b9228f6801", "fusion_lat": 0.0}, {"lon": -77.02370333333333, "name": "bbfa82010a5e12938110687618f3b763", "is_disabled": 0, "type": "electric_scooter", "is_reserved": 0, "fusion_lon": 0.0, "lat": 38.9086195, "rental_uris": {"ios": "https://dc.lft.to/lastmile_qr_scan", "android": "https://dc.lft.to/lastmile_qr_scan"}, "bike_id": "bbfa82010a5e12938110687618f3b763", "fusion_lat": 0.0}, {"lon": -77.02510666666667, "name": "61dabe12fab5a8e0fbf182172dd027be", "is_disabled": 0, "type": "electric_scooter", "is_reserved": 0, "fusion_lon": 0.0, "lat": 38.9206215, "rental_uris": {"ios": "https://dc.lft.to/lastmile_qr_scan", "android": "https://dc.lft.to/lastmile_qr_scan"}, "bike_id": "61dabe12fab5a8e0fbf182172dd027be", "fusion_lat": 0.0}, {"lon": -77.02570866666667, "name": "f7ca4a67a70119413bcb66238381e69a", "is_disabled": 0, "type": "electric_scooter", "is_reserved": 0, "fusion_lon": 0.0, "lat": 38.887417666666664, "rental_uris": {"ios": "https://dc.lft.to/lastmile_qr_scan", "android": "https://dc.lft.to/lastmile_qr_scan"}, "bike_id": "f7ca4a67a70119413bcb66238381e69a", "fusion_lat": 0.0}, {"lon": -77.0320385, "name": "9b6321dc088079989d9229fe8206921d", "is_disabled": 0, "type": "electric_scooter", "is_reserved": 0, "fusion_lon": 0.0, "lat": 38.92291433333333, "rental_uris": {"ios": "https://dc.lft.to/lastmile_qr_scan", "android": "https://dc.lft.to/lastmile_qr_scan"}, "bike_id": "9b6321dc088079989d9229fe8206921d", "fusion_lat": 0.0}, {"lon": -77.04303783333333, "name": "203c9e429d56f837893ab40e0d18aaf0", "is_disabled": 0, "type": "electric_scooter", "is_reserved": 0, "fusion_lon": 0.0, "lat": 38.923898, "rental_uris": {"ios": "https://dc.lft.to/lastmile_qr_scan", "android": "https://dc.lft.to/lastmile_qr_scan"}, "bike_id": "203c9e429d56f837893ab40e0d18aaf0", "fusion_lat": 0.0}, {"lon": -76.93927766666667, "name": "8af2d77e53d62cbe8ce16751b938a493", "is_disabled": 0, "type": "electric_scooter", "is_reserved": 0, "fusion_lon": 0.0, "lat": 38.89328116666667, "rental_uris": {"ios": "https://dc.lft.to/lastmile_qr_scan", "android": "https://dc.lft.to/lastmile_qr_scan"}, "bike_id": "8af2d77e53d62cbe8ce16751b938a493", "fusion_lat": 0.0}, {"lon": -77.00589383333333, "name": "431134afec7d694ec3da1c021f1a629e", "is_disabled": 0, "type": "electric_scooter", "is_reserved": 0, "fusion_lon": 0.0, "lat": 38.902304, "rental_uris": {"ios": "https://dc.lft.to/lastmile_qr_scan", "android": "https://dc.lft.to/lastmile_qr_scan"}, "bike_id": "431134afec7d694ec3da1c021f1a629e", "fusion_lat": 0.0}, {"lon": -77.04668383333333, "name": "68691948b9dbc8be294e47931e406cb3", "is_disabled": 0, "type": "electric_scooter", "is_reserved": 0, "fusion_lon": 0.0, "lat": 38.89860616666667, "rental_uris": {"ios": "https://dc.lft.to/lastmile_qr_scan", "android": "https://dc.lft.to/lastmile_qr_scan"}, "bike_id": "68691948b9dbc8be294e47931e406cb3", "fusion_lat": 0.0}, {"lon": -76.98416633333333, "name": "3fd4632cd1823268031224535279286c", "is_disabled": 0, "type": "electric_scooter", "is_reserved": 0, "fusion_lon": 0.0, "lat": 38.913902, "rental_uris": {"ios": "https://dc.lft.to/lastmile_qr_scan", "android": "https://dc.lft.to/lastmile_qr_scan"}, "bike_id": "3fd4632cd1823268031224535279286c", "fusion_lat": 0.0}, {"lon": -77.03448283333333, "name": "ec7726888822fbfbbf72453f29344569", "is_disabled": 0, "type": "electric_scooter", "is_reserved": 0, "fusion_lon": 0.0, "lat": 38.928652166666666, "rental_uris": {"ios": "https://dc.lft.to/lastmile_qr_scan", "android": "https://dc.lft.to/lastmile_qr_scan"}, "bike_id": "ec7726888822fbfbbf72453f29344569", "fusion_lat": 0.0}, {"lon": -77.023798, "name": "887808aaff57e202058256192e3d0c19", "is_disabled": 0, "type": "electric_scooter", "is_reserved": 0, "fusion_lon": 0.0, "lat": 38.931011833333336, "rental_uris": {"ios": "https://dc.lft.to/lastmile_qr_scan", "android": "https://dc.lft.to/lastmile_qr_scan"}, "bike_id": "887808aaff57e202058256192e3d0c19", "fusion_lat": 0.0}, {"lon": -77.04465933333333, "name": "7596cc44ef0aa5ebab04369ac2d8fd4d", "is_disabled": 0, "type": "electric_scooter", "is_reserved": 0, "fusion_lon": 0.0, "lat": 38.91535366666667, "rental_uris": {"ios": "https://dc.lft.to/lastmile_qr_scan", "android": "https://dc.lft.to/lastmile_qr_scan"}, "bike_id": "7596cc44ef0aa5ebab04369ac2d8fd4d", "fusion_lat": 0.0}, {"lon": -76.98828733333333, "name": "b953a16e574a47c803218ec0c8f1dac2", "is_disabled": 0, "type": "electric_scooter", "is_reserved": 0, "fusion_lon": 0.0, "lat": 38.880748833333335, "rental_uris": {"ios": "https://dc.lft.to/lastmile_qr_scan", "android": "https://dc.lft.to/lastmile_qr_scan"}, "bike_id": "b953a16e574a47c803218ec0c8f1dac2", "fusion_lat": 0.0}, {"lon": -77.07198266666667, "name": "64d7e2d705fc0b9c48298d091d86fdb6", "is_disabled": 0, "type": "electric_scooter", "is_reserved": 0, "fusion_lon": 0.0, "lat": 38.906660333333335, "rental_uris": {"ios": "https://dc.lft.to/lastmile_qr_scan", "android": "https://dc.lft.to/lastmile_qr_scan"}, "bike_id": "64d7e2d705fc0b9c48298d091d86fdb6", "fusion_lat": 0.0}, {"lon": -77.03296, "name": "c83396e7fab105365c5a60e9fa90256f", "is_disabled": 0, "type": "electric_scooter", "is_reserved": 0, "fusion_lon": 0.0, "lat": 38.904353666666665, "rental_uris": {"ios": "https://dc.lft.to/lastmile_qr_scan", "android": "https://dc.lft.to/lastmile_qr_scan"}, "bike_id": "c83396e7fab105365c5a60e9fa90256f", "fusion_lat": 0.0}, {"lon": -77.02192433333333, "name": "ad7469751aaf14e5b792b93acd6a28b0", "is_disabled": 0, "type": "electric_scooter", "is_reserved": 0, "fusion_lon": 0.0, "lat": 38.90006016666667, "rental_uris": {"ios": "https://dc.lft.to/lastmile_qr_scan", "android": "https://dc.lft.to/lastmile_qr_scan"}, "bike_id": "ad7469751aaf14e5b792b93acd6a28b0", "fusion_lat": 0.0}, {"lon": -76.965442, "name": "991e4bacaed82223be9037613bfa72a9", "is_disabled": 0, "type": "electric_scooter", "is_reserved": 0, "fusion_lon": 0.0, "lat": 38.87884316666667, "rental_uris": {"ios": "https://dc.lft.to/lastmile_qr_scan", "android": "https://dc.lft.to/lastmile_qr_scan"}, "bike_id": "991e4bacaed82223be9037613bfa72a9", "fusion_lat": 0.0}, {"lon": -77.0054075, "name": "7afa542c6942783e4ab52edba66638e5", "is_disabled": 0, "type": "electric_scooter", "is_reserved": 0, "fusion_lon": 0.0, "lat": 38.875443, "rental_uris": {"ios": "https://dc.lft.to/lastmile_qr_scan", "android": "https://dc.lft.to/lastmile_qr_scan"}, "bike_id": "7afa542c6942783e4ab52edba66638e5", "fusion_lat": 0.0}, {"lon": -77.04406816666666, "name": "e53a84c966eb7646ee1cdbbf58402f28", "is_disabled": 0, "type": "electric_scooter", "is_reserved": 0, "fusion_lon": 0.0, "lat": 38.929496666666665, "rental_uris": {"ios": "https://dc.lft.to/lastmile_qr_scan", "android": "https://dc.lft.to/lastmile_qr_scan"}, "bike_id": "e53a84c966eb7646ee1cdbbf58402f28", "fusion_lat": 0.0}, {"lon": -77.0208515, "name": "44f7afc22e5b76fc3e286a8fafb5b8bb", "is_disabled": 0, "type": "electric_scooter", "is_reserved": 0, "fusion_lon": 0.0, "lat": 38.8973435, "rental_uris": {"ios": "https://dc.lft.to/lastmile_qr_scan", "android": "https://dc.lft.to/lastmile_qr_scan"}, "bike_id": "44f7afc22e5b76fc3e286a8fafb5b8bb", "fusion_lat": 0.0}, {"lon": -77.028212, "name": "8ce9ebe07ebb27af6d65804d29e506a4", "is_disabled": 0, "type": "electric_scooter", "is_reserved": 0, "fusion_lon": 0.0, "lat": 38.9223455, "rental_uris": {"ios": "https://dc.lft.to/lastmile_qr_scan", "android": "https://dc.lft.to/lastmile_qr_scan"}, "bike_id": "8ce9ebe07ebb27af6d65804d29e506a4", "fusion_lat": 0.0}, {"lon": -77.0348785, "name": "f3eb995a2a60ae3a88639840209be38c", "is_disabled": 0, "type": "electric_scooter", "is_reserved": 0, "fusion_lon": 0.0, "lat": 38.92341316666667, "rental_uris": {"ios": "https://dc.lft.to/lastmile_qr_scan", "android": "https://dc.lft.to/lastmile_qr_scan"}, "bike_id": "f3eb995a2a60ae3a88639840209be38c", "fusion_lat": 0.0}, {"lon": -77.03200183333334, "name": "39d32c95048c6c5beb1f5662fb938e35", "is_disabled": 0, "type": "electric_scooter", "is_reserved": 0, "fusion_lon": 0.0, "lat": 38.9162125, "rental_uris": {"ios": "https://dc.lft.to/lastmile_qr_scan", "android": "https://dc.lft.to/lastmile_qr_scan"}, "bike_id": "39d32c95048c6c5beb1f5662fb938e35", "fusion_lat": 0.0}, {"lon": -77.023144, "name": "0536704d944e21ee3a8d5ee7b5ad40b9", "is_disabled": 0, "type": "electric_scooter", "is_reserved": 0, "fusion_lon": 0.0, "lat": 38.920616333333335, "rental_uris": {"ios": "https://dc.lft.to/lastmile_qr_scan", "android": "https://dc.lft.to/lastmile_qr_scan"}, "bike_id": "0536704d944e21ee3a8d5ee7b5ad40b9", "fusion_lat": 0.0}, {"lon": -77.00221333333333, "name": "ab65f6127d7f6c06e0a841fac223a813", "is_disabled": 0, "type": "electric_scooter", "is_reserved": 0, "fusion_lon": 0.0, "lat": 38.95734016666667, "rental_uris": {"ios": "https://dc.lft.to/lastmile_qr_scan", "android": "https://dc.lft.to/lastmile_qr_scan"}, "bike_id": "ab65f6127d7f6c06e0a841fac223a813", "fusion_lat": 0.0}, {"lon": -77.01223816666666, "name": "21556f1c3d4b35829ae2135f54085461", "is_disabled": 0, "type": "electric_scooter", "is_reserved": 0, "fusion_lon": 0.0, "lat": 38.9251235, "rental_uris": {"ios": "https://dc.lft.to/lastmile_qr_scan", "android": "https://dc.lft.to/lastmile_qr_scan"}, "bike_id": "21556f1c3d4b35829ae2135f54085461", "fusion_lat": 0.0}, {"lon": -77.05934133333334, "name": "826a0436909a43e4889ca23cc83aac6d", "is_disabled": 0, "type": "electric_scooter", "is_reserved": 0, "fusion_lon": 0.0, "lat": 38.94301566666667, "rental_uris": {"ios": "https://dc.lft.to/lastmile_qr_scan", "android": "https://dc.lft.to/lastmile_qr_scan"}, "bike_id": "826a0436909a43e4889ca23cc83aac6d", "fusion_lat": 0.0}, {"lon": -77.03284233333333, "name": "1a01b892ccf0d3466af7720c13ce258a", "is_disabled": 0, "type": "electric_scooter", "is_reserved": 0, "fusion_lon": 0.0, "lat": 38.935797666666666, "rental_uris": {"ios": "https://dc.lft.to/lastmile_qr_scan", "android": "https://dc.lft.to/lastmile_qr_scan"}, "bike_id": "1a01b892ccf0d3466af7720c13ce258a", "fusion_lat": 0.0}, {"lon": -76.98839100000001, "name": "3d88401f5c5d4449501a85cb59813202", "is_disabled": 0, "type": "electric_scooter", "is_reserved": 0, "fusion_lon": 0.0, "lat": 38.900311333333335, "rental_uris": {"ios": "https://dc.lft.to/lastmile_qr_scan", "android": "https://dc.lft.to/lastmile_qr_scan"}, "bike_id": "3d88401f5c5d4449501a85cb59813202", "fusion_lat": 0.0}, {"lon": -76.97331666666666, "name": "0ff90d01224431cbc03b5500a9df7f55", "is_disabled": 0, "type": "electric_scooter", "is_reserved": 0, "fusion_lon": 0.0, "lat": 38.90410466666667, "rental_uris": {"ios": "https://dc.lft.to/lastmile_qr_scan", "android": "https://dc.lft.to/lastmile_qr_scan"}, "bike_id": "0ff90d01224431cbc03b5500a9df7f55", "fusion_lat": 0.0}, {"lon": -77.02187566666667, "name": "634913435e2cb448e4f15778c669fddf", "is_disabled": 0, "type": "electric_scooter", "is_reserved": 0, "fusion_lon": 0.0, "lat": 38.90208766666667, "rental_uris": {"ios": "https://dc.lft.to/lastmile_qr_scan", "android": "https://dc.lft.to/lastmile_qr_scan"}, "bike_id": "634913435e2cb448e4f15778c669fddf", "fusion_lat": 0.0}, {"lon": -76.98376566666667, "name": "b73e717a1f2f2892d8653a047eda5fec", "is_disabled": 0, "type": "electric_scooter", "is_reserved": 0, "fusion_lon": 0.0, "lat": 38.86029166666667, "rental_uris": {"ios": "https://dc.lft.to/lastmile_qr_scan", "android": "https://dc.lft.to/lastmile_qr_scan"}, "bike_id": "b73e717a1f2f2892d8653a047eda5fec", "fusion_lat": 0.0}, {"lon": -77.06411266666667, "name": "d2e1a36e8cbd1259611dd3a8b41deeb3", "is_disabled": 0, "type": "electric_scooter", "is_reserved": 0, "fusion_lon": 0.0, "lat": 38.944394, "rental_uris": {"ios": "https://dc.lft.to/lastmile_qr_scan", "android": "https://dc.lft.to/lastmile_qr_scan"}, "bike_id": "d2e1a36e8cbd1259611dd3a8b41deeb3", "fusion_lat": 0.0}, {"lon": -76.9969365, "name": "7748eb06d73655b13bb55a49657b44d3", "is_disabled": 0, "type": "electric_scooter", "is_reserved": 0, "fusion_lon": 0.0, "lat": 38.90793083333333, "rental_uris": {"ios": "https://dc.lft.to/lastmile_qr_scan", "android": "https://dc.lft.to/lastmile_qr_scan"}, "bike_id": "7748eb06d73655b13bb55a49657b44d3", "fusion_lat": 0.0}, {"lon": -77.00535983333333, "name": "ab1ef15743f41fd7c9d87eec544ca564", "is_disabled": 0, "type": "electric_scooter", "is_reserved": 0, "fusion_lon": 0.0, "lat": 38.875456166666666, "rental_uris": {"ios": "https://dc.lft.to/lastmile_qr_scan", "android": "https://dc.lft.to/lastmile_qr_scan"}, "bike_id": "ab1ef15743f41fd7c9d87eec544ca564", "fusion_lat": 0.0}, {"lon": -77.03850116666666, "name": "ddc95b24f6067ec89bc042c5e75d7e11", "is_disabled": 0, "type": "electric_scooter", "is_reserved": 0, "fusion_lon": 0.0, "lat": 38.90307966666667, "rental_uris": {"ios": "https://dc.lft.to/lastmile_qr_scan", "android": "https://dc.lft.to/lastmile_qr_scan"}, "bike_id": "ddc95b24f6067ec89bc042c5e75d7e11", "fusion_lat": 0.0}, {"lon": -77.01999633333334, "name": "b2fab6a7e48de4892d0490f3d1372727", "is_disabled": 0, "type": "electric_scooter", "is_reserved": 0, "fusion_lon": 0.0, "lat": 38.937813, "rental_uris": {"ios": "https://dc.lft.to/lastmile_qr_scan", "android": "https://dc.lft.to/lastmile_qr_scan"}, "bike_id": "b2fab6a7e48de4892d0490f3d1372727", "fusion_lat": 0.0}, {"lon": -77.01961466666667, "name": "69954620e0df225c416b226d44388068", "is_disabled": 0, "type": "electric_scooter", "is_reserved": 0, "fusion_lon": 0.0, "lat": 38.923242333333334, "rental_uris": {"ios": "https://dc.lft.to/lastmile_qr_scan", "android": "https://dc.lft.to/lastmile_qr_scan"}, "bike_id": "69954620e0df225c416b226d44388068", "fusion_lat": 0.0}, {"lon": -76.98259983333334, "name": "dd6c421b2b8193cb67906820ddbd055d", "is_disabled": 0, "type": "electric_scooter", "is_reserved": 0, "fusion_lon": 0.0, "lat": 38.90453216666667, "rental_uris": {"ios": "https://dc.lft.to/lastmile_qr_scan", "android": "https://dc.lft.to/lastmile_qr_scan"}, "bike_id": "dd6c421b2b8193cb67906820ddbd055d", "fusion_lat": 0.0}, {"lon": -77.0279645, "name": "60fbbed79d8a6d09f7bc4db58f4b9439", "is_disabled": 0, "type": "electric_scooter", "is_reserved": 0, "fusion_lon": 0.0, "lat": 38.93076083333333, "rental_uris": {"ios": "https://dc.lft.to/lastmile_qr_scan", "android": "https://dc.lft.to/lastmile_qr_scan"}, "bike_id": "60fbbed79d8a6d09f7bc4db58f4b9439", "fusion_lat": 0.0}, {"lon": -76.97591616666666, "name": "a8f5077f9c77ed841c982a08fdf0f5aa", "is_disabled": 0, "type": "electric_scooter", "is_reserved": 0, "fusion_lon": 0.0, "lat": 38.9033225, "rental_uris": {"ios": "https://dc.lft.to/lastmile_qr_scan", "android": "https://dc.lft.to/lastmile_qr_scan"}, "bike_id": "a8f5077f9c77ed841c982a08fdf0f5aa", "fusion_lat": 0.0}, {"lon": -77.02229316666667, "name": "f020291c6caabe39efb904d93ff57f03", "is_disabled": 0, "type": "electric_scooter", "is_reserved": 0, "fusion_lon": 0.0, "lat": 38.90162883333333, "rental_uris": {"ios": "https://dc.lft.to/lastmile_qr_scan", "android": "https://dc.lft.to/lastmile_qr_scan"}, "bike_id": "f020291c6caabe39efb904d93ff57f03", "fusion_lat": 0.0}, {"lon": -76.9074855, "name": "a3ccf85fd0b84693bf198722bce3a7d3", "is_disabled": 0, "type": "electric_bike", "is_reserved": 0, "fusion_lon": 0.0, "lat": 38.896180666666666, "rental_uris": {"ios": "https://dc.lft.to/lastmile_qr_scan", "android": "https://dc.lft.to/lastmile_qr_scan"}, "bike_id": "a3ccf85fd0b84693bf198722bce3a7d3", "fusion_lat": 0.0}, {"lon": -77.0190585, "name": "5847f8f280332df7acdc547e088bbda6", "is_disabled": 0, "type": "electric_scooter", "is_reserved": 0, "fusion_lon": 0.0, "lat": 38.923424833333335, "rental_uris": {"ios": "https://dc.lft.to/lastmile_qr_scan", "android": "https://dc.lft.to/lastmile_qr_scan"}, "bike_id": "5847f8f280332df7acdc547e088bbda6", "fusion_lat": 0.0}, {"lon": -76.98841816666666, "name": "ec035f5237a5fe7017dd2a08755b0523", "is_disabled": 0, "type": "electric_scooter", "is_reserved": 0, "fusion_lon": 0.0, "lat": 38.9003385, "rental_uris": {"ios": "https://dc.lft.to/lastmile_qr_scan", "android": "https://dc.lft.to/lastmile_qr_scan"}, "bike_id": "ec035f5237a5fe7017dd2a08755b0523", "fusion_lat": 0.0}, {"lon": -77.04106966666667, "name": "d11fed3d9d7e340515fac1d2ee533aab", "is_disabled": 0, "type": "electric_scooter", "is_reserved": 0, "fusion_lon": 0.0, "lat": 38.89220733333333, "rental_uris": {"ios": "https://dc.lft.to/lastmile_qr_scan", "android": "https://dc.lft.to/lastmile_qr_scan"}, "bike_id": "d11fed3d9d7e340515fac1d2ee533aab", "fusion_lat": 0.0}, {"lon": -77.07008816666666, "name": "f37d747a1ae978d6e4c9d7c87210f0fd", "is_disabled": 0, "type": "electric_scooter", "is_reserved": 0, "fusion_lon": 0.0, "lat": 38.90596716666667, "rental_uris": {"ios": "https://dc.lft.to/lastmile_qr_scan", "android": "https://dc.lft.to/lastmile_qr_scan"}, "bike_id": "f37d747a1ae978d6e4c9d7c87210f0fd", "fusion_lat": 0.0}, {"lon": -77.022514, "name": "f58fcb17396ce2bf149ad8fff8cf8af4", "is_disabled": 0, "type": "electric_scooter", "is_reserved": 0, "fusion_lon": 0.0, "lat": 38.924325333333336, "rental_uris": {"ios": "https://dc.lft.to/lastmile_qr_scan", "android": "https://dc.lft.to/lastmile_qr_scan"}, "bike_id": "f58fcb17396ce2bf149ad8fff8cf8af4", "fusion_lat": 0.0}, {"lon": -76.99117733333334, "name": "f61678c19b856190caf9e820d12db996", "is_disabled": 0, "type": "electric_scooter", "is_reserved": 0, "fusion_lon": 0.0, "lat": 38.90028016666667, "rental_uris": {"ios": "https://dc.lft.to/lastmile_qr_scan", "android": "https://dc.lft.to/lastmile_qr_scan"}, "bike_id": "f61678c19b856190caf9e820d12db996", "fusion_lat": 0.0}, {"lon": -76.92448116666667, "name": "0ec28877fbd300b3d151cbbe855890d4", "is_disabled": 0, "type": "electric_scooter", "is_reserved": 0, "fusion_lon": 0.0, "lat": 38.885113833333335, "rental_uris": {"ios": "https://dc.lft.to/lastmile_qr_scan", "android": "https://dc.lft.to/lastmile_qr_scan"}, "bike_id": "0ec28877fbd300b3d151cbbe855890d4", "fusion_lat": 0.0}, {"lon": -76.97230216666667, "name": "87636606582aa3b14f6e3ac6ff64a11d", "is_disabled": 0, "type": "electric_bike", "is_reserved": 0, "fusion_lon": 0.0, "lat": 38.9003645, "rental_uris": {"ios": "https://dc.lft.to/lastmile_qr_scan", "android": "https://dc.lft.to/lastmile_qr_scan"}, "bike_id": "87636606582aa3b14f6e3ac6ff64a11d", "fusion_lat": 0.0}, {"lon": -77.02449683333333, "name": "9e511d5de87a19bc398b2af0bbf91cfc", "is_disabled": 0, "type": "electric_scooter", "is_reserved": 0, "fusion_lon": 0.0, "lat": 38.893874333333336, "rental_uris": {"ios": "https://dc.lft.to/lastmile_qr_scan", "android": "https://dc.lft.to/lastmile_qr_scan"}, "bike_id": "9e511d5de87a19bc398b2af0bbf91cfc", "fusion_lat": 0.0}, {"lon": -77.02161833333334, "name": "ee2e0eb16c720e25cd02180e65dbb8ed", "is_disabled": 0, "type": "electric_scooter", "is_reserved": 0, "fusion_lon": 0.0, "lat": 38.9261385, "rental_uris": {"ios": "https://dc.lft.to/lastmile_qr_scan", "android": "https://dc.lft.to/lastmile_qr_scan"}, "bike_id": "ee2e0eb16c720e25cd02180e65dbb8ed", "fusion_lat": 0.0}, {"lon": -77.06050016666667, "name": "23fbc6a2fedb329d8e6a02bab10b8383", "is_disabled": 0, "type": "electric_scooter", "is_reserved": 0, "fusion_lon": 0.0, "lat": 38.939299, "rental_uris": {"ios": "https://dc.lft.to/lastmile_qr_scan", "android": "https://dc.lft.to/lastmile_qr_scan"}, "bike_id": "23fbc6a2fedb329d8e6a02bab10b8383", "fusion_lat": 0.0}, {"lon": -77.09445383333333, "name": "376c0512781c98b8809158f72e3fb763", "is_disabled": 0, "type": "electric_bike", "is_reserved": 0, "fusion_lon": 0.0, "lat": 38.894161833333335, "rental_uris": {"ios": "https://dc.lft.to/lastmile_qr_scan", "android": "https://dc.lft.to/lastmile_qr_scan"}, "bike_id": "376c0512781c98b8809158f72e3fb763", "fusion_lat": 0.0}, {"lon": -77.0207585, "name": "56bdba1ec444bcd3025b72e4f971bbf0", "is_disabled": 0, "type": "electric_scooter", "is_reserved": 0, "fusion_lon": 0.0, "lat": 38.92145583333333, "rental_uris": {"ios": "https://dc.lft.to/lastmile_qr_scan", "android": "https://dc.lft.to/lastmile_qr_scan"}, "bike_id": "56bdba1ec444bcd3025b72e4f971bbf0", "fusion_lat": 0.0}, {"lon": -77.02111683333334, "name": "2bd1a16710dd9827ac403aa997eb16e2", "is_disabled": 0, "type": "electric_bike", "is_reserved": 0, "fusion_lon": 0.0, "lat": 39.02292116666667, "rental_uris": {"ios": "https://dc.lft.to/lastmile_qr_scan", "android": "https://dc.lft.to/lastmile_qr_scan"}, "bike_id": "2bd1a16710dd9827ac403aa997eb16e2", "fusion_lat": 0.0}, {"lon": -76.99903433333333, "name": "9b4819a266ace90ee70f18e184ef0b0d", "is_disabled": 0, "type": "electric_scooter", "is_reserved": 0, "fusion_lon": 0.0, "lat": 38.8910065, "rental_uris": {"ios": "https://dc.lft.to/lastmile_qr_scan", "android": "https://dc.lft.to/lastmile_qr_scan"}, "bike_id": "9b4819a266ace90ee70f18e184ef0b0d", "fusion_lat": 0.0}, {"lon": -77.0347735, "name": "c299c23b83adf69efca8d68bcd059dc2", "is_disabled": 0, "type": "electric_scooter", "is_reserved": 0, "fusion_lon": 0.0, "lat": 38.90227466666666, "rental_uris": {"ios": "https://dc.lft.to/lastmile_qr_scan", "android": "https://dc.lft.to/lastmile_qr_scan"}, "bike_id": "c299c23b83adf69efca8d68bcd059dc2", "fusion_lat": 0.0}, {"lon": -76.98665616666666, "name": "ae8cff2f05bb4d5f5a8b063c9e6b8b30", "is_disabled": 0, "type": "electric_bike", "is_reserved": 0, "fusion_lon": 0.0, "lat": 38.974722166666666, "rental_uris": {"ios": "https://dc.lft.to/lastmile_qr_scan", "android": "https://dc.lft.to/lastmile_qr_scan"}, "bike_id": "ae8cff2f05bb4d5f5a8b063c9e6b8b30", "fusion_lat": 0.0}, {"lon": -77.01984366666667, "name": "ddd0f5192b8eaee80e1d387562c738e7", "is_disabled": 0, "type": "electric_scooter", "is_reserved": 0, "fusion_lon": 0.0, "lat": 38.91563083333333, "rental_uris": {"ios": "https://dc.lft.to/lastmile_qr_scan", "android": "https://dc.lft.to/lastmile_qr_scan"}, "bike_id": "ddd0f5192b8eaee80e1d387562c738e7", "fusion_lat": 0.0}, {"lon": -77.04200083333333, "name": "f44c028f8fec24f7ef6424b20dca0ae4", "is_disabled": 0, "type": "electric_scooter", "is_reserved": 0, "fusion_lon": 0.0, "lat": 38.920521, "rental_uris": {"ios": "https://dc.lft.to/lastmile_qr_scan", "android": "https://dc.lft.to/lastmile_qr_scan"}, "bike_id": "f44c028f8fec24f7ef6424b20dca0ae4", "fusion_lat": 0.0}, {"lon": -77.02405266666666, "name": "7000a5943c6f38019e113ca86f74758a", "is_disabled": 0, "type": "electric_scooter", "is_reserved": 0, "fusion_lon": 0.0, "lat": 38.90044983333333, "rental_uris": {"ios": "https://dc.lft.to/lastmile_qr_scan", "android": "https://dc.lft.to/lastmile_qr_scan"}, "bike_id": "7000a5943c6f38019e113ca86f74758a", "fusion_lat": 0.0}, {"lon": -76.99305933333333, "name": "eb701ac8a17280b1de29ba142f584938", "is_disabled": 0, "type": "electric_bike", "is_reserved": 0, "fusion_lon": 0.0, "lat": 38.94627783333333, "rental_uris": {"ios": "https://dc.lft.to/lastmile_qr_scan", "android": "https://dc.lft.to/lastmile_qr_scan"}, "bike_id": "eb701ac8a17280b1de29ba142f584938", "fusion_lat": 0.0}, {"lon": -77.03206216666666, "name": "b453a4d50e786fb9a9ee65f108317e77", "is_disabled": 0, "type": "electric_scooter", "is_reserved": 0, "fusion_lon": 0.0, "lat": 38.922886, "rental_uris": {"ios": "https://dc.lft.to/lastmile_qr_scan", "android": "https://dc.lft.to/lastmile_qr_scan"}, "bike_id": "b453a4d50e786fb9a9ee65f108317e77", "fusion_lat": 0.0}, {"lon": -77.03264433333334, "name": "b307a3c2a1bd34ee5d132bb853f0f9f9", "is_disabled": 0, "type": "electric_scooter", "is_reserved": 0, "fusion_lon": 0.0, "lat": 38.93568233333333, "rental_uris": {"ios": "https://dc.lft.to/lastmile_qr_scan", "android": "https://dc.lft.to/lastmile_qr_scan"}, "bike_id": "b307a3c2a1bd34ee5d132bb853f0f9f9", "fusion_lat": 0.0}, {"lon": -77.05525916666667, "name": "03ad653bfe0d714b042c7d34f42ce73c", "is_disabled": 0, "type": "electric_scooter", "is_reserved": 0, "fusion_lon": 0.0, "lat": 38.89721333333333, "rental_uris": {"ios": "https://dc.lft.to/lastmile_qr_scan", "android": "https://dc.lft.to/lastmile_qr_scan"}, "bike_id": "03ad653bfe0d714b042c7d34f42ce73c", "fusion_lat": 0.0}, {"lon": -77.0180915, "name": "d64796ff7a54392a6186984056165677", "is_disabled": 0, "type": "electric_scooter", "is_reserved": 0, "fusion_lon": 0.0, "lat": 38.9214335, "rental_uris": {"ios": "https://dc.lft.to/lastmile_qr_scan", "android": "https://dc.lft.to/lastmile_qr_scan"}, "bike_id": "d64796ff7a54392a6186984056165677", "fusion_lat": 0.0}, {"lon": -77.02118616666667, "name": "c1471ac3195947267bf9406428ad785b", "is_disabled": 0, "type": "electric_scooter", "is_reserved": 0, "fusion_lon": 0.0, "lat": 38.93107033333333, "rental_uris": {"ios": "https://dc.lft.to/lastmile_qr_scan", "android": "https://dc.lft.to/lastmile_qr_scan"}, "bike_id": "c1471ac3195947267bf9406428ad785b", "fusion_lat": 0.0}, {"lon": -77.011827, "name": "58abe0765464f00d6124db2c63c56ed5", "is_disabled": 0, "type": "electric_scooter", "is_reserved": 0, "fusion_lon": 0.0, "lat": 38.900362666666666, "rental_uris": {"ios": "https://dc.lft.to/lastmile_qr_scan", "android": "https://dc.lft.to/lastmile_qr_scan"}, "bike_id": "58abe0765464f00d6124db2c63c56ed5", "fusion_lat": 0.0}, {"lon": -77.0608655, "name": "c043c35555c2db3ff067b307733921d0", "is_disabled": 0, "type": "electric_bike", "is_reserved": 0, "fusion_lon": 0.0, "lat": 38.8043575, "rental_uris": {"ios": "https://dc.lft.to/lastmile_qr_scan", "android": "https://dc.lft.to/lastmile_qr_scan"}, "bike_id": "c043c35555c2db3ff067b307733921d0", "fusion_lat": 0.0}, {"lon": -77.02592433333334, "name": "6ad074d32c77ac1fa86db00a50837352", "is_disabled": 0, "type": "electric_scooter", "is_reserved": 0, "fusion_lon": 0.0, "lat": 38.92091283333333, "rental_uris": {"ios": "https://dc.lft.to/lastmile_qr_scan", "android": "https://dc.lft.to/lastmile_qr_scan"}, "bike_id": "6ad074d32c77ac1fa86db00a50837352", "fusion_lat": 0.0}, {"lon": -77.003705, "name": "76f86bb2abc84dffede6d306990ccd2b", "is_disabled": 0, "type": "electric_scooter", "is_reserved": 0, "fusion_lon": 0.0, "lat": 38.907766, "rental_uris": {"ios": "https://dc.lft.to/lastmile_qr_scan", "android": "https://dc.lft.to/lastmile_qr_scan"}, "bike_id": "76f86bb2abc84dffede6d306990ccd2b", "fusion_lat": 0.0}, {"lon": -77.02120833333333, "name": "941bb5522fc0987702c5e3a8733c4a58", "is_disabled": 0, "type": "electric_scooter", "is_reserved": 0, "fusion_lon": 0.0, "lat": 38.917455333333336, "rental_uris": {"ios": "https://dc.lft.to/lastmile_qr_scan", "android": "https://dc.lft.to/lastmile_qr_scan"}, "bike_id": "941bb5522fc0987702c5e3a8733c4a58", "fusion_lat": 0.0}, {"lon": -77.02079583333334, "name": "5e59134c0d89e6c75121863dd866e6af", "is_disabled": 0, "type": "electric_scooter", "is_reserved": 0, "fusion_lon": 0.0, "lat": 38.952556333333334, "rental_uris": {"ios": "https://dc.lft.to/lastmile_qr_scan", "android": "https://dc.lft.to/lastmile_qr_scan"}, "bike_id": "5e59134c0d89e6c75121863dd866e6af", "fusion_lat": 0.0}, {"lon": -77.0179985, "name": "3851b197f05aa10375031d4f283953a3", "is_disabled": 0, "type": "electric_scooter", "is_reserved": 0, "fusion_lon": 0.0, "lat": 38.89312833333334, "rental_uris": {"ios": "https://dc.lft.to/lastmile_qr_scan", "android": "https://dc.lft.to/lastmile_qr_scan"}, "bike_id": "3851b197f05aa10375031d4f283953a3", "fusion_lat": 0.0}, {"lon": -77.0318885, "name": "0c4c64cbfa402a67a3981ad6bbd997bb", "is_disabled": 0, "type": "electric_scooter", "is_reserved": 0, "fusion_lon": 0.0, "lat": 38.898540833333335, "rental_uris": {"ios": "https://dc.lft.to/lastmile_qr_scan", "android": "https://dc.lft.to/lastmile_qr_scan"}, "bike_id": "0c4c64cbfa402a67a3981ad6bbd997bb", "fusion_lat": 0.0}, {"lon": -77.04885033333333, "name": "ae32d0ae8f8bd71d0cd1fec7a8e82406", "is_disabled": 0, "type": "electric_scooter", "is_reserved": 0, "fusion_lon": 0.0, "lat": 38.901172, "rental_uris": {"ios": "https://dc.lft.to/lastmile_qr_scan", "android": "https://dc.lft.to/lastmile_qr_scan"}, "bike_id": "ae32d0ae8f8bd71d0cd1fec7a8e82406", "fusion_lat": 0.0}, {"lon": -77.0032985, "name": "2533445f2e984b0622e67e174ba56514", "is_disabled": 0, "type": "electric_scooter", "is_reserved": 0, "fusion_lon": 0.0, "lat": 38.893572, "rental_uris": {"ios": "https://dc.lft.to/lastmile_qr_scan", "android": "https://dc.lft.to/lastmile_qr_scan"}, "bike_id": "2533445f2e984b0622e67e174ba56514", "fusion_lat": 0.0}, {"lon": -77.03196033333333, "name": "737d2e5aea7099e840225c7364d4eef3", "is_disabled": 0, "type": "electric_scooter", "is_reserved": 0, "fusion_lon": 0.0, "lat": 38.91616416666667, "rental_uris": {"ios": "https://dc.lft.to/lastmile_qr_scan", "android": "https://dc.lft.to/lastmile_qr_scan"}, "bike_id": "737d2e5aea7099e840225c7364d4eef3", "fusion_lat": 0.0}, {"lon": -77.02588233333333, "name": "663563658b713c9d319e4d1922e1f613", "is_disabled": 0, "type": "electric_scooter", "is_reserved": 0, "fusion_lon": 0.0, "lat": 38.90955916666667, "rental_uris": {"ios": "https://dc.lft.to/lastmile_qr_scan", "android": "https://dc.lft.to/lastmile_qr_scan"}, "bike_id": "663563658b713c9d319e4d1922e1f613", "fusion_lat": 0.0}, {"lon": -77.06461483333334, "name": "8da6485eaa75d8b0ec7158ec5f88e0eb", "is_disabled": 0, "type": "electric_scooter", "is_reserved": 0, "fusion_lon": 0.0, "lat": 38.910470833333335, "rental_uris": {"ios": "https://dc.lft.to/lastmile_qr_scan", "android": "https://dc.lft.to/lastmile_qr_scan"}, "bike_id": "8da6485eaa75d8b0ec7158ec5f88e0eb", "fusion_lat": 0.0}, {"lon": -77.0465655, "name": "5990d2c51a0be966fe83ad333b5a1189", "is_disabled": 0, "type": "electric_scooter", "is_reserved": 0, "fusion_lon": 0.0, "lat": 38.8972955, "rental_uris": {"ios": "https://dc.lft.to/lastmile_qr_scan", "android": "https://dc.lft.to/lastmile_qr_scan"}, "bike_id": "5990d2c51a0be966fe83ad333b5a1189", "fusion_lat": 0.0}, {"lon": -77.0192945, "name": "246f393183bf94cd27b2936e07ef2468", "is_disabled": 0, "type": "electric_scooter", "is_reserved": 0, "fusion_lon": 0.0, "lat": 38.932664333333335, "rental_uris": {"ios": "https://dc.lft.to/lastmile_qr_scan", "android": "https://dc.lft.to/lastmile_qr_scan"}, "bike_id": "246f393183bf94cd27b2936e07ef2468", "fusion_lat": 0.0}, {"lon": -76.9733425, "name": "5365bf0d4fcc9177e5158c22b09b925b", "is_disabled": 0, "type": "electric_scooter", "is_reserved": 0, "fusion_lon": 0.0, "lat": 38.904079333333335, "rental_uris": {"ios": "https://dc.lft.to/lastmile_qr_scan", "android": "https://dc.lft.to/lastmile_qr_scan"}, "bike_id": "5365bf0d4fcc9177e5158c22b09b925b", "fusion_lat": 0.0}, {"lon": -77.02515333333334, "name": "1922162da6a9af4740347ab620d8ee81", "is_disabled": 0, "type": "electric_scooter", "is_reserved": 0, "fusion_lon": 0.0, "lat": 38.92092516666666, "rental_uris": {"ios": "https://dc.lft.to/lastmile_qr_scan", "android": "https://dc.lft.to/lastmile_qr_scan"}, "bike_id": "1922162da6a9af4740347ab620d8ee81", "fusion_lat": 0.0}, {"lon": -77.07471516666666, "name": "56a2e9b6e5cf90fc4186980e7d7f7c7d", "is_disabled": 0, "type": "electric_scooter", "is_reserved": 0, "fusion_lon": 0.0, "lat": 38.92240133333333, "rental_uris": {"ios": "https://dc.lft.to/lastmile_qr_scan", "android": "https://dc.lft.to/lastmile_qr_scan"}, "bike_id": "56a2e9b6e5cf90fc4186980e7d7f7c7d", "fusion_lat": 0.0}, {"lon": -77.01902316666667, "name": "f619c7bc4dc9546ac576120d0ddc7b7a", "is_disabled": 0, "type": "electric_scooter", "is_reserved": 0, "fusion_lon": 0.0, "lat": 38.92341783333333, "rental_uris": {"ios": "https://dc.lft.to/lastmile_qr_scan", "android": "https://dc.lft.to/lastmile_qr_scan"}, "bike_id": "f619c7bc4dc9546ac576120d0ddc7b7a", "fusion_lat": 0.0}, {"lon": -77.04077616666666, "name": "6420e64739eff85ddfaab4974c53359a", "is_disabled": 0, "type": "electric_scooter", "is_reserved": 0, "fusion_lon": 0.0, "lat": 38.9288235, "rental_uris": {"ios": "https://dc.lft.to/lastmile_qr_scan", "android": "https://dc.lft.to/lastmile_qr_scan"}, "bike_id": "6420e64739eff85ddfaab4974c53359a", "fusion_lat": 0.0}, {"lon": -77.04596266666667, "name": "610d745de8821f8eba2758cbbc4a172d", "is_disabled": 0, "type": "electric_scooter", "is_reserved": 0, "fusion_lon": 0.0, "lat": 38.896089333333336, "rental_uris": {"ios": "https://dc.lft.to/lastmile_qr_scan", "android": "https://dc.lft.to/lastmile_qr_scan"}, "bike_id": "610d745de8821f8eba2758cbbc4a172d", "fusion_lat": 0.0}, {"lon": -77.03441983333333, "name": "8611dead60f11c39ddb9a3500ed806e9", "is_disabled": 0, "type": "electric_scooter", "is_reserved": 0, "fusion_lon": 0.0, "lat": 38.930929166666665, "rental_uris": {"ios": "https://dc.lft.to/lastmile_qr_scan", "android": "https://dc.lft.to/lastmile_qr_scan"}, "bike_id": "8611dead60f11c39ddb9a3500ed806e9", "fusion_lat": 0.0}, {"lon": -77.0326535, "name": "bcfd5c6f36aa085638e69de97f4a002c", "is_disabled": 0, "type": "electric_scooter", "is_reserved": 0, "fusion_lon": 0.0, "lat": 38.9293505, "rental_uris": {"ios": "https://dc.lft.to/lastmile_qr_scan", "android": "https://dc.lft.to/lastmile_qr_scan"}, "bike_id": "bcfd5c6f36aa085638e69de97f4a002c", "fusion_lat": 0.0}, {"lon": -77.02002333333333, "name": "a7a79971219e5618418a1cf27e63040a", "is_disabled": 0, "type": "electric_scooter", "is_reserved": 0, "fusion_lon": 0.0, "lat": 38.9015685, "rental_uris": {"ios": "https://dc.lft.to/lastmile_qr_scan", "android": "https://dc.lft.to/lastmile_qr_scan"}, "bike_id": "a7a79971219e5618418a1cf27e63040a", "fusion_lat": 0.0}, {"lon": -77.04889633333333, "name": "af07559a1fa8c55760eb1d327ad0dce6", "is_disabled": 0, "type": "electric_bike", "is_reserved": 0, "fusion_lon": 0.0, "lat": 38.900202166666666, "rental_uris": {"ios": "https://dc.lft.to/lastmile_qr_scan", "android": "https://dc.lft.to/lastmile_qr_scan"}, "bike_id": "af07559a1fa8c55760eb1d327ad0dce6", "fusion_lat": 0.0}, {"lon": -77.02708433333333, "name": "f1b14bbd050982e6d16fa182f931762c", "is_disabled": 0, "type": "electric_scooter", "is_reserved": 0, "fusion_lon": 0.0, "lat": 38.91688633333333, "rental_uris": {"ios": "https://dc.lft.to/lastmile_qr_scan", "android": "https://dc.lft.to/lastmile_qr_scan"}, "bike_id": "f1b14bbd050982e6d16fa182f931762c", "fusion_lat": 0.0}, {"lon": -76.9808975, "name": "97b304d0d9b3d43319988510693f4225", "is_disabled": 0, "type": "electric_scooter", "is_reserved": 0, "fusion_lon": 0.0, "lat": 38.894372, "rental_uris": {"ios": "https://dc.lft.to/lastmile_qr_scan", "android": "https://dc.lft.to/lastmile_qr_scan"}, "bike_id": "97b304d0d9b3d43319988510693f4225", "fusion_lat": 0.0}, {"lon": -77.01861166666667, "name": "330a17add68c274a176b236c9ad9a8d4", "is_disabled": 0, "type": "electric_scooter", "is_reserved": 0, "fusion_lon": 0.0, "lat": 38.9149045, "rental_uris": {"ios": "https://dc.lft.to/lastmile_qr_scan", "android": "https://dc.lft.to/lastmile_qr_scan"}, "bike_id": "330a17add68c274a176b236c9ad9a8d4", "fusion_lat": 0.0}, {"lon": -77.03627483333334, "name": "671c1ce0ac36ae5903e6f12296f12201", "is_disabled": 0, "type": "electric_scooter", "is_reserved": 0, "fusion_lon": 0.0, "lat": 38.94606366666667, "rental_uris": {"ios": "https://dc.lft.to/lastmile_qr_scan", "android": "https://dc.lft.to/lastmile_qr_scan"}, "bike_id": "671c1ce0ac36ae5903e6f12296f12201", "fusion_lat": 0.0}, {"lon": -77.02371766666667, "name": "07f918267de185c9061b240860559144", "is_disabled": 0, "type": "electric_scooter", "is_reserved": 0, "fusion_lon": 0.0, "lat": 38.917837666666664, "rental_uris": {"ios": "https://dc.lft.to/lastmile_qr_scan", "android": "https://dc.lft.to/lastmile_qr_scan"}, "bike_id": "07f918267de185c9061b240860559144", "fusion_lat": 0.0}, {"lon": -77.042266, "name": "b27a445ff6c387398c7e9530edc6c173", "is_disabled": 0, "type": "electric_scooter", "is_reserved": 0, "fusion_lon": 0.0, "lat": 38.92146916666667, "rental_uris": {"ios": "https://dc.lft.to/lastmile_qr_scan", "android": "https://dc.lft.to/lastmile_qr_scan"}, "bike_id": "b27a445ff6c387398c7e9530edc6c173", "fusion_lat": 0.0}, {"lon": -77.02164183333333, "name": "ae21857b3f3eb643de66e50cd41acd96", "is_disabled": 0, "type": "electric_scooter", "is_reserved": 0, "fusion_lon": 0.0, "lat": 38.9261005, "rental_uris": {"ios": "https://dc.lft.to/lastmile_qr_scan", "android": "https://dc.lft.to/lastmile_qr_scan"}, "bike_id": "ae21857b3f3eb643de66e50cd41acd96", "fusion_lat": 0.0}, {"lon": -77.00426016666667, "name": "233dd2bd7577800a58c6925abdccd447", "is_disabled": 0, "type": "electric_scooter", "is_reserved": 0, "fusion_lon": 0.0, "lat": 38.877133, "rental_uris": {"ios": "https://dc.lft.to/lastmile_qr_scan", "android": "https://dc.lft.to/lastmile_qr_scan"}, "bike_id": "233dd2bd7577800a58c6925abdccd447", "fusion_lat": 0.0}, {"lon": -77.01953283333333, "name": "80886e767dbf924ef5f62a30d1c5ef01", "is_disabled": 0, "type": "electric_scooter", "is_reserved": 0, "fusion_lon": 0.0, "lat": 38.92319116666667, "rental_uris": {"ios": "https://dc.lft.to/lastmile_qr_scan", "android": "https://dc.lft.to/lastmile_qr_scan"}, "bike_id": "80886e767dbf924ef5f62a30d1c5ef01", "fusion_lat": 0.0}, {"lon": -77.05046716666666, "name": "7676d70a718f95c45168762cbeb2d877", "is_disabled": 0, "type": "electric_scooter", "is_reserved": 0, "fusion_lon": 0.0, "lat": 38.9030665, "rental_uris": {"ios": "https://dc.lft.to/lastmile_qr_scan", "android": "https://dc.lft.to/lastmile_qr_scan"}, "bike_id": "7676d70a718f95c45168762cbeb2d877", "fusion_lat": 0.0}, {"lon": -77.02027333333334, "name": "94ab18824900a587e2fbc46e61fedd0f", "is_disabled": 0, "type": "electric_scooter", "is_reserved": 0, "fusion_lon": 0.0, "lat": 38.9243105, "rental_uris": {"ios": "https://dc.lft.to/lastmile_qr_scan", "android": "https://dc.lft.to/lastmile_qr_scan"}, "bike_id": "94ab18824900a587e2fbc46e61fedd0f", "fusion_lat": 0.0}, {"lon": -77.05733466666666, "name": "d7880f51731c804d42cbefd4d3272cf7", "is_disabled": 0, "type": "electric_scooter", "is_reserved": 0, "fusion_lon": 0.0, "lat": 38.9312735, "rental_uris": {"ios": "https://dc.lft.to/lastmile_qr_scan", "android": "https://dc.lft.to/lastmile_qr_scan"}, "bike_id": "d7880f51731c804d42cbefd4d3272cf7", "fusion_lat": 0.0}, {"lon": -77.0168235, "name": "303dd56439a7c7fbf1c6e70e8a4dbd17", "is_disabled": 0, "type": "electric_scooter", "is_reserved": 0, "fusion_lon": 0.0, "lat": 38.920429666666664, "rental_uris": {"ios": "https://dc.lft.to/lastmile_qr_scan", "android": "https://dc.lft.to/lastmile_qr_scan"}, "bike_id": "303dd56439a7c7fbf1c6e70e8a4dbd17", "fusion_lat": 0.0}, {"lon": -77.02529633333333, "name": "261c1371e4e09b708c0b20d309652e96", "is_disabled": 0, "type": "electric_scooter", "is_reserved": 0, "fusion_lon": 0.0, "lat": 38.91817133333333, "rental_uris": {"ios": "https://dc.lft.to/lastmile_qr_scan", "android": "https://dc.lft.to/lastmile_qr_scan"}, "bike_id": "261c1371e4e09b708c0b20d309652e96", "fusion_lat": 0.0}, {"lon": -76.925919, "name": "892bb92f597a2e3e0073dc3dac786b74", "is_disabled": 0, "type": "electric_scooter", "is_reserved": 0, "fusion_lon": 0.0, "lat": 38.89730433333333, "rental_uris": {"ios": "https://dc.lft.to/lastmile_qr_scan", "android": "https://dc.lft.to/lastmile_qr_scan"}, "bike_id": "892bb92f597a2e3e0073dc3dac786b74", "fusion_lat": 0.0}, {"lon": -77.04227266666666, "name": "7c3ceacfa3305a1fab7a50bcb6b68b10", "is_disabled": 0, "type": "electric_scooter", "is_reserved": 0, "fusion_lon": 0.0, "lat": 38.92160916666667, "rental_uris": {"ios": "https://dc.lft.to/lastmile_qr_scan", "android": "https://dc.lft.to/lastmile_qr_scan"}, "bike_id": "7c3ceacfa3305a1fab7a50bcb6b68b10", "fusion_lat": 0.0}, {"lon": -77.01496266666666, "name": "56a4ba6ef6a4e29624b57767dadbfd4a", "is_disabled": 0, "type": "electric_scooter", "is_reserved": 0, "fusion_lon": 0.0, "lat": 38.942238333333336, "rental_uris": {"ios": "https://dc.lft.to/lastmile_qr_scan", "android": "https://dc.lft.to/lastmile_qr_scan"}, "bike_id": "56a4ba6ef6a4e29624b57767dadbfd4a", "fusion_lat": 0.0}, {"lon": -77.00922133333333, "name": "99a804ae56acc02567f38c6ad7b0081d", "is_disabled": 0, "type": "electric_scooter", "is_reserved": 0, "fusion_lon": 0.0, "lat": 38.90070266666667, "rental_uris": {"ios": "https://dc.lft.to/lastmile_qr_scan", "android": "https://dc.lft.to/lastmile_qr_scan"}, "bike_id": "99a804ae56acc02567f38c6ad7b0081d", "fusion_lat": 0.0}, {"lon": -77.0414025, "name": "0e3558a7c5cc723990b688c2acf5832f", "is_disabled": 0, "type": "electric_scooter", "is_reserved": 0, "fusion_lon": 0.0, "lat": 38.9012075, "rental_uris": {"ios": "https://dc.lft.to/lastmile_qr_scan", "android": "https://dc.lft.to/lastmile_qr_scan"}, "bike_id": "0e3558a7c5cc723990b688c2acf5832f", "fusion_lat": 0.0}, {"lon": -77.02487333333333, "name": "3939569e1a7ccb073c4aab368e3012c7", "is_disabled": 0, "type": "electric_scooter", "is_reserved": 0, "fusion_lon": 0.0, "lat": 38.918141166666665, "rental_uris": {"ios": "https://dc.lft.to/lastmile_qr_scan", "android": "https://dc.lft.to/lastmile_qr_scan"}, "bike_id": "3939569e1a7ccb073c4aab368e3012c7", "fusion_lat": 0.0}, {"lon": -77.04004633333334, "name": "39b25a876656ba2157f3a93bb7b754a9", "is_disabled": 0, "type": "electric_scooter", "is_reserved": 0, "fusion_lon": 0.0, "lat": 38.91690066666666, "rental_uris": {"ios": "https://dc.lft.to/lastmile_qr_scan", "android": "https://dc.lft.to/lastmile_qr_scan"}, "bike_id": "39b25a876656ba2157f3a93bb7b754a9", "fusion_lat": 0.0}, {"lon": -77.00293833333333, "name": "b4da9d63db59502f7a00e39bfde8d811", "is_disabled": 0, "type": "electric_scooter", "is_reserved": 0, "fusion_lon": 0.0, "lat": 38.892301, "rental_uris": {"ios": "https://dc.lft.to/lastmile_qr_scan", "android": "https://dc.lft.to/lastmile_qr_scan"}, "bike_id": "b4da9d63db59502f7a00e39bfde8d811", "fusion_lat": 0.0}, {"lon": -77.0471575, "name": "8167e22e0fa47145837051d7031a57a5", "is_disabled": 0, "type": "electric_scooter", "is_reserved": 0, "fusion_lon": 0.0, "lat": 38.89954766666666, "rental_uris": {"ios": "https://dc.lft.to/lastmile_qr_scan", "android": "https://dc.lft.to/lastmile_qr_scan"}, "bike_id": "8167e22e0fa47145837051d7031a57a5", "fusion_lat": 0.0}, {"lon": -76.984933, "name": "be26b908304bb3dc88e2b50e936d7b3e", "is_disabled": 0, "type": "electric_scooter", "is_reserved": 0, "fusion_lon": 0.0, "lat": 38.9203175, "rental_uris": {"ios": "https://dc.lft.to/lastmile_qr_scan", "android": "https://dc.lft.to/lastmile_qr_scan"}, "bike_id": "be26b908304bb3dc88e2b50e936d7b3e", "fusion_lat": 0.0}, {"lon": -77.0021685, "name": "0cf9006a2bfb599b88cb7ff9d0306979", "is_disabled": 0, "type": "electric_scooter", "is_reserved": 0, "fusion_lon": 0.0, "lat": 38.89806883333333, "rental_uris": {"ios": "https://dc.lft.to/lastmile_qr_scan", "android": "https://dc.lft.to/lastmile_qr_scan"}, "bike_id": "0cf9006a2bfb599b88cb7ff9d0306979", "fusion_lat": 0.0}, {"lon": -77.0326545, "name": "ed43e0db4a60e077518e53a51fd6c572", "is_disabled": 0, "type": "electric_scooter", "is_reserved": 0, "fusion_lon": 0.0, "lat": 38.93250466666667, "rental_uris": {"ios": "https://dc.lft.to/lastmile_qr_scan", "android": "https://dc.lft.to/lastmile_qr_scan"}, "bike_id": "ed43e0db4a60e077518e53a51fd6c572", "fusion_lat": 0.0}, {"lon": -77.02983183333333, "name": "e326cd2492f20e82f95e0e2456e41fe4", "is_disabled": 0, "type": "electric_scooter", "is_reserved": 0, "fusion_lon": 0.0, "lat": 38.94348266666667, "rental_uris": {"ios": "https://dc.lft.to/lastmile_qr_scan", "android": "https://dc.lft.to/lastmile_qr_scan"}, "bike_id": "e326cd2492f20e82f95e0e2456e41fe4", "fusion_lat": 0.0}, {"lon": -77.0137045, "name": "384e3fb3710718b56c32d47d727fa240", "is_disabled": 0, "type": "electric_scooter", "is_reserved": 0, "fusion_lon": 0.0, "lat": 38.91328, "rental_uris": {"ios": "https://dc.lft.to/lastmile_qr_scan", "android": "https://dc.lft.to/lastmile_qr_scan"}, "bike_id": "384e3fb3710718b56c32d47d727fa240", "fusion_lat": 0.0}, {"lon": -77.06403816666666, "name": "974dc0e7b04a35e87f012a2fc925a4d5", "is_disabled": 0, "type": "electric_scooter", "is_reserved": 0, "fusion_lon": 0.0, "lat": 38.906755833333335, "rental_uris": {"ios": "https://dc.lft.to/lastmile_qr_scan", "android": "https://dc.lft.to/lastmile_qr_scan"}, "bike_id": "974dc0e7b04a35e87f012a2fc925a4d5", "fusion_lat": 0.0}, {"lon": -77.03504516666666, "name": "c6b027f232852d4c23c6f96ba067f513", "is_disabled": 0, "type": "electric_scooter", "is_reserved": 0, "fusion_lon": 0.0, "lat": 38.901403333333334, "rental_uris": {"ios": "https://dc.lft.to/lastmile_qr_scan", "android": "https://dc.lft.to/lastmile_qr_scan"}, "bike_id": "c6b027f232852d4c23c6f96ba067f513", "fusion_lat": 0.0}, {"lon": -77.0241735, "name": "b850b96e67ab9112818250efc27f9274", "is_disabled": 0, "type": "electric_scooter", "is_reserved": 0, "fusion_lon": 0.0, "lat": 38.921418833333334, "rental_uris": {"ios": "https://dc.lft.to/lastmile_qr_scan", "android": "https://dc.lft.to/lastmile_qr_scan"}, "bike_id": "b850b96e67ab9112818250efc27f9274", "fusion_lat": 0.0}, {"lon": -77.02113516666667, "name": "da68266625dc8ffded8fc6cd45bad6e6", "is_disabled": 0, "type": "electric_scooter", "is_reserved": 0, "fusion_lon": 0.0, "lat": 38.927829, "rental_uris": {"ios": "https://dc.lft.to/lastmile_qr_scan", "android": "https://dc.lft.to/lastmile_qr_scan"}, "bike_id": "da68266625dc8ffded8fc6cd45bad6e6", "fusion_lat": 0.0}, {"lon": -77.02547866666667, "name": "93071e3f45a5c0dc939c1361f1e056a5", "is_disabled": 0, "type": "electric_scooter", "is_reserved": 0, "fusion_lon": 0.0, "lat": 38.9224405, "rental_uris": {"ios": "https://dc.lft.to/lastmile_qr_scan", "android": "https://dc.lft.to/lastmile_qr_scan"}, "bike_id": "93071e3f45a5c0dc939c1361f1e056a5", "fusion_lat": 0.0}, {"lon": -76.99796366666666, "name": "45b970c9642fc5c0a0581469f51d37ec", "is_disabled": 0, "type": "electric_bike", "is_reserved": 0, "fusion_lon": 0.0, "lat": 38.9980595, "rental_uris": {"ios": "https://dc.lft.to/lastmile_qr_scan", "android": "https://dc.lft.to/lastmile_qr_scan"}, "bike_id": "45b970c9642fc5c0a0581469f51d37ec", "fusion_lat": 0.0}, {"lon": -77.0255835, "name": "b9180749a63fc2d9cbfcdc8dd47ba5e2", "is_disabled": 0, "type": "electric_scooter", "is_reserved": 0, "fusion_lon": 0.0, "lat": 38.94165016666667, "rental_uris": {"ios": "https://dc.lft.to/lastmile_qr_scan", "android": "https://dc.lft.to/lastmile_qr_scan"}, "bike_id": "b9180749a63fc2d9cbfcdc8dd47ba5e2", "fusion_lat": 0.0}, {"lon": -76.983763, "name": "4c28463c7a39ceb8f825ddc08f9c8939", "is_disabled": 0, "type": "electric_scooter", "is_reserved": 0, "fusion_lon": 0.0, "lat": 38.906516333333336, "rental_uris": {"ios": "https://dc.lft.to/lastmile_qr_scan", "android": "https://dc.lft.to/lastmile_qr_scan"}, "bike_id": "4c28463c7a39ceb8f825ddc08f9c8939", "fusion_lat": 0.0}, {"lon": -77.02820916666667, "name": "3405230d606a1cdcb40a27d14b062b13", "is_disabled": 0, "type": "electric_scooter", "is_reserved": 0, "fusion_lon": 0.0, "lat": 38.907016666666664, "rental_uris": {"ios": "https://dc.lft.to/lastmile_qr_scan", "android": "https://dc.lft.to/lastmile_qr_scan"}, "bike_id": "3405230d606a1cdcb40a27d14b062b13", "fusion_lat": 0.0}, {"lon": -76.9906785, "name": "deb9af04b4fb0177cecff23cc7a26e5e", "is_disabled": 0, "type": "electric_scooter", "is_reserved": 0, "fusion_lon": 0.0, "lat": 38.85622633333333, "rental_uris": {"ios": "https://dc.lft.to/lastmile_qr_scan", "android": "https://dc.lft.to/lastmile_qr_scan"}, "bike_id": "deb9af04b4fb0177cecff23cc7a26e5e", "fusion_lat": 0.0}, {"lon": -76.9610885, "name": "955d6238e0fb072c09340fb8344f3c80", "is_disabled": 0, "type": "electric_scooter", "is_reserved": 0, "fusion_lon": 0.0, "lat": 38.89203066666666, "rental_uris": {"ios": "https://dc.lft.to/lastmile_qr_scan", "android": "https://dc.lft.to/lastmile_qr_scan"}, "bike_id": "955d6238e0fb072c09340fb8344f3c80", "fusion_lat": 0.0}, {"lon": -77.0330005, "name": "9d360c27b187c535bdb0f598282c1cab", "is_disabled": 0, "type": "electric_scooter", "is_reserved": 0, "fusion_lon": 0.0, "lat": 38.899190833333336, "rental_uris": {"ios": "https://dc.lft.to/lastmile_qr_scan", "android": "https://dc.lft.to/lastmile_qr_scan"}, "bike_id": "9d360c27b187c535bdb0f598282c1cab", "fusion_lat": 0.0}, {"lon": -76.986068, "name": "2296b5ddce62976f126ee76b5ec1c0d5", "is_disabled": 0, "type": "electric_scooter", "is_reserved": 0, "fusion_lon": 0.0, "lat": 38.906508333333335, "rental_uris": {"ios": "https://dc.lft.to/lastmile_qr_scan", "android": "https://dc.lft.to/lastmile_qr_scan"}, "bike_id": "2296b5ddce62976f126ee76b5ec1c0d5", "fusion_lat": 0.0}, {"lon": -77.02220233333334, "name": "195305d74896248773765a62f3047d57", "is_disabled": 0, "type": "electric_scooter", "is_reserved": 0, "fusion_lon": 0.0, "lat": 38.924663833333334, "rental_uris": {"ios": "https://dc.lft.to/lastmile_qr_scan", "android": "https://dc.lft.to/lastmile_qr_scan"}, "bike_id": "195305d74896248773765a62f3047d57", "fusion_lat": 0.0}, {"lon": -77.0220585, "name": "9ccc80f412e4245e48d51b73d9195050", "is_disabled": 0, "type": "electric_scooter", "is_reserved": 0, "fusion_lon": 0.0, "lat": 38.924677, "rental_uris": {"ios": "https://dc.lft.to/lastmile_qr_scan", "android": "https://dc.lft.to/lastmile_qr_scan"}, "bike_id": "9ccc80f412e4245e48d51b73d9195050", "fusion_lat": 0.0}, {"lon": -76.99165616666667, "name": "759e462c1c6cefe5f3a1a6f115fa026c", "is_disabled": 0, "type": "electric_scooter", "is_reserved": 0, "fusion_lon": 0.0, "lat": 38.8733865, "rental_uris": {"ios": "https://dc.lft.to/lastmile_qr_scan", "android": "https://dc.lft.to/lastmile_qr_scan"}, "bike_id": "759e462c1c6cefe5f3a1a6f115fa026c", "fusion_lat": 0.0}, {"lon": -76.976901, "name": "335c1fa61c1da2e7ce06705d63f6721d", "is_disabled": 0, "type": "electric_scooter", "is_reserved": 0, "fusion_lon": 0.0, "lat": 38.900858, "rental_uris": {"ios": "https://dc.lft.to/lastmile_qr_scan", "android": "https://dc.lft.to/lastmile_qr_scan"}, "bike_id": "335c1fa61c1da2e7ce06705d63f6721d", "fusion_lat": 0.0}, {"lon": -77.0376695, "name": "f78c1df9b5d1590c6e40a4e8295cc05d", "is_disabled": 0, "type": "electric_scooter", "is_reserved": 0, "fusion_lon": 0.0, "lat": 38.917083833333336, "rental_uris": {"ios": "https://dc.lft.to/lastmile_qr_scan", "android": "https://dc.lft.to/lastmile_qr_scan"}, "bike_id": "f78c1df9b5d1590c6e40a4e8295cc05d", "fusion_lat": 0.0}, {"lon": -76.985196, "name": "16210a632158900ee42fe5a1efff463a", "is_disabled": 0, "type": "electric_scooter", "is_reserved": 0, "fusion_lon": 0.0, "lat": 38.860066833333335, "rental_uris": {"ios": "https://dc.lft.to/lastmile_qr_scan", "android": "https://dc.lft.to/lastmile_qr_scan"}, "bike_id": "16210a632158900ee42fe5a1efff463a", "fusion_lat": 0.0}, {"lon": -77.00925533333333, "name": "6e5250d06bf82ae703a43d45cebfb9d2", "is_disabled": 0, "type": "electric_scooter", "is_reserved": 0, "fusion_lon": 0.0, "lat": 38.895461, "rental_uris": {"ios": "https://dc.lft.to/lastmile_qr_scan", "android": "https://dc.lft.to/lastmile_qr_scan"}, "bike_id": "6e5250d06bf82ae703a43d45cebfb9d2", "fusion_lat": 0.0}, {"lon": -76.970742, "name": "258f919c8d9fb38adc3a40441169b72b", "is_disabled": 0, "type": "electric_bike", "is_reserved": 0, "fusion_lon": 0.0, "lat": 38.9205855, "rental_uris": {"ios": "https://dc.lft.to/lastmile_qr_scan", "android": "https://dc.lft.to/lastmile_qr_scan"}, "bike_id": "258f919c8d9fb38adc3a40441169b72b", "fusion_lat": 0.0}, {"lon": -77.03200933333333, "name": "18d45e6500bf16062f645346fad62bea", "is_disabled": 0, "type": "electric_scooter", "is_reserved": 0, "fusion_lon": 0.0, "lat": 38.916198333333334, "rental_uris": {"ios": "https://dc.lft.to/lastmile_qr_scan", "android": "https://dc.lft.to/lastmile_qr_scan"}, "bike_id": "18d45e6500bf16062f645346fad62bea", "fusion_lat": 0.0}, {"lon": -77.03654683333333, "name": "648015e0f6bbcc357c338a27dd85be66", "is_disabled": 0, "type": "electric_scooter", "is_reserved": 0, "fusion_lon": 0.0, "lat": 38.952865, "rental_uris": {"ios": "https://dc.lft.to/lastmile_qr_scan", "android": "https://dc.lft.to/lastmile_qr_scan"}, "bike_id": "648015e0f6bbcc357c338a27dd85be66", "fusion_lat": 0.0}, {"lon": -77.039658, "name": "04523882f6e5f65c0c7ac48c199d9709", "is_disabled": 0, "type": "electric_scooter", "is_reserved": 0, "fusion_lon": 0.0, "lat": 38.9036885, "rental_uris": {"ios": "https://dc.lft.to/lastmile_qr_scan", "android": "https://dc.lft.to/lastmile_qr_scan"}, "bike_id": "04523882f6e5f65c0c7ac48c199d9709", "fusion_lat": 0.0}, {"lon": -77.0059575, "name": "9ef464f5d4c26d1d2da544a0da9e7719", "is_disabled": 0, "type": "electric_scooter", "is_reserved": 0, "fusion_lon": 0.0, "lat": 38.9063235, "rental_uris": {"ios": "https://dc.lft.to/lastmile_qr_scan", "android": "https://dc.lft.to/lastmile_qr_scan"}, "bike_id": "9ef464f5d4c26d1d2da544a0da9e7719", "fusion_lat": 0.0}, {"lon": -77.1287885, "name": "8a342e1323d3f8f3510a0789855ceaf5", "is_disabled": 0, "type": "electric_bike", "is_reserved": 0, "fusion_lon": 0.0, "lat": 38.906163166666666, "rental_uris": {"ios": "https://dc.lft.to/lastmile_qr_scan", "android": "https://dc.lft.to/lastmile_qr_scan"}, "bike_id": "8a342e1323d3f8f3510a0789855ceaf5", "fusion_lat": 0.0}, {"lon": -77.0217965, "name": "5430c94061e98ad6626769b8a5a8cb1b", "is_disabled": 0, "type": "electric_scooter", "is_reserved": 0, "fusion_lon": 0.0, "lat": 38.916051833333334, "rental_uris": {"ios": "https://dc.lft.to/lastmile_qr_scan", "android": "https://dc.lft.to/lastmile_qr_scan"}, "bike_id": "5430c94061e98ad6626769b8a5a8cb1b", "fusion_lat": 0.0}, {"lon": -77.03245166666666, "name": "8817adec71e763225ee23ed8a9698859", "is_disabled": 0, "type": "electric_scooter", "is_reserved": 0, "fusion_lon": 0.0, "lat": 38.9210435, "rental_uris": {"ios": "https://dc.lft.to/lastmile_qr_scan", "android": "https://dc.lft.to/lastmile_qr_scan"}, "bike_id": "8817adec71e763225ee23ed8a9698859", "fusion_lat": 0.0}, {"lon": -77.03470216666666, "name": "2690d23ea16044eab8c9916159f3e93b", "is_disabled": 0, "type": "electric_scooter", "is_reserved": 0, "fusion_lon": 0.0, "lat": 38.929798166666664, "rental_uris": {"ios": "https://dc.lft.to/lastmile_qr_scan", "android": "https://dc.lft.to/lastmile_qr_scan"}, "bike_id": "2690d23ea16044eab8c9916159f3e93b", "fusion_lat": 0.0}, {"lon": -77.00128816666667, "name": "7f7327515db936d8d15cd82a06746434", "is_disabled": 0, "type": "electric_scooter", "is_reserved": 0, "fusion_lon": 0.0, "lat": 38.8738145, "rental_uris": {"ios": "https://dc.lft.to/lastmile_qr_scan", "android": "https://dc.lft.to/lastmile_qr_scan"}, "bike_id": "7f7327515db936d8d15cd82a06746434", "fusion_lat": 0.0}, {"lon": -77.02615483333334, "name": "c265ea6b8a6aff7b5684e662580bf1ba", "is_disabled": 0, "type": "electric_bike", "is_reserved": 0, "fusion_lon": 0.0, "lat": 38.9692205, "rental_uris": {"ios": "https://dc.lft.to/lastmile_qr_scan", "android": "https://dc.lft.to/lastmile_qr_scan"}, "bike_id": "c265ea6b8a6aff7b5684e662580bf1ba", "fusion_lat": 0.0}, {"lon": -77.0533995, "name": "b319a7e0b757d4bd4f9779f2f6525252", "is_disabled": 0, "type": "electric_scooter", "is_reserved": 0, "fusion_lon": 0.0, "lat": 38.90432033333333, "rental_uris": {"ios": "https://dc.lft.to/lastmile_qr_scan", "android": "https://dc.lft.to/lastmile_qr_scan"}, "bike_id": "b319a7e0b757d4bd4f9779f2f6525252", "fusion_lat": 0.0}, {"lon": -77.032791, "name": "b7714b2d5a01ad726401804772465dcf", "is_disabled": 0, "type": "electric_scooter", "is_reserved": 0, "fusion_lon": 0.0, "lat": 38.932068, "rental_uris": {"ios": "https://dc.lft.to/lastmile_qr_scan", "android": "https://dc.lft.to/lastmile_qr_scan"}, "bike_id": "b7714b2d5a01ad726401804772465dcf", "fusion_lat": 0.0}, {"lon": -77.03194433333333, "name": "b766fd7a751b8a8337ba4b3670deb982", "is_disabled": 0, "type": "electric_scooter", "is_reserved": 0, "fusion_lon": 0.0, "lat": 38.916297666666665, "rental_uris": {"ios": "https://dc.lft.to/lastmile_qr_scan", "android": "https://dc.lft.to/lastmile_qr_scan"}, "bike_id": "b766fd7a751b8a8337ba4b3670deb982", "fusion_lat": 0.0}, {"lon": -77.03198116666667, "name": "a18d62b995d8a9af7fd01e3e8c0f9921", "is_disabled": 0, "type": "electric_scooter", "is_reserved": 0, "fusion_lon": 0.0, "lat": 38.92287, "rental_uris": {"ios": "https://dc.lft.to/lastmile_qr_scan", "android": "https://dc.lft.to/lastmile_qr_scan"}, "bike_id": "a18d62b995d8a9af7fd01e3e8c0f9921", "fusion_lat": 0.0}, {"lon": -77.0623725, "name": "1ad3351745843022e70dc9e402fcd814", "is_disabled": 0, "type": "electric_scooter", "is_reserved": 0, "fusion_lon": 0.0, "lat": 38.913102, "rental_uris": {"ios": "https://dc.lft.to/lastmile_qr_scan", "android": "https://dc.lft.to/lastmile_qr_scan"}, "bike_id": "1ad3351745843022e70dc9e402fcd814", "fusion_lat": 0.0}, {"lon": -77.0346455, "name": "506be04c748f8aaf2d8aaadf828e4074", "is_disabled": 0, "type": "electric_scooter", "is_reserved": 0, "fusion_lon": 0.0, "lat": 38.921518, "rental_uris": {"ios": "https://dc.lft.to/lastmile_qr_scan", "android": "https://dc.lft.to/lastmile_qr_scan"}, "bike_id": "506be04c748f8aaf2d8aaadf828e4074", "fusion_lat": 0.0}, {"lon": -77.00334083333334, "name": "6c22bb17514a36df35e89673a0392924", "is_disabled": 0, "type": "electric_scooter", "is_reserved": 0, "fusion_lon": 0.0, "lat": 38.89214666666667, "rental_uris": {"ios": "https://dc.lft.to/lastmile_qr_scan", "android": "https://dc.lft.to/lastmile_qr_scan"}, "bike_id": "6c22bb17514a36df35e89673a0392924", "fusion_lat": 0.0}, {"lon": -77.028457, "name": "50f5116ae086f743eaa7a8318b8f12b7", "is_disabled": 0, "type": "electric_bike", "is_reserved": 0, "fusion_lon": 0.0, "lat": 38.92643483333333, "rental_uris": {"ios": "https://dc.lft.to/lastmile_qr_scan", "android": "https://dc.lft.to/lastmile_qr_scan"}, "bike_id": "50f5116ae086f743eaa7a8318b8f12b7", "fusion_lat": 0.0}, {"lon": -77.02351116666667, "name": "fb6dd198aa55a5c78fc756ae82edcc8b", "is_disabled": 0, "type": "electric_scooter", "is_reserved": 0, "fusion_lon": 0.0, "lat": 38.94301266666667, "rental_uris": {"ios": "https://dc.lft.to/lastmile_qr_scan", "android": "https://dc.lft.to/lastmile_qr_scan"}, "bike_id": "fb6dd198aa55a5c78fc756ae82edcc8b", "fusion_lat": 0.0}, {"lon": -77.088006, "name": "427efeca9e75be7dcbe70f4b6c50d280", "is_disabled": 0, "type": "electric_scooter", "is_reserved": 0, "fusion_lon": 0.0, "lat": 38.93534916666667, "rental_uris": {"ios": "https://dc.lft.to/lastmile_qr_scan", "android": "https://dc.lft.to/lastmile_qr_scan"}, "bike_id": "427efeca9e75be7dcbe70f4b6c50d280", "fusion_lat": 0.0}, {"lon": -77.03092766666667, "name": "2ea671ec032a17f401b29038ceae6185", "is_disabled": 0, "type": "electric_scooter", "is_reserved": 0, "fusion_lon": 0.0, "lat": 38.935346833333334, "rental_uris": {"ios": "https://dc.lft.to/lastmile_qr_scan", "android": "https://dc.lft.to/lastmile_qr_scan"}, "bike_id": "2ea671ec032a17f401b29038ceae6185", "fusion_lat": 0.0}, {"lon": -77.01957166666666, "name": "0f8fd055388b4f735ace96b57f141d4c", "is_disabled": 0, "type": "electric_scooter", "is_reserved": 0, "fusion_lon": 0.0, "lat": 38.9236415, "rental_uris": {"ios": "https://dc.lft.to/lastmile_qr_scan", "android": "https://dc.lft.to/lastmile_qr_scan"}, "bike_id": "0f8fd055388b4f735ace96b57f141d4c", "fusion_lat": 0.0}, {"lon": -77.0598855, "name": "ece142d6f9c6760df4072aa8ecf9d6aa", "is_disabled": 0, "type": "electric_scooter", "is_reserved": 0, "fusion_lon": 0.0, "lat": 38.92705933333333, "rental_uris": {"ios": "https://dc.lft.to/lastmile_qr_scan", "android": "https://dc.lft.to/lastmile_qr_scan"}, "bike_id": "ece142d6f9c6760df4072aa8ecf9d6aa", "fusion_lat": 0.0}, {"lon": -77.01511983333333, "name": "c9280880e20ac3ecc77b4018bfbd2d39", "is_disabled": 0, "type": "electric_scooter", "is_reserved": 0, "fusion_lon": 0.0, "lat": 38.9132335, "rental_uris": {"ios": "https://dc.lft.to/lastmile_qr_scan", "android": "https://dc.lft.to/lastmile_qr_scan"}, "bike_id": "c9280880e20ac3ecc77b4018bfbd2d39", "fusion_lat": 0.0}, {"lon": -77.0237425, "name": "7b697957208522921ee41d8576082ce7", "is_disabled": 0, "type": "electric_scooter", "is_reserved": 0, "fusion_lon": 0.0, "lat": 38.89635716666667, "rental_uris": {"ios": "https://dc.lft.to/lastmile_qr_scan", "android": "https://dc.lft.to/lastmile_qr_scan"}, "bike_id": "7b697957208522921ee41d8576082ce7", "fusion_lat": 0.0}, {"lon": -77.09947133333333, "name": "5d16929ddf424b85faedce6cad382322", "is_disabled": 0, "type": "electric_scooter", "is_reserved": 0, "fusion_lon": 0.0, "lat": 38.921896, "rental_uris": {"ios": "https://dc.lft.to/lastmile_qr_scan", "android": "https://dc.lft.to/lastmile_qr_scan"}, "bike_id": "5d16929ddf424b85faedce6cad382322", "fusion_lat": 0.0}, {"lon": -77.00511366666667, "name": "1d063467d2fd47dc3243b5f93e6bffd4", "is_disabled": 0, "type": "electric_scooter", "is_reserved": 0, "fusion_lon": 0.0, "lat": 38.87532616666667, "rental_uris": {"ios": "https://dc.lft.to/lastmile_qr_scan", "android": "https://dc.lft.to/lastmile_qr_scan"}, "bike_id": "1d063467d2fd47dc3243b5f93e6bffd4", "fusion_lat": 0.0}, {"lon": -76.973292, "name": "da7716c4faca85d7f48b4fee65051c10", "is_disabled": 0, "type": "electric_scooter", "is_reserved": 0, "fusion_lon": 0.0, "lat": 38.90408433333333, "rental_uris": {"ios": "https://dc.lft.to/lastmile_qr_scan", "android": "https://dc.lft.to/lastmile_qr_scan"}, "bike_id": "da7716c4faca85d7f48b4fee65051c10", "fusion_lat": 0.0}, {"lon": -77.02852133333333, "name": "2a317bf6f9de071ada9a4fdfbb9417b0", "is_disabled": 0, "type": "electric_scooter", "is_reserved": 0, "fusion_lon": 0.0, "lat": 38.922389333333335, "rental_uris": {"ios": "https://dc.lft.to/lastmile_qr_scan", "android": "https://dc.lft.to/lastmile_qr_scan"}, "bike_id": "2a317bf6f9de071ada9a4fdfbb9417b0", "fusion_lat": 0.0}, {"lon": -77.03938016666666, "name": "48a5db481491a99fd35ca75b65d12e7c", "is_disabled": 0, "type": "electric_scooter", "is_reserved": 0, "fusion_lon": 0.0, "lat": 38.92465, "rental_uris": {"ios": "https://dc.lft.to/lastmile_qr_scan", "android": "https://dc.lft.to/lastmile_qr_scan"}, "bike_id": "48a5db481491a99fd35ca75b65d12e7c", "fusion_lat": 0.0}, {"lon": -77.00371533333333, "name": "17c19eab2b3127e773fa1ea787e1b2d2", "is_disabled": 0, "type": "electric_scooter", "is_reserved": 0, "fusion_lon": 0.0, "lat": 38.89729466666667, "rental_uris": {"ios": "https://dc.lft.to/lastmile_qr_scan", "android": "https://dc.lft.to/lastmile_qr_scan"}, "bike_id": "17c19eab2b3127e773fa1ea787e1b2d2", "fusion_lat": 0.0}, {"lon": -77.00070816666667, "name": "b21f8c6db4773aca1ac4869dc3566684", "is_disabled": 0, "type": "electric_scooter", "is_reserved": 0, "fusion_lon": 0.0, "lat": 38.876632666666666, "rental_uris": {"ios": "https://dc.lft.to/lastmile_qr_scan", "android": "https://dc.lft.to/lastmile_qr_scan"}, "bike_id": "b21f8c6db4773aca1ac4869dc3566684", "fusion_lat": 0.0}, {"lon": -76.99563516666667, "name": "e8416b524580ae854c05b1285ac92ceb", "is_disabled": 0, "type": "electric_scooter", "is_reserved": 0, "fusion_lon": 0.0, "lat": 38.90002066666667, "rental_uris": {"ios": "https://dc.lft.to/lastmile_qr_scan", "android": "https://dc.lft.to/lastmile_qr_scan"}, "bike_id": "e8416b524580ae854c05b1285ac92ceb", "fusion_lat": 0.0}, {"lon": -77.00152266666667, "name": "3b8d926752ac0e7007e6a5b78b9d9a87", "is_disabled": 0, "type": "electric_scooter", "is_reserved": 0, "fusion_lon": 0.0, "lat": 38.894725666666666, "rental_uris": {"ios": "https://dc.lft.to/lastmile_qr_scan", "android": "https://dc.lft.to/lastmile_qr_scan"}, "bike_id": "3b8d926752ac0e7007e6a5b78b9d9a87", "fusion_lat": 0.0}, {"lon": -77.04167616666666, "name": "ccb57560c287b92aade4b3c06fcd228a", "is_disabled": 0, "type": "electric_scooter", "is_reserved": 0, "fusion_lon": 0.0, "lat": 38.917215, "rental_uris": {"ios": "https://dc.lft.to/lastmile_qr_scan", "android": "https://dc.lft.to/lastmile_qr_scan"}, "bike_id": "ccb57560c287b92aade4b3c06fcd228a", "fusion_lat": 0.0}, {"lon": -77.0346795, "name": "9f22d2f38bd1ab5d477453e109087674", "is_disabled": 0, "type": "electric_scooter", "is_reserved": 0, "fusion_lon": 0.0, "lat": 38.90451233333334, "rental_uris": {"ios": "https://dc.lft.to/lastmile_qr_scan", "android": "https://dc.lft.to/lastmile_qr_scan"}, "bike_id": "9f22d2f38bd1ab5d477453e109087674", "fusion_lat": 0.0}, {"lon": -77.02484183333333, "name": "e279aca765f244ba4c4fc14a3751b23f", "is_disabled": 0, "type": "electric_scooter", "is_reserved": 0, "fusion_lon": 0.0, "lat": 38.880085, "rental_uris": {"ios": "https://dc.lft.to/lastmile_qr_scan", "android": "https://dc.lft.to/lastmile_qr_scan"}, "bike_id": "e279aca765f244ba4c4fc14a3751b23f", "fusion_lat": 0.0}, {"lon": -77.01205683333333, "name": "856f5d4f8af16723af07be8ebcb9134d", "is_disabled": 0, "type": "electric_scooter", "is_reserved": 0, "fusion_lon": 0.0, "lat": 38.927415, "rental_uris": {"ios": "https://dc.lft.to/lastmile_qr_scan", "android": "https://dc.lft.to/lastmile_qr_scan"}, "bike_id": "856f5d4f8af16723af07be8ebcb9134d", "fusion_lat": 0.0}, {"lon": -77.0278785, "name": "b29bbab01215fb00af591ae34e4740be", "is_disabled": 0, "type": "electric_scooter", "is_reserved": 0, "fusion_lon": 0.0, "lat": 38.927577666666664, "rental_uris": {"ios": "https://dc.lft.to/lastmile_qr_scan", "android": "https://dc.lft.to/lastmile_qr_scan"}, "bike_id": "b29bbab01215fb00af591ae34e4740be", "fusion_lat": 0.0}, {"lon": -77.02188066666666, "name": "83a7ab0a55b3859eab9901042acacc62", "is_disabled": 0, "type": "electric_scooter", "is_reserved": 0, "fusion_lon": 0.0, "lat": 38.90584333333334, "rental_uris": {"ios": "https://dc.lft.to/lastmile_qr_scan", "android": "https://dc.lft.to/lastmile_qr_scan"}, "bike_id": "83a7ab0a55b3859eab9901042acacc62", "fusion_lat": 0.0}, {"lon": -77.00217383333333, "name": "c62919e2413d59377400e16e0ccd0b73", "is_disabled": 0, "type": "electric_scooter", "is_reserved": 0, "fusion_lon": 0.0, "lat": 38.907867833333334, "rental_uris": {"ios": "https://dc.lft.to/lastmile_qr_scan", "android": "https://dc.lft.to/lastmile_qr_scan"}, "bike_id": "c62919e2413d59377400e16e0ccd0b73", "fusion_lat": 0.0}, {"lon": -76.99225833333334, "name": "8a47b1f688551579657dfd76f66e66fb", "is_disabled": 0, "type": "electric_scooter", "is_reserved": 0, "fusion_lon": 0.0, "lat": 38.897408166666665, "rental_uris": {"ios": "https://dc.lft.to/lastmile_qr_scan", "android": "https://dc.lft.to/lastmile_qr_scan"}, "bike_id": "8a47b1f688551579657dfd76f66e66fb", "fusion_lat": 0.0}, {"lon": -77.0255435, "name": "1ce9eaef499d665241f07fcfb56efce4", "is_disabled": 0, "type": "electric_scooter", "is_reserved": 0, "fusion_lon": 0.0, "lat": 38.916302333333334, "rental_uris": {"ios": "https://dc.lft.to/lastmile_qr_scan", "android": "https://dc.lft.to/lastmile_qr_scan"}, "bike_id": "1ce9eaef499d665241f07fcfb56efce4", "fusion_lat": 0.0}, {"lon": -77.017862, "name": "07b0e21803f4a12a701799c1d8f8aa45", "is_disabled": 0, "type": "electric_scooter", "is_reserved": 0, "fusion_lon": 0.0, "lat": 38.9199195, "rental_uris": {"ios": "https://dc.lft.to/lastmile_qr_scan", "android": "https://dc.lft.to/lastmile_qr_scan"}, "bike_id": "07b0e21803f4a12a701799c1d8f8aa45", "fusion_lat": 0.0}, {"lon": -77.043753, "name": "b5091574b53661169acb18928da9219f", "is_disabled": 0, "type": "electric_scooter", "is_reserved": 0, "fusion_lon": 0.0, "lat": 38.902735666666665, "rental_uris": {"ios": "https://dc.lft.to/lastmile_qr_scan", "android": "https://dc.lft.to/lastmile_qr_scan"}, "bike_id": "b5091574b53661169acb18928da9219f", "fusion_lat": 0.0}, {"lon": -77.01951783333334, "name": "1e4c07e07301f641b6286a66916e6cd4", "is_disabled": 0, "type": "electric_scooter", "is_reserved": 0, "fusion_lon": 0.0, "lat": 38.92256483333333, "rental_uris": {"ios": "https://dc.lft.to/lastmile_qr_scan", "android": "https://dc.lft.to/lastmile_qr_scan"}, "bike_id": "1e4c07e07301f641b6286a66916e6cd4", "fusion_lat": 0.0}, {"lon": -77.03975716666666, "name": "041236486778165d011fdfe70cb8a1b7", "is_disabled": 0, "type": "electric_scooter", "is_reserved": 0, "fusion_lon": 0.0, "lat": 38.92022933333333, "rental_uris": {"ios": "https://dc.lft.to/lastmile_qr_scan", "android": "https://dc.lft.to/lastmile_qr_scan"}, "bike_id": "041236486778165d011fdfe70cb8a1b7", "fusion_lat": 0.0}, {"lon": -77.00301516666667, "name": "5124a9f374986574621bf8ca526a1fed", "is_disabled": 0, "type": "electric_scooter", "is_reserved": 0, "fusion_lon": 0.0, "lat": 38.8766765, "rental_uris": {"ios": "https://dc.lft.to/lastmile_qr_scan", "android": "https://dc.lft.to/lastmile_qr_scan"}, "bike_id": "5124a9f374986574621bf8ca526a1fed", "fusion_lat": 0.0}, {"lon": -77.03375333333334, "name": "b0784ab23bd708f821c253605ca1e7f2", "is_disabled": 0, "type": "electric_scooter", "is_reserved": 0, "fusion_lon": 0.0, "lat": 38.92162483333333, "rental_uris": {"ios": "https://dc.lft.to/lastmile_qr_scan", "android": "https://dc.lft.to/lastmile_qr_scan"}, "bike_id": "b0784ab23bd708f821c253605ca1e7f2", "fusion_lat": 0.0}, {"lon": -77.04199433333334, "name": "bb81e92f2a49373deaa17bbac76dbdf1", "is_disabled": 0, "type": "electric_scooter", "is_reserved": 0, "fusion_lon": 0.0, "lat": 38.920608333333334, "rental_uris": {"ios": "https://dc.lft.to/lastmile_qr_scan", "android": "https://dc.lft.to/lastmile_qr_scan"}, "bike_id": "bb81e92f2a49373deaa17bbac76dbdf1", "fusion_lat": 0.0}, {"lon": -77.04196266666666, "name": "72334cc340c51428a66b2f1e43da8256", "is_disabled": 0, "type": "electric_scooter", "is_reserved": 0, "fusion_lon": 0.0, "lat": 38.920532666666666, "rental_uris": {"ios": "https://dc.lft.to/lastmile_qr_scan", "android": "https://dc.lft.to/lastmile_qr_scan"}, "bike_id": "72334cc340c51428a66b2f1e43da8256", "fusion_lat": 0.0}, {"lon": -77.0398055, "name": "f2e7495f9dc74a4aedafab82a345e844", "is_disabled": 0, "type": "electric_scooter", "is_reserved": 0, "fusion_lon": 0.0, "lat": 38.90367166666667, "rental_uris": {"ios": "https://dc.lft.to/lastmile_qr_scan", "android": "https://dc.lft.to/lastmile_qr_scan"}, "bike_id": "f2e7495f9dc74a4aedafab82a345e844", "fusion_lat": 0.0}, {"lon": -76.971412, "name": "6b9092c5deb84989188b256b89f9af34", "is_disabled": 0, "type": "electric_scooter", "is_reserved": 0, "fusion_lon": 0.0, "lat": 38.91348416666666, "rental_uris": {"ios": "https://dc.lft.to/lastmile_qr_scan", "android": "https://dc.lft.to/lastmile_qr_scan"}, "bike_id": "6b9092c5deb84989188b256b89f9af34", "fusion_lat": 0.0}, {"lon": -77.05390366666667, "name": "db693d7bbb71d054f391c8a83fcfdfc2", "is_disabled": 0, "type": "electric_scooter", "is_reserved": 0, "fusion_lon": 0.0, "lat": 38.92331883333333, "rental_uris": {"ios": "https://dc.lft.to/lastmile_qr_scan", "android": "https://dc.lft.to/lastmile_qr_scan"}, "bike_id": "db693d7bbb71d054f391c8a83fcfdfc2", "fusion_lat": 0.0}, {"lon": -76.90757616666667, "name": "136ac43fd9f49dbc9daa6ec1d3f0f2ed", "is_disabled": 0, "type": "electric_bike", "is_reserved": 0, "fusion_lon": 0.0, "lat": 38.8961245, "rental_uris": {"ios": "https://dc.lft.to/lastmile_qr_scan", "android": "https://dc.lft.to/lastmile_qr_scan"}, "bike_id": "136ac43fd9f49dbc9daa6ec1d3f0f2ed", "fusion_lat": 0.0}, {"lon": -77.03856416666666, "name": "bc6b3a97080cd13acb9b07e77b411bd0", "is_disabled": 0, "type": "electric_scooter", "is_reserved": 0, "fusion_lon": 0.0, "lat": 38.916646, "rental_uris": {"ios": "https://dc.lft.to/lastmile_qr_scan", "android": "https://dc.lft.to/lastmile_qr_scan"}, "bike_id": "bc6b3a97080cd13acb9b07e77b411bd0", "fusion_lat": 0.0}, {"lon": -77.03945733333333, "name": "6f8d650d56afd0082f304baa0c94b9b1", "is_disabled": 0, "type": "electric_scooter", "is_reserved": 0, "fusion_lon": 0.0, "lat": 38.908118333333334, "rental_uris": {"ios": "https://dc.lft.to/lastmile_qr_scan", "android": "https://dc.lft.to/lastmile_qr_scan"}, "bike_id": "6f8d650d56afd0082f304baa0c94b9b1", "fusion_lat": 0.0}, {"lon": -77.00615083333334, "name": "b17023b60fd22a44d130ac7dab0dd790", "is_disabled": 0, "type": "electric_scooter", "is_reserved": 0, "fusion_lon": 0.0, "lat": 38.871957, "rental_uris": {"ios": "https://dc.lft.to/lastmile_qr_scan", "android": "https://dc.lft.to/lastmile_qr_scan"}, "bike_id": "b17023b60fd22a44d130ac7dab0dd790", "fusion_lat": 0.0}, {"lon": -77.027054, "name": "a737f404d83c6f241a2c7cf15452ff64", "is_disabled": 0, "type": "electric_scooter", "is_reserved": 0, "fusion_lon": 0.0, "lat": 38.8972825, "rental_uris": {"ios": "https://dc.lft.to/lastmile_qr_scan", "android": "https://dc.lft.to/lastmile_qr_scan"}, "bike_id": "a737f404d83c6f241a2c7cf15452ff64", "fusion_lat": 0.0}, {"lon": -77.05009666666666, "name": "1537e8129dafbe168db12af2a97d6672", "is_disabled": 0, "type": "electric_scooter", "is_reserved": 0, "fusion_lon": 0.0, "lat": 38.9013115, "rental_uris": {"ios": "https://dc.lft.to/lastmile_qr_scan", "android": "https://dc.lft.to/lastmile_qr_scan"}, "bike_id": "1537e8129dafbe168db12af2a97d6672", "fusion_lat": 0.0}, {"lon": -77.01498316666667, "name": "af8898dd710acfc460ec4bef5487048f", "is_disabled": 0, "type": "electric_scooter", "is_reserved": 0, "fusion_lon": 0.0, "lat": 38.92666066666666, "rental_uris": {"ios": "https://dc.lft.to/lastmile_qr_scan", "android": "https://dc.lft.to/lastmile_qr_scan"}, "bike_id": "af8898dd710acfc460ec4bef5487048f", "fusion_lat": 0.0}, {"lon": -77.04008316666666, "name": "5ca60e9822f05090e0595f29ef3a4be6", "is_disabled": 0, "type": "electric_bike", "is_reserved": 0, "fusion_lon": 0.0, "lat": 38.900236666666665, "rental_uris": {"ios": "https://dc.lft.to/lastmile_qr_scan", "android": "https://dc.lft.to/lastmile_qr_scan"}, "bike_id": "5ca60e9822f05090e0595f29ef3a4be6", "fusion_lat": 0.0}, {"lon": -77.00919683333333, "name": "52fff793b009b293ddf2bf44d24a934b", "is_disabled": 0, "type": "electric_scooter", "is_reserved": 0, "fusion_lon": 0.0, "lat": 38.9234225, "rental_uris": {"ios": "https://dc.lft.to/lastmile_qr_scan", "android": "https://dc.lft.to/lastmile_qr_scan"}, "bike_id": "52fff793b009b293ddf2bf44d24a934b", "fusion_lat": 0.0}, {"lon": -76.99841633333334, "name": "e1cc171298240853f38a233933248b49", "is_disabled": 0, "type": "electric_bike", "is_reserved": 0, "fusion_lon": 0.0, "lat": 38.83910183333333, "rental_uris": {"ios": "https://dc.lft.to/lastmile_qr_scan", "android": "https://dc.lft.to/lastmile_qr_scan"}, "bike_id": "e1cc171298240853f38a233933248b49", "fusion_lat": 0.0}, {"lon": -77.03150166666667, "name": "493413fd3b07652dd7c70f2edbb08f66", "is_disabled": 0, "type": "electric_scooter", "is_reserved": 0, "fusion_lon": 0.0, "lat": 38.94174533333333, "rental_uris": {"ios": "https://dc.lft.to/lastmile_qr_scan", "android": "https://dc.lft.to/lastmile_qr_scan"}, "bike_id": "493413fd3b07652dd7c70f2edbb08f66", "fusion_lat": 0.0}, {"lon": -77.04603816666666, "name": "d36b34466968ac72699395b3c2bb07b9", "is_disabled": 0, "type": "electric_scooter", "is_reserved": 0, "fusion_lon": 0.0, "lat": 38.902566666666665, "rental_uris": {"ios": "https://dc.lft.to/lastmile_qr_scan", "android": "https://dc.lft.to/lastmile_qr_scan"}, "bike_id": "d36b34466968ac72699395b3c2bb07b9", "fusion_lat": 0.0}, {"lon": -77.00377933333333, "name": "9f57d5887adc84e81946d002a3291d9a", "is_disabled": 0, "type": "electric_scooter", "is_reserved": 0, "fusion_lon": 0.0, "lat": 38.90711683333333, "rental_uris": {"ios": "https://dc.lft.to/lastmile_qr_scan", "android": "https://dc.lft.to/lastmile_qr_scan"}, "bike_id": "9f57d5887adc84e81946d002a3291d9a", "fusion_lat": 0.0}, {"lon": -77.03944616666666, "name": "ed21ee1db725ba014c1f353bb9d9b8af", "is_disabled": 0, "type": "electric_scooter", "is_reserved": 0, "fusion_lon": 0.0, "lat": 38.90817466666667, "rental_uris": {"ios": "https://dc.lft.to/lastmile_qr_scan", "android": "https://dc.lft.to/lastmile_qr_scan"}, "bike_id": "ed21ee1db725ba014c1f353bb9d9b8af", "fusion_lat": 0.0}, {"lon": -77.019002, "name": "127ad3ddf925a87a5418efed0b1db7fe", "is_disabled": 0, "type": "electric_scooter", "is_reserved": 0, "fusion_lon": 0.0, "lat": 38.923378666666665, "rental_uris": {"ios": "https://dc.lft.to/lastmile_qr_scan", "android": "https://dc.lft.to/lastmile_qr_scan"}, "bike_id": "127ad3ddf925a87a5418efed0b1db7fe", "fusion_lat": 0.0}, {"lon": -77.031613, "name": "673057b640bb832e8e5e3e10604472bd", "is_disabled": 0, "type": "electric_scooter", "is_reserved": 0, "fusion_lon": 0.0, "lat": 38.89219466666667, "rental_uris": {"ios": "https://dc.lft.to/lastmile_qr_scan", "android": "https://dc.lft.to/lastmile_qr_scan"}, "bike_id": "673057b640bb832e8e5e3e10604472bd", "fusion_lat": 0.0}, {"lon": -77.078268, "name": "d47c13e8a26d3f6cf3356294814d4288", "is_disabled": 0, "type": "electric_scooter", "is_reserved": 0, "fusion_lon": 0.0, "lat": 38.94628083333333, "rental_uris": {"ios": "https://dc.lft.to/lastmile_qr_scan", "android": "https://dc.lft.to/lastmile_qr_scan"}, "bike_id": "d47c13e8a26d3f6cf3356294814d4288", "fusion_lat": 0.0}, {"lon": -77.042709, "name": "d21d781059b19f143638be6f77d7aea6", "is_disabled": 0, "type": "electric_scooter", "is_reserved": 0, "fusion_lon": 0.0, "lat": 38.8984195, "rental_uris": {"ios": "https://dc.lft.to/lastmile_qr_scan", "android": "https://dc.lft.to/lastmile_qr_scan"}, "bike_id": "d21d781059b19f143638be6f77d7aea6", "fusion_lat": 0.0}, {"lon": -76.9914895, "name": "b19323fdca61869da097994aae0bccd0", "is_disabled": 0, "type": "electric_scooter", "is_reserved": 0, "fusion_lon": 0.0, "lat": 38.891624, "rental_uris": {"ios": "https://dc.lft.to/lastmile_qr_scan", "android": "https://dc.lft.to/lastmile_qr_scan"}, "bike_id": "b19323fdca61869da097994aae0bccd0", "fusion_lat": 0.0}, {"lon": -76.9774495, "name": "42aa192e43365d072c4a577f294289c1", "is_disabled": 0, "type": "electric_bike", "is_reserved": 0, "fusion_lon": 0.0, "lat": 38.86486566666667, "rental_uris": {"ios": "https://dc.lft.to/lastmile_qr_scan", "android": "https://dc.lft.to/lastmile_qr_scan"}, "bike_id": "42aa192e43365d072c4a577f294289c1", "fusion_lat": 0.0}, {"lon": -77.03954583333334, "name": "1022cdba4c174d9f3158d617a09d8309", "is_disabled": 0, "type": "electric_scooter", "is_reserved": 0, "fusion_lon": 0.0, "lat": 38.89855683333333, "rental_uris": {"ios": "https://dc.lft.to/lastmile_qr_scan", "android": "https://dc.lft.to/lastmile_qr_scan"}, "bike_id": "1022cdba4c174d9f3158d617a09d8309", "fusion_lat": 0.0}, {"lon": -77.0461995, "name": "3c207140b01beb119a0ad4bff72092ab", "is_disabled": 0, "type": "electric_scooter", "is_reserved": 0, "fusion_lon": 0.0, "lat": 38.91616966666667, "rental_uris": {"ios": "https://dc.lft.to/lastmile_qr_scan", "android": "https://dc.lft.to/lastmile_qr_scan"}, "bike_id": "3c207140b01beb119a0ad4bff72092ab", "fusion_lat": 0.0}, {"lon": -77.0319175, "name": "269954a78ebc04b32f8512653e575f9a", "is_disabled": 0, "type": "electric_scooter", "is_reserved": 0, "fusion_lon": 0.0, "lat": 38.89239716666667, "rental_uris": {"ios": "https://dc.lft.to/lastmile_qr_scan", "android": "https://dc.lft.to/lastmile_qr_scan"}, "bike_id": "269954a78ebc04b32f8512653e575f9a", "fusion_lat": 0.0}, {"lon": -77.09199733333334, "name": "1a528d69715fc1d7f6086cb1168b65a2", "is_disabled": 0, "type": "electric_scooter", "is_reserved": 0, "fusion_lon": 0.0, "lat": 38.917225, "rental_uris": {"ios": "https://dc.lft.to/lastmile_qr_scan", "android": "https://dc.lft.to/lastmile_qr_scan"}, "bike_id": "1a528d69715fc1d7f6086cb1168b65a2", "fusion_lat": 0.0}, {"lon": -77.0185435, "name": "f4402ec83ee1772d112ee331a5765031", "is_disabled": 0, "type": "electric_scooter", "is_reserved": 0, "fusion_lon": 0.0, "lat": 38.874612166666665, "rental_uris": {"ios": "https://dc.lft.to/lastmile_qr_scan", "android": "https://dc.lft.to/lastmile_qr_scan"}, "bike_id": "f4402ec83ee1772d112ee331a5765031", "fusion_lat": 0.0}, {"lon": -77.03336566666667, "name": "f5bddd7fb15963795682f6e0937642ad", "is_disabled": 0, "type": "electric_scooter", "is_reserved": 0, "fusion_lon": 0.0, "lat": 38.902565, "rental_uris": {"ios": "https://dc.lft.to/lastmile_qr_scan", "android": "https://dc.lft.to/lastmile_qr_scan"}, "bike_id": "f5bddd7fb15963795682f6e0937642ad", "fusion_lat": 0.0}, {"lon": -76.9809635, "name": "f781113addb837257a50bf3279391857", "is_disabled": 0, "type": "electric_bike", "is_reserved": 0, "fusion_lon": 0.0, "lat": 38.95357383333333, "rental_uris": {"ios": "https://dc.lft.to/lastmile_qr_scan", "android": "https://dc.lft.to/lastmile_qr_scan"}, "bike_id": "f781113addb837257a50bf3279391857", "fusion_lat": 0.0}, {"lon": -77.00142266666667, "name": "86e2e6b1b8dcfeb6b043ec624ee61bc4", "is_disabled": 0, "type": "electric_scooter", "is_reserved": 0, "fusion_lon": 0.0, "lat": 38.884329666666666, "rental_uris": {"ios": "https://dc.lft.to/lastmile_qr_scan", "android": "https://dc.lft.to/lastmile_qr_scan"}, "bike_id": "86e2e6b1b8dcfeb6b043ec624ee61bc4", "fusion_lat": 0.0}, {"lon": -77.00832383333334, "name": "abed2fda0d98be2310239001d098dd7d", "is_disabled": 0, "type": "electric_scooter", "is_reserved": 0, "fusion_lon": 0.0, "lat": 38.922450833333336, "rental_uris": {"ios": "https://dc.lft.to/lastmile_qr_scan", "android": "https://dc.lft.to/lastmile_qr_scan"}, "bike_id": "abed2fda0d98be2310239001d098dd7d", "fusion_lat": 0.0}, {"lon": -77.04357083333333, "name": "7148d9cad3c33200db9da2e89bda808f", "is_disabled": 0, "type": "electric_bike", "is_reserved": 0, "fusion_lon": 0.0, "lat": 38.89845366666667, "rental_uris": {"ios": "https://dc.lft.to/lastmile_qr_scan", "android": "https://dc.lft.to/lastmile_qr_scan"}, "bike_id": "7148d9cad3c33200db9da2e89bda808f", "fusion_lat": 0.0}, {"lon": -77.02496216666667, "name": "2cdaa56f97b719c66d6522e8466865b6", "is_disabled": 0, "type": "electric_scooter", "is_reserved": 0, "fusion_lon": 0.0, "lat": 38.938988333333334, "rental_uris": {"ios": "https://dc.lft.to/lastmile_qr_scan", "android": "https://dc.lft.to/lastmile_qr_scan"}, "bike_id": "2cdaa56f97b719c66d6522e8466865b6", "fusion_lat": 0.0}, {"lon": -77.04035116666667, "name": "7d3952a7e7b42857a5cabe1ca75e70ce", "is_disabled": 0, "type": "electric_scooter", "is_reserved": 0, "fusion_lon": 0.0, "lat": 38.903608166666665, "rental_uris": {"ios": "https://dc.lft.to/lastmile_qr_scan", "android": "https://dc.lft.to/lastmile_qr_scan"}, "bike_id": "7d3952a7e7b42857a5cabe1ca75e70ce", "fusion_lat": 0.0}, {"lon": -77.01836316666666, "name": "5768cc99d0c95dfe01df7f160421ad34", "is_disabled": 0, "type": "electric_scooter", "is_reserved": 0, "fusion_lon": 0.0, "lat": 38.90860716666667, "rental_uris": {"ios": "https://dc.lft.to/lastmile_qr_scan", "android": "https://dc.lft.to/lastmile_qr_scan"}, "bike_id": "5768cc99d0c95dfe01df7f160421ad34", "fusion_lat": 0.0}, {"lon": -76.939116, "name": "56ffa3beb9c82b9acd53ed93d2190b86", "is_disabled": 0, "type": "electric_scooter", "is_reserved": 0, "fusion_lon": 0.0, "lat": 38.89165466666667, "rental_uris": {"ios": "https://dc.lft.to/lastmile_qr_scan", "android": "https://dc.lft.to/lastmile_qr_scan"}, "bike_id": "56ffa3beb9c82b9acd53ed93d2190b86", "fusion_lat": 0.0}, {"lon": -77.0492845, "name": "1d3e49e34708ebba54e4fe7ce732ab33", "is_disabled": 0, "type": "electric_scooter", "is_reserved": 0, "fusion_lon": 0.0, "lat": 38.906461666666665, "rental_uris": {"ios": "https://dc.lft.to/lastmile_qr_scan", "android": "https://dc.lft.to/lastmile_qr_scan"}, "bike_id": "1d3e49e34708ebba54e4fe7ce732ab33", "fusion_lat": 0.0}, {"lon": -77.04009083333334, "name": "9ec5f6f134a939a6d97ee8041e9cfde8", "is_disabled": 0, "type": "electric_scooter", "is_reserved": 0, "fusion_lon": 0.0, "lat": 38.93426516666667, "rental_uris": {"ios": "https://dc.lft.to/lastmile_qr_scan", "android": "https://dc.lft.to/lastmile_qr_scan"}, "bike_id": "9ec5f6f134a939a6d97ee8041e9cfde8", "fusion_lat": 0.0}, {"lon": -77.02340133333334, "name": "152545113b13d5297a51191abef4142a", "is_disabled": 0, "type": "electric_scooter", "is_reserved": 0, "fusion_lon": 0.0, "lat": 38.917828166666666, "rental_uris": {"ios": "https://dc.lft.to/lastmile_qr_scan", "android": "https://dc.lft.to/lastmile_qr_scan"}, "bike_id": "152545113b13d5297a51191abef4142a", "fusion_lat": 0.0}, {"lon": -77.027825, "name": "8639e44f03645c420690bab39bb663e9", "is_disabled": 0, "type": "electric_scooter", "is_reserved": 0, "fusion_lon": 0.0, "lat": 38.929505166666665, "rental_uris": {"ios": "https://dc.lft.to/lastmile_qr_scan", "android": "https://dc.lft.to/lastmile_qr_scan"}, "bike_id": "8639e44f03645c420690bab39bb663e9", "fusion_lat": 0.0}, {"lon": -77.09619366666666, "name": "d0ea957f0abb719142a1fdb3c825752b", "is_disabled": 0, "type": "electric_bike", "is_reserved": 0, "fusion_lon": 0.0, "lat": 38.974417833333334, "rental_uris": {"ios": "https://dc.lft.to/lastmile_qr_scan", "android": "https://dc.lft.to/lastmile_qr_scan"}, "bike_id": "d0ea957f0abb719142a1fdb3c825752b", "fusion_lat": 0.0}, {"lon": -76.973807, "name": "c419051e437bc091105fc59a15d4fe93", "is_disabled": 0, "type": "electric_scooter", "is_reserved": 0, "fusion_lon": 0.0, "lat": 38.8718725, "rental_uris": {"ios": "https://dc.lft.to/lastmile_qr_scan", "android": "https://dc.lft.to/lastmile_qr_scan"}, "bike_id": "c419051e437bc091105fc59a15d4fe93", "fusion_lat": 0.0}, {"lon": -77.04199183333333, "name": "f3ef18c449bc6073c09c383dc30edb45", "is_disabled": 0, "type": "electric_scooter", "is_reserved": 0, "fusion_lon": 0.0, "lat": 38.920625, "rental_uris": {"ios": "https://dc.lft.to/lastmile_qr_scan", "android": "https://dc.lft.to/lastmile_qr_scan"}, "bike_id": "f3ef18c449bc6073c09c383dc30edb45", "fusion_lat": 0.0}, {"lon": -77.00921916666667, "name": "921fe2be62e7b4cf130911d48de8bb94", "is_disabled": 0, "type": "electric_scooter", "is_reserved": 0, "fusion_lon": 0.0, "lat": 38.91877816666667, "rental_uris": {"ios": "https://dc.lft.to/lastmile_qr_scan", "android": "https://dc.lft.to/lastmile_qr_scan"}, "bike_id": "921fe2be62e7b4cf130911d48de8bb94", "fusion_lat": 0.0}, {"lon": -77.04139416666666, "name": "33916ee8b4af558584ad7a5fa558985c", "is_disabled": 0, "type": "electric_scooter", "is_reserved": 0, "fusion_lon": 0.0, "lat": 38.90377383333333, "rental_uris": {"ios": "https://dc.lft.to/lastmile_qr_scan", "android": "https://dc.lft.to/lastmile_qr_scan"}, "bike_id": "33916ee8b4af558584ad7a5fa558985c", "fusion_lat": 0.0}, {"lon": -77.04593833333334, "name": "05b3fed4e67f319cc9a2c0dc87f0ab40", "is_disabled": 0, "type": "electric_scooter", "is_reserved": 0, "fusion_lon": 0.0, "lat": 38.900621666666666, "rental_uris": {"ios": "https://dc.lft.to/lastmile_qr_scan", "android": "https://dc.lft.to/lastmile_qr_scan"}, "bike_id": "05b3fed4e67f319cc9a2c0dc87f0ab40", "fusion_lat": 0.0}, {"lon": -77.01274133333334, "name": "b11c97f3b1fcf7f19d919f5bdc8acea2", "is_disabled": 0, "type": "electric_scooter", "is_reserved": 0, "fusion_lon": 0.0, "lat": 38.909491333333335, "rental_uris": {"ios": "https://dc.lft.to/lastmile_qr_scan", "android": "https://dc.lft.to/lastmile_qr_scan"}, "bike_id": "b11c97f3b1fcf7f19d919f5bdc8acea2", "fusion_lat": 0.0}, {"lon": -76.988597, "name": "dccf0a0140c3fec6e126d113dc6fb4b3", "is_disabled": 0, "type": "electric_scooter", "is_reserved": 0, "fusion_lon": 0.0, "lat": 38.90026183333333, "rental_uris": {"ios": "https://dc.lft.to/lastmile_qr_scan", "android": "https://dc.lft.to/lastmile_qr_scan"}, "bike_id": "dccf0a0140c3fec6e126d113dc6fb4b3", "fusion_lat": 0.0}, {"lon": -77.021359, "name": "8549395d8660030f2a0a97f88d1192b1", "is_disabled": 0, "type": "electric_scooter", "is_reserved": 0, "fusion_lon": 0.0, "lat": 38.9242055, "rental_uris": {"ios": "https://dc.lft.to/lastmile_qr_scan", "android": "https://dc.lft.to/lastmile_qr_scan"}, "bike_id": "8549395d8660030f2a0a97f88d1192b1", "fusion_lat": 0.0}, {"lon": -77.02159133333333, "name": "bc084aa05c70666a9d79d7b0ff7f14e6", "is_disabled": 0, "type": "electric_scooter", "is_reserved": 0, "fusion_lon": 0.0, "lat": 38.92451883333333, "rental_uris": {"ios": "https://dc.lft.to/lastmile_qr_scan", "android": "https://dc.lft.to/lastmile_qr_scan"}, "bike_id": "bc084aa05c70666a9d79d7b0ff7f14e6", "fusion_lat": 0.0}, {"lon": -76.99119283333333, "name": "e70b4dee860ed00159df9fc38d384833", "is_disabled": 0, "type": "electric_scooter", "is_reserved": 0, "fusion_lon": 0.0, "lat": 38.8631995, "rental_uris": {"ios": "https://dc.lft.to/lastmile_qr_scan", "android": "https://dc.lft.to/lastmile_qr_scan"}, "bike_id": "e70b4dee860ed00159df9fc38d384833", "fusion_lat": 0.0}, {"lon": -77.0229765, "name": "aa7f7ab486acfe4281feb72d5b14a4ea", "is_disabled": 0, "type": "electric_scooter", "is_reserved": 0, "fusion_lon": 0.0, "lat": 38.926131166666664, "rental_uris": {"ios": "https://dc.lft.to/lastmile_qr_scan", "android": "https://dc.lft.to/lastmile_qr_scan"}, "bike_id": "aa7f7ab486acfe4281feb72d5b14a4ea", "fusion_lat": 0.0}, {"lon": -77.017222, "name": "93319f00cbe6a39955184ec48fe7b75e", "is_disabled": 0, "type": "electric_scooter", "is_reserved": 0, "fusion_lon": 0.0, "lat": 38.907307333333335, "rental_uris": {"ios": "https://dc.lft.to/lastmile_qr_scan", "android": "https://dc.lft.to/lastmile_qr_scan"}, "bike_id": "93319f00cbe6a39955184ec48fe7b75e", "fusion_lat": 0.0}, {"lon": -77.042619, "name": "eb05f6eb68eb70bf989fced7005d930a", "is_disabled": 0, "type": "electric_scooter", "is_reserved": 0, "fusion_lon": 0.0, "lat": 38.92056183333333, "rental_uris": {"ios": "https://dc.lft.to/lastmile_qr_scan", "android": "https://dc.lft.to/lastmile_qr_scan"}, "bike_id": "eb05f6eb68eb70bf989fced7005d930a", "fusion_lat": 0.0}, {"lon": -77.0523725, "name": "85153bb817d0216bbf7f677759a101b0", "is_disabled": 0, "type": "electric_scooter", "is_reserved": 0, "fusion_lon": 0.0, "lat": 38.924648833333336, "rental_uris": {"ios": "https://dc.lft.to/lastmile_qr_scan", "android": "https://dc.lft.to/lastmile_qr_scan"}, "bike_id": "85153bb817d0216bbf7f677759a101b0", "fusion_lat": 0.0}, {"lon": -77.02842816666667, "name": "e851e7e3ce18a1d82072bb1110279758", "is_disabled": 0, "type": "electric_scooter", "is_reserved": 0, "fusion_lon": 0.0, "lat": 38.94197833333333, "rental_uris": {"ios": "https://dc.lft.to/lastmile_qr_scan", "android": "https://dc.lft.to/lastmile_qr_scan"}, "bike_id": "e851e7e3ce18a1d82072bb1110279758", "fusion_lat": 0.0}, {"lon": -77.050341, "name": "aea98c9a7201bf49800a0bedc312180d", "is_disabled": 0, "type": "electric_scooter", "is_reserved": 0, "fusion_lon": 0.0, "lat": 38.89954266666667, "rental_uris": {"ios": "https://dc.lft.to/lastmile_qr_scan", "android": "https://dc.lft.to/lastmile_qr_scan"}, "bike_id": "aea98c9a7201bf49800a0bedc312180d", "fusion_lat": 0.0}, {"lon": -77.00294316666667, "name": "2356bdb777504df2a4bde25bf0805dc9", "is_disabled": 0, "type": "electric_scooter", "is_reserved": 0, "fusion_lon": 0.0, "lat": 38.891959666666665, "rental_uris": {"ios": "https://dc.lft.to/lastmile_qr_scan", "android": "https://dc.lft.to/lastmile_qr_scan"}, "bike_id": "2356bdb777504df2a4bde25bf0805dc9", "fusion_lat": 0.0}, {"lon": -77.03151816666667, "name": "a1dc13546f968174827ec656d4247f34", "is_disabled": 0, "type": "electric_scooter", "is_reserved": 0, "fusion_lon": 0.0, "lat": 38.927876, "rental_uris": {"ios": "https://dc.lft.to/lastmile_qr_scan", "android": "https://dc.lft.to/lastmile_qr_scan"}, "bike_id": "a1dc13546f968174827ec656d4247f34", "fusion_lat": 0.0}, {"lon": -76.99018916666667, "name": "65925b0c24778f541c902aedc178bfc4", "is_disabled": 0, "type": "electric_scooter", "is_reserved": 0, "fusion_lon": 0.0, "lat": 38.86509783333333, "rental_uris": {"ios": "https://dc.lft.to/lastmile_qr_scan", "android": "https://dc.lft.to/lastmile_qr_scan"}, "bike_id": "65925b0c24778f541c902aedc178bfc4", "fusion_lat": 0.0}, {"lon": -77.017713, "name": "7b2d94cdf9e9cfb7ccc42ce7769a97f2", "is_disabled": 0, "type": "electric_scooter", "is_reserved": 0, "fusion_lon": 0.0, "lat": 38.892287, "rental_uris": {"ios": "https://dc.lft.to/lastmile_qr_scan", "android": "https://dc.lft.to/lastmile_qr_scan"}, "bike_id": "7b2d94cdf9e9cfb7ccc42ce7769a97f2", "fusion_lat": 0.0}, {"lon": -77.0445915, "name": "49fefba7604e79070f356f0bd00bb87e", "is_disabled": 0, "type": "electric_scooter", "is_reserved": 0, "fusion_lon": 0.0, "lat": 38.902325833333336, "rental_uris": {"ios": "https://dc.lft.to/lastmile_qr_scan", "android": "https://dc.lft.to/lastmile_qr_scan"}, "bike_id": "49fefba7604e79070f356f0bd00bb87e", "fusion_lat": 0.0}, {"lon": -76.99347333333333, "name": "afbd1a4b5b74250c13eb1f21e4c5d59c", "is_disabled": 0, "type": "electric_scooter", "is_reserved": 0, "fusion_lon": 0.0, "lat": 38.8811605, "rental_uris": {"ios": "https://dc.lft.to/lastmile_qr_scan", "android": "https://dc.lft.to/lastmile_qr_scan"}, "bike_id": "afbd1a4b5b74250c13eb1f21e4c5d59c", "fusion_lat": 0.0}, {"lon": -77.04354716666667, "name": "a5356d33f0339ada4192337a9f0ffef0", "is_disabled": 0, "type": "electric_scooter", "is_reserved": 0, "fusion_lon": 0.0, "lat": 38.91344983333333, "rental_uris": {"ios": "https://dc.lft.to/lastmile_qr_scan", "android": "https://dc.lft.to/lastmile_qr_scan"}, "bike_id": "a5356d33f0339ada4192337a9f0ffef0", "fusion_lat": 0.0}, {"lon": -76.929324, "name": "084862d8bcc6064f596378a841950bf2", "is_disabled": 0, "type": "electric_scooter", "is_reserved": 0, "fusion_lon": 0.0, "lat": 38.90096283333333, "rental_uris": {"ios": "https://dc.lft.to/lastmile_qr_scan", "android": "https://dc.lft.to/lastmile_qr_scan"}, "bike_id": "084862d8bcc6064f596378a841950bf2", "fusion_lat": 0.0}, {"lon": -77.0179825, "name": "9564f37abc59c1458d590ca41dc209ed", "is_disabled": 0, "type": "electric_scooter", "is_reserved": 0, "fusion_lon": 0.0, "lat": 38.919434333333335, "rental_uris": {"ios": "https://dc.lft.to/lastmile_qr_scan", "android": "https://dc.lft.to/lastmile_qr_scan"}, "bike_id": "9564f37abc59c1458d590ca41dc209ed", "fusion_lat": 0.0}, {"lon": -77.0297225, "name": "c382d2ab74a120e432b8d1dfe4f1e85d", "is_disabled": 0, "type": "electric_scooter", "is_reserved": 0, "fusion_lon": 0.0, "lat": 38.91881983333333, "rental_uris": {"ios": "https://dc.lft.to/lastmile_qr_scan", "android": "https://dc.lft.to/lastmile_qr_scan"}, "bike_id": "c382d2ab74a120e432b8d1dfe4f1e85d", "fusion_lat": 0.0},