{"data": {"bikes": [{"lat": 38.90216383333333, "is_disabled": 0, "type": "electric_scooter", "lon": -76.94593616666667, "bike_id": "598bf898a86c498b921cddb7abb3cd06", "fusion_lat": 0.0, "name": "598bf898a86c498b921cddb7abb3cd06", "is_reserved": 0, "rental_uris": {"android": "https://dc.lft.to/lastmile_qr_scan", "ios": "https://dc.lft.to/lastmile_qr_scan"}, "fusion_lon": 0.0}, {"lat": 38.89774166666667, "is_disabled": 0, "type": "electric_scooter", "lon": -77.043694, "bike_id": "a7b4e092775e5125717d50761205f1c1", "fusion_lat": 0.0, "name": "a7b4e092775e5125717d50761205f1c1", "is_reserved": 0, "rental_uris": {"android": "https://dc.lft.to/lastmile_qr_scan", "ios": "https://dc.lft.to/lastmile_qr_scan"}, "fusion_lon": 0.0}, {"lat": 38.93012933333333, "is_disabled": 0, "type": "electric_bike", "lon": -77.2164795, "bike_id": "a47884985a2bc6fa8c1ef528e2f23cc8", "fusion_lat": 0.0, "name": "a47884985a2bc6fa8c1ef528e2f23cc8", "is_reserved": 0, "rental_uris": {"android": "https://dc.lft.to/lastmile_qr_scan", "ios": "https://dc.lft.to/lastmile_qr_scan"}, "fusion_lon": 0.0}, {"lat": 38.922473333333336, "is_disabled": 0, "type": "electric_scooter", "lon": -77.0307065, "bike_id": "bb8365f2862b8aeb8a0f431a6b8f86f4", "fusion_lat": 0.0, "name": "bb8365f2862b8aeb8a0f431a6b8f86f4", "is_reserved": 0, "rental_uris": {"android": "https://dc.lft.to/lastmile_qr_scan", "ios": "https://dc.lft.to/lastmile_qr_scan"}, "fusion_lon": 0.0}, {"lat": 38.9014985, "is_disabled": 0, "type": "electric_bike", "lon": -76.98656583333333, "bike_id": "47f4d385bb6c5b567202551fc3afe432", "fusion_lat": 0.0, "name": "47f4d385bb6c5b567202551fc3afe432", "is_reserved": 0, "rental_uris": {"android": "https://dc.lft.to/lastmile_qr_scan", "ios": "https://dc.lft.to/lastmile_qr_scan"}, "fusion_lon": 0.0}, {"lat": 38.919635166666666, "is_disabled": 0, "type": "electric_bike", "lon": -76.97267016666666, "bike_id": "cc1ca1c40c341b4e86fbd8c26231a7e9", "fusion_lat": 0.0, "name": "cc1ca1c40c341b4e86fbd8c26231a7e9", "is_reserved": 0, "rental_uris": {"android": "https://dc.lft.to/lastmile_qr_scan", "ios": "https://dc.lft.to/lastmile_qr_scan"}, "fusion_lon": 0.0}, {"lat": 38.93379633333333, "is_disabled": 0, "type": "electric_scooter", "lon": -77.03792083333333, "bike_id": "bac16ee9d4781c7b0d056b302cc2c916", "fusion_lat": 0.0, "name": "bac16ee9d4781c7b0d056b302cc2c916", "is_reserved": 0, "rental_uris": {"android": "https://dc.lft.to/lastmile_qr_scan", "ios": "https://dc.lft.to/lastmile_qr_scan"}, "fusion_lon": 0.0}, {"lat": 38.96274533333333, "is_disabled": 0, "type": "electric_bike", "lon": -77.0324625, "bike_id": "2423b8ec8115919d02536a70e15e6924", "fusion_lat": 0.0, "name": "2423b8ec8115919d02536a70e15e6924", "is_reserved": 0, "rental_uris": {"android": "https://dc.lft.to/lastmile_qr_scan", "ios": "https://dc.lft.to/lastmile_qr_scan"}, "fusion_lon": 0.0}, {"lat": 38.919571833333336, "is_disabled": 0, "type": "electric_scooter", "lon": -77.0487575, "bike_id": "8273b2928e79104f46094674826ac0d0", "fusion_lat": 0.0, "name": "8273b2928e79104f46094674826ac0d0", "is_reserved": 0, "rental_uris": {"android": "https://dc.lft.to/lastmile_qr_scan", "ios": "https://dc.lft.to/lastmile_qr_scan"}, "fusion_lon": 0.0}, {"lat": 38.93300283333333, "is_disabled": 0, "type": "electric_scooter", "lon": -77.02847466666667, "bike_id": "6f1fb974521daa88df3643a8a8b2a3cd", "fusion_lat": 0.0, "name": "6f1fb974521daa88df3643a8a8b2a3cd", "is_reserved": 0, "rental_uris": {"android": "https://dc.lft.to/lastmile_qr_scan", "ios": "https://dc.lft.to/lastmile_qr_scan"}, "fusion_lon": 0.0}, {"lat": 38.9279295, "is_disabled": 0, "type": "electric_scooter", "lon": -77.05541466666666, "bike_id": "a156c04e98228ebbf85bbc9265cdbab0", "fusion_lat": 0.0, "name": "a156c04e98228ebbf85bbc9265cdbab0", "is_reserved": 0, "rental_uris": {"android": "https://dc.lft.to/lastmile_qr_scan", "ios": "https://dc.lft.to/lastmile_qr_scan"}, "fusion_lon": 0.0}, {"lat": 38.933692, "is_disabled": 0, "type": "electric_scooter", "lon": -77.02385316666667, "bike_id": "8ed9a5a4ac5b40290e10c3f2d06ebde2", "fusion_lat": 0.0, "name": "8ed9a5a4ac5b40290e10c3f2d06ebde2", "is_reserved": 0, "rental_uris": {"android": "https://dc.lft.to/lastmile_qr_scan", "ios": "https://dc.lft.to/lastmile_qr_scan"}, "fusion_lon": 0.0}, {"lat": 38.938768833333334, "is_disabled": 0, "type": "electric_scooter", "lon": -77.0200255, "bike_id": "522f813fef92fc296d9483b81110b53b", "fusion_lat": 0.0, "name": "522f813fef92fc296d9483b81110b53b", "is_reserved": 0, "rental_uris": {"android": "https://dc.lft.to/lastmile_qr_scan", "ios": "https://dc.lft.to/lastmile_qr_scan"}, "fusion_lon": 0.0}, {"lat": 38.90290183333333, "is_disabled": 0, "type": "electric_scooter", "lon": -77.03330916666667, "bike_id": "38c311f4be49864b6f7d6cc61a168fd0", "fusion_lat": 0.0, "name": "38c311f4be49864b6f7d6cc61a168fd0", "is_reserved": 0, "rental_uris": {"android": "https://dc.lft.to/lastmile_qr_scan", "ios": "https://dc.lft.to/lastmile_qr_scan"}, "fusion_lon": 0.0}, {"lat": 39.00000766666667, "is_disabled": 0, "type": "electric_bike", "lon": -76.91081616666666, "bike_id": "8257c045bd801eebbe98d8f1f125cad7", "fusion_lat": 0.0, "name": "8257c045bd801eebbe98d8f1f125cad7", "is_reserved": 0, "rental_uris": {"android": "https://dc.lft.to/lastmile_qr_scan", "ios": "https://dc.lft.to/lastmile_qr_scan"}, "fusion_lon": 0.0}, {"lat": 38.925860666666665, "is_disabled": 0, "type": "electric_scooter", "lon": -77.0283835, "bike_id": "c5b8523f1a28abea57843bddfb0cccf2", "fusion_lat": 0.0, "name": "c5b8523f1a28abea57843bddfb0cccf2", "is_reserved": 0, "rental_uris": {"android": "https://dc.lft.to/lastmile_qr_scan", "ios": "https://dc.lft.to/lastmile_qr_scan"}, "fusion_lon": 0.0}, {"lat": 38.9533405, "is_disabled": 0, "type": "electric_bike", "lon": -76.973617, "bike_id": "76d8a16d01b9f3a11b0ec7a03a1c16b9", "fusion_lat": 0.0, "name": "76d8a16d01b9f3a11b0ec7a03a1c16b9", "is_reserved": 0, "rental_uris": {"android": "https://dc.lft.to/lastmile_qr_scan", "ios": "https://dc.lft.to/lastmile_qr_scan"}, "fusion_lon": 0.0}, {"lat": 38.863879, "is_disabled": 0, "type": "electric_bike", "lon": -76.9899275, "bike_id": "785685fe11c388899a40ee0072c33e3b", "fusion_lat": 0.0, "name": "785685fe11c388899a40ee0072c33e3b", "is_reserved": 0, "rental_uris": {"android": "https://dc.lft.to/lastmile_qr_scan", "ios": "https://dc.lft.to/lastmile_qr_scan"}, "fusion_lon": 0.0}, {"lat": 38.865547666666664, "is_disabled": 0, "type": "electric_scooter", "lon": -76.974128, "bike_id": "4f9607f23f972f42ffd2b6cef451562d", "fusion_lat": 0.0, "name": "4f9607f23f972f42ffd2b6cef451562d", "is_reserved": 0, "rental_uris": {"android": "https://dc.lft.to/lastmile_qr_scan", "ios": "https://dc.lft.to/lastmile_qr_scan"}, "fusion_lon": 0.0}, {"lat": 38.85324683333333, "is_disabled": 0, "type": "electric_bike", "lon": -76.98004183333333, "bike_id": "85c958d4f04f8583722fed74a8c1daef", "fusion_lat": 0.0, "name": "85c958d4f04f8583722fed74a8c1daef", "is_reserved": 0, "rental_uris": {"android": "https://dc.lft.to/lastmile_qr_scan", "ios": "https://dc.lft.to/lastmile_qr_scan"}, "fusion_lon": 0.0}, {"lat": 38.90074283333333, "is_disabled": 0, "type": "electric_scooter", "lon": -77.04904216666667, "bike_id": "be6983a2fc6b115f374bfc659f315924", "fusion_lat": 0.0, "name": "be6983a2fc6b115f374bfc659f315924", "is_reserved": 0, "rental_uris": {"android": "https://dc.lft.to/lastmile_qr_scan", "ios": "https://dc.lft.to/lastmile_qr_scan"}, "fusion_lon": 0.0}, {"lat": 38.8928195, "is_disabled": 0, "type": "electric_scooter", "lon": -76.95851733333333, "bike_id": "12c7b82ae957229899a2699133002c44", "fusion_lat": 0.0, "name": "12c7b82ae957229899a2699133002c44", "is_reserved": 0, "rental_uris": {"android": "https://dc.lft.to/lastmile_qr_scan", "ios": "https://dc.lft.to/lastmile_qr_scan"}, "fusion_lon": 0.0}, {"lat": 38.899982333333334, "is_disabled": 0, "type": "electric_scooter", "lon": -76.99961966666666, "bike_id": "211171857afea49786fa719dc83546fb", "fusion_lat": 0.0, "name": "211171857afea49786fa719dc83546fb", "is_reserved": 0, "rental_uris": {"android": "https://dc.lft.to/lastmile_qr_scan", "ios": "https://dc.lft.to/lastmile_qr_scan"}, "fusion_lon": 0.0}, {"lat": 38.87917383333333, "is_disabled": 0, "type": "electric_scooter", "lon": -77.0040615, "bike_id": "1ada4f9fd6f92ba2889f5a4502ae56ea", "fusion_lat": 0.0, "name": "1ada4f9fd6f92ba2889f5a4502ae56ea", "is_reserved": 0, "rental_uris": {"android": "https://dc.lft.to/lastmile_qr_scan", "ios": "https://dc.lft.to/lastmile_qr_scan"}, "fusion_lon": 0.0}, {"lat": 38.892694, "is_disabled": 0, "type": "electric_scooter", "lon": -77.020267, "bike_id": "a5f583e7a8d1d14bffb69367053814ba", "fusion_lat": 0.0, "name": "a5f583e7a8d1d14bffb69367053814ba", "is_reserved": 0, "rental_uris": {"android": "https://dc.lft.to/lastmile_qr_scan", "ios": "https://dc.lft.to/lastmile_qr_scan"}, "fusion_lon": 0.0}, {"lat": 38.924575, "is_disabled": 0, "type": "electric_scooter", "lon": -77.08039983333333, "bike_id": "2a86d0117cded5f2a276b491e3d6648d", "fusion_lat": 0.0, "name": "2a86d0117cded5f2a276b491e3d6648d", "is_reserved": 0, "rental_uris": {"android": "https://dc.lft.to/lastmile_qr_scan", "ios": "https://dc.lft.to/lastmile_qr_scan"}, "fusion_lon": 0.0}, {"lat": 38.929542833333336, "is_disabled": 0, "type": "electric_scooter", "lon": -76.9908385, "bike_id": "fb53297a1707d5324b834d7ce2d61663", "fusion_lat": 0.0, "name": "fb53297a1707d5324b834d7ce2d61663", "is_reserved": 0, "rental_uris": {"android": "https://dc.lft.to/lastmile_qr_scan", "ios": "https://dc.lft.to/lastmile_qr_scan"}, "fusion_lon": 0.0}, {"lat": 38.915193, "is_disabled": 0, "type": "electric_scooter", "lon": -77.03844616666666, "bike_id": "cd8de5c28e73e536d556d2d6f2d31679", "fusion_lat": 0.0, "name": "cd8de5c28e73e536d556d2d6f2d31679", "is_reserved": 0, "rental_uris": {"android": "https://dc.lft.to/lastmile_qr_scan", "ios": "https://dc.lft.to/lastmile_qr_scan"}, "fusion_lon": 0.0}, {"lat": 38.90984483333333, "is_disabled": 0, "type": "electric_scooter", "lon": -76.98469133333333, "bike_id": "dc50315b5a9aef9ccb2a0d87a4ad4274", "fusion_lat": 0.0, "name": "dc50315b5a9aef9ccb2a0d87a4ad4274", "is_reserved": 0, "rental_uris": {"android": "https://dc.lft.to/lastmile_qr_scan", "ios": "https://dc.lft.to/lastmile_qr_scan"}, "fusion_lon": 0.0}, {"lat": 38.92916533333333, "is_disabled": 0, "type": "electric_scooter", "lon": -77.03629783333334, "bike_id": "2233a3d99526757373ffe984fcb1dc89", "fusion_lat": 0.0, "name": "2233a3d99526757373ffe984fcb1dc89", "is_reserved": 0, "rental_uris": {"android": "https://dc.lft.to/lastmile_qr_scan", "ios": "https://dc.lft.to/lastmile_qr_scan"}, "fusion_lon": 0.0}, {"lat": 38.900464166666666, "is_disabled": 0, "type": "electric_scooter", "lon": -76.99504116666667, "bike_id": "f2535b57827e5284770006b408dba9a0", "fusion_lat": 0.0, "name": "f2535b57827e5284770006b408dba9a0", "is_reserved": 0, "rental_uris": {"android": "https://dc.lft.to/lastmile_qr_scan", "ios": "https://dc.lft.to/lastmile_qr_scan"}, "fusion_lon": 0.0}, {"lat": 38.839845333333336, "is_disabled": 0, "type": "electric_bike", "lon": -77.00568833333334, "bike_id": "238c0867c040d8dbb6b895a2561b9ac9", "fusion_lat": 0.0, "name": "238c0867c040d8dbb6b895a2561b9ac9", "is_reserved": 0, "rental_uris": {"android": "https://dc.lft.to/lastmile_qr_scan", "ios": "https://dc.lft.to/lastmile_qr_scan"}, "fusion_lon": 0.0}, {"lat": 38.92572416666667, "is_disabled": 0, "type": "electric_scooter", "lon": -77.0271635, "bike_id": "a04bf9efd0b254b1226b97e8aabeda66", "fusion_lat": 0.0, "name": "a04bf9efd0b254b1226b97e8aabeda66", "is_reserved": 0, "rental_uris": {"android": "https://dc.lft.to/lastmile_qr_scan", "ios": "https://dc.lft.to/lastmile_qr_scan"}, "fusion_lon": 0.0}, {"lat": 38.924049, "is_disabled": 0, "type": "electric_scooter", "lon": -77.02544116666667, "bike_id": "ebd3289ea6d1d4094429b587232f4b0d", "fusion_lat": 0.0, "name": "ebd3289ea6d1d4094429b587232f4b0d", "is_reserved": 0, "rental_uris": {"android": "https://dc.lft.to/lastmile_qr_scan", "ios": "https://dc.lft.to/lastmile_qr_scan"}, "fusion_lon": 0.0}, {"lat": 38.9082145, "is_disabled": 0, "type": "electric_scooter", "lon": -76.9414485, "bike_id": "b40aa4980422237b2b09e5dcf3ab9401", "fusion_lat": 0.0, "name": "b40aa4980422237b2b09e5dcf3ab9401", "is_reserved": 0, "rental_uris": {"android": "https://dc.lft.to/lastmile_qr_scan", "ios": "https://dc.lft.to/lastmile_qr_scan"}, "fusion_lon": 0.0}, {"lat": 38.936325, "is_disabled": 0, "type": "electric_scooter", "lon": -77.03663233333333, "bike_id": "8ad662601fad2f0c79550d31b8575ec8", "fusion_lat": 0.0, "name": "8ad662601fad2f0c79550d31b8575ec8", "is_reserved": 0, "rental_uris": {"android": "https://dc.lft.to/lastmile_qr_scan", "ios": "https://dc.lft.to/lastmile_qr_scan"}, "fusion_lon": 0.0}, {"lat": 38.9043065, "is_disabled": 0, "type": "electric_scooter", "lon": -77.02510066666666, "bike_id": "f2100134798b5c271413a66bc8e0b52c", "fusion_lat": 0.0, "name": "f2100134798b5c271413a66bc8e0b52c", "is_reserved": 0, "rental_uris": {"android": "https://dc.lft.to/lastmile_qr_scan", "ios": "https://dc.lft.to/lastmile_qr_scan"}, "fusion_lon": 0.0}, {"lat": 38.884015833333336, "is_disabled": 0, "type": "electric_bike", "lon": -76.9606465, "bike_id": "a2f06c1a1dd01c5a91784fa78c710901", "fusion_lat": 0.0, "name": "a2f06c1a1dd01c5a91784fa78c710901", "is_reserved": 0, "rental_uris": {"android": "https://dc.lft.to/lastmile_qr_scan", "ios": "https://dc.lft.to/lastmile_qr_scan"}, "fusion_lon": 0.0}, {"lat": 38.92402533333333, "is_disabled": 0, "type": "electric_scooter", "lon": -77.05251816666667, "bike_id": "e7ad2ca1a57a48104413a3bcac6424ea", "fusion_lat": 0.0, "name": "e7ad2ca1a57a48104413a3bcac6424ea", "is_reserved": 0, "rental_uris": {"android": "https://dc.lft.to/lastmile_qr_scan", "ios": "https://dc.lft.to/lastmile_qr_scan"}, "fusion_lon": 0.0}, {"lat": 38.8811105, "is_disabled": 0, "type": "electric_scooter", "lon": -77.0165585, "bike_id": "95501b339c9438cff94262a0e6bdf1a7", "fusion_lat": 0.0, "name": "95501b339c9438cff94262a0e6bdf1a7", "is_reserved": 0, "rental_uris": {"android": "https://dc.lft.to/lastmile_qr_scan", "ios": "https://dc.lft.to/lastmile_qr_scan"}, "fusion_lon": 0.0}, {"lat": 38.912516, "is_disabled": 0, "type": "electric_scooter", "lon": -77.03859633333333, "bike_id": "3597b8d7d7b8e929c9ff4bbe6d4605e6", "fusion_lat": 0.0, "name": "3597b8d7d7b8e929c9ff4bbe6d4605e6", "is_reserved": 0, "rental_uris": {"android": "https://dc.lft.to/lastmile_qr_scan", "ios": "https://dc.lft.to/lastmile_qr_scan"}, "fusion_lon": 0.0}, {"lat": 38.921232833333335, "is_disabled": 0, "type": "electric_scooter", "lon": -77.04586916666666, "bike_id": "5de171307939cf6908b783c4bb60b2ac", "fusion_lat": 0.0, "name": "5de171307939cf6908b783c4bb60b2ac", "is_reserved": 0, "rental_uris": {"android": "https://dc.lft.to/lastmile_qr_scan", "ios": "https://dc.lft.to/lastmile_qr_scan"}, "fusion_lon": 0.0}, {"lat": 38.86706866666667, "is_disabled": 0, "type": "electric_scooter", "lon": -76.98724083333333, "bike_id": "d7b310adbf699b17dbe6a683eb438bd2", "fusion_lat": 0.0, "name": "d7b310adbf699b17dbe6a683eb438bd2", "is_reserved": 0, "rental_uris": {"android": "https://dc.lft.to/lastmile_qr_scan", "ios": "https://dc.lft.to/lastmile_qr_scan"}, "fusion_lon": 0.0}, {"lat": 38.84506116666667, "is_disabled": 0, "type": "electric_bike", "lon": -76.99355883333334, "bike_id": "2bb7d685ae61995db9f90213b94e6fe1", "fusion_lat": 0.0, "name": "2bb7d685ae61995db9f90213b94e6fe1", "is_reserved": 0, "rental_uris": {"android": "https://dc.lft.to/lastmile_qr_scan", "ios": "https://dc.lft.to/lastmile_qr_scan"}, "fusion_lon": 0.0}, {"lat": 38.95335566666667, "is_disabled": 0, "type": "electric_scooter", "lon": -77.0691815, "bike_id": "f4c30c5d7e32d2b7ee8e2e6696a79ba9", "fusion_lat": 0.0, "name": "f4c30c5d7e32d2b7ee8e2e6696a79ba9", "is_reserved": 0, "rental_uris": {"android": "https://dc.lft.to/lastmile_qr_scan", "ios": "https://dc.lft.to/lastmile_qr_scan"}, "fusion_lon": 0.0}, {"lat": 38.903138166666665, "is_disabled": 0, "type": "electric_scooter", "lon": -77.05225316666667, "bike_id": "73010011297261a620177ff2097f43e2", "fusion_lat": 0.0, "name": "73010011297261a620177ff2097f43e2", "is_reserved": 0, "rental_uris": {"android": "https://dc.lft.to/lastmile_qr_scan", "ios": "https://dc.lft.to/lastmile_qr_scan"}, "fusion_lon": 0.0}, {"lat": 38.918709, "is_disabled": 0, "type": "electric_scooter", "lon": -77.03497466666667, "bike_id": "f93f17f71a13a7b5400da96e9dfcb7f3", "fusion_lat": 0.0, "name": "f93f17f71a13a7b5400da96e9dfcb7f3", "is_reserved": 0, "rental_uris": {"android": "https://dc.lft.to/lastmile_qr_scan", "ios": "https://dc.lft.to/lastmile_qr_scan"}, "fusion_lon": 0.0}, {"lat": 38.90584783333333, "is_disabled": 0, "type": "electric_scooter", "lon": -76.98617666666667, "bike_id": "55789e7eb424eb1b2aa63eeee4ea3985", "fusion_lat": 0.0, "name": "55789e7eb424eb1b2aa63eeee4ea3985", "is_reserved": 0, "rental_uris": {"android": "https://dc.lft.to/lastmile_qr_scan", "ios": "https://dc.lft.to/lastmile_qr_scan"}, "fusion_lon": 0.0}, {"lat": 38.908607, "is_disabled": 0, "type": "electric_bike", "lon": -76.94010166666666, "bike_id": "b7832bcf571281baa6ed887da3b9dd8c", "fusion_lat": 0.0, "name": "b7832bcf571281baa6ed887da3b9dd8c", "is_reserved": 0, "rental_uris": {"android": "https://dc.lft.to/lastmile_qr_scan", "ios": "https://dc.lft.to/lastmile_qr_scan"}, "fusion_lon": 0.0}, {"lat": 38.93913766666667, "is_disabled": 0, "type": "electric_scooter", "lon": -77.06674783333334, "bike_id": "d646b15df238d6feed6d4f2329ff7fe1", "fusion_lat": 0.0, "name": "d646b15df238d6feed6d4f2329ff7fe1", "is_reserved": 0, "rental_uris": {"android": "https://dc.lft.to/lastmile_qr_scan", "ios": "https://dc.lft.to/lastmile_qr_scan"}, "fusion_lon": 0.0}, {"lat": 38.92886466666667, "is_disabled": 0, "type": "electric_scooter", "lon": -77.05747133333334, "bike_id": "8048f3907683d715c7cbed3b84914d86", "fusion_lat": 0.0, "name": "8048f3907683d715c7cbed3b84914d86", "is_reserved": 0, "rental_uris": {"android": "https://dc.lft.to/lastmile_qr_scan", "ios": "https://dc.lft.to/lastmile_qr_scan"}, "fusion_lon": 0.0}, {"lat": 38.8965525, "is_disabled": 0, "type": "electric_scooter", "lon": -77.00521916666666, "bike_id": "b102b7ba0a20166491d21d69d37e57a3", "fusion_lat": 0.0, "name": "b102b7ba0a20166491d21d69d37e57a3", "is_reserved": 0, "rental_uris": {"android": "https://dc.lft.to/lastmile_qr_scan", "ios": "https://dc.lft.to/lastmile_qr_scan"}, "fusion_lon": 0.0}, {"lat": 38.89629033333333, "is_disabled": 0, "type": "electric_scooter", "lon": -77.04503116666666, "bike_id": "0dca93abd245c112da48b6762d053205", "fusion_lat": 0.0, "name": "0dca93abd245c112da48b6762d053205", "is_reserved": 0, "rental_uris": {"android": "https://dc.lft.to/lastmile_qr_scan", "ios": "https://dc.lft.to/lastmile_qr_scan"}, "fusion_lon": 0.0}, {"lat": 38.96068483333333, "is_disabled": 0, "type": "electric_scooter", "lon": -77.073059, "bike_id": "52129c25a15d115ebdcc48828b093df9", "fusion_lat": 0.0, "name": "52129c25a15d115ebdcc48828b093df9", "is_reserved": 0, "rental_uris": {"android": "https://dc.lft.to/lastmile_qr_scan", "ios": "https://dc.lft.to/lastmile_qr_scan"}, "fusion_lon": 0.0}, {"lat": 38.914699, "is_disabled": 0, "type": "electric_scooter", "lon": -77.03233333333333, "bike_id": "a5b741ea197e50a25cada043b4b4ca12", "fusion_lat": 0.0, "name": "a5b741ea197e50a25cada043b4b4ca12", "is_reserved": 0, "rental_uris": {"android": "https://dc.lft.to/lastmile_qr_scan", "ios": "https://dc.lft.to/lastmile_qr_scan"}, "fusion_lon": 0.0}, {"lat": 38.9187185, "is_disabled": 0, "type": "electric_scooter", "lon": -77.03501666666666, "bike_id": "4e655092aaf5c75900590852c9d093b8", "fusion_lat": 0.0, "name": "4e655092aaf5c75900590852c9d093b8", "is_reserved": 0, "rental_uris": {"android": "https://dc.lft.to/lastmile_qr_scan", "ios": "https://dc.lft.to/lastmile_qr_scan"}, "fusion_lon": 0.0}, {"lat": 38.8923115, "is_disabled": 0, "type": "electric_scooter", "lon": -77.050058, "bike_id": "4869c0d8ae5de72eca83a01ed4ba6b4d", "fusion_lat": 0.0, "name": "4869c0d8ae5de72eca83a01ed4ba6b4d", "is_reserved": 0, "rental_uris": {"android": "https://dc.lft.to/lastmile_qr_scan", "ios": "https://dc.lft.to/lastmile_qr_scan"}, "fusion_lon": 0.0}, {"lat": 38.92661566666666, "is_disabled": 0, "type": "electric_scooter", "lon": -77.0560015, "bike_id": "e255a1aa7a41630756c156cac638bc94", "fusion_lat": 0.0, "name": "e255a1aa7a41630756c156cac638bc94", "is_reserved": 0, "rental_uris": {"android": "https://dc.lft.to/lastmile_qr_scan", "ios": "https://dc.lft.to/lastmile_qr_scan"}, "fusion_lon": 0.0}, {"lat": 38.89546633333333, "is_disabled": 0, "type": "electric_scooter", "lon": -76.93382116666666, "bike_id": "4c54dc953d56057f9373b259b4f572d1", "fusion_lat": 0.0, "name": "4c54dc953d56057f9373b259b4f572d1", "is_reserved": 0, "rental_uris": {"android": "https://dc.lft.to/lastmile_qr_scan", "ios": "https://dc.lft.to/lastmile_qr_scan"}, "fusion_lon": 0.0}, {"lat": 38.874719166666665, "is_disabled": 0, "type": "electric_scooter", "lon": -77.0051785, "bike_id": "01c0976654ff31777c5bbd4a7bc910f6", "fusion_lat": 0.0, "name": "01c0976654ff31777c5bbd4a7bc910f6", "is_reserved": 0, "rental_uris": {"android": "https://dc.lft.to/lastmile_qr_scan", "ios": "https://dc.lft.to/lastmile_qr_scan"}, "fusion_lon": 0.0}, {"lat": 38.87681666666667, "is_disabled": 0, "type": "electric_bike", "lon": -77.01614, "bike_id": "c5065f8f0ae8777c19206f6842dcde17", "fusion_lat": 0.0, "name": "c5065f8f0ae8777c19206f6842dcde17", "is_reserved": 0, "rental_uris": {"android": "https://dc.lft.to/lastmile_qr_scan", "ios": "https://dc.lft.to/lastmile_qr_scan"}, "fusion_lon": 0.0}, {"lat": 38.935317833333336, "is_disabled": 0, "type": "electric_scooter", "lon": -77.02352216666667, "bike_id": "d206550e05ca0a14cd7bbff89f271d87", "fusion_lat": 0.0, "name": "d206550e05ca0a14cd7bbff89f271d87", "is_reserved": 0, "rental_uris": {"android": "https://dc.lft.to/lastmile_qr_scan", "ios": "https://dc.lft.to/lastmile_qr_scan"}, "fusion_lon": 0.0}, {"lat": 38.928631833333334, "is_disabled": 0, "type": "electric_scooter", "lon": -77.02990966666667, "bike_id": "f9db849ef8c98b66ce5669ed4fe32c9a", "fusion_lat": 0.0, "name": "f9db849ef8c98b66ce5669ed4fe32c9a", "is_reserved": 0, "rental_uris": {"android": "https://dc.lft.to/lastmile_qr_scan", "ios": "https://dc.lft.to/lastmile_qr_scan"}, "fusion_lon": 0.0}, {"lat": 38.902073333333334, "is_disabled": 0, "type": "electric_scooter", "lon": -76.98840183333333, "bike_id": "9d2425174505de1bb51f2e0cc746f0f2", "fusion_lat": 0.0, "name": "9d2425174505de1bb51f2e0cc746f0f2", "is_reserved": 0, "rental_uris": {"android": "https://dc.lft.to/lastmile_qr_scan", "ios": "https://dc.lft.to/lastmile_qr_scan"}, "fusion_lon": 0.0}, {"lat": 38.914773333333336, "is_disabled": 0, "type": "electric_scooter", "lon": -77.04256533333333, "bike_id": "08a934629f8784248498752d686721d8", "fusion_lat": 0.0, "name": "08a934629f8784248498752d686721d8", "is_reserved": 0, "rental_uris": {"android": "https://dc.lft.to/lastmile_qr_scan", "ios": "https://dc.lft.to/lastmile_qr_scan"}, "fusion_lon": 0.0}, {"lat": 38.903631833333336, "is_disabled": 0, "type": "electric_scooter", "lon": -76.97653516666666, "bike_id": "ce05e05fa7242abc979a1ab56320a0af", "fusion_lat": 0.0, "name": "ce05e05fa7242abc979a1ab56320a0af", "is_reserved": 0, "rental_uris": {"android": "https://dc.lft.to/lastmile_qr_scan", "ios": "https://dc.lft.to/lastmile_qr_scan"}, "fusion_lon": 0.0}, {"lat": 38.92595583333333, "is_disabled": 0, "type": "electric_scooter", "lon": -77.0248795, "bike_id": "0fdec760a4539bdcf93c9c3078adabdf", "fusion_lat": 0.0, "name": "0fdec760a4539bdcf93c9c3078adabdf", "is_reserved": 0, "rental_uris": {"android": "https://dc.lft.to/lastmile_qr_scan", "ios": "https://dc.lft.to/lastmile_qr_scan"}, "fusion_lon": 0.0}, {"lat": 38.90007, "is_disabled": 0, "type": "electric_scooter", "lon": -76.9223615, "bike_id": "cd9cb069bec0cf0b6311907af019a10a", "fusion_lat": 0.0, "name": "cd9cb069bec0cf0b6311907af019a10a", "is_reserved": 0, "rental_uris": {"android": "https://dc.lft.to/lastmile_qr_scan", "ios": "https://dc.lft.to/lastmile_qr_scan"}, "fusion_lon": 0.0}, {"lat": 38.900627666666665, "is_disabled": 0, "type": "electric_scooter", "lon": -77.02576716666667, "bike_id": "761e34cbc27de2ee20498a96a4538b07", "fusion_lat": 0.0, "name": "761e34cbc27de2ee20498a96a4538b07", "is_reserved": 0, "rental_uris": {"android": "https://dc.lft.to/lastmile_qr_scan", "ios": "https://dc.lft.to/lastmile_qr_scan"}, "fusion_lon": 0.0}, {"lat": 38.9274945, "is_disabled": 0, "type": "electric_scooter", "lon": -77.029641, "bike_id": "cf665bfb54d49a3aa4f25200bfe558c6", "fusion_lat": 0.0, "name": "cf665bfb54d49a3aa4f25200bfe558c6", "is_reserved": 0, "rental_uris": {"android": "https://dc.lft.to/lastmile_qr_scan", "ios": "https://dc.lft.to/lastmile_qr_scan"}, "fusion_lon": 0.0}, {"lat": 38.93147116666667, "is_disabled": 0, "type": "electric_scooter", "lon": -77.02160666666667, "bike_id": "0dbbe075b6972a3f7ec05f904295a53c", "fusion_lat": 0.0, "name": "0dbbe075b6972a3f7ec05f904295a53c", "is_reserved": 0, "rental_uris": {"android": "https://dc.lft.to/lastmile_qr_scan", "ios": "https://dc.lft.to/lastmile_qr_scan"}, "fusion_lon": 0.0}, {"lat": 38.91548983333333, "is_disabled": 0, "type": "electric_scooter", "lon": -77.02428283333333, "bike_id": "4016fd32727430843190c4d7a773d0b1", "fusion_lat": 0.0, "name": "4016fd32727430843190c4d7a773d0b1", "is_reserved": 0, "rental_uris": {"android": "https://dc.lft.to/lastmile_qr_scan", "ios": "https://dc.lft.to/lastmile_qr_scan"}, "fusion_lon": 0.0}, {"lat": 38.91451216666667, "is_disabled": 0, "type": "electric_scooter", "lon": -77.0297255, "bike_id": "72bb99aed2650e6b3b2f53bacdcfadb2", "fusion_lat": 0.0, "name": "72bb99aed2650e6b3b2f53bacdcfadb2", "is_reserved": 0, "rental_uris": {"android": "https://dc.lft.to/lastmile_qr_scan", "ios": "https://dc.lft.to/lastmile_qr_scan"}, "fusion_lon": 0.0}, {"lat": 38.8849085, "is_disabled": 0, "type": "electric_scooter", "lon": -77.00724266666667, "bike_id": "1f1ea379f35888b0529954d673049d82", "fusion_lat": 0.0, "name": "1f1ea379f35888b0529954d673049d82", "is_reserved": 0, "rental_uris": {"android": "https://dc.lft.to/lastmile_qr_scan", "ios": "https://dc.lft.to/lastmile_qr_scan"}, "fusion_lon": 0.0}, {"lat": 38.939628166666665, "is_disabled": 0, "type": "electric_scooter", "lon": -77.02750616666667, "bike_id": "06e7226d07f9547b58275d72a66a3d50", "fusion_lat": 0.0, "name": "06e7226d07f9547b58275d72a66a3d50", "is_reserved": 0, "rental_uris": {"android": "https://dc.lft.to/lastmile_qr_scan", "ios": "https://dc.lft.to/lastmile_qr_scan"}, "fusion_lon": 0.0}, {"lat": 38.93343816666667, "is_disabled": 0, "type": "electric_scooter", "lon": -76.993058, "bike_id": "bd3d1216d212884a42a233c34ee4e48e", "fusion_lat": 0.0, "name": "bd3d1216d212884a42a233c34ee4e48e", "is_reserved": 0, "rental_uris": {"android": "https://dc.lft.to/lastmile_qr_scan", "ios": "https://dc.lft.to/lastmile_qr_scan"}, "fusion_lon": 0.0}, {"lat": 38.901066, "is_disabled": 0, "type": "electric_scooter", "lon": -76.98641083333334, "bike_id": "b4e1bbaf5123df2abd2c20ea41acae34", "fusion_lat": 0.0, "name": "b4e1bbaf5123df2abd2c20ea41acae34", "is_reserved": 0, "rental_uris": {"android": "https://dc.lft.to/lastmile_qr_scan", "ios": "https://dc.lft.to/lastmile_qr_scan"}, "fusion_lon": 0.0}, {"lat": 38.92244133333333, "is_disabled": 0, "type": "electric_scooter", "lon": -77.04345816666667, "bike_id": "47e080ac90fad2803ec10ea6b6ce711a", "fusion_lat": 0.0, "name": "47e080ac90fad2803ec10ea6b6ce711a", "is_reserved": 0, "rental_uris": {"android": "https://dc.lft.to/lastmile_qr_scan", "ios": "https://dc.lft.to/lastmile_qr_scan"}, "fusion_lon": 0.0}, {"lat": 38.908424333333336, "is_disabled": 0, "type": "electric_scooter", "lon": -77.00403833333333, "bike_id": "6fc31be8ddd5067cb45875267bc2c44c", "fusion_lat": 0.0, "name": "6fc31be8ddd5067cb45875267bc2c44c", "is_reserved": 0, "rental_uris": {"android": "https://dc.lft.to/lastmile_qr_scan", "ios": "https://dc.lft.to/lastmile_qr_scan"}, "fusion_lon": 0.0}, {"lat": 38.903976, "is_disabled": 0, "type": "electric_scooter", "lon": -76.98465083333333, "bike_id": "b99848d4571a348ee336b150c0a46b0a", "fusion_lat": 0.0, "name": "b99848d4571a348ee336b150c0a46b0a", "is_reserved": 0, "rental_uris": {"android": "https://dc.lft.to/lastmile_qr_scan", "ios": "https://dc.lft.to/lastmile_qr_scan"}, "fusion_lon": 0.0}, {"lat": 38.91670716666667, "is_disabled": 0, "type": "electric_scooter", "lon": -77.0236615, "bike_id": "3191fc7f86e005aa3eeb0ee604db65d3", "fusion_lat": 0.0, "name": "3191fc7f86e005aa3eeb0ee604db65d3", "is_reserved": 0, "rental_uris": {"android": "https://dc.lft.to/lastmile_qr_scan", "ios": "https://dc.lft.to/lastmile_qr_scan"}, "fusion_lon": 0.0}, {"lat": 38.926744, "is_disabled": 0, "type": "electric_scooter", "lon": -77.00739666666666, "bike_id": "a9f5e2537e416e071be7a8981f988036", "fusion_lat": 0.0, "name": "a9f5e2537e416e071be7a8981f988036", "is_reserved": 0, "rental_uris": {"android": "https://dc.lft.to/lastmile_qr_scan", "ios": "https://dc.lft.to/lastmile_qr_scan"}, "fusion_lon": 0.0}, {"lat": 38.90258, "is_disabled": 0, "type": "electric_scooter", "lon": -77.0282645, "bike_id": "ff96f744c43448874a1e753c040eeff8", "fusion_lat": 0.0, "name": "ff96f744c43448874a1e753c040eeff8", "is_reserved": 0, "rental_uris": {"android": "https://dc.lft.to/lastmile_qr_scan", "ios": "https://dc.lft.to/lastmile_qr_scan"}, "fusion_lon": 0.0}, {"lat": 38.893528333333336, "is_disabled": 0, "type": "electric_scooter", "lon": -77.03988483333333, "bike_id": "dc2f5f023a2da511bcde60cb4e726c8c", "fusion_lat": 0.0, "name": "dc2f5f023a2da511bcde60cb4e726c8c", "is_reserved": 0, "rental_uris": {"android": "https://dc.lft.to/lastmile_qr_scan", "ios": "https://dc.lft.to/lastmile_qr_scan"}, "fusion_lon": 0.0}, {"lat": 38.9622405, "is_disabled": 0, "type": "electric_bike", "lon": -77.026277, "bike_id": "280d0f39633f245f3505515d56ab0a29", "fusion_lat": 0.0, "name": "280d0f39633f245f3505515d56ab0a29", "is_reserved": 0, "rental_uris": {"android": "https://dc.lft.to/lastmile_qr_scan", "ios": "https://dc.lft.to/lastmile_qr_scan"}, "fusion_lon": 0.0}, {"lat": 38.892191, "is_disabled": 0, "type": "electric_bike", "lon": -77.10779416666666, "bike_id": "16933547072be3a63ba29e29ae5d0788", "fusion_lat": 0.0, "name": "16933547072be3a63ba29e29ae5d0788", "is_reserved": 0, "rental_uris": {"android": "https://dc.lft.to/lastmile_qr_scan", "ios": "https://dc.lft.to/lastmile_qr_scan"}, "fusion_lon": 0.0}, {"lat": 38.91338833333333, "is_disabled": 0, "type": "electric_scooter", "lon": -77.01263083333333, "bike_id": "8370193cf991e77229ab95d2f87a9786", "fusion_lat": 0.0, "name": "8370193cf991e77229ab95d2f87a9786", "is_reserved": 0, "rental_uris": {"android": "https://dc.lft.to/lastmile_qr_scan", "ios": "https://dc.lft.to/lastmile_qr_scan"}, "fusion_lon": 0.0}, {"lat": 38.88688283333333, "is_disabled": 0, "type": "electric_scooter", "lon": -77.01766366666666, "bike_id": "9ce72f7b9b3dc24b9bf4412d0b37b937", "fusion_lat": 0.0, "name": "9ce72f7b9b3dc24b9bf4412d0b37b937", "is_reserved": 0, "rental_uris": {"android": "https://dc.lft.to/lastmile_qr_scan", "ios": "https://dc.lft.to/lastmile_qr_scan"}, "fusion_lon": 0.0}, {"lat": 38.9319815, "is_disabled": 0, "type": "electric_scooter", "lon": -77.02353216666667, "bike_id": "19e354f311806b5abfde68cb2d018dc2", "fusion_lat": 0.0, "name": "19e354f311806b5abfde68cb2d018dc2", "is_reserved": 0, "rental_uris": {"android": "https://dc.lft.to/lastmile_qr_scan", "ios": "https://dc.lft.to/lastmile_qr_scan"}, "fusion_lon": 0.0}, {"lat": 38.89493216666666, "is_disabled": 0, "type": "electric_scooter", "lon": -77.00195683333334, "bike_id": "b6ea4208c2017f3ef7a86ec7ff90a28c", "fusion_lat": 0.0, "name": "b6ea4208c2017f3ef7a86ec7ff90a28c", "is_reserved": 0, "rental_uris": {"android": "https://dc.lft.to/lastmile_qr_scan", "ios": "https://dc.lft.to/lastmile_qr_scan"}, "fusion_lon": 0.0}, {"lat": 38.898389, "is_disabled": 0, "type": "electric_scooter", "lon": -76.9950735, "bike_id": "078f8022f74ed018d4feae2e6fb5ba40", "fusion_lat": 0.0, "name": "078f8022f74ed018d4feae2e6fb5ba40", "is_reserved": 0, "rental_uris": {"android": "https://dc.lft.to/lastmile_qr_scan", "ios": "https://dc.lft.to/lastmile_qr_scan"}, "fusion_lon": 0.0}, {"lat": 38.892498833333335, "is_disabled": 0, "type": "electric_scooter", "lon": -77.0335205, "bike_id": "fdfe72eae7dd438b0e06f8d51df7ba3b", "fusion_lat": 0.0, "name": "fdfe72eae7dd438b0e06f8d51df7ba3b", "is_reserved": 0, "rental_uris": {"android": "https://dc.lft.to/lastmile_qr_scan", "ios": "https://dc.lft.to/lastmile_qr_scan"}, "fusion_lon": 0.0}, {"lat": 38.9259365, "is_disabled": 0, "type": "electric_scooter", "lon": -77.04400783333334, "bike_id": "2c7247cbcb3ba787e360541cf63c330a", "fusion_lat": 0.0, "name": "2c7247cbcb3ba787e360541cf63c330a", "is_reserved": 0, "rental_uris": {"android": "https://dc.lft.to/lastmile_qr_scan", "ios": "https://dc.lft.to/lastmile_qr_scan"}, "fusion_lon": 0.0}, {"lat": 38.86258016666667, "is_disabled": 0, "type": "electric_scooter", "lon": -76.99517033333333, "bike_id": "df57a9fcdfd4f082bef963530d845b30", "fusion_lat": 0.0, "name": "df57a9fcdfd4f082bef963530d845b30", "is_reserved": 0, "rental_uris": {"android": "https://dc.lft.to/lastmile_qr_scan", "ios": "https://dc.lft.to/lastmile_qr_scan"}, "fusion_lon": 0.0}, {"lat": 38.898476333333335, "is_disabled": 0, "type": "electric_scooter", "lon": -76.99034283333333, "bike_id": "939ebce3c628ae62cbc648365ce2e847", "fusion_lat": 0.0, "name": "939ebce3c628ae62cbc648365ce2e847", "is_reserved": 0, "rental_uris": {"android": "https://dc.lft.to/lastmile_qr_scan", "ios": "https://dc.lft.to/lastmile_qr_scan"}, "fusion_lon": 0.0}, {"lat": 38.89736516666667, "is_disabled": 0, "type": "electric_scooter", "lon": -77.04990916666667, "bike_id": "8969fecadafc8d771836e01f66b006de", "fusion_lat": 0.0, "name": "8969fecadafc8d771836e01f66b006de", "is_reserved": 0, "rental_uris": {"android": "https://dc.lft.to/lastmile_qr_scan", "ios": "https://dc.lft.to/lastmile_qr_scan"}, "fusion_lon": 0.0}, {"lat": 39.034281166666666, "is_disabled": 0, "type": "electric_bike", "lon": -77.04303833333333, "bike_id": "4784c40a2cf231468921c28d45e0dfc2", "fusion_lat": 0.0, "name": "4784c40a2cf231468921c28d45e0dfc2", "is_reserved": 0, "rental_uris": {"android": "https://dc.lft.to/lastmile_qr_scan", "ios": "https://dc.lft.to/lastmile_qr_scan"}, "fusion_lon": 0.0}, {"lat": 38.93657566666667, "is_disabled": 0, "type": "electric_bike", "lon": -76.95224716666667, "bike_id": "23ff5431e3a38cb90ce115446e8a46e9", "fusion_lat": 0.0, "name": "23ff5431e3a38cb90ce115446e8a46e9", "is_reserved": 0, "rental_uris": {"android": "https://dc.lft.to/lastmile_qr_scan", "ios": "https://dc.lft.to/lastmile_qr_scan"}, "fusion_lon": 0.0}, {"lat": 38.96432183333334, "is_disabled": 0, "type": "electric_bike", "lon": -77.0214985, "bike_id": "dd359e421fe3daf168155c6c76d694ca", "fusion_lat": 0.0, "name": "dd359e421fe3daf168155c6c76d694ca", "is_reserved": 0, "rental_uris": {"android": "https://dc.lft.to/lastmile_qr_scan", "ios": "https://dc.lft.to/lastmile_qr_scan"}, "fusion_lon": 0.0}, {"lat": 38.945519833333336, "is_disabled": 0, "type": "electric_bike", "lon": -76.89534516666667, "bike_id": "7ab4ce33009050496737939ee6a0ca08", "fusion_lat": 0.0, "name": "7ab4ce33009050496737939ee6a0ca08", "is_reserved": 0, "rental_uris": {"android": "https://dc.lft.to/lastmile_qr_scan", "ios": "https://dc.lft.to/lastmile_qr_scan"}, "fusion_lon": 0.0}, {"lat": 38.902599333333335, "is_disabled": 0, "type": "electric_scooter", "lon": -77.0174575, "bike_id": "8ded07f1a2ddd251dc0d899d42093854", "fusion_lat": 0.0, "name": "8ded07f1a2ddd251dc0d899d42093854", "is_reserved": 0, "rental_uris": {"android": "https://dc.lft.to/lastmile_qr_scan", "ios": "https://dc.lft.to/lastmile_qr_scan"}, "fusion_lon": 0.0}, {"lat": 38.90980016666666, "is_disabled": 0, "type": "electric_scooter", "lon": -77.04789166666667, "bike_id": "e53bdec68f2bec212b51aa5175410784", "fusion_lat": 0.0, "name": "e53bdec68f2bec212b51aa5175410784", "is_reserved": 0, "rental_uris": {"android": "https://dc.lft.to/lastmile_qr_scan", "ios": "https://dc.lft.to/lastmile_qr_scan"}, "fusion_lon": 0.0}, {"lat": 38.90845083333333, "is_disabled": 0, "type": "electric_scooter", "lon": -77.040162, "bike_id": "6aa10007050ac814b8a4d4b36e110f71", "fusion_lat": 0.0, "name": "6aa10007050ac814b8a4d4b36e110f71", "is_reserved": 0, "rental_uris": {"android": "https://dc.lft.to/lastmile_qr_scan", "ios": "https://dc.lft.to/lastmile_qr_scan"}, "fusion_lon": 0.0}, {"lat": 38.992588, "is_disabled": 0, "type": "electric_scooter", "lon": -77.03657116666666, "bike_id": "84c81f26a292d897abe8106fab11aa7c", "fusion_lat": 0.0, "name": "84c81f26a292d897abe8106fab11aa7c", "is_reserved": 0, "rental_uris": {"android": "https://dc.lft.to/lastmile_qr_scan", "ios": "https://dc.lft.to/lastmile_qr_scan"}, "fusion_lon": 0.0}, {"lat": 38.90539833333333, "is_disabled": 0, "type": "electric_scooter", "lon": -77.00585966666667, "bike_id": "22a176d1a36be71d6a8f8b098699c75d", "fusion_lat": 0.0, "name": "22a176d1a36be71d6a8f8b098699c75d", "is_reserved": 0, "rental_uris": {"android": "https://dc.lft.to/lastmile_qr_scan", "ios": "https://dc.lft.to/lastmile_qr_scan"}, "fusion_lon": 0.0}, {"lat": 38.9175865, "is_disabled": 0, "type": "electric_scooter", "lon": -77.01476683333334, "bike_id": "8cf9497fd58007bc2fe7e77c82b78787", "fusion_lat": 0.0, "name": "8cf9497fd58007bc2fe7e77c82b78787", "is_reserved": 0, "rental_uris": {"android": "https://dc.lft.to/lastmile_qr_scan", "ios": "https://dc.lft.to/lastmile_qr_scan"}, "fusion_lon": 0.0}, {"lat": 38.919392, "is_disabled": 0, "type": "electric_scooter", "lon": -77.070585, "bike_id": "ade6db174b33a8c89a15eb53db607232", "fusion_lat": 0.0, "name": "ade6db174b33a8c89a15eb53db607232", "is_reserved": 0, "rental_uris": {"android": "https://dc.lft.to/lastmile_qr_scan", "ios": "https://dc.lft.to/lastmile_qr_scan"}, "fusion_lon": 0.0}, {"lat": 38.844310666666665, "is_disabled": 0, "type": "electric_scooter", "lon": -76.99664683333333, "bike_id": "967b32d8a8886b173eddcff9e4eaca76", "fusion_lat": 0.0, "name": "967b32d8a8886b173eddcff9e4eaca76", "is_reserved": 0, "rental_uris": {"android": "https://dc.lft.to/lastmile_qr_scan", "ios": "https://dc.lft.to/lastmile_qr_scan"}, "fusion_lon": 0.0}, {"lat": 38.8518955, "is_disabled": 0, "type": "electric_scooter", "lon": -76.97619866666666, "bike_id": "83f40230272aac4a9f8ae8f8268812e8", "fusion_lat": 0.0, "name": "83f40230272aac4a9f8ae8f8268812e8", "is_reserved": 0, "rental_uris": {"android": "https://dc.lft.to/lastmile_qr_scan", "ios": "https://dc.lft.to/lastmile_qr_scan"}, "fusion_lon": 0.0}, {"lat": 38.937404, "is_disabled": 0, "type": "electric_scooter", "lon": -77.03624433333333, "bike_id": "5f51915c62d725d71148c757e61b7c14", "fusion_lat": 0.0, "name": "5f51915c62d725d71148c757e61b7c14", "is_reserved": 0, "rental_uris": {"android": "https://dc.lft.to/lastmile_qr_scan", "ios": "https://dc.lft.to/lastmile_qr_scan"}, "fusion_lon": 0.0}, {"lat": 38.90734666666667, "is_disabled": 0, "type": "electric_scooter", "lon": -77.039876, "bike_id": "9a7b5086ecbb882c8062839729ddc7d0", "fusion_lat": 0.0, "name": "9a7b5086ecbb882c8062839729ddc7d0", "is_reserved": 0, "rental_uris": {"android": "https://dc.lft.to/lastmile_qr_scan", "ios": "https://dc.lft.to/lastmile_qr_scan"}, "fusion_lon": 0.0}, {"lat": 38.94392033333333, "is_disabled": 0, "type": "electric_scooter", "lon": -77.01984083333333, "bike_id": "fd03cd80a4334aa65ec579412d50f13a", "fusion_lat": 0.0, "name": "fd03cd80a4334aa65ec579412d50f13a", "is_reserved": 0, "rental_uris": {"android": "https://dc.lft.to/lastmile_qr_scan", "ios": "https://dc.lft.to/lastmile_qr_scan"}, "fusion_lon": 0.0}, {"lat": 38.85510266666667, "is_disabled": 0, "type": "electric_bike", "lon": -77.120042, "bike_id": "8c672b0d1e74b0a01bae48f4ead864b1", "fusion_lat": 0.0, "name": "8c672b0d1e74b0a01bae48f4ead864b1", "is_reserved": 0, "rental_uris": {"android": "https://dc.lft.to/lastmile_qr_scan", "ios": "https://dc.lft.to/lastmile_qr_scan"}, "fusion_lon": 0.0}, {"lat": 38.918766833333336, "is_disabled": 0, "type": "electric_scooter", "lon": -77.034884, "bike_id": "f20c59d5fa5a19c1950304a4d5958fd0", "fusion_lat": 0.0, "name": "f20c59d5fa5a19c1950304a4d5958fd0", "is_reserved": 0, "rental_uris": {"android": "https://dc.lft.to/lastmile_qr_scan", "ios": "https://dc.lft.to/lastmile_qr_scan"}, "fusion_lon": 0.0}, {"lat": 38.923501333333334, "is_disabled": 0, "type": "electric_scooter", "lon": -77.03392183333334, "bike_id": "c7a07627429b208dd1f619d379f0888f", "fusion_lat": 0.0, "name": "c7a07627429b208dd1f619d379f0888f", "is_reserved": 0, "rental_uris": {"android": "https://dc.lft.to/lastmile_qr_scan", "ios": "https://dc.lft.to/lastmile_qr_scan"}, "fusion_lon": 0.0}, {"lat": 38.85189416666667, "is_disabled": 0, "type": "electric_bike", "lon": -76.96109166666666, "bike_id": "998bc01fb3c593d92b1e57558eb59760", "fusion_lat": 0.0, "name": "998bc01fb3c593d92b1e57558eb59760", "is_reserved": 0, "rental_uris": {"android": "https://dc.lft.to/lastmile_qr_scan", "ios": "https://dc.lft.to/lastmile_qr_scan"}, "fusion_lon": 0.0}, {"lat": 38.944384, "is_disabled": 0, "type": "electric_scooter", "lon": -77.0150365, "bike_id": "3e6e0f9bb3ee0be6b4ebb5ef90b06a41", "fusion_lat": 0.0, "name": "3e6e0f9bb3ee0be6b4ebb5ef90b06a41", "is_reserved": 0, "rental_uris": {"android": "https://dc.lft.to/lastmile_qr_scan", "ios": "https://dc.lft.to/lastmile_qr_scan"}, "fusion_lon": 0.0}, {"lat": 38.99005283333334, "is_disabled": 0, "type": "electric_bike", "lon": -77.00442133333334, "bike_id": "044590ef74c74ea2065b765e98646493", "fusion_lat": 0.0, "name": "044590ef74c74ea2065b765e98646493", "is_reserved": 0, "rental_uris": {"android": "https://dc.lft.to/lastmile_qr_scan", "ios": "https://dc.lft.to/lastmile_qr_scan"}, "fusion_lon": 0.0}, {"lat": 38.90102566666667, "is_disabled": 0, "type": "electric_scooter", "lon": -77.02518933333333, "bike_id": "7157f9b5de1b0baddae0dbdcb87d278b", "fusion_lat": 0.0, "name": "7157f9b5de1b0baddae0dbdcb87d278b", "is_reserved": 0, "rental_uris": {"android": "https://dc.lft.to/lastmile_qr_scan", "ios": "https://dc.lft.to/lastmile_qr_scan"}, "fusion_lon": 0.0}, {"lat": 38.931859833333334, "is_disabled": 0, "type": "electric_scooter", "lon": -77.03655866666666, "bike_id": "e17ba4f542154c9aaa64a67cf484cc81", "fusion_lat": 0.0, "name": "e17ba4f542154c9aaa64a67cf484cc81", "is_reserved": 0, "rental_uris": {"android": "https://dc.lft.to/lastmile_qr_scan", "ios": "https://dc.lft.to/lastmile_qr_scan"}, "fusion_lon": 0.0}, {"lat": 38.857938, "is_disabled": 0, "type": "electric_scooter", "lon": -76.98715983333334, "bike_id": "705625bb20f75b98d4ded98215fe2b3f", "fusion_lat": 0.0, "name": "705625bb20f75b98d4ded98215fe2b3f", "is_reserved": 0, "rental_uris": {"android": "https://dc.lft.to/lastmile_qr_scan", "ios": "https://dc.lft.to/lastmile_qr_scan"}, "fusion_lon": 0.0}, {"lat": 38.88337516666667, "is_disabled": 0, "type": "electric_scooter", "lon": -77.03139616666667, "bike_id": "fc24495c0f75ff24bacda17b6b55f22a", "fusion_lat": 0.0, "name": "fc24495c0f75ff24bacda17b6b55f22a", "is_reserved": 0, "rental_uris": {"android": "https://dc.lft.to/lastmile_qr_scan", "ios": "https://dc.lft.to/lastmile_qr_scan"}, "fusion_lon": 0.0}, {"lat": 38.91805566666667, "is_disabled": 0, "type": "electric_scooter", "lon": -77.03438216666666, "bike_id": "3d876ff26a6a10746534a34d4963d6f7", "fusion_lat": 0.0, "name": "3d876ff26a6a10746534a34d4963d6f7", "is_reserved": 0, "rental_uris": {"android": "https://dc.lft.to/lastmile_qr_scan", "ios": "https://dc.lft.to/lastmile_qr_scan"}, "fusion_lon": 0.0}, {"lat": 38.8610915, "is_disabled": 0, "type": "electric_scooter", "lon": -76.96751083333334, "bike_id": "f123dbda6ece120d01fb7f8b147b73b3", "fusion_lat": 0.0, "name": "f123dbda6ece120d01fb7f8b147b73b3", "is_reserved": 0, "rental_uris": {"android": "https://dc.lft.to/lastmile_qr_scan", "ios": "https://dc.lft.to/lastmile_qr_scan"}, "fusion_lon": 0.0}, {"lat": 38.92393416666667, "is_disabled": 0, "type": "electric_scooter", "lon": -77.00067383333334, "bike_id": "7516ef3172497c401f7302e63c62bb21", "fusion_lat": 0.0, "name": "7516ef3172497c401f7302e63c62bb21", "is_reserved": 0, "rental_uris": {"android": "https://dc.lft.to/lastmile_qr_scan", "ios": "https://dc.lft.to/lastmile_qr_scan"}, "fusion_lon": 0.0}, {"lat": 38.898903833333335, "is_disabled": 0, "type": "electric_scooter", "lon": -77.0221195, "bike_id": "e56118a6077f8abe8a1183880344c24c", "fusion_lat": 0.0, "name": "e56118a6077f8abe8a1183880344c24c", "is_reserved": 0, "rental_uris": {"android": "https://dc.lft.to/lastmile_qr_scan", "ios": "https://dc.lft.to/lastmile_qr_scan"}, "fusion_lon": 0.0}, {"lat": 38.92411766666667, "is_disabled": 0, "type": "electric_scooter", "lon": -77.03538466666667, "bike_id": "4e8563438408e130bc3e335f50a59ff3", "fusion_lat": 0.0, "name": "4e8563438408e130bc3e335f50a59ff3", "is_reserved": 0, "rental_uris": {"android": "https://dc.lft.to/lastmile_qr_scan", "ios": "https://dc.lft.to/lastmile_qr_scan"}, "fusion_lon": 0.0}, {"lat": 38.8794155, "is_disabled": 0, "type": "electric_scooter", "lon": -77.00687466666666, "bike_id": "baaa819b008de0ebd8a0a4b477b063dd", "fusion_lat": 0.0, "name": "baaa819b008de0ebd8a0a4b477b063dd", "is_reserved": 0, "rental_uris": {"android": "https://dc.lft.to/lastmile_qr_scan", "ios": "https://dc.lft.to/lastmile_qr_scan"}, "fusion_lon": 0.0}, {"lat": 38.91340733333333, "is_disabled": 0, "type": "electric_scooter", "lon": -77.0022445, "bike_id": "26b87086daf00a79476bad31ddd93584", "fusion_lat": 0.0, "name": "26b87086daf00a79476bad31ddd93584", "is_reserved": 0, "rental_uris": {"android": "https://dc.lft.to/lastmile_qr_scan", "ios": "https://dc.lft.to/lastmile_qr_scan"}, "fusion_lon": 0.0}, {"lat": 38.92339316666666, "is_disabled": 0, "type": "electric_scooter", "lon": -77.01904033333334, "bike_id": "8224e37971d9839c1ce773b04de26706", "fusion_lat": 0.0, "name": "8224e37971d9839c1ce773b04de26706", "is_reserved": 0, "rental_uris": {"android": "https://dc.lft.to/lastmile_qr_scan", "ios": "https://dc.lft.to/lastmile_qr_scan"}, "fusion_lon": 0.0}, {"lat": 38.922422166666664, "is_disabled": 0, "type": "electric_scooter", "lon": -77.04251416666666, "bike_id": "d14ef5355b7a855c0a84663e8e94455a", "fusion_lat": 0.0, "name": "d14ef5355b7a855c0a84663e8e94455a", "is_reserved": 0, "rental_uris": {"android": "https://dc.lft.to/lastmile_qr_scan", "ios": "https://dc.lft.to/lastmile_qr_scan"}, "fusion_lon": 0.0}, {"lat": 38.91745183333333, "is_disabled": 0, "type": "electric_scooter", "lon": -77.06891, "bike_id": "4601b3a2b4c4b17e011a2e1471f2e476", "fusion_lat": 0.0, "name": "4601b3a2b4c4b17e011a2e1471f2e476", "is_reserved": 0, "rental_uris": {"android": "https://dc.lft.to/lastmile_qr_scan", "ios": "https://dc.lft.to/lastmile_qr_scan"}, "fusion_lon": 0.0}, {"lat": 38.912091, "is_disabled": 0, "type": "electric_scooter", "lon": -77.04531183333333, "bike_id": "eb6bea548e8318e8d6f888f4465db281", "fusion_lat": 0.0, "name": "eb6bea548e8318e8d6f888f4465db281", "is_reserved": 0, "rental_uris": {"android": "https://dc.lft.to/lastmile_qr_scan", "ios": "https://dc.lft.to/lastmile_qr_scan"}, "fusion_lon": 0.0}, {"lat": 38.944434666666666, "is_disabled": 0, "type": "electric_scooter", "lon": -77.0233625, "bike_id": "4e42115d667c051bc33a952d663ae19e", "fusion_lat": 0.0, "name": "4e42115d667c051bc33a952d663ae19e", "is_reserved": 0, "rental_uris": {"android": "https://dc.lft.to/lastmile_qr_scan", "ios": "https://dc.lft.to/lastmile_qr_scan"}, "fusion_lon": 0.0}, {"lat": 38.92069866666667, "is_disabled": 0, "type": "electric_scooter", "lon": -77.04236083333333, "bike_id": "fbe17907ed3b85bdc51bc3dab3028e1f", "fusion_lat": 0.0, "name": "fbe17907ed3b85bdc51bc3dab3028e1f", "is_reserved": 0, "rental_uris": {"android": "https://dc.lft.to/lastmile_qr_scan", "ios": "https://dc.lft.to/lastmile_qr_scan"}, "fusion_lon": 0.0}, {"lat": 38.901449166666666, "is_disabled": 0, "type": "electric_scooter", "lon": -77.04143233333333, "bike_id": "6e7c8fc8512f824a28e6bd83a5d4f0ad", "fusion_lat": 0.0, "name": "6e7c8fc8512f824a28e6bd83a5d4f0ad", "is_reserved": 0, "rental_uris": {"android": "https://dc.lft.to/lastmile_qr_scan", "ios": "https://dc.lft.to/lastmile_qr_scan"}, "fusion_lon": 0.0}, {"lat": 38.901749, "is_disabled": 0, "type": "electric_scooter", "lon": -77.024878, "bike_id": "9f6b28a736c704ca02f9cbfe8e11d54c", "fusion_lat": 0.0, "name": "9f6b28a736c704ca02f9cbfe8e11d54c", "is_reserved": 0, "rental_uris": {"android": "https://dc.lft.to/lastmile_qr_scan", "ios": "https://dc.lft.to/lastmile_qr_scan"}, "fusion_lon": 0.0}, {"lat": 38.920007, "is_disabled": 0, "type": "electric_scooter", "lon": -77.02386666666666, "bike_id": "2d12fdc05937d7df2f051bdfab2f8bb6", "fusion_lat": 0.0, "name": "2d12fdc05937d7df2f051bdfab2f8bb6", "is_reserved": 0, "rental_uris": {"android": "https://dc.lft.to/lastmile_qr_scan", "ios": "https://dc.lft.to/lastmile_qr_scan"}, "fusion_lon": 0.0}, {"lat": 38.908617, "is_disabled": 0, "type": "electric_bike", "lon": -77.00160616666666, "bike_id": "38ee3f408f40467be219af45714f8d81", "fusion_lat": 0.0, "name": "38ee3f408f40467be219af45714f8d81", "is_reserved": 0, "rental_uris": {"android": "https://dc.lft.to/lastmile_qr_scan", "ios": "https://dc.lft.to/lastmile_qr_scan"}, "fusion_lon": 0.0}, {"lat": 38.857335, "is_disabled": 0, "type": "electric_scooter", "lon": -76.99433233333333, "bike_id": "df6102e3a831bee077d79f87a96ace3e", "fusion_lat": 0.0, "name": "df6102e3a831bee077d79f87a96ace3e", "is_reserved": 0, "rental_uris": {"android": "https://dc.lft.to/lastmile_qr_scan", "ios": "https://dc.lft.to/lastmile_qr_scan"}, "fusion_lon": 0.0}, {"lat": 38.909594, "is_disabled": 0, "type": "electric_scooter", "lon": -77.03421416666667, "bike_id": "3e79593652c14ca4a6a443be106cc29a", "fusion_lat": 0.0, "name": "3e79593652c14ca4a6a443be106cc29a", "is_reserved": 0, "rental_uris": {"android": "https://dc.lft.to/lastmile_qr_scan", "ios": "https://dc.lft.to/lastmile_qr_scan"}, "fusion_lon": 0.0}, {"lat": 38.91688, "is_disabled": 0, "type": "electric_scooter", "lon": -77.03059283333333, "bike_id": "1e4fb6ef0781eae40a3ad82113cedf06", "fusion_lat": 0.0, "name": "1e4fb6ef0781eae40a3ad82113cedf06", "is_reserved": 0, "rental_uris": {"android": "https://dc.lft.to/lastmile_qr_scan", "ios": "https://dc.lft.to/lastmile_qr_scan"}, "fusion_lon": 0.0}, {"lat": 38.867453166666664, "is_disabled": 0, "type": "electric_scooter", "lon": -76.9766345, "bike_id": "e470d7bac2e8ff5bd6ca35eaffcf70cd", "fusion_lat": 0.0, "name": "e470d7bac2e8ff5bd6ca35eaffcf70cd", "is_reserved": 0, "rental_uris": {"android": "https://dc.lft.to/lastmile_qr_scan", "ios": "https://dc.lft.to/lastmile_qr_scan"}, "fusion_lon": 0.0}, {"lat": 38.9038065, "is_disabled": 0, "type": "electric_scooter", "lon": -77.01647, "bike_id": "546f752f75bdb1edfc81ee8cdb52ade6", "fusion_lat": 0.0, "name": "546f752f75bdb1edfc81ee8cdb52ade6", "is_reserved": 0, "rental_uris": {"android": "https://dc.lft.to/lastmile_qr_scan", "ios": "https://dc.lft.to/lastmile_qr_scan"}, "fusion_lon": 0.0}, {"lat": 38.9074195, "is_disabled": 0, "type": "electric_scooter", "lon": -77.042121, "bike_id": "f17faca9fae2bf237cbe15979593e23a", "fusion_lat": 0.0, "name": "f17faca9fae2bf237cbe15979593e23a", "is_reserved": 0, "rental_uris": {"android": "https://dc.lft.to/lastmile_qr_scan", "ios": "https://dc.lft.to/lastmile_qr_scan"}, "fusion_lon": 0.0}, {"lat": 38.951860333333336, "is_disabled": 0, "type": "electric_bike", "lon": -76.93543166666667, "bike_id": "df096b1d8c76b825e2e2c006fe52fc33", "fusion_lat": 0.0, "name": "df096b1d8c76b825e2e2c006fe52fc33", "is_reserved": 0, "rental_uris": {"android": "https://dc.lft.to/lastmile_qr_scan", "ios": "https://dc.lft.to/lastmile_qr_scan"}, "fusion_lon": 0.0}, {"lat": 38.906638, "is_disabled": 0, "type": "electric_scooter", "lon": -77.01536533333334, "bike_id": "0ee5a9ea9131e7b1a95d91862bf0ad50", "fusion_lat": 0.0, "name": "0ee5a9ea9131e7b1a95d91862bf0ad50", "is_reserved": 0, "rental_uris": {"android": "https://dc.lft.to/lastmile_qr_scan", "ios": "https://dc.lft.to/lastmile_qr_scan"}, "fusion_lon": 0.0}, {"lat": 38.8773145, "is_disabled": 0, "type": "electric_bike", "lon": -77.11851683333333, "bike_id": "a2a5e69e1e22d5ef5e6057340fa5a3e2", "fusion_lat": 0.0, "name": "a2a5e69e1e22d5ef5e6057340fa5a3e2", "is_reserved": 0, "rental_uris": {"android": "https://dc.lft.to/lastmile_qr_scan", "ios": "https://dc.lft.to/lastmile_qr_scan"}, "fusion_lon": 0.0}, {"lat": 38.862543, "is_disabled": 0, "type": "electric_scooter", "lon": -76.98698883333333, "bike_id": "10e77fd61bfdb0d4946d646b2b895119", "fusion_lat": 0.0, "name": "10e77fd61bfdb0d4946d646b2b895119", "is_reserved": 0, "rental_uris": {"android": "https://dc.lft.to/lastmile_qr_scan", "ios": "https://dc.lft.to/lastmile_qr_scan"}, "fusion_lon": 0.0}, {"lat": 38.910475, "is_disabled": 0, "type": "electric_scooter", "lon": -77.01524416666666, "bike_id": "d7b0116965e15d0e7247cfbc80723ad4", "fusion_lat": 0.0, "name": "d7b0116965e15d0e7247cfbc80723ad4", "is_reserved": 0, "rental_uris": {"android": "https://dc.lft.to/lastmile_qr_scan", "ios": "https://dc.lft.to/lastmile_qr_scan"}, "fusion_lon": 0.0}, {"lat": 38.939062, "is_disabled": 0, "type": "electric_scooter", "lon": -77.0249035, "bike_id": "c552b2520d4ee821c48b12458e4fb68e", "fusion_lat": 0.0, "name": "c552b2520d4ee821c48b12458e4fb68e", "is_reserved": 0, "rental_uris": {"android": "https://dc.lft.to/lastmile_qr_scan", "ios": "https://dc.lft.to/lastmile_qr_scan"}, "fusion_lon": 0.0}, {"lat": 38.929605333333335, "is_disabled": 0, "type": "electric_scooter", "lon": -77.03075183333333, "bike_id": "a86682372de70899efa6026268e6fb3d", "fusion_lat": 0.0, "name": "a86682372de70899efa6026268e6fb3d", "is_reserved": 0, "rental_uris": {"android": "https://dc.lft.to/lastmile_qr_scan", "ios": "https://dc.lft.to/lastmile_qr_scan"}, "fusion_lon": 0.0}, {"lat": 38.9057305, "is_disabled": 0, "type": "electric_scooter", "lon": -77.02218483333333, "bike_id": "12df65098dc42aa5a6b4caa9a28d35ee", "fusion_lat": 0.0, "name": "12df65098dc42aa5a6b4caa9a28d35ee", "is_reserved": 0, "rental_uris": {"android": "https://dc.lft.to/lastmile_qr_scan", "ios": "https://dc.lft.to/lastmile_qr_scan"}, "fusion_lon": 0.0}, {"lat": 38.90271033333333, "is_disabled": 0, "type": "electric_scooter", "lon": -77.03200316666667, "bike_id": "1409cdd98f130c4314f2f77c514dd39a", "fusion_lat": 0.0, "name": "1409cdd98f130c4314f2f77c514dd39a", "is_reserved": 0, "rental_uris": {"android": "https://dc.lft.to/lastmile_qr_scan", "ios": "https://dc.lft.to/lastmile_qr_scan"}, "fusion_lon": 0.0}, {"lat": 38.890437166666665, "is_disabled": 0, "type": "electric_scooter", "lon": -76.94075483333333, "bike_id": "9a25f091af0719ff356d7ba906771989", "fusion_lat": 0.0, "name": "9a25f091af0719ff356d7ba906771989", "is_reserved": 0, "rental_uris": {"android": "https://dc.lft.to/lastmile_qr_scan", "ios": "https://dc.lft.to/lastmile_qr_scan"}, "fusion_lon": 0.0}, {"lat": 38.911740333333334, "is_disabled": 0, "type": "electric_scooter", "lon": -77.03849833333334, "bike_id": "a96aa63c9e63684005324cd8c54511ce", "fusion_lat": 0.0, "name": "a96aa63c9e63684005324cd8c54511ce", "is_reserved": 0, "rental_uris": {"android": "https://dc.lft.to/lastmile_qr_scan", "ios": "https://dc.lft.to/lastmile_qr_scan"}, "fusion_lon": 0.0}, {"lat": 38.90738433333333, "is_disabled": 0, "type": "electric_scooter", "lon": -77.04209, "bike_id": "13fc00e41a9c447a6a38207b69fd5fb3", "fusion_lat": 0.0, "name": "13fc00e41a9c447a6a38207b69fd5fb3", "is_reserved": 0, "rental_uris": {"android": "https://dc.lft.to/lastmile_qr_scan", "ios": "https://dc.lft.to/lastmile_qr_scan"}, "fusion_lon": 0.0}, {"lat": 38.9587875, "is_disabled": 0, "type": "electric_bike", "lon": -76.92480116666667, "bike_id": "fa5fb0e5da5bdd6d9ea2785dbe13023d", "fusion_lat": 0.0, "name": "fa5fb0e5da5bdd6d9ea2785dbe13023d", "is_reserved": 0, "rental_uris": {"android": "https://dc.lft.to/lastmile_qr_scan", "ios": "https://dc.lft.to/lastmile_qr_scan"}, "fusion_lon": 0.0}, {"lat": 38.858480166666666, "is_disabled": 0, "type": "electric_bike", "lon": -77.09757716666667, "bike_id": "c6c160ea00e1315ad17e3bacf944a810", "fusion_lat": 0.0, "name": "c6c160ea00e1315ad17e3bacf944a810", "is_reserved": 0, "rental_uris": {"android": "https://dc.lft.to/lastmile_qr_scan", "ios": "https://dc.lft.to/lastmile_qr_scan"}, "fusion_lon": 0.0}, {"lat": 38.921146, "is_disabled": 0, "type": "electric_bike", "lon": -76.98576766666666, "bike_id": "1a299ca4f5b2e20d4219abd6353882da", "fusion_lat": 0.0, "name": "1a299ca4f5b2e20d4219abd6353882da", "is_reserved": 0, "rental_uris": {"android": "https://dc.lft.to/lastmile_qr_scan", "ios": "https://dc.lft.to/lastmile_qr_scan"}, "fusion_lon": 0.0}, {"lat": 38.917900333333336, "is_disabled": 0, "type": "electric_scooter", "lon": -77.044325, "bike_id": "732d43673811123dbd98636eca0dbf99", "fusion_lat": 0.0, "name": "732d43673811123dbd98636eca0dbf99", "is_reserved": 0, "rental_uris": {"android": "https://dc.lft.to/lastmile_qr_scan", "ios": "https://dc.lft.to/lastmile_qr_scan"}, "fusion_lon": 0.0}, {"lat": 38.931008166666665, "is_disabled": 0, "type": "electric_scooter", "lon": -77.02491, "bike_id": "f9bfceda7392db8de18316e9cedd8291", "fusion_lat": 0.0, "name": "f9bfceda7392db8de18316e9cedd8291", "is_reserved": 0, "rental_uris": {"android": "https://dc.lft.to/lastmile_qr_scan", "ios": "https://dc.lft.to/lastmile_qr_scan"}, "fusion_lon": 0.0}, {"lat": 38.93122833333334, "is_disabled": 0, "type": "electric_scooter", "lon": -77.03409333333333, "bike_id": "ebd491c1c40f96bb2d6d73f81ce4f5b5", "fusion_lat": 0.0, "name": "ebd491c1c40f96bb2d6d73f81ce4f5b5", "is_reserved": 0, "rental_uris": {"android": "https://dc.lft.to/lastmile_qr_scan", "ios": "https://dc.lft.to/lastmile_qr_scan"}, "fusion_lon": 0.0}, {"lat": 38.94041566666667, "is_disabled": 0, "type": "electric_bike", "lon": -77.05165333333333, "bike_id": "e68a3ce0e6c856279f172416043410bb", "fusion_lat": 0.0, "name": "e68a3ce0e6c856279f172416043410bb", "is_reserved": 0, "rental_uris": {"android": "https://dc.lft.to/lastmile_qr_scan", "ios": "https://dc.lft.to/lastmile_qr_scan"}, "fusion_lon": 0.0}, {"lat": 38.920722833333336, "is_disabled": 0, "type": "electric_scooter", "lon": -77.01424916666667, "bike_id": "278fa98b1400a834df9f2e170eba76ef", "fusion_lat": 0.0, "name": "278fa98b1400a834df9f2e170eba76ef", "is_reserved": 0, "rental_uris": {"android": "https://dc.lft.to/lastmile_qr_scan", "ios": "https://dc.lft.to/lastmile_qr_scan"}, "fusion_lon": 0.0}, {"lat": 38.922505666666666, "is_disabled": 0, "type": "electric_scooter", "lon": -77.03106566666666, "bike_id": "6ec5d08307a57b8febd067d389b0ff69", "fusion_lat": 0.0, "name": "6ec5d08307a57b8febd067d389b0ff69", "is_reserved": 0, "rental_uris": {"android": "https://dc.lft.to/lastmile_qr_scan", "ios": "https://dc.lft.to/lastmile_qr_scan"}, "fusion_lon": 0.0}, {"lat": 38.91386033333333, "is_disabled": 0, "type": "electric_scooter", "lon": -77.019054, "bike_id": "05cf50e5125ebdfc02dd635c181ba122", "fusion_lat": 0.0, "name": "05cf50e5125ebdfc02dd635c181ba122", "is_reserved": 0, "rental_uris": {"android": "https://dc.lft.to/lastmile_qr_scan", "ios": "https://dc.lft.to/lastmile_qr_scan"}, "fusion_lon": 0.0}, {"lat": 38.902863333333336, "is_disabled": 0, "type": "electric_scooter", "lon": -77.06351733333334, "bike_id": "8c685208105baf9cbd9657c6f3440f6d", "fusion_lat": 0.0, "name": "8c685208105baf9cbd9657c6f3440f6d", "is_reserved": 0, "rental_uris": {"android": "https://dc.lft.to/lastmile_qr_scan", "ios": "https://dc.lft.to/lastmile_qr_scan"}, "fusion_lon": 0.0}, {"lat": 38.91363666666667, "is_disabled": 0, "type": "electric_scooter", "lon": -77.06845216666666, "bike_id": "f1a35761a73dc3e71b2434e25ab893d2", "fusion_lat": 0.0, "name": "f1a35761a73dc3e71b2434e25ab893d2", "is_reserved": 0, "rental_uris": {"android": "https://dc.lft.to/lastmile_qr_scan", "ios": "https://dc.lft.to/lastmile_qr_scan"}, "fusion_lon": 0.0}, {"lat": 38.907666166666665, "is_disabled": 0, "type": "electric_scooter", "lon": -77.06070116666666, "bike_id": "659aea0c0ad73264130afc0bd5b87beb", "fusion_lat": 0.0, "name": "659aea0c0ad73264130afc0bd5b87beb", "is_reserved": 0, "rental_uris": {"android": "https://dc.lft.to/lastmile_qr_scan", "ios": "https://dc.lft.to/lastmile_qr_scan"}, "fusion_lon": 0.0}, {"lat": 38.90014583333333, "is_disabled": 0, "type": "electric_scooter", "lon": -77.031453, "bike_id": "4cf6588321dbfbc38d34170622988927", "fusion_lat": 0.0, "name": "4cf6588321dbfbc38d34170622988927", "is_reserved": 0, "rental_uris": {"android": "https://dc.lft.to/lastmile_qr_scan", "ios": "https://dc.lft.to/lastmile_qr_scan"}, "fusion_lon": 0.0}, {"lat": 38.89591983333333, "is_disabled": 0, "type": "electric_bike", "lon": -77.12691033333333, "bike_id": "aece82a454fbf1d1c09833541c0126c1", "fusion_lat": 0.0, "name": "aece82a454fbf1d1c09833541c0126c1", "is_reserved": 0, "rental_uris": {"android": "https://dc.lft.to/lastmile_qr_scan", "ios": "https://dc.lft.to/lastmile_qr_scan"}, "fusion_lon": 0.0}, {"lat": 38.93212233333333, "is_disabled": 0, "type": "electric_scooter", "lon": -76.97770516666667, "bike_id": "b13b96854e576dc637d70d43c50bbe16", "fusion_lat": 0.0, "name": "b13b96854e576dc637d70d43c50bbe16", "is_reserved": 0, "rental_uris": {"android": "https://dc.lft.to/lastmile_qr_scan", "ios": "https://dc.lft.to/lastmile_qr_scan"}, "fusion_lon": 0.0}, {"lat": 38.8652005, "is_disabled": 0, "type": "electric_scooter", "lon": -76.990305, "bike_id": "d7abb5deed4f85dcd36a3a7bcbf23377", "fusion_lat": 0.0, "name": "d7abb5deed4f85dcd36a3a7bcbf23377", "is_reserved": 0, "rental_uris": {"android": "https://dc.lft.to/lastmile_qr_scan", "ios": "https://dc.lft.to/lastmile_qr_scan"}, "fusion_lon": 0.0}, {"lat": 38.92774716666667, "is_disabled": 0, "type": "electric_scooter", "lon": -77.02789566666667, "bike_id": "b75d2dea86998e311340de626966047f", "fusion_lat": 0.0, "name": "b75d2dea86998e311340de626966047f", "is_reserved": 0, "rental_uris": {"android": "https://dc.lft.to/lastmile_qr_scan", "ios": "https://dc.lft.to/lastmile_qr_scan"}, "fusion_lon": 0.0}, {"lat": 38.91414283333334, "is_disabled": 0, "type": "electric_scooter", "lon": -77.0380705, "bike_id": "f81d3fe3aa5abe505e0e33c5f84b5f93", "fusion_lat": 0.0, "name": "f81d3fe3aa5abe505e0e33c5f84b5f93", "is_reserved": 0, "rental_uris": {"android": "https://dc.lft.to/lastmile_qr_scan", "ios": "https://dc.lft.to/lastmile_qr_scan"}, "fusion_lon": 0.0}, {"lat": 38.91017333333333, "is_disabled": 0, "type": "electric_scooter", "lon": -77.0444605, "bike_id": "c4b1f23b7444fdcf715dd375ebef97e3", "fusion_lat": 0.0, "name": "c4b1f23b7444fdcf715dd375ebef97e3", "is_reserved": 0, "rental_uris": {"android": "https://dc.lft.to/lastmile_qr_scan", "ios": "https://dc.lft.to/lastmile_qr_scan"}, "fusion_lon": 0.0}, {"lat": 38.93358666666666, "is_disabled": 0, "type": "electric_bike", "lon": -77.09960683333334, "bike_id": "6613a8f2eac3965f00267973ea3dab70", "fusion_lat": 0.0, "name": "6613a8f2eac3965f00267973ea3dab70", "is_reserved": 0, "rental_uris": {"android": "https://dc.lft.to/lastmile_qr_scan", "ios": "https://dc.lft.to/lastmile_qr_scan"}, "fusion_lon": 0.0}, {"lat": 38.90452883333333, "is_disabled": 0, "type": "electric_scooter", "lon": -76.99456316666667, "bike_id": "748c48084a081f40973feb5ac7920a11", "fusion_lat": 0.0, "name": "748c48084a081f40973feb5ac7920a11", "is_reserved": 0, "rental_uris": {"android": "https://dc.lft.to/lastmile_qr_scan", "ios": "https://dc.lft.to/lastmile_qr_scan"}, "fusion_lon": 0.0}, {"lat": 38.918837833333335, "is_disabled": 0, "type": "electric_scooter", "lon": -77.03909266666666, "bike_id": "d68b929f6ebc65b9b9ca0ce521d69b85", "fusion_lat": 0.0, "name": "d68b929f6ebc65b9b9ca0ce521d69b85", "is_reserved": 0, "rental_uris": {"android": "https://dc.lft.to/lastmile_qr_scan", "ios": "https://dc.lft.to/lastmile_qr_scan"}, "fusion_lon": 0.0}, {"lat": 38.912879, "is_disabled": 0, "type": "electric_scooter", "lon": -77.02387933333333, "bike_id": "1f52b693222b4dc321f97371c4a70eb4", "fusion_lat": 0.0, "name": "1f52b693222b4dc321f97371c4a70eb4", "is_reserved": 0, "rental_uris": {"android": "https://dc.lft.to/lastmile_qr_scan", "ios": "https://dc.lft.to/lastmile_qr_scan"}, "fusion_lon": 0.0}, {"lat": 38.904123, "is_disabled": 0, "type": "electric_scooter", "lon": -77.06895283333333, "bike_id": "36f91de8a1111bb0bdc23191bc89846b", "fusion_lat": 0.0, "name": "36f91de8a1111bb0bdc23191bc89846b", "is_reserved": 0, "rental_uris": {"android": "https://dc.lft.to/lastmile_qr_scan", "ios": "https://dc.lft.to/lastmile_qr_scan"}, "fusion_lon": 0.0}, {"lat": 38.8955985, "is_disabled": 0, "type": "electric_bike", "lon": -77.12730833333333, "bike_id": "3523b9d67e5f34144521e6f0b312471e", "fusion_lat": 0.0, "name": "3523b9d67e5f34144521e6f0b312471e", "is_reserved": 0, "rental_uris": {"android": "https://dc.lft.to/lastmile_qr_scan", "ios": "https://dc.lft.to/lastmile_qr_scan"}, "fusion_lon": 0.0}, {"lat": 38.905779, "is_disabled": 0, "type": "electric_scooter", "lon": -77.0087795, "bike_id": "ad09f0e4fb0c813847e38067a86c4525", "fusion_lat": 0.0, "name": "ad09f0e4fb0c813847e38067a86c4525", "is_reserved": 0, "rental_uris": {"android": "https://dc.lft.to/lastmile_qr_scan", "ios": "https://dc.lft.to/lastmile_qr_scan"}, "fusion_lon": 0.0}, {"lat": 38.89659116666667, "is_disabled": 0, "type": "electric_scooter", "lon": -77.039759, "bike_id": "7f4ec7cd436acf0c8b7ea7a685f3fda0", "fusion_lat": 0.0, "name": "7f4ec7cd436acf0c8b7ea7a685f3fda0", "is_reserved": 0, "rental_uris": {"android": "https://dc.lft.to/lastmile_qr_scan", "ios": "https://dc.lft.to/lastmile_qr_scan"}, "fusion_lon": 0.0}, {"lat": 38.9300395, "is_disabled": 0, "type": "electric_scooter", "lon": -77.021154, "bike_id": "53e72e0beaf7c1053bab262ad3f96509", "fusion_lat": 0.0, "name": "53e72e0beaf7c1053bab262ad3f96509", "is_reserved": 0, "rental_uris": {"android": "https://dc.lft.to/lastmile_qr_scan", "ios": "https://dc.lft.to/lastmile_qr_scan"}, "fusion_lon": 0.0}, {"lat": 38.9006385, "is_disabled": 0, "type": "electric_scooter", "lon": -77.00202666666667, "bike_id": "46370f90d183a9117b973806d4d0a6e2", "fusion_lat": 0.0, "name": "46370f90d183a9117b973806d4d0a6e2", "is_reserved": 0, "rental_uris": {"android": "https://dc.lft.to/lastmile_qr_scan", "ios": "https://dc.lft.to/lastmile_qr_scan"}, "fusion_lon": 0.0}, {"lat": 38.92400766666667, "is_disabled": 0, "type": "electric_scooter", "lon": -77.07327616666667, "bike_id": "785e660c02507cd6339d1e9a19d222d1", "fusion_lat": 0.0, "name": "785e660c02507cd6339d1e9a19d222d1", "is_reserved": 0, "rental_uris": {"android": "https://dc.lft.to/lastmile_qr_scan", "ios": "https://dc.lft.to/lastmile_qr_scan"}, "fusion_lon": 0.0}, {"lat": 38.92049, "is_disabled": 0, "type": "electric_scooter", "lon": -77.034708, "bike_id": "a20a38d25aab0d8135f775898d52e9ba", "fusion_lat": 0.0, "name": "a20a38d25aab0d8135f775898d52e9ba", "is_reserved": 0, "rental_uris": {"android": "https://dc.lft.to/lastmile_qr_scan", "ios": "https://dc.lft.to/lastmile_qr_scan"}, "fusion_lon": 0.0}, {"lat": 38.900375, "is_disabled": 0, "type": "electric_scooter", "lon": -77.03310383333333, "bike_id": "88bf689407bf304abb1a51a17625ed6c", "fusion_lat": 0.0, "name": "88bf689407bf304abb1a51a17625ed6c", "is_reserved": 0, "rental_uris": {"android": "https://dc.lft.to/lastmile_qr_scan", "ios": "https://dc.lft.to/lastmile_qr_scan"}, "fusion_lon": 0.0}, {"lat": 38.90861316666667, "is_disabled": 0, "type": "electric_scooter", "lon": -77.02921466666666, "bike_id": "7e029fd180f1bab0897f9876144cb1f2", "fusion_lat": 0.0, "name": "7e029fd180f1bab0897f9876144cb1f2", "is_reserved": 0, "rental_uris": {"android": "https://dc.lft.to/lastmile_qr_scan", "ios": "https://dc.lft.to/lastmile_qr_scan"}, "fusion_lon": 0.0}, {"lat": 38.889726, "is_disabled": 0, "type": "electric_scooter", "lon": -76.93735716666667, "bike_id": "0b4ecb12a5a4b2a08b954504c36b8fa1", "fusion_lat": 0.0, "name": "0b4ecb12a5a4b2a08b954504c36b8fa1", "is_reserved": 0, "rental_uris": {"android": "https://dc.lft.to/lastmile_qr_scan", "ios": "https://dc.lft.to/lastmile_qr_scan"}, "fusion_lon": 0.0}, {"lat": 38.89976033333333, "is_disabled": 0, "type": "electric_scooter", "lon": -77.01907833333334, "bike_id": "dc1caf21c1985aaa048312a1bfbd67ea", "fusion_lat": 0.0, "name": "dc1caf21c1985aaa048312a1bfbd67ea", "is_reserved": 0, "rental_uris": {"android": "https://dc.lft.to/lastmile_qr_scan", "ios": "https://dc.lft.to/lastmile_qr_scan"}, "fusion_lon": 0.0}, {"lat": 38.85924, "is_disabled": 0, "type": "electric_scooter", "lon": -76.98980666666667, "bike_id": "bc40a6990763a1758e2c83e86e30e85d", "fusion_lat": 0.0, "name": "bc40a6990763a1758e2c83e86e30e85d", "is_reserved": 0, "rental_uris": {"android": "https://dc.lft.to/lastmile_qr_scan", "ios": "https://dc.lft.to/lastmile_qr_scan"}, "fusion_lon": 0.0}, {"lat": 38.927618333333335, "is_disabled": 0, "type": "electric_bike", "lon": -77.06883766666667, "bike_id": "0a24f95f5a27bb9d28d9b0ce2ea28b3b", "fusion_lat": 0.0, "name": "0a24f95f5a27bb9d28d9b0ce2ea28b3b", "is_reserved": 0, "rental_uris": {"android": "https://dc.lft.to/lastmile_qr_scan", "ios": "https://dc.lft.to/lastmile_qr_scan"}, "fusion_lon": 0.0}, {"lat": 38.892255, "is_disabled": 0, "type": "electric_scooter", "lon": -76.93298633333333, "bike_id": "4f8a3559563cb96900438c6b341d8675", "fusion_lat": 0.0, "name": "4f8a3559563cb96900438c6b341d8675", "is_reserved": 0, "rental_uris": {"android": "https://dc.lft.to/lastmile_qr_scan", "ios": "https://dc.lft.to/lastmile_qr_scan"}, "fusion_lon": 0.0}, {"lat": 38.9451235, "is_disabled": 0, "type": "electric_scooter", "lon": -77.02170083333333, "bike_id": "c56ba3bf5308a035696a86990eb75ddf", "fusion_lat": 0.0, "name": "c56ba3bf5308a035696a86990eb75ddf", "is_reserved": 0, "rental_uris": {"android": "https://dc.lft.to/lastmile_qr_scan", "ios": "https://dc.lft.to/lastmile_qr_scan"}, "fusion_lon": 0.0}, {"lat": 38.932208333333335, "is_disabled": 0, "type": "electric_scooter", "lon": -77.02730616666666, "bike_id": "d2fe9cecf87a55f3fefe91570481f310", "fusion_lat": 0.0, "name": "d2fe9cecf87a55f3fefe91570481f310", "is_reserved": 0, "rental_uris": {"android": "https://dc.lft.to/lastmile_qr_scan", "ios": "https://dc.lft.to/lastmile_qr_scan"}, "fusion_lon": 0.0}, {"lat": 38.9043645, "is_disabled": 0, "type": "electric_scooter", "lon": -77.02510983333333, "bike_id": "044865dcf2c4a87a97d844a2f8d685a1", "fusion_lat": 0.0, "name": "044865dcf2c4a87a97d844a2f8d685a1", "is_reserved": 0, "rental_uris": {"android": "https://dc.lft.to/lastmile_qr_scan", "ios": "https://dc.lft.to/lastmile_qr_scan"}, "fusion_lon": 0.0}, {"lat": 38.8962845, "is_disabled": 0, "type": "electric_scooter", "lon": -77.044871, "bike_id": "5a41c3de0afffc97dae73a26330f8fad", "fusion_lat": 0.0, "name": "5a41c3de0afffc97dae73a26330f8fad", "is_reserved": 0, "rental_uris": {"android": "https://dc.lft.to/lastmile_qr_scan", "ios": "https://dc.lft.to/lastmile_qr_scan"}, "fusion_lon": 0.0}, {"lat": 38.92869566666667, "is_disabled": 0, "type": "electric_scooter", "lon": -77.0340905, "bike_id": "49ed18e7bf4a3db65a25a0bbe3f7bef7", "fusion_lat": 0.0, "name": "49ed18e7bf4a3db65a25a0bbe3f7bef7", "is_reserved": 0, "rental_uris": {"android": "https://dc.lft.to/lastmile_qr_scan", "ios": "https://dc.lft.to/lastmile_qr_scan"}, "fusion_lon": 0.0}, {"lat": 38.9009475, "is_disabled": 0, "type": "electric_scooter", "lon": -77.05597433333334, "bike_id": "3e743341ae3c638884595b80bd674001", "fusion_lat": 0.0, "name": "3e743341ae3c638884595b80bd674001", "is_reserved": 0, "rental_uris": {"android": "https://dc.lft.to/lastmile_qr_scan", "ios": "https://dc.lft.to/lastmile_qr_scan"}, "fusion_lon": 0.0}, {"lat": 38.837290333333335, "is_disabled": 0, "type": "electric_bike", "lon": -76.99761783333334, "bike_id": "96effe66c550c7310a2669024f932fd5", "fusion_lat": 0.0, "name": "96effe66c550c7310a2669024f932fd5", "is_reserved": 0, "rental_uris": {"android": "https://dc.lft.to/lastmile_qr_scan", "ios": "https://dc.lft.to/lastmile_qr_scan"}, "fusion_lon": 0.0}, {"lat": 38.86506033333333, "is_disabled": 0, "type": "electric_scooter", "lon": -76.99002916666667, "bike_id": "ddf841dce0d781cffa063cd5137c692d", "fusion_lat": 0.0, "name": "ddf841dce0d781cffa063cd5137c692d", "is_reserved": 0, "rental_uris": {"android": "https://dc.lft.to/lastmile_qr_scan", "ios": "https://dc.lft.to/lastmile_qr_scan"}, "fusion_lon": 0.0}, {"lat": 38.92249666666667, "is_disabled": 0, "type": "electric_scooter", "lon": -77.042596, "bike_id": "2a5fc8050fc831f9d805819614909f4c", "fusion_lat": 0.0, "name": "2a5fc8050fc831f9d805819614909f4c", "is_reserved": 0, "rental_uris": {"android": "https://dc.lft.to/lastmile_qr_scan", "ios": "https://dc.lft.to/lastmile_qr_scan"}, "fusion_lon": 0.0}, {"lat": 38.92112516666667, "is_disabled": 0, "type": "electric_scooter", "lon": -77.04162883333333, "bike_id": "4528bee1cc4d0e33bb6eb9750d53685e", "fusion_lat": 0.0, "name": "4528bee1cc4d0e33bb6eb9750d53685e", "is_reserved": 0, "rental_uris": {"android": "https://dc.lft.to/lastmile_qr_scan", "ios": "https://dc.lft.to/lastmile_qr_scan"}, "fusion_lon": 0.0}, {"lat": 38.9341, "is_disabled": 0, "type": "electric_scooter", "lon": -77.02464133333334, "bike_id": "dc20fdef480feb0278de9fb7c46fc2ff", "fusion_lat": 0.0, "name": "dc20fdef480feb0278de9fb7c46fc2ff", "is_reserved": 0, "rental_uris": {"android": "https://dc.lft.to/lastmile_qr_scan", "ios": "https://dc.lft.to/lastmile_qr_scan"}, "fusion_lon": 0.0}, {"lat": 38.916649666666665, "is_disabled": 0, "type": "electric_scooter", "lon": -77.04729616666667, "bike_id": "b69ad784f296f5f49ef15637ac8b40aa", "fusion_lat": 0.0, "name": "b69ad784f296f5f49ef15637ac8b40aa", "is_reserved": 0, "rental_uris": {"android": "https://dc.lft.to/lastmile_qr_scan", "ios": "https://dc.lft.to/lastmile_qr_scan"}, "fusion_lon": 0.0}, {"lat": 38.895457666666665, "is_disabled": 0, "type": "electric_scooter", "lon": -77.00439733333333, "bike_id": "b6c0831c314f12dc7c75bd9a5fff5ec6", "fusion_lat": 0.0, "name": "b6c0831c314f12dc7c75bd9a5fff5ec6", "is_reserved": 0, "rental_uris": {"android": "https://dc.lft.to/lastmile_qr_scan", "ios": "https://dc.lft.to/lastmile_qr_scan"}, "fusion_lon": 0.0}, {"lat": 38.8427215, "is_disabled": 0, "type": "electric_bike", "lon": -76.98839966666667, "bike_id": "3ea67f2196fb44fc2e8794cd030b47aa", "fusion_lat": 0.0, "name": "3ea67f2196fb44fc2e8794cd030b47aa", "is_reserved": 0, "rental_uris": {"android": "https://dc.lft.to/lastmile_qr_scan", "ios": "https://dc.lft.to/lastmile_qr_scan"}, "fusion_lon": 0.0}, {"lat": 38.90140516666666, "is_disabled": 0, "type": "electric_scooter", "lon": -77.02923733333333, "bike_id": "3fbce4007bdba4fe871834316d19c397", "fusion_lat": 0.0, "name": "3fbce4007bdba4fe871834316d19c397", "is_reserved": 0, "rental_uris": {"android": "https://dc.lft.to/lastmile_qr_scan", "ios": "https://dc.lft.to/lastmile_qr_scan"}, "fusion_lon": 0.0}, {"lat": 38.98274466666667, "is_disabled": 0, "type": "electric_bike", "lon": -77.02543566666667, "bike_id": "499ab333cc9a620fb8405565fd6da840", "fusion_lat": 0.0, "name": "499ab333cc9a620fb8405565fd6da840", "is_reserved": 0, "rental_uris": {"android": "https://dc.lft.to/lastmile_qr_scan", "ios": "https://dc.lft.to/lastmile_qr_scan"}, "fusion_lon": 0.0}, {"lat": 38.884868166666664, "is_disabled": 0, "type": "electric_scooter", "lon": -77.03471366666666, "bike_id": "c0dbc2f0d1b8d173bb654f2c54701581", "fusion_lat": 0.0, "name": "c0dbc2f0d1b8d173bb654f2c54701581", "is_reserved": 0, "rental_uris": {"android": "https://dc.lft.to/lastmile_qr_scan", "ios": "https://dc.lft.to/lastmile_qr_scan"}, "fusion_lon": 0.0}, {"lat": 38.92663116666667, "is_disabled": 0, "type": "electric_scooter", "lon": -76.99752133333334, "bike_id": "a65cbfb5fd42274ddfaf2eae986f994c", "fusion_lat": 0.0, "name": "a65cbfb5fd42274ddfaf2eae986f994c", "is_reserved": 0, "rental_uris": {"android": "https://dc.lft.to/lastmile_qr_scan", "ios": "https://dc.lft.to/lastmile_qr_scan"}, "fusion_lon": 0.0}, {"lat": 38.856775666666664, "is_disabled": 0, "type": "electric_scooter", "lon": -76.981745, "bike_id": "4d9c11bc123d39aadbc6ec02805f9445", "fusion_lat": 0.0, "name": "4d9c11bc123d39aadbc6ec02805f9445", "is_reserved": 0, "rental_uris": {"android": "https://dc.lft.to/lastmile_qr_scan", "ios": "https://dc.lft.to/lastmile_qr_scan"}, "fusion_lon": 0.0}, {"lat": 38.896334333333336, "is_disabled": 0, "type": "electric_scooter", "lon": -77.021424, "bike_id": "316badad707832759656e46367cf5f70", "fusion_lat": 0.0, "name": "316badad707832759656e46367cf5f70", "is_reserved": 0, "rental_uris": {"android": "https://dc.lft.to/lastmile_qr_scan", "ios": "https://dc.lft.to/lastmile_qr_scan"}, "fusion_lon": 0.0}, {"lat": 38.929733, "is_disabled": 0, "type": "electric_scooter", "lon": -77.0130095, "bike_id": "70852582906f5c66d9fc4451889ab06a", "fusion_lat": 0.0, "name": "70852582906f5c66d9fc4451889ab06a", "is_reserved": 0, "rental_uris": {"android": "https://dc.lft.to/lastmile_qr_scan", "ios": "https://dc.lft.to/lastmile_qr_scan"}, "fusion_lon": 0.0}, {"lat": 38.923715, "is_disabled": 0, "type": "electric_scooter", "lon": -77.03157783333333, "bike_id": "77ccd95f6b7ad5988e28b6f0addf929f", "fusion_lat": 0.0, "name": "77ccd95f6b7ad5988e28b6f0addf929f", "is_reserved": 0, "rental_uris": {"android": "https://dc.lft.to/lastmile_qr_scan", "ios": "https://dc.lft.to/lastmile_qr_scan"}, "fusion_lon": 0.0}, {"lat": 38.897363666666664, "is_disabled": 0, "type": "electric_scooter", "lon": -77.04758, "bike_id": "1d1f9bb13607d85e1dc9e817187e43d3", "fusion_lat": 0.0, "name": "1d1f9bb13607d85e1dc9e817187e43d3", "is_reserved": 0, "rental_uris": {"android": "https://dc.lft.to/lastmile_qr_scan", "ios": "https://dc.lft.to/lastmile_qr_scan"}, "fusion_lon": 0.0}, {"lat": 38.89731866666666, "is_disabled": 0, "type": "electric_scooter", "lon": -77.0475655, "bike_id": "05221260c24964434a3aba4567dbf1b2", "fusion_lat": 0.0, "name": "05221260c24964434a3aba4567dbf1b2", "is_reserved": 0, "rental_uris": {"android": "https://dc.lft.to/lastmile_qr_scan", "ios": "https://dc.lft.to/lastmile_qr_scan"}, "fusion_lon": 0.0}, {"lat": 38.90732333333333, "is_disabled": 0, "type": "electric_scooter", "lon": -77.03444066666667, "bike_id": "358b9158c5adedf08ddeb290d78a3fe5", "fusion_lat": 0.0, "name": "358b9158c5adedf08ddeb290d78a3fe5", "is_reserved": 0, "rental_uris": {"android": "https://dc.lft.to/lastmile_qr_scan", "ios": "https://dc.lft.to/lastmile_qr_scan"}, "fusion_lon": 0.0}, {"lat": 38.87145783333333, "is_disabled": 0, "type": "electric_bike", "lon": -76.93698983333333, "bike_id": "1b7b7fb6858198a90751768b83c0a307", "fusion_lat": 0.0, "name": "1b7b7fb6858198a90751768b83c0a307", "is_reserved": 0, "rental_uris": {"android": "https://dc.lft.to/lastmile_qr_scan", "ios": "https://dc.lft.to/lastmile_qr_scan"}, "fusion_lon": 0.0}, {"lat": 38.961364833333334, "is_disabled": 0, "type": "electric_scooter", "lon": -77.0223605, "bike_id": "18d9efe6aa348cd1a6b7f69aa76d433f", "fusion_lat": 0.0, "name": "18d9efe6aa348cd1a6b7f69aa76d433f", "is_reserved": 0, "rental_uris": {"android": "https://dc.lft.to/lastmile_qr_scan", "ios": "https://dc.lft.to/lastmile_qr_scan"}, "fusion_lon": 0.0}, {"lat": 38.857166, "is_disabled": 0, "type": "electric_bike", "lon": -76.97131566666667, "bike_id": "30bccb36bae6d065c3f9df1222510b29", "fusion_lat": 0.0, "name": "30bccb36bae6d065c3f9df1222510b29", "is_reserved": 0, "rental_uris": {"android": "https://dc.lft.to/lastmile_qr_scan", "ios": "https://dc.lft.to/lastmile_qr_scan"}, "fusion_lon": 0.0}, {"lat": 38.896851833333336, "is_disabled": 0, "type": "electric_scooter", "lon": -76.9353755, "bike_id": "7ab6e0c6811fbe8e8f9e2ef63a3dd917", "fusion_lat": 0.0, "name": "7ab6e0c6811fbe8e8f9e2ef63a3dd917", "is_reserved": 0, "rental_uris": {"android": "https://dc.lft.to/lastmile_qr_scan", "ios": "https://dc.lft.to/lastmile_qr_scan"}, "fusion_lon": 0.0}, {"lat": 38.900608, "is_disabled": 0, "type": "electric_scooter", "lon": -77.00201066666666, "bike_id": "0ebb7aa44e23ec94f781d2218becee2e", "fusion_lat": 0.0, "name": "0ebb7aa44e23ec94f781d2218becee2e", "is_reserved": 0, "rental_uris": {"android": "https://dc.lft.to/lastmile_qr_scan", "ios": "https://dc.lft.to/lastmile_qr_scan"}, "fusion_lon": 0.0}, {"lat": 38.892242333333336, "is_disabled": 0, "type": "electric_scooter", "lon": -77.04873066666667, "bike_id": "4140fc8ed633861f79265ba6bd667d73", "fusion_lat": 0.0, "name": "4140fc8ed633861f79265ba6bd667d73", "is_reserved": 0, "rental_uris": {"android": "https://dc.lft.to/lastmile_qr_scan", "ios": "https://dc.lft.to/lastmile_qr_scan"}, "fusion_lon": 0.0}, {"lat": 38.961448833333336, "is_disabled": 0, "type": "electric_scooter", "lon": -77.02792983333333, "bike_id": "ae29b25d7abe479725b68ea691627fb2", "fusion_lat": 0.0, "name": "ae29b25d7abe479725b68ea691627fb2", "is_reserved": 0, "rental_uris": {"android": "https://dc.lft.to/lastmile_qr_scan", "ios": "https://dc.lft.to/lastmile_qr_scan"}, "fusion_lon": 0.0}, {"lat": 38.91323516666667, "is_disabled": 0, "type": "electric_scooter", "lon": -77.032465, "bike_id": "1c3c466d4bb9326e11ecd454c5a6aabe", "fusion_lat": 0.0, "name": "1c3c466d4bb9326e11ecd454c5a6aabe", "is_reserved": 0, "rental_uris": {"android": "https://dc.lft.to/lastmile_qr_scan", "ios": "https://dc.lft.to/lastmile_qr_scan"}, "fusion_lon": 0.0}, {"lat": 38.92063366666667, "is_disabled": 0, "type": "electric_scooter", "lon": -77.04344383333333, "bike_id": "fee0240c6f8758cac28989e6160790b7", "fusion_lat": 0.0, "name": "fee0240c6f8758cac28989e6160790b7", "is_reserved": 0, "rental_uris": {"android": "https://dc.lft.to/lastmile_qr_scan", "ios": "https://dc.lft.to/lastmile_qr_scan"}, "fusion_lon": 0.0}, {"lat": 38.90887883333333, "is_disabled": 0, "type": "electric_scooter", "lon": -77.04396766666666, "bike_id": "c4ac753eeaedf9b2cde5bdbafc3e439e", "fusion_lat": 0.0, "name": "c4ac753eeaedf9b2cde5bdbafc3e439e", "is_reserved": 0, "rental_uris": {"android": "https://dc.lft.to/lastmile_qr_scan", "ios": "https://dc.lft.to/lastmile_qr_scan"}, "fusion_lon": 0.0}, {"lat": 38.91488783333333, "is_disabled": 0, "type": "electric_scooter", "lon": -77.0325365, "bike_id": "902014046f7b9438938510019ead5747", "fusion_lat": 0.0, "name": "902014046f7b9438938510019ead5747", "is_reserved": 0, "rental_uris": {"android": "https://dc.lft.to/lastmile_qr_scan", "ios": "https://dc.lft.to/lastmile_qr_scan"}, "fusion_lon": 0.0}, {"lat": 38.916691166666666, "is_disabled": 0, "type": "electric_scooter", "lon": -77.033436, "bike_id": "effd5959dc2725044b893684ee80332b", "fusion_lat": 0.0, "name": "effd5959dc2725044b893684ee80332b", "is_reserved": 0, "rental_uris": {"android": "https://dc.lft.to/lastmile_qr_scan", "ios": "https://dc.lft.to/lastmile_qr_scan"}, "fusion_lon": 0.0}, {"lat": 38.89229566666667, "is_disabled": 0, "type": "electric_scooter", "lon": -77.0500445, "bike_id": "c5c283286c92123cb039c41235b658ee", "fusion_lat": 0.0, "name": "c5c283286c92123cb039c41235b658ee", "is_reserved": 0, "rental_uris": {"android": "https://dc.lft.to/lastmile_qr_scan", "ios": "https://dc.lft.to/lastmile_qr_scan"}, "fusion_lon": 0.0}, {"lat": 38.93104433333333, "is_disabled": 0, "type": "electric_scooter", "lon": -77.0326505, "bike_id": "82d57ba1612df204c4e05e8971212743", "fusion_lat": 0.0, "name": "82d57ba1612df204c4e05e8971212743", "is_reserved": 0, "rental_uris": {"android": "https://dc.lft.to/lastmile_qr_scan", "ios": "https://dc.lft.to/lastmile_qr_scan"}, "fusion_lon": 0.0}, {"lat": 38.8662005, "is_disabled": 0, "type": "electric_bike", "lon": -76.94569966666667, "bike_id": "8f718dcfbe3f09fc0332eaad3eafe73b", "fusion_lat": 0.0, "name": "8f718dcfbe3f09fc0332eaad3eafe73b", "is_reserved": 0, "rental_uris": {"android": "https://dc.lft.to/lastmile_qr_scan", "ios": "https://dc.lft.to/lastmile_qr_scan"}, "fusion_lon": 0.0}, {"lat": 38.959556166666665, "is_disabled": 0, "type": "electric_bike", "lon": -77.1009175, "bike_id": "68b1de6cdf42413345ac9aecc1ca9833", "fusion_lat": 0.0, "name": "68b1de6cdf42413345ac9aecc1ca9833", "is_reserved": 0, "rental_uris": {"android": "https://dc.lft.to/lastmile_qr_scan", "ios": "https://dc.lft.to/lastmile_qr_scan"}, "fusion_lon": 0.0}, {"lat": 38.9191665, "is_disabled": 0, "type": "electric_scooter", "lon": -77.04815016666667, "bike_id": "e7730792dd52a3f97251b86b93ff4965", "fusion_lat": 0.0, "name": "e7730792dd52a3f97251b86b93ff4965", "is_reserved": 0, "rental_uris": {"android": "https://dc.lft.to/lastmile_qr_scan", "ios": "https://dc.lft.to/lastmile_qr_scan"}, "fusion_lon": 0.0}, {"lat": 38.89900516666667, "is_disabled": 0, "type": "electric_scooter", "lon": -77.03219983333334, "bike_id": "9a6623e216fb5fc7ce213c7213aaa6e9", "fusion_lat": 0.0, "name": "9a6623e216fb5fc7ce213c7213aaa6e9", "is_reserved": 0, "rental_uris": {"android": "https://dc.lft.to/lastmile_qr_scan", "ios": "https://dc.lft.to/lastmile_qr_scan"}, "fusion_lon": 0.0}, {"lat": 38.91777866666666, "is_disabled": 0, "type": "electric_scooter", "lon": -77.04305583333333, "bike_id": "d3808d22591881cd54604a6ffd372720", "fusion_lat": 0.0, "name": "d3808d22591881cd54604a6ffd372720", "is_reserved": 0, "rental_uris": {"android": "https://dc.lft.to/lastmile_qr_scan", "ios": "https://dc.lft.to/lastmile_qr_scan"}, "fusion_lon": 0.0}, {"lat": 38.872339833333335, "is_disabled": 0, "type": "electric_bike", "lon": -77.011668, "bike_id": "1794421a2cfd7081fe818d4678d1eec2", "fusion_lat": 0.0, "name": "1794421a2cfd7081fe818d4678d1eec2", "is_reserved": 0, "rental_uris": {"android": "https://dc.lft.to/lastmile_qr_scan", "ios": "https://dc.lft.to/lastmile_qr_scan"}, "fusion_lon": 0.0}, {"lat": 38.88736933333333, "is_disabled": 0, "type": "electric_scooter", "lon": -77.01532683333333, "bike_id": "80afd1a105daf2991d285f44499cc63b", "fusion_lat": 0.0, "name": "80afd1a105daf2991d285f44499cc63b", "is_reserved": 0, "rental_uris": {"android": "https://dc.lft.to/lastmile_qr_scan", "ios": "https://dc.lft.to/lastmile_qr_scan"}, "fusion_lon": 0.0}, {"lat": 38.931756666666665, "is_disabled": 0, "type": "electric_scooter", "lon": -77.028182, "bike_id": "aa8363572d5d2c59f850ab5d081eda0c", "fusion_lat": 0.0, "name": "aa8363572d5d2c59f850ab5d081eda0c", "is_reserved": 0, "rental_uris": {"android": "https://dc.lft.to/lastmile_qr_scan", "ios": "https://dc.lft.to/lastmile_qr_scan"}, "fusion_lon": 0.0}, {"lat": 38.88883716666667, "is_disabled": 0, "type": "electric_scooter", "lon": -76.93155133333333, "bike_id": "dd8c0db768c76e7e04805e5411e8bda1", "fusion_lat": 0.0, "name": "dd8c0db768c76e7e04805e5411e8bda1", "is_reserved": 0, "rental_uris": {"android": "https://dc.lft.to/lastmile_qr_scan", "ios": "https://dc.lft.to/lastmile_qr_scan"}, "fusion_lon": 0.0}, {"lat": 38.9072085, "is_disabled": 0, "type": "electric_scooter", "lon": -77.046446, "bike_id": "186f968cd38aa07fced9558a90449795", "fusion_lat": 0.0, "name": "186f968cd38aa07fced9558a90449795", "is_reserved": 0, "rental_uris": {"android": "https://dc.lft.to/lastmile_qr_scan", "ios": "https://dc.lft.to/lastmile_qr_scan"}, "fusion_lon": 0.0}, {"lat": 38.961534666666665, "is_disabled": 0, "type": "electric_scooter", "lon": -77.02781033333333, "bike_id": "4706f6ac693624f1158ce0e73bcc6c45", "fusion_lat": 0.0, "name": "4706f6ac693624f1158ce0e73bcc6c45", "is_reserved": 0, "rental_uris": {"android": "https://dc.lft.to/lastmile_qr_scan", "ios": "https://dc.lft.to/lastmile_qr_scan"}, "fusion_lon": 0.0}, {"lat": 38.91190816666666, "is_disabled": 0, "type": "electric_scooter", "lon": -77.04306133333333, "bike_id": "c684ae164746689f698d691614f5056e", "fusion_lat": 0.0, "name": "c684ae164746689f698d691614f5056e", "is_reserved": 0, "rental_uris": {"android": "https://dc.lft.to/lastmile_qr_scan", "ios": "https://dc.lft.to/lastmile_qr_scan"}, "fusion_lon": 0.0}, {"lat": 38.93204983333333, "is_disabled": 0, "type": "electric_scooter", "lon": -77.02245583333334, "bike_id": "0f9d1183679edaaee4cbb5ef91acdf77", "fusion_lat": 0.0, "name": "0f9d1183679edaaee4cbb5ef91acdf77", "is_reserved": 0, "rental_uris": {"android": "https://dc.lft.to/lastmile_qr_scan", "ios": "https://dc.lft.to/lastmile_qr_scan"}, "fusion_lon": 0.0}, {"lat": 39.0563655, "is_disabled": 0, "type": "electric_bike", "lon": -77.12528783333333, "bike_id": "d8e17a6681906d7e572b19af28edf30f", "fusion_lat": 0.0, "name": "d8e17a6681906d7e572b19af28edf30f", "is_reserved": 0, "rental_uris": {"android": "https://dc.lft.to/lastmile_qr_scan", "ios": "https://dc.lft.to/lastmile_qr_scan"}, "fusion_lon": 0.0}, {"lat": 38.890414166666666, "is_disabled": 0, "type": "electric_scooter", "lon": -76.95247216666667, "bike_id": "a5dddc15fd286ebcf4f45a77488f1d3d", "fusion_lat": 0.0, "name": "a5dddc15fd286ebcf4f45a77488f1d3d", "is_reserved": 0, "rental_uris": {"android": "https://dc.lft.to/lastmile_qr_scan", "ios": "https://dc.lft.to/lastmile_qr_scan"}, "fusion_lon": 0.0}, {"lat": 38.9082855, "is_disabled": 0, "type": "electric_scooter", "lon": -77.00218833333334, "bike_id": "421008460f8927f77b0e3b094f53e038", "fusion_lat": 0.0, "name": "421008460f8927f77b0e3b094f53e038", "is_reserved": 0, "rental_uris": {"android": "https://dc.lft.to/lastmile_qr_scan", "ios": "https://dc.lft.to/lastmile_qr_scan"}, "fusion_lon": 0.0}, {"lat": 38.9255355, "is_disabled": 0, "type": "electric_scooter", "lon": -77.03342766666667, "bike_id": "23c1b31d5c07e620a9acd6162c23b2ae", "fusion_lat": 0.0, "name": "23c1b31d5c07e620a9acd6162c23b2ae", "is_reserved": 0, "rental_uris": {"android": "https://dc.lft.to/lastmile_qr_scan", "ios": "https://dc.lft.to/lastmile_qr_scan"}, "fusion_lon": 0.0}, {"lat": 38.8981745, "is_disabled": 0, "type": "electric_scooter", "lon": -76.996875, "bike_id": "72885db89642a9ea005756f0d4e6f5ae", "fusion_lat": 0.0, "name": "72885db89642a9ea005756f0d4e6f5ae", "is_reserved": 0, "rental_uris": {"android": "https://dc.lft.to/lastmile_qr_scan", "ios": "https://dc.lft.to/lastmile_qr_scan"}, "fusion_lon": 0.0}, {"lat": 38.924784333333335, "is_disabled": 0, "type": "electric_scooter", "lon": -77.02842183333334, "bike_id": "eb0bc58d55cdb454a49656acacf1e4a5", "fusion_lat": 0.0, "name": "eb0bc58d55cdb454a49656acacf1e4a5", "is_reserved": 0, "rental_uris": {"android": "https://dc.lft.to/lastmile_qr_scan", "ios": "https://dc.lft.to/lastmile_qr_scan"}, "fusion_lon": 0.0}, {"lat": 38.9197295, "is_disabled": 0, "type": "electric_scooter", "lon": -77.0121305, "bike_id": "27399852f892243c381310f9f4b0339b", "fusion_lat": 0.0, "name": "27399852f892243c381310f9f4b0339b", "is_reserved": 0, "rental_uris": {"android": "https://dc.lft.to/lastmile_qr_scan", "ios": "https://dc.lft.to/lastmile_qr_scan"}, "fusion_lon": 0.0}, {"lat": 38.883863833333336, "is_disabled": 0, "type": "electric_bike", "lon": -76.95429333333334, "bike_id": "285499ff6c56c588fa4ffefa4db89571", "fusion_lat": 0.0, "name": "285499ff6c56c588fa4ffefa4db89571", "is_reserved": 0, "rental_uris": {"android": "https://dc.lft.to/lastmile_qr_scan", "ios": "https://dc.lft.to/lastmile_qr_scan"}, "fusion_lon": 0.0}, {"lat": 38.892602, "is_disabled": 0, "type": "electric_scooter", "lon": -76.94156866666667, "bike_id": "11936ab7ec122fc94d10679cfee318b9", "fusion_lat": 0.0, "name": "11936ab7ec122fc94d10679cfee318b9", "is_reserved": 0, "rental_uris": {"android": "https://dc.lft.to/lastmile_qr_scan", "ios": "https://dc.lft.to/lastmile_qr_scan"}, "fusion_lon": 0.0}, {"lat": 38.912695666666664, "is_disabled": 0, "type": "electric_bike", "lon": -77.01218816666666, "bike_id": "9a39c3a6a9afdd0aecee68e80832155d", "fusion_lat": 0.0, "name": "9a39c3a6a9afdd0aecee68e80832155d", "is_reserved": 0, "rental_uris": {"android": "https://dc.lft.to/lastmile_qr_scan", "ios": "https://dc.lft.to/lastmile_qr_scan"}, "fusion_lon": 0.0}, {"lat": 38.806850833333336, "is_disabled": 0, "type": "electric_bike", "lon": -77.08118983333334, "bike_id": "86dcf6d4a8c6d058372f17b47a3f5e89", "fusion_lat": 0.0, "name": "86dcf6d4a8c6d058372f17b47a3f5e89", "is_reserved": 0, "rental_uris": {"android": "https://dc.lft.to/lastmile_qr_scan", "ios": "https://dc.lft.to/lastmile_qr_scan"}, "fusion_lon": 0.0}, {"lat": 38.9319425, "is_disabled": 0, "type": "electric_scooter", "lon": -77.03753816666666, "bike_id": "c5c30972cf0f5d2377c74c34cfd233f2", "fusion_lat": 0.0, "name": "c5c30972cf0f5d2377c74c34cfd233f2", "is_reserved": 0, "rental_uris": {"android": "https://dc.lft.to/lastmile_qr_scan", "ios": "https://dc.lft.to/lastmile_qr_scan"}, "fusion_lon": 0.0}, {"lat": 38.874104, "is_disabled": 0, "type": "electric_scooter", "lon": -76.9730345, "bike_id": "439fa5c01fe129b82a950451028e1e0e", "fusion_lat": 0.0, "name": "439fa5c01fe129b82a950451028e1e0e", "is_reserved": 0, "rental_uris": {"android": "https://dc.lft.to/lastmile_qr_scan", "ios": "https://dc.lft.to/lastmile_qr_scan"}, "fusion_lon": 0.0}, {"lat": 38.9398935, "is_disabled": 0, "type": "electric_scooter", "lon": -77.0717465, "bike_id": "562b57632689c702e7f35efdf5ffeab1", "fusion_lat": 0.0, "name": "562b57632689c702e7f35efdf5ffeab1", "is_reserved": 0, "rental_uris": {"android": "https://dc.lft.to/lastmile_qr_scan", "ios": "https://dc.lft.to/lastmile_qr_scan"}, "fusion_lon": 0.0}, {"lat": 38.89733533333333, "is_disabled": 0, "type": "electric_scooter", "lon": -77.04539416666667, "bike_id": "a6ddb7238ea37e2f9037a3f8ae3ae44d", "fusion_lat": 0.0, "name": "a6ddb7238ea37e2f9037a3f8ae3ae44d", "is_reserved": 0, "rental_uris": {"android": "https://dc.lft.to/lastmile_qr_scan", "ios": "https://dc.lft.to/lastmile_qr_scan"}, "fusion_lon": 0.0}, {"lat": 38.89913716666667, "is_disabled": 0, "type": "electric_scooter", "lon": -76.9335085, "bike_id": "57b9e5fb78fb111f1c029b1344bb3906", "fusion_lat": 0.0, "name": "57b9e5fb78fb111f1c029b1344bb3906", "is_reserved": 0, "rental_uris": {"android": "https://dc.lft.to/lastmile_qr_scan", "ios": "https://dc.lft.to/lastmile_qr_scan"}, "fusion_lon": 0.0}, {"lat": 38.90394883333333, "is_disabled": 0, "type": "electric_scooter", "lon": -77.01763183333334, "bike_id": "641f8064b09ef3b628a068a3547ac855", "fusion_lat": 0.0, "name": "641f8064b09ef3b628a068a3547ac855", "is_reserved": 0, "rental_uris": {"android": "https://dc.lft.to/lastmile_qr_scan", "ios": "https://dc.lft.to/lastmile_qr_scan"}, "fusion_lon": 0.0}, {"lat": 38.866550333333336, "is_disabled": 0, "type": "electric_scooter", "lon": -76.98881633333333, "bike_id": "38556837ba6d1cfa662bfe62be710f80", "fusion_lat": 0.0, "name": "38556837ba6d1cfa662bfe62be710f80", "is_reserved": 0, "rental_uris": {"android": "https://dc.lft.to/lastmile_qr_scan", "ios": "https://dc.lft.to/lastmile_qr_scan"}, "fusion_lon": 0.0}, {"lat": 38.93417216666667, "is_disabled": 0, "type": "electric_scooter", "lon": -77.03267783333334, "bike_id": "0ff49b985450872f9f63c58f7fd967cf", "fusion_lat": 0.0, "name": "0ff49b985450872f9f63c58f7fd967cf", "is_reserved": 0, "rental_uris": {"android": "https://dc.lft.to/lastmile_qr_scan", "ios": "https://dc.lft.to/lastmile_qr_scan"}, "fusion_lon": 0.0}, {"lat": 38.92572666666667, "is_disabled": 0, "type": "electric_scooter", "lon": -77.05759616666667, "bike_id": "3d3ba8f5a0edaf8d0bfd850fd80f9766", "fusion_lat": 0.0, "name": "3d3ba8f5a0edaf8d0bfd850fd80f9766", "is_reserved": 0, "rental_uris": {"android": "https://dc.lft.to/lastmile_qr_scan", "ios": "https://dc.lft.to/lastmile_qr_scan"}, "fusion_lon": 0.0}, {"lat": 38.917779333333336, "is_disabled": 0, "type": "electric_scooter", "lon": -77.04336416666666, "bike_id": "0dec4a0e7eeb13292faac7deda93ad9f", "fusion_lat": 0.0, "name": "0dec4a0e7eeb13292faac7deda93ad9f", "is_reserved": 0, "rental_uris": {"android": "https://dc.lft.to/lastmile_qr_scan", "ios": "https://dc.lft.to/lastmile_qr_scan"}, "fusion_lon": 0.0}, {"lat": 38.9214395, "is_disabled": 0, "type": "electric_scooter", "lon": -77.04366566666667, "bike_id": "f70c8c18ef591c5270f4965087ebb86f", "fusion_lat": 0.0, "name": "f70c8c18ef591c5270f4965087ebb86f", "is_reserved": 0, "rental_uris": {"android": "https://dc.lft.to/lastmile_qr_scan", "ios": "https://dc.lft.to/lastmile_qr_scan"}, "fusion_lon": 0.0}, {"lat": 38.90369583333333, "is_disabled": 0, "type": "electric_scooter", "lon": -77.0174215, "bike_id": "a4155c155897b87bca90faad2427d465", "fusion_lat": 0.0, "name": "a4155c155897b87bca90faad2427d465", "is_reserved": 0, "rental_uris": {"android": "https://dc.lft.to/lastmile_qr_scan", "ios": "https://dc.lft.to/lastmile_qr_scan"}, "fusion_lon": 0.0}, {"lat": 38.903320666666666, "is_disabled": 0, "type": "electric_scooter", "lon": -76.9759325, "bike_id": "0f3ffb6383b30603e821efaf4b6a2d2e", "fusion_lat": 0.0, "name": "0f3ffb6383b30603e821efaf4b6a2d2e", "is_reserved": 0, "rental_uris": {"android": "https://dc.lft.to/lastmile_qr_scan", "ios": "https://dc.lft.to/lastmile_qr_scan"}, "fusion_lon": 0.0}, {"lat": 38.962040333333334, "is_disabled": 0, "type": "electric_bike", "lon": -77.0351475, "bike_id": "a6eab8850069bef1d5700d9520b8c400", "fusion_lat": 0.0, "name": "a6eab8850069bef1d5700d9520b8c400", "is_reserved": 0, "rental_uris": {"android": "https://dc.lft.to/lastmile_qr_scan", "ios": "https://dc.lft.to/lastmile_qr_scan"}, "fusion_lon": 0.0}, {"lat": 38.907527333333334, "is_disabled": 0, "type": "electric_scooter", "lon": -76.99870783333333, "bike_id": "4fc10c706dc1eebf54c24db4ace04614", "fusion_lat": 0.0, "name": "4fc10c706dc1eebf54c24db4ace04614", "is_reserved": 0, "rental_uris": {"android": "https://dc.lft.to/lastmile_qr_scan", "ios": "https://dc.lft.to/lastmile_qr_scan"}, "fusion_lon": 0.0}, {"lat": 38.91640016666667, "is_disabled": 0, "type": "electric_scooter", "lon": -77.02392116666667, "bike_id": "6038d97f66eb8bc0db8dddc9204c3a57", "fusion_lat": 0.0, "name": "6038d97f66eb8bc0db8dddc9204c3a57", "is_reserved": 0, "rental_uris": {"android": "https://dc.lft.to/lastmile_qr_scan", "ios": "https://dc.lft.to/lastmile_qr_scan"}, "fusion_lon": 0.0}, {"lat": 38.89557083333333, "is_disabled": 0, "type": "electric_scooter", "lon": -77.003658, "bike_id": "117974a196fdf459f9eb74fa1f943c8f", "fusion_lat": 0.0, "name": "117974a196fdf459f9eb74fa1f943c8f", "is_reserved": 0, "rental_uris": {"android": "https://dc.lft.to/lastmile_qr_scan", "ios": "https://dc.lft.to/lastmile_qr_scan"}, "fusion_lon": 0.0}, {"lat": 38.877211, "is_disabled": 0, "type": "electric_scooter", "lon": -77.00355933333333, "bike_id": "061d641583e9b3c56d26594ad90559f9", "fusion_lat": 0.0, "name": "061d641583e9b3c56d26594ad90559f9", "is_reserved": 0, "rental_uris": {"android": "https://dc.lft.to/lastmile_qr_scan", "ios": "https://dc.lft.to/lastmile_qr_scan"}, "fusion_lon": 0.0}, {"lat": 38.813463, "is_disabled": 0, "type": "electric_bike", "lon": -77.04927916666666, "bike_id": "ea9062eaf80416692e991751bd491de7", "fusion_lat": 0.0, "name": "ea9062eaf80416692e991751bd491de7", "is_reserved": 0, "rental_uris": {"android": "https://dc.lft.to/lastmile_qr_scan", "ios": "https://dc.lft.to/lastmile_qr_scan"}, "fusion_lon": 0.0}, {"lat": 38.89613833333333, "is_disabled": 0, "type": "electric_scooter", "lon": -76.9565385, "bike_id": "9c5fecfb63cb82174f245cae48dd4399", "fusion_lat": 0.0, "name": "9c5fecfb63cb82174f245cae48dd4399", "is_reserved": 0, "rental_uris": {"android": "https://dc.lft.to/lastmile_qr_scan", "ios": "https://dc.lft.to/lastmile_qr_scan"}, "fusion_lon": 0.0}, {"lat": 38.90267433333333, "is_disabled": 0, "type": "electric_scooter", "lon": -77.02004866666667, "bike_id": "8ec3916b06091103a80e4d5243c4632a", "fusion_lat": 0.0, "name": "8ec3916b06091103a80e4d5243c4632a", "is_reserved": 0, "rental_uris": {"android": "https://dc.lft.to/lastmile_qr_scan", "ios": "https://dc.lft.to/lastmile_qr_scan"}, "fusion_lon": 0.0}, {"lat": 38.853159833333336, "is_disabled": 0, "type": "electric_scooter", "lon": -76.980232, "bike_id": "dcabbe835d0f8bb8f92d3fbfa1e18eaf", "fusion_lat": 0.0, "name": "dcabbe835d0f8bb8f92d3fbfa1e18eaf", "is_reserved": 0, "rental_uris": {"android": "https://dc.lft.to/lastmile_qr_scan", "ios": "https://dc.lft.to/lastmile_qr_scan"}, "fusion_lon": 0.0}, {"lat": 38.9386155, "is_disabled": 0, "type": "electric_scooter", "lon": -77.03202416666667, "bike_id": "916971a36733ba71c1a524603b711a2b", "fusion_lat": 0.0, "name": "916971a36733ba71c1a524603b711a2b", "is_reserved": 0, "rental_uris": {"android": "https://dc.lft.to/lastmile_qr_scan", "ios": "https://dc.lft.to/lastmile_qr_scan"}, "fusion_lon": 0.0},