{"data": {"bikes": [{"rental_uris": {"ios": "https://dc.lft.to/lastmile_qr_scan", "android": "https://dc.lft.to/lastmile_qr_scan"}, "lon": -76.93720466666667, "type": "electric_scooter", "fusion_lat": 0.0, "lat": 38.89586366666666, "name": "908be5f1e128c82aeb2b5c481ca5b88d", "fusion_lon": 0.0, "bike_id": "908be5f1e128c82aeb2b5c481ca5b88d", "is_disabled": 0, "is_reserved": 0}, {"rental_uris": {"ios": "https://dc.lft.to/lastmile_qr_scan", "android": "https://dc.lft.to/lastmile_qr_scan"}, "lon": -77.04167916666667, "type": "electric_scooter", "fusion_lat": 0.0, "lat": 38.905406, "name": "6aac0002d5482594e6c9e22da6bbb715", "fusion_lon": 0.0, "bike_id": "6aac0002d5482594e6c9e22da6bbb715", "is_disabled": 0, "is_reserved": 0}, {"rental_uris": {"ios": "https://dc.lft.to/lastmile_qr_scan", "android": "https://dc.lft.to/lastmile_qr_scan"}, "lon": -77.03982766666667, "type": "electric_scooter", "fusion_lat": 0.0, "lat": 38.90377133333333, "name": "06fc83c86d2bb7d3325ec4624c2ef4f9", "fusion_lon": 0.0, "bike_id": "06fc83c86d2bb7d3325ec4624c2ef4f9", "is_disabled": 0, "is_reserved": 0}, {"rental_uris": {"ios": "https://dc.lft.to/lastmile_qr_scan", "android": "https://dc.lft.to/lastmile_qr_scan"}, "lon": -77.041229, "type": "electric_scooter", "fusion_lat": 0.0, "lat": 38.924518, "name": "f008bc824d046866213403042bca8e6e", "fusion_lon": 0.0, "bike_id": "f008bc824d046866213403042bca8e6e", "is_disabled": 0, "is_reserved": 0}, {"rental_uris": {"ios": "https://dc.lft.to/lastmile_qr_scan", "android": "https://dc.lft.to/lastmile_qr_scan"}, "lon": -77.01949483333334, "type": "electric_scooter", "fusion_lat": 0.0, "lat": 38.90359983333333, "name": "9d409233ff620f3fdbab1d74974d44ec", "fusion_lon": 0.0, "bike_id": "9d409233ff620f3fdbab1d74974d44ec", "is_disabled": 0, "is_reserved": 0}, {"rental_uris": {"ios": "https://dc.lft.to/lastmile_qr_scan", "android": "https://dc.lft.to/lastmile_qr_scan"}, "lon": -77.03349916666667, "type": "electric_scooter", "fusion_lat": 0.0, "lat": 38.911876166666666, "name": "a9f232ec749b28b7ee791437d8d965a5", "fusion_lon": 0.0, "bike_id": "a9f232ec749b28b7ee791437d8d965a5", "is_disabled": 0, "is_reserved": 0}, {"rental_uris": {"ios": "https://dc.lft.to/lastmile_qr_scan", "android": "https://dc.lft.to/lastmile_qr_scan"}, "lon": -76.97406966666667, "type": "electric_scooter", "fusion_lat": 0.0, "lat": 38.901554833333336, "name": "7ef08c569c4047dd61ce42bfb36fe6d3", "fusion_lon": 0.0, "bike_id": "7ef08c569c4047dd61ce42bfb36fe6d3", "is_disabled": 0, "is_reserved": 0}, {"rental_uris": {"ios": "https://dc.lft.to/lastmile_qr_scan", "android": "https://dc.lft.to/lastmile_qr_scan"}, "lon": -76.998565, "type": "electric_scooter", "fusion_lat": 0.0, "lat": 38.8999815, "name": "3f2367498d420fecb6ff67d780eb9c40", "fusion_lon": 0.0, "bike_id": "3f2367498d420fecb6ff67d780eb9c40", "is_disabled": 0, "is_reserved": 0}, {"rental_uris": {"ios": "https://dc.lft.to/lastmile_qr_scan", "android": "https://dc.lft.to/lastmile_qr_scan"}, "lon": -76.97931616666666, "type": "electric_scooter", "fusion_lat": 0.0, "lat": 38.906726166666665, "name": "53d7e48e3a79123b1384fb215600773d", "fusion_lon": 0.0, "bike_id": "53d7e48e3a79123b1384fb215600773d", "is_disabled": 0, "is_reserved": 0}, {"rental_uris": {"ios": "https://dc.lft.to/lastmile_qr_scan", "android": "https://dc.lft.to/lastmile_qr_scan"}, "lon": -77.03471716666667, "type": "electric_scooter", "fusion_lat": 0.0, "lat": 38.912661666666665, "name": "c84ea0adcd8121f6c5d56081dd317fc4", "fusion_lon": 0.0, "bike_id": "c84ea0adcd8121f6c5d56081dd317fc4", "is_disabled": 0, "is_reserved": 0}, {"rental_uris": {"ios": "https://dc.lft.to/lastmile_qr_scan", "android": "https://dc.lft.to/lastmile_qr_scan"}, "lon": -77.029713, "type": "electric_scooter", "fusion_lat": 0.0, "lat": 38.907331166666665, "name": "e9993642234a5eaf2c1c8e6495770926", "fusion_lon": 0.0, "bike_id": "e9993642234a5eaf2c1c8e6495770926", "is_disabled": 0, "is_reserved": 0}, {"rental_uris": {"ios": "https://dc.lft.to/lastmile_qr_scan", "android": "https://dc.lft.to/lastmile_qr_scan"}, "lon": -77.03361016666666, "type": "electric_scooter", "fusion_lat": 0.0, "lat": 38.91981783333333, "name": "c0e52e2bb7ae2f7ca7df49f0a75d927c", "fusion_lon": 0.0, "bike_id": "c0e52e2bb7ae2f7ca7df49f0a75d927c", "is_disabled": 0, "is_reserved": 0}, {"rental_uris": {"ios": "https://dc.lft.to/lastmile_qr_scan", "android": "https://dc.lft.to/lastmile_qr_scan"}, "lon": -76.97495216666667, "type": "electric_bike", "fusion_lat": 0.0, "lat": 38.92005433333333, "name": "5a2fdf221f220469dca45b205cfc281f", "fusion_lon": 0.0, "bike_id": "5a2fdf221f220469dca45b205cfc281f", "is_disabled": 0, "is_reserved": 0}, {"rental_uris": {"ios": "https://dc.lft.to/lastmile_qr_scan", "android": "https://dc.lft.to/lastmile_qr_scan"}, "lon": -77.03260366666666, "type": "electric_scooter", "fusion_lat": 0.0, "lat": 38.904547, "name": "cfecfcf042ada470c3d139eb7b904c79", "fusion_lon": 0.0, "bike_id": "cfecfcf042ada470c3d139eb7b904c79", "is_disabled": 0, "is_reserved": 0}, {"rental_uris": {"ios": "https://dc.lft.to/lastmile_qr_scan", "android": "https://dc.lft.to/lastmile_qr_scan"}, "lon": -77.00248683333334, "type": "electric_scooter", "fusion_lat": 0.0, "lat": 38.91188433333333, "name": "cdd67cb1eb798ce6b3947198a3ae627d", "fusion_lon": 0.0, "bike_id": "cdd67cb1eb798ce6b3947198a3ae627d", "is_disabled": 0, "is_reserved": 0}, {"rental_uris": {"ios": "https://dc.lft.to/lastmile_qr_scan", "android": "https://dc.lft.to/lastmile_qr_scan"}, "lon": -77.01792966666666, "type": "electric_scooter", "fusion_lat": 0.0, "lat": 38.892360833333335, "name": "89f0eda22b6185081074a5777b79a350", "fusion_lon": 0.0, "bike_id": "89f0eda22b6185081074a5777b79a350", "is_disabled": 0, "is_reserved": 0}, {"rental_uris": {"ios": "https://dc.lft.to/lastmile_qr_scan", "android": "https://dc.lft.to/lastmile_qr_scan"}, "lon": -77.03446216666667, "type": "electric_scooter", "fusion_lat": 0.0, "lat": 38.903438666666666, "name": "146680f4e498da80db6e60703ef7cbf2", "fusion_lon": 0.0, "bike_id": "146680f4e498da80db6e60703ef7cbf2", "is_disabled": 0, "is_reserved": 0}, {"rental_uris": {"ios": "https://dc.lft.to/lastmile_qr_scan", "android": "https://dc.lft.to/lastmile_qr_scan"}, "lon": -77.032019, "type": "electric_scooter", "fusion_lat": 0.0, "lat": 38.9000165, "name": "cf2338fbb67e36c5a83f24a0615b8848", "fusion_lon": 0.0, "bike_id": "cf2338fbb67e36c5a83f24a0615b8848", "is_disabled": 0, "is_reserved": 0}, {"rental_uris": {"ios": "https://dc.lft.to/lastmile_qr_scan", "android": "https://dc.lft.to/lastmile_qr_scan"}, "lon": -77.02210866666667, "type": "electric_scooter", "fusion_lat": 0.0, "lat": 38.887181166666664, "name": "29eecfaf2c7b19bf8b8920c67fdc7f9e", "fusion_lon": 0.0, "bike_id": "29eecfaf2c7b19bf8b8920c67fdc7f9e", "is_disabled": 0, "is_reserved": 0}, {"rental_uris": {"ios": "https://dc.lft.to/lastmile_qr_scan", "android": "https://dc.lft.to/lastmile_qr_scan"}, "lon": -77.03200316666667, "type": "electric_scooter", "fusion_lat": 0.0, "lat": 38.9200185, "name": "84fb830bd7aa1dc80bffc46c3287536b", "fusion_lon": 0.0, "bike_id": "84fb830bd7aa1dc80bffc46c3287536b", "is_disabled": 0, "is_reserved": 0}, {"rental_uris": {"ios": "https://dc.lft.to/lastmile_qr_scan", "android": "https://dc.lft.to/lastmile_qr_scan"}, "lon": -77.03912583333333, "type": "electric_scooter", "fusion_lat": 0.0, "lat": 38.9183525, "name": "62cf8e026c44903f82a9488ecddb0672", "fusion_lon": 0.0, "bike_id": "62cf8e026c44903f82a9488ecddb0672", "is_disabled": 0, "is_reserved": 0}, {"rental_uris": {"ios": "https://dc.lft.to/lastmile_qr_scan", "android": "https://dc.lft.to/lastmile_qr_scan"}, "lon": -77.050028, "type": "electric_scooter", "fusion_lat": 0.0, "lat": 38.892304833333334, "name": "e560d83e9c032e23c7968e918173fc0d", "fusion_lon": 0.0, "bike_id": "e560d83e9c032e23c7968e918173fc0d", "is_disabled": 0, "is_reserved": 0}, {"rental_uris": {"ios": "https://dc.lft.to/lastmile_qr_scan", "android": "https://dc.lft.to/lastmile_qr_scan"}, "lon": -77.09140633333334, "type": "electric_bike", "fusion_lat": 0.0, "lat": 38.804182, "name": "e9119f397e0c3e9797f13db760541a47", "fusion_lon": 0.0, "bike_id": "e9119f397e0c3e9797f13db760541a47", "is_disabled": 0, "is_reserved": 0}, {"rental_uris": {"ios": "https://dc.lft.to/lastmile_qr_scan", "android": "https://dc.lft.to/lastmile_qr_scan"}, "lon": -77.013154, "type": "electric_scooter", "fusion_lat": 0.0, "lat": 38.897401, "name": "0fcd524c3e27ec0e752d895f02694c8b", "fusion_lon": 0.0, "bike_id": "0fcd524c3e27ec0e752d895f02694c8b", "is_disabled": 0, "is_reserved": 0}, {"rental_uris": {"ios": "https://dc.lft.to/lastmile_qr_scan", "android": "https://dc.lft.to/lastmile_qr_scan"}, "lon": -77.023286, "type": "electric_scooter", "fusion_lat": 0.0, "lat": 38.8939695, "name": "178a050da641728b1131b6016439f576", "fusion_lon": 0.0, "bike_id": "178a050da641728b1131b6016439f576", "is_disabled": 0, "is_reserved": 0}, {"rental_uris": {"ios": "https://dc.lft.to/lastmile_qr_scan", "android": "https://dc.lft.to/lastmile_qr_scan"}, "lon": -77.02210316666667, "type": "electric_scooter", "fusion_lat": 0.0, "lat": 38.905522166666664, "name": "70aedc128e0c6d1b9344c318de2947d6", "fusion_lon": 0.0, "bike_id": "70aedc128e0c6d1b9344c318de2947d6", "is_disabled": 0, "is_reserved": 0}, {"rental_uris": {"ios": "https://dc.lft.to/lastmile_qr_scan", "android": "https://dc.lft.to/lastmile_qr_scan"}, "lon": -76.952473, "type": "electric_bike", "fusion_lat": 0.0, "lat": 38.906995333333334, "name": "831e36ad1b97ca54b0aa165b3141b8d9", "fusion_lon": 0.0, "bike_id": "831e36ad1b97ca54b0aa165b3141b8d9", "is_disabled": 0, "is_reserved": 0}, {"rental_uris": {"ios": "https://dc.lft.to/lastmile_qr_scan", "android": "https://dc.lft.to/lastmile_qr_scan"}, "lon": -77.0136145, "type": "electric_scooter", "fusion_lat": 0.0, "lat": 38.919850333333336, "name": "da6074ccf05fd4e838fa6233dc4296cb", "fusion_lon": 0.0, "bike_id": "da6074ccf05fd4e838fa6233dc4296cb", "is_disabled": 0, "is_reserved": 0}, {"rental_uris": {"ios": "https://dc.lft.to/lastmile_qr_scan", "android": "https://dc.lft.to/lastmile_qr_scan"}, "lon": -76.98036783333333, "type": "electric_bike", "fusion_lat": 0.0, "lat": 38.900013333333334, "name": "114e33088a359770f5c253c6cca972ca", "fusion_lon": 0.0, "bike_id": "114e33088a359770f5c253c6cca972ca", "is_disabled": 0, "is_reserved": 0}, {"rental_uris": {"ios": "https://dc.lft.to/lastmile_qr_scan", "android": "https://dc.lft.to/lastmile_qr_scan"}, "lon": -77.030046, "type": "electric_scooter", "fusion_lat": 0.0, "lat": 38.89224033333333, "name": "36651fe082a92e01786b0b8326d7b2b9", "fusion_lon": 0.0, "bike_id": "36651fe082a92e01786b0b8326d7b2b9", "is_disabled": 0, "is_reserved": 0}, {"rental_uris": {"ios": "https://dc.lft.to/lastmile_qr_scan", "android": "https://dc.lft.to/lastmile_qr_scan"}, "lon": -77.0170095, "type": "electric_scooter", "fusion_lat": 0.0, "lat": 38.87921866666667, "name": "d05d770898ff2ff4a56e05cd1066e5fe", "fusion_lon": 0.0, "bike_id": "d05d770898ff2ff4a56e05cd1066e5fe", "is_disabled": 0, "is_reserved": 0}, {"rental_uris": {"ios": "https://dc.lft.to/lastmile_qr_scan", "android": "https://dc.lft.to/lastmile_qr_scan"}, "lon": -77.00055183333333, "type": "electric_scooter", "fusion_lat": 0.0, "lat": 38.88898316666667, "name": "25409b3f14e69140139047c12b5b63e6", "fusion_lon": 0.0, "bike_id": "25409b3f14e69140139047c12b5b63e6", "is_disabled": 0, "is_reserved": 0}, {"rental_uris": {"ios": "https://dc.lft.to/lastmile_qr_scan", "android": "https://dc.lft.to/lastmile_qr_scan"}, "lon": -77.01839066666666, "type": "electric_scooter", "fusion_lat": 0.0, "lat": 38.90936266666667, "name": "4a0c56e0a69358b7585e0230a3fbf190", "fusion_lon": 0.0, "bike_id": "4a0c56e0a69358b7585e0230a3fbf190", "is_disabled": 0, "is_reserved": 0}, {"rental_uris": {"ios": "https://dc.lft.to/lastmile_qr_scan", "android": "https://dc.lft.to/lastmile_qr_scan"}, "lon": -77.01345516666666, "type": "electric_bike", "fusion_lat": 0.0, "lat": 38.99994816666667, "name": "d31a16dacebab6bb3d11d73d90198e4d", "fusion_lon": 0.0, "bike_id": "d31a16dacebab6bb3d11d73d90198e4d", "is_disabled": 0, "is_reserved": 0}, {"rental_uris": {"ios": "https://dc.lft.to/lastmile_qr_scan", "android": "https://dc.lft.to/lastmile_qr_scan"}, "lon": -77.01081983333333, "type": "electric_scooter", "fusion_lat": 0.0, "lat": 38.90354133333334, "name": "00ff228bf8c271067a69e2c36b9b3c93", "fusion_lon": 0.0, "bike_id": "00ff228bf8c271067a69e2c36b9b3c93", "is_disabled": 0, "is_reserved": 0}, {"rental_uris": {"ios": "https://dc.lft.to/lastmile_qr_scan", "android": "https://dc.lft.to/lastmile_qr_scan"}, "lon": -77.02553583333334, "type": "electric_scooter", "fusion_lat": 0.0, "lat": 38.892318833333334, "name": "51e0d19deeffccce10212c6dfee6c662", "fusion_lon": 0.0, "bike_id": "51e0d19deeffccce10212c6dfee6c662", "is_disabled": 0, "is_reserved": 0}, {"rental_uris": {"ios": "https://dc.lft.to/lastmile_qr_scan", "android": "https://dc.lft.to/lastmile_qr_scan"}, "lon": -77.05750183333333, "type": "electric_scooter", "fusion_lat": 0.0, "lat": 38.935374833333334, "name": "ef3f4f432b3806c6602301256f7fadfe", "fusion_lon": 0.0, "bike_id": "ef3f4f432b3806c6602301256f7fadfe", "is_disabled": 0, "is_reserved": 0}, {"rental_uris": {"ios": "https://dc.lft.to/lastmile_qr_scan", "android": "https://dc.lft.to/lastmile_qr_scan"}, "lon": -77.08845916666667, "type": "electric_bike", "fusion_lat": 0.0, "lat": 38.840749333333335, "name": "bcc27e15a678320fccecc91c23cec4e1", "fusion_lon": 0.0, "bike_id": "bcc27e15a678320fccecc91c23cec4e1", "is_disabled": 0, "is_reserved": 0}, {"rental_uris": {"ios": "https://dc.lft.to/lastmile_qr_scan", "android": "https://dc.lft.to/lastmile_qr_scan"}, "lon": -77.0221975, "type": "electric_scooter", "fusion_lat": 0.0, "lat": 38.89193383333333, "name": "76a94cb49cee6de03d662dc02cfaf65d", "fusion_lon": 0.0, "bike_id": "76a94cb49cee6de03d662dc02cfaf65d", "is_disabled": 0, "is_reserved": 0}, {"rental_uris": {"ios": "https://dc.lft.to/lastmile_qr_scan", "android": "https://dc.lft.to/lastmile_qr_scan"}, "lon": -77.07541933333333, "type": "electric_bike", "fusion_lat": 0.0, "lat": 38.910689, "name": "c7f0d0307069d537232972c8542e3daa", "fusion_lon": 0.0, "bike_id": "c7f0d0307069d537232972c8542e3daa", "is_disabled": 0, "is_reserved": 0}, {"rental_uris": {"ios": "https://dc.lft.to/lastmile_qr_scan", "android": "https://dc.lft.to/lastmile_qr_scan"}, "lon": -77.01256966666666, "type": "electric_scooter", "fusion_lat": 0.0, "lat": 38.89960416666667, "name": "77462a6e89e3ac3e5d39c520b3c53e5d", "fusion_lon": 0.0, "bike_id": "77462a6e89e3ac3e5d39c520b3c53e5d", "is_disabled": 0, "is_reserved": 0}, {"rental_uris": {"ios": "https://dc.lft.to/lastmile_qr_scan", "android": "https://dc.lft.to/lastmile_qr_scan"}, "lon": -77.13598283333333, "type": "electric_bike", "fusion_lat": 0.0, "lat": 39.05345716666667, "name": "1e4715a2018fb41a002bd79a67fcc0c0", "fusion_lon": 0.0, "bike_id": "1e4715a2018fb41a002bd79a67fcc0c0", "is_disabled": 0, "is_reserved": 0}, {"rental_uris": {"ios": "https://dc.lft.to/lastmile_qr_scan", "android": "https://dc.lft.to/lastmile_qr_scan"}, "lon": -77.0144225, "type": "electric_scooter", "fusion_lat": 0.0, "lat": 38.87766333333333, "name": "64b6c4f6b8620a519a2b8d2b8670e85e", "fusion_lon": 0.0, "bike_id": "64b6c4f6b8620a519a2b8d2b8670e85e", "is_disabled": 0, "is_reserved": 0}, {"rental_uris": {"ios": "https://dc.lft.to/lastmile_qr_scan", "android": "https://dc.lft.to/lastmile_qr_scan"}, "lon": -77.0294185, "type": "electric_scooter", "fusion_lat": 0.0, "lat": 38.920607833333335, "name": "59babdb30cb3619efc2fe40b9c003c62", "fusion_lon": 0.0, "bike_id": "59babdb30cb3619efc2fe40b9c003c62", "is_disabled": 0, "is_reserved": 0}, {"rental_uris": {"ios": "https://dc.lft.to/lastmile_qr_scan", "android": "https://dc.lft.to/lastmile_qr_scan"}, "lon": -77.043037, "type": "electric_scooter", "fusion_lat": 0.0, "lat": 38.922551166666665, "name": "d3bebbc70ef7460a1547b235eec9a99d", "fusion_lon": 0.0, "bike_id": "d3bebbc70ef7460a1547b235eec9a99d", "is_disabled": 0, "is_reserved": 0}, {"rental_uris": {"ios": "https://dc.lft.to/lastmile_qr_scan", "android": "https://dc.lft.to/lastmile_qr_scan"}, "lon": -77.05253833333333, "type": "electric_scooter", "fusion_lat": 0.0, "lat": 38.923751333333335, "name": "10e750df9dd73c9f38fe50df0572da7b", "fusion_lon": 0.0, "bike_id": "10e750df9dd73c9f38fe50df0572da7b", "is_disabled": 0, "is_reserved": 0}, {"rental_uris": {"ios": "https://dc.lft.to/lastmile_qr_scan", "android": "https://dc.lft.to/lastmile_qr_scan"}, "lon": -76.98635933333334, "type": "electric_scooter", "fusion_lat": 0.0, "lat": 38.868169, "name": "d9ba85307491d6d60c34f3b741a9057a", "fusion_lon": 0.0, "bike_id": "d9ba85307491d6d60c34f3b741a9057a", "is_disabled": 0, "is_reserved": 0}, {"rental_uris": {"ios": "https://dc.lft.to/lastmile_qr_scan", "android": "https://dc.lft.to/lastmile_qr_scan"}, "lon": -77.04476183333334, "type": "electric_scooter", "fusion_lat": 0.0, "lat": 38.9065545, "name": "54f7c68b530540e806f5c8b81b9583c7", "fusion_lon": 0.0, "bike_id": "54f7c68b530540e806f5c8b81b9583c7", "is_disabled": 0, "is_reserved": 0}, {"rental_uris": {"ios": "https://dc.lft.to/lastmile_qr_scan", "android": "https://dc.lft.to/lastmile_qr_scan"}, "lon": -77.031997, "type": "electric_scooter", "fusion_lat": 0.0, "lat": 38.9199425, "name": "1f1ab76d318e58902fa467e3be288fc1", "fusion_lon": 0.0, "bike_id": "1f1ab76d318e58902fa467e3be288fc1", "is_disabled": 0, "is_reserved": 0}, {"rental_uris": {"ios": "https://dc.lft.to/lastmile_qr_scan", "android": "https://dc.lft.to/lastmile_qr_scan"}, "lon": -77.01860566666667, "type": "electric_scooter", "fusion_lat": 0.0, "lat": 38.9028275, "name": "d1ef1eaab0a1d5661d444fe39a8a15fb", "fusion_lon": 0.0, "bike_id": "d1ef1eaab0a1d5661d444fe39a8a15fb", "is_disabled": 0, "is_reserved": 0}, {"rental_uris": {"ios": "https://dc.lft.to/lastmile_qr_scan", "android": "https://dc.lft.to/lastmile_qr_scan"}, "lon": -77.0326935, "type": "electric_scooter", "fusion_lat": 0.0, "lat": 38.914071666666665, "name": "abbd4369eeb2076eb4885c9ce2960fe0", "fusion_lon": 0.0, "bike_id": "abbd4369eeb2076eb4885c9ce2960fe0", "is_disabled": 0, "is_reserved": 0}, {"rental_uris": {"ios": "https://dc.lft.to/lastmile_qr_scan", "android": "https://dc.lft.to/lastmile_qr_scan"}, "lon": -77.03183833333334, "type": "electric_scooter", "fusion_lat": 0.0, "lat": 38.91916283333333, "name": "93abf6e1fab27d36703f46bed4ef59ab", "fusion_lon": 0.0, "bike_id": "93abf6e1fab27d36703f46bed4ef59ab", "is_disabled": 0, "is_reserved": 0}, {"rental_uris": {"ios": "https://dc.lft.to/lastmile_qr_scan", "android": "https://dc.lft.to/lastmile_qr_scan"}, "lon": -77.0297315, "type": "electric_scooter", "fusion_lat": 0.0, "lat": 38.90773183333334, "name": "8831a4c9905ae4c888dde45cd1ef4aa6", "fusion_lon": 0.0, "bike_id": "8831a4c9905ae4c888dde45cd1ef4aa6", "is_disabled": 0, "is_reserved": 0}, {"rental_uris": {"ios": "https://dc.lft.to/lastmile_qr_scan", "android": "https://dc.lft.to/lastmile_qr_scan"}, "lon": -77.026678, "type": "electric_scooter", "fusion_lat": 0.0, "lat": 38.932500833333336, "name": "5cc8ed9d48f820e5012948009571f10a", "fusion_lon": 0.0, "bike_id": "5cc8ed9d48f820e5012948009571f10a", "is_disabled": 0, "is_reserved": 0}, {"rental_uris": {"ios": "https://dc.lft.to/lastmile_qr_scan", "android": "https://dc.lft.to/lastmile_qr_scan"}, "lon": -76.93810216666667, "type": "electric_scooter", "fusion_lat": 0.0, "lat": 38.9130295, "name": "dddc043656d6b624ed6e127c200158ff", "fusion_lon": 0.0, "bike_id": "dddc043656d6b624ed6e127c200158ff", "is_disabled": 0, "is_reserved": 0}, {"rental_uris": {"ios": "https://dc.lft.to/lastmile_qr_scan", "android": "https://dc.lft.to/lastmile_qr_scan"}, "lon": -77.03169283333334, "type": "electric_scooter", "fusion_lat": 0.0, "lat": 38.8960815, "name": "5adaea58b1631083b6a5f8b73b0dab35", "fusion_lon": 0.0, "bike_id": "5adaea58b1631083b6a5f8b73b0dab35", "is_disabled": 0, "is_reserved": 0}, {"rental_uris": {"ios": "https://dc.lft.to/lastmile_qr_scan", "android": "https://dc.lft.to/lastmile_qr_scan"}, "lon": -77.02837, "type": "electric_scooter", "fusion_lat": 0.0, "lat": 38.887690666666664, "name": "867fbfebe33f3db009565ed1d80772b2", "fusion_lon": 0.0, "bike_id": "867fbfebe33f3db009565ed1d80772b2", "is_disabled": 0, "is_reserved": 0}, {"rental_uris": {"ios": "https://dc.lft.to/lastmile_qr_scan", "android": "https://dc.lft.to/lastmile_qr_scan"}, "lon": -77.061639, "type": "electric_scooter", "fusion_lat": 0.0, "lat": 38.94226033333333, "name": "8da28643301042ff4648c7cbbc85c51f", "fusion_lon": 0.0, "bike_id": "8da28643301042ff4648c7cbbc85c51f", "is_disabled": 0, "is_reserved": 0}, {"rental_uris": {"ios": "https://dc.lft.to/lastmile_qr_scan", "android": "https://dc.lft.to/lastmile_qr_scan"}, "lon": -76.987702, "type": "electric_scooter", "fusion_lat": 0.0, "lat": 38.911749, "name": "7d8aba9c9c497e2753a5ef342736a8c4", "fusion_lon": 0.0, "bike_id": "7d8aba9c9c497e2753a5ef342736a8c4", "is_disabled": 0, "is_reserved": 0}, {"rental_uris": {"ios": "https://dc.lft.to/lastmile_qr_scan", "android": "https://dc.lft.to/lastmile_qr_scan"}, "lon": -76.97888316666666, "type": "electric_scooter", "fusion_lat": 0.0, "lat": 38.9167415, "name": "b5a170744265c6e7e496a9f0196e49e7", "fusion_lon": 0.0, "bike_id": "b5a170744265c6e7e496a9f0196e49e7", "is_disabled": 0, "is_reserved": 0}, {"rental_uris": {"ios": "https://dc.lft.to/lastmile_qr_scan", "android": "https://dc.lft.to/lastmile_qr_scan"}, "lon": -77.0494935, "type": "electric_scooter", "fusion_lat": 0.0, "lat": 38.896504166666666, "name": "9ef7aeeaa58c17ac936cded367ed1456", "fusion_lon": 0.0, "bike_id": "9ef7aeeaa58c17ac936cded367ed1456", "is_disabled": 0, "is_reserved": 0}, {"rental_uris": {"ios": "https://dc.lft.to/lastmile_qr_scan", "android": "https://dc.lft.to/lastmile_qr_scan"}, "lon": -77.12742083333333, "type": "electric_bike", "fusion_lat": 0.0, "lat": 38.8882265, "name": "5232fcdac53049645dce6f84c0875055", "fusion_lon": 0.0, "bike_id": "5232fcdac53049645dce6f84c0875055", "is_disabled": 0, "is_reserved": 0}, {"rental_uris": {"ios": "https://dc.lft.to/lastmile_qr_scan", "android": "https://dc.lft.to/lastmile_qr_scan"}, "lon": -77.0404165, "type": "electric_scooter", "fusion_lat": 0.0, "lat": 38.92566083333333, "name": "fd0459d94e9a2e3bad81d7ba99767174", "fusion_lon": 0.0, "bike_id": "fd0459d94e9a2e3bad81d7ba99767174", "is_disabled": 0, "is_reserved": 0}, {"rental_uris": {"ios": "https://dc.lft.to/lastmile_qr_scan", "android": "https://dc.lft.to/lastmile_qr_scan"}, "lon": -77.045038, "type": "electric_scooter", "fusion_lat": 0.0, "lat": 38.91107083333333, "name": "8cb319b7db0ab6fc7785f962aaf1940f", "fusion_lon": 0.0, "bike_id": "8cb319b7db0ab6fc7785f962aaf1940f", "is_disabled": 0, "is_reserved": 0}, {"rental_uris": {"ios": "https://dc.lft.to/lastmile_qr_scan", "android": "https://dc.lft.to/lastmile_qr_scan"}, "lon": -76.9237425, "type": "electric_bike", "fusion_lat": 0.0, "lat": 38.8837335, "name": "0a3506af509f240da3b349f3ae9922f8", "fusion_lon": 0.0, "bike_id": "0a3506af509f240da3b349f3ae9922f8", "is_disabled": 0, "is_reserved": 0}, {"rental_uris": {"ios": "https://dc.lft.to/lastmile_qr_scan", "android": "https://dc.lft.to/lastmile_qr_scan"}, "lon": -76.99587666666666, "type": "electric_scooter", "fusion_lat": 0.0, "lat": 38.95501333333333, "name": "8ddc790fc144fedb2f7249d8c05895a7", "fusion_lon": 0.0, "bike_id": "8ddc790fc144fedb2f7249d8c05895a7", "is_disabled": 0, "is_reserved": 0}, {"rental_uris": {"ios": "https://dc.lft.to/lastmile_qr_scan", "android": "https://dc.lft.to/lastmile_qr_scan"}, "lon": -77.098772, "type": "electric_bike", "fusion_lat": 0.0, "lat": 38.947883833333336, "name": "d3379b83203133d60c8d84c951afe0f1", "fusion_lon": 0.0, "bike_id": "d3379b83203133d60c8d84c951afe0f1", "is_disabled": 0, "is_reserved": 0}, {"rental_uris": {"ios": "https://dc.lft.to/lastmile_qr_scan", "android": "https://dc.lft.to/lastmile_qr_scan"}, "lon": -77.04223716666667, "type": "electric_scooter", "fusion_lat": 0.0, "lat": 38.91120466666667, "name": "ffa96e9d696444e4640ddc5bcfbd3b55", "fusion_lon": 0.0, "bike_id": "ffa96e9d696444e4640ddc5bcfbd3b55", "is_disabled": 0, "is_reserved": 0}, {"rental_uris": {"ios": "https://dc.lft.to/lastmile_qr_scan", "android": "https://dc.lft.to/lastmile_qr_scan"}, "lon": -77.05024466666667, "type": "electric_scooter", "fusion_lat": 0.0, "lat": 38.9235305, "name": "b2286f0cbcc8de1325d6a878ba90129b", "fusion_lon": 0.0, "bike_id": "b2286f0cbcc8de1325d6a878ba90129b", "is_disabled": 0, "is_reserved": 0}, {"rental_uris": {"ios": "https://dc.lft.to/lastmile_qr_scan", "android": "https://dc.lft.to/lastmile_qr_scan"}, "lon": -77.04181783333334, "type": "electric_scooter", "fusion_lat": 0.0, "lat": 38.911925, "name": "6df5cb8022a3d581bb3d548876e12adc", "fusion_lon": 0.0, "bike_id": "6df5cb8022a3d581bb3d548876e12adc", "is_disabled": 0, "is_reserved": 0}, {"rental_uris": {"ios": "https://dc.lft.to/lastmile_qr_scan", "android": "https://dc.lft.to/lastmile_qr_scan"}, "lon": -76.931765, "type": "electric_scooter", "fusion_lat": 0.0, "lat": 38.8988555, "name": "42ec24b2151a7d953a6c56453b26b3b4", "fusion_lon": 0.0, "bike_id": "42ec24b2151a7d953a6c56453b26b3b4", "is_disabled": 0, "is_reserved": 0}, {"rental_uris": {"ios": "https://dc.lft.to/lastmile_qr_scan", "android": "https://dc.lft.to/lastmile_qr_scan"}, "lon": -77.0230285, "type": "electric_scooter", "fusion_lat": 0.0, "lat": 38.901608333333336, "name": "67c16107eea019fdcf126936fd6c87bd", "fusion_lon": 0.0, "bike_id": "67c16107eea019fdcf126936fd6c87bd", "is_disabled": 0, "is_reserved": 0}, {"rental_uris": {"ios": "https://dc.lft.to/lastmile_qr_scan", "android": "https://dc.lft.to/lastmile_qr_scan"}, "lon": -77.0276425, "type": "electric_scooter", "fusion_lat": 0.0, "lat": 38.9134315, "name": "db13609e366d3481ca09b2a4b9c3ec13", "fusion_lon": 0.0, "bike_id": "db13609e366d3481ca09b2a4b9c3ec13", "is_disabled": 0, "is_reserved": 0}, {"rental_uris": {"ios": "https://dc.lft.to/lastmile_qr_scan", "android": "https://dc.lft.to/lastmile_qr_scan"}, "lon": -77.01766983333333, "type": "electric_scooter", "fusion_lat": 0.0, "lat": 38.9212, "name": "5962dc8bc9603cebc3d3451979537056", "fusion_lon": 0.0, "bike_id": "5962dc8bc9603cebc3d3451979537056", "is_disabled": 0, "is_reserved": 0}, {"rental_uris": {"ios": "https://dc.lft.to/lastmile_qr_scan", "android": "https://dc.lft.to/lastmile_qr_scan"}, "lon": -77.01432233333334, "type": "electric_scooter", "fusion_lat": 0.0, "lat": 38.89919883333334, "name": "114baa1f6e5278a14e01b2184de5f5d5", "fusion_lon": 0.0, "bike_id": "114baa1f6e5278a14e01b2184de5f5d5", "is_disabled": 0, "is_reserved": 0}, {"rental_uris": {"ios": "https://dc.lft.to/lastmile_qr_scan", "android": "https://dc.lft.to/lastmile_qr_scan"}, "lon": -77.09507183333334, "type": "electric_bike", "fusion_lat": 0.0, "lat": 38.88758933333333, "name": "8e2d872cab59503472d3a309e783092e", "fusion_lon": 0.0, "bike_id": "8e2d872cab59503472d3a309e783092e", "is_disabled": 0, "is_reserved": 0}, {"rental_uris": {"ios": "https://dc.lft.to/lastmile_qr_scan", "android": "https://dc.lft.to/lastmile_qr_scan"}, "lon": -77.00231983333333, "type": "electric_scooter", "fusion_lat": 0.0, "lat": 38.911893166666665, "name": "b690cf3078373a18847a75f227b7736d", "fusion_lon": 0.0, "bike_id": "b690cf3078373a18847a75f227b7736d", "is_disabled": 0, "is_reserved": 0}, {"rental_uris": {"ios": "https://dc.lft.to/lastmile_qr_scan", "android": "https://dc.lft.to/lastmile_qr_scan"}, "lon": -77.073884, "type": "electric_bike", "fusion_lat": 0.0, "lat": 38.96169783333333, "name": "28db0923394a5005bd3e02e190777896", "fusion_lon": 0.0, "bike_id": "28db0923394a5005bd3e02e190777896", "is_disabled": 0, "is_reserved": 0}, {"rental_uris": {"ios": "https://dc.lft.to/lastmile_qr_scan", "android": "https://dc.lft.to/lastmile_qr_scan"}, "lon": -77.0448765, "type": "electric_scooter", "fusion_lat": 0.0, "lat": 38.903323666666665, "name": "4373ac978965e9f5f0c6f7c2b22dcbbc", "fusion_lon": 0.0, "bike_id": "4373ac978965e9f5f0c6f7c2b22dcbbc", "is_disabled": 0, "is_reserved": 0}, {"rental_uris": {"ios": "https://dc.lft.to/lastmile_qr_scan", "android": "https://dc.lft.to/lastmile_qr_scan"}, "lon": -77.030288, "type": "electric_scooter", "fusion_lat": 0.0, "lat": 38.883929333333334, "name": "32a0520475533bc3b2afc22cd2035d14", "fusion_lon": 0.0, "bike_id": "32a0520475533bc3b2afc22cd2035d14", "is_disabled": 0, "is_reserved": 0}, {"rental_uris": {"ios": "https://dc.lft.to/lastmile_qr_scan", "android": "https://dc.lft.to/lastmile_qr_scan"}, "lon": -77.047863, "type": "electric_scooter", "fusion_lat": 0.0, "lat": 38.8936605, "name": "30bfa925ed7241ca44c2527ccbf29b5f", "fusion_lon": 0.0, "bike_id": "30bfa925ed7241ca44c2527ccbf29b5f", "is_disabled": 0, "is_reserved": 0}, {"rental_uris": {"ios": "https://dc.lft.to/lastmile_qr_scan", "android": "https://dc.lft.to/lastmile_qr_scan"}, "lon": -77.03825483333334, "type": "electric_scooter", "fusion_lat": 0.0, "lat": 38.920716, "name": "e0c1988559cae3f8dfd48f2f7c019454", "fusion_lon": 0.0, "bike_id": "e0c1988559cae3f8dfd48f2f7c019454", "is_disabled": 0, "is_reserved": 0}, {"rental_uris": {"ios": "https://dc.lft.to/lastmile_qr_scan", "android": "https://dc.lft.to/lastmile_qr_scan"}, "lon": -76.99574983333333, "type": "electric_scooter", "fusion_lat": 0.0, "lat": 38.9003125, "name": "01a8bb5dd2083c8b221f98a4f1f4577b", "fusion_lon": 0.0, "bike_id": "01a8bb5dd2083c8b221f98a4f1f4577b", "is_disabled": 0, "is_reserved": 0}, {"rental_uris": {"ios": "https://dc.lft.to/lastmile_qr_scan", "android": "https://dc.lft.to/lastmile_qr_scan"}, "lon": -77.02361766666667, "type": "electric_scooter", "fusion_lat": 0.0, "lat": 38.9205725, "name": "7761edab4d95ab7bd54abd7656ba34d5", "fusion_lon": 0.0, "bike_id": "7761edab4d95ab7bd54abd7656ba34d5", "is_disabled": 0, "is_reserved": 0}, {"rental_uris": {"ios": "https://dc.lft.to/lastmile_qr_scan", "android": "https://dc.lft.to/lastmile_qr_scan"}, "lon": -77.0080645, "type": "electric_scooter", "fusion_lat": 0.0, "lat": 38.90570366666667, "name": "435db2ffe247b03b9da29e84e020c52c", "fusion_lon": 0.0, "bike_id": "435db2ffe247b03b9da29e84e020c52c", "is_disabled": 0, "is_reserved": 0}, {"rental_uris": {"ios": "https://dc.lft.to/lastmile_qr_scan", "android": "https://dc.lft.to/lastmile_qr_scan"}, "lon": -77.043081, "type": "electric_scooter", "fusion_lat": 0.0, "lat": 38.908733166666664, "name": "c2a2ff16eec3887869111270128bf184", "fusion_lon": 0.0, "bike_id": "c2a2ff16eec3887869111270128bf184", "is_disabled": 0, "is_reserved": 0}, {"rental_uris": {"ios": "https://dc.lft.to/lastmile_qr_scan", "android": "https://dc.lft.to/lastmile_qr_scan"}, "lon": -77.03347683333334, "type": "electric_scooter", "fusion_lat": 0.0, "lat": 38.928704333333336, "name": "d621836cb2d2b18b883b2f9b00589494", "fusion_lon": 0.0, "bike_id": "d621836cb2d2b18b883b2f9b00589494", "is_disabled": 0, "is_reserved": 0}, {"rental_uris": {"ios": "https://dc.lft.to/lastmile_qr_scan", "android": "https://dc.lft.to/lastmile_qr_scan"}, "lon": -77.03795966666667, "type": "electric_scooter", "fusion_lat": 0.0, "lat": 38.93031883333333, "name": "39bfc8377cf543cf3361e7d5530fde2f", "fusion_lon": 0.0, "bike_id": "39bfc8377cf543cf3361e7d5530fde2f", "is_disabled": 0, "is_reserved": 0}, {"rental_uris": {"ios": "https://dc.lft.to/lastmile_qr_scan", "android": "https://dc.lft.to/lastmile_qr_scan"}, "lon": -77.0110375, "type": "electric_bike", "fusion_lat": 0.0, "lat": 38.96310483333333, "name": "084ba48e4ce2868df760ceccd1ee990c", "fusion_lon": 0.0, "bike_id": "084ba48e4ce2868df760ceccd1ee990c", "is_disabled": 0, "is_reserved": 0}, {"rental_uris": {"ios": "https://dc.lft.to/lastmile_qr_scan", "android": "https://dc.lft.to/lastmile_qr_scan"}, "lon": -77.0485975, "type": "electric_scooter", "fusion_lat": 0.0, "lat": 38.90517916666667, "name": "d72a703accf01c9a9e63bf5d1d72882a", "fusion_lon": 0.0, "bike_id": "d72a703accf01c9a9e63bf5d1d72882a", "is_disabled": 0, "is_reserved": 0}, {"rental_uris": {"ios": "https://dc.lft.to/lastmile_qr_scan", "android": "https://dc.lft.to/lastmile_qr_scan"}, "lon": -76.99520966666667, "type": "electric_scooter", "fusion_lat": 0.0, "lat": 38.88371633333333, "name": "c5f2b598f25c088891fb69c34c163dd3", "fusion_lon": 0.0, "bike_id": "c5f2b598f25c088891fb69c34c163dd3", "is_disabled": 0, "is_reserved": 0}, {"rental_uris": {"ios": "https://dc.lft.to/lastmile_qr_scan", "android": "https://dc.lft.to/lastmile_qr_scan"}, "lon": -77.10898366666666, "type": "electric_bike", "fusion_lat": 0.0, "lat": 38.830376333333334, "name": "74aab275cb4695d5e7b4cf48e4c32d46", "fusion_lon": 0.0, "bike_id": "74aab275cb4695d5e7b4cf48e4c32d46", "is_disabled": 0, "is_reserved": 0}, {"rental_uris": {"ios": "https://dc.lft.to/lastmile_qr_scan", "android": "https://dc.lft.to/lastmile_qr_scan"}, "lon": -76.99152166666667, "type": "electric_scooter", "fusion_lat": 0.0, "lat": 38.893450333333334, "name": "bec05f28fa210a2e761924ddf4ca6d82", "fusion_lon": 0.0, "bike_id": "bec05f28fa210a2e761924ddf4ca6d82", "is_disabled": 0, "is_reserved": 0}, {"rental_uris": {"ios": "https://dc.lft.to/lastmile_qr_scan", "android": "https://dc.lft.to/lastmile_qr_scan"}, "lon": -77.04002366666667, "type": "electric_scooter", "fusion_lat": 0.0, "lat": 38.918175, "name": "44bc0457c5c4adce05bf86ac3f01fa3d", "fusion_lon": 0.0, "bike_id": "44bc0457c5c4adce05bf86ac3f01fa3d", "is_disabled": 0, "is_reserved": 0}, {"rental_uris": {"ios": "https://dc.lft.to/lastmile_qr_scan", "android": "https://dc.lft.to/lastmile_qr_scan"}, "lon": -77.02212933333334, "type": "electric_scooter", "fusion_lat": 0.0, "lat": 38.90531883333333, "name": "4d17c538cd478d3cc0684899f4945d91", "fusion_lon": 0.0, "bike_id": "4d17c538cd478d3cc0684899f4945d91", "is_disabled": 0, "is_reserved": 0}, {"rental_uris": {"ios": "https://dc.lft.to/lastmile_qr_scan", "android": "https://dc.lft.to/lastmile_qr_scan"}, "lon": -77.017861, "type": "electric_scooter", "fusion_lat": 0.0, "lat": 38.90397, "name": "bdc1c760cb498396e28a79571d2a3916", "fusion_lon": 0.0, "bike_id": "bdc1c760cb498396e28a79571d2a3916", "is_disabled": 0, "is_reserved": 0}, {"rental_uris": {"ios": "https://dc.lft.to/lastmile_qr_scan", "android": "https://dc.lft.to/lastmile_qr_scan"}, "lon": -76.97331133333333, "type": "electric_scooter", "fusion_lat": 0.0, "lat": 38.9048045, "name": "c29b55cc93c4512c55e0c6008cd196f6", "fusion_lon": 0.0, "bike_id": "c29b55cc93c4512c55e0c6008cd196f6", "is_disabled": 0, "is_reserved": 0}, {"rental_uris": {"ios": "https://dc.lft.to/lastmile_qr_scan", "android": "https://dc.lft.to/lastmile_qr_scan"}, "lon": -77.00137733333334, "type": "electric_scooter", "fusion_lat": 0.0, "lat": 38.90411116666667, "name": "2ba48117ced505df984fa49429ffdf73", "fusion_lon": 0.0, "bike_id": "2ba48117ced505df984fa49429ffdf73", "is_disabled": 0, "is_reserved": 0}, {"rental_uris": {"ios": "https://dc.lft.to/lastmile_qr_scan", "android": "https://dc.lft.to/lastmile_qr_scan"}, "lon": -77.0464875, "type": "electric_scooter", "fusion_lat": 0.0, "lat": 38.91574633333333, "name": "a19c9de23874ce38874fd0d433073a2a", "fusion_lon": 0.0, "bike_id": "a19c9de23874ce38874fd0d433073a2a", "is_disabled": 0, "is_reserved": 0}, {"rental_uris": {"ios": "https://dc.lft.to/lastmile_qr_scan", "android": "https://dc.lft.to/lastmile_qr_scan"}, "lon": -76.97505883333334, "type": "electric_bike", "fusion_lat": 0.0, "lat": 38.919283666666665, "name": "c6c126af0d655317fe6687d07a32e14f", "fusion_lon": 0.0, "bike_id": "c6c126af0d655317fe6687d07a32e14f", "is_disabled": 0, "is_reserved": 0}, {"rental_uris": {"ios": "https://dc.lft.to/lastmile_qr_scan", "android": "https://dc.lft.to/lastmile_qr_scan"}, "lon": -76.9856955, "type": "electric_scooter", "fusion_lat": 0.0, "lat": 38.8614315, "name": "e07b4efbfbace5feddf1a49169f0de7f", "fusion_lon": 0.0, "bike_id": "e07b4efbfbace5feddf1a49169f0de7f", "is_disabled": 0, "is_reserved": 0}, {"rental_uris": {"ios": "https://dc.lft.to/lastmile_qr_scan", "android": "https://dc.lft.to/lastmile_qr_scan"}, "lon": -76.97327683333333, "type": "electric_scooter", "fusion_lat": 0.0, "lat": 38.930317, "name": "8f0ca025cdbab288310028824dfe6394", "fusion_lon": 0.0, "bike_id": "8f0ca025cdbab288310028824dfe6394", "is_disabled": 0, "is_reserved": 0}, {"rental_uris": {"ios": "https://dc.lft.to/lastmile_qr_scan", "android": "https://dc.lft.to/lastmile_qr_scan"}, "lon": -77.038317, "type": "electric_scooter", "fusion_lat": 0.0, "lat": 38.91117833333333, "name": "46a491323fab6ba3b366dab04b0b468a", "fusion_lon": 0.0, "bike_id": "46a491323fab6ba3b366dab04b0b468a", "is_disabled": 0, "is_reserved": 0}, {"rental_uris": {"ios": "https://dc.lft.to/lastmile_qr_scan", "android": "https://dc.lft.to/lastmile_qr_scan"}, "lon": -76.9961155, "type": "electric_scooter", "fusion_lat": 0.0, "lat": 38.88620133333333, "name": "5a363db18c6cdd89f989a432057eb18f", "fusion_lon": 0.0, "bike_id": "5a363db18c6cdd89f989a432057eb18f", "is_disabled": 0, "is_reserved": 0}, {"rental_uris": {"ios": "https://dc.lft.to/lastmile_qr_scan", "android": "https://dc.lft.to/lastmile_qr_scan"}, "lon": -76.97563933333333, "type": "electric_scooter", "fusion_lat": 0.0, "lat": 38.9044675, "name": "07540cca8b5b375cf70219fc98f1a19c", "fusion_lon": 0.0, "bike_id": "07540cca8b5b375cf70219fc98f1a19c", "is_disabled": 0, "is_reserved": 0}, {"rental_uris": {"ios": "https://dc.lft.to/lastmile_qr_scan", "android": "https://dc.lft.to/lastmile_qr_scan"}, "lon": -77.04493866666667, "type": "electric_scooter", "fusion_lat": 0.0, "lat": 38.915169166666665, "name": "f6e99721e9a80d34bd9260083a2ff751", "fusion_lon": 0.0, "bike_id": "f6e99721e9a80d34bd9260083a2ff751", "is_disabled": 0, "is_reserved": 0}, {"rental_uris": {"ios": "https://dc.lft.to/lastmile_qr_scan", "android": "https://dc.lft.to/lastmile_qr_scan"}, "lon": -77.04645933333333, "type": "electric_scooter", "fusion_lat": 0.0, "lat": 38.8964495, "name": "f2d8eab14f94ac58d8f51a1e33b48c2e", "fusion_lon": 0.0, "bike_id": "f2d8eab14f94ac58d8f51a1e33b48c2e", "is_disabled": 0, "is_reserved": 0}, {"rental_uris": {"ios": "https://dc.lft.to/lastmile_qr_scan", "android": "https://dc.lft.to/lastmile_qr_scan"}, "lon": -76.9986785, "type": "electric_scooter", "fusion_lat": 0.0, "lat": 38.900274333333336, "name": "78d722b2bb763e41918069cfb1a2b7ed", "fusion_lon": 0.0, "bike_id": "78d722b2bb763e41918069cfb1a2b7ed", "is_disabled": 0, "is_reserved": 0}, {"rental_uris": {"ios": "https://dc.lft.to/lastmile_qr_scan", "android": "https://dc.lft.to/lastmile_qr_scan"}, "lon": -77.01095783333334, "type": "electric_scooter", "fusion_lat": 0.0, "lat": 38.91560166666667, "name": "abc7dbaf80d1dfafcd945d871e184dc9", "fusion_lon": 0.0, "bike_id": "abc7dbaf80d1dfafcd945d871e184dc9", "is_disabled": 0, "is_reserved": 0}, {"rental_uris": {"ios": "https://dc.lft.to/lastmile_qr_scan", "android": "https://dc.lft.to/lastmile_qr_scan"}, "lon": -77.04551783333334, "type": "electric_scooter", "fusion_lat": 0.0, "lat": 38.89221166666667, "name": "e8ffcbabddbb6ef1d90c827364a8a7d6", "fusion_lon": 0.0, "bike_id": "e8ffcbabddbb6ef1d90c827364a8a7d6", "is_disabled": 0, "is_reserved": 0}, {"rental_uris": {"ios": "https://dc.lft.to/lastmile_qr_scan", "android": "https://dc.lft.to/lastmile_qr_scan"}, "lon": -77.03197366666667, "type": "electric_scooter", "fusion_lat": 0.0, "lat": 38.9171505, "name": "338f4309651842e4382e70b74cfb34e4", "fusion_lon": 0.0, "bike_id": "338f4309651842e4382e70b74cfb34e4", "is_disabled": 0, "is_reserved": 0}, {"rental_uris": {"ios": "https://dc.lft.to/lastmile_qr_scan", "android": "https://dc.lft.to/lastmile_qr_scan"}, "lon": -77.03207483333334, "type": "electric_scooter", "fusion_lat": 0.0, "lat": 38.9040935, "name": "79ee39b0836fb92e8cf113e3005ec02b", "fusion_lon": 0.0, "bike_id": "79ee39b0836fb92e8cf113e3005ec02b", "is_disabled": 0, "is_reserved": 0}, {"rental_uris": {"ios": "https://dc.lft.to/lastmile_qr_scan", "android": "https://dc.lft.to/lastmile_qr_scan"}, "lon": -77.02727183333333, "type": "electric_scooter", "fusion_lat": 0.0, "lat": 38.924799, "name": "50599cb807e967898c7d3e77bf0c81ef", "fusion_lon": 0.0, "bike_id": "50599cb807e967898c7d3e77bf0c81ef", "is_disabled": 0, "is_reserved": 0}, {"rental_uris": {"ios": "https://dc.lft.to/lastmile_qr_scan", "android": "https://dc.lft.to/lastmile_qr_scan"}, "lon": -76.97331116666666, "type": "electric_bike", "fusion_lat": 0.0, "lat": 38.85061533333333, "name": "57cb6c288fc3e367c184fcb8b371e1c5", "fusion_lon": 0.0, "bike_id": "57cb6c288fc3e367c184fcb8b371e1c5", "is_disabled": 0, "is_reserved": 0}, {"rental_uris": {"ios": "https://dc.lft.to/lastmile_qr_scan", "android": "https://dc.lft.to/lastmile_qr_scan"}, "lon": -77.02613933333333, "type": "electric_scooter", "fusion_lat": 0.0, "lat": 38.8841815, "name": "6f5ed4fb84200dbabba4dea11727d1ac", "fusion_lon": 0.0, "bike_id": "6f5ed4fb84200dbabba4dea11727d1ac", "is_disabled": 0, "is_reserved": 0}, {"rental_uris": {"ios": "https://dc.lft.to/lastmile_qr_scan", "android": "https://dc.lft.to/lastmile_qr_scan"}, "lon": -77.00791933333333, "type": "electric_scooter", "fusion_lat": 0.0, "lat": 38.90745833333333, "name": "e771e6575f328de015508da53523a102", "fusion_lon": 0.0, "bike_id": "e771e6575f328de015508da53523a102", "is_disabled": 0, "is_reserved": 0}, {"rental_uris": {"ios": "https://dc.lft.to/lastmile_qr_scan", "android": "https://dc.lft.to/lastmile_qr_scan"}, "lon": -77.06101066666666, "type": "electric_scooter", "fusion_lat": 0.0, "lat": 38.91217116666667, "name": "c59fc03de57bc4ea6c04e0cfdc193342", "fusion_lon": 0.0, "bike_id": "c59fc03de57bc4ea6c04e0cfdc193342", "is_disabled": 0, "is_reserved": 0}, {"rental_uris": {"ios": "https://dc.lft.to/lastmile_qr_scan", "android": "https://dc.lft.to/lastmile_qr_scan"}, "lon": -77.03198833333333, "type": "electric_scooter", "fusion_lat": 0.0, "lat": 38.92001333333333, "name": "e078126efbcd324bef41620255aaeb5c", "fusion_lon": 0.0, "bike_id": "e078126efbcd324bef41620255aaeb5c", "is_disabled": 0, "is_reserved": 0}, {"rental_uris": {"ios": "https://dc.lft.to/lastmile_qr_scan", "android": "https://dc.lft.to/lastmile_qr_scan"}, "lon": -77.00892366666666, "type": "electric_scooter", "fusion_lat": 0.0, "lat": 38.924172166666665, "name": "8417e3124ccf66747731540860f22a36", "fusion_lon": 0.0, "bike_id": "8417e3124ccf66747731540860f22a36", "is_disabled": 0, "is_reserved": 0}, {"rental_uris": {"ios": "https://dc.lft.to/lastmile_qr_scan", "android": "https://dc.lft.to/lastmile_qr_scan"}, "lon": -77.0454795, "type": "electric_scooter", "fusion_lat": 0.0, "lat": 38.919428833333335, "name": "27b8f7e7bfb343b71f74a0fb57da6656", "fusion_lon": 0.0, "bike_id": "27b8f7e7bfb343b71f74a0fb57da6656", "is_disabled": 0, "is_reserved": 0}, {"rental_uris": {"ios": "https://dc.lft.to/lastmile_qr_scan", "android": "https://dc.lft.to/lastmile_qr_scan"}, "lon": -77.0059795, "type": "electric_scooter", "fusion_lat": 0.0, "lat": 38.90546716666667, "name": "5ab650fb94fc913299ad3c05d136e5eb", "fusion_lon": 0.0, "bike_id": "5ab650fb94fc913299ad3c05d136e5eb", "is_disabled": 0, "is_reserved": 0}, {"rental_uris": {"ios": "https://dc.lft.to/lastmile_qr_scan", "android": "https://dc.lft.to/lastmile_qr_scan"}, "lon": -77.05270716666666, "type": "electric_scooter", "fusion_lat": 0.0, "lat": 38.910168666666664, "name": "5194ebf7099c169496e7c06f512a9a40", "fusion_lon": 0.0, "bike_id": "5194ebf7099c169496e7c06f512a9a40", "is_disabled": 0, "is_reserved": 0}, {"rental_uris": {"ios": "https://dc.lft.to/lastmile_qr_scan", "android": "https://dc.lft.to/lastmile_qr_scan"}, "lon": -77.03960016666667, "type": "electric_scooter", "fusion_lat": 0.0, "lat": 38.902316666666664, "name": "214a6923c269d5cd434d0f9437c15633", "fusion_lon": 0.0, "bike_id": "214a6923c269d5cd434d0f9437c15633", "is_disabled": 0, "is_reserved": 0}, {"rental_uris": {"ios": "https://dc.lft.to/lastmile_qr_scan", "android": "https://dc.lft.to/lastmile_qr_scan"}, "lon": -77.03920516666666, "type": "electric_scooter", "fusion_lat": 0.0, "lat": 38.9111355, "name": "b5ce60e8c7e4b2582006421b81562821", "fusion_lon": 0.0, "bike_id": "b5ce60e8c7e4b2582006421b81562821", "is_disabled": 0, "is_reserved": 0}, {"rental_uris": {"ios": "https://dc.lft.to/lastmile_qr_scan", "android": "https://dc.lft.to/lastmile_qr_scan"}, "lon": -77.072672, "type": "electric_scooter", "fusion_lat": 0.0, "lat": 38.934747333333334, "name": "6f6934d7db7bc4cffc1206a7808b3b9b", "fusion_lon": 0.0, "bike_id": "6f6934d7db7bc4cffc1206a7808b3b9b", "is_disabled": 0, "is_reserved": 0}, {"rental_uris": {"ios": "https://dc.lft.to/lastmile_qr_scan", "android": "https://dc.lft.to/lastmile_qr_scan"}, "lon": -77.03418066666667, "type": "electric_scooter", "fusion_lat": 0.0, "lat": 38.9192525, "name": "30be703302547103298c06211388034d", "fusion_lon": 0.0, "bike_id": "30be703302547103298c06211388034d", "is_disabled": 0, "is_reserved": 0}, {"rental_uris": {"ios": "https://dc.lft.to/lastmile_qr_scan", "android": "https://dc.lft.to/lastmile_qr_scan"}, "lon": -77.0345835, "type": "electric_scooter", "fusion_lat": 0.0, "lat": 38.90889166666667, "name": "92007de5d886337b4f085ee15ad4cf23", "fusion_lon": 0.0, "bike_id": "92007de5d886337b4f085ee15ad4cf23", "is_disabled": 0, "is_reserved": 0}, {"rental_uris": {"ios": "https://dc.lft.to/lastmile_qr_scan", "android": "https://dc.lft.to/lastmile_qr_scan"}, "lon": -77.00099483333334, "type": "electric_scooter", "fusion_lat": 0.0, "lat": 38.90736166666667, "name": "789e4f7d8539131c4b7993e0dadc2a6c", "fusion_lon": 0.0, "bike_id": "789e4f7d8539131c4b7993e0dadc2a6c", "is_disabled": 0, "is_reserved": 0}, {"rental_uris": {"ios": "https://dc.lft.to/lastmile_qr_scan", "android": "https://dc.lft.to/lastmile_qr_scan"}, "lon": -77.04289233333333, "type": "electric_scooter", "fusion_lat": 0.0, "lat": 38.9226295, "name": "4a50e7528c1b61610199ed5b5be43394", "fusion_lon": 0.0, "bike_id": "4a50e7528c1b61610199ed5b5be43394", "is_disabled": 0, "is_reserved": 0}, {"rental_uris": {"ios": "https://dc.lft.to/lastmile_qr_scan", "android": "https://dc.lft.to/lastmile_qr_scan"}, "lon": -77.04019716666667, "type": "electric_scooter", "fusion_lat": 0.0, "lat": 38.92342, "name": "ce4caf37fc4fdb276f1e4efa1cbcd120", "fusion_lon": 0.0, "bike_id": "ce4caf37fc4fdb276f1e4efa1cbcd120", "is_disabled": 0, "is_reserved": 0}, {"rental_uris": {"ios": "https://dc.lft.to/lastmile_qr_scan", "android": "https://dc.lft.to/lastmile_qr_scan"}, "lon": -77.00263583333333, "type": "electric_scooter", "fusion_lat": 0.0, "lat": 38.90123066666666, "name": "747bf5bafc4f934f8d86e821425a0106", "fusion_lon": 0.0, "bike_id": "747bf5bafc4f934f8d86e821425a0106", "is_disabled": 0, "is_reserved": 0}, {"rental_uris": {"ios": "https://dc.lft.to/lastmile_qr_scan", "android": "https://dc.lft.to/lastmile_qr_scan"}, "lon": -76.9997365, "type": "electric_scooter", "fusion_lat": 0.0, "lat": 38.838369, "name": "e66ffb867da424c6d14f474615790096", "fusion_lon": 0.0, "bike_id": "e66ffb867da424c6d14f474615790096", "is_disabled": 0, "is_reserved": 0}, {"rental_uris": {"ios": "https://dc.lft.to/lastmile_qr_scan", "android": "https://dc.lft.to/lastmile_qr_scan"}, "lon": -77.01705, "type": "electric_scooter", "fusion_lat": 0.0, "lat": 38.920195, "name": "2503979307f26c2d6786b7df61e19407", "fusion_lon": 0.0, "bike_id": "2503979307f26c2d6786b7df61e19407", "is_disabled": 0, "is_reserved": 0}, {"rental_uris": {"ios": "https://dc.lft.to/lastmile_qr_scan", "android": "https://dc.lft.to/lastmile_qr_scan"}, "lon": -77.0222355, "type": "electric_scooter", "fusion_lat": 0.0, "lat": 38.893554, "name": "7ffa0c6e7e8d21747cabd06b5e16b69d", "fusion_lon": 0.0, "bike_id": "7ffa0c6e7e8d21747cabd06b5e16b69d", "is_disabled": 0, "is_reserved": 0}, {"rental_uris": {"ios": "https://dc.lft.to/lastmile_qr_scan", "android": "https://dc.lft.to/lastmile_qr_scan"}, "lon": -77.0129075, "type": "electric_scooter", "fusion_lat": 0.0, "lat": 38.90045083333333, "name": "b7fb32995e58db4b50da0facc69ea7b2", "fusion_lon": 0.0, "bike_id": "b7fb32995e58db4b50da0facc69ea7b2", "is_disabled": 0, "is_reserved": 0}, {"rental_uris": {"ios": "https://dc.lft.to/lastmile_qr_scan", "android": "https://dc.lft.to/lastmile_qr_scan"}, "lon": -77.0386735, "type": "electric_scooter", "fusion_lat": 0.0, "lat": 38.91555366666667, "name": "acfaab4b86918c209f099d1077456bbb", "fusion_lon": 0.0, "bike_id": "acfaab4b86918c209f099d1077456bbb", "is_disabled": 0, "is_reserved": 0}, {"rental_uris": {"ios": "https://dc.lft.to/lastmile_qr_scan", "android": "https://dc.lft.to/lastmile_qr_scan"}, "lon": -77.02835166666667, "type": "electric_scooter", "fusion_lat": 0.0, "lat": 38.887685833333336, "name": "809b85e6577145dc999ae6849e9c7512", "fusion_lon": 0.0, "bike_id": "809b85e6577145dc999ae6849e9c7512", "is_disabled": 0, "is_reserved": 0}, {"rental_uris": {"ios": "https://dc.lft.to/lastmile_qr_scan", "android": "https://dc.lft.to/lastmile_qr_scan"}, "lon": -76.9993505, "type": "electric_scooter", "fusion_lat": 0.0, "lat": 38.896203166666666, "name": "c4194f47f9bcd64228ad77e67472d31b", "fusion_lon": 0.0, "bike_id": "c4194f47f9bcd64228ad77e67472d31b", "is_disabled": 0, "is_reserved": 0}, {"rental_uris": {"ios": "https://dc.lft.to/lastmile_qr_scan", "android": "https://dc.lft.to/lastmile_qr_scan"}, "lon": -77.03690283333333, "type": "electric_scooter", "fusion_lat": 0.0, "lat": 38.9226, "name": "c6e55f39f8c7b595ed120fb4ceb7e4c9", "fusion_lon": 0.0, "bike_id": "c6e55f39f8c7b595ed120fb4ceb7e4c9", "is_disabled": 0, "is_reserved": 0}, {"rental_uris": {"ios": "https://dc.lft.to/lastmile_qr_scan", "android": "https://dc.lft.to/lastmile_qr_scan"}, "lon": -77.0382455, "type": "electric_scooter", "fusion_lat": 0.0, "lat": 38.907758666666666, "name": "249d8c7249c3a4bcb594e8b1d7efcae0", "fusion_lon": 0.0, "bike_id": "249d8c7249c3a4bcb594e8b1d7efcae0", "is_disabled": 0, "is_reserved": 0}, {"rental_uris": {"ios": "https://dc.lft.to/lastmile_qr_scan", "android": "https://dc.lft.to/lastmile_qr_scan"}, "lon": -77.024066, "type": "electric_scooter", "fusion_lat": 0.0, "lat": 38.9110305, "name": "3c469a2bc04075ce8fd4bc71f7866a78", "fusion_lon": 0.0, "bike_id": "3c469a2bc04075ce8fd4bc71f7866a78", "is_disabled": 0, "is_reserved": 0}, {"rental_uris": {"ios": "https://dc.lft.to/lastmile_qr_scan", "android": "https://dc.lft.to/lastmile_qr_scan"}, "lon": -77.045282, "type": "electric_scooter", "fusion_lat": 0.0, "lat": 38.917957666666666, "name": "5c496f687dd87362f7aadd35f61e5554", "fusion_lon": 0.0, "bike_id": "5c496f687dd87362f7aadd35f61e5554", "is_disabled": 0, "is_reserved": 0}, {"rental_uris": {"ios": "https://dc.lft.to/lastmile_qr_scan", "android": "https://dc.lft.to/lastmile_qr_scan"}, "lon": -77.03195566666666, "type": "electric_scooter", "fusion_lat": 0.0, "lat": 38.917543333333334, "name": "41c52a63403dda2798fffbbc0db0ca10", "fusion_lon": 0.0, "bike_id": "41c52a63403dda2798fffbbc0db0ca10", "is_disabled": 0, "is_reserved": 0}, {"rental_uris": {"ios": "https://dc.lft.to/lastmile_qr_scan", "android": "https://dc.lft.to/lastmile_qr_scan"}, "lon": -77.00741766666667, "type": "electric_scooter", "fusion_lat": 0.0, "lat": 38.955198, "name": "a5750bbd4d1207d1f183ec51f448e327", "fusion_lon": 0.0, "bike_id": "a5750bbd4d1207d1f183ec51f448e327", "is_disabled": 0, "is_reserved": 0}, {"rental_uris": {"ios": "https://dc.lft.to/lastmile_qr_scan", "android": "https://dc.lft.to/lastmile_qr_scan"}, "lon": -77.02350933333334, "type": "electric_scooter", "fusion_lat": 0.0, "lat": 38.9227485, "name": "0ddc463eaa3ef0b8268f38beecc57c91", "fusion_lon": 0.0, "bike_id": "0ddc463eaa3ef0b8268f38beecc57c91", "is_disabled": 0, "is_reserved": 0}, {"rental_uris": {"ios": "https://dc.lft.to/lastmile_qr_scan", "android": "https://dc.lft.to/lastmile_qr_scan"}, "lon": -77.032324, "type": "electric_scooter", "fusion_lat": 0.0, "lat": 38.91926133333333, "name": "702902c81ed8ab15a0b97d82e9fcd943", "fusion_lon": 0.0, "bike_id": "702902c81ed8ab15a0b97d82e9fcd943", "is_disabled": 0, "is_reserved": 0}, {"rental_uris": {"ios": "https://dc.lft.to/lastmile_qr_scan", "android": "https://dc.lft.to/lastmile_qr_scan"}, "lon": -77.02145533333334, "type": "electric_scooter", "fusion_lat": 0.0, "lat": 38.90974033333333, "name": "06ef82ebc895a1922c156869ca551f2a", "fusion_lon": 0.0, "bike_id": "06ef82ebc895a1922c156869ca551f2a", "is_disabled": 0, "is_reserved": 0}, {"rental_uris": {"ios": "https://dc.lft.to/lastmile_qr_scan", "android": "https://dc.lft.to/lastmile_qr_scan"}, "lon": -77.00212166666667, "type": "electric_scooter", "fusion_lat": 0.0, "lat": 38.902175166666666, "name": "dcdb60aaa3c05ba07d9eb478b076a74f", "fusion_lon": 0.0, "bike_id": "dcdb60aaa3c05ba07d9eb478b076a74f", "is_disabled": 0, "is_reserved": 0}, {"rental_uris": {"ios": "https://dc.lft.to/lastmile_qr_scan", "android": "https://dc.lft.to/lastmile_qr_scan"}, "lon": -77.0678265, "type": "electric_scooter", "fusion_lat": 0.0, "lat": 38.952074, "name": "a34ad9dd49805b0da6e466be89cece74", "fusion_lon": 0.0, "bike_id": "a34ad9dd49805b0da6e466be89cece74", "is_disabled": 0, "is_reserved": 0}, {"rental_uris": {"ios": "https://dc.lft.to/lastmile_qr_scan", "android": "https://dc.lft.to/lastmile_qr_scan"}, "lon": -77.03994866666666, "type": "electric_scooter", "fusion_lat": 0.0, "lat": 38.900390333333334, "name": "4d19de026858eac9d16fc4255ee53438", "fusion_lon": 0.0, "bike_id": "4d19de026858eac9d16fc4255ee53438", "is_disabled": 0, "is_reserved": 0}, {"rental_uris": {"ios": "https://dc.lft.to/lastmile_qr_scan", "android": "https://dc.lft.to/lastmile_qr_scan"}, "lon": -77.036463, "type": "electric_scooter", "fusion_lat": 0.0, "lat": 38.917340333333335, "name": "056fa143c620b773f34c488e797cb6d6", "fusion_lon": 0.0, "bike_id": "056fa143c620b773f34c488e797cb6d6", "is_disabled": 0, "is_reserved": 0}, {"rental_uris": {"ios": "https://dc.lft.to/lastmile_qr_scan", "android": "https://dc.lft.to/lastmile_qr_scan"}, "lon": -77.06293733333334, "type": "electric_scooter", "fusion_lat": 0.0, "lat": 38.905497833333335, "name": "b412dc35ba7c3073f2bf69b8010a198a", "fusion_lon": 0.0, "bike_id": "b412dc35ba7c3073f2bf69b8010a198a", "is_disabled": 0, "is_reserved": 0}, {"rental_uris": {"ios": "https://dc.lft.to/lastmile_qr_scan", "android": "https://dc.lft.to/lastmile_qr_scan"}, "lon": -77.05161233333334, "type": "electric_scooter", "fusion_lat": 0.0, "lat": 38.897706, "name": "aa93a64e8f920c95abf2a1d65f69dcf2", "fusion_lon": 0.0, "bike_id": "aa93a64e8f920c95abf2a1d65f69dcf2", "is_disabled": 0, "is_reserved": 0}, {"rental_uris": {"ios": "https://dc.lft.to/lastmile_qr_scan", "android": "https://dc.lft.to/lastmile_qr_scan"}, "lon": -77.01860983333333, "type": "electric_scooter", "fusion_lat": 0.0, "lat": 38.90067833333333, "name": "65931ed67f39be08845abc98f486d872", "fusion_lon": 0.0, "bike_id": "65931ed67f39be08845abc98f486d872", "is_disabled": 0, "is_reserved": 0}, {"rental_uris": {"ios": "https://dc.lft.to/lastmile_qr_scan", "android": "https://dc.lft.to/lastmile_qr_scan"}, "lon": -77.120131, "type": "electric_bike", "fusion_lat": 0.0, "lat": 38.855099, "name": "65b043e8859afd06d6f764a450dd28b8", "fusion_lon": 0.0, "bike_id": "65b043e8859afd06d6f764a450dd28b8", "is_disabled": 0, "is_reserved": 0}, {"rental_uris": {"ios": "https://dc.lft.to/lastmile_qr_scan", "android": "https://dc.lft.to/lastmile_qr_scan"}, "lon": -76.94972916666667, "type": "electric_scooter", "fusion_lat": 0.0, "lat": 38.89377433333333, "name": "50a5d937776520ca40349b56ba91cec7", "fusion_lon": 0.0, "bike_id": "50a5d937776520ca40349b56ba91cec7", "is_disabled": 0, "is_reserved": 0}, {"rental_uris": {"ios": "https://dc.lft.to/lastmile_qr_scan", "android": "https://dc.lft.to/lastmile_qr_scan"}, "lon": -77.03175283333333, "type": "electric_scooter", "fusion_lat": 0.0, "lat": 38.886244166666664, "name": "626302a3905d27981a7b2b1bec2f5342", "fusion_lon": 0.0, "bike_id": "626302a3905d27981a7b2b1bec2f5342", "is_disabled": 0, "is_reserved": 0}, {"rental_uris": {"ios": "https://dc.lft.to/lastmile_qr_scan", "android": "https://dc.lft.to/lastmile_qr_scan"}, "lon": -76.93175533333333, "type": "electric_scooter", "fusion_lat": 0.0, "lat": 38.898844833333335, "name": "bb461486575c74c9aaee863ea6166b95", "fusion_lon": 0.0, "bike_id": "bb461486575c74c9aaee863ea6166b95", "is_disabled": 0, "is_reserved": 0}, {"rental_uris": {"ios": "https://dc.lft.to/lastmile_qr_scan", "android": "https://dc.lft.to/lastmile_qr_scan"}, "lon": -77.04663833333333, "type": "electric_scooter", "fusion_lat": 0.0, "lat": 38.893296166666666, "name": "5bf31e87bedaa5a25d9e3ff47b92505f", "fusion_lon": 0.0, "bike_id": "5bf31e87bedaa5a25d9e3ff47b92505f", "is_disabled": 0, "is_reserved": 0}, {"rental_uris": {"ios": "https://dc.lft.to/lastmile_qr_scan", "android": "https://dc.lft.to/lastmile_qr_scan"}, "lon": -77.00211733333333, "type": "electric_scooter", "fusion_lat": 0.0, "lat": 38.902242333333334, "name": "032ab7601f1425274549662a10b6a686", "fusion_lon": 0.0, "bike_id": "032ab7601f1425274549662a10b6a686", "is_disabled": 0, "is_reserved": 0}, {"rental_uris": {"ios": "https://dc.lft.to/lastmile_qr_scan", "android": "https://dc.lft.to/lastmile_qr_scan"}, "lon": -77.037066, "type": "electric_scooter", "fusion_lat": 0.0, "lat": 38.92634966666667, "name": "892b8db164df0c1a858011765021a09a", "fusion_lon": 0.0, "bike_id": "892b8db164df0c1a858011765021a09a", "is_disabled": 0, "is_reserved": 0}, {"rental_uris": {"ios": "https://dc.lft.to/lastmile_qr_scan", "android": "https://dc.lft.to/lastmile_qr_scan"}, "lon": -77.00213566666666, "type": "electric_scooter", "fusion_lat": 0.0, "lat": 38.900322833333334, "name": "d494ba4964ff9f08de0779c2d5cd9298", "fusion_lon": 0.0, "bike_id": "d494ba4964ff9f08de0779c2d5cd9298", "is_disabled": 0, "is_reserved": 0}, {"rental_uris": {"ios": "https://dc.lft.to/lastmile_qr_scan", "android": "https://dc.lft.to/lastmile_qr_scan"}, "lon": -77.041262, "type": "electric_scooter", "fusion_lat": 0.0, "lat": 38.91888616666667, "name": "42e1a95b62955aaa375de41605ac239d", "fusion_lon": 0.0, "bike_id": "42e1a95b62955aaa375de41605ac239d", "is_disabled": 0, "is_reserved": 0}, {"rental_uris": {"ios": "https://dc.lft.to/lastmile_qr_scan", "android": "https://dc.lft.to/lastmile_qr_scan"}, "lon": -77.043683, "type": "electric_scooter", "fusion_lat": 0.0, "lat": 38.892238, "name": "392f88ca96a53e55f5e4e4ac8ae2015e", "fusion_lon": 0.0, "bike_id": "392f88ca96a53e55f5e4e4ac8ae2015e", "is_disabled": 0, "is_reserved": 0}, {"rental_uris": {"ios": "https://dc.lft.to/lastmile_qr_scan", "android": "https://dc.lft.to/lastmile_qr_scan"}, "lon": -77.03203366666666, "type": "electric_scooter", "fusion_lat": 0.0, "lat": 38.911188, "name": "9d637224135c887b1aa7de3adbc712a1", "fusion_lon": 0.0, "bike_id": "9d637224135c887b1aa7de3adbc712a1", "is_disabled": 0, "is_reserved": 0}, {"rental_uris": {"ios": "https://dc.lft.to/lastmile_qr_scan", "android": "https://dc.lft.to/lastmile_qr_scan"}, "lon": -77.007872, "type": "electric_scooter", "fusion_lat": 0.0, "lat": 38.906518166666665, "name": "1408859b7493e9376f2dbae56c3f5902", "fusion_lon": 0.0, "bike_id": "1408859b7493e9376f2dbae56c3f5902", "is_disabled": 0, "is_reserved": 0}, {"rental_uris": {"ios": "https://dc.lft.to/lastmile_qr_scan", "android": "https://dc.lft.to/lastmile_qr_scan"}, "lon": -77.034759, "type": "electric_scooter", "fusion_lat": 0.0, "lat": 38.917041833333336, "name": "5de2b705e40f3fa465a00b5438bb132e", "fusion_lon": 0.0, "bike_id": "5de2b705e40f3fa465a00b5438bb132e", "is_disabled": 0, "is_reserved": 0}, {"rental_uris": {"ios": "https://dc.lft.to/lastmile_qr_scan", "android": "https://dc.lft.to/lastmile_qr_scan"}, "lon": -76.98888166666667, "type": "electric_scooter", "fusion_lat": 0.0, "lat": 38.86657233333333, "name": "1a6eb66cec860a3cb19b5595c5496076", "fusion_lon": 0.0, "bike_id": "1a6eb66cec860a3cb19b5595c5496076", "is_disabled": 0, "is_reserved": 0}, {"rental_uris": {"ios": "https://dc.lft.to/lastmile_qr_scan", "android": "https://dc.lft.to/lastmile_qr_scan"}, "lon": -77.02007366666666, "type": "electric_scooter", "fusion_lat": 0.0, "lat": 38.919056, "name": "68c170d16be9733d6ec0b459db4d1c5f", "fusion_lon": 0.0, "bike_id": "68c170d16be9733d6ec0b459db4d1c5f", "is_disabled": 0, "is_reserved": 0}, {"rental_uris": {"ios": "https://dc.lft.to/lastmile_qr_scan", "android": "https://dc.lft.to/lastmile_qr_scan"}, "lon": -77.0318695, "type": "electric_scooter", "fusion_lat": 0.0, "lat": 38.91841, "name": "50cc8ccd8c8467d8f41d529bd2cea611", "fusion_lon": 0.0, "bike_id": "50cc8ccd8c8467d8f41d529bd2cea611", "is_disabled": 0, "is_reserved": 0}, {"rental_uris": {"ios": "https://dc.lft.to/lastmile_qr_scan", "android": "https://dc.lft.to/lastmile_qr_scan"}, "lon": -76.95755333333334, "type": "electric_scooter", "fusion_lat": 0.0, "lat": 38.884232833333336, "name": "25686dca9d3659e7506581a1e999a342", "fusion_lon": 0.0, "bike_id": "25686dca9d3659e7506581a1e999a342", "is_disabled": 0, "is_reserved": 0}, {"rental_uris": {"ios": "https://dc.lft.to/lastmile_qr_scan", "android": "https://dc.lft.to/lastmile_qr_scan"}, "lon": -77.04172566666666, "type": "electric_scooter", "fusion_lat": 0.0, "lat": 38.91925716666667, "name": "1e34b604a6cb176510653a321286ccf2", "fusion_lon": 0.0, "bike_id": "1e34b604a6cb176510653a321286ccf2", "is_disabled": 0, "is_reserved": 0}, {"rental_uris": {"ios": "https://dc.lft.to/lastmile_qr_scan", "android": "https://dc.lft.to/lastmile_qr_scan"}, "lon": -77.02993066666667, "type": "electric_scooter", "fusion_lat": 0.0, "lat": 38.91017516666667, "name": "dd732daa4ab23f18823316ae494fc4c3", "fusion_lon": 0.0, "bike_id": "dd732daa4ab23f18823316ae494fc4c3", "is_disabled": 0, "is_reserved": 0}, {"rental_uris": {"ios": "https://dc.lft.to/lastmile_qr_scan", "android": "https://dc.lft.to/lastmile_qr_scan"}, "lon": -77.0236285, "type": "electric_scooter", "fusion_lat": 0.0, "lat": 38.9250905, "name": "43dd82fa18c4702df49bdc27f933f12e", "fusion_lon": 0.0, "bike_id": "43dd82fa18c4702df49bdc27f933f12e", "is_disabled": 0, "is_reserved": 0}, {"rental_uris": {"ios": "https://dc.lft.to/lastmile_qr_scan", "android": "https://dc.lft.to/lastmile_qr_scan"}, "lon": -77.01403416666666, "type": "electric_scooter", "fusion_lat": 0.0, "lat": 38.928406833333334, "name": "176d8c69367a60adca1763673b93c0b6", "fusion_lon": 0.0, "bike_id": "176d8c69367a60adca1763673b93c0b6", "is_disabled": 0, "is_reserved": 0}, {"rental_uris": {"ios": "https://dc.lft.to/lastmile_qr_scan", "android": "https://dc.lft.to/lastmile_qr_scan"}, "lon": -77.152683, "type": "electric_bike", "fusion_lat": 0.0, "lat": 39.10565533333333, "name": "6885822ac569011dd9a81fb62cf46fa3", "fusion_lon": 0.0, "bike_id": "6885822ac569011dd9a81fb62cf46fa3", "is_disabled": 0, "is_reserved": 0}, {"rental_uris": {"ios": "https://dc.lft.to/lastmile_qr_scan", "android": "https://dc.lft.to/lastmile_qr_scan"}, "lon": -77.002671, "type": "electric_scooter", "fusion_lat": 0.0, "lat": 38.877353666666664, "name": "437e82d5c351cc033447222c66e1a508", "fusion_lon": 0.0, "bike_id": "437e82d5c351cc033447222c66e1a508", "is_disabled": 0, "is_reserved": 0}, {"rental_uris": {"ios": "https://dc.lft.to/lastmile_qr_scan", "android": "https://dc.lft.to/lastmile_qr_scan"}, "lon": -77.02416683333334, "type": "electric_scooter", "fusion_lat": 0.0, "lat": 38.91696733333333, "name": "5df78fba6a630abc1f4dac8b274377f5", "fusion_lon": 0.0, "bike_id": "5df78fba6a630abc1f4dac8b274377f5", "is_disabled": 0, "is_reserved": 0}, {"rental_uris": {"ios": "https://dc.lft.to/lastmile_qr_scan", "android": "https://dc.lft.to/lastmile_qr_scan"}, "lon": -76.98329816666667, "type": "electric_scooter", "fusion_lat": 0.0, "lat": 38.861748666666664, "name": "af41d0255d8c8b177757b1f1ab9f13a8", "fusion_lon": 0.0, "bike_id": "af41d0255d8c8b177757b1f1ab9f13a8", "is_disabled": 0, "is_reserved": 0}, {"rental_uris": {"ios": "https://dc.lft.to/lastmile_qr_scan", "android": "https://dc.lft.to/lastmile_qr_scan"}, "lon": -77.04175983333333, "type": "electric_scooter", "fusion_lat": 0.0, "lat": 38.90328066666667, "name": "ac755dd6f48f09f32f27ca09825626db", "fusion_lon": 0.0, "bike_id": "ac755dd6f48f09f32f27ca09825626db", "is_disabled": 0, "is_reserved": 0}, {"rental_uris": {"ios": "https://dc.lft.to/lastmile_qr_scan", "android": "https://dc.lft.to/lastmile_qr_scan"}, "lon": -77.02534983333334, "type": "electric_scooter", "fusion_lat": 0.0, "lat": 38.91818116666666, "name": "3f1974eed8c5032a5cb77626fc342fa6", "fusion_lon": 0.0, "bike_id": "3f1974eed8c5032a5cb77626fc342fa6", "is_disabled": 0, "is_reserved": 0}, {"rental_uris": {"ios": "https://dc.lft.to/lastmile_qr_scan", "android": "https://dc.lft.to/lastmile_qr_scan"}, "lon": -77.0330655, "type": "electric_scooter", "fusion_lat": 0.0, "lat": 38.908977, "name": "6653f556c7cf039f3bae9cca8072ecb5", "fusion_lon": 0.0, "bike_id": "6653f556c7cf039f3bae9cca8072ecb5", "is_disabled": 0, "is_reserved": 0}, {"rental_uris": {"ios": "https://dc.lft.to/lastmile_qr_scan", "android": "https://dc.lft.to/lastmile_qr_scan"}, "lon": -77.00661833333334, "type": "electric_scooter", "fusion_lat": 0.0, "lat": 38.87637616666667, "name": "893dc0ae345db7d3dd8c3abf4726f8a3", "fusion_lon": 0.0, "bike_id": "893dc0ae345db7d3dd8c3abf4726f8a3", "is_disabled": 0, "is_reserved": 0}, {"rental_uris": {"ios": "https://dc.lft.to/lastmile_qr_scan", "android": "https://dc.lft.to/lastmile_qr_scan"}, "lon": -77.0264935, "type": "electric_scooter", "fusion_lat": 0.0, "lat": 38.88119733333333, "name": "c384abe5b69df58b837abde5982130aa", "fusion_lon": 0.0, "bike_id": "c384abe5b69df58b837abde5982130aa", "is_disabled": 0, "is_reserved": 0}, {"rental_uris": {"ios": "https://dc.lft.to/lastmile_qr_scan", "android": "https://dc.lft.to/lastmile_qr_scan"}, "lon": -76.99066616666667, "type": "electric_scooter", "fusion_lat": 0.0, "lat": 38.863628, "name": "ff387c6aa26784c6bfebf562c655b4a9", "fusion_lon": 0.0, "bike_id": "ff387c6aa26784c6bfebf562c655b4a9", "is_disabled": 0, "is_reserved": 0}, {"rental_uris": {"ios": "https://dc.lft.to/lastmile_qr_scan", "android": "https://dc.lft.to/lastmile_qr_scan"}, "lon": -77.07307983333334, "type": "electric_scooter", "fusion_lat": 0.0, "lat": 38.93611166666667, "name": "d358f1ff1adb052a53b5cc700d5e2e57", "fusion_lon": 0.0, "bike_id": "d358f1ff1adb052a53b5cc700d5e2e57", "is_disabled": 0, "is_reserved": 0}, {"rental_uris": {"ios": "https://dc.lft.to/lastmile_qr_scan", "android": "https://dc.lft.to/lastmile_qr_scan"}, "lon": -77.03662716666666, "type": "electric_scooter", "fusion_lat": 0.0, "lat": 38.91303033333333, "name": "04553c3fc56e279642ed1f24556a21bf", "fusion_lon": 0.0, "bike_id": "04553c3fc56e279642ed1f24556a21bf", "is_disabled": 0, "is_reserved": 0}, {"rental_uris": {"ios": "https://dc.lft.to/lastmile_qr_scan", "android": "https://dc.lft.to/lastmile_qr_scan"}, "lon": -77.03855466666667, "type": "electric_scooter", "fusion_lat": 0.0, "lat": 38.926457, "name": "1aa0505c1d10607bb65a089d0b1e4bc5", "fusion_lon": 0.0, "bike_id": "1aa0505c1d10607bb65a089d0b1e4bc5", "is_disabled": 0, "is_reserved": 0}, {"rental_uris": {"ios": "https://dc.lft.to/lastmile_qr_scan", "android": "https://dc.lft.to/lastmile_qr_scan"}, "lon": -77.02946416666667, "type": "electric_scooter", "fusion_lat": 0.0, "lat": 38.90401633333333, "name": "a4eab924106cad5544de59cad66eb686", "fusion_lon": 0.0, "bike_id": "a4eab924106cad5544de59cad66eb686", "is_disabled": 0, "is_reserved": 0}, {"rental_uris": {"ios": "https://dc.lft.to/lastmile_qr_scan", "android": "https://dc.lft.to/lastmile_qr_scan"}, "lon": -77.0320615, "type": "electric_scooter", "fusion_lat": 0.0, "lat": 38.90027766666667, "name": "531005f5f13d540819e7927d9f7bc55d", "fusion_lon": 0.0, "bike_id": "531005f5f13d540819e7927d9f7bc55d", "is_disabled": 0, "is_reserved": 0}, {"rental_uris": {"ios": "https://dc.lft.to/lastmile_qr_scan", "android": "https://dc.lft.to/lastmile_qr_scan"}, "lon": -77.03173583333333, "type": "electric_scooter", "fusion_lat": 0.0, "lat": 38.898340166666664, "name": "22318dd4d868040e80bae4e68cd3ced4", "fusion_lon": 0.0, "bike_id": "22318dd4d868040e80bae4e68cd3ced4", "is_disabled": 0, "is_reserved": 0}, {"rental_uris": {"ios": "https://dc.lft.to/lastmile_qr_scan", "android": "https://dc.lft.to/lastmile_qr_scan"}, "lon": -77.0241775, "type": "electric_scooter", "fusion_lat": 0.0, "lat": 38.922341833333334, "name": "823abbe3eb27b48895a3d197bd2565e8", "fusion_lon": 0.0, "bike_id": "823abbe3eb27b48895a3d197bd2565e8", "is_disabled": 0, "is_reserved": 0}, {"rental_uris": {"ios": "https://dc.lft.to/lastmile_qr_scan", "android": "https://dc.lft.to/lastmile_qr_scan"}, "lon": -77.05507466666667, "type": "electric_scooter", "fusion_lat": 0.0, "lat": 38.89968483333333, "name": "a56ddd0f31f2d293c36c29639f576df3", "fusion_lon": 0.0, "bike_id": "a56ddd0f31f2d293c36c29639f576df3", "is_disabled": 0, "is_reserved": 0}, {"rental_uris": {"ios": "https://dc.lft.to/lastmile_qr_scan", "android": "https://dc.lft.to/lastmile_qr_scan"}, "lon": -77.04545666666667, "type": "electric_scooter", "fusion_lat": 0.0, "lat": 38.89478016666666, "name": "b6b72088f368d59b3ccd482e65111bac", "fusion_lon": 0.0, "bike_id": "b6b72088f368d59b3ccd482e65111bac", "is_disabled": 0, "is_reserved": 0}, {"rental_uris": {"ios": "https://dc.lft.to/lastmile_qr_scan", "android": "https://dc.lft.to/lastmile_qr_scan"}, "lon": -77.02693516666666, "type": "electric_scooter", "fusion_lat": 0.0, "lat": 38.906652, "name": "62ce6926d3267627ce3dcaf20b77bf64", "fusion_lon": 0.0, "bike_id": "62ce6926d3267627ce3dcaf20b77bf64", "is_disabled": 0, "is_reserved": 0}, {"rental_uris": {"ios": "https://dc.lft.to/lastmile_qr_scan", "android": "https://dc.lft.to/lastmile_qr_scan"}, "lon": -76.983636, "type": "electric_scooter", "fusion_lat": 0.0, "lat": 38.915199333333334, "name": "9625d30cc594ba1b173b68b843a0d3fa", "fusion_lon": 0.0, "bike_id": "9625d30cc594ba1b173b68b843a0d3fa", "is_disabled": 0, "is_reserved": 0}, {"rental_uris": {"ios": "https://dc.lft.to/lastmile_qr_scan", "android": "https://dc.lft.to/lastmile_qr_scan"}, "lon": -77.09562833333334, "type": "electric_bike", "fusion_lat": 0.0, "lat": 38.917038166666664, "name": "a8b163e38af899efe75a3baafa7e067d", "fusion_lon": 0.0, "bike_id": "a8b163e38af899efe75a3baafa7e067d", "is_disabled": 0, "is_reserved": 0}, {"rental_uris": {"ios": "https://dc.lft.to/lastmile_qr_scan", "android": "https://dc.lft.to/lastmile_qr_scan"}, "lon": -77.0345615, "type": "electric_scooter", "fusion_lat": 0.0, "lat": 38.9055135, "name": "a7f44d1dcf4a9b1fe38720015e93cf4b", "fusion_lon": 0.0, "bike_id": "a7f44d1dcf4a9b1fe38720015e93cf4b", "is_disabled": 0, "is_reserved": 0}, {"rental_uris": {"ios": "https://dc.lft.to/lastmile_qr_scan", "android": "https://dc.lft.to/lastmile_qr_scan"}, "lon": -77.12730933333333, "type": "electric_bike", "fusion_lat": 0.0, "lat": 38.895615, "name": "f2cbd21802fe330d549d06e114eb727f", "fusion_lon": 0.0, "bike_id": "f2cbd21802fe330d549d06e114eb727f", "is_disabled": 0, "is_reserved": 0}, {"rental_uris": {"ios": "https://dc.lft.to/lastmile_qr_scan", "android": "https://dc.lft.to/lastmile_qr_scan"}, "lon": -77.0448025, "type": "electric_scooter", "fusion_lat": 0.0, "lat": 38.9191315, "name": "d5e0cac68485c35e07448b58c517798a", "fusion_lon": 0.0, "bike_id": "d5e0cac68485c35e07448b58c517798a", "is_disabled": 0, "is_reserved": 0}, {"rental_uris": {"ios": "https://dc.lft.to/lastmile_qr_scan", "android": "https://dc.lft.to/lastmile_qr_scan"}, "lon": -77.00209233333334, "type": "electric_scooter", "fusion_lat": 0.0, "lat": 38.902192166666666, "name": "3f41ec0ce2420c136dd8e953763d64f2", "fusion_lon": 0.0, "bike_id": "3f41ec0ce2420c136dd8e953763d64f2", "is_disabled": 0, "is_reserved": 0}, {"rental_uris": {"ios": "https://dc.lft.to/lastmile_qr_scan", "android": "https://dc.lft.to/lastmile_qr_scan"}, "lon": -77.02466716666666, "type": "electric_scooter", "fusion_lat": 0.0, "lat": 38.899900333333335, "name": "45843e39891e31d76409886129eed58d", "fusion_lon": 0.0, "bike_id": "45843e39891e31d76409886129eed58d", "is_disabled": 0, "is_reserved": 0}, {"rental_uris": {"ios": "https://dc.lft.to/lastmile_qr_scan", "android": "https://dc.lft.to/lastmile_qr_scan"}, "lon": -77.0058305, "type": "electric_scooter", "fusion_lat": 0.0, "lat": 38.8720755, "name": "14d0e56aa3be326cbd0088adfe55bd06", "fusion_lon": 0.0, "bike_id": "14d0e56aa3be326cbd0088adfe55bd06", "is_disabled": 0, "is_reserved": 0}, {"rental_uris": {"ios": "https://dc.lft.to/lastmile_qr_scan", "android": "https://dc.lft.to/lastmile_qr_scan"}, "lon": -77.0357655, "type": "electric_scooter", "fusion_lat": 0.0, "lat": 38.92331266666667, "name": "c0a942be56b142aefa8fa26d1002e435", "fusion_lon": 0.0, "bike_id": "c0a942be56b142aefa8fa26d1002e435", "is_disabled": 0, "is_reserved": 0}, {"rental_uris": {"ios": "https://dc.lft.to/lastmile_qr_scan", "android": "https://dc.lft.to/lastmile_qr_scan"}, "lon": -76.948911, "type": "electric_scooter", "fusion_lat": 0.0, "lat": 38.895293333333335, "name": "574bd799ad98e481047025f131565853", "fusion_lon": 0.0, "bike_id": "574bd799ad98e481047025f131565853", "is_disabled": 0, "is_reserved": 0}, {"rental_uris": {"ios": "https://dc.lft.to/lastmile_qr_scan", "android": "https://dc.lft.to/lastmile_qr_scan"}, "lon": -77.02422916666667, "type": "electric_scooter", "fusion_lat": 0.0, "lat": 38.91826283333333, "name": "1e631db830267f23543906e4a6e72605", "fusion_lon": 0.0, "bike_id": "1e631db830267f23543906e4a6e72605", "is_disabled": 0, "is_reserved": 0}, {"rental_uris": {"ios": "https://dc.lft.to/lastmile_qr_scan", "android": "https://dc.lft.to/lastmile_qr_scan"}, "lon": -76.91662016666666, "type": "electric_bike", "fusion_lat": 0.0, "lat": 38.868578166666666, "name": "2ca65198f441755159d4141f264505ee", "fusion_lon": 0.0, "bike_id": "2ca65198f441755159d4141f264505ee", "is_disabled": 0, "is_reserved": 0}, {"rental_uris": {"ios": "https://dc.lft.to/lastmile_qr_scan", "android": "https://dc.lft.to/lastmile_qr_scan"}, "lon": -77.05015583333333, "type": "electric_scooter", "fusion_lat": 0.0, "lat": 38.90374033333333, "name": "4b2d36466f7ec4873da0798d88845b78", "fusion_lon": 0.0, "bike_id": "4b2d36466f7ec4873da0798d88845b78", "is_disabled": 0, "is_reserved": 0}, {"rental_uris": {"ios": "https://dc.lft.to/lastmile_qr_scan", "android": "https://dc.lft.to/lastmile_qr_scan"}, "lon": -76.99564583333333, "type": "electric_scooter", "fusion_lat": 0.0, "lat": 38.928771833333336, "name": "cfaee264efc73db9fe3e3545ce27dc6b", "fusion_lon": 0.0, "bike_id": "cfaee264efc73db9fe3e3545ce27dc6b", "is_disabled": 0, "is_reserved": 0}, {"rental_uris": {"ios": "https://dc.lft.to/lastmile_qr_scan", "android": "https://dc.lft.to/lastmile_qr_scan"}, "lon": -77.00739533333333, "type": "electric_scooter", "fusion_lat": 0.0, "lat": 38.9058445, "name": "ae7403c101e35635f7422dcd60e6ce6a", "fusion_lon": 0.0, "bike_id": "ae7403c101e35635f7422dcd60e6ce6a", "is_disabled": 0, "is_reserved": 0}, {"rental_uris": {"ios": "https://dc.lft.to/lastmile_qr_scan", "android": "https://dc.lft.to/lastmile_qr_scan"}, "lon": -76.93871833333333, "type": "electric_scooter", "fusion_lat": 0.0, "lat": 38.90084, "name": "1e6188f52b0230b5e23760521ab7a8f0", "fusion_lon": 0.0, "bike_id": "1e6188f52b0230b5e23760521ab7a8f0", "is_disabled": 0, "is_reserved": 0}, {"rental_uris": {"ios": "https://dc.lft.to/lastmile_qr_scan", "android": "https://dc.lft.to/lastmile_qr_scan"}, "lon": -77.01188, "type": "electric_scooter", "fusion_lat": 0.0, "lat": 38.900256166666665, "name": "bf57475e35808af736e3dfab366643f2", "fusion_lon": 0.0, "bike_id": "bf57475e35808af736e3dfab366643f2", "is_disabled": 0, "is_reserved": 0}, {"rental_uris": {"ios": "https://dc.lft.to/lastmile_qr_scan", "android": "https://dc.lft.to/lastmile_qr_scan"}, "lon": -77.037247, "type": "electric_scooter", "fusion_lat": 0.0, "lat": 38.91120316666667, "name": "bba45fb0b5831724ef1d2ad225fc75f5", "fusion_lon": 0.0, "bike_id": "bba45fb0b5831724ef1d2ad225fc75f5", "is_disabled": 0, "is_reserved": 0}, {"rental_uris": {"ios": "https://dc.lft.to/lastmile_qr_scan", "android": "https://dc.lft.to/lastmile_qr_scan"}, "lon": -77.02689183333334, "type": "electric_scooter", "fusion_lat": 0.0, "lat": 38.892145666666664, "name": "7b84caeac72f9e9bab2ec13f95fdd0f2", "fusion_lon": 0.0, "bike_id": "7b84caeac72f9e9bab2ec13f95fdd0f2", "is_disabled": 0, "is_reserved": 0}, {"rental_uris": {"ios": "https://dc.lft.to/lastmile_qr_scan", "android": "https://dc.lft.to/lastmile_qr_scan"}, "lon": -77.0295965, "type": "electric_scooter", "fusion_lat": 0.0, "lat": 38.9049575, "name": "de83b7f08ffda3f5e8097402fda7d40b", "fusion_lon": 0.0, "bike_id": "de83b7f08ffda3f5e8097402fda7d40b", "is_disabled": 0, "is_reserved": 0}, {"rental_uris": {"ios": "https://dc.lft.to/lastmile_qr_scan", "android": "https://dc.lft.to/lastmile_qr_scan"}, "lon": -76.99669816666666, "type": "electric_scooter", "fusion_lat": 0.0, "lat": 38.91012666666666, "name": "56aac28057ae38bcf6c30fb64b85ff93", "fusion_lon": 0.0, "bike_id": "56aac28057ae38bcf6c30fb64b85ff93", "is_disabled": 0, "is_reserved": 0}, {"rental_uris": {"ios": "https://dc.lft.to/lastmile_qr_scan", "android": "https://dc.lft.to/lastmile_qr_scan"}, "lon": -77.03430616666667, "type": "electric_scooter", "fusion_lat": 0.0, "lat": 38.919162, "name": "cca756d44168e4a2646567e8c0425cfc", "fusion_lon": 0.0, "bike_id": "cca756d44168e4a2646567e8c0425cfc", "is_disabled": 0, "is_reserved": 0}, {"rental_uris": {"ios": "https://dc.lft.to/lastmile_qr_scan", "android": "https://dc.lft.to/lastmile_qr_scan"}, "lon": -77.04191883333333, "type": "electric_scooter", "fusion_lat": 0.0, "lat": 38.92046666666667, "name": "4ba6931e7d7f46464d143ecc15eedfda", "fusion_lon": 0.0, "bike_id": "4ba6931e7d7f46464d143ecc15eedfda", "is_disabled": 0, "is_reserved": 0}, {"rental_uris": {"ios": "https://dc.lft.to/lastmile_qr_scan", "android": "https://dc.lft.to/lastmile_qr_scan"}, "lon": -77.04425616666667, "type": "electric_scooter", "fusion_lat": 0.0, "lat": 38.921166, "name": "c2d72332146160df6f2c63f4b1128f71", "fusion_lon": 0.0, "bike_id": "c2d72332146160df6f2c63f4b1128f71", "is_disabled": 0, "is_reserved": 0}, {"rental_uris": {"ios": "https://dc.lft.to/lastmile_qr_scan", "android": "https://dc.lft.to/lastmile_qr_scan"}, "lon": -77.03424733333334, "type": "electric_scooter", "fusion_lat": 0.0, "lat": 38.91923116666667, "name": "0eee22628e95ca9ad4cb41c51e7e4c21", "fusion_lon": 0.0, "bike_id": "0eee22628e95ca9ad4cb41c51e7e4c21", "is_disabled": 0, "is_reserved": 0}, {"rental_uris": {"ios": "https://dc.lft.to/lastmile_qr_scan", "android": "https://dc.lft.to/lastmile_qr_scan"}, "lon": -76.99486233333333, "type": "electric_scooter", "fusion_lat": 0.0, "lat": 38.9320285, "name": "1cc3b157abf53bfff66137ac9a6ae61a", "fusion_lon": 0.0, "bike_id": "1cc3b157abf53bfff66137ac9a6ae61a", "is_disabled": 0, "is_reserved": 0}, {"rental_uris": {"ios": "https://dc.lft.to/lastmile_qr_scan", "android": "https://dc.lft.to/lastmile_qr_scan"}, "lon": -77.02220216666667, "type": "electric_scooter", "fusion_lat": 0.0, "lat": 38.90572433333333, "name": "280690623d568b3035a893a23a15d2e8", "fusion_lon": 0.0, "bike_id": "280690623d568b3035a893a23a15d2e8", "is_disabled": 0, "is_reserved": 0}, {"rental_uris": {"ios": "https://dc.lft.to/lastmile_qr_scan", "android": "https://dc.lft.to/lastmile_qr_scan"}, "lon": -77.04453, "type": "electric_scooter", "fusion_lat": 0.0, "lat": 38.908699666666664, "name": "076a1a22681af9f725d3940b21e8eb8e", "fusion_lon": 0.0, "bike_id": "076a1a22681af9f725d3940b21e8eb8e", "is_disabled": 0, "is_reserved": 0}, {"rental_uris": {"ios": "https://dc.lft.to/lastmile_qr_scan", "android": "https://dc.lft.to/lastmile_qr_scan"}, "lon": -77.03165216666666, "type": "electric_scooter", "fusion_lat": 0.0, "lat": 38.9201935, "name": "e9221a66d7c716a5eb67590d600b32e0", "fusion_lon": 0.0, "bike_id": "e9221a66d7c716a5eb67590d600b32e0", "is_disabled": 0, "is_reserved": 0}, {"rental_uris": {"ios": "https://dc.lft.to/lastmile_qr_scan", "android": "https://dc.lft.to/lastmile_qr_scan"}, "lon": -77.05003983333333, "type": "electric_scooter", "fusion_lat": 0.0, "lat": 38.892276333333335, "name": "2e002c7e415a610dddb56bbb3021d107", "fusion_lon": 0.0, "bike_id": "2e002c7e415a610dddb56bbb3021d107", "is_disabled": 0, "is_reserved": 0}, {"rental_uris": {"ios": "https://dc.lft.to/lastmile_qr_scan", "android": "https://dc.lft.to/lastmile_qr_scan"}, "lon": -77.0301635, "type": "electric_scooter", "fusion_lat": 0.0, "lat": 38.89759033333333, "name": "8b5deb6f611ffb5a61f6b248ce1a3f25", "fusion_lon": 0.0, "bike_id": "8b5deb6f611ffb5a61f6b248ce1a3f25", "is_disabled": 0, "is_reserved": 0}, {"rental_uris": {"ios": "https://dc.lft.to/lastmile_qr_scan", "android": "https://dc.lft.to/lastmile_qr_scan"}, "lon": -77.02650833333334, "type": "electric_scooter", "fusion_lat": 0.0, "lat": 38.892242, "name": "3e90821db1bd206f7f6dc8631654c5ae", "fusion_lon": 0.0, "bike_id": "3e90821db1bd206f7f6dc8631654c5ae", "is_disabled": 0, "is_reserved": 0}, {"rental_uris": {"ios": "https://dc.lft.to/lastmile_qr_scan", "android": "https://dc.lft.to/lastmile_qr_scan"}, "lon": -76.93831366666667, "type": "electric_scooter", "fusion_lat": 0.0, "lat": 38.89761266666667, "name": "eccc9023010ba574ecc53de4c5d917a4", "fusion_lon": 0.0, "bike_id": "eccc9023010ba574ecc53de4c5d917a4", "is_disabled": 0, "is_reserved": 0}, {"rental_uris": {"ios": "https://dc.lft.to/lastmile_qr_scan", "android": "https://dc.lft.to/lastmile_qr_scan"}, "lon": -77.00115266666667, "type": "electric_scooter", "fusion_lat": 0.0, "lat": 38.894315, "name": "0343dab3c2c77ba82165a924b00eeb22", "fusion_lon": 0.0, "bike_id": "0343dab3c2c77ba82165a924b00eeb22", "is_disabled": 0, "is_reserved": 0}, {"rental_uris": {"ios": "https://dc.lft.to/lastmile_qr_scan", "android": "https://dc.lft.to/lastmile_qr_scan"}, "lon": -77.03147716666666, "type": "electric_scooter", "fusion_lat": 0.0, "lat": 38.892210666666664, "name": "d8648f0f7eedaf78ef10f04fb52cb550", "fusion_lon": 0.0, "bike_id": "d8648f0f7eedaf78ef10f04fb52cb550", "is_disabled": 0, "is_reserved": 0}, {"rental_uris": {"ios": "https://dc.lft.to/lastmile_qr_scan", "android": "https://dc.lft.to/lastmile_qr_scan"}, "lon": -76.99513216666666, "type": "electric_scooter", "fusion_lat": 0.0, "lat": 38.844686, "name": "25325deb98fe7648a81575ea6b9f3519", "fusion_lon": 0.0, "bike_id": "25325deb98fe7648a81575ea6b9f3519", "is_disabled": 0, "is_reserved": 0}, {"rental_uris": {"ios": "https://dc.lft.to/lastmile_qr_scan", "android": "https://dc.lft.to/lastmile_qr_scan"}, "lon": -77.0293595, "type": "electric_scooter", "fusion_lat": 0.0, "lat": 38.900073, "name": "6eff854a837bb82bcb1b19b94dd79c2a", "fusion_lon": 0.0, "bike_id": "6eff854a837bb82bcb1b19b94dd79c2a", "is_disabled": 0, "is_reserved": 0}, {"rental_uris": {"ios": "https://dc.lft.to/lastmile_qr_scan", "android": "https://dc.lft.to/lastmile_qr_scan"}, "lon": -77.03318716666666, "type": "electric_scooter", "fusion_lat": 0.0, "lat": 38.90157216666667, "name": "bd4520bd29e352d5d7cd71101e1a78e1", "fusion_lon": 0.0, "bike_id": "bd4520bd29e352d5d7cd71101e1a78e1", "is_disabled": 0, "is_reserved": 0}, {"rental_uris": {"ios": "https://dc.lft.to/lastmile_qr_scan", "android": "https://dc.lft.to/lastmile_qr_scan"}, "lon": -77.0301475, "type": "electric_scooter", "fusion_lat": 0.0, "lat": 38.9192455, "name": "6e336246c6fe37dfd434acb73184a477", "fusion_lon": 0.0, "bike_id": "6e336246c6fe37dfd434acb73184a477", "is_disabled": 0, "is_reserved": 0}, {"rental_uris": {"ios": "https://dc.lft.to/lastmile_qr_scan", "android": "https://dc.lft.to/lastmile_qr_scan"}, "lon": -77.0317835, "type": "electric_scooter", "fusion_lat": 0.0, "lat": 38.893400666666665, "name": "22d1b3a965afda793ca9433891f47b1e", "fusion_lon": 0.0, "bike_id": "22d1b3a965afda793ca9433891f47b1e", "is_disabled": 0, "is_reserved": 0}, {"rental_uris": {"ios": "https://dc.lft.to/lastmile_qr_scan", "android": "https://dc.lft.to/lastmile_qr_scan"}, "lon": -77.0321465, "type": "electric_scooter", "fusion_lat": 0.0, "lat": 38.915458, "name": "3ab4acf3da8978749cfaa72584aa32e1", "fusion_lon": 0.0, "bike_id": "3ab4acf3da8978749cfaa72584aa32e1", "is_disabled": 0, "is_reserved": 0}, {"rental_uris": {"ios": "https://dc.lft.to/lastmile_qr_scan", "android": "https://dc.lft.to/lastmile_qr_scan"}, "lon": -77.02441583333334, "type": "electric_scooter", "fusion_lat": 0.0, "lat": 38.918465166666664, "name": "06985b7b2ccdf0d6ec3415e3d7adcc8f", "fusion_lon": 0.0, "bike_id": "06985b7b2ccdf0d6ec3415e3d7adcc8f", "is_disabled": 0, "is_reserved": 0}, {"rental_uris": {"ios": "https://dc.lft.to/lastmile_qr_scan", "android": "https://dc.lft.to/lastmile_qr_scan"}, "lon": -76.98845416666667, "type": "electric_bike", "fusion_lat": 0.0, "lat": 38.84268266666667, "name": "660974379f4acfb5ec2a844fc1c3d5e4", "fusion_lon": 0.0, "bike_id": "660974379f4acfb5ec2a844fc1c3d5e4", "is_disabled": 0, "is_reserved": 0}, {"rental_uris": {"ios": "https://dc.lft.to/lastmile_qr_scan", "android": "https://dc.lft.to/lastmile_qr_scan"}, "lon": -76.97602266666667, "type": "electric_scooter", "fusion_lat": 0.0, "lat": 38.90206716666667, "name": "5e9988f2981fa4f2d09df50f4de391d8", "fusion_lon": 0.0, "bike_id": "5e9988f2981fa4f2d09df50f4de391d8", "is_disabled": 0, "is_reserved": 0}, {"rental_uris": {"ios": "https://dc.lft.to/lastmile_qr_scan", "android": "https://dc.lft.to/lastmile_qr_scan"}, "lon": -77.03651, "type": "electric_scooter", "fusion_lat": 0.0, "lat": 38.90276566666667, "name": "b660ac450f57087566be2ff279e13a84", "fusion_lon": 0.0, "bike_id": "b660ac450f57087566be2ff279e13a84", "is_disabled": 0, "is_reserved": 0}, {"rental_uris": {"ios": "https://dc.lft.to/lastmile_qr_scan", "android": "https://dc.lft.to/lastmile_qr_scan"}, "lon": -77.02818316666666, "type": "electric_scooter", "fusion_lat": 0.0, "lat": 38.9093365, "name": "0ea383fbeeb5f2a13406fc8ee470d430", "fusion_lon": 0.0, "bike_id": "0ea383fbeeb5f2a13406fc8ee470d430", "is_disabled": 0, "is_reserved": 0}, {"rental_uris": {"ios": "https://dc.lft.to/lastmile_qr_scan", "android": "https://dc.lft.to/lastmile_qr_scan"}, "lon": -77.0071515, "type": "electric_scooter", "fusion_lat": 0.0, "lat": 38.87681466666667, "name": "60bfac0f9f0128c5f0cb167937048ec8", "fusion_lon": 0.0, "bike_id": "60bfac0f9f0128c5f0cb167937048ec8", "is_disabled": 0, "is_reserved": 0}, {"rental_uris": {"ios": "https://dc.lft.to/lastmile_qr_scan", "android": "https://dc.lft.to/lastmile_qr_scan"}, "lon": -76.99895033333334, "type": "electric_scooter", "fusion_lat": 0.0, "lat": 38.9094745, "name": "b8b3c382d5e78b6f75a9daba9f5c908d", "fusion_lon": 0.0, "bike_id": "b8b3c382d5e78b6f75a9daba9f5c908d", "is_disabled": 0, "is_reserved": 0}, {"rental_uris": {"ios": "https://dc.lft.to/lastmile_qr_scan", "android": "https://dc.lft.to/lastmile_qr_scan"}, "lon": -77.05175216666666, "type": "electric_scooter", "fusion_lat": 0.0, "lat": 38.924208, "name": "e3d1fc5279feffd8db89a9dc29e5d26e", "fusion_lon": 0.0, "bike_id": "e3d1fc5279feffd8db89a9dc29e5d26e", "is_disabled": 0, "is_reserved": 0}, {"rental_uris": {"ios": "https://dc.lft.to/lastmile_qr_scan", "android": "https://dc.lft.to/lastmile_qr_scan"}, "lon": -77.02749016666667, "type": "electric_scooter", "fusion_lat": 0.0, "lat": 38.9662495, "name": "62a555491189b1227e2262e48abf5470", "fusion_lon": 0.0, "bike_id": "62a555491189b1227e2262e48abf5470", "is_disabled": 0, "is_reserved": 0}, {"rental_uris": {"ios": "https://dc.lft.to/lastmile_qr_scan", "android": "https://dc.lft.to/lastmile_qr_scan"}, "lon": -76.98499016666666, "type": "electric_scooter", "fusion_lat": 0.0, "lat": 38.86044, "name": "64838497988337e196cc673562ec93f9", "fusion_lon": 0.0, "bike_id": "64838497988337e196cc673562ec93f9", "is_disabled": 0, "is_reserved": 0}, {"rental_uris": {"ios": "https://dc.lft.to/lastmile_qr_scan", "android": "https://dc.lft.to/lastmile_qr_scan"}, "lon": -76.96880416666667, "type": "electric_bike", "fusion_lat": 0.0, "lat": 38.84596416666667, "name": "a795019bdcc4970b16474282e972d555", "fusion_lon": 0.0, "bike_id": "a795019bdcc4970b16474282e972d555", "is_disabled": 0, "is_reserved": 0}, {"rental_uris": {"ios": "https://dc.lft.to/lastmile_qr_scan", "android": "https://dc.lft.to/lastmile_qr_scan"}, "lon": -76.9954375, "type": "electric_scooter", "fusion_lat": 0.0, "lat": 38.9266715, "name": "aefa169f8df279d0ba03cdad6d713b88", "fusion_lon": 0.0, "bike_id": "aefa169f8df279d0ba03cdad6d713b88", "is_disabled": 0, "is_reserved": 0}, {"rental_uris": {"ios": "https://dc.lft.to/lastmile_qr_scan", "android": "https://dc.lft.to/lastmile_qr_scan"}, "lon": -77.10089066666667, "type": "electric_bike", "fusion_lat": 0.0, "lat": 38.9595235, "name": "ddabadd852b1b682fc3487a9f148c0d4", "fusion_lon": 0.0, "bike_id": "ddabadd852b1b682fc3487a9f148c0d4", "is_disabled": 0, "is_reserved": 0}, {"rental_uris": {"ios": "https://dc.lft.to/lastmile_qr_scan", "android": "https://dc.lft.to/lastmile_qr_scan"}, "lon": -77.02371083333334, "type": "electric_scooter", "fusion_lat": 0.0, "lat": 38.919571166666664, "name": "8914f22369767b76cf3d7c6c0598d17c", "fusion_lon": 0.0, "bike_id": "8914f22369767b76cf3d7c6c0598d17c", "is_disabled": 0, "is_reserved": 0}, {"rental_uris": {"ios": "https://dc.lft.to/lastmile_qr_scan", "android": "https://dc.lft.to/lastmile_qr_scan"}, "lon": -77.0366815, "type": "electric_scooter", "fusion_lat": 0.0, "lat": 38.9181635, "name": "3519365cefd3e110b386028840b8b5ad", "fusion_lon": 0.0, "bike_id": "3519365cefd3e110b386028840b8b5ad", "is_disabled": 0, "is_reserved": 0}, {"rental_uris": {"ios": "https://dc.lft.to/lastmile_qr_scan", "android": "https://dc.lft.to/lastmile_qr_scan"}, "lon": -77.0335475, "type": "electric_scooter", "fusion_lat": 0.0, "lat": 38.8995135, "name": "7a1a7a5572ddbd33c5051d3eb4f12070", "fusion_lon": 0.0, "bike_id": "7a1a7a5572ddbd33c5051d3eb4f12070", "is_disabled": 0, "is_reserved": 0}, {"rental_uris": {"ios": "https://dc.lft.to/lastmile_qr_scan", "android": "https://dc.lft.to/lastmile_qr_scan"}, "lon": -77.0366835, "type": "electric_scooter", "fusion_lat": 0.0, "lat": 38.91817833333333, "name": "6c171da667e9d9a6f14b3bd56cd47c14", "fusion_lon": 0.0, "bike_id": "6c171da667e9d9a6f14b3bd56cd47c14", "is_disabled": 0, "is_reserved": 0}, {"rental_uris": {"ios": "https://dc.lft.to/lastmile_qr_scan", "android": "https://dc.lft.to/lastmile_qr_scan"}, "lon": -77.03861333333333, "type": "electric_scooter", "fusion_lat": 0.0, "lat": 38.912047333333334, "name": "f847c1ffc031deecad62a3161655234d", "fusion_lon": 0.0, "bike_id": "f847c1ffc031deecad62a3161655234d", "is_disabled": 0, "is_reserved": 0}, {"rental_uris": {"ios": "https://dc.lft.to/lastmile_qr_scan", "android": "https://dc.lft.to/lastmile_qr_scan"}, "lon": -77.00576066666666, "type": "electric_scooter", "fusion_lat": 0.0, "lat": 38.905674833333336, "name": "0fbff4e49ca256509247850f2d61c1f9", "fusion_lon": 0.0, "bike_id": "0fbff4e49ca256509247850f2d61c1f9", "is_disabled": 0, "is_reserved": 0}, {"rental_uris": {"ios": "https://dc.lft.to/lastmile_qr_scan", "android": "https://dc.lft.to/lastmile_qr_scan"}, "lon": -76.98689316666666, "type": "electric_scooter", "fusion_lat": 0.0, "lat": 38.91285116666667, "name": "7462f3ab46f4ddff8549c06b884fec5e", "fusion_lon": 0.0, "bike_id": "7462f3ab46f4ddff8549c06b884fec5e", "is_disabled": 0, "is_reserved": 0}, {"rental_uris": {"ios": "https://dc.lft.to/lastmile_qr_scan", "android": "https://dc.lft.to/lastmile_qr_scan"}, "lon": -77.032104, "type": "electric_scooter", "fusion_lat": 0.0, "lat": 38.9258175, "name": "5993919000d558edb072bd180f93e58f", "fusion_lon": 0.0, "bike_id": "5993919000d558edb072bd180f93e58f", "is_disabled": 0, "is_reserved": 0}, {"rental_uris": {"ios": "https://dc.lft.to/lastmile_qr_scan", "android": "https://dc.lft.to/lastmile_qr_scan"}, "lon": -77.11315533333334, "type": "electric_bike", "fusion_lat": 0.0, "lat": 38.8556355, "name": "61e2849bbb1d84d5bc0911bc61e967b5", "fusion_lon": 0.0, "bike_id": "61e2849bbb1d84d5bc0911bc61e967b5", "is_disabled": 0, "is_reserved": 0}, {"rental_uris": {"ios": "https://dc.lft.to/lastmile_qr_scan", "android": "https://dc.lft.to/lastmile_qr_scan"}, "lon": -77.010901, "type": "electric_scooter", "fusion_lat": 0.0, "lat": 38.893952666666664, "name": "d5878172e6b4fb88bc67610ec32c331d", "fusion_lon": 0.0, "bike_id": "d5878172e6b4fb88bc67610ec32c331d", "is_disabled": 0, "is_reserved": 0}, {"rental_uris": {"ios": "https://dc.lft.to/lastmile_qr_scan", "android": "https://dc.lft.to/lastmile_qr_scan"}, "lon": -77.0688285, "type": "electric_scooter", "fusion_lat": 0.0, "lat": 38.905118333333334, "name": "66248efa6251d985d075c923ab7368e1", "fusion_lon": 0.0, "bike_id": "66248efa6251d985d075c923ab7368e1", "is_disabled": 0, "is_reserved": 0}, {"rental_uris": {"ios": "https://dc.lft.to/lastmile_qr_scan", "android": "https://dc.lft.to/lastmile_qr_scan"}, "lon": -77.0299, "type": "electric_bike", "fusion_lat": 0.0, "lat": 38.90034516666667, "name": "1eda1fb911fb878d126d4ba068441f01", "fusion_lon": 0.0, "bike_id": "1eda1fb911fb878d126d4ba068441f01", "is_disabled": 0, "is_reserved": 0}, {"rental_uris": {"ios": "https://dc.lft.to/lastmile_qr_scan", "android": "https://dc.lft.to/lastmile_qr_scan"}, "lon": -77.03960066666667, "type": "electric_scooter", "fusion_lat": 0.0, "lat": 38.89248683333334, "name": "1b40ad2cbb770eb3a3adfa3d70d4bd0d", "fusion_lon": 0.0, "bike_id": "1b40ad2cbb770eb3a3adfa3d70d4bd0d", "is_disabled": 0, "is_reserved": 0}, {"rental_uris": {"ios": "https://dc.lft.to/lastmile_qr_scan", "android": "https://dc.lft.to/lastmile_qr_scan"}, "lon": -77.04479816666667, "type": "electric_scooter", "fusion_lat": 0.0, "lat": 38.90664483333333, "name": "3f2562704cce64e02e8a25bfd41fd370", "fusion_lon": 0.0, "bike_id": "3f2562704cce64e02e8a25bfd41fd370", "is_disabled": 0, "is_reserved": 0}, {"rental_uris": {"ios": "https://dc.lft.to/lastmile_qr_scan", "android": "https://dc.lft.to/lastmile_qr_scan"}, "lon": -76.98834716666667, "type": "electric_scooter", "fusion_lat": 0.0, "lat": 38.880264333333336, "name": "bea2330ad9f04e431cfc8ce6ac89fbc8", "fusion_lon": 0.0, "bike_id": "bea2330ad9f04e431cfc8ce6ac89fbc8", "is_disabled": 0, "is_reserved": 0}, {"rental_uris": {"ios": "https://dc.lft.to/lastmile_qr_scan", "android": "https://dc.lft.to/lastmile_qr_scan"}, "lon": -77.03266966666666, "type": "electric_scooter", "fusion_lat": 0.0, "lat": 38.92168983333333, "name": "3dffc63f0ab13c7d42e7cd29dd9c3f30", "fusion_lon": 0.0, "bike_id": "3dffc63f0ab13c7d42e7cd29dd9c3f30", "is_disabled": 0, "is_reserved": 0}, {"rental_uris": {"ios": "https://dc.lft.to/lastmile_qr_scan", "android": "https://dc.lft.to/lastmile_qr_scan"}, "lon": -77.02419966666666, "type": "electric_scooter", "fusion_lat": 0.0, "lat": 38.884916, "name": "1defd3f8cf1edd09c3c2e6dc4474c4f9", "fusion_lon": 0.0, "bike_id": "1defd3f8cf1edd09c3c2e6dc4474c4f9", "is_disabled": 0, "is_reserved": 0}, {"rental_uris": {"ios": "https://dc.lft.to/lastmile_qr_scan", "android": "https://dc.lft.to/lastmile_qr_scan"}, "lon": -77.01838183333334, "type": "electric_bike", "fusion_lat": 0.0, "lat": 38.90863316666667, "name": "ee14a8020cb46f07bf60c5dc103802f5", "fusion_lon": 0.0, "bike_id": "ee14a8020cb46f07bf60c5dc103802f5", "is_disabled": 0, "is_reserved": 0}, {"rental_uris": {"ios": "https://dc.lft.to/lastmile_qr_scan", "android": "https://dc.lft.to/lastmile_qr_scan"}, "lon": -77.04660383333334, "type": "electric_scooter", "fusion_lat": 0.0, "lat": 38.89341666666667, "name": "5ed1fda1637b2e46e01d03e68373898d", "fusion_lon": 0.0, "bike_id": "5ed1fda1637b2e46e01d03e68373898d", "is_disabled": 0, "is_reserved": 0}, {"rental_uris": {"ios": "https://dc.lft.to/lastmile_qr_scan", "android": "https://dc.lft.to/lastmile_qr_scan"}, "lon": -77.03224783333333, "type": "electric_scooter", "fusion_lat": 0.0, "lat": 38.918134, "name": "3b6f7eb4b61bbfef72f1d1db81deb97d", "fusion_lon": 0.0, "bike_id": "3b6f7eb4b61bbfef72f1d1db81deb97d", "is_disabled": 0, "is_reserved": 0}, {"rental_uris": {"ios": "https://dc.lft.to/lastmile_qr_scan", "android": "https://dc.lft.to/lastmile_qr_scan"}, "lon": -77.02217366666666, "type": "electric_scooter", "fusion_lat": 0.0, "lat": 38.90570116666667, "name": "8cfb74ad7969f64a66b5f0d10c5fad89", "fusion_lon": 0.0, "bike_id": "8cfb74ad7969f64a66b5f0d10c5fad89", "is_disabled": 0, "is_reserved": 0}, {"rental_uris": {"ios": "https://dc.lft.to/lastmile_qr_scan", "android": "https://dc.lft.to/lastmile_qr_scan"}, "lon": -77.049026, "type": "electric_scooter", "fusion_lat": 0.0, "lat": 38.905342833333336, "name": "8df2f06482aacf2607f1422c10ae561e", "fusion_lon": 0.0, "bike_id": "8df2f06482aacf2607f1422c10ae561e", "is_disabled": 0, "is_reserved": 0}, {"rental_uris": {"ios": "https://dc.lft.to/lastmile_qr_scan", "android": "https://dc.lft.to/lastmile_qr_scan"}, "lon": -77.00214816666667, "type": "electric_scooter", "fusion_lat": 0.0, "lat": 38.90018166666667, "name": "4f616f558eb5adbfacfb3cec15f9838d", "fusion_lon": 0.0, "bike_id": "4f616f558eb5adbfacfb3cec15f9838d", "is_disabled": 0, "is_reserved": 0}, {"rental_uris": {"ios": "https://dc.lft.to/lastmile_qr_scan", "android": "https://dc.lft.to/lastmile_qr_scan"}, "lon": -77.10685316666667, "type": "electric_bike", "fusion_lat": 0.0, "lat": 38.935805333333334, "name": "baf1b67071d2c34e06621da1dcb4595e", "fusion_lon": 0.0, "bike_id": "baf1b67071d2c34e06621da1dcb4595e", "is_disabled": 0, "is_reserved": 0}, {"rental_uris": {"ios": "https://dc.lft.to/lastmile_qr_scan", "android": "https://dc.lft.to/lastmile_qr_scan"}, "lon": -77.0108435, "type": "electric_scooter", "fusion_lat": 0.0, "lat": 38.89480483333333, "name": "a207ece66402bb786c21bd0858a3c7e6", "fusion_lon": 0.0, "bike_id": "a207ece66402bb786c21bd0858a3c7e6", "is_disabled": 0, "is_reserved": 0}, {"rental_uris": {"ios": "https://dc.lft.to/lastmile_qr_scan", "android": "https://dc.lft.to/lastmile_qr_scan"}, "lon": -77.04270533333333, "type": "electric_scooter", "fusion_lat": 0.0, "lat": 38.90288866666667, "name": "17889c5c172930ad75c350876e1c9ec7", "fusion_lon": 0.0, "bike_id": "17889c5c172930ad75c350876e1c9ec7", "is_disabled": 0, "is_reserved": 0}, {"rental_uris": {"ios": "https://dc.lft.to/lastmile_qr_scan", "android": "https://dc.lft.to/lastmile_qr_scan"}, "lon": -76.99682016666667, "type": "electric_scooter", "fusion_lat": 0.0, "lat": 38.90499466666667, "name": "6fc5fc08d139d7ba7b889bd37d72fb51", "fusion_lon": 0.0, "bike_id": "6fc5fc08d139d7ba7b889bd37d72fb51", "is_disabled": 0, "is_reserved": 0}, {"rental_uris": {"ios": "https://dc.lft.to/lastmile_qr_scan", "android": "https://dc.lft.to/lastmile_qr_scan"}, "lon": -77.0512645, "type": "electric_scooter", "fusion_lat": 0.0, "lat": 38.923598166666665, "name": "da131aaecf2a42bc1ef75e10f0d01c6a", "fusion_lon": 0.0, "bike_id": "da131aaecf2a42bc1ef75e10f0d01c6a", "is_disabled": 0, "is_reserved": 0}, {"rental_uris": {"ios": "https://dc.lft.to/lastmile_qr_scan", "android": "https://dc.lft.to/lastmile_qr_scan"}, "lon": -77.044754, "type": "electric_scooter", "fusion_lat": 0.0, "lat": 38.9111705, "name": "d6ec4831e46f39bdf844e58fe00dd29c", "fusion_lon": 0.0, "bike_id": "d6ec4831e46f39bdf844e58fe00dd29c", "is_disabled": 0, "is_reserved": 0}, {"rental_uris": {"ios": "https://dc.lft.to/lastmile_qr_scan", "android": "https://dc.lft.to/lastmile_qr_scan"}, "lon": -77.031757, "type": "electric_scooter", "fusion_lat": 0.0, "lat": 38.9183715, "name": "1fecee222c9d53c6e80d433118e4e827", "fusion_lon": 0.0, "bike_id": "1fecee222c9d53c6e80d433118e4e827", "is_disabled": 0, "is_reserved": 0}, {"rental_uris": {"ios": "https://dc.lft.to/lastmile_qr_scan", "android": "https://dc.lft.to/lastmile_qr_scan"}, "lon": -77.02001266666667, "type": "electric_scooter", "fusion_lat": 0.0, "lat": 38.90031833333333, "name": "2173aabde5c7c32b9f1255f57b3a129a", "fusion_lon": 0.0, "bike_id": "2173aabde5c7c32b9f1255f57b3a129a", "is_disabled": 0, "is_reserved": 0}, {"rental_uris": {"ios": "https://dc.lft.to/lastmile_qr_scan", "android": "https://dc.lft.to/lastmile_qr_scan"}, "lon": -76.99869166666667, "type": "electric_scooter", "fusion_lat": 0.0, "lat": 38.900325333333335, "name": "23740b4665ae21479086cd0b3feebd91", "fusion_lon": 0.0, "bike_id": "23740b4665ae21479086cd0b3feebd91", "is_disabled": 0, "is_reserved": 0}, {"rental_uris": {"ios": "https://dc.lft.to/lastmile_qr_scan", "android": "https://dc.lft.to/lastmile_qr_scan"}, "lon": -76.91119216666667, "type": "electric_bike", "fusion_lat": 0.0, "lat": 39.010392833333334, "name": "2af8ee094f50ad9a3fdd161f7a4c19ca", "fusion_lon": 0.0, "bike_id": "2af8ee094f50ad9a3fdd161f7a4c19ca", "is_disabled": 0, "is_reserved": 0}, {"rental_uris": {"ios": "https://dc.lft.to/lastmile_qr_scan", "android": "https://dc.lft.to/lastmile_qr_scan"},