{"data": {"bikes": [{"rental_uris": {"ios": "https://dc.lft.to/lastmile_qr_scan", "android": "https://dc.lft.to/lastmile_qr_scan"}, "lon": -77.04321533333334, "type": "electric_scooter", "fusion_lat": 0.0, "lat": 38.92619333333333, "name": "c10881187fe4a821c1dd7763d64fcf81", "fusion_lon": 0.0, "bike_id": "c10881187fe4a821c1dd7763d64fcf81", "is_disabled": 0, "is_reserved": 0}, {"rental_uris": {"ios": "https://dc.lft.to/lastmile_qr_scan", "android": "https://dc.lft.to/lastmile_qr_scan"}, "lon": -77.0463445, "type": "electric_scooter", "fusion_lat": 0.0, "lat": 38.892232166666666, "name": "168a492b5c1a8cee1fcfac1eafd31fa7", "fusion_lon": 0.0, "bike_id": "168a492b5c1a8cee1fcfac1eafd31fa7", "is_disabled": 0, "is_reserved": 0}, {"rental_uris": {"ios": "https://dc.lft.to/lastmile_qr_scan", "android": "https://dc.lft.to/lastmile_qr_scan"}, "lon": -77.04653683333333, "type": "electric_scooter", "fusion_lat": 0.0, "lat": 38.89638466666667, "name": "beff20256304ac65b58c1389f29d29bb", "fusion_lon": 0.0, "bike_id": "beff20256304ac65b58c1389f29d29bb", "is_disabled": 0, "is_reserved": 0}, {"rental_uris": {"ios": "https://dc.lft.to/lastmile_qr_scan", "android": "https://dc.lft.to/lastmile_qr_scan"}, "lon": -76.98372366666666, "type": "electric_scooter", "fusion_lat": 0.0, "lat": 38.86030816666667, "name": "b230b4dc245a80c3dc4034624f844bb8", "fusion_lon": 0.0, "bike_id": "b230b4dc245a80c3dc4034624f844bb8", "is_disabled": 0, "is_reserved": 0}, {"rental_uris": {"ios": "https://dc.lft.to/lastmile_qr_scan", "android": "https://dc.lft.to/lastmile_qr_scan"}, "lon": -77.040445, "type": "electric_bike", "fusion_lat": 0.0, "lat": 38.804205333333336, "name": "3814da49235087bb5122e7042cbbc127", "fusion_lon": 0.0, "bike_id": "3814da49235087bb5122e7042cbbc127", "is_disabled": 0, "is_reserved": 0}, {"rental_uris": {"ios": "https://dc.lft.to/lastmile_qr_scan", "android": "https://dc.lft.to/lastmile_qr_scan"}, "lon": -76.97504866666667, "type": "electric_bike", "fusion_lat": 0.0, "lat": 38.919310333333335, "name": "c958293f11022b408b3d977b268f3108", "fusion_lon": 0.0, "bike_id": "c958293f11022b408b3d977b268f3108", "is_disabled": 0, "is_reserved": 0}, {"rental_uris": {"ios": "https://dc.lft.to/lastmile_qr_scan", "android": "https://dc.lft.to/lastmile_qr_scan"}, "lon": -76.97324016666667, "type": "electric_scooter", "fusion_lat": 0.0, "lat": 38.93029816666667, "name": "b25d302eabd6409003d623866780a5c9", "fusion_lon": 0.0, "bike_id": "b25d302eabd6409003d623866780a5c9", "is_disabled": 0, "is_reserved": 0}, {"rental_uris": {"ios": "https://dc.lft.to/lastmile_qr_scan", "android": "https://dc.lft.to/lastmile_qr_scan"}, "lon": -77.042675, "type": "electric_scooter", "fusion_lat": 0.0, "lat": 38.908452, "name": "ae5b6795029728b01d1ea4cdbaf4fe59", "fusion_lon": 0.0, "bike_id": "ae5b6795029728b01d1ea4cdbaf4fe59", "is_disabled": 0, "is_reserved": 0}, {"rental_uris": {"ios": "https://dc.lft.to/lastmile_qr_scan", "android": "https://dc.lft.to/lastmile_qr_scan"}, "lon": -76.97562333333333, "type": "electric_scooter", "fusion_lat": 0.0, "lat": 38.904449166666666, "name": "14c48acd79623283b71e90209a9a8943", "fusion_lon": 0.0, "bike_id": "14c48acd79623283b71e90209a9a8943", "is_disabled": 0, "is_reserved": 0}, {"rental_uris": {"ios": "https://dc.lft.to/lastmile_qr_scan", "android": "https://dc.lft.to/lastmile_qr_scan"}, "lon": -76.99607583333334, "type": "electric_scooter", "fusion_lat": 0.0, "lat": 38.88624166666666, "name": "fce716297b5e80e2d25065f5246b87f7", "fusion_lon": 0.0, "bike_id": "fce716297b5e80e2d25065f5246b87f7", "is_disabled": 0, "is_reserved": 0}, {"rental_uris": {"ios": "https://dc.lft.to/lastmile_qr_scan", "android": "https://dc.lft.to/lastmile_qr_scan"}, "lon": -77.04490366666667, "type": "electric_scooter", "fusion_lat": 0.0, "lat": 38.915208666666665, "name": "14a15988e794fd91aeb1f96afbc4bc79", "fusion_lon": 0.0, "bike_id": "14a15988e794fd91aeb1f96afbc4bc79", "is_disabled": 0, "is_reserved": 0}, {"rental_uris": {"ios": "https://dc.lft.to/lastmile_qr_scan", "android": "https://dc.lft.to/lastmile_qr_scan"}, "lon": -77.01095416666666, "type": "electric_scooter", "fusion_lat": 0.0, "lat": 38.91564316666667, "name": "c4f070cd3306cbc679df933b9b7da9d8", "fusion_lon": 0.0, "bike_id": "c4f070cd3306cbc679df933b9b7da9d8", "is_disabled": 0, "is_reserved": 0}, {"rental_uris": {"ios": "https://dc.lft.to/lastmile_qr_scan", "android": "https://dc.lft.to/lastmile_qr_scan"}, "lon": -76.98565616666667, "type": "electric_scooter", "fusion_lat": 0.0, "lat": 38.86150283333333, "name": "bc4da07ad10ea92f7faf45e37aebdc8c", "fusion_lon": 0.0, "bike_id": "bc4da07ad10ea92f7faf45e37aebdc8c", "is_disabled": 0, "is_reserved": 0}, {"rental_uris": {"ios": "https://dc.lft.to/lastmile_qr_scan", "android": "https://dc.lft.to/lastmile_qr_scan"}, "lon": -77.047383, "type": "electric_scooter", "fusion_lat": 0.0, "lat": 38.90735933333333, "name": "ac6ca3adf2c4f0c1dbd88c76d2197d9e", "fusion_lon": 0.0, "bike_id": "ac6ca3adf2c4f0c1dbd88c76d2197d9e", "is_disabled": 0, "is_reserved": 0}, {"rental_uris": {"ios": "https://dc.lft.to/lastmile_qr_scan", "android": "https://dc.lft.to/lastmile_qr_scan"}, "lon": -77.00783566666667, "type": "electric_scooter", "fusion_lat": 0.0, "lat": 38.9074665, "name": "422668621f7965c5df960ff737c08d2f", "fusion_lon": 0.0, "bike_id": "422668621f7965c5df960ff737c08d2f", "is_disabled": 0, "is_reserved": 0}, {"rental_uris": {"ios": "https://dc.lft.to/lastmile_qr_scan", "android": "https://dc.lft.to/lastmile_qr_scan"}, "lon": -77.00596066666667, "type": "electric_scooter", "fusion_lat": 0.0, "lat": 38.9055275, "name": "4ed3fde0d30c37f5785decdc67b076f6", "fusion_lon": 0.0, "bike_id": "4ed3fde0d30c37f5785decdc67b076f6", "is_disabled": 0, "is_reserved": 0}, {"rental_uris": {"ios": "https://dc.lft.to/lastmile_qr_scan", "android": "https://dc.lft.to/lastmile_qr_scan"}, "lon": -77.06096483333333, "type": "electric_scooter", "fusion_lat": 0.0, "lat": 38.91214733333333, "name": "524f13fc8c78f383d677d281947d0fed", "fusion_lon": 0.0, "bike_id": "524f13fc8c78f383d677d281947d0fed", "is_disabled": 0, "is_reserved": 0}, {"rental_uris": {"ios": "https://dc.lft.to/lastmile_qr_scan", "android": "https://dc.lft.to/lastmile_qr_scan"}, "lon": -77.04543366666667, "type": "electric_scooter", "fusion_lat": 0.0, "lat": 38.9194995, "name": "36a89b627a55cb5af12be75265fe7e70", "fusion_lon": 0.0, "bike_id": "36a89b627a55cb5af12be75265fe7e70", "is_disabled": 0, "is_reserved": 0}, {"rental_uris": {"ios": "https://dc.lft.to/lastmile_qr_scan", "android": "https://dc.lft.to/lastmile_qr_scan"}, "lon": -76.93535166666666, "type": "electric_scooter", "fusion_lat": 0.0, "lat": 38.89680833333333, "name": "2525691379d7fefba166ca40f830f1dc", "fusion_lon": 0.0, "bike_id": "2525691379d7fefba166ca40f830f1dc", "is_disabled": 0, "is_reserved": 0}, {"rental_uris": {"ios": "https://dc.lft.to/lastmile_qr_scan", "android": "https://dc.lft.to/lastmile_qr_scan"}, "lon": -77.026404, "type": "electric_scooter", "fusion_lat": 0.0, "lat": 38.88426833333333, "name": "0ee7f4180ff5e76378442f550d4747c5", "fusion_lon": 0.0, "bike_id": "0ee7f4180ff5e76378442f550d4747c5", "is_disabled": 0, "is_reserved": 0}, {"rental_uris": {"ios": "https://dc.lft.to/lastmile_qr_scan", "android": "https://dc.lft.to/lastmile_qr_scan"}, "lon": -77.05267583333334, "type": "electric_scooter", "fusion_lat": 0.0, "lat": 38.91016783333333, "name": "b9d62944a11bdef74e0a885fce0d069c", "fusion_lon": 0.0, "bike_id": "b9d62944a11bdef74e0a885fce0d069c", "is_disabled": 0, "is_reserved": 0}, {"rental_uris": {"ios": "https://dc.lft.to/lastmile_qr_scan", "android": "https://dc.lft.to/lastmile_qr_scan"}, "lon": -76.9732845, "type": "electric_bike", "fusion_lat": 0.0, "lat": 38.850620666666664, "name": "3acc713d36ee51a8bef3476133b417e9", "fusion_lon": 0.0, "bike_id": "3acc713d36ee51a8bef3476133b417e9", "is_disabled": 0, "is_reserved": 0}, {"rental_uris": {"ios": "https://dc.lft.to/lastmile_qr_scan", "android": "https://dc.lft.to/lastmile_qr_scan"}, "lon": -77.0204685, "type": "electric_scooter", "fusion_lat": 0.0, "lat": 38.91557733333333, "name": "26288750c3d5555ff5c1756affd3de65", "fusion_lon": 0.0, "bike_id": "26288750c3d5555ff5c1756affd3de65", "is_disabled": 0, "is_reserved": 0}, {"rental_uris": {"ios": "https://dc.lft.to/lastmile_qr_scan", "android": "https://dc.lft.to/lastmile_qr_scan"}, "lon": -77.03181283333333, "type": "electric_scooter", "fusion_lat": 0.0, "lat": 38.9173695, "name": "84e55baa95a6936d7e76f92c0a23b655", "fusion_lon": 0.0, "bike_id": "84e55baa95a6936d7e76f92c0a23b655", "is_disabled": 0, "is_reserved": 0}, {"rental_uris": {"ios": "https://dc.lft.to/lastmile_qr_scan", "android": "https://dc.lft.to/lastmile_qr_scan"}, "lon": -77.03967483333334, "type": "electric_scooter", "fusion_lat": 0.0, "lat": 38.902687, "name": "7b32e4c67ce2035ae3a856805a95c696", "fusion_lon": 0.0, "bike_id": "7b32e4c67ce2035ae3a856805a95c696", "is_disabled": 0, "is_reserved": 0}, {"rental_uris": {"ios": "https://dc.lft.to/lastmile_qr_scan", "android": "https://dc.lft.to/lastmile_qr_scan"}, "lon": -76.98092666666666, "type": "electric_bike", "fusion_lat": 0.0, "lat": 38.8813655, "name": "95ce34772260cc931a9c1c3526033caa", "fusion_lon": 0.0, "bike_id": "95ce34772260cc931a9c1c3526033caa", "is_disabled": 0, "is_reserved": 0}, {"rental_uris": {"ios": "https://dc.lft.to/lastmile_qr_scan", "android": "https://dc.lft.to/lastmile_qr_scan"}, "lon": -77.00600466666667, "type": "electric_scooter", "fusion_lat": 0.0, "lat": 38.884920666666666, "name": "0f8599b57851085d7397ab08a365ec58", "fusion_lon": 0.0, "bike_id": "0f8599b57851085d7397ab08a365ec58", "is_disabled": 0, "is_reserved": 0}, {"rental_uris": {"ios": "https://dc.lft.to/lastmile_qr_scan", "android": "https://dc.lft.to/lastmile_qr_scan"}, "lon": -77.03660033333334, "type": "electric_scooter", "fusion_lat": 0.0, "lat": 38.91812483333333, "name": "d90e03413e79f9aa946c04e30249dd07", "fusion_lon": 0.0, "bike_id": "d90e03413e79f9aa946c04e30249dd07", "is_disabled": 0, "is_reserved": 0}, {"rental_uris": {"ios": "https://dc.lft.to/lastmile_qr_scan", "android": "https://dc.lft.to/lastmile_qr_scan"}, "lon": -77.03722883333333, "type": "electric_scooter", "fusion_lat": 0.0, "lat": 38.90698233333333, "name": "db4f31dcc18f0c09c380fe9fbe95ff39", "fusion_lon": 0.0, "bike_id": "db4f31dcc18f0c09c380fe9fbe95ff39", "is_disabled": 0, "is_reserved": 0}, {"rental_uris": {"ios": "https://dc.lft.to/lastmile_qr_scan", "android": "https://dc.lft.to/lastmile_qr_scan"}, "lon": -77.03842716666666, "type": "electric_scooter", "fusion_lat": 0.0, "lat": 38.90748816666667, "name": "322b27a5195f047fa43efb3086f87d7d", "fusion_lon": 0.0, "bike_id": "322b27a5195f047fa43efb3086f87d7d", "is_disabled": 0, "is_reserved": 0}, {"rental_uris": {"ios": "https://dc.lft.to/lastmile_qr_scan", "android": "https://dc.lft.to/lastmile_qr_scan"}, "lon": -77.0277405, "type": "electric_scooter", "fusion_lat": 0.0, "lat": 38.9538395, "name": "134c3f7699cf393f315d3b9e37957ae8", "fusion_lon": 0.0, "bike_id": "134c3f7699cf393f315d3b9e37957ae8", "is_disabled": 0, "is_reserved": 0}, {"rental_uris": {"ios": "https://dc.lft.to/lastmile_qr_scan", "android": "https://dc.lft.to/lastmile_qr_scan"}, "lon": -77.077196, "type": "electric_scooter", "fusion_lat": 0.0, "lat": 38.947046666666665, "name": "d935ce8177b22912e9d31edb752d230b", "fusion_lon": 0.0, "bike_id": "d935ce8177b22912e9d31edb752d230b", "is_disabled": 0, "is_reserved": 0}, {"rental_uris": {"ios": "https://dc.lft.to/lastmile_qr_scan", "android": "https://dc.lft.to/lastmile_qr_scan"}, "lon": -77.0254205, "type": "electric_scooter", "fusion_lat": 0.0, "lat": 38.92402116666667, "name": "93debd5da7b5b718473dade2b0516dd4", "fusion_lon": 0.0, "bike_id": "93debd5da7b5b718473dade2b0516dd4", "is_disabled": 0, "is_reserved": 0}, {"rental_uris": {"ios": "https://dc.lft.to/lastmile_qr_scan", "android": "https://dc.lft.to/lastmile_qr_scan"}, "lon": -76.97304416666667, "type": "electric_scooter", "fusion_lat": 0.0, "lat": 38.91985583333334, "name": "c04ce2812267f661bfa0db41b6fc417f", "fusion_lon": 0.0, "bike_id": "c04ce2812267f661bfa0db41b6fc417f", "is_disabled": 0, "is_reserved": 0}, {"rental_uris": {"ios": "https://dc.lft.to/lastmile_qr_scan", "android": "https://dc.lft.to/lastmile_qr_scan"}, "lon": -77.03460433333333, "type": "electric_scooter", "fusion_lat": 0.0, "lat": 38.9234825, "name": "bf2241eff7502e1f7ebcd58cd825bead", "fusion_lon": 0.0, "bike_id": "bf2241eff7502e1f7ebcd58cd825bead", "is_disabled": 0, "is_reserved": 0}, {"rental_uris": {"ios": "https://dc.lft.to/lastmile_qr_scan", "android": "https://dc.lft.to/lastmile_qr_scan"}, "lon": -77.07099366666667, "type": "electric_bike", "fusion_lat": 0.0, "lat": 38.914507, "name": "6db69b7456509065e97985ffca336498", "fusion_lon": 0.0, "bike_id": "6db69b7456509065e97985ffca336498", "is_disabled": 0, "is_reserved": 0}, {"rental_uris": {"ios": "https://dc.lft.to/lastmile_qr_scan", "android": "https://dc.lft.to/lastmile_qr_scan"}, "lon": -77.02182016666667, "type": "electric_scooter", "fusion_lat": 0.0, "lat": 38.8803695, "name": "9ecef48826c40362dd29cb2937792173", "fusion_lon": 0.0, "bike_id": "9ecef48826c40362dd29cb2937792173", "is_disabled": 0, "is_reserved": 0}, {"rental_uris": {"ios": "https://dc.lft.to/lastmile_qr_scan", "android": "https://dc.lft.to/lastmile_qr_scan"}, "lon": -77.0477435, "type": "electric_scooter", "fusion_lat": 0.0, "lat": 38.8996235, "name": "270e301c981c4451553c1900ccf0ec34", "fusion_lon": 0.0, "bike_id": "270e301c981c4451553c1900ccf0ec34", "is_disabled": 0, "is_reserved": 0}, {"rental_uris": {"ios": "https://dc.lft.to/lastmile_qr_scan", "android": "https://dc.lft.to/lastmile_qr_scan"}, "lon": -77.033631, "type": "electric_scooter", "fusion_lat": 0.0, "lat": 38.93219716666667, "name": "faa38fa6a2fc85b3f0f62647c2205c9e", "fusion_lon": 0.0, "bike_id": "faa38fa6a2fc85b3f0f62647c2205c9e", "is_disabled": 0, "is_reserved": 0}, {"rental_uris": {"ios": "https://dc.lft.to/lastmile_qr_scan", "android": "https://dc.lft.to/lastmile_qr_scan"}, "lon": -77.03769816666667, "type": "electric_bike", "fusion_lat": 0.0, "lat": 38.99677066666667, "name": "cdb1d757427350e92ca58432307be288", "fusion_lon": 0.0, "bike_id": "cdb1d757427350e92ca58432307be288", "is_disabled": 0, "is_reserved": 0}, {"rental_uris": {"ios": "https://dc.lft.to/lastmile_qr_scan", "android": "https://dc.lft.to/lastmile_qr_scan"}, "lon": -76.95741433333333, "type": "electric_scooter", "fusion_lat": 0.0, "lat": 38.892214833333334, "name": "bb104b1cc3fd16f140d366c0a84de0eb", "fusion_lon": 0.0, "bike_id": "bb104b1cc3fd16f140d366c0a84de0eb", "is_disabled": 0, "is_reserved": 0}, {"rental_uris": {"ios": "https://dc.lft.to/lastmile_qr_scan", "android": "https://dc.lft.to/lastmile_qr_scan"}, "lon": -77.03419766666667, "type": "electric_scooter", "fusion_lat": 0.0, "lat": 38.9294675, "name": "efb80af90e90ebcd394596090f510024", "fusion_lon": 0.0, "bike_id": "efb80af90e90ebcd394596090f510024", "is_disabled": 0, "is_reserved": 0}, {"rental_uris": {"ios": "https://dc.lft.to/lastmile_qr_scan", "android": "https://dc.lft.to/lastmile_qr_scan"}, "lon": -77.03944583333333, "type": "electric_scooter", "fusion_lat": 0.0, "lat": 38.931516, "name": "adce1ae72f6047c247b0092dce8c56e5", "fusion_lon": 0.0, "bike_id": "adce1ae72f6047c247b0092dce8c56e5", "is_disabled": 0, "is_reserved": 0}, {"rental_uris": {"ios": "https://dc.lft.to/lastmile_qr_scan", "android": "https://dc.lft.to/lastmile_qr_scan"}, "lon": -77.04799483333333, "type": "electric_scooter", "fusion_lat": 0.0, "lat": 38.91637016666667, "name": "5526ae3a311da2e81ea59bb99c126a81", "fusion_lon": 0.0, "bike_id": "5526ae3a311da2e81ea59bb99c126a81", "is_disabled": 0, "is_reserved": 0}, {"rental_uris": {"ios": "https://dc.lft.to/lastmile_qr_scan", "android": "https://dc.lft.to/lastmile_qr_scan"}, "lon": -77.0382685, "type": "electric_scooter", "fusion_lat": 0.0, "lat": 38.921721, "name": "52e47307a4666f4aae85aabf55e629cc", "fusion_lon": 0.0, "bike_id": "52e47307a4666f4aae85aabf55e629cc", "is_disabled": 0, "is_reserved": 0}, {"rental_uris": {"ios": "https://dc.lft.to/lastmile_qr_scan", "android": "https://dc.lft.to/lastmile_qr_scan"}, "lon": -77.01885616666667, "type": "electric_scooter", "fusion_lat": 0.0, "lat": 38.90611116666667, "name": "c21a9a1d2ac88c845b4109f649bd13ac", "fusion_lon": 0.0, "bike_id": "c21a9a1d2ac88c845b4109f649bd13ac", "is_disabled": 0, "is_reserved": 0}, {"rental_uris": {"ios": "https://dc.lft.to/lastmile_qr_scan", "android": "https://dc.lft.to/lastmile_qr_scan"}, "lon": -77.04289883333334, "type": "electric_scooter", "fusion_lat": 0.0, "lat": 38.90719833333333, "name": "f1c5dfff2c5ecdae53bad0adf15cf152", "fusion_lon": 0.0, "bike_id": "f1c5dfff2c5ecdae53bad0adf15cf152", "is_disabled": 0, "is_reserved": 0}, {"rental_uris": {"ios": "https://dc.lft.to/lastmile_qr_scan", "android": "https://dc.lft.to/lastmile_qr_scan"}, "lon": -77.04039333333333, "type": "electric_scooter", "fusion_lat": 0.0, "lat": 38.92434083333333, "name": "0fb009545fcd65e5232c3b156ff30a59", "fusion_lon": 0.0, "bike_id": "0fb009545fcd65e5232c3b156ff30a59", "is_disabled": 0, "is_reserved": 0}, {"rental_uris": {"ios": "https://dc.lft.to/lastmile_qr_scan", "android": "https://dc.lft.to/lastmile_qr_scan"}, "lon": -77.013539, "type": "electric_scooter", "fusion_lat": 0.0, "lat": 38.919866999999996, "name": "17046604ed9405ac6a225b6022d73657", "fusion_lon": 0.0, "bike_id": "17046604ed9405ac6a225b6022d73657", "is_disabled": 0, "is_reserved": 0}, {"rental_uris": {"ios": "https://dc.lft.to/lastmile_qr_scan", "android": "https://dc.lft.to/lastmile_qr_scan"}, "lon": -77.03069133333334, "type": "electric_scooter", "fusion_lat": 0.0, "lat": 38.8804135, "name": "c0be53edb958f3e6b69083d5b8043ee0", "fusion_lon": 0.0, "bike_id": "c0be53edb958f3e6b69083d5b8043ee0", "is_disabled": 0, "is_reserved": 0}, {"rental_uris": {"ios": "https://dc.lft.to/lastmile_qr_scan", "android": "https://dc.lft.to/lastmile_qr_scan"}, "lon": -77.0168915, "type": "electric_scooter", "fusion_lat": 0.0, "lat": 38.90242933333333, "name": "19bc113ff7f4a60ee1a272cf393bf0dd", "fusion_lon": 0.0, "bike_id": "19bc113ff7f4a60ee1a272cf393bf0dd", "is_disabled": 0, "is_reserved": 0}, {"rental_uris": {"ios": "https://dc.lft.to/lastmile_qr_scan", "android": "https://dc.lft.to/lastmile_qr_scan"}, "lon": -77.03299883333334, "type": "electric_scooter", "fusion_lat": 0.0, "lat": 38.90327766666667, "name": "f42569850a312bf1e638f5861c16366c", "fusion_lon": 0.0, "bike_id": "f42569850a312bf1e638f5861c16366c", "is_disabled": 0, "is_reserved": 0}, {"rental_uris": {"ios": "https://dc.lft.to/lastmile_qr_scan", "android": "https://dc.lft.to/lastmile_qr_scan"}, "lon": -76.949452, "type": "electric_scooter", "fusion_lat": 0.0, "lat": 38.88378383333333, "name": "988374ce9155ab9b257b6a5f63fb6d0f", "fusion_lon": 0.0, "bike_id": "988374ce9155ab9b257b6a5f63fb6d0f", "is_disabled": 0, "is_reserved": 0}, {"rental_uris": {"ios": "https://dc.lft.to/lastmile_qr_scan", "android": "https://dc.lft.to/lastmile_qr_scan"}, "lon": -77.04682916666667, "type": "electric_scooter", "fusion_lat": 0.0, "lat": 38.908610833333334, "name": "07bb9d67abf9950703bd780d3354dbb2", "fusion_lon": 0.0, "bike_id": "07bb9d67abf9950703bd780d3354dbb2", "is_disabled": 0, "is_reserved": 0}, {"rental_uris": {"ios": "https://dc.lft.to/lastmile_qr_scan", "android": "https://dc.lft.to/lastmile_qr_scan"}, "lon": -77.02987933333333, "type": "electric_bike", "fusion_lat": 0.0, "lat": 38.90014433333333, "name": "e0f83d3464e08116624c2b2cee48cfc1", "fusion_lon": 0.0, "bike_id": "e0f83d3464e08116624c2b2cee48cfc1", "is_disabled": 0, "is_reserved": 0}, {"rental_uris": {"ios": "https://dc.lft.to/lastmile_qr_scan", "android": "https://dc.lft.to/lastmile_qr_scan"}, "lon": -76.97730666666666, "type": "electric_scooter", "fusion_lat": 0.0, "lat": 38.87289966666667, "name": "2df0653275e1b461908aa8bc5481791e", "fusion_lon": 0.0, "bike_id": "2df0653275e1b461908aa8bc5481791e", "is_disabled": 0, "is_reserved": 0}, {"rental_uris": {"ios": "https://dc.lft.to/lastmile_qr_scan", "android": "https://dc.lft.to/lastmile_qr_scan"}, "lon": -77.131769, "type": "electric_bike", "fusion_lat": 0.0, "lat": 38.86908566666666, "name": "2d2934a41728888c49869bb854a60265", "fusion_lon": 0.0, "bike_id": "2d2934a41728888c49869bb854a60265", "is_disabled": 0, "is_reserved": 0}, {"rental_uris": {"ios": "https://dc.lft.to/lastmile_qr_scan", "android": "https://dc.lft.to/lastmile_qr_scan"}, "lon": -77.03128916666667, "type": "electric_scooter", "fusion_lat": 0.0, "lat": 38.92381983333333, "name": "9a27c7fb71fbaa745216f7dca6b82aba", "fusion_lon": 0.0, "bike_id": "9a27c7fb71fbaa745216f7dca6b82aba", "is_disabled": 0, "is_reserved": 0}, {"rental_uris": {"ios": "https://dc.lft.to/lastmile_qr_scan", "android": "https://dc.lft.to/lastmile_qr_scan"}, "lon": -77.0500275, "type": "electric_scooter", "fusion_lat": 0.0, "lat": 38.892283666666664, "name": "75cdc969068ddab1df2bc59bfbe675bc", "fusion_lon": 0.0, "bike_id": "75cdc969068ddab1df2bc59bfbe675bc", "is_disabled": 0, "is_reserved": 0}, {"rental_uris": {"ios": "https://dc.lft.to/lastmile_qr_scan", "android": "https://dc.lft.to/lastmile_qr_scan"}, "lon": -76.93830816666667, "type": "electric_scooter", "fusion_lat": 0.0, "lat": 38.89766433333333, "name": "6e2a80147e64775ba9b212e88f9c72e7", "fusion_lon": 0.0, "bike_id": "6e2a80147e64775ba9b212e88f9c72e7", "is_disabled": 0, "is_reserved": 0}, {"rental_uris": {"ios": "https://dc.lft.to/lastmile_qr_scan", "android": "https://dc.lft.to/lastmile_qr_scan"}, "lon": -77.03429266666667, "type": "electric_scooter", "fusion_lat": 0.0, "lat": 38.91916916666667, "name": "ce0d01810902ddb679e92f4408f878f8", "fusion_lon": 0.0, "bike_id": "ce0d01810902ddb679e92f4408f878f8", "is_disabled": 0, "is_reserved": 0}, {"rental_uris": {"ios": "https://dc.lft.to/lastmile_qr_scan", "android": "https://dc.lft.to/lastmile_qr_scan"}, "lon": -77.04418983333333, "type": "electric_scooter", "fusion_lat": 0.0, "lat": 38.921382333333334, "name": "91890f7cf891dc720aa7e6f41abaa2ea", "fusion_lon": 0.0, "bike_id": "91890f7cf891dc720aa7e6f41abaa2ea", "is_disabled": 0, "is_reserved": 0}, {"rental_uris": {"ios": "https://dc.lft.to/lastmile_qr_scan", "android": "https://dc.lft.to/lastmile_qr_scan"}, "lon": -77.035531, "type": "electric_scooter", "fusion_lat": 0.0, "lat": 38.924161, "name": "c5da4b0fa7f6142ad35123558d473d15", "fusion_lon": 0.0, "bike_id": "c5da4b0fa7f6142ad35123558d473d15", "is_disabled": 0, "is_reserved": 0}, {"rental_uris": {"ios": "https://dc.lft.to/lastmile_qr_scan", "android": "https://dc.lft.to/lastmile_qr_scan"}, "lon": -77.02722433333334, "type": "electric_scooter", "fusion_lat": 0.0, "lat": 38.89224266666667, "name": "85bb581d0e366156197cb8662f2b1fa0", "fusion_lon": 0.0, "bike_id": "85bb581d0e366156197cb8662f2b1fa0", "is_disabled": 0, "is_reserved": 0}, {"rental_uris": {"ios": "https://dc.lft.to/lastmile_qr_scan", "android": "https://dc.lft.to/lastmile_qr_scan"}, "lon": -76.99487016666667, "type": "electric_scooter", "fusion_lat": 0.0, "lat": 38.93200683333333, "name": "4e27d6dd8bbb5fb5de52f3d71997ac88", "fusion_lon": 0.0, "bike_id": "4e27d6dd8bbb5fb5de52f3d71997ac88", "is_disabled": 0, "is_reserved": 0}, {"rental_uris": {"ios": "https://dc.lft.to/lastmile_qr_scan", "android": "https://dc.lft.to/lastmile_qr_scan"}, "lon": -77.02215166666667, "type": "electric_scooter", "fusion_lat": 0.0, "lat": 38.905763666666665, "name": "ba0e0111ca145e9cef3815f350cb0e10", "fusion_lon": 0.0, "bike_id": "ba0e0111ca145e9cef3815f350cb0e10", "is_disabled": 0, "is_reserved": 0}, {"rental_uris": {"ios": "https://dc.lft.to/lastmile_qr_scan", "android": "https://dc.lft.to/lastmile_qr_scan"}, "lon": -77.00114916666666, "type": "electric_scooter", "fusion_lat": 0.0, "lat": 38.894379666666666, "name": "e44274dd885ff915199571a70839c61c", "fusion_lon": 0.0, "bike_id": "e44274dd885ff915199571a70839c61c", "is_disabled": 0, "is_reserved": 0}, {"rental_uris": {"ios": "https://dc.lft.to/lastmile_qr_scan", "android": "https://dc.lft.to/lastmile_qr_scan"}, "lon": -77.0325415, "type": "electric_scooter", "fusion_lat": 0.0, "lat": 38.9352615, "name": "81c6e9e925448f0c4aad72a9000af242", "fusion_lon": 0.0, "bike_id": "81c6e9e925448f0c4aad72a9000af242", "is_disabled": 0, "is_reserved": 0}, {"rental_uris": {"ios": "https://dc.lft.to/lastmile_qr_scan", "android": "https://dc.lft.to/lastmile_qr_scan"}, "lon": -76.93539583333333, "type": "electric_bike", "fusion_lat": 0.0, "lat": 38.955506666666665, "name": "23509c4df9b435c7ebecee65b8e411d8", "fusion_lon": 0.0, "bike_id": "23509c4df9b435c7ebecee65b8e411d8", "is_disabled": 0, "is_reserved": 0}, {"rental_uris": {"ios": "https://dc.lft.to/lastmile_qr_scan", "android": "https://dc.lft.to/lastmile_qr_scan"}, "lon": -77.02396083333333, "type": "electric_scooter", "fusion_lat": 0.0, "lat": 38.915998333333334, "name": "8910aecd51862a89ff864b050a0c13a0", "fusion_lon": 0.0, "bike_id": "8910aecd51862a89ff864b050a0c13a0", "is_disabled": 0, "is_reserved": 0}, {"rental_uris": {"ios": "https://dc.lft.to/lastmile_qr_scan", "android": "https://dc.lft.to/lastmile_qr_scan"}, "lon": -77.00709516666667, "type": "electric_scooter", "fusion_lat": 0.0, "lat": 38.905412166666665, "name": "76a97e2f382df3c34886d83a36aaa531", "fusion_lon": 0.0, "bike_id": "76a97e2f382df3c34886d83a36aaa531", "is_disabled": 0, "is_reserved": 0}, {"rental_uris": {"ios": "https://dc.lft.to/lastmile_qr_scan", "android": "https://dc.lft.to/lastmile_qr_scan"}, "lon": -77.049938, "type": "electric_scooter", "fusion_lat": 0.0, "lat": 38.898996, "name": "5383139279f4273360b3e039cff7c77f", "fusion_lon": 0.0, "bike_id": "5383139279f4273360b3e039cff7c77f", "is_disabled": 0, "is_reserved": 0}, {"rental_uris": {"ios": "https://dc.lft.to/lastmile_qr_scan", "android": "https://dc.lft.to/lastmile_qr_scan"}, "lon": -77.0768225, "type": "electric_bike", "fusion_lat": 0.0, "lat": 38.831950166666665, "name": "16cea2e5222d44f25a928f010ea926b4", "fusion_lon": 0.0, "bike_id": "16cea2e5222d44f25a928f010ea926b4", "is_disabled": 0, "is_reserved": 0}, {"rental_uris": {"ios": "https://dc.lft.to/lastmile_qr_scan", "android": "https://dc.lft.to/lastmile_qr_scan"}, "lon": -77.0415675, "type": "electric_scooter", "fusion_lat": 0.0, "lat": 38.91929833333333, "name": "cee9af8093efefa0d88185d47c41fd09", "fusion_lon": 0.0, "bike_id": "cee9af8093efefa0d88185d47c41fd09", "is_disabled": 0, "is_reserved": 0}, {"rental_uris": {"ios": "https://dc.lft.to/lastmile_qr_scan", "android": "https://dc.lft.to/lastmile_qr_scan"}, "lon": -77.04727866666667, "type": "electric_scooter", "fusion_lat": 0.0, "lat": 38.9024035, "name": "873aa7d24b8719ff518b210450b238a5", "fusion_lon": 0.0, "bike_id": "873aa7d24b8719ff518b210450b238a5", "is_disabled": 0, "is_reserved": 0}, {"rental_uris": {"ios": "https://dc.lft.to/lastmile_qr_scan", "android": "https://dc.lft.to/lastmile_qr_scan"}, "lon": -77.0335465, "type": "electric_scooter", "fusion_lat": 0.0, "lat": 38.924386, "name": "e34d0a97591768755812a7565c2eba3c", "fusion_lon": 0.0, "bike_id": "e34d0a97591768755812a7565c2eba3c", "is_disabled": 0, "is_reserved": 0}, {"rental_uris": {"ios": "https://dc.lft.to/lastmile_qr_scan", "android": "https://dc.lft.to/lastmile_qr_scan"}, "lon": -77.12255533333334, "type": "electric_bike", "fusion_lat": 0.0, "lat": 38.89184783333333, "name": "c57a54a21aaf91db999ccf3e93b16a69", "fusion_lon": 0.0, "bike_id": "c57a54a21aaf91db999ccf3e93b16a69", "is_disabled": 0, "is_reserved": 0}, {"rental_uris": {"ios": "https://dc.lft.to/lastmile_qr_scan", "android": "https://dc.lft.to/lastmile_qr_scan"}, "lon": -77.11221433333333, "type": "electric_bike", "fusion_lat": 0.0, "lat": 38.82875883333333, "name": "6e82bbe52bf787557374e83f3b06f8d1", "fusion_lon": 0.0, "bike_id": "6e82bbe52bf787557374e83f3b06f8d1", "is_disabled": 0, "is_reserved": 0}, {"rental_uris": {"ios": "https://dc.lft.to/lastmile_qr_scan", "android": "https://dc.lft.to/lastmile_qr_scan"}, "lon": -77.03465466666667, "type": "electric_scooter", "fusion_lat": 0.0, "lat": 38.90572516666667, "name": "d0ba0af9775e1be5a62bf3885c3ce4e1", "fusion_lon": 0.0, "bike_id": "d0ba0af9775e1be5a62bf3885c3ce4e1", "is_disabled": 0, "is_reserved": 0}, {"rental_uris": {"ios": "https://dc.lft.to/lastmile_qr_scan", "android": "https://dc.lft.to/lastmile_qr_scan"}, "lon": -77.14118466666666, "type": "electric_bike", "fusion_lat": 0.0, "lat": 38.81603716666667, "name": "d1af7bf09018ef53d8717fbab752016c", "fusion_lon": 0.0, "bike_id": "d1af7bf09018ef53d8717fbab752016c", "is_disabled": 0, "is_reserved": 0}, {"rental_uris": {"ios": "https://dc.lft.to/lastmile_qr_scan", "android": "https://dc.lft.to/lastmile_qr_scan"}, "lon": -76.99590666666667, "type": "electric_scooter", "fusion_lat": 0.0, "lat": 38.922291666666666, "name": "975ec384da2d032d5fdaafdd4656eb69", "fusion_lon": 0.0, "bike_id": "975ec384da2d032d5fdaafdd4656eb69", "is_disabled": 0, "is_reserved": 0}, {"rental_uris": {"ios": "https://dc.lft.to/lastmile_qr_scan", "android": "https://dc.lft.to/lastmile_qr_scan"}, "lon": -77.00043966666667, "type": "electric_scooter", "fusion_lat": 0.0, "lat": 38.8738765, "name": "ae6f6bdea062c5ab1ed5d569adbc2740", "fusion_lon": 0.0, "bike_id": "ae6f6bdea062c5ab1ed5d569adbc2740", "is_disabled": 0, "is_reserved": 0}, {"rental_uris": {"ios": "https://dc.lft.to/lastmile_qr_scan", "android": "https://dc.lft.to/lastmile_qr_scan"}, "lon": -77.02973916666667, "type": "electric_scooter", "fusion_lat": 0.0, "lat": 38.9405055, "name": "93c0d1a49b314a45bbbead35d6317737", "fusion_lon": 0.0, "bike_id": "93c0d1a49b314a45bbbead35d6317737", "is_disabled": 0, "is_reserved": 0}, {"rental_uris": {"ios": "https://dc.lft.to/lastmile_qr_scan", "android": "https://dc.lft.to/lastmile_qr_scan"}, "lon": -77.00675966666667, "type": "electric_scooter", "fusion_lat": 0.0, "lat": 38.874824, "name": "112ea3d244c549ea262b2cb204f61e92", "fusion_lon": 0.0, "bike_id": "112ea3d244c549ea262b2cb204f61e92", "is_disabled": 0, "is_reserved": 0}, {"rental_uris": {"ios": "https://dc.lft.to/lastmile_qr_scan", "android": "https://dc.lft.to/lastmile_qr_scan"}, "lon": -77.0392805, "type": "electric_scooter", "fusion_lat": 0.0, "lat": 38.9261715, "name": "2f50ae734492c1e552f8db0a5ac3a97c", "fusion_lon": 0.0, "bike_id": "2f50ae734492c1e552f8db0a5ac3a97c", "is_disabled": 0, "is_reserved": 0}, {"rental_uris": {"ios": "https://dc.lft.to/lastmile_qr_scan", "android": "https://dc.lft.to/lastmile_qr_scan"}, "lon": -77.00795116666667, "type": "electric_bike", "fusion_lat": 0.0, "lat": 38.94921383333333, "name": "6cbaf4bdcac3859a23c3eddaef9dfd90", "fusion_lon": 0.0, "bike_id": "6cbaf4bdcac3859a23c3eddaef9dfd90", "is_disabled": 0, "is_reserved": 0}, {"rental_uris": {"ios": "https://dc.lft.to/lastmile_qr_scan", "android": "https://dc.lft.to/lastmile_qr_scan"}, "lon": -77.02767383333334, "type": "electric_scooter", "fusion_lat": 0.0, "lat": 38.89201083333333, "name": "f971da01a33f2e6a1916fed8f5eb833d", "fusion_lon": 0.0, "bike_id": "f971da01a33f2e6a1916fed8f5eb833d", "is_disabled": 0, "is_reserved": 0}, {"rental_uris": {"ios": "https://dc.lft.to/lastmile_qr_scan", "android": "https://dc.lft.to/lastmile_qr_scan"}, "lon": -77.03817733333334, "type": "electric_scooter", "fusion_lat": 0.0, "lat": 38.903916, "name": "31f6aa8a75c21cce0c00210f99464ba1", "fusion_lon": 0.0, "bike_id": "31f6aa8a75c21cce0c00210f99464ba1", "is_disabled": 0, "is_reserved": 0}, {"rental_uris": {"ios": "https://dc.lft.to/lastmile_qr_scan", "android": "https://dc.lft.to/lastmile_qr_scan"}, "lon": -77.05928033333333, "type": "electric_bike", "fusion_lat": 0.0, "lat": 38.9043025, "name": "454d101b93ca0bff2ac6324393f3d425", "fusion_lon": 0.0, "bike_id": "454d101b93ca0bff2ac6324393f3d425", "is_disabled": 0, "is_reserved": 0}, {"rental_uris": {"ios": "https://dc.lft.to/lastmile_qr_scan", "android": "https://dc.lft.to/lastmile_qr_scan"}, "lon": -77.03926483333333, "type": "electric_scooter", "fusion_lat": 0.0, "lat": 38.9175145, "name": "a8e2c7e4911e5d965448e58758cb0532", "fusion_lon": 0.0, "bike_id": "a8e2c7e4911e5d965448e58758cb0532", "is_disabled": 0, "is_reserved": 0}, {"rental_uris": {"ios": "https://dc.lft.to/lastmile_qr_scan", "android": "https://dc.lft.to/lastmile_qr_scan"}, "lon": -77.02696133333333, "type": "electric_scooter", "fusion_lat": 0.0, "lat": 38.9181015, "name": "d8aa1fb5c41d8901d648f7b417e72f29", "fusion_lon": 0.0, "bike_id": "d8aa1fb5c41d8901d648f7b417e72f29", "is_disabled": 0, "is_reserved": 0}, {"rental_uris": {"ios": "https://dc.lft.to/lastmile_qr_scan", "android": "https://dc.lft.to/lastmile_qr_scan"}, "lon": -77.01969766666667, "type": "electric_scooter", "fusion_lat": 0.0, "lat": 38.9296435, "name": "6f2ff64fc7c7f5169c30dc58d8c544f1", "fusion_lon": 0.0, "bike_id": "6f2ff64fc7c7f5169c30dc58d8c544f1", "is_disabled": 0, "is_reserved": 0}, {"rental_uris": {"ios": "https://dc.lft.to/lastmile_qr_scan", "android": "https://dc.lft.to/lastmile_qr_scan"}, "lon": -77.020118, "type": "electric_scooter", "fusion_lat": 0.0, "lat": 38.904665333333334, "name": "539606914442d61a6761b77b8f539e8b", "fusion_lon": 0.0, "bike_id": "539606914442d61a6761b77b8f539e8b", "is_disabled": 0, "is_reserved": 0}, {"rental_uris": {"ios": "https://dc.lft.to/lastmile_qr_scan", "android": "https://dc.lft.to/lastmile_qr_scan"}, "lon": -77.02325, "type": "electric_scooter", "fusion_lat": 0.0, "lat": 38.929392666666665, "name": "720b6c18c84f2435ea193e8569b2b58e", "fusion_lon": 0.0, "bike_id": "720b6c18c84f2435ea193e8569b2b58e", "is_disabled": 0, "is_reserved": 0}, {"rental_uris": {"ios": "https://dc.lft.to/lastmile_qr_scan", "android": "https://dc.lft.to/lastmile_qr_scan"}, "lon": -77.01756966666666, "type": "electric_scooter", "fusion_lat": 0.0, "lat": 38.917166333333334, "name": "fbe2a9fecd4c3786c5946b8766c67ccc", "fusion_lon": 0.0, "bike_id": "fbe2a9fecd4c3786c5946b8766c67ccc", "is_disabled": 0, "is_reserved": 0}, {"rental_uris": {"ios": "https://dc.lft.to/lastmile_qr_scan", "android": "https://dc.lft.to/lastmile_qr_scan"}, "lon": -77.034647, "type": "electric_scooter", "fusion_lat": 0.0, "lat": 38.903328, "name": "82bc24e210354c61b9aeaf72455afcbe", "fusion_lon": 0.0, "bike_id": "82bc24e210354c61b9aeaf72455afcbe", "is_disabled": 0, "is_reserved": 0}, {"rental_uris": {"ios": "https://dc.lft.to/lastmile_qr_scan", "android": "https://dc.lft.to/lastmile_qr_scan"}, "lon": -77.03077033333334, "type": "electric_scooter", "fusion_lat": 0.0, "lat": 38.909880333333334, "name": "6c8d17eff0a0023a94cb68df9f12172f", "fusion_lon": 0.0, "bike_id": "6c8d17eff0a0023a94cb68df9f12172f", "is_disabled": 0, "is_reserved": 0}, {"rental_uris": {"ios": "https://dc.lft.to/lastmile_qr_scan", "android": "https://dc.lft.to/lastmile_qr_scan"}, "lon": -77.01214833333333, "type": "electric_scooter", "fusion_lat": 0.0, "lat": 38.915206166666664, "name": "c6bb50845f7a0867379ef7f92939b2c8", "fusion_lon": 0.0, "bike_id": "c6bb50845f7a0867379ef7f92939b2c8", "is_disabled": 0, "is_reserved": 0}, {"rental_uris": {"ios": "https://dc.lft.to/lastmile_qr_scan", "android": "https://dc.lft.to/lastmile_qr_scan"}, "lon": -77.03515183333333, "type": "electric_scooter", "fusion_lat": 0.0, "lat": 38.91836166666667, "name": "9e6d7b1dad6761caee2ede27e618c96a", "fusion_lon": 0.0, "bike_id": "9e6d7b1dad6761caee2ede27e618c96a", "is_disabled": 0, "is_reserved": 0}, {"rental_uris": {"ios": "https://dc.lft.to/lastmile_qr_scan", "android": "https://dc.lft.to/lastmile_qr_scan"}, "lon": -77.03553316666667, "type": "electric_scooter", "fusion_lat": 0.0, "lat": 38.90229383333333, "name": "173e159016423ede88e9f7e9a12f2416", "fusion_lon": 0.0, "bike_id": "173e159016423ede88e9f7e9a12f2416", "is_disabled": 0, "is_reserved": 0}, {"rental_uris": {"ios": "https://dc.lft.to/lastmile_qr_scan", "android": "https://dc.lft.to/lastmile_qr_scan"}, "lon": -77.04864983333333, "type": "electric_scooter", "fusion_lat": 0.0, "lat": 38.91241766666667, "name": "bd3cb2af47d6ab66633c788c2f69a5b0", "fusion_lon": 0.0, "bike_id": "bd3cb2af47d6ab66633c788c2f69a5b0", "is_disabled": 0, "is_reserved": 0}, {"rental_uris": {"ios": "https://dc.lft.to/lastmile_qr_scan", "android": "https://dc.lft.to/lastmile_qr_scan"}, "lon": -77.01513433333334, "type": "electric_scooter", "fusion_lat": 0.0, "lat": 38.88732483333333, "name": "cef7b10ec35e914e5920b76b327b9f7b", "fusion_lon": 0.0, "bike_id": "cef7b10ec35e914e5920b76b327b9f7b", "is_disabled": 0, "is_reserved": 0}, {"rental_uris": {"ios": "https://dc.lft.to/lastmile_qr_scan", "android": "https://dc.lft.to/lastmile_qr_scan"}, "lon": -76.90430683333334, "type": "electric_bike", "fusion_lat": 0.0, "lat": 38.897496, "name": "b7b8e8f8f5961dfd69a48b8459e9cb10", "fusion_lon": 0.0, "bike_id": "b7b8e8f8f5961dfd69a48b8459e9cb10", "is_disabled": 0, "is_reserved": 0}, {"rental_uris": {"ios": "https://dc.lft.to/lastmile_qr_scan", "android": "https://dc.lft.to/lastmile_qr_scan"}, "lon": -77.00721683333333, "type": "electric_scooter", "fusion_lat": 0.0, "lat": 38.884906666666666, "name": "5a95f22ec20f5c12aa740344e061fc41", "fusion_lon": 0.0, "bike_id": "5a95f22ec20f5c12aa740344e061fc41", "is_disabled": 0, "is_reserved": 0}, {"rental_uris": {"ios": "https://dc.lft.to/lastmile_qr_scan", "android": "https://dc.lft.to/lastmile_qr_scan"}, "lon": -76.96625633333333, "type": "electric_bike", "fusion_lat": 0.0, "lat": 38.94203616666667, "name": "5c5a99e5f994eb898aa8c31bc8338826", "fusion_lon": 0.0, "bike_id": "5c5a99e5f994eb898aa8c31bc8338826", "is_disabled": 0, "is_reserved": 0}, {"rental_uris": {"ios": "https://dc.lft.to/lastmile_qr_scan", "android": "https://dc.lft.to/lastmile_qr_scan"}, "lon": -77.06755583333333, "type": "electric_scooter", "fusion_lat": 0.0, "lat": 38.9156055, "name": "485688d700f35257f753598c6ddab2f4", "fusion_lon": 0.0, "bike_id": "485688d700f35257f753598c6ddab2f4", "is_disabled": 0, "is_reserved": 0}, {"rental_uris": {"ios": "https://dc.lft.to/lastmile_qr_scan", "android": "https://dc.lft.to/lastmile_qr_scan"}, "lon": -77.02598916666666, "type": "electric_scooter", "fusion_lat": 0.0, "lat": 38.896177, "name": "5f8490d165f10c937a47a6443e49a3db", "fusion_lon": 0.0, "bike_id": "5f8490d165f10c937a47a6443e49a3db", "is_disabled": 0, "is_reserved": 0}, {"rental_uris": {"ios": "https://dc.lft.to/lastmile_qr_scan", "android": "https://dc.lft.to/lastmile_qr_scan"}, "lon": -77.011091, "type": "electric_scooter", "fusion_lat": 0.0, "lat": 38.90782333333333, "name": "c9a42cbd5d2f391a42cd16cfaf2cfa75", "fusion_lon": 0.0, "bike_id": "c9a42cbd5d2f391a42cd16cfaf2cfa75", "is_disabled": 0, "is_reserved": 0}, {"rental_uris": {"ios": "https://dc.lft.to/lastmile_qr_scan", "android": "https://dc.lft.to/lastmile_qr_scan"}, "lon": -77.02105483333334, "type": "electric_scooter", "fusion_lat": 0.0, "lat": 38.913140166666665, "name": "54af1b398476585b9c32ec0767b432ba", "fusion_lon": 0.0, "bike_id": "54af1b398476585b9c32ec0767b432ba", "is_disabled": 0, "is_reserved": 0}, {"rental_uris": {"ios": "https://dc.lft.to/lastmile_qr_scan", "android": "https://dc.lft.to/lastmile_qr_scan"}, "lon": -76.937501, "type": "electric_scooter", "fusion_lat": 0.0, "lat": 38.89050783333333, "name": "fc77c7e2d70c972db9eff99ab16134a3", "fusion_lon": 0.0, "bike_id": "fc77c7e2d70c972db9eff99ab16134a3", "is_disabled": 0, "is_reserved": 0}, {"rental_uris": {"ios": "https://dc.lft.to/lastmile_qr_scan", "android": "https://dc.lft.to/lastmile_qr_scan"}, "lon": -77.02025516666667, "type": "electric_scooter", "fusion_lat": 0.0, "lat": 38.93223866666666, "name": "54b8ceb9e7f4ced416c86ecf78d5b378", "fusion_lon": 0.0, "bike_id": "54b8ceb9e7f4ced416c86ecf78d5b378", "is_disabled": 0, "is_reserved": 0}, {"rental_uris": {"ios": "https://dc.lft.to/lastmile_qr_scan", "android": "https://dc.lft.to/lastmile_qr_scan"}, "lon": -77.02648933333333, "type": "electric_scooter", "fusion_lat": 0.0, "lat": 38.938591, "name": "2f973cc72dda0e31b1ff9396fd92ab6e", "fusion_lon": 0.0, "bike_id": "2f973cc72dda0e31b1ff9396fd92ab6e", "is_disabled": 0, "is_reserved": 0}, {"rental_uris": {"ios": "https://dc.lft.to/lastmile_qr_scan", "android": "https://dc.lft.to/lastmile_qr_scan"}, "lon": -77.02393416666666, "type": "electric_scooter", "fusion_lat": 0.0, "lat": 38.952894, "name": "c58035a8b03631089bbecfc01fe0fd86", "fusion_lon": 0.0, "bike_id": "c58035a8b03631089bbecfc01fe0fd86", "is_disabled": 0, "is_reserved": 0}, {"rental_uris": {"ios": "https://dc.lft.to/lastmile_qr_scan", "android": "https://dc.lft.to/lastmile_qr_scan"}, "lon": -77.03763966666666, "type": "electric_scooter", "fusion_lat": 0.0, "lat": 38.9359265, "name": "d8877cb7200ee3154a6824206038f89e", "fusion_lon": 0.0, "bike_id": "d8877cb7200ee3154a6824206038f89e", "is_disabled": 0, "is_reserved": 0}, {"rental_uris": {"ios": "https://dc.lft.to/lastmile_qr_scan", "android": "https://dc.lft.to/lastmile_qr_scan"}, "lon": -77.02592166666666, "type": "electric_scooter", "fusion_lat": 0.0, "lat": 38.91496083333333, "name": "f4fad56ece093fa42d561327f06c3c6e", "fusion_lon": 0.0, "bike_id": "f4fad56ece093fa42d561327f06c3c6e", "is_disabled": 0, "is_reserved": 0}, {"rental_uris": {"ios": "https://dc.lft.to/lastmile_qr_scan", "android": "https://dc.lft.to/lastmile_qr_scan"}, "lon": -77.01765333333333, "type": "electric_scooter", "fusion_lat": 0.0, "lat": 38.90063583333333, "name": "6d62df2ba3b782dac2dfd1dc399119d3", "fusion_lon": 0.0, "bike_id": "6d62df2ba3b782dac2dfd1dc399119d3", "is_disabled": 0, "is_reserved": 0}, {"rental_uris": {"ios": "https://dc.lft.to/lastmile_qr_scan", "android": "https://dc.lft.to/lastmile_qr_scan"}, "lon": -77.00978083333334, "type": "electric_scooter", "fusion_lat": 0.0, "lat": 38.91481433333333, "name": "0462a6a97f7f2e4f04fb217860c468c9", "fusion_lon": 0.0, "bike_id": "0462a6a97f7f2e4f04fb217860c468c9", "is_disabled": 0, "is_reserved": 0}, {"rental_uris": {"ios": "https://dc.lft.to/lastmile_qr_scan", "android": "https://dc.lft.to/lastmile_qr_scan"}, "lon": -77.005859, "type": "electric_scooter", "fusion_lat": 0.0, "lat": 38.902374333333334, "name": "ddfae3e510c4a093088aa4b2cd00bec0", "fusion_lon": 0.0, "bike_id": "ddfae3e510c4a093088aa4b2cd00bec0", "is_disabled": 0, "is_reserved": 0}, {"rental_uris": {"ios": "https://dc.lft.to/lastmile_qr_scan", "android": "https://dc.lft.to/lastmile_qr_scan"}, "lon": -77.0356455, "type": "electric_scooter", "fusion_lat": 0.0, "lat": 38.90865983333333, "name": "896a0138378d514fa42d09101a6995ec", "fusion_lon": 0.0, "bike_id": "896a0138378d514fa42d09101a6995ec", "is_disabled": 0, "is_reserved": 0}, {"rental_uris": {"ios": "https://dc.lft.to/lastmile_qr_scan", "android": "https://dc.lft.to/lastmile_qr_scan"}, "lon": -77.01049066666667, "type": "electric_scooter", "fusion_lat": 0.0, "lat": 38.879371166666665, "name": "7538c895c19c094cff313fd7d80e1daf", "fusion_lon": 0.0, "bike_id": "7538c895c19c094cff313fd7d80e1daf", "is_disabled": 0, "is_reserved": 0}, {"rental_uris": {"ios": "https://dc.lft.to/lastmile_qr_scan", "android": "https://dc.lft.to/lastmile_qr_scan"}, "lon": -77.02654716666666, "type": "electric_scooter", "fusion_lat": 0.0, "lat": 38.8810435, "name": "92af0baae31fa9e4a999d13911c3eb85", "fusion_lon": 0.0, "bike_id": "92af0baae31fa9e4a999d13911c3eb85", "is_disabled": 0, "is_reserved": 0}, {"rental_uris": {"ios": "https://dc.lft.to/lastmile_qr_scan", "android": "https://dc.lft.to/lastmile_qr_scan"}, "lon": -77.0210235, "type": "electric_scooter", "fusion_lat": 0.0, "lat": 38.9311705, "name": "3412750749e42f08982fd51097e9077f", "fusion_lon": 0.0, "bike_id": "3412750749e42f08982fd51097e9077f", "is_disabled": 0, "is_reserved": 0}, {"rental_uris": {"ios": "https://dc.lft.to/lastmile_qr_scan", "android": "https://dc.lft.to/lastmile_qr_scan"}, "lon": -77.00035166666666, "type": "electric_scooter", "fusion_lat": 0.0, "lat": 38.87634466666667, "name": "5403a89271be599b731eae99161b4bd1", "fusion_lon": 0.0, "bike_id": "5403a89271be599b731eae99161b4bd1", "is_disabled": 0, "is_reserved": 0}, {"rental_uris": {"ios": "https://dc.lft.to/lastmile_qr_scan", "android": "https://dc.lft.to/lastmile_qr_scan"}, "lon": -77.03790083333334, "type": "electric_scooter", "fusion_lat": 0.0, "lat": 38.930204333333336, "name": "d9c53aabe14bb3d0bbfec2d5066d4194", "fusion_lon": 0.0, "bike_id": "d9c53aabe14bb3d0bbfec2d5066d4194", "is_disabled": 0, "is_reserved": 0}, {"rental_uris": {"ios": "https://dc.lft.to/lastmile_qr_scan", "android": "https://dc.lft.to/lastmile_qr_scan"}, "lon": -77.04152066666667, "type": "electric_scooter", "fusion_lat": 0.0, "lat": 38.91486333333334, "name": "d611ef3a355eea5e265fde35095023de", "fusion_lon": 0.0, "bike_id": "d611ef3a355eea5e265fde35095023de", "is_disabled": 0, "is_reserved": 0}, {"rental_uris": {"ios": "https://dc.lft.to/lastmile_qr_scan", "android": "https://dc.lft.to/lastmile_qr_scan"}, "lon": -77.01613333333333, "type": "electric_scooter", "fusion_lat": 0.0, "lat": 38.91126116666667, "name": "80285cd2c8c001ad56008fc184bf97b6", "fusion_lon": 0.0, "bike_id": "80285cd2c8c001ad56008fc184bf97b6", "is_disabled": 0, "is_reserved": 0}, {"rental_uris": {"ios": "https://dc.lft.to/lastmile_qr_scan", "android": "https://dc.lft.to/lastmile_qr_scan"}, "lon": -76.9317445, "type": "electric_scooter", "fusion_lat": 0.0, "lat": 38.89887733333333, "name": "865dcc8bef7c7cb0aca1a3c7dc48c2bc", "fusion_lon": 0.0, "bike_id": "865dcc8bef7c7cb0aca1a3c7dc48c2bc", "is_disabled": 0, "is_reserved": 0}, {"rental_uris": {"ios": "https://dc.lft.to/lastmile_qr_scan", "android": "https://dc.lft.to/lastmile_qr_scan"}, "lon": -77.03273166666666, "type": "electric_scooter", "fusion_lat": 0.0, "lat": 38.938210833333336, "name": "ae0f474d6b499ec78ffdfb568bbfbc06", "fusion_lon": 0.0, "bike_id": "ae0f474d6b499ec78ffdfb568bbfbc06", "is_disabled": 0, "is_reserved": 0}, {"rental_uris": {"ios": "https://dc.lft.to/lastmile_qr_scan", "android": "https://dc.lft.to/lastmile_qr_scan"}, "lon": -77.03446383333333, "type": "electric_scooter", "fusion_lat": 0.0, "lat": 38.91843, "name": "5dabd94c0fa5236bf40fa65a3ad06d0c", "fusion_lon": 0.0, "bike_id": "5dabd94c0fa5236bf40fa65a3ad06d0c", "is_disabled": 0, "is_reserved": 0}, {"rental_uris": {"ios": "https://dc.lft.to/lastmile_qr_scan", "android": "https://dc.lft.to/lastmile_qr_scan"}, "lon": -77.01586633333334, "type": "electric_scooter", "fusion_lat": 0.0, "lat": 38.95710916666667, "name": "b2db1d08f6911862a0dbccfea2b44e7b", "fusion_lon": 0.0, "bike_id": "b2db1d08f6911862a0dbccfea2b44e7b", "is_disabled": 0, "is_reserved": 0}, {"rental_uris": {"ios": "https://dc.lft.to/lastmile_qr_scan", "android": "https://dc.lft.to/lastmile_qr_scan"}, "lon": -77.04263866666666, "type": "electric_scooter", "fusion_lat": 0.0, "lat": 38.922396166666665, "name": "678c69021201bcaa5fe022e01f6a14c1", "fusion_lon": 0.0, "bike_id": "678c69021201bcaa5fe022e01f6a14c1", "is_disabled": 0, "is_reserved": 0}, {"rental_uris": {"ios": "https://dc.lft.to/lastmile_qr_scan", "android": "https://dc.lft.to/lastmile_qr_scan"}, "lon": -77.03660466666666, "type": "electric_scooter", "fusion_lat": 0.0, "lat": 38.91723066666667, "name": "907a1722455ee0f862985fa0cd1c6bf9", "fusion_lon": 0.0, "bike_id": "907a1722455ee0f862985fa0cd1c6bf9", "is_disabled": 0, "is_reserved": 0}, {"rental_uris": {"ios": "https://dc.lft.to/lastmile_qr_scan", "android": "https://dc.lft.to/lastmile_qr_scan"}, "lon": -77.04348616666667, "type": "electric_scooter", "fusion_lat": 0.0, "lat": 38.931538833333335, "name": "7e02bf89fc8437ff3dca5bfa16996289", "fusion_lon": 0.0, "bike_id": "7e02bf89fc8437ff3dca5bfa16996289", "is_disabled": 0, "is_reserved": 0}, {"rental_uris": {"ios": "https://dc.lft.to/lastmile_qr_scan", "android": "https://dc.lft.to/lastmile_qr_scan"}, "lon": -77.03833933333334, "type": "electric_scooter", "fusion_lat": 0.0, "lat": 38.902590000000004, "name": "58953491160cfefaeb3aa47eb0412d9e", "fusion_lon": 0.0, "bike_id": "58953491160cfefaeb3aa47eb0412d9e", "is_disabled": 0, "is_reserved": 0}, {"rental_uris": {"ios": "https://dc.lft.to/lastmile_qr_scan", "android": "https://dc.lft.to/lastmile_qr_scan"}, "lon": -77.03262666666667, "type": "electric_scooter", "fusion_lat": 0.0, "lat": 38.932781, "name": "b8465843e53775e98254a5d77fd65a52", "fusion_lon": 0.0, "bike_id": "b8465843e53775e98254a5d77fd65a52", "is_disabled": 0, "is_reserved": 0}, {"rental_uris": {"ios": "https://dc.lft.to/lastmile_qr_scan", "android": "https://dc.lft.to/lastmile_qr_scan"}, "lon": -77.09213633333333, "type": "electric_scooter", "fusion_lat": 0.0, "lat": 38.917014, "name": "2b490d582f4f6e467385887708eee901", "fusion_lon": 0.0, "bike_id": "2b490d582f4f6e467385887708eee901", "is_disabled": 0, "is_reserved": 0}, {"rental_uris": {"ios": "https://dc.lft.to/lastmile_qr_scan", "android": "https://dc.lft.to/lastmile_qr_scan"}, "lon": -77.0283595, "type": "electric_scooter", "fusion_lat": 0.0, "lat": 38.887702, "name": "a04493db2faac730671fff082d5a7937", "fusion_lon": 0.0, "bike_id": "a04493db2faac730671fff082d5a7937", "is_disabled": 0, "is_reserved": 0}, {"rental_uris": {"ios": "https://dc.lft.to/lastmile_qr_scan", "android": "https://dc.lft.to/lastmile_qr_scan"}, "lon": -77.01433733333333, "type": "electric_scooter", "fusion_lat": 0.0, "lat": 38.92993116666667, "name": "499e625d37fde472cef680ecb5fce0d0", "fusion_lon": 0.0, "bike_id": "499e625d37fde472cef680ecb5fce0d0", "is_disabled": 0, "is_reserved": 0}, {"rental_uris": {"ios": "https://dc.lft.to/lastmile_qr_scan", "android": "https://dc.lft.to/lastmile_qr_scan"}, "lon": -77.02961233333333, "type": "electric_scooter", "fusion_lat": 0.0, "lat": 38.892208833333335, "name": "7119ea9baec33af53efad4b1c0d07c2c", "fusion_lon": 0.0, "bike_id": "7119ea9baec33af53efad4b1c0d07c2c", "is_disabled": 0, "is_reserved": 0}, {"rental_uris": {"ios": "https://dc.lft.to/lastmile_qr_scan", "android": "https://dc.lft.to/lastmile_qr_scan"}, "lon": -77.048778, "type": "electric_scooter", "fusion_lat": 0.0, "lat": 38.90628566666667, "name": "03c39631065b8c9d97c0c9edb3e4d1a0", "fusion_lon": 0.0, "bike_id": "03c39631065b8c9d97c0c9edb3e4d1a0", "is_disabled": 0, "is_reserved": 0}, {"rental_uris": {"ios": "https://dc.lft.to/lastmile_qr_scan", "android": "https://dc.lft.to/lastmile_qr_scan"}, "lon": -77.034196, "type": "electric_scooter", "fusion_lat": 0.0, "lat": 38.93532533333333, "name": "8c0b0537b7534bd168c0e7c49f301b7e", "fusion_lon": 0.0, "bike_id": "8c0b0537b7534bd168c0e7c49f301b7e", "is_disabled": 0, "is_reserved": 0}, {"rental_uris": {"ios": "https://dc.lft.to/lastmile_qr_scan", "android": "https://dc.lft.to/lastmile_qr_scan"}, "lon": -77.07165766666667, "type": "electric_scooter", "fusion_lat": 0.0, "lat": 38.90778516666666, "name": "00322b5f609126e6308931bea248be3d", "fusion_lon": 0.0, "bike_id": "00322b5f609126e6308931bea248be3d", "is_disabled": 0, "is_reserved": 0}, {"rental_uris": {"ios": "https://dc.lft.to/lastmile_qr_scan", "android": "https://dc.lft.to/lastmile_qr_scan"}, "lon": -77.12627766666667, "type": "electric_bike", "fusion_lat": 0.0, "lat": 39.0581185, "name": "c057b67e5df04561210d8bb1cee2b927", "fusion_lon": 0.0, "bike_id": "c057b67e5df04561210d8bb1cee2b927", "is_disabled": 0, "is_reserved": 0}, {"rental_uris": {"ios": "https://dc.lft.to/lastmile_qr_scan", "android": "https://dc.lft.to/lastmile_qr_scan"}, "lon": -77.03145133333334, "type": "electric_scooter", "fusion_lat": 0.0, "lat": 38.91038116666667, "name": "251eb4a338af07fd806b1d3f0bef3ad3", "fusion_lon": 0.0, "bike_id": "251eb4a338af07fd806b1d3f0bef3ad3", "is_disabled": 0, "is_reserved": 0}, {"rental_uris": {"ios": "https://dc.lft.to/lastmile_qr_scan", "android": "https://dc.lft.to/lastmile_qr_scan"}, "lon": -76.97833216666666, "type": "electric_bike", "fusion_lat": 0.0, "lat": 38.84608816666667, "name": "dde38777b2164186a4f001692623c05f", "fusion_lon": 0.0, "bike_id": "dde38777b2164186a4f001692623c05f", "is_disabled": 0, "is_reserved": 0}, {"rental_uris": {"ios": "https://dc.lft.to/lastmile_qr_scan", "android": "https://dc.lft.to/lastmile_qr_scan"}, "lon": -77.04353716666667, "type": "electric_scooter", "fusion_lat": 0.0, "lat": 38.90374, "name": "41e44c88bdfff450ead8c7b16f167ade", "fusion_lon": 0.0, "bike_id": "41e44c88bdfff450ead8c7b16f167ade", "is_disabled": 0, "is_reserved": 0}, {"rental_uris": {"ios": "https://dc.lft.to/lastmile_qr_scan", "android": "https://dc.lft.to/lastmile_qr_scan"}, "lon": -77.019973, "type": "electric_scooter", "fusion_lat": 0.0, "lat": 38.897309166666666, "name": "6c0b94a4c599d3d212f966617bb6ba1c", "fusion_lon": 0.0, "bike_id": "6c0b94a4c599d3d212f966617bb6ba1c", "is_disabled": 0, "is_reserved": 0}, {"rental_uris": {"ios": "https://dc.lft.to/lastmile_qr_scan", "android": "https://dc.lft.to/lastmile_qr_scan"}, "lon": -76.98393783333333, "type": "electric_bike", "fusion_lat": 0.0, "lat": 38.922002666666664, "name": "4044f28e64efe8873e04bab3d8a4594e", "fusion_lon": 0.0, "bike_id": "4044f28e64efe8873e04bab3d8a4594e", "is_disabled": 0, "is_reserved": 0}, {"rental_uris": {"ios": "https://dc.lft.to/lastmile_qr_scan", "android": "https://dc.lft.to/lastmile_qr_scan"}, "lon": -77.03219933333334, "type": "electric_scooter", "fusion_lat": 0.0, "lat": 38.89220483333333, "name": "75498aa094843e694b53420abb8f6ef4", "fusion_lon": 0.0, "bike_id": "75498aa094843e694b53420abb8f6ef4", "is_disabled": 0, "is_reserved": 0}, {"rental_uris": {"ios": "https://dc.lft.to/lastmile_qr_scan", "android": "https://dc.lft.to/lastmile_qr_scan"}, "lon": -77.03333683333334, "type": "electric_scooter", "fusion_lat": 0.0, "lat": 38.89904833333333, "name": "2749df2a574bd5c275d0b4994e14f3b7", "fusion_lon": 0.0, "bike_id": "2749df2a574bd5c275d0b4994e14f3b7", "is_disabled": 0, "is_reserved": 0}, {"rental_uris": {"ios": "https://dc.lft.to/lastmile_qr_scan", "android": "https://dc.lft.to/lastmile_qr_scan"}, "lon": -77.02043366666666, "type": "electric_scooter", "fusion_lat": 0.0, "lat": 38.91558466666667, "name": "e90d8f2895a0e4ed95aba982cc974631", "fusion_lon": 0.0, "bike_id": "e90d8f2895a0e4ed95aba982cc974631", "is_disabled": 0, "is_reserved": 0}, {"rental_uris": {"ios": "https://dc.lft.to/lastmile_qr_scan", "android": "https://dc.lft.to/lastmile_qr_scan"}, "lon": -77.0521005, "type": "electric_scooter", "fusion_lat": 0.0, "lat": 38.924326, "name": "ac0879d326751eb71c3ac562e24dfc40", "fusion_lon": 0.0, "bike_id": "ac0879d326751eb71c3ac562e24dfc40", "is_disabled": 0, "is_reserved": 0}, {"rental_uris": {"ios": "https://dc.lft.to/lastmile_qr_scan", "android": "https://dc.lft.to/lastmile_qr_scan"}, "lon": -77.0056405, "type": "electric_scooter", "fusion_lat": 0.0, "lat": 38.880412, "name": "2f3b551f567faff4a5785a8d7601ee2d", "fusion_lon": 0.0, "bike_id": "2f3b551f567faff4a5785a8d7601ee2d", "is_disabled": 0, "is_reserved": 0}, {"rental_uris": {"ios": "https://dc.lft.to/lastmile_qr_scan", "android": "https://dc.lft.to/lastmile_qr_scan"}, "lon": -77.0233105, "type": "electric_scooter", "fusion_lat": 0.0, "lat": 38.92935033333333, "name": "71a667e3c4c6b086d8eba8922773debf", "fusion_lon": 0.0, "bike_id": "71a667e3c4c6b086d8eba8922773debf", "is_disabled": 0, "is_reserved": 0}, {"rental_uris": {"ios": "https://dc.lft.to/lastmile_qr_scan", "android": "https://dc.lft.to/lastmile_qr_scan"}, "lon": -76.9891015, "type": "electric_scooter", "fusion_lat": 0.0, "lat": 38.866921166666664, "name": "63ceb4a66c2054ddc9d86fefa2f5f21e", "fusion_lon": 0.0, "bike_id": "63ceb4a66c2054ddc9d86fefa2f5f21e", "is_disabled": 0, "is_reserved": 0}, {"rental_uris": {"ios": "https://dc.lft.to/lastmile_qr_scan", "android": "https://dc.lft.to/lastmile_qr_scan"}, "lon": -77.066298, "type": "electric_scooter", "fusion_lat": 0.0, "lat": 38.92802616666667, "name": "39158ef91549e815b961ff0b873debe7", "fusion_lon": 0.0, "bike_id": "39158ef91549e815b961ff0b873debe7", "is_disabled": 0, "is_reserved": 0}, {"rental_uris": {"ios": "https://dc.lft.to/lastmile_qr_scan", "android": "https://dc.lft.to/lastmile_qr_scan"}, "lon": -76.92714083333334, "type": "electric_scooter", "fusion_lat": 0.0, "lat": 38.88765716666666, "name": "3436ed0b0bbdc99be6507ef8a89a139a", "fusion_lon": 0.0, "bike_id": "3436ed0b0bbdc99be6507ef8a89a139a", "is_disabled": 0, "is_reserved": 0}, {"rental_uris": {"ios": "https://dc.lft.to/lastmile_qr_scan", "android": "https://dc.lft.to/lastmile_qr_scan"}, "lon": -77.0665105, "type": "electric_scooter", "fusion_lat": 0.0, "lat": 38.926868, "name": "0e17c97fed98723391ac7c7c8d15e6a4", "fusion_lon": 0.0, "bike_id": "0e17c97fed98723391ac7c7c8d15e6a4", "is_disabled": 0, "is_reserved": 0}, {"rental_uris": {"ios": "https://dc.lft.to/lastmile_qr_scan", "android": "https://dc.lft.to/lastmile_qr_scan"}, "lon": -77.0174055, "type": "electric_scooter", "fusion_lat": 0.0, "lat": 38.88210316666667, "name": "ea2bbe3b61956867b38d89a76e3db860", "fusion_lon": 0.0, "bike_id": "ea2bbe3b61956867b38d89a76e3db860", "is_disabled": 0, "is_reserved": 0}, {"rental_uris": {"ios": "https://dc.lft.to/lastmile_qr_scan", "android": "https://dc.lft.to/lastmile_qr_scan"}, "lon": -76.94630666666667, "type": "electric_scooter", "fusion_lat": 0.0, "lat": 38.898315833333335, "name": "d85ce658cdbe5a22868207ea870efe6e", "fusion_lon": 0.0, "bike_id": "d85ce658cdbe5a22868207ea870efe6e", "is_disabled": 0, "is_reserved": 0}, {"rental_uris": {"ios": "https://dc.lft.to/lastmile_qr_scan", "android": "https://dc.lft.to/lastmile_qr_scan"}, "lon": -77.0037555, "type": "electric_bike", "fusion_lat": 0.0, "lat": 38.83601083333333, "name": "0aa263f51084ca67cf8bff9f24cfb4dc", "fusion_lon": 0.0, "bike_id": "0aa263f51084ca67cf8bff9f24cfb4dc", "is_disabled": 0, "is_reserved": 0}, {"rental_uris": {"ios": "https://dc.lft.to/lastmile_qr_scan", "android": "https://dc.lft.to/lastmile_qr_scan"}, "lon": -77.00367, "type": "electric_scooter", "fusion_lat": 0.0, "lat": 38.838039333333334, "name": "465f8d9a04d947908926c58f4e26b8a3", "fusion_lon": 0.0, "bike_id": "465f8d9a04d947908926c58f4e26b8a3", "is_disabled": 0, "is_reserved": 0}, {"rental_uris": {"ios": "https://dc.lft.to/lastmile_qr_scan", "android": "https://dc.lft.to/lastmile_qr_scan"}, "lon": -77.02784516666667, "type": "electric_scooter", "fusion_lat": 0.0, "lat": 38.96194333333333, "name": "cf40702bc825f851e4f64b2ac1d7909d", "fusion_lon": 0.0, "bike_id": "cf40702bc825f851e4f64b2ac1d7909d", "is_disabled": 0, "is_reserved": 0}, {"rental_uris": {"ios": "https://dc.lft.to/lastmile_qr_scan", "android": "https://dc.lft.to/lastmile_qr_scan"}, "lon": -77.03777633333333, "type": "electric_scooter", "fusion_lat": 0.0, "lat": 38.921909166666666, "name": "cff8d4f52c9a17786524452fe1b5e3b1", "fusion_lon": 0.0, "bike_id": "cff8d4f52c9a17786524452fe1b5e3b1", "is_disabled": 0, "is_reserved": 0}, {"rental_uris": {"ios": "https://dc.lft.to/lastmile_qr_scan", "android": "https://dc.lft.to/lastmile_qr_scan"}, "lon": -77.03252916666666, "type": "electric_bike", "fusion_lat": 0.0, "lat": 38.933959, "name": "6a0b95bddcc52efb5a8a1072dd3f0441", "fusion_lon": 0.0, "bike_id": "6a0b95bddcc52efb5a8a1072dd3f0441", "is_disabled": 0, "is_reserved": 0}, {"rental_uris": {"ios": "https://dc.lft.to/lastmile_qr_scan", "android": "https://dc.lft.to/lastmile_qr_scan"}, "lon": -77.09550116666666, "type": "electric_bike", "fusion_lat": 0.0, "lat": 38.837321333333335, "name": "7d655151028175bd5830b6fa9c34c37e", "fusion_lon": 0.0, "bike_id": "7d655151028175bd5830b6fa9c34c37e", "is_disabled": 0, "is_reserved": 0}, {"rental_uris": {"ios": "https://dc.lft.to/lastmile_qr_scan", "android": "https://dc.lft.to/lastmile_qr_scan"}, "lon": -77.08825466666667, "type": "electric_bike", "fusion_lat": 0.0, "lat": 38.90968516666667, "name": "a3738303f337d7ee96cdf4a43178bbef", "fusion_lon": 0.0, "bike_id": "a3738303f337d7ee96cdf4a43178bbef", "is_disabled": 0, "is_reserved": 0}, {"rental_uris": {"ios": "https://dc.lft.to/lastmile_qr_scan", "android": "https://dc.lft.to/lastmile_qr_scan"}, "lon": -77.01507033333333, "type": "electric_scooter", "fusion_lat": 0.0, "lat": 38.91053816666667, "name": "1a6f654e9cd6833d6dcc8eb42a6c4ab9", "fusion_lon": 0.0, "bike_id": "1a6f654e9cd6833d6dcc8eb42a6c4ab9", "is_disabled": 0, "is_reserved": 0}, {"rental_uris": {"ios": "https://dc.lft.to/lastmile_qr_scan", "android": "https://dc.lft.to/lastmile_qr_scan"}, "lon": -77.0121645, "type": "electric_scooter", "fusion_lat": 0.0, "lat": 38.919643666666666, "name": "034da676979f1e446f46d53a7398ecde", "fusion_lon": 0.0, "bike_id": "034da676979f1e446f46d53a7398ecde", "is_disabled": 0, "is_reserved": 0}, {"rental_uris": {"ios": "https://dc.lft.to/lastmile_qr_scan", "android": "https://dc.lft.to/lastmile_qr_scan"}, "lon": -77.04047566666667, "type": "electric_scooter", "fusion_lat": 0.0, "lat": 38.9270635, "name": "385cc2f594d10c5e2ca85dd022692db5", "fusion_lon": 0.0, "bike_id": "385cc2f594d10c5e2ca85dd022692db5", "is_disabled": 0, "is_reserved": 0}, {"rental_uris": {"ios": "https://dc.lft.to/lastmile_qr_scan", "android": "https://dc.lft.to/lastmile_qr_scan"}, "lon": -76.98727633333333, "type": "electric_scooter", "fusion_lat": 0.0, "lat": 38.867117, "name": "75b667cf9c11c61be5e1294b58d32a70", "fusion_lon": 0.0, "bike_id": "75b667cf9c11c61be5e1294b58d32a70", "is_disabled": 0, "is_reserved": 0}, {"rental_uris": {"ios": "https://dc.lft.to/lastmile_qr_scan", "android": "https://dc.lft.to/lastmile_qr_scan"}, "lon": -77.09960333333333, "type": "electric_bike", "fusion_lat": 0.0, "lat": 38.85790516666667, "name": "f20e0562dbac7e3a9d93cb9bf5b07943", "fusion_lon": 0.0, "bike_id": "f20e0562dbac7e3a9d93cb9bf5b07943", "is_disabled": 0, "is_reserved": 0}, {"rental_uris": {"ios": "https://dc.lft.to/lastmile_qr_scan", "android": "https://dc.lft.to/lastmile_qr_scan"}, "lon": -77.03964016666667, "type": "electric_scooter", "fusion_lat": 0.0, "lat": 38.90142683333333, "name": "b9cd42882d31c7d104c44283a5ee1d09", "fusion_lon": 0.0, "bike_id": "b9cd42882d31c7d104c44283a5ee1d09", "is_disabled": 0, "is_reserved": 0}, {"rental_uris": {"ios": "https://dc.lft.to/lastmile_qr_scan", "android": "https://dc.lft.to/lastmile_qr_scan"}, "lon": -77.08082666666667, "type": "electric_bike", "fusion_lat": 0.0, "lat": 38.90690766666667, "name": "91f20c899c873a6cc207ae001e10395e", "fusion_lon": 0.0, "bike_id": "91f20c899c873a6cc207ae001e10395e", "is_disabled": 0, "is_reserved": 0}, {"rental_uris": {"ios": "https://dc.lft.to/lastmile_qr_scan", "android": "https://dc.lft.to/lastmile_qr_scan"}, "lon": -76.9474835, "type": "electric_scooter", "fusion_lat": 0.0, "lat": 38.89693033333333, "name": "4a7b505482a0470f1f6fd7a4e817669b", "fusion_lon": 0.0, "bike_id": "4a7b505482a0470f1f6fd7a4e817669b", "is_disabled": 0, "is_reserved": 0}, {"rental_uris": {"ios": "https://dc.lft.to/lastmile_qr_scan", "android": "https://dc.lft.to/lastmile_qr_scan"}, "lon": -77.03679066666666, "type": "electric_scooter", "fusion_lat": 0.0, "lat": 38.90686316666667, "name": "b33c5098d0192b5bafd4a92fd78d6568", "fusion_lon": 0.0, "bike_id": "b33c5098d0192b5bafd4a92fd78d6568", "is_disabled": 0, "is_reserved": 0}, {"rental_uris": {"ios": "https://dc.lft.to/lastmile_qr_scan", "android": "https://dc.lft.to/lastmile_qr_scan"}, "lon": -77.024406, "type": "electric_scooter", "fusion_lat": 0.0, "lat": 38.9190675, "name": "dc44a74e0b26c7320abf437ab59c106e", "fusion_lon": 0.0, "bike_id": "dc44a74e0b26c7320abf437ab59c106e", "is_disabled": 0, "is_reserved": 0}, {"rental_uris": {"ios": "https://dc.lft.to/lastmile_qr_scan", "android": "https://dc.lft.to/lastmile_qr_scan"}, "lon": -77.02523866666667, "type": "electric_scooter", "fusion_lat": 0.0, "lat": 38.932848666666665, "name": "e9dfda75200b358778873da231da2132", "fusion_lon": 0.0, "bike_id": "e9dfda75200b358778873da231da2132", "is_disabled": 0, "is_reserved": 0}, {"rental_uris": {"ios": "https://dc.lft.to/lastmile_qr_scan", "android": "https://dc.lft.to/lastmile_qr_scan"}, "lon": -76.98157833333333, "type": "electric_scooter", "fusion_lat": 0.0, "lat": 38.899869, "name": "6c2fca152e4ee6471a5c1b5a1dc1dbcf", "fusion_lon": 0.0, "bike_id": "6c2fca152e4ee6471a5c1b5a1dc1dbcf", "is_disabled": 0, "is_reserved": 0}, {"rental_uris": {"ios": "https://dc.lft.to/lastmile_qr_scan", "android": "https://dc.lft.to/lastmile_qr_scan"}, "lon": -77.00212833333333, "type": "electric_scooter", "fusion_lat": 0.0, "lat": 38.900413666666665, "name": "6c78fe357ebac8498e38ea65d2580a3f", "fusion_lon": 0.0, "bike_id": "6c78fe357ebac8498e38ea65d2580a3f", "is_disabled": 0, "is_reserved": 0}, {"rental_uris": {"ios": "https://dc.lft.to/lastmile_qr_scan", "android": "https://dc.lft.to/lastmile_qr_scan"}, "lon": -77.0338065, "type": "electric_scooter", "fusion_lat": 0.0, "lat": 38.928687833333335, "name": "35b96e73133220c7e9a4a79393427cd5", "fusion_lon": 0.0, "bike_id": "35b96e73133220c7e9a4a79393427cd5", "is_disabled": 0, "is_reserved": 0}, {"rental_uris": {"ios": "https://dc.lft.to/lastmile_qr_scan", "android": "https://dc.lft.to/lastmile_qr_scan"}, "lon": -76.97562733333334, "type": "electric_bike", "fusion_lat": 0.0, "lat": 38.87264283333333, "name": "973936c0170c3fb41c95cce011c86f25", "fusion_lon": 0.0, "bike_id": "973936c0170c3fb41c95cce011c86f25", "is_disabled": 0, "is_reserved": 0}, {"rental_uris": {"ios": "https://dc.lft.to/lastmile_qr_scan", "android": "https://dc.lft.to/lastmile_qr_scan"}, "lon": -76.994775, "type": "electric_scooter", "fusion_lat": 0.0, "lat": 38.895565500000004, "name": "873955a7254bd491c6643d3235fa4667", "fusion_lon": 0.0, "bike_id": "873955a7254bd491c6643d3235fa4667", "is_disabled": 0, "is_reserved": 0}, {"rental_uris": {"ios": "https://dc.lft.to/lastmile_qr_scan", "android": "https://dc.lft.to/lastmile_qr_scan"}, "lon": -76.931581, "type": "electric_scooter", "fusion_lat": 0.0, "lat": 38.898770166666665, "name": "a030ac576577631e2f1aa239b9bb16c2", "fusion_lon": 0.0, "bike_id": "a030ac576577631e2f1aa239b9bb16c2", "is_disabled": 0, "is_reserved": 0}, {"rental_uris": {"ios": "https://dc.lft.to/lastmile_qr_scan", "android": "https://dc.lft.to/lastmile_qr_scan"}, "lon": -77.04705983333334, "type": "electric_scooter", "fusion_lat": 0.0, "lat": 38.908661333333335, "name": "6692304fd03808183e5858c5228ba343", "fusion_lon": 0.0, "bike_id": "6692304fd03808183e5858c5228ba343", "is_disabled": 0, "is_reserved": 0}, {"rental_uris": {"ios": "https://dc.lft.to/lastmile_qr_scan", "android": "https://dc.lft.to/lastmile_qr_scan"}, "lon": -77.01184716666667, "type": "electric_scooter", "fusion_lat": 0.0, "lat": 38.900229333333336, "name": "8c99f1bf46accbd05eb6507036bce6e4", "fusion_lon": 0.0, "bike_id": "8c99f1bf46accbd05eb6507036bce6e4", "is_disabled": 0, "is_reserved": 0}, {"rental_uris": {"ios": "https://dc.lft.to/lastmile_qr_scan", "android": "https://dc.lft.to/lastmile_qr_scan"}, "lon": -77.03481916666667, "type": "electric_scooter", "fusion_lat": 0.0, "lat": 38.91923333333333, "name": "6cd07d3eaa3e014ba90311809d28b47c", "fusion_lon": 0.0, "bike_id": "6cd07d3eaa3e014ba90311809d28b47c", "is_disabled": 0, "is_reserved": 0}, {"rental_uris": {"ios": "https://dc.lft.to/lastmile_qr_scan", "android": "https://dc.lft.to/lastmile_qr_scan"}, "lon": -77.015278, "type": "electric_scooter", "fusion_lat": 0.0, "lat": 38.91612416666667, "name": "5360a854571c48d902ef5abb186accb6", "fusion_lon": 0.0, "bike_id": "5360a854571c48d902ef5abb186accb6", "is_disabled": 0, "is_reserved": 0}, {"rental_uris": {"ios": "https://dc.lft.to/lastmile_qr_scan", "android": "https://dc.lft.to/lastmile_qr_scan"}, "lon": -77.031674, "type": "electric_scooter", "fusion_lat": 0.0, "lat": 38.91556466666667, "name": "ccf5d7261ac0a4c0e214a7f0a17aa1fe", "fusion_lon": 0.0, "bike_id": "ccf5d7261ac0a4c0e214a7f0a17aa1fe", "is_disabled": 0, "is_reserved": 0}, {"rental_uris": {"ios": "https://dc.lft.to/lastmile_qr_scan", "android": "https://dc.lft.to/lastmile_qr_scan"}, "lon": -77.02814366666667, "type": "electric_scooter", "fusion_lat": 0.0, "lat": 38.899138666666666, "name": "f49d108fdd99689432fc04b14628c4b9", "fusion_lon": 0.0, "bike_id": "f49d108fdd99689432fc04b14628c4b9", "is_disabled": 0, "is_reserved": 0}, {"rental_uris": {"ios": "https://dc.lft.to/lastmile_qr_scan", "android": "https://dc.lft.to/lastmile_qr_scan"}, "lon": -77.02714766666666, "type": "electric_scooter", "fusion_lat": 0.0, "lat": 38.911796833333334, "name": "7e08dd9f05fa427983d1d3f5eee32a17", "fusion_lon": 0.0, "bike_id": "7e08dd9f05fa427983d1d3f5eee32a17", "is_disabled": 0, "is_reserved": 0}, {"rental_uris": {"ios": "https://dc.lft.to/lastmile_qr_scan", "android": "https://dc.lft.to/lastmile_qr_scan"}, "lon": -76.96529283333334, "type": "electric_scooter", "fusion_lat": 0.0, "lat": 38.876294, "name": "2272a85cece19efe4dac1d5ab5752d15", "fusion_lon": 0.0, "bike_id": "2272a85cece19efe4dac1d5ab5752d15", "is_disabled": 0, "is_reserved": 0}, {"rental_uris": {"ios": "https://dc.lft.to/lastmile_qr_scan", "android": "https://dc.lft.to/lastmile_qr_scan"}, "lon": -77.040184, "type": "electric_scooter", "fusion_lat": 0.0, "lat": 38.92184066666667, "name": "8a70f1c16dea5a72e027229dc043895d", "fusion_lon": 0.0, "bike_id": "8a70f1c16dea5a72e027229dc043895d", "is_disabled": 0, "is_reserved": 0}, {"rental_uris": {"ios": "https://dc.lft.to/lastmile_qr_scan", "android": "https://dc.lft.to/lastmile_qr_scan"}, "lon": -77.04187583333334, "type": "electric_scooter", "fusion_lat": 0.0, "lat": 38.912667, "name": "d8d5482bf070fc3a4f8d84f9451df2a6", "fusion_lon": 0.0, "bike_id": "d8d5482bf070fc3a4f8d84f9451df2a6", "is_disabled": 0, "is_reserved": 0}, {"rental_uris": {"ios": "https://dc.lft.to/lastmile_qr_scan", "android": "https://dc.lft.to/lastmile_qr_scan"}, "lon": -77.01612416666667, "type": "electric_scooter", "fusion_lat": 0.0, "lat": 38.8999145, "name": "248b3bf0eaebdbde5e115809f34a88e8", "fusion_lon": 0.0, "bike_id": "248b3bf0eaebdbde5e115809f34a88e8", "is_disabled": 0, "is_reserved": 0}, {"rental_uris": {"ios": "https://dc.lft.to/lastmile_qr_scan", "android": "https://dc.lft.to/lastmile_qr_scan"}, "lon": -77.01115216666666, "type": "electric_scooter", "fusion_lat": 0.0, "lat": 38.9035995, "name": "074363d91c539552e3c8bea00006830a", "fusion_lon": 0.0, "bike_id": "074363d91c539552e3c8bea00006830a", "is_disabled": 0, "is_reserved": 0}, {"rental_uris": {"ios": "https://dc.lft.to/lastmile_qr_scan", "android": "https://dc.lft.to/lastmile_qr_scan"}, "lon": -77.02840116666667, "type": "electric_scooter", "fusion_lat": 0.0, "lat": 38.8877095, "name": "a5502ded60f2779703188df120207cc6", "fusion_lon": 0.0, "bike_id": "a5502ded60f2779703188df120207cc6", "is_disabled": 0, "is_reserved": 0}, {"rental_uris": {"ios": "https://dc.lft.to/lastmile_qr_scan", "android": "https://dc.lft.to/lastmile_qr_scan"}, "lon": -77.04046233333334, "type": "electric_scooter", "fusion_lat": 0.0, "lat": 38.925628333333336, "name": "ab2f5fe5dbd890a345d83418b3e252ec", "fusion_lon": 0.0, "bike_id": "ab2f5fe5dbd890a345d83418b3e252ec", "is_disabled": 0, "is_reserved": 0}, {"rental_uris": {"ios": "https://dc.lft.to/lastmile_qr_scan", "android": "https://dc.lft.to/lastmile_qr_scan"}, "lon": -77.03259783333333, "type": "electric_scooter", "fusion_lat": 0.0, "lat": 38.91402083333333, "name": "9112b6a20c660c20ee4410a010c99e14", "fusion_lon": 0.0, "bike_id": "9112b6a20c660c20ee4410a010c99e14", "is_disabled": 0, "is_reserved": 0}, {"rental_uris": {"ios": "https://dc.lft.to/lastmile_qr_scan", "android": "https://dc.lft.to/lastmile_qr_scan"}, "lon": -76.98702933333334, "type": "electric_bike", "fusion_lat": 0.0, "lat": 38.901557833333335, "name": "97b2fcc6d9976e94abe0597bde8f5246", "fusion_lon": 0.0, "bike_id": "97b2fcc6d9976e94abe0597bde8f5246", "is_disabled": 0, "is_reserved": 0}, {"rental_uris": {"ios": "https://dc.lft.to/lastmile_qr_scan", "android": "https://dc.lft.to/lastmile_qr_scan"}, "lon": -77.12746533333333, "type": "electric_bike", "fusion_lat": 0.0, "lat": 38.888215, "name": "a078bcc0692fc0e1296f80ba6f7015b7", "fusion_lon": 0.0, "bike_id": "a078bcc0692fc0e1296f80ba6f7015b7", "is_disabled": 0, "is_reserved": 0}, {"rental_uris": {"ios": "https://dc.lft.to/lastmile_qr_scan", "android": "https://dc.lft.to/lastmile_qr_scan"}, "lon": -77.03175483333334, "type": "electric_scooter", "fusion_lat": 0.0, "lat": 38.8959915, "name": "43594a239bb2bc8f312ad69978a07397", "fusion_lon": 0.0, "bike_id": "43594a239bb2bc8f312ad69978a07397", "is_disabled": 0, "is_reserved": 0}, {"rental_uris": {"ios": "https://dc.lft.to/lastmile_qr_scan", "android": "https://dc.lft.to/lastmile_qr_scan"}, "lon": -77.02389583333333, "type": "electric_scooter", "fusion_lat": 0.0, "lat": 38.88738816666667, "name": "839cf59b8074760fa30c654ac94605f9", "fusion_lon": 0.0, "bike_id": "839cf59b8074760fa30c654ac94605f9", "is_disabled": 0, "is_reserved": 0}, {"rental_uris": {"ios": "https://dc.lft.to/lastmile_qr_scan", "android": "https://dc.lft.to/lastmile_qr_scan"}, "lon": -77.061642, "type": "electric_scooter", "fusion_lat": 0.0, "lat": 38.94221, "name": "665c1e703e7441e6b21f9e7b97216af0", "fusion_lon": 0.0, "bike_id": "665c1e703e7441e6b21f9e7b97216af0", "is_disabled": 0, "is_reserved": 0}, {"rental_uris": {"ios": "https://dc.lft.to/lastmile_qr_scan", "android": "https://dc.lft.to/lastmile_qr_scan"}, "lon": -77.02988, "type": "electric_scooter", "fusion_lat": 0.0, "lat": 38.931164333333335, "name": "2bc79dad752e65e34ae9afd9e441e861", "fusion_lon": 0.0, "bike_id": "2bc79dad752e65e34ae9afd9e441e861", "is_disabled": 0, "is_reserved": 0}, {"rental_uris": {"ios": "https://dc.lft.to/lastmile_qr_scan", "android": "https://dc.lft.to/lastmile_qr_scan"}, "lon": -76.97888916666666, "type": "electric_scooter", "fusion_lat": 0.0, "lat": 38.916745, "name": "4d3dcefb2822f494d3aa795b56c6ad87", "fusion_lon": 0.0, "bike_id": "4d3dcefb2822f494d3aa795b56c6ad87", "is_disabled": 0, "is_reserved": 0}, {"rental_uris": {"ios": "https://dc.lft.to/lastmile_qr_scan", "android": "https://dc.lft.to/lastmile_qr_scan"}, "lon": -77.02315783333333, "type": "electric_scooter", "fusion_lat": 0.0, "lat": 38.9276345, "name": "5e4e93396f1c301e980d5d3942979bfc", "fusion_lon": 0.0, "bike_id": "5e4e93396f1c301e980d5d3942979bfc", "is_disabled": 0, "is_reserved": 0}, {"rental_uris": {"ios": "https://dc.lft.to/lastmile_qr_scan", "android": "https://dc.lft.to/lastmile_qr_scan"}, "lon": -77.049328, "type": "electric_scooter", "fusion_lat": 0.0, "lat": 38.8966625, "name": "cc4c8b6b301651afb86e66dd63f07397", "fusion_lon": 0.0, "bike_id": "cc4c8b6b301651afb86e66dd63f07397", "is_disabled": 0, "is_reserved": 0}, {"rental_uris": {"ios": "https://dc.lft.to/lastmile_qr_scan", "android": "https://dc.lft.to/lastmile_qr_scan"}, "lon": -77.04662983333333, "type": "electric_scooter", "fusion_lat": 0.0, "lat": 38.905583, "name": "7d99e673027cf8cc5e814e43eb30bbb9", "fusion_lon": 0.0, "bike_id": "7d99e673027cf8cc5e814e43eb30bbb9", "is_disabled": 0, "is_reserved": 0}, {"rental_uris": {"ios": "https://dc.lft.to/lastmile_qr_scan", "android": "https://dc.lft.to/lastmile_qr_scan"}, "lon": -76.98768266666667, "type": "electric_scooter", "fusion_lat": 0.0, "lat": 38.91178583333333, "name": "9a4017c8466d0dd52625b72e59683446", "fusion_lon": 0.0, "bike_id": "9a4017c8466d0dd52625b72e59683446", "is_disabled": 0, "is_reserved": 0}, {"rental_uris": {"ios": "https://dc.lft.to/lastmile_qr_scan", "android": "https://dc.lft.to/lastmile_qr_scan"}, "lon": -76.93160433333334, "type": "electric_scooter", "fusion_lat": 0.0, "lat": 38.89874616666667, "name": "a2b22eb527ad26e29fcbf18a069fa3eb", "fusion_lon": 0.0, "bike_id": "a2b22eb527ad26e29fcbf18a069fa3eb", "is_disabled": 0, "is_reserved": 0}, {"rental_uris": {"ios": "https://dc.lft.to/lastmile_qr_scan", "android": "https://dc.lft.to/lastmile_qr_scan"}, "lon": -76.93522616666667, "type": "electric_scooter", "fusion_lat": 0.0, "lat": 38.90867516666667, "name": "8cebb21b001d16eca090dfb0fedd7622", "fusion_lon": 0.0, "bike_id": "8cebb21b001d16eca090dfb0fedd7622", "is_disabled": 0, "is_reserved": 0}, {"rental_uris": {"ios": "https://dc.lft.to/lastmile_qr_scan", "android": "https://dc.lft.to/lastmile_qr_scan"}, "lon": -77.02982483333334, "type": "electric_scooter", "fusion_lat": 0.0, "lat": 38.90784766666667, "name": "d856ad2cd1a13cf501211cbedba6613e", "fusion_lon": 0.0, "bike_id": "d856ad2cd1a13cf501211cbedba6613e", "is_disabled": 0, "is_reserved": 0}, {"rental_uris": {"ios": "https://dc.lft.to/lastmile_qr_scan", "android": "https://dc.lft.to/lastmile_qr_scan"}, "lon": -76.93811516666666, "type": "electric_scooter", "fusion_lat": 0.0, "lat": 38.913054333333335, "name": "3025f3c07e374e86139825d91b166eb7", "fusion_lon": 0.0, "bike_id": "3025f3c07e374e86139825d91b166eb7", "is_disabled": 0, "is_reserved": 0}, {"rental_uris": {"ios": "https://dc.lft.to/lastmile_qr_scan", "android": "https://dc.lft.to/lastmile_qr_scan"}, "lon": -77.00071166666666, "type": "electric_scooter", "fusion_lat": 0.0, "lat": 38.925478166666664, "name": "9c7ebb425d11664784b834d80222e421", "fusion_lon": 0.0, "bike_id": "9c7ebb425d11664784b834d80222e421", "is_disabled": 0, "is_reserved": 0}, {"rental_uris": {"ios": "https://dc.lft.to/lastmile_qr_scan", "android": "https://dc.lft.to/lastmile_qr_scan"}, "lon": -77.048226, "type": "electric_scooter", "fusion_lat": 0.0, "lat": 38.9202705, "name": "68b85f2ec9bedfecbb267ff70ac81c34", "fusion_lon": 0.0, "bike_id": "68b85f2ec9bedfecbb267ff70ac81c34", "is_disabled": 0, "is_reserved": 0}, {"rental_uris": {"ios": "https://dc.lft.to/lastmile_qr_scan", "android": "https://dc.lft.to/lastmile_qr_scan"}, "lon": -76.99824333333333, "type": "electric_bike", "fusion_lat": 0.0, "lat": 38.84454516666667, "name": "3063bda856e6f60c935050c0039c8aea", "fusion_lon": 0.0, "bike_id": "3063bda856e6f60c935050c0039c8aea", "is_disabled": 0, "is_reserved": 0}, {"rental_uris": {"ios": "https://dc.lft.to/lastmile_qr_scan", "android": "https://dc.lft.to/lastmile_qr_scan"}, "lon": -76.9466215, "type": "electric_scooter", "fusion_lat": 0.0, "lat": 38.89868766666667, "name": "840eca881103cbad99b395c67b6d0653", "fusion_lon": 0.0, "bike_id": "840eca881103cbad99b395c67b6d0653", "is_disabled": 0, "is_reserved": 0}, {"rental_uris": {"ios": "https://dc.lft.to/lastmile_qr_scan", "android": "https://dc.lft.to/lastmile_qr_scan"}, "lon": -77.01188416666666, "type": "electric_scooter", "fusion_lat": 0.0, "lat": 38.915438, "name": "62d2e46865c4cf06e3bacb861034459a", "fusion_lon": 0.0, "bike_id": "62d2e46865c4cf06e3bacb861034459a", "is_disabled": 0, "is_reserved": 0}, {"rental_uris": {"ios": "https://dc.lft.to/lastmile_qr_scan", "android": "https://dc.lft.to/lastmile_qr_scan"}, "lon": -77.025314, "type": "electric_scooter", "fusion_lat": 0.0, "lat": 38.9181795, "name": "990b503865e1f3cdf5e023e4aa7dafec", "fusion_lon": 0.0, "bike_id": "990b503865e1f3cdf5e023e4aa7dafec", "is_disabled": 0, "is_reserved": 0}, {"rental_uris": {"ios": "https://dc.lft.to/lastmile_qr_scan", "android": "https://dc.lft.to/lastmile_qr_scan"}, "lon": -77.04173416666667, "type": "electric_scooter", "fusion_lat": 0.0, "lat": 38.90364483333333, "name": "1162bd7fbf1a421d3d40ac2478411073", "fusion_lon": 0.0, "bike_id": "1162bd7fbf1a421d3d40ac2478411073", "is_disabled": 0, "is_reserved": 0}, {"rental_uris": {"ios": "https://dc.lft.to/lastmile_qr_scan", "android": "https://dc.lft.to/lastmile_qr_scan"}, "lon": -77.1526775, "type": "electric_bike", "fusion_lat": 0.0, "lat": 39.105648333333335, "name": "7e03af7c3d063ec0c343fc7b3c1ad62f", "fusion_lon": 0.0, "bike_id": "7e03af7c3d063ec0c343fc7b3c1ad62f", "is_disabled": 0, "is_reserved": 0}, {"rental_uris": {"ios": "https://dc.lft.to/lastmile_qr_scan", "android": "https://dc.lft.to/lastmile_qr_scan"}, "lon": -76.9575115, "type": "electric_scooter", "fusion_lat": 0.0, "lat": 38.88428616666667, "name": "59b8569c263cf6141e7abeb0f6db8240", "fusion_lon": 0.0, "bike_id": "59b8569c263cf6141e7abeb0f6db8240", "is_disabled": 0, "is_reserved": 0}, {"rental_uris": {"ios": "https://dc.lft.to/lastmile_qr_scan", "android": "https://dc.lft.to/lastmile_qr_scan"}, "lon": -77.02996316666666, "type": "electric_scooter", "fusion_lat": 0.0, "lat": 38.910190166666666, "name": "ea04e862f9aac7217c9d5ed7cb2c6839", "fusion_lon": 0.0, "bike_id": "ea04e862f9aac7217c9d5ed7cb2c6839", "is_disabled": 0, "is_reserved": 0}, {"rental_uris": {"ios": "https://dc.lft.to/lastmile_qr_scan", "android": "https://dc.lft.to/lastmile_qr_scan"}, "lon": -77.01413133333334, "type": "electric_scooter", "fusion_lat": 0.0, "lat": 38.928104, "name": "a95e5d7bb9ecfd35fb50e8e5ec3611bc", "fusion_lon": 0.0, "bike_id": "a95e5d7bb9ecfd35fb50e8e5ec3611bc", "is_disabled": 0, "is_reserved": 0}, {"rental_uris": {"ios": "https://dc.lft.to/lastmile_qr_scan", "android": "https://dc.lft.to/lastmile_qr_scan"}, "lon": -76.983247, "type": "electric_scooter", "fusion_lat": 0.0, "lat": 38.86172466666667, "name": "5829f017e597c9dcbbb2ac5faf14426c", "fusion_lon": 0.0, "bike_id": "5829f017e597c9dcbbb2ac5faf14426c", "is_disabled": 0, "is_reserved": 0}, {"rental_uris": {"ios": "https://dc.lft.to/lastmile_qr_scan", "android": "https://dc.lft.to/lastmile_qr_scan"}, "lon": -77.00261483333334, "type": "electric_scooter", "fusion_lat": 0.0, "lat": 38.87761783333333, "name": "377a94a4a623f030361f360aae86c1c9", "fusion_lon": 0.0, "bike_id": "377a94a4a623f030361f360aae86c1c9", "is_disabled": 0, "is_reserved": 0}, {"rental_uris": {"ios": "https://dc.lft.to/lastmile_qr_scan", "android": "https://dc.lft.to/lastmile_qr_scan"}, "lon": -77.04157216666667, "type": "electric_scooter", "fusion_lat": 0.0, "lat": 38.91930816666667, "name": "23518e3bafeb47956cb6cdcfd2fc6825", "fusion_lon": 0.0, "bike_id": "23518e3bafeb47956cb6cdcfd2fc6825", "is_disabled": 0, "is_reserved": 0}, {"rental_uris": {"ios": "https://dc.lft.to/lastmile_qr_scan", "android": "https://dc.lft.to/lastmile_qr_scan"}, "lon": -77.02971383333333, "type": "electric_scooter", "fusion_lat": 0.0, "lat": 38.922540833333336, "name": "0c0dfbf84bfc3ae2f28c1f5e3c8a3ebc", "fusion_lon": 0.0, "bike_id": "0c0dfbf84bfc3ae2f28c1f5e3c8a3ebc", "is_disabled": 0, "is_reserved": 0}, {"rental_uris": {"ios": "https://dc.lft.to/lastmile_qr_scan", "android": "https://dc.lft.to/lastmile_qr_scan"}, "lon": -77.02358983333333, "type": "electric_scooter", "fusion_lat": 0.0, "lat": 38.925154666666664, "name": "59bb4a7ce2d4c2888fda2f5624c8bb4c", "fusion_lon": 0.0, "bike_id": "59bb4a7ce2d4c2888fda2f5624c8bb4c", "is_disabled": 0, "is_reserved": 0}, {"rental_uris": {"ios": "https://dc.lft.to/lastmile_qr_scan", "android": "https://dc.lft.to/lastmile_qr_scan"}, "lon": -77.055994, "type": "electric_scooter", "fusion_lat": 0.0, "lat": 38.936937666666665, "name": "b3cc4c1bf0c4ed10f13a42c6d9a0c2a5", "fusion_lon": 0.0, "bike_id": "b3cc4c1bf0c4ed10f13a42c6d9a0c2a5", "is_disabled": 0, "is_reserved": 0}, {"rental_uris": {"ios": "https://dc.lft.to/lastmile_qr_scan", "android": "https://dc.lft.to/lastmile_qr_scan"}, "lon": -77.04699833333333, "type": "electric_scooter", "fusion_lat": 0.0, "lat": 38.9210585, "name": "3ea3d8575b95c0bf2ad2f832b153df43", "fusion_lon": 0.0, "bike_id": "3ea3d8575b95c0bf2ad2f832b153df43", "is_disabled": 0, "is_reserved": 0}, {"rental_uris": {"ios": "https://dc.lft.to/lastmile_qr_scan", "android": "https://dc.lft.to/lastmile_qr_scan"}, "lon": -77.03236166666667, "type": "electric_scooter", "fusion_lat": 0.0, "lat": 38.89627016666667, "name": "4747036b5cb9f253a8502b26c78286a6", "fusion_lon": 0.0, "bike_id": "4747036b5cb9f253a8502b26c78286a6", "is_disabled": 0, "is_reserved": 0}, {"rental_uris": {"ios": "https://dc.lft.to/lastmile_qr_scan", "android": "https://dc.lft.to/lastmile_qr_scan"}, "lon": -77.02886466666666, "type": "electric_scooter", "fusion_lat": 0.0, "lat": 38.904674666666665, "name": "bcc805999f39309aa2b056c94a54bc00", "fusion_lon": 0.0, "bike_id": "bcc805999f39309aa2b056c94a54bc00", "is_disabled": 0, "is_reserved": 0}, {"rental_uris": {"ios": "https://dc.lft.to/lastmile_qr_scan", "android": "https://dc.lft.to/lastmile_qr_scan"}, "lon": -77.09163, "type": "electric_bike", "fusion_lat": 0.0, "lat": 38.967628500000004, "name": "c747832065122da3ca7e2b4c4d44f903", "fusion_lon": 0.0, "bike_id": "c747832065122da3ca7e2b4c4d44f903", "is_disabled": 0, "is_reserved": 0}, {"rental_uris": {"ios": "https://dc.lft.to/lastmile_qr_scan", "android": "https://dc.lft.to/lastmile_qr_scan"}, "lon": -77.037444, "type": "electric_scooter", "fusion_lat": 0.0, "lat": 38.925812666666666, "name": "ea170b97cc321709232a04af8464e7b8", "fusion_lon": 0.0, "bike_id": "ea170b97cc321709232a04af8464e7b8", "is_disabled": 0, "is_reserved": 0}, {"rental_uris": {"ios": "https://dc.lft.to/lastmile_qr_scan", "android": "https://dc.lft.to/lastmile_qr_scan"}, "lon": -77.01339383333334, "type": "electric_scooter", "fusion_lat": 0.0, "lat": 38.96607733333333, "name": "a8555ac1787fb19ea924ebf51a84f43e", "fusion_lon": 0.0, "bike_id": "a8555ac1787fb19ea924ebf51a84f43e", "is_disabled": 0, "is_reserved": 0}, {"rental_uris": {"ios": "https://dc.lft.to/lastmile_qr_scan", "android": "https://dc.lft.to/lastmile_qr_scan"}, "lon": -77.0380155, "type": "electric_scooter", "fusion_lat": 0.0, "lat": 38.935844333333335, "name": "c5547971b16ec32a777a7f7353ce9e6e", "fusion_lon": 0.0, "bike_id": "c5547971b16ec32a777a7f7353ce9e6e", "is_disabled": 0, "is_reserved": 0}, {"rental_uris": {"ios": "https://dc.lft.to/lastmile_qr_scan", "android": "https://dc.lft.to/lastmile_qr_scan"}, "lon": -77.04406716666666, "type": "electric_scooter", "fusion_lat": 0.0, "lat": 38.874271666666665, "name": "96903c96ece68395061015ce46fad43b", "fusion_lon": 0.0, "bike_id": "96903c96ece68395061015ce46fad43b", "is_disabled": 0, "is_reserved": 0}, {"rental_uris": {"ios": "https://dc.lft.to/lastmile_qr_scan", "android": "https://dc.lft.to/lastmile_qr_scan"}, "lon": -77.02313583333333, "type": "electric_scooter", "fusion_lat": 0.0, "lat": 38.8833725, "name": "fa84d25bef0d39cd9387e6ad0107ab42", "fusion_lon": 0.0, "bike_id": "fa84d25bef0d39cd9387e6ad0107ab42", "is_disabled": 0, "is_reserved": 0}, {"rental_uris": {"ios": "https://dc.lft.to/lastmile_qr_scan", "android": "https://dc.lft.to/lastmile_qr_scan"}, "lon": -77.0312, "type": "electric_scooter", "fusion_lat": 0.0, "lat": 38.973758, "name": "cf33d54c0719e9159eee95e7a856e970", "fusion_lon": 0.0, "bike_id": "cf33d54c0719e9159eee95e7a856e970", "is_disabled": 0, "is_reserved": 0}, {"rental_uris": {"ios": "https://dc.lft.to/lastmile_qr_scan", "android": "https://dc.lft.to/lastmile_qr_scan"}, "lon": -77.03976233333333, "type": "electric_scooter", "fusion_lat": 0.0, "lat": 38.902356833333336, "name": "e74eb26a387cdbff9364b249de0027d6", "fusion_lon": 0.0, "bike_id": "e74eb26a387cdbff9364b249de0027d6", "is_disabled": 0, "is_reserved": 0}, {"rental_uris": {"ios": "https://dc.lft.to/lastmile_qr_scan", "android": "https://dc.lft.to/lastmile_qr_scan"}, "lon": -77.039198, "type": "electric_scooter", "fusion_lat": 0.0, "lat": 38.91759966666667, "name": "8f887481332357d8b2645a4d753ac891", "fusion_lon": 0.0, "bike_id": "8f887481332357d8b2645a4d753ac891", "is_disabled": 0, "is_reserved": 0}, {"rental_uris": {"ios": "https://dc.lft.to/lastmile_qr_scan", "android": "https://dc.lft.to/lastmile_qr_scan"}, "lon": -77.04181866666667, "type": "electric_scooter", "fusion_lat": 0.0, "lat": 38.9185325, "name": "d50ce8502bd9909a490853aa32f60689", "fusion_lon": 0.0, "bike_id": "d50ce8502bd9909a490853aa32f60689", "is_disabled": 0, "is_reserved": 0}, {"rental_uris": {"ios": "https://dc.lft.to/lastmile_qr_scan", "android": "https://dc.lft.to/lastmile_qr_scan"}, "lon": -76.961745, "type": "electric_bike", "fusion_lat": 0.0, "lat": 38.91855416666667, "name": "a12724ac38c8bad15c9b1a8f55be0fe7", "fusion_lon": 0.0, "bike_id": "a12724ac38c8bad15c9b1a8f55be0fe7", "is_disabled": 0, "is_reserved": 0}, {"rental_uris": {"ios": "https://dc.lft.to/lastmile_qr_scan", "android": "https://dc.lft.to/lastmile_qr_scan"}, "lon": -77.00146683333334, "type": "electric_bike", "fusion_lat": 0.0, "lat": 38.90851166666667, "name": "f638ad0c8329103f9e4b2df9ed9e08a8", "fusion_lon": 0.0, "bike_id": "f638ad0c8329103f9e4b2df9ed9e08a8", "is_disabled": 0, "is_reserved": 0}, {"rental_uris": {"ios": "https://dc.lft.to/lastmile_qr_scan", "android": "https://dc.lft.to/lastmile_qr_scan"}, "lon": -77.02096066666667, "type": "electric_scooter", "fusion_lat": 0.0, "lat": 38.88509216666667, "name": "95e98bba022c57b773faa04711f04eba", "fusion_lon": 0.0, "bike_id": "95e98bba022c57b773faa04711f04eba", "is_disabled": 0, "is_reserved": 0}, {"rental_uris": {"ios": "https://dc.lft.to/lastmile_qr_scan", "android": "https://dc.lft.to/lastmile_qr_scan"}, "lon": -77.02596766666667, "type": "electric_scooter", "fusion_lat": 0.0, "lat": 38.887417, "name": "5d1e08051d2cbf15e5adbe79bfa9821b", "fusion_lon": 0.0, "bike_id": "5d1e08051d2cbf15e5adbe79bfa9821b", "is_disabled": 0, "is_reserved": 0}, {"rental_uris": {"ios": "https://dc.lft.to/lastmile_qr_scan", "android": "https://dc.lft.to/lastmile_qr_scan"}, "lon": -77.02400766666666, "type": "electric_scooter", "fusion_lat": 0.0, "lat": 38.91599, "name": "ebe1db801c8eb6c1ea9b92edf7b4ac1d", "fusion_lon": 0.0, "bike_id": "ebe1db801c8eb6c1ea9b92edf7b4ac1d", "is_disabled": 0, "is_reserved": 0}, {"rental_uris": {"ios": "https://dc.lft.to/lastmile_qr_scan", "android": "https://dc.lft.to/lastmile_qr_scan"}, "lon": -76.94617266666667, "type": "electric_bike", "fusion_lat": 0.0, "lat": 38.832351333333335, "name": "51bcdfd4d108f4587c0bbe5be51ec919", "fusion_lon": 0.0, "bike_id": "51bcdfd4d108f4587c0bbe5be51ec919", "is_disabled": 0, "is_reserved": 0}, {"rental_uris": {"ios": "https://dc.lft.to/lastmile_qr_scan", "android": "https://dc.lft.to/lastmile_qr_scan"}, "lon": -76.9759605, "type": "electric_scooter", "fusion_lat": 0.0, "lat": 38.90328616666667, "name": "5adfae75df584a639a8d63ccb8ecfc6f", "fusion_lon": 0.0, "bike_id": "5adfae75df584a639a8d63ccb8ecfc6f", "is_disabled": 0, "is_reserved": 0}, {"rental_uris": {"ios": "https://dc.lft.to/lastmile_qr_scan", "android": "https://dc.lft.to/lastmile_qr_scan"}, "lon": -77.0514225, "type": "electric_scooter", "fusion_lat": 0.0, "lat": 38.8991695, "name": "e5a772753508162d2b7f0a0972fc86e6", "fusion_lon": 0.0, "bike_id": "e5a772753508162d2b7f0a0972fc86e6", "is_disabled": 0, "is_reserved": 0}, {"rental_uris": {"ios": "https://dc.lft.to/lastmile_qr_scan", "android": "https://dc.lft.to/lastmile_qr_scan"}, "lon": -77.041384, "type": "electric_scooter", "fusion_lat": 0.0, "lat": 38.911935166666666, "name": "97f54021e5e9fe026b5b3115c2d6cba7", "fusion_lon": 0.0, "bike_id": "97f54021e5e9fe026b5b3115c2d6cba7", "is_disabled": 0, "is_reserved": 0}, {"rental_uris": {"ios": "https://dc.lft.to/lastmile_qr_scan", "android": "https://dc.lft.to/lastmile_qr_scan"}, "lon": -77.00337183333333, "type": "electric_scooter", "fusion_lat": 0.0, "lat": 38.89350433333333, "name": "1668a494a8f215fd55fdf48f7ed8ecd2", "fusion_lon": 0.0, "bike_id": "1668a494a8f215fd55fdf48f7ed8ecd2", "is_disabled": 0, "is_reserved": 0}, {"rental_uris": {"ios": "https://dc.lft.to/lastmile_qr_scan", "android": "https://dc.lft.to/lastmile_qr_scan"}, "lon": -77.04132433333334, "type": "electric_scooter", "fusion_lat": 0.0, "lat": 38.902493, "name": "4fff71111058d969149dcc4177458841", "fusion_lon": 0.0, "bike_id": "4fff71111058d969149dcc4177458841", "is_disabled": 0, "is_reserved": 0}, {"rental_uris": {"ios": "https://dc.lft.to/lastmile_qr_scan", "android": "https://dc.lft.to/lastmile_qr_scan"}, "lon": -77.04373183333334, "type": "electric_scooter", "fusion_lat": 0.0, "lat": 38.93337783333333, "name": "bc9cfe9ad7ada554ea3ba8e4216782b8", "fusion_lon": 0.0, "bike_id": "bc9cfe9ad7ada554ea3ba8e4216782b8", "is_disabled": 0, "is_reserved": 0}, {"rental_uris": {"ios": "https://dc.lft.to/lastmile_qr_scan", "android": "https://dc.lft.to/lastmile_qr_scan"}, "lon": -77.015803, "type": "electric_scooter", "fusion_lat": 0.0, "lat": 38.9168565, "name": "fb841e518c1b9f2575ebd87b824dc412", "fusion_lon": 0.0, "bike_id": "fb841e518c1b9f2575ebd87b824dc412", "is_disabled": 0, "is_reserved": 0}, {"rental_uris": {"ios": "https://dc.lft.to/lastmile_qr_scan", "android": "https://dc.lft.to/lastmile_qr_scan"}, "lon": -77.36087016666667, "type": "electric_bike", "fusion_lat": 0.0, "lat": 38.939609, "name": "557bb78577b71a54cf7f716b320974db", "fusion_lon": 0.0, "bike_id": "557bb78577b71a54cf7f716b320974db", "is_disabled": 0, "is_reserved": 0}, {"rental_uris": {"ios": "https://dc.lft.to/lastmile_qr_scan", "android": "https://dc.lft.to/lastmile_qr_scan"}, "lon": -76.97985833333334, "type": "electric_bike", "fusion_lat": 0.0, "lat": 38.877516, "name": "44673692eb06a500a4738ab71cd05d4c", "fusion_lon": 0.0, "bike_id": "44673692eb06a500a4738ab71cd05d4c", "is_disabled": 0, "is_reserved": 0}, {"rental_uris": {"ios": "https://dc.lft.to/lastmile_qr_scan", "android": "https://dc.lft.to/lastmile_qr_scan"}, "lon": -77.03497566666667, "type": "electric_scooter", "fusion_lat": 0.0, "lat": 38.928609, "name": "7f4a821a96ec99f4b6333fcca13c14b7", "fusion_lon": 0.0, "bike_id": "7f4a821a96ec99f4b6333fcca13c14b7", "is_disabled": 0, "is_reserved": 0}, {"rental_uris": {"ios": "https://dc.lft.to/lastmile_qr_scan", "android": "https://dc.lft.to/lastmile_qr_scan"}, "lon": -77.04677133333334, "type": "electric_scooter", "fusion_lat": 0.0, "lat": 38.90562216666667, "name": "ccb0bd95d235aeb712ad96d64a5b9969", "fusion_lon": 0.0, "bike_id": "ccb0bd95d235aeb712ad96d64a5b9969", "is_disabled": 0, "is_reserved": 0}, {"rental_uris": {"ios": "https://dc.lft.to/lastmile_qr_scan", "android": "https://dc.lft.to/lastmile_qr_scan"}, "lon": -77.01086916666667, "type": "electric_scooter", "fusion_lat": 0.0, "lat": 38.9182235, "name": "1efc1474802e2bf2a734ca1b8ccf924d", "fusion_lon": 0.0, "bike_id": "1efc1474802e2bf2a734ca1b8ccf924d", "is_disabled": 0, "is_reserved": 0}, {"rental_uris": {"ios": "https://dc.lft.to/lastmile_qr_scan", "android": "https://dc.lft.to/lastmile_qr_scan"}, "lon": -77.04084916666666, "type": "electric_scooter", "fusion_lat": 0.0, "lat": 38.907161333333335, "name": "f9ca28c6059ec736a117eb810bcdade2", "fusion_lon": 0.0, "bike_id": "f9ca28c6059ec736a117eb810bcdade2", "is_disabled": 0, "is_reserved": 0}, {"rental_uris": {"ios": "https://dc.lft.to/lastmile_qr_scan", "android": "https://dc.lft.to/lastmile_qr_scan"}, "lon": -77.00102583333333, "type": "electric_scooter", "fusion_lat": 0.0, "lat": 38.89428983333333, "name": "08e4ea17ea9b9191f265e70b204f9398", "fusion_lon": 0.0, "bike_id": "08e4ea17ea9b9191f265e70b204f9398", "is_disabled": 0, "is_reserved": 0}, {"rental_uris": {"ios": "https://dc.lft.to/lastmile_qr_scan", "android": "https://dc.lft.to/lastmile_qr_scan"}, "lon": -77.032925, "type": "electric_scooter", "fusion_lat": 0.0, "lat": 38.922066666666666, "name": "1174d830eca30d4798687a95f04dff45", "fusion_lon": 0.0, "bike_id": "1174d830eca30d4798687a95f04dff45", "is_disabled": 0, "is_reserved": 0}, {"rental_uris": {"ios": "https://dc.lft.to/lastmile_qr_scan", "android": "https://dc.lft.to/lastmile_qr_scan"}, "lon": -76.9477975, "type": "electric_bike", "fusion_lat": 0.0, "lat": 38.89438583333333, "name": "870c275562cb6e832d5590a3bf72a181", "fusion_lon": 0.0, "bike_id": "870c275562cb6e832d5590a3bf72a181", "is_disabled": 0, "is_reserved": 0}, {"rental_uris": {"ios": "https://dc.lft.to/lastmile_qr_scan", "android": "https://dc.lft.to/lastmile_qr_scan"}, "lon": -77.02091516666667, "type": "electric_scooter", "fusion_lat": 0.0, "lat": 38.910076833333335, "name": "f21131f0e8aeb2b51a7818c579ed51dd", "fusion_lon": 0.0, "bike_id": "f21131f0e8aeb2b51a7818c579ed51dd", "is_disabled": 0, "is_reserved": 0}, {"rental_uris": {"ios": "https://dc.lft.to/lastmile_qr_scan", "android": "https://dc.lft.to/lastmile_qr_scan"}, "lon": -77.0300005, "type": "electric_scooter", "fusion_lat": 0.0, "lat": 38.92481733333334, "name": "20d33b1f8d7b3eae5e6ddee6abc90486", "fusion_lon": 0.0, "bike_id": "20d33b1f8d7b3eae5e6ddee6abc90486", "is_disabled": 0, "is_reserved": 0}, {"rental_uris": {"ios": "https://dc.lft.to/lastmile_qr_scan", "android": "https://dc.lft.to/lastmile_qr_scan"}, "lon": -76.98829666666667, "type": "electric_scooter", "fusion_lat": 0.0, "lat": 38.8802635, "name": "24575af5b8b19b73760794020239d117", "fusion_lon": 0.0, "bike_id": "24575af5b8b19b73760794020239d117", "is_disabled": 0, "is_reserved": 0}, {"rental_uris": {"ios": "https://dc.lft.to/lastmile_qr_scan", "android": "https://dc.lft.to/lastmile_qr_scan"}, "lon": -77.03199166666667, "type": "electric_scooter", "fusion_lat": 0.0, "lat": 38.887024, "name": "cf2825f45503a143b9fe12f088154591", "fusion_lon": 0.0, "bike_id": "cf2825f45503a143b9fe12f088154591", "is_disabled": 0, "is_reserved": 0}, {"rental_uris": {"ios": "https://dc.lft.to/lastmile_qr_scan", "android": "https://dc.lft.to/lastmile_qr_scan"}, "lon": -77.02388783333333, "type": "electric_scooter", "fusion_lat": 0.0, "lat": 38.884699, "name": "35cbc36a07f56d50dc15ca19b2ef4337", "fusion_lon": 0.0, "bike_id": "35cbc36a07f56d50dc15ca19b2ef4337", "is_disabled": 0, "is_reserved": 0}, {"rental_uris": {"ios": "https://dc.lft.to/lastmile_qr_scan", "android": "https://dc.lft.to/lastmile_qr_scan"}, "lon": -77.0335725, "type": "electric_scooter", "fusion_lat": 0.0, "lat": 38.8995455, "name": "08f021fd06569800beb23148292ce1f5", "fusion_lon": 0.0, "bike_id": "08f021fd06569800beb23148292ce1f5", "is_disabled": 0, "is_reserved": 0}, {"rental_uris": {"ios": "https://dc.lft.to/lastmile_qr_scan", "android": "https://dc.lft.to/lastmile_qr_scan"}, "lon": -77.113147, "type": "electric_bike", "fusion_lat": 0.0, "lat": 38.85566816666667, "name": "5182db3dfa5b9464e5169d66e4c635a5", "fusion_lon": 0.0, "bike_id": "5182db3dfa5b9464e5169d66e4c635a5", "is_disabled": 0, "is_reserved": 0}, {"rental_uris": {"ios": "https://dc.lft.to/lastmile_qr_scan", "android": "https://dc.lft.to/lastmile_qr_scan"}, "lon": -77.03851066666667, "type": "electric_scooter", "fusion_lat": 0.0, "lat": 38.91205716666666, "name": "fae0fd6ac07ef5ee2f47dc6940d8cb10", "fusion_lon": 0.0, "bike_id": "fae0fd6ac07ef5ee2f47dc6940d8cb10", "is_disabled": 0, "is_reserved": 0}, {"rental_uris": {"ios": "https://dc.lft.to/lastmile_qr_scan", "android": "https://dc.lft.to/lastmile_qr_scan"}, "lon": -77.036637, "type": "electric_scooter", "fusion_lat": 0.0, "lat": 38.918161, "name": "3f35fcf68916ed5ef7c4b0d823ab7f3d", "fusion_lon": 0.0, "bike_id": "3f35fcf68916ed5ef7c4b0d823ab7f3d", "is_disabled": 0, "is_reserved": 0}, {"rental_uris": {"ios": "https://dc.lft.to/lastmile_qr_scan", "android": "https://dc.lft.to/lastmile_qr_scan"}, "lon": -76.98686066666667, "type": "electric_scooter", "fusion_lat": 0.0, "lat": 38.9128735, "name": "cfdccb749e6ad179d995fb4c5d1b71aa", "fusion_lon": 0.0, "bike_id": "cfdccb749e6ad179d995fb4c5d1b71aa", "is_disabled": 0, "is_reserved": 0}, {"rental_uris": {"ios": "https://dc.lft.to/lastmile_qr_scan", "android": "https://dc.lft.to/lastmile_qr_scan"}, "lon": -77.06877233333333, "type": "electric_scooter", "fusion_lat": 0.0, "lat": 38.9051645, "name": "c7cc78fdabe7125d2f44f3147971e890", "fusion_lon": 0.0, "bike_id": "c7cc78fdabe7125d2f44f3147971e890", "is_disabled": 0, "is_reserved": 0}, {"rental_uris": {"ios": "https://dc.lft.to/lastmile_qr_scan", "android": "https://dc.lft.to/lastmile_qr_scan"}, "lon": -77.01089366666666, "type": "electric_scooter", "fusion_lat": 0.0, "lat": 38.893996666666666, "name": "b7d1c0ae9ee1e0c88f91ecd2e678062f", "fusion_lon": 0.0, "bike_id": "b7d1c0ae9ee1e0c88f91ecd2e678062f", "is_disabled": 0, "is_reserved": 0}, {"rental_uris": {"ios": "https://dc.lft.to/lastmile_qr_scan", "android": "https://dc.lft.to/lastmile_qr_scan"}, "lon": -77.03253766666667, "type": "electric_scooter", "fusion_lat": 0.0, "lat": 38.92182733333333, "name": "baba2c593d62191d0598de8e4acc85a7", "fusion_lon": 0.0, "bike_id": "baba2c593d62191d0598de8e4acc85a7", "is_disabled": 0, "is_reserved": 0}, {"rental_uris": {"ios": "https://dc.lft.to/lastmile_qr_scan", "android": "https://dc.lft.to/lastmile_qr_scan"}, "lon": -77.04467233333334, "type": "electric_scooter", "fusion_lat": 0.0, "lat": 38.906547833333335, "name": "43512c0e88da7eb71e8426d64ef8c3a9", "fusion_lon": 0.0, "bike_id": "43512c0e88da7eb71e8426d64ef8c3a9", "is_disabled": 0, "is_reserved": 0}, {"rental_uris": {"ios": "https://dc.lft.to/lastmile_qr_scan", "android": "https://dc.lft.to/lastmile_qr_scan"}, "lon": -77.0270355, "type": "electric_scooter", "fusion_lat": 0.0, "lat": 38.918158166666664, "name": "c32f27368766b7027585a94712e9f1e9", "fusion_lon": 0.0, "bike_id": "c32f27368766b7027585a94712e9f1e9", "is_disabled": 0, "is_reserved": 0}, {"rental_uris": {"ios": "https://dc.lft.to/lastmile_qr_scan", "android": "https://dc.lft.to/lastmile_qr_scan"}, "lon": -77.03865816666666, "type": "electric_scooter", "fusion_lat": 0.0, "lat": 38.91549283333333, "name": "05820dbb7ae817862e62f15d823ad3e3", "fusion_lon": 0.0, "bike_id": "05820dbb7ae817862e62f15d823ad3e3", "is_disabled": 0, "is_reserved": 0},