{"data": {"bikes": [{"fusion_lat": 0.0, "name": "68af5bf20f2674eba732621e0ecefc02", "is_disabled": 0, "rental_uris": {"android": "https://dc.lft.to/lastmile_qr_scan", "ios": "https://dc.lft.to/lastmile_qr_scan"}, "fusion_lon": 0.0, "lat": 38.9443195, "bike_id": "68af5bf20f2674eba732621e0ecefc02", "type": "electric_bike", "is_reserved": 0, "lon": -77.02606016666667}, {"fusion_lat": 0.0, "name": "b9209c336ce2767c875166b37b53986d", "is_disabled": 0, "rental_uris": {"android": "https://dc.lft.to/lastmile_qr_scan", "ios": "https://dc.lft.to/lastmile_qr_scan"}, "fusion_lon": 0.0, "lat": 38.908809833333336, "bike_id": "b9209c336ce2767c875166b37b53986d", "type": "electric_scooter", "is_reserved": 0, "lon": -77.04358016666667}, {"fusion_lat": 0.0, "name": "52476dda8889df4815a56d62be980ed3", "is_disabled": 0, "rental_uris": {"android": "https://dc.lft.to/lastmile_qr_scan", "ios": "https://dc.lft.to/lastmile_qr_scan"}, "fusion_lon": 0.0, "lat": 38.93234733333333, "bike_id": "52476dda8889df4815a56d62be980ed3", "type": "electric_scooter", "is_reserved": 0, "lon": -77.03430716666666}, {"fusion_lat": 0.0, "name": "34697bb92a401d62c30abd4190ea841f", "is_disabled": 0, "rental_uris": {"android": "https://dc.lft.to/lastmile_qr_scan", "ios": "https://dc.lft.to/lastmile_qr_scan"}, "fusion_lon": 0.0, "lat": 38.92612666666667, "bike_id": "34697bb92a401d62c30abd4190ea841f", "type": "electric_scooter", "is_reserved": 0, "lon": -77.02163016666667}, {"fusion_lat": 0.0, "name": "2be755651af6dee9cb4d33e130275322", "is_disabled": 0, "rental_uris": {"android": "https://dc.lft.to/lastmile_qr_scan", "ios": "https://dc.lft.to/lastmile_qr_scan"}, "fusion_lon": 0.0, "lat": 38.89852066666667, "bike_id": "2be755651af6dee9cb4d33e130275322", "type": "electric_scooter", "is_reserved": 0, "lon": -76.9764655}, {"fusion_lat": 0.0, "name": "ceb151ed87a953ab1aa46d623bf2e6d0", "is_disabled": 0, "rental_uris": {"android": "https://dc.lft.to/lastmile_qr_scan", "ios": "https://dc.lft.to/lastmile_qr_scan"}, "fusion_lon": 0.0, "lat": 38.88577383333333, "bike_id": "ceb151ed87a953ab1aa46d623bf2e6d0", "type": "electric_scooter", "is_reserved": 0, "lon": -77.01213016666667}, {"fusion_lat": 0.0, "name": "8893e479cdaa3c057b9575a29431ce4c", "is_disabled": 0, "rental_uris": {"android": "https://dc.lft.to/lastmile_qr_scan", "ios": "https://dc.lft.to/lastmile_qr_scan"}, "fusion_lon": 0.0, "lat": 38.90855283333333, "bike_id": "8893e479cdaa3c057b9575a29431ce4c", "type": "electric_scooter", "is_reserved": 0, "lon": -77.04622083333334}, {"fusion_lat": 0.0, "name": "d2a0a774fd807c08d11f3459806ef4d1", "is_disabled": 0, "rental_uris": {"android": "https://dc.lft.to/lastmile_qr_scan", "ios": "https://dc.lft.to/lastmile_qr_scan"}, "fusion_lon": 0.0, "lat": 38.92252466666667, "bike_id": "d2a0a774fd807c08d11f3459806ef4d1", "type": "electric_scooter", "is_reserved": 0, "lon": -77.0390645}, {"fusion_lat": 0.0, "name": "5716682b3519bf57f2de58813fb56dec", "is_disabled": 0, "rental_uris": {"android": "https://dc.lft.to/lastmile_qr_scan", "ios": "https://dc.lft.to/lastmile_qr_scan"}, "fusion_lon": 0.0, "lat": 38.7985865, "bike_id": "5716682b3519bf57f2de58813fb56dec", "type": "electric_bike", "is_reserved": 0, "lon": -77.06307283333334}, {"fusion_lat": 0.0, "name": "f3448e85e9bcc33cf1c3a445fb81fb0b", "is_disabled": 0, "rental_uris": {"android": "https://dc.lft.to/lastmile_qr_scan", "ios": "https://dc.lft.to/lastmile_qr_scan"}, "fusion_lon": 0.0, "lat": 38.90498933333333, "bike_id": "f3448e85e9bcc33cf1c3a445fb81fb0b", "type": "electric_scooter", "is_reserved": 0, "lon": -77.0569295}, {"fusion_lat": 0.0, "name": "830f7d9e779cc3343047e799ce602713", "is_disabled": 0, "rental_uris": {"android": "https://dc.lft.to/lastmile_qr_scan", "ios": "https://dc.lft.to/lastmile_qr_scan"}, "fusion_lon": 0.0, "lat": 38.90609233333333, "bike_id": "830f7d9e779cc3343047e799ce602713", "type": "electric_scooter", "is_reserved": 0, "lon": -77.06352166666667}, {"fusion_lat": 0.0, "name": "9c08eb2ba981f91128a451153bdd7f83", "is_disabled": 0, "rental_uris": {"android": "https://dc.lft.to/lastmile_qr_scan", "ios": "https://dc.lft.to/lastmile_qr_scan"}, "fusion_lon": 0.0, "lat": 38.881953, "bike_id": "9c08eb2ba981f91128a451153bdd7f83", "type": "electric_scooter", "is_reserved": 0, "lon": -77.02855066666666}, {"fusion_lat": 0.0, "name": "c1ebd6f3860ccc79efdb7080561e0756", "is_disabled": 0, "rental_uris": {"android": "https://dc.lft.to/lastmile_qr_scan", "ios": "https://dc.lft.to/lastmile_qr_scan"}, "fusion_lon": 0.0, "lat": 38.89090216666666, "bike_id": "c1ebd6f3860ccc79efdb7080561e0756", "type": "electric_scooter", "is_reserved": 0, "lon": -76.919277}, {"fusion_lat": 0.0, "name": "4e5f20983c0109489866e1ca4d874e68", "is_disabled": 0, "rental_uris": {"android": "https://dc.lft.to/lastmile_qr_scan", "ios": "https://dc.lft.to/lastmile_qr_scan"}, "fusion_lon": 0.0, "lat": 38.93813633333333, "bike_id": "4e5f20983c0109489866e1ca4d874e68", "type": "electric_scooter", "is_reserved": 0, "lon": -76.99691483333334}, {"fusion_lat": 0.0, "name": "1843983b66dfd5794278500d7770b493", "is_disabled": 0, "rental_uris": {"android": "https://dc.lft.to/lastmile_qr_scan", "ios": "https://dc.lft.to/lastmile_qr_scan"}, "fusion_lon": 0.0, "lat": 38.87381366666666, "bike_id": "1843983b66dfd5794278500d7770b493", "type": "electric_scooter", "is_reserved": 0, "lon": -77.00133366666667}, {"fusion_lat": 0.0, "name": "a1239474f4c9423fbd54d41bd1d5f602", "is_disabled": 0, "rental_uris": {"android": "https://dc.lft.to/lastmile_qr_scan", "ios": "https://dc.lft.to/lastmile_qr_scan"}, "fusion_lon": 0.0, "lat": 38.8871725, "bike_id": "a1239474f4c9423fbd54d41bd1d5f602", "type": "electric_scooter", "is_reserved": 0, "lon": -77.0177595}, {"fusion_lat": 0.0, "name": "48689a63fd182393a9a42bba3fd0d271", "is_disabled": 0, "rental_uris": {"android": "https://dc.lft.to/lastmile_qr_scan", "ios": "https://dc.lft.to/lastmile_qr_scan"}, "fusion_lon": 0.0, "lat": 38.921541166666664, "bike_id": "48689a63fd182393a9a42bba3fd0d271", "type": "electric_scooter", "is_reserved": 0, "lon": -77.02428216666667}, {"fusion_lat": 0.0, "name": "aea0f5e4172eef9a0f1636f63348257a", "is_disabled": 0, "rental_uris": {"android": "https://dc.lft.to/lastmile_qr_scan", "ios": "https://dc.lft.to/lastmile_qr_scan"}, "fusion_lon": 0.0, "lat": 38.867662333333335, "bike_id": "aea0f5e4172eef9a0f1636f63348257a", "type": "electric_scooter", "is_reserved": 0, "lon": -76.9827065}, {"fusion_lat": 0.0, "name": "c834ba06372f8dff7115bdcd8853bdb1", "is_disabled": 0, "rental_uris": {"android": "https://dc.lft.to/lastmile_qr_scan", "ios": "https://dc.lft.to/lastmile_qr_scan"}, "fusion_lon": 0.0, "lat": 38.88988916666667, "bike_id": "c834ba06372f8dff7115bdcd8853bdb1", "type": "electric_scooter", "is_reserved": 0, "lon": -76.97789083333333}, {"fusion_lat": 0.0, "name": "fcbcf3fb9a816ba9cdd2cf9a448904b2", "is_disabled": 0, "rental_uris": {"android": "https://dc.lft.to/lastmile_qr_scan", "ios": "https://dc.lft.to/lastmile_qr_scan"}, "fusion_lon": 0.0, "lat": 38.88613633333333, "bike_id": "fcbcf3fb9a816ba9cdd2cf9a448904b2", "type": "electric_scooter", "is_reserved": 0, "lon": -77.01556366666667}, {"fusion_lat": 0.0, "name": "06c166ca7e5677ad35710ff3a18c9fd8", "is_disabled": 0, "rental_uris": {"android": "https://dc.lft.to/lastmile_qr_scan", "ios": "https://dc.lft.to/lastmile_qr_scan"}, "fusion_lon": 0.0, "lat": 38.8847735, "bike_id": "06c166ca7e5677ad35710ff3a18c9fd8", "type": "electric_scooter", "is_reserved": 0, "lon": -76.99675066666667}, {"fusion_lat": 0.0, "name": "677d74fcc986564d17eee8ebc3c52428", "is_disabled": 0, "rental_uris": {"android": "https://dc.lft.to/lastmile_qr_scan", "ios": "https://dc.lft.to/lastmile_qr_scan"}, "fusion_lon": 0.0, "lat": 38.91552733333333, "bike_id": "677d74fcc986564d17eee8ebc3c52428", "type": "electric_scooter", "is_reserved": 0, "lon": -77.01208116666666}, {"fusion_lat": 0.0, "name": "b6291d0d0b7d95bbd75c6ab32bc04a25", "is_disabled": 0, "rental_uris": {"android": "https://dc.lft.to/lastmile_qr_scan", "ios": "https://dc.lft.to/lastmile_qr_scan"}, "fusion_lon": 0.0, "lat": 38.9038375, "bike_id": "b6291d0d0b7d95bbd75c6ab32bc04a25", "type": "electric_scooter", "is_reserved": 0, "lon": -77.05507716666666}, {"fusion_lat": 0.0, "name": "1b519ae61a8e38c1a213fa7e6f64d1a1", "is_disabled": 0, "rental_uris": {"android": "https://dc.lft.to/lastmile_qr_scan", "ios": "https://dc.lft.to/lastmile_qr_scan"}, "fusion_lon": 0.0, "lat": 38.90064016666667, "bike_id": "1b519ae61a8e38c1a213fa7e6f64d1a1", "type": "electric_scooter", "is_reserved": 0, "lon": -76.93385833333333}, {"fusion_lat": 0.0, "name": "31e9f3328559e0131087334358180e41", "is_disabled": 0, "rental_uris": {"android": "https://dc.lft.to/lastmile_qr_scan", "ios": "https://dc.lft.to/lastmile_qr_scan"}, "fusion_lon": 0.0, "lat": 38.90767483333333, "bike_id": "31e9f3328559e0131087334358180e41", "type": "electric_scooter", "is_reserved": 0, "lon": -77.055924}, {"fusion_lat": 0.0, "name": "5c9f884b5c411a731fa11c63352076bf", "is_disabled": 0, "rental_uris": {"android": "https://dc.lft.to/lastmile_qr_scan", "ios": "https://dc.lft.to/lastmile_qr_scan"}, "fusion_lon": 0.0, "lat": 38.94236433333333, "bike_id": "5c9f884b5c411a731fa11c63352076bf", "type": "electric_scooter", "is_reserved": 0, "lon": -77.07643983333334}, {"fusion_lat": 0.0, "name": "bbb35595d38e3e9882c4d1685852c330", "is_disabled": 0, "rental_uris": {"android": "https://dc.lft.to/lastmile_qr_scan", "ios": "https://dc.lft.to/lastmile_qr_scan"}, "fusion_lon": 0.0, "lat": 38.923791333333334, "bike_id": "bbb35595d38e3e9882c4d1685852c330", "type": "electric_scooter", "is_reserved": 0, "lon": -77.03650083333333}, {"fusion_lat": 0.0, "name": "1212dc0fa1f18b002ee8364b9fd15ce2", "is_disabled": 0, "rental_uris": {"android": "https://dc.lft.to/lastmile_qr_scan", "ios": "https://dc.lft.to/lastmile_qr_scan"}, "fusion_lon": 0.0, "lat": 38.834964666666664, "bike_id": "1212dc0fa1f18b002ee8364b9fd15ce2", "type": "electric_bike", "is_reserved": 0, "lon": -76.9868345}, {"fusion_lat": 0.0, "name": "3a22980625b2dc90960850c7b78bd889", "is_disabled": 0, "rental_uris": {"android": "https://dc.lft.to/lastmile_qr_scan", "ios": "https://dc.lft.to/lastmile_qr_scan"}, "fusion_lon": 0.0, "lat": 38.90269383333333, "bike_id": "3a22980625b2dc90960850c7b78bd889", "type": "electric_scooter", "is_reserved": 0, "lon": -77.02833616666666}, {"fusion_lat": 0.0, "name": "8a8231314a5a9f95b355696f628c4879", "is_disabled": 0, "rental_uris": {"android": "https://dc.lft.to/lastmile_qr_scan", "ios": "https://dc.lft.to/lastmile_qr_scan"}, "fusion_lon": 0.0, "lat": 38.924558833333336, "bike_id": "8a8231314a5a9f95b355696f628c4879", "type": "electric_scooter", "is_reserved": 0, "lon": -77.034268}, {"fusion_lat": 0.0, "name": "4ba7dd231bd3638ae1cf0e3a7a58168d", "is_disabled": 0, "rental_uris": {"android": "https://dc.lft.to/lastmile_qr_scan", "ios": "https://dc.lft.to/lastmile_qr_scan"}, "fusion_lon": 0.0, "lat": 38.9023675, "bike_id": "4ba7dd231bd3638ae1cf0e3a7a58168d", "type": "electric_scooter", "is_reserved": 0, "lon": -77.06088583333333}, {"fusion_lat": 0.0, "name": "205646d36eb542c103fd7b2d6032cd56", "is_disabled": 0, "rental_uris": {"android": "https://dc.lft.to/lastmile_qr_scan", "ios": "https://dc.lft.to/lastmile_qr_scan"}, "fusion_lon": 0.0, "lat": 38.900274, "bike_id": "205646d36eb542c103fd7b2d6032cd56", "type": "electric_scooter", "is_reserved": 0, "lon": -76.99858816666666}, {"fusion_lat": 0.0, "name": "1cf8cbcce66c788605e20df6297cf18b", "is_disabled": 0, "rental_uris": {"android": "https://dc.lft.to/lastmile_qr_scan", "ios": "https://dc.lft.to/lastmile_qr_scan"}, "fusion_lon": 0.0, "lat": 38.92080266666667, "bike_id": "1cf8cbcce66c788605e20df6297cf18b", "type": "electric_scooter", "is_reserved": 0, "lon": -77.024262}, {"fusion_lat": 0.0, "name": "642540d3e084eb4fd87d8ab2acb1baad", "is_disabled": 0, "rental_uris": {"android": "https://dc.lft.to/lastmile_qr_scan", "ios": "https://dc.lft.to/lastmile_qr_scan"}, "fusion_lon": 0.0, "lat": 38.92681983333333, "bike_id": "642540d3e084eb4fd87d8ab2acb1baad", "type": "electric_scooter", "is_reserved": 0, "lon": -77.02786383333333}, {"fusion_lat": 0.0, "name": "81f758da8e273a18a1de86b41924dfd4", "is_disabled": 0, "rental_uris": {"android": "https://dc.lft.to/lastmile_qr_scan", "ios": "https://dc.lft.to/lastmile_qr_scan"}, "fusion_lon": 0.0, "lat": 38.90941883333333, "bike_id": "81f758da8e273a18a1de86b41924dfd4", "type": "electric_scooter", "is_reserved": 0, "lon": -77.0184865}, {"fusion_lat": 0.0, "name": "e767be6eebea2c7a4a532d3104b3c21d", "is_disabled": 0, "rental_uris": {"android": "https://dc.lft.to/lastmile_qr_scan", "ios": "https://dc.lft.to/lastmile_qr_scan"}, "fusion_lon": 0.0, "lat": 38.90684433333333, "bike_id": "e767be6eebea2c7a4a532d3104b3c21d", "type": "electric_bike", "is_reserved": 0, "lon": -76.94494283333333}, {"fusion_lat": 0.0, "name": "09e5fb8219bee5caf1b95c19548337a9", "is_disabled": 0, "rental_uris": {"android": "https://dc.lft.to/lastmile_qr_scan", "ios": "https://dc.lft.to/lastmile_qr_scan"}, "fusion_lon": 0.0, "lat": 38.887668, "bike_id": "09e5fb8219bee5caf1b95c19548337a9", "type": "electric_scooter", "is_reserved": 0, "lon": -76.97747283333334}, {"fusion_lat": 0.0, "name": "0d8de4f5cff4f7ebf2eb51cc047073c2", "is_disabled": 0, "rental_uris": {"android": "https://dc.lft.to/lastmile_qr_scan", "ios": "https://dc.lft.to/lastmile_qr_scan"}, "fusion_lon": 0.0, "lat": 38.973476833333336, "bike_id": "0d8de4f5cff4f7ebf2eb51cc047073c2", "type": "electric_bike", "is_reserved": 0, "lon": -77.01800966666667}, {"fusion_lat": 0.0, "name": "bbd7493fe13a1f4dabfbf3549d874c69", "is_disabled": 0, "rental_uris": {"android": "https://dc.lft.to/lastmile_qr_scan", "ios": "https://dc.lft.to/lastmile_qr_scan"}, "fusion_lon": 0.0, "lat": 38.9015165, "bike_id": "bbd7493fe13a1f4dabfbf3549d874c69", "type": "electric_scooter", "is_reserved": 0, "lon": -76.93065783333333}, {"fusion_lat": 0.0, "name": "98bd428eee5d049e3bc6afa39e9f2149", "is_disabled": 0, "rental_uris": {"android": "https://dc.lft.to/lastmile_qr_scan", "ios": "https://dc.lft.to/lastmile_qr_scan"}, "fusion_lon": 0.0, "lat": 38.92851183333333, "bike_id": "98bd428eee5d049e3bc6afa39e9f2149", "type": "electric_scooter", "is_reserved": 0, "lon": -77.035958}, {"fusion_lat": 0.0, "name": "2f060d40e2c128c69bc2cf1b0e7cd36b", "is_disabled": 0, "rental_uris": {"android": "https://dc.lft.to/lastmile_qr_scan", "ios": "https://dc.lft.to/lastmile_qr_scan"}, "fusion_lon": 0.0, "lat": 38.984643, "bike_id": "2f060d40e2c128c69bc2cf1b0e7cd36b", "type": "electric_bike", "is_reserved": 0, "lon": -76.97054333333334}, {"fusion_lat": 0.0, "name": "1f2e429fca7d003d580909c81b2de22a", "is_disabled": 0, "rental_uris": {"android": "https://dc.lft.to/lastmile_qr_scan", "ios": "https://dc.lft.to/lastmile_qr_scan"}, "fusion_lon": 0.0, "lat": 38.904991, "bike_id": "1f2e429fca7d003d580909c81b2de22a", "type": "electric_bike", "is_reserved": 0, "lon": -77.05921616666667}, {"fusion_lat": 0.0, "name": "829456fc24ca30912b189e215d9cc3ef", "is_disabled": 0, "rental_uris": {"android": "https://dc.lft.to/lastmile_qr_scan", "ios": "https://dc.lft.to/lastmile_qr_scan"}, "fusion_lon": 0.0, "lat": 38.91392616666667, "bike_id": "829456fc24ca30912b189e215d9cc3ef", "type": "electric_scooter", "is_reserved": 0, "lon": -77.03182583333333}, {"fusion_lat": 0.0, "name": "46d28109441a43f35afb641019cea2a0", "is_disabled": 0, "rental_uris": {"android": "https://dc.lft.to/lastmile_qr_scan", "ios": "https://dc.lft.to/lastmile_qr_scan"}, "fusion_lon": 0.0, "lat": 38.920846, "bike_id": "46d28109441a43f35afb641019cea2a0", "type": "electric_scooter", "is_reserved": 0, "lon": -77.02402183333334}, {"fusion_lat": 0.0, "name": "cc1042fae27ebfc919c165466b2f891f", "is_disabled": 0, "rental_uris": {"android": "https://dc.lft.to/lastmile_qr_scan", "ios": "https://dc.lft.to/lastmile_qr_scan"}, "fusion_lon": 0.0, "lat": 38.912555, "bike_id": "cc1042fae27ebfc919c165466b2f891f", "type": "electric_scooter", "is_reserved": 0, "lon": -77.03336266666666}, {"fusion_lat": 0.0, "name": "dd735132e44871483ebbd8163bc271c0", "is_disabled": 0, "rental_uris": {"android": "https://dc.lft.to/lastmile_qr_scan", "ios": "https://dc.lft.to/lastmile_qr_scan"}, "fusion_lon": 0.0, "lat": 38.9074075, "bike_id": "dd735132e44871483ebbd8163bc271c0", "type": "electric_scooter", "is_reserved": 0, "lon": -77.03857383333333}, {"fusion_lat": 0.0, "name": "5f5ce1bc0d58732dc8159663cd7a4a99", "is_disabled": 0, "rental_uris": {"android": "https://dc.lft.to/lastmile_qr_scan", "ios": "https://dc.lft.to/lastmile_qr_scan"}, "fusion_lon": 0.0, "lat": 38.903666666666666, "bike_id": "5f5ce1bc0d58732dc8159663cd7a4a99", "type": "electric_scooter", "is_reserved": 0, "lon": -77.033006}, {"fusion_lat": 0.0, "name": "887ada14566d58f0ea85a72cbda93f4e", "is_disabled": 0, "rental_uris": {"android": "https://dc.lft.to/lastmile_qr_scan", "ios": "https://dc.lft.to/lastmile_qr_scan"}, "fusion_lon": 0.0, "lat": 38.8922915, "bike_id": "887ada14566d58f0ea85a72cbda93f4e", "type": "electric_scooter", "is_reserved": 0, "lon": -77.02411366666666}, {"fusion_lat": 0.0, "name": "c4c96867e94650851d7d9052efae88e8", "is_disabled": 0, "rental_uris": {"android": "https://dc.lft.to/lastmile_qr_scan", "ios": "https://dc.lft.to/lastmile_qr_scan"}, "fusion_lon": 0.0, "lat": 38.915736333333335, "bike_id": "c4c96867e94650851d7d9052efae88e8", "type": "electric_scooter", "is_reserved": 0, "lon": -77.05008233333334}, {"fusion_lat": 0.0, "name": "d6dc4937ed9f92d0e27f269fc34da3d8", "is_disabled": 0, "rental_uris": {"android": "https://dc.lft.to/lastmile_qr_scan", "ios": "https://dc.lft.to/lastmile_qr_scan"}, "fusion_lon": 0.0, "lat": 38.92559, "bike_id": "d6dc4937ed9f92d0e27f269fc34da3d8", "type": "electric_scooter", "is_reserved": 0, "lon": -77.02283416666667}, {"fusion_lat": 0.0, "name": "4dcafb500e6714a5c169fe8148648ba9", "is_disabled": 0, "rental_uris": {"android": "https://dc.lft.to/lastmile_qr_scan", "ios": "https://dc.lft.to/lastmile_qr_scan"}, "fusion_lon": 0.0, "lat": 38.93490383333334, "bike_id": "4dcafb500e6714a5c169fe8148648ba9", "type": "electric_scooter", "is_reserved": 0, "lon": -77.03079283333334}, {"fusion_lat": 0.0, "name": "b4de2974b837f225fd2d837568578594", "is_disabled": 0, "rental_uris": {"android": "https://dc.lft.to/lastmile_qr_scan", "ios": "https://dc.lft.to/lastmile_qr_scan"}, "fusion_lon": 0.0, "lat": 38.90961083333333, "bike_id": "b4de2974b837f225fd2d837568578594", "type": "electric_bike", "is_reserved": 0, "lon": -77.22895083333333}, {"fusion_lat": 0.0, "name": "5567b7d0ed6b39f8561bdb536274cd56", "is_disabled": 0, "rental_uris": {"android": "https://dc.lft.to/lastmile_qr_scan", "ios": "https://dc.lft.to/lastmile_qr_scan"}, "fusion_lon": 0.0, "lat": 38.89762116666667, "bike_id": "5567b7d0ed6b39f8561bdb536274cd56", "type": "electric_scooter", "is_reserved": 0, "lon": -77.02201616666666}, {"fusion_lat": 0.0, "name": "561a80337575cc20cca6db0d6ac80b25", "is_disabled": 0, "rental_uris": {"android": "https://dc.lft.to/lastmile_qr_scan", "ios": "https://dc.lft.to/lastmile_qr_scan"}, "fusion_lon": 0.0, "lat": 38.896566, "bike_id": "561a80337575cc20cca6db0d6ac80b25", "type": "electric_scooter", "is_reserved": 0, "lon": -77.02176416666667}, {"fusion_lat": 0.0, "name": "339c7fe4a7f149162d352dac2a82bb26", "is_disabled": 0, "rental_uris": {"android": "https://dc.lft.to/lastmile_qr_scan", "ios": "https://dc.lft.to/lastmile_qr_scan"}, "fusion_lon": 0.0, "lat": 38.91624266666667, "bike_id": "339c7fe4a7f149162d352dac2a82bb26", "type": "electric_scooter", "is_reserved": 0, "lon": -77.02207033333333}, {"fusion_lat": 0.0, "name": "88ebd32ff995b9e7381c47e0b02b739f", "is_disabled": 0, "rental_uris": {"android": "https://dc.lft.to/lastmile_qr_scan", "ios": "https://dc.lft.to/lastmile_qr_scan"}, "fusion_lon": 0.0, "lat": 38.925019, "bike_id": "88ebd32ff995b9e7381c47e0b02b739f", "type": "electric_scooter", "is_reserved": 0, "lon": -77.0380265}, {"fusion_lat": 0.0, "name": "917cc7cadcde942c7006b84cbaea9e15", "is_disabled": 0, "rental_uris": {"android": "https://dc.lft.to/lastmile_qr_scan", "ios": "https://dc.lft.to/lastmile_qr_scan"}, "fusion_lon": 0.0, "lat": 38.932392666666665, "bike_id": "917cc7cadcde942c7006b84cbaea9e15", "type": "electric_scooter", "is_reserved": 0, "lon": -77.040683}, {"fusion_lat": 0.0, "name": "e4ba69102a32076231c2d59de6af8c3d", "is_disabled": 0, "rental_uris": {"android": "https://dc.lft.to/lastmile_qr_scan", "ios": "https://dc.lft.to/lastmile_qr_scan"}, "fusion_lon": 0.0, "lat": 38.898544666666666, "bike_id": "e4ba69102a32076231c2d59de6af8c3d", "type": "electric_scooter", "is_reserved": 0, "lon": -76.99272216666667}, {"fusion_lat": 0.0, "name": "9c38a91e7989a800c294780845f466c7", "is_disabled": 0, "rental_uris": {"android": "https://dc.lft.to/lastmile_qr_scan", "ios": "https://dc.lft.to/lastmile_qr_scan"}, "fusion_lon": 0.0, "lat": 38.88065316666667, "bike_id": "9c38a91e7989a800c294780845f466c7", "type": "electric_scooter", "is_reserved": 0, "lon": -76.932223}, {"fusion_lat": 0.0, "name": "5445cd5f1ef769143f8551f06b63bd21", "is_disabled": 0, "rental_uris": {"android": "https://dc.lft.to/lastmile_qr_scan", "ios": "https://dc.lft.to/lastmile_qr_scan"}, "fusion_lon": 0.0, "lat": 38.90860983333334, "bike_id": "5445cd5f1ef769143f8551f06b63bd21", "type": "electric_scooter", "is_reserved": 0, "lon": -77.02436633333333}, {"fusion_lat": 0.0, "name": "b821d75583fa3c351e60564ab6e9880c", "is_disabled": 0, "rental_uris": {"android": "https://dc.lft.to/lastmile_qr_scan", "ios": "https://dc.lft.to/lastmile_qr_scan"}, "fusion_lon": 0.0, "lat": 38.907625, "bike_id": "b821d75583fa3c351e60564ab6e9880c", "type": "electric_scooter", "is_reserved": 0, "lon": -77.032166}, {"fusion_lat": 0.0, "name": "27906559cb44905bb9b3f7953f212ad1", "is_disabled": 0, "rental_uris": {"android": "https://dc.lft.to/lastmile_qr_scan", "ios": "https://dc.lft.to/lastmile_qr_scan"}, "fusion_lon": 0.0, "lat": 38.91952116666667, "bike_id": "27906559cb44905bb9b3f7953f212ad1", "type": "electric_scooter", "is_reserved": 0, "lon": -77.01784733333334}, {"fusion_lat": 0.0, "name": "3548c8a0e2a247f9a77f2bbdc230d8f2", "is_disabled": 0, "rental_uris": {"android": "https://dc.lft.to/lastmile_qr_scan", "ios": "https://dc.lft.to/lastmile_qr_scan"}, "fusion_lon": 0.0, "lat": 38.921213333333334, "bike_id": "3548c8a0e2a247f9a77f2bbdc230d8f2", "type": "electric_scooter", "is_reserved": 0, "lon": -77.01207683333334}, {"fusion_lat": 0.0, "name": "93853f66ae07f839f33ec568744202da", "is_disabled": 0, "rental_uris": {"android": "https://dc.lft.to/lastmile_qr_scan", "ios": "https://dc.lft.to/lastmile_qr_scan"}, "fusion_lon": 0.0, "lat": 38.927473166666665, "bike_id": "93853f66ae07f839f33ec568744202da", "type": "electric_scooter", "is_reserved": 0, "lon": -77.02163633333333}, {"fusion_lat": 0.0, "name": "f17eb17ab5300f42e1b7183e517bba26", "is_disabled": 0, "rental_uris": {"android": "https://dc.lft.to/lastmile_qr_scan", "ios": "https://dc.lft.to/lastmile_qr_scan"}, "fusion_lon": 0.0, "lat": 38.900206833333336, "bike_id": "f17eb17ab5300f42e1b7183e517bba26", "type": "electric_scooter", "is_reserved": 0, "lon": -77.00201833333334}, {"fusion_lat": 0.0, "name": "ccf4fd3da042fc440e1824322fc96908", "is_disabled": 0, "rental_uris": {"android": "https://dc.lft.to/lastmile_qr_scan", "ios": "https://dc.lft.to/lastmile_qr_scan"}, "fusion_lon": 0.0, "lat": 38.90375083333333, "bike_id": "ccf4fd3da042fc440e1824322fc96908", "type": "electric_scooter", "is_reserved": 0, "lon": -77.04598116666666}, {"fusion_lat": 0.0, "name": "035a750b6ce556b76d311b4f465af5ed", "is_disabled": 0, "rental_uris": {"android": "https://dc.lft.to/lastmile_qr_scan", "ios": "https://dc.lft.to/lastmile_qr_scan"}, "fusion_lon": 0.0, "lat": 38.928853833333335, "bike_id": "035a750b6ce556b76d311b4f465af5ed", "type": "electric_scooter", "is_reserved": 0, "lon": -77.0323425}, {"fusion_lat": 0.0, "name": "014f9ea4f55e0dc98decc36b3bb35268", "is_disabled": 0, "rental_uris": {"android": "https://dc.lft.to/lastmile_qr_scan", "ios": "https://dc.lft.to/lastmile_qr_scan"}, "fusion_lon": 0.0, "lat": 38.898909, "bike_id": "014f9ea4f55e0dc98decc36b3bb35268", "type": "electric_scooter", "is_reserved": 0, "lon": -77.02822}, {"fusion_lat": 0.0, "name": "4b736cbfdc2e17200c2f2f5a5e672942", "is_disabled": 0, "rental_uris": {"android": "https://dc.lft.to/lastmile_qr_scan", "ios": "https://dc.lft.to/lastmile_qr_scan"}, "fusion_lon": 0.0, "lat": 38.916939166666666, "bike_id": "4b736cbfdc2e17200c2f2f5a5e672942", "type": "electric_scooter", "is_reserved": 0, "lon": -77.0251675}, {"fusion_lat": 0.0, "name": "24b103332e7ae5edb8441f3a86386bf3", "is_disabled": 0, "rental_uris": {"android": "https://dc.lft.to/lastmile_qr_scan", "ios": "https://dc.lft.to/lastmile_qr_scan"}, "fusion_lon": 0.0, "lat": 38.9332345, "bike_id": "24b103332e7ae5edb8441f3a86386bf3", "type": "electric_scooter", "is_reserved": 0, "lon": -77.03266433333333}, {"fusion_lat": 0.0, "name": "22583493589dd8673f9a9df7bb33566d", "is_disabled": 0, "rental_uris": {"android": "https://dc.lft.to/lastmile_qr_scan", "ios": "https://dc.lft.to/lastmile_qr_scan"}, "fusion_lon": 0.0, "lat": 38.920716166666665, "bike_id": "22583493589dd8673f9a9df7bb33566d", "type": "electric_scooter", "is_reserved": 0, "lon": -77.04383166666666}, {"fusion_lat": 0.0, "name": "8b430ba6311614cc7a535c4f61267729", "is_disabled": 0, "rental_uris": {"android": "https://dc.lft.to/lastmile_qr_scan", "ios": "https://dc.lft.to/lastmile_qr_scan"}, "fusion_lon": 0.0, "lat": 38.91564283333334, "bike_id": "8b430ba6311614cc7a535c4f61267729", "type": "electric_scooter", "is_reserved": 0, "lon": -77.03151983333333}, {"fusion_lat": 0.0, "name": "73285389a8bdbe4207f221e9ef621b0e", "is_disabled": 0, "rental_uris": {"android": "https://dc.lft.to/lastmile_qr_scan", "ios": "https://dc.lft.to/lastmile_qr_scan"}, "fusion_lon": 0.0, "lat": 38.92081, "bike_id": "73285389a8bdbe4207f221e9ef621b0e", "type": "electric_scooter", "is_reserved": 0, "lon": -77.02401916666666}, {"fusion_lat": 0.0, "name": "a88714335dba696a61106d6572d7e938", "is_disabled": 0, "rental_uris": {"android": "https://dc.lft.to/lastmile_qr_scan", "ios": "https://dc.lft.to/lastmile_qr_scan"}, "fusion_lon": 0.0, "lat": 38.88393166666667, "bike_id": "a88714335dba696a61106d6572d7e938", "type": "electric_scooter", "is_reserved": 0, "lon": -77.03041983333334}, {"fusion_lat": 0.0, "name": "2ff6143d99266ff3661a3d84befe4dbb", "is_disabled": 0, "rental_uris": {"android": "https://dc.lft.to/lastmile_qr_scan", "ios": "https://dc.lft.to/lastmile_qr_scan"}, "fusion_lon": 0.0, "lat": 38.931999166666664, "bike_id": "2ff6143d99266ff3661a3d84befe4dbb", "type": "electric_scooter", "is_reserved": 0, "lon": -77.0250635}, {"fusion_lat": 0.0, "name": "420c3d9254595cd65e7242f363259bc6", "is_disabled": 0, "rental_uris": {"android": "https://dc.lft.to/lastmile_qr_scan", "ios": "https://dc.lft.to/lastmile_qr_scan"}, "fusion_lon": 0.0, "lat": 39.04177933333333, "bike_id": "420c3d9254595cd65e7242f363259bc6", "type": "electric_bike", "is_reserved": 0, "lon": -77.05242816666667}, {"fusion_lat": 0.0, "name": "85762ba614dce0dd688324ba816afe53", "is_disabled": 0, "rental_uris": {"android": "https://dc.lft.to/lastmile_qr_scan", "ios": "https://dc.lft.to/lastmile_qr_scan"}, "fusion_lon": 0.0, "lat": 38.92324333333333, "bike_id": "85762ba614dce0dd688324ba816afe53", "type": "electric_scooter", "is_reserved": 0, "lon": -77.0297325}, {"fusion_lat": 0.0, "name": "efdee091c3970f1d6667f86691241a92", "is_disabled": 0, "rental_uris": {"android": "https://dc.lft.to/lastmile_qr_scan", "ios": "https://dc.lft.to/lastmile_qr_scan"}, "fusion_lon": 0.0, "lat": 38.878287, "bike_id": "efdee091c3970f1d6667f86691241a92", "type": "electric_scooter", "is_reserved": 0, "lon": -76.99017583333334}, {"fusion_lat": 0.0, "name": "a558c81b39ae16534efc229fdb586ec8", "is_disabled": 0, "rental_uris": {"android": "https://dc.lft.to/lastmile_qr_scan", "ios": "https://dc.lft.to/lastmile_qr_scan"}, "fusion_lon": 0.0, "lat": 38.838536833333336, "bike_id": "a558c81b39ae16534efc229fdb586ec8", "type": "electric_scooter", "is_reserved": 0, "lon": -76.997063}, {"fusion_lat": 0.0, "name": "6288be4dab8b747427f43aa2521b84c1", "is_disabled": 0, "rental_uris": {"android": "https://dc.lft.to/lastmile_qr_scan", "ios": "https://dc.lft.to/lastmile_qr_scan"}, "fusion_lon": 0.0, "lat": 38.929978166666665, "bike_id": "6288be4dab8b747427f43aa2521b84c1", "type": "electric_scooter", "is_reserved": 0, "lon": -77.038033}, {"fusion_lat": 0.0, "name": "1c238f839dceaccd9fabdb6b13ce648f", "is_disabled": 0, "rental_uris": {"android": "https://dc.lft.to/lastmile_qr_scan", "ios": "https://dc.lft.to/lastmile_qr_scan"}, "fusion_lon": 0.0, "lat": 38.92081733333333, "bike_id": "1c238f839dceaccd9fabdb6b13ce648f", "type": "electric_scooter", "is_reserved": 0, "lon": -77.023037}, {"fusion_lat": 0.0, "name": "dd53ff306f058ab7310a371e9f4eb7ad", "is_disabled": 0, "rental_uris": {"android": "https://dc.lft.to/lastmile_qr_scan", "ios": "https://dc.lft.to/lastmile_qr_scan"}, "fusion_lon": 0.0, "lat": 38.957157, "bike_id": "dd53ff306f058ab7310a371e9f4eb7ad", "type": "electric_scooter", "is_reserved": 0, "lon": -77.02400166666666}, {"fusion_lat": 0.0, "name": "4f5a0414f0018d9c31fdea16ed940426", "is_disabled": 0, "rental_uris": {"android": "https://dc.lft.to/lastmile_qr_scan", "ios": "https://dc.lft.to/lastmile_qr_scan"}, "fusion_lon": 0.0, "lat": 38.9210735, "bike_id": "4f5a0414f0018d9c31fdea16ed940426", "type": "electric_scooter", "is_reserved": 0, "lon": -77.0176545}, {"fusion_lat": 0.0, "name": "3298e982cf580acd556abaabcc0b251c", "is_disabled": 0, "rental_uris": {"android": "https://dc.lft.to/lastmile_qr_scan", "ios": "https://dc.lft.to/lastmile_qr_scan"}, "fusion_lon": 0.0, "lat": 38.9180935, "bike_id": "3298e982cf580acd556abaabcc0b251c", "type": "electric_scooter", "is_reserved": 0, "lon": -76.99977566666666}, {"fusion_lat": 0.0, "name": "5abfdaef0d2fdcac036a4515a0202f76", "is_disabled": 0, "rental_uris": {"android": "https://dc.lft.to/lastmile_qr_scan", "ios": "https://dc.lft.to/lastmile_qr_scan"}, "fusion_lon": 0.0, "lat": 38.9278205, "bike_id": "5abfdaef0d2fdcac036a4515a0202f76", "type": "electric_scooter", "is_reserved": 0, "lon": -77.052689}, {"fusion_lat": 0.0, "name": "26d3af1e7cd9f4987dede9b2cb4d2dad", "is_disabled": 0, "rental_uris": {"android": "https://dc.lft.to/lastmile_qr_scan", "ios": "https://dc.lft.to/lastmile_qr_scan"}, "fusion_lon": 0.0, "lat": 38.87654583333333, "bike_id": "26d3af1e7cd9f4987dede9b2cb4d2dad", "type": "electric_scooter", "is_reserved": 0, "lon": -77.0083375}, {"fusion_lat": 0.0, "name": "4ff91fc57979cced08f95c13c485ef8b", "is_disabled": 0, "rental_uris": {"android": "https://dc.lft.to/lastmile_qr_scan", "ios": "https://dc.lft.to/lastmile_qr_scan"}, "fusion_lon": 0.0, "lat": 38.92414866666667, "bike_id": "4ff91fc57979cced08f95c13c485ef8b", "type": "electric_scooter", "is_reserved": 0, "lon": -77.0354675}, {"fusion_lat": 0.0, "name": "5fa21695cff2cd69b4164711fd24e028", "is_disabled": 0, "rental_uris": {"android": "https://dc.lft.to/lastmile_qr_scan", "ios": "https://dc.lft.to/lastmile_qr_scan"}, "fusion_lon": 0.0, "lat": 38.94700066666667, "bike_id": "5fa21695cff2cd69b4164711fd24e028", "type": "electric_scooter", "is_reserved": 0, "lon": -77.01943883333334}, {"fusion_lat": 0.0, "name": "80369a05a17d22e32be32cf01a60ceb9", "is_disabled": 0, "rental_uris": {"android": "https://dc.lft.to/lastmile_qr_scan", "ios": "https://dc.lft.to/lastmile_qr_scan"}, "fusion_lon": 0.0, "lat": 38.920730166666665, "bike_id": "80369a05a17d22e32be32cf01a60ceb9", "type": "electric_scooter", "is_reserved": 0, "lon": -77.004594}, {"fusion_lat": 0.0, "name": "2373ac00d62ac16457ade301003b92c3", "is_disabled": 0, "rental_uris": {"android": "https://dc.lft.to/lastmile_qr_scan", "ios": "https://dc.lft.to/lastmile_qr_scan"}, "fusion_lon": 0.0, "lat": 38.9587995, "bike_id": "2373ac00d62ac16457ade301003b92c3", "type": "electric_bike", "is_reserved": 0, "lon": -77.00262016666667}, {"fusion_lat": 0.0, "name": "8021c84c7f7b0dbaaddc17118fd4a6bc", "is_disabled": 0, "rental_uris": {"android": "https://dc.lft.to/lastmile_qr_scan", "ios": "https://dc.lft.to/lastmile_qr_scan"}, "fusion_lon": 0.0, "lat": 38.885120666666666, "bike_id": "8021c84c7f7b0dbaaddc17118fd4a6bc", "type": "electric_scooter", "is_reserved": 0, "lon": -76.92947933333333}, {"fusion_lat": 0.0, "name": "9c6cf5eeca1ba7e4fdd7ff17851b249f", "is_disabled": 0, "rental_uris": {"android": "https://dc.lft.to/lastmile_qr_scan", "ios": "https://dc.lft.to/lastmile_qr_scan"}, "fusion_lon": 0.0, "lat": 38.92245583333333, "bike_id": "9c6cf5eeca1ba7e4fdd7ff17851b249f", "type": "electric_scooter", "is_reserved": 0, "lon": -77.02981433333333}, {"fusion_lat": 0.0, "name": "b92cf24c0b68576e2f43620b34d59b93", "is_disabled": 0, "rental_uris": {"android": "https://dc.lft.to/lastmile_qr_scan", "ios": "https://dc.lft.to/lastmile_qr_scan"}, "fusion_lon": 0.0, "lat": 38.931907333333335, "bike_id": "b92cf24c0b68576e2f43620b34d59b93", "type": "electric_scooter", "is_reserved": 0, "lon": -77.04293783333334}, {"fusion_lat": 0.0, "name": "a740dafad3ffc5b408d8a733ad461076", "is_disabled": 0, "rental_uris": {"android": "https://dc.lft.to/lastmile_qr_scan", "ios": "https://dc.lft.to/lastmile_qr_scan"}, "fusion_lon": 0.0, "lat": 38.9191475, "bike_id": "a740dafad3ffc5b408d8a733ad461076", "type": "electric_scooter", "is_reserved": 0, "lon": -77.0357905}, {"fusion_lat": 0.0, "name": "4879c8ee070c0f27aa685991eea0b598", "is_disabled": 0, "rental_uris": {"android": "https://dc.lft.to/lastmile_qr_scan", "ios": "https://dc.lft.to/lastmile_qr_scan"}, "fusion_lon": 0.0, "lat": 38.884666, "bike_id": "4879c8ee070c0f27aa685991eea0b598", "type": "electric_scooter", "is_reserved": 0, "lon": -76.99830416666667}, {"fusion_lat": 0.0, "name": "e4c9ad1b20cb28882856ba3c244cfc13", "is_disabled": 0, "rental_uris": {"android": "https://dc.lft.to/lastmile_qr_scan", "ios": "https://dc.lft.to/lastmile_qr_scan"}, "fusion_lon": 0.0, "lat": 38.911199333333336, "bike_id": "e4c9ad1b20cb28882856ba3c244cfc13", "type": "electric_scooter", "is_reserved": 0, "lon": -77.02101066666667}, {"fusion_lat": 0.0, "name": "2b32e51119fe858b44b19be241536bca", "is_disabled": 0, "rental_uris": {"android": "https://dc.lft.to/lastmile_qr_scan", "ios": "https://dc.lft.to/lastmile_qr_scan"}, "fusion_lon": 0.0, "lat": 38.993774333333334, "bike_id": "2b32e51119fe858b44b19be241536bca", "type": "electric_bike", "is_reserved": 0, "lon": -77.03189466666667}, {"fusion_lat": 0.0, "name": "a699c770d49c68e7d804f474682a1487", "is_disabled": 0, "rental_uris": {"android": "https://dc.lft.to/lastmile_qr_scan", "ios": "https://dc.lft.to/lastmile_qr_scan"}, "fusion_lon": 0.0, "lat": 38.903158166666664, "bike_id": "a699c770d49c68e7d804f474682a1487", "type": "electric_scooter", "is_reserved": 0, "lon": -76.978007}, {"fusion_lat": 0.0, "name": "d8d9b623aec962e14ca222c6384809f0", "is_disabled": 0, "rental_uris": {"android": "https://dc.lft.to/lastmile_qr_scan", "ios": "https://dc.lft.to/lastmile_qr_scan"}, "fusion_lon": 0.0, "lat": 38.8801655, "bike_id": "d8d9b623aec962e14ca222c6384809f0", "type": "electric_scooter", "is_reserved": 0, "lon": -76.93119383333334}, {"fusion_lat": 0.0, "name": "3104e2f6b675d39ba05c9a15eef58972", "is_disabled": 0, "rental_uris": {"android": "https://dc.lft.to/lastmile_qr_scan", "ios": "https://dc.lft.to/lastmile_qr_scan"}, "fusion_lon": 0.0, "lat": 38.92027366666667, "bike_id": "3104e2f6b675d39ba05c9a15eef58972", "type": "electric_scooter", "is_reserved": 0, "lon": -76.99554333333333}, {"fusion_lat": 0.0, "name": "bf62a7142f701ed9f19ea6e39c64ad92", "is_disabled": 0, "rental_uris": {"android": "https://dc.lft.to/lastmile_qr_scan", "ios": "https://dc.lft.to/lastmile_qr_scan"}, "fusion_lon": 0.0, "lat": 38.914795833333336, "bike_id": "bf62a7142f701ed9f19ea6e39c64ad92", "type": "electric_scooter", "is_reserved": 0, "lon": -77.04516466666666}, {"fusion_lat": 0.0, "name": "2678980b294a59a8e6655a1de016dc97", "is_disabled": 0, "rental_uris": {"android": "https://dc.lft.to/lastmile_qr_scan", "ios": "https://dc.lft.to/lastmile_qr_scan"}, "fusion_lon": 0.0, "lat": 38.901621166666665, "bike_id": "2678980b294a59a8e6655a1de016dc97", "type": "electric_scooter", "is_reserved": 0, "lon": -77.018878}, {"fusion_lat": 0.0, "name": "b7bb88d60e0ca63d1c6df33bb9d0088d", "is_disabled": 0, "rental_uris": {"android": "https://dc.lft.to/lastmile_qr_scan", "ios": "https://dc.lft.to/lastmile_qr_scan"}, "fusion_lon": 0.0, "lat": 38.91964433333333, "bike_id": "b7bb88d60e0ca63d1c6df33bb9d0088d", "type": "electric_scooter", "is_reserved": 0, "lon": -77.00111716666666}, {"fusion_lat": 0.0, "name": "b9edcb88201c052539b02a50328be3ef", "is_disabled": 0, "rental_uris": {"android": "https://dc.lft.to/lastmile_qr_scan", "ios": "https://dc.lft.to/lastmile_qr_scan"}, "fusion_lon": 0.0, "lat": 38.879178833333334, "bike_id": "b9edcb88201c052539b02a50328be3ef", "type": "electric_scooter", "is_reserved": 0, "lon": -76.99509183333333}, {"fusion_lat": 0.0, "name": "fdaf7832a38b25c7a9cd1913ca2f8293", "is_disabled": 0, "rental_uris": {"android": "https://dc.lft.to/lastmile_qr_scan", "ios": "https://dc.lft.to/lastmile_qr_scan"}, "fusion_lon": 0.0, "lat": 38.8887225, "bike_id": "fdaf7832a38b25c7a9cd1913ca2f8293", "type": "electric_scooter", "is_reserved": 0, "lon": -76.98459316666667}, {"fusion_lat": 0.0, "name": "25cc65e0798d8c903fad81917151c8aa", "is_disabled": 0, "rental_uris": {"android": "https://dc.lft.to/lastmile_qr_scan", "ios": "https://dc.lft.to/lastmile_qr_scan"}, "fusion_lon": 0.0, "lat": 38.901717, "bike_id": "25cc65e0798d8c903fad81917151c8aa", "type": "electric_scooter", "is_reserved": 0, "lon": -76.9290985}, {"fusion_lat": 0.0, "name": "23e24c2f8f9d4e520e913fa2bef41561", "is_disabled": 0, "rental_uris": {"android": "https://dc.lft.to/lastmile_qr_scan", "ios": "https://dc.lft.to/lastmile_qr_scan"}, "fusion_lon": 0.0, "lat": 38.917960666666666, "bike_id": "23e24c2f8f9d4e520e913fa2bef41561", "type": "electric_scooter", "is_reserved": 0, "lon": -77.03193433333334}, {"fusion_lat": 0.0, "name": "11a20dc89d2f38c72dc954a29a265494", "is_disabled": 0, "rental_uris": {"android": "https://dc.lft.to/lastmile_qr_scan", "ios": "https://dc.lft.to/lastmile_qr_scan"}, "fusion_lon": 0.0, "lat": 38.8874465, "bike_id": "11a20dc89d2f38c72dc954a29a265494", "type": "electric_scooter", "is_reserved": 0, "lon": -76.996267}, {"fusion_lat": 0.0, "name": "da88453dee6fddb222123cea76ba3fbb", "is_disabled": 0, "rental_uris": {"android": "https://dc.lft.to/lastmile_qr_scan", "ios": "https://dc.lft.to/lastmile_qr_scan"}, "fusion_lon": 0.0, "lat": 38.8551295, "bike_id": "da88453dee6fddb222123cea76ba3fbb", "type": "electric_bike", "is_reserved": 0, "lon": -77.10538366666667}, {"fusion_lat": 0.0, "name": "7c583d3e44c0feeb583a2cf40a7d0a3a", "is_disabled": 0, "rental_uris": {"android": "https://dc.lft.to/lastmile_qr_scan", "ios": "https://dc.lft.to/lastmile_qr_scan"}, "fusion_lon": 0.0, "lat": 38.919415, "bike_id": "7c583d3e44c0feeb583a2cf40a7d0a3a", "type": "electric_scooter", "is_reserved": 0, "lon": -77.07051333333334}, {"fusion_lat": 0.0, "name": "cdcb67781a930f4dd06ae08f2a901270", "is_disabled": 0, "rental_uris": {"android": "https://dc.lft.to/lastmile_qr_scan", "ios": "https://dc.lft.to/lastmile_qr_scan"}, "fusion_lon": 0.0, "lat": 38.914083, "bike_id": "cdcb67781a930f4dd06ae08f2a901270", "type": "electric_scooter", "is_reserved": 0, "lon": -77.03222316666667}, {"fusion_lat": 0.0, "name": "51896c879074ceb855ad613e6a7f4a20", "is_disabled": 0, "rental_uris": {"android": "https://dc.lft.to/lastmile_qr_scan", "ios": "https://dc.lft.to/lastmile_qr_scan"}, "fusion_lon": 0.0, "lat": 38.9102035, "bike_id": "51896c879074ceb855ad613e6a7f4a20", "type": "electric_scooter", "is_reserved": 0, "lon": -77.00914433333334}, {"fusion_lat": 0.0, "name": "82085fd40cffae40abeeaa703d2bddf3", "is_disabled": 0, "rental_uris": {"android": "https://dc.lft.to/lastmile_qr_scan", "ios": "https://dc.lft.to/lastmile_qr_scan"}, "fusion_lon": 0.0, "lat": 38.921558166666664, "bike_id": "82085fd40cffae40abeeaa703d2bddf3", "type": "electric_scooter", "is_reserved": 0, "lon": -77.04116916666666}, {"fusion_lat": 0.0, "name": "e1f4b96b77e77b4abb404f728dfbd177", "is_disabled": 0, "rental_uris": {"android": "https://dc.lft.to/lastmile_qr_scan", "ios": "https://dc.lft.to/lastmile_qr_scan"}, "fusion_lon": 0.0, "lat": 38.800177166666664, "bike_id": "e1f4b96b77e77b4abb404f728dfbd177", "type": "electric_bike", "is_reserved": 0, "lon": -77.05484216666666}, {"fusion_lat": 0.0, "name": "f1ac537e647b111b0be7c0208359cfa4", "is_disabled": 0, "rental_uris": {"android": "https://dc.lft.to/lastmile_qr_scan", "ios": "https://dc.lft.to/lastmile_qr_scan"}, "fusion_lon": 0.0, "lat": 38.933081333333334, "bike_id": "f1ac537e647b111b0be7c0208359cfa4", "type": "electric_scooter", "is_reserved": 0, "lon": -77.03259116666666}, {"fusion_lat": 0.0, "name": "11a274ecd3cb2fef1cede54c503c5be6", "is_disabled": 0, "rental_uris": {"android": "https://dc.lft.to/lastmile_qr_scan", "ios": "https://dc.lft.to/lastmile_qr_scan"}, "fusion_lon": 0.0, "lat": 38.90466716666667, "bike_id": "11a274ecd3cb2fef1cede54c503c5be6", "type": "electric_scooter", "is_reserved": 0, "lon": -77.04360083333333}, {"fusion_lat": 0.0, "name": "7336e786fe5625123925e55e079b3f98", "is_disabled": 0, "rental_uris": {"android": "https://dc.lft.to/lastmile_qr_scan", "ios": "https://dc.lft.to/lastmile_qr_scan"}, "fusion_lon": 0.0, "lat": 38.8901435, "bike_id": "7336e786fe5625123925e55e079b3f98", "type": "electric_scooter", "is_reserved": 0, "lon": -76.93730616666667}, {"fusion_lat": 0.0, "name": "f4ddf5c38c7d72a91945dd3597fbda8f", "is_disabled": 0, "rental_uris": {"android": "https://dc.lft.to/lastmile_qr_scan", "ios": "https://dc.lft.to/lastmile_qr_scan"}, "fusion_lon": 0.0, "lat": 38.9061595, "bike_id": "f4ddf5c38c7d72a91945dd3597fbda8f", "type": "electric_scooter", "is_reserved": 0, "lon": -77.02408916666667}, {"fusion_lat": 0.0, "name": "bda502b7414f8b8763fee98694990529", "is_disabled": 0, "rental_uris": {"android": "https://dc.lft.to/lastmile_qr_scan", "ios": "https://dc.lft.to/lastmile_qr_scan"}, "fusion_lon": 0.0, "lat": 38.900322, "bike_id": "bda502b7414f8b8763fee98694990529", "type": "electric_scooter", "is_reserved": 0, "lon": -76.99862683333333}, {"fusion_lat": 0.0, "name": "3fe57e23ef3bef110ef4bf6243793881", "is_disabled": 0, "rental_uris": {"android": "https://dc.lft.to/lastmile_qr_scan", "ios": "https://dc.lft.to/lastmile_qr_scan"}, "fusion_lon": 0.0, "lat": 38.91129133333333, "bike_id": "3fe57e23ef3bef110ef4bf6243793881", "type": "electric_scooter", "is_reserved": 0, "lon": -77.02199033333333}, {"fusion_lat": 0.0, "name": "75e36707efd78841b877a59f8d696176", "is_disabled": 0, "rental_uris": {"android": "https://dc.lft.to/lastmile_qr_scan", "ios": "https://dc.lft.to/lastmile_qr_scan"}, "fusion_lon": 0.0, "lat": 38.86332633333333, "bike_id": "75e36707efd78841b877a59f8d696176", "type": "electric_bike", "is_reserved": 0, "lon": -76.98725816666666}, {"fusion_lat": 0.0, "name": "8453807677d1be403ebfbc180aaf0117", "is_disabled": 0, "rental_uris": {"android": "https://dc.lft.to/lastmile_qr_scan", "ios": "https://dc.lft.to/lastmile_qr_scan"}, "fusion_lon": 0.0, "lat": 38.87995816666667, "bike_id": "8453807677d1be403ebfbc180aaf0117", "type": "electric_scooter", "is_reserved": 0, "lon": -77.0374055}, {"fusion_lat": 0.0, "name": "aa35ba5f1b54d8acabaf25b04255a184", "is_disabled": 0, "rental_uris": {"android": "https://dc.lft.to/lastmile_qr_scan", "ios": "https://dc.lft.to/lastmile_qr_scan"}, "fusion_lon": 0.0, "lat": 38.9039955, "bike_id": "aa35ba5f1b54d8acabaf25b04255a184", "type": "electric_scooter", "is_reserved": 0, "lon": -77.06779016666667}, {"fusion_lat": 0.0, "name": "a34f22e510a9b216248fb3ef78321961", "is_disabled": 0, "rental_uris": {"android": "https://dc.lft.to/lastmile_qr_scan", "ios": "https://dc.lft.to/lastmile_qr_scan"}, "fusion_lon": 0.0, "lat": 38.917679, "bike_id": "a34f22e510a9b216248fb3ef78321961", "type": "electric_scooter", "is_reserved": 0, "lon": -77.01490516666667}, {"fusion_lat": 0.0, "name": "05da2917231b5b449c862636632d9b1b", "is_disabled": 0, "rental_uris": {"android": "https://dc.lft.to/lastmile_qr_scan", "ios": "https://dc.lft.to/lastmile_qr_scan"}, "fusion_lon": 0.0, "lat": 38.879358, "bike_id": "05da2917231b5b449c862636632d9b1b", "type": "electric_scooter", "is_reserved": 0, "lon": -77.023857}, {"fusion_lat": 0.0, "name": "70091dfe7e1392c7026da10779a1815c", "is_disabled": 0, "rental_uris": {"android": "https://dc.lft.to/lastmile_qr_scan", "ios": "https://dc.lft.to/lastmile_qr_scan"}, "fusion_lon": 0.0, "lat": 38.90930916666667, "bike_id": "70091dfe7e1392c7026da10779a1815c", "type": "electric_scooter", "is_reserved": 0, "lon": -77.04579833333334}, {"fusion_lat": 0.0, "name": "6672eaf2ddaae265556c45b2e44d1513", "is_disabled": 0, "rental_uris": {"android": "https://dc.lft.to/lastmile_qr_scan", "ios": "https://dc.lft.to/lastmile_qr_scan"}, "fusion_lon": 0.0, "lat": 38.9216435, "bike_id": "6672eaf2ddaae265556c45b2e44d1513", "type": "electric_scooter", "is_reserved": 0, "lon": -76.99811133333333}, {"fusion_lat": 0.0, "name": "350bd3aadc3701bb798a5eba3d07a346", "is_disabled": 0, "rental_uris": {"android": "https://dc.lft.to/lastmile_qr_scan", "ios": "https://dc.lft.to/lastmile_qr_scan"}, "fusion_lon": 0.0, "lat": 38.90372083333333, "bike_id": "350bd3aadc3701bb798a5eba3d07a346", "type": "electric_scooter", "is_reserved": 0, "lon": -77.01844816666667}, {"fusion_lat": 0.0, "name": "9dc5b8a5783373558ce21aec05996176", "is_disabled": 0, "rental_uris": {"android": "https://dc.lft.to/lastmile_qr_scan", "ios": "https://dc.lft.to/lastmile_qr_scan"}, "fusion_lon": 0.0, "lat": 38.92797316666667, "bike_id": "9dc5b8a5783373558ce21aec05996176", "type": "electric_scooter", "is_reserved": 0, "lon": -77.03212716666667}, {"fusion_lat": 0.0, "name": "27bc275117511527421ebdd18014a91e", "is_disabled": 0, "rental_uris": {"android": "https://dc.lft.to/lastmile_qr_scan", "ios": "https://dc.lft.to/lastmile_qr_scan"}, "fusion_lon": 0.0, "lat": 38.9045665, "bike_id": "27bc275117511527421ebdd18014a91e", "type": "electric_scooter", "is_reserved": 0, "lon": -77.03222883333333}, {"fusion_lat": 0.0, "name": "38ebe0e7be2bc5d42cad1d3158610e97", "is_disabled": 0, "rental_uris": {"android": "https://dc.lft.to/lastmile_qr_scan", "ios": "https://dc.lft.to/lastmile_qr_scan"}, "fusion_lon": 0.0, "lat": 38.91760416666666, "bike_id": "38ebe0e7be2bc5d42cad1d3158610e97", "type": "electric_scooter", "is_reserved": 0, "lon": -77.03644433333334}, {"fusion_lat": 0.0, "name": "b72a963cc6ba92982891561c7dda9bc9", "is_disabled": 0, "rental_uris": {"android": "https://dc.lft.to/lastmile_qr_scan", "ios": "https://dc.lft.to/lastmile_qr_scan"}, "fusion_lon": 0.0, "lat": 38.913000333333336, "bike_id": "b72a963cc6ba92982891561c7dda9bc9", "type": "electric_scooter", "is_reserved": 0, "lon": -77.04877416666666}, {"fusion_lat": 0.0, "name": "6666c72c37ddaf81c92e769d6cc9c7c8", "is_disabled": 0, "rental_uris": {"android": "https://dc.lft.to/lastmile_qr_scan", "ios": "https://dc.lft.to/lastmile_qr_scan"}, "fusion_lon": 0.0, "lat": 38.91468033333334, "bike_id": "6666c72c37ddaf81c92e769d6cc9c7c8", "type": "electric_scooter", "is_reserved": 0, "lon": -77.02180716666666}, {"fusion_lat": 0.0, "name": "3b05e04a7a209fd77dff7efe3fe8c6ee", "is_disabled": 0, "rental_uris": {"android": "https://dc.lft.to/lastmile_qr_scan", "ios": "https://dc.lft.to/lastmile_qr_scan"}, "fusion_lon": 0.0, "lat": 38.804959333333336, "bike_id": "3b05e04a7a209fd77dff7efe3fe8c6ee", "type": "electric_bike", "is_reserved": 0, "lon": -77.101619}, {"fusion_lat": 0.0, "name": "d5a2eb8b46a8e9ce22225403925763c7", "is_disabled": 0, "rental_uris": {"android": "https://dc.lft.to/lastmile_qr_scan", "ios": "https://dc.lft.to/lastmile_qr_scan"}, "fusion_lon": 0.0, "lat": 38.919591, "bike_id": "d5a2eb8b46a8e9ce22225403925763c7", "type": "electric_scooter", "is_reserved": 0, "lon": -77.0709985}, {"fusion_lat": 0.0, "name": "8e2d2debc4295a10d4c911842f0f6e0a", "is_disabled": 0, "rental_uris": {"android": "https://dc.lft.to/lastmile_qr_scan", "ios": "https://dc.lft.to/lastmile_qr_scan"}, "fusion_lon": 0.0, "lat": 38.86170933333333, "bike_id": "8e2d2debc4295a10d4c911842f0f6e0a", "type": "electric_scooter", "is_reserved": 0, "lon": -76.9837245}, {"fusion_lat": 0.0, "name": "0041436077e2f5cc753b38750e39ad4a", "is_disabled": 0, "rental_uris": {"android": "https://dc.lft.to/lastmile_qr_scan", "ios": "https://dc.lft.to/lastmile_qr_scan"}, "fusion_lon": 0.0, "lat": 38.948964333333336, "bike_id": "0041436077e2f5cc753b38750e39ad4a", "type": "electric_bike", "is_reserved": 0, "lon": -76.96374533333334}, {"fusion_lat": 0.0, "name": "1c6df6083a1344b807630576a8f4077e", "is_disabled": 0, "rental_uris": {"android": "https://dc.lft.to/lastmile_qr_scan", "ios": "https://dc.lft.to/lastmile_qr_scan"}, "fusion_lon": 0.0, "lat": 38.892846, "bike_id": "1c6df6083a1344b807630576a8f4077e", "type": "electric_scooter", "is_reserved": 0, "lon": -76.9831145}, {"fusion_lat": 0.0, "name": "81dd0d63e6c4922353dc7181fbc74aa0", "is_disabled": 0, "rental_uris": {"android": "https://dc.lft.to/lastmile_qr_scan", "ios": "https://dc.lft.to/lastmile_qr_scan"}, "fusion_lon": 0.0, "lat": 38.92016816666667, "bike_id": "81dd0d63e6c4922353dc7181fbc74aa0", "type": "electric_scooter", "is_reserved": 0, "lon": -77.0315425}, {"fusion_lat": 0.0, "name": "b9f5a2af1a260946acc4dbbd66946ed2", "is_disabled": 0, "rental_uris": {"android": "https://dc.lft.to/lastmile_qr_scan", "ios": "https://dc.lft.to/lastmile_qr_scan"}, "fusion_lon": 0.0, "lat": 38.9207085, "bike_id": "b9f5a2af1a260946acc4dbbd66946ed2", "type": "electric_scooter", "is_reserved": 0, "lon": -77.002135}, {"fusion_lat": 0.0, "name": "5b852b786e29bfc52d6e9abe54bd5b9b", "is_disabled": 0, "rental_uris": {"android": "https://dc.lft.to/lastmile_qr_scan", "ios": "https://dc.lft.to/lastmile_qr_scan"}, "fusion_lon": 0.0, "lat": 38.935941, "bike_id": "5b852b786e29bfc52d6e9abe54bd5b9b", "type": "electric_scooter", "is_reserved": 0, "lon": -77.022831}, {"fusion_lat": 0.0, "name": "630d52e46fd684c9d396ea54b12aeeb7", "is_disabled": 0, "rental_uris": {"android": "https://dc.lft.to/lastmile_qr_scan", "ios": "https://dc.lft.to/lastmile_qr_scan"}, "fusion_lon": 0.0, "lat": 38.9089435, "bike_id": "630d52e46fd684c9d396ea54b12aeeb7", "type": "electric_scooter", "is_reserved": 0, "lon": -77.03275466666666}, {"fusion_lat": 0.0, "name": "89ba2bb8c23175a8784a70f0302820cf", "is_disabled": 0, "rental_uris": {"android": "https://dc.lft.to/lastmile_qr_scan", "ios": "https://dc.lft.to/lastmile_qr_scan"}, "fusion_lon": 0.0, "lat": 38.9064415, "bike_id": "89ba2bb8c23175a8784a70f0302820cf", "type": "electric_scooter", "is_reserved": 0, "lon": -77.01801666666667}, {"fusion_lat": 0.0, "name": "524a4408ed93997eb14f7e216e87dace", "is_disabled": 0, "rental_uris": {"android": "https://dc.lft.to/lastmile_qr_scan", "ios": "https://dc.lft.to/lastmile_qr_scan"}, "fusion_lon": 0.0, "lat": 39.014158, "bike_id": "524a4408ed93997eb14f7e216e87dace", "type": "electric_bike", "is_reserved": 0, "lon": -77.0449945}, {"fusion_lat": 0.0, "name": "df57281a70d7e056c35c7e72c2b44ca0", "is_disabled": 0, "rental_uris": {"android": "https://dc.lft.to/lastmile_qr_scan", "ios": "https://dc.lft.to/lastmile_qr_scan"}, "fusion_lon": 0.0, "lat": 38.8789225, "bike_id": "df57281a70d7e056c35c7e72c2b44ca0", "type": "electric_bike", "is_reserved": 0, "lon": -77.0208145}, {"fusion_lat": 0.0, "name": "89d691d04efe53f870796e1897df4053", "is_disabled": 0, "rental_uris": {"android": "https://dc.lft.to/lastmile_qr_scan", "ios": "https://dc.lft.to/lastmile_qr_scan"}, "fusion_lon": 0.0, "lat": 38.81609183333333, "bike_id": "89d691d04efe53f870796e1897df4053", "type": "electric_bike", "is_reserved": 0, "lon": -76.9966105}, {"fusion_lat": 0.0, "name": "b24c4f8ad4f1efce7c0239d900da6d9d", "is_disabled": 0, "rental_uris": {"android": "https://dc.lft.to/lastmile_qr_scan", "ios": "https://dc.lft.to/lastmile_qr_scan"}, "fusion_lon": 0.0, "lat": 38.900646333333334, "bike_id": "b24c4f8ad4f1efce7c0239d900da6d9d", "type": "electric_scooter", "is_reserved": 0, "lon": -76.98718483333333}, {"fusion_lat": 0.0, "name": "93fd2dc062a50f8c0b89110720f45c81", "is_disabled": 0, "rental_uris": {"android": "https://dc.lft.to/lastmile_qr_scan", "ios": "https://dc.lft.to/lastmile_qr_scan"}, "fusion_lon": 0.0, "lat": 38.8850735, "bike_id": "93fd2dc062a50f8c0b89110720f45c81", "type": "electric_scooter", "is_reserved": 0, "lon": -76.99754566666667}, {"fusion_lat": 0.0, "name": "0feb40cd0a43e096364a44aced78980d", "is_disabled": 0, "rental_uris": {"android": "https://dc.lft.to/lastmile_qr_scan", "ios": "https://dc.lft.to/lastmile_qr_scan"}, "fusion_lon": 0.0, "lat": 38.909780833333336, "bike_id": "0feb40cd0a43e096364a44aced78980d", "type": "electric_scooter", "is_reserved": 0, "lon": -77.03330533333333}, {"fusion_lat": 0.0, "name": "52a2490c88f0b98611724889cd59c529", "is_disabled": 0, "rental_uris": {"android": "https://dc.lft.to/lastmile_qr_scan", "ios": "https://dc.lft.to/lastmile_qr_scan"}, "fusion_lon": 0.0, "lat": 38.921627666666666, "bike_id": "52a2490c88f0b98611724889cd59c529", "type": "electric_scooter", "is_reserved": 0, "lon": -77.02085216666667}, {"fusion_lat": 0.0, "name": "173b2d5fea7d47dd8d2a95a38b872861", "is_disabled": 0, "rental_uris": {"android": "https://dc.lft.to/lastmile_qr_scan", "ios": "https://dc.lft.to/lastmile_qr_scan"}, "fusion_lon": 0.0, "lat": 38.8792755, "bike_id": "173b2d5fea7d47dd8d2a95a38b872861", "type": "electric_scooter", "is_reserved": 0, "lon": -77.0239445}, {"fusion_lat": 0.0, "name": "5f89cade0c2d912ef8411d35c3fb6936", "is_disabled": 0, "rental_uris": {"android": "https://dc.lft.to/lastmile_qr_scan", "ios": "https://dc.lft.to/lastmile_qr_scan"}, "fusion_lon": 0.0, "lat": 38.84917466666667, "bike_id": "5f89cade0c2d912ef8411d35c3fb6936", "type": "electric_bike", "is_reserved": 0, "lon": -77.079297}, {"fusion_lat": 0.0, "name": "7be62aee2aeab74ebbb3b44059ecdab9", "is_disabled": 0, "rental_uris": {"android": "https://dc.lft.to/lastmile_qr_scan", "ios": "https://dc.lft.to/lastmile_qr_scan"}, "fusion_lon": 0.0, "lat": 38.91628133333333, "bike_id": "7be62aee2aeab74ebbb3b44059ecdab9", "type": "electric_scooter", "is_reserved": 0, "lon": -77.029522}, {"fusion_lat": 0.0, "name": "35ac1531711edfc90cf55a61d18968ee", "is_disabled": 0, "rental_uris": {"android": "https://dc.lft.to/lastmile_qr_scan", "ios": "https://dc.lft.to/lastmile_qr_scan"}, "fusion_lon": 0.0, "lat": 38.95739966666667, "bike_id": "35ac1531711edfc90cf55a61d18968ee", "type": "electric_bike", "is_reserved": 0, "lon": -76.98082983333333}, {"fusion_lat": 0.0, "name": "fc7f30f78441968eb233e37e32f9b9af", "is_disabled": 0, "rental_uris": {"android": "https://dc.lft.to/lastmile_qr_scan", "ios": "https://dc.lft.to/lastmile_qr_scan"}, "fusion_lon": 0.0, "lat": 38.92198466666667, "bike_id": "fc7f30f78441968eb233e37e32f9b9af", "type": "electric_scooter", "is_reserved": 0, "lon": -77.08082966666667}, {"fusion_lat": 0.0, "name": "ae9c2b640c027997ca4947cc28837b5b", "is_disabled": 0, "rental_uris": {"android": "https://dc.lft.to/lastmile_qr_scan", "ios": "https://dc.lft.to/lastmile_qr_scan"}, "fusion_lon": 0.0, "lat": 38.912328333333335, "bike_id": "ae9c2b640c027997ca4947cc28837b5b", "type": "electric_scooter", "is_reserved": 0, "lon": -77.01895483333334}, {"fusion_lat": 0.0, "name": "d3cd10c4f3c656147bbb34ab6b42a632", "is_disabled": 0, "rental_uris": {"android": "https://dc.lft.to/lastmile_qr_scan", "ios": "https://dc.lft.to/lastmile_qr_scan"}, "fusion_lon": 0.0, "lat": 38.89910366666667, "bike_id": "d3cd10c4f3c656147bbb34ab6b42a632", "type": "electric_scooter", "is_reserved": 0, "lon": -76.93347983333334}, {"fusion_lat": 0.0, "name": "93c9329e27195685ed9c99f1ec97e964", "is_disabled": 0, "rental_uris": {"android": "https://dc.lft.to/lastmile_qr_scan", "ios": "https://dc.lft.to/lastmile_qr_scan"}, "fusion_lon": 0.0, "lat": 38.9360765, "bike_id": "93c9329e27195685ed9c99f1ec97e964", "type": "electric_scooter", "is_reserved": 0, "lon": -77.03200616666666}, {"fusion_lat": 0.0, "name": "9eaa5362f7c083a2c05c77ee6b094a05", "is_disabled": 0, "rental_uris": {"android": "https://dc.lft.to/lastmile_qr_scan", "ios": "https://dc.lft.to/lastmile_qr_scan"}, "fusion_lon": 0.0, "lat": 38.95966216666667, "bike_id": "9eaa5362f7c083a2c05c77ee6b094a05", "type": "electric_bike", "is_reserved": 0, "lon": -76.98158916666667}, {"fusion_lat": 0.0, "name": "42286ca3ace9914d4e569dcf461e17be", "is_disabled": 0, "rental_uris": {"android": "https://dc.lft.to/lastmile_qr_scan", "ios": "https://dc.lft.to/lastmile_qr_scan"}, "fusion_lon": 0.0, "lat": 38.92699366666667, "bike_id": "42286ca3ace9914d4e569dcf461e17be", "type": "electric_scooter", "is_reserved": 0, "lon": -77.02426866666667}, {"fusion_lat": 0.0, "name": "8e878ed55daada2ec7050347181386d9", "is_disabled": 0, "rental_uris": {"android": "https://dc.lft.to/lastmile_qr_scan", "ios": "https://dc.lft.to/lastmile_qr_scan"}, "fusion_lon": 0.0, "lat": 38.9286115, "bike_id": "8e878ed55daada2ec7050347181386d9", "type": "electric_scooter", "is_reserved": 0, "lon": -77.03103666666667}, {"fusion_lat": 0.0, "name": "4b90860838c5946059604dc346aa8ca7", "is_disabled": 0, "rental_uris": {"android": "https://dc.lft.to/lastmile_qr_scan", "ios": "https://dc.lft.to/lastmile_qr_scan"}, "fusion_lon": 0.0, "lat": 38.87636333333333, "bike_id": "4b90860838c5946059604dc346aa8ca7", "type": "electric_scooter", "is_reserved": 0, "lon": -77.009507}, {"fusion_lat": 0.0, "name": "55f1f0071723696c38c4bfb9b3ca2eb2", "is_disabled": 0, "rental_uris": {"android": "https://dc.lft.to/lastmile_qr_scan", "ios": "https://dc.lft.to/lastmile_qr_scan"}, "fusion_lon": 0.0, "lat": 38.91818966666666, "bike_id": "55f1f0071723696c38c4bfb9b3ca2eb2", "type": "electric_scooter", "is_reserved": 0, "lon": -77.03340383333334}, {"fusion_lat": 0.0, "name": "ab6f5455a92c0e0731e9af9f439ee37a", "is_disabled": 0, "rental_uris": {"android": "https://dc.lft.to/lastmile_qr_scan", "ios": "https://dc.lft.to/lastmile_qr_scan"}, "fusion_lon": 0.0, "lat": 38.91909716666667, "bike_id": "ab6f5455a92c0e0731e9af9f439ee37a", "type": "electric_scooter", "is_reserved": 0, "lon": -77.0121995}, {"fusion_lat": 0.0, "name": "9024a09dbcd3ef6990cdd389344ae937", "is_disabled": 0, "rental_uris": {"android": "https://dc.lft.to/lastmile_qr_scan", "ios": "https://dc.lft.to/lastmile_qr_scan"}, "fusion_lon": 0.0, "lat": 38.87933316666667, "bike_id": "9024a09dbcd3ef6990cdd389344ae937", "type": "electric_scooter", "is_reserved": 0, "lon": -77.02390233333334}, {"fusion_lat": 0.0, "name": "124d8e97726004577b0915ad75fa671c", "is_disabled": 0, "rental_uris": {"android": "https://dc.lft.to/lastmile_qr_scan", "ios": "https://dc.lft.to/lastmile_qr_scan"}, "fusion_lon": 0.0, "lat": 38.88761566666667, "bike_id": "124d8e97726004577b0915ad75fa671c", "type": "electric_scooter", "is_reserved": 0, "lon": -77.00164883333333}, {"fusion_lat": 0.0, "name": "5b6aa810b509b7728f3513aad6a7ab65", "is_disabled": 0, "rental_uris": {"android": "https://dc.lft.to/lastmile_qr_scan", "ios": "https://dc.lft.to/lastmile_qr_scan"}, "fusion_lon": 0.0, "lat": 38.91819483333333, "bike_id": "5b6aa810b509b7728f3513aad6a7ab65", "type": "electric_scooter", "is_reserved": 0, "lon": -77.0252775}, {"fusion_lat": 0.0, "name": "1e214af025e926a543fa39def653eb78", "is_disabled": 0, "rental_uris": {"android": "https://dc.lft.to/lastmile_qr_scan", "ios": "https://dc.lft.to/lastmile_qr_scan"}, "fusion_lon": 0.0, "lat": 38.926045, "bike_id": "1e214af025e926a543fa39def653eb78", "type": "electric_scooter", "is_reserved": 0, "lon": -77.02226233333333}, {"fusion_lat": 0.0, "name": "7365ec4a95d461645ebe96e5e8458c6f", "is_disabled": 0, "rental_uris": {"android": "https://dc.lft.to/lastmile_qr_scan", "ios": "https://dc.lft.to/lastmile_qr_scan"}, "fusion_lon": 0.0, "lat": 38.94023833333333, "bike_id": "7365ec4a95d461645ebe96e5e8458c6f", "type": "electric_scooter", "is_reserved": 0, "lon": -77.02758616666667}, {"fusion_lat": 0.0, "name": "2834ff18829d964b133d48fbe2f7e579", "is_disabled": 0, "rental_uris": {"android": "https://dc.lft.to/lastmile_qr_scan", "ios": "https://dc.lft.to/lastmile_qr_scan"}, "fusion_lon": 0.0, "lat": 38.926114166666665, "bike_id": "2834ff18829d964b133d48fbe2f7e579", "type": "electric_scooter", "is_reserved": 0, "lon": -77.02167516666667}, {"fusion_lat": 0.0, "name": "9c1eb312a82faa8c9f3eabfd94344416", "is_disabled": 0, "rental_uris": {"android": "https://dc.lft.to/lastmile_qr_scan", "ios": "https://dc.lft.to/lastmile_qr_scan"}, "fusion_lon": 0.0, "lat": 38.9193695, "bike_id": "9c1eb312a82faa8c9f3eabfd94344416", "type": "electric_scooter", "is_reserved": 0, "lon": -77.02498766666666}, {"fusion_lat": 0.0, "name": "595dfaa345fc4c22bfab2935c0be4610", "is_disabled": 0, "rental_uris": {"android": "https://dc.lft.to/lastmile_qr_scan", "ios": "https://dc.lft.to/lastmile_qr_scan"}, "fusion_lon": 0.0, "lat": 38.8246655, "bike_id": "595dfaa345fc4c22bfab2935c0be4610", "type": "electric_bike", "is_reserved": 0, "lon": -77.00797533333333}, {"fusion_lat": 0.0, "name": "fdb8ffde6f2d8f32ac4e1469b5163618", "is_disabled": 0, "rental_uris": {"android": "https://dc.lft.to/lastmile_qr_scan", "ios": "https://dc.lft.to/lastmile_qr_scan"}, "fusion_lon": 0.0, "lat": 38.91365066666667, "bike_id": "fdb8ffde6f2d8f32ac4e1469b5163618", "type": "electric_scooter", "is_reserved": 0, "lon": -77.04554783333333}, {"fusion_lat": 0.0, "name": "ab14bb23039c65488d44eff61ea6f678", "is_disabled": 0, "rental_uris": {"android": "https://dc.lft.to/lastmile_qr_scan", "ios": "https://dc.lft.to/lastmile_qr_scan"}, "fusion_lon": 0.0, "lat": 38.925019166666665, "bike_id": "ab14bb23039c65488d44eff61ea6f678", "type": "electric_scooter", "is_reserved": 0, "lon": -77.05225183333333}, {"fusion_lat": 0.0, "name": "27c7003a002561994f61f9e1e6b67a6a", "is_disabled": 0, "rental_uris": {"android": "https://dc.lft.to/lastmile_qr_scan", "ios": "https://dc.lft.to/lastmile_qr_scan"}, "fusion_lon": 0.0, "lat": 38.905219, "bike_id": "27c7003a002561994f61f9e1e6b67a6a", "type": "electric_scooter", "is_reserved": 0, "lon": -77.05651566666667}, {"fusion_lat": 0.0, "name": "b2bb36d08f57c6e6ecf4a90b817b1b13", "is_disabled": 0, "rental_uris": {"android": "https://dc.lft.to/lastmile_qr_scan", "ios": "https://dc.lft.to/lastmile_qr_scan"}, "fusion_lon": 0.0, "lat": 38.903794833333336, "bike_id": "b2bb36d08f57c6e6ecf4a90b817b1b13", "type": "electric_scooter", "is_reserved": 0, "lon": -77.036477}, {"fusion_lat": 0.0, "name": "c4c5fa9481070cb3d68263d8bcca9081", "is_disabled": 0, "rental_uris": {"android": "https://dc.lft.to/lastmile_qr_scan", "ios": "https://dc.lft.to/lastmile_qr_scan"}, "fusion_lon": 0.0, "lat": 38.899092833333334, "bike_id": "c4c5fa9481070cb3d68263d8bcca9081", "type": "electric_scooter", "is_reserved": 0, "lon": -76.94549916666666}, {"fusion_lat": 0.0, "name": "c62f4bcaf98a372b83dd00bb02403a4c", "is_disabled": 0, "rental_uris": {"android": "https://dc.lft.to/lastmile_qr_scan", "ios": "https://dc.lft.to/lastmile_qr_scan"}, "fusion_lon": 0.0, "lat": 38.876608, "bike_id": "c62f4bcaf98a372b83dd00bb02403a4c", "type": "electric_scooter", "is_reserved": 0, "lon": -77.007362}, {"fusion_lat": 0.0, "name": "8905fb44b3df79ef0addbd5da5bf98d9", "is_disabled": 0, "rental_uris": {"android": "https://dc.lft.to/lastmile_qr_scan", "ios": "https://dc.lft.to/lastmile_qr_scan"}, "fusion_lon": 0.0, "lat": 38.91441716666667, "bike_id": "8905fb44b3df79ef0addbd5da5bf98d9", "type": "electric_scooter", "is_reserved": 0, "lon": -77.02288883333334}, {"fusion_lat": 0.0, "name": "30adf961653b6d65d2229338cc6cae51", "is_disabled": 0, "rental_uris": {"android": "https://dc.lft.to/lastmile_qr_scan", "ios": "https://dc.lft.to/lastmile_qr_scan"}, "fusion_lon": 0.0, "lat": 38.900264, "bike_id": "30adf961653b6d65d2229338cc6cae51", "type": "electric_scooter", "is_reserved": 0, "lon": -77.00700333333333}, {"fusion_lat": 0.0, "name": "7d9278050b406ee38210a277387c3c71", "is_disabled": 0, "rental_uris": {"android": "https://dc.lft.to/lastmile_qr_scan", "ios": "https://dc.lft.to/lastmile_qr_scan"}, "fusion_lon": 0.0, "lat": 38.87879566666667, "bike_id": "7d9278050b406ee38210a277387c3c71", "type": "electric_scooter", "is_reserved": 0, "lon": -77.02229566666666}, {"fusion_lat": 0.0, "name": "4f94dc613898e8abf185c597aa898549", "is_disabled": 0, "rental_uris": {"android": "https://dc.lft.to/lastmile_qr_scan", "ios": "https://dc.lft.to/lastmile_qr_scan"}, "fusion_lon": 0.0, "lat": 38.88769816666667, "bike_id": "4f94dc613898e8abf185c597aa898549", "type": "electric_scooter", "is_reserved": 0, "lon": -76.97756216666667}, {"fusion_lat": 0.0, "name": "a02056b34213035ff941831ce993fda5", "is_disabled": 0, "rental_uris": {"android": "https://dc.lft.to/lastmile_qr_scan", "ios": "https://dc.lft.to/lastmile_qr_scan"}, "fusion_lon": 0.0, "lat": 38.909478666666665, "bike_id": "a02056b34213035ff941831ce993fda5", "type": "electric_scooter", "is_reserved": 0, "lon": -76.985509}, {"fusion_lat": 0.0, "name": "58c875cc758cb5dd57074abf34e56b76", "is_disabled": 0, "rental_uris": {"android": "https://dc.lft.to/lastmile_qr_scan", "ios": "https://dc.lft.to/lastmile_qr_scan"}, "fusion_lon": 0.0, "lat": 38.889695333333336, "bike_id": "58c875cc758cb5dd57074abf34e56b76", "type": "electric_scooter", "is_reserved": 0, "lon": -76.97971383333334}, {"fusion_lat": 0.0, "name": "0519289c5e80fe749e274a883b6bfbb6", "is_disabled": 0, "rental_uris": {"android": "https://dc.lft.to/lastmile_qr_scan", "ios": "https://dc.lft.to/lastmile_qr_scan"}, "fusion_lon": 0.0, "lat": 38.88134616666667, "bike_id": "0519289c5e80fe749e274a883b6bfbb6", "type": "electric_scooter", "is_reserved": 0, "lon": -77.027073}, {"fusion_lat": 0.0, "name": "395daf284b443125653c51905d4af758", "is_disabled": 0, "rental_uris": {"android": "https://dc.lft.to/lastmile_qr_scan", "ios": "https://dc.lft.to/lastmile_qr_scan"}, "fusion_lon": 0.0, "lat": 38.952957166666664, "bike_id": "395daf284b443125653c51905d4af758", "type": "electric_bike", "is_reserved": 0, "lon": -76.9998025}, {"fusion_lat": 0.0, "name": "22f0929612f3fc228e69325c78e95b4a", "is_disabled": 0, "rental_uris": {"android": "https://dc.lft.to/lastmile_qr_scan", "ios": "https://dc.lft.to/lastmile_qr_scan"}, "fusion_lon": 0.0, "lat": 38.937546833333336, "bike_id": "22f0929612f3fc228e69325c78e95b4a", "type": "electric_scooter", "is_reserved": 0, "lon": -77.025241}, {"fusion_lat": 0.0, "name": "33a996f0cb72be85b99c59b7a00a4b88", "is_disabled": 0, "rental_uris": {"android": "https://dc.lft.to/lastmile_qr_scan", "ios": "https://dc.lft.to/lastmile_qr_scan"}, "fusion_lon": 0.0, "lat": 38.934025166666665, "bike_id": "33a996f0cb72be85b99c59b7a00a4b88", "type": "electric_scooter", "is_reserved": 0, "lon": -77.0284245}, {"fusion_lat": 0.0, "name": "af5757bf9d0d74e0abacf578cb2800e6", "is_disabled": 0, "rental_uris": {"android": "https://dc.lft.to/lastmile_qr_scan", "ios": "https://dc.lft.to/lastmile_qr_scan"}, "fusion_lon": 0.0, "lat": 38.84130533333333, "bike_id": "af5757bf9d0d74e0abacf578cb2800e6", "type": "electric_bike", "is_reserved": 0, "lon": -77.06307783333334}, {"fusion_lat": 0.0, "name": "666a12cb036fe6354773ecf1d013b51c", "is_disabled": 0, "rental_uris": {"android": "https://dc.lft.to/lastmile_qr_scan", "ios": "https://dc.lft.to/lastmile_qr_scan"}, "fusion_lon": 0.0, "lat": 38.923955166666666, "bike_id": "666a12cb036fe6354773ecf1d013b51c", "type": "electric_scooter", "is_reserved": 0, "lon": -77.04301616666666}, {"fusion_lat": 0.0, "name": "1d9bc7a764756b88614fa0330518d542", "is_disabled": 0, "rental_uris": {"android": "https://dc.lft.to/lastmile_qr_scan", "ios": "https://dc.lft.to/lastmile_qr_scan"}, "fusion_lon": 0.0, "lat": 38.900545, "bike_id": "1d9bc7a764756b88614fa0330518d542", "type": "electric_scooter", "is_reserved": 0, "lon": -77.04533233333333}, {"fusion_lat": 0.0, "name": "6a1d6820271ae3577cc148506db01369", "is_disabled": 0, "rental_uris": {"android": "https://dc.lft.to/lastmile_qr_scan", "ios": "https://dc.lft.to/lastmile_qr_scan"}, "fusion_lon": 0.0, "lat": 38.88389, "bike_id": "6a1d6820271ae3577cc148506db01369", "type": "electric_scooter", "is_reserved": 0, "lon": -77.01938566666666}, {"fusion_lat": 0.0, "name": "650fef7833841fe768b79c9a31bc92eb", "is_disabled": 0, "rental_uris": {"android": "https://dc.lft.to/lastmile_qr_scan", "ios": "https://dc.lft.to/lastmile_qr_scan"}, "fusion_lon": 0.0, "lat": 38.89228133333334, "bike_id": "650fef7833841fe768b79c9a31bc92eb", "type": "electric_scooter", "is_reserved": 0, "lon": -77.00301616666667}, {"fusion_lat": 0.0, "name": "5af77cdc3a494dab4064937562ac5207", "is_disabled": 0, "rental_uris": {"android": "https://dc.lft.to/lastmile_qr_scan", "ios": "https://dc.lft.to/lastmile_qr_scan"}, "fusion_lon": 0.0, "lat": 38.896757666666666, "bike_id": "5af77cdc3a494dab4064937562ac5207", "type": "electric_scooter", "is_reserved": 0, "lon": -77.02489616666666}, {"fusion_lat": 0.0, "name": "c999832adda5a9505045242f0bbf6f2d", "is_disabled": 0, "rental_uris": {"android": "https://dc.lft.to/lastmile_qr_scan", "ios": "https://dc.lft.to/lastmile_qr_scan"}, "fusion_lon": 0.0, "lat": 38.90023133333333, "bike_id": "c999832adda5a9505045242f0bbf6f2d", "type": "electric_scooter", "is_reserved": 0, "lon": -77.0111615}, {"fusion_lat": 0.0, "name": "a79c21f975e5c6a3080969f94883a2b3", "is_disabled": 0, "rental_uris": {"android": "https://dc.lft.to/lastmile_qr_scan", "ios": "https://dc.lft.to/lastmile_qr_scan"}, "fusion_lon": 0.0, "lat": 38.92296183333333, "bike_id": "a79c21f975e5c6a3080969f94883a2b3", "type": "electric_scooter", "is_reserved": 0, "lon": -77.04149333333334}, {"fusion_lat": 0.0, "name": "57923e2174df9b11a299674eb3812e2b", "is_disabled": 0, "rental_uris": {"android": "https://dc.lft.to/lastmile_qr_scan", "ios": "https://dc.lft.to/lastmile_qr_scan"}, "fusion_lon": 0.0, "lat": 38.909543166666666, "bike_id": "57923e2174df9b11a299674eb3812e2b", "type": "electric_scooter", "is_reserved": 0, "lon": -76.98543216666667}, {"fusion_lat": 0.0, "name": "05ec9c14bf8f96f7afb73b28da2702c5", "is_disabled": 0, "rental_uris": {"android": "https://dc.lft.to/lastmile_qr_scan", "ios": "https://dc.lft.to/lastmile_qr_scan"}, "fusion_lon": 0.0, "lat": 38.81937666666666, "bike_id": "05ec9c14bf8f96f7afb73b28da2702c5", "type": "electric_bike", "is_reserved": 0, "lon": -77.00202283333333}, {"fusion_lat": 0.0, "name": "2671a5d4d6eef1d8c127661b65c50d7a", "is_disabled": 0, "rental_uris": {"android": "https://dc.lft.to/lastmile_qr_scan", "ios": "https://dc.lft.to/lastmile_qr_scan"}, "fusion_lon": 0.0, "lat": 38.942915, "bike_id": "2671a5d4d6eef1d8c127661b65c50d7a", "type": "electric_scooter", "is_reserved": 0, "lon": -77.02173183333333}, {"fusion_lat": 0.0, "name": "75369e8c53df145bf3fcce55b1331df9", "is_disabled": 0, "rental_uris": {"android": "https://dc.lft.to/lastmile_qr_scan", "ios": "https://dc.lft.to/lastmile_qr_scan"}, "fusion_lon": 0.0, "lat": 38.915660833333334, "bike_id": "75369e8c53df145bf3fcce55b1331df9", "type": "electric_scooter", "is_reserved": 0, "lon": -77.03149666666667}, {"fusion_lat": 0.0, "name": "d9348ada78a1dcf99af7cc624c10bdd3", "is_disabled": 0, "rental_uris": {"android": "https://dc.lft.to/lastmile_qr_scan", "ios": "https://dc.lft.to/lastmile_qr_scan"}, "fusion_lon": 0.0, "lat": 38.956829, "bike_id": "d9348ada78a1dcf99af7cc624c10bdd3", "type": "electric_scooter", "is_reserved": 0, "lon": -77.0325645}, {"fusion_lat": 0.0, "name": "a07b606f4d0c43de8ff6cd0e53116515", "is_disabled": 0, "rental_uris": {"android": "https://dc.lft.to/lastmile_qr_scan", "ios": "https://dc.lft.to/lastmile_qr_scan"}, "fusion_lon": 0.0, "lat": 38.9193575, "bike_id": "a07b606f4d0c43de8ff6cd0e53116515", "type": "electric_scooter", "is_reserved": 0, "lon": -77.02523933333333}, {"fusion_lat": 0.0, "name": "a9a470b59403c38da6cac07cc8e22dc0", "is_disabled": 0, "rental_uris": {"android": "https://dc.lft.to/lastmile_qr_scan", "ios": "https://dc.lft.to/lastmile_qr_scan"}, "fusion_lon": 0.0, "lat": 38.96237683333333, "bike_id": "a9a470b59403c38da6cac07cc8e22dc0", "type": "electric_bike", "is_reserved": 0, "lon": -76.92761016666667}, {"fusion_lat": 0.0, "name": "49979bbbdfc2ef62638cb33044759e5d", "is_disabled": 0, "rental_uris": {"android": "https://dc.lft.to/lastmile_qr_scan", "ios": "https://dc.lft.to/lastmile_qr_scan"}, "fusion_lon": 0.0, "lat": 38.898657666666665, "bike_id": "49979bbbdfc2ef62638cb33044759e5d", "type": "electric_bike", "is_reserved": 0, "lon": -77.03603733333334}, {"fusion_lat": 0.0, "name": "4bb6bd12993a1dd8f1ef80c97867c9c5", "is_disabled": 0, "rental_uris": {"android": "https://dc.lft.to/lastmile_qr_scan", "ios": "https://dc.lft.to/lastmile_qr_scan"}, "fusion_lon": 0.0, "lat": 38.91029483333333, "bike_id": "4bb6bd12993a1dd8f1ef80c97867c9c5", "type": "electric_scooter", "is_reserved": 0, "lon": -77.01512216666667}, {"fusion_lat": 0.0, "name": "21e0c4d6df2c8956aa540a7355a79f14", "is_disabled": 0, "rental_uris": {"android": "https://dc.lft.to/lastmile_qr_scan", "ios": "https://dc.lft.to/lastmile_qr_scan"}, "fusion_lon": 0.0, "lat": 38.91693433333333, "bike_id": "21e0c4d6df2c8956aa540a7355a79f14", "type": "electric_scooter", "is_reserved": 0, "lon": -77.03771283333333}, {"fusion_lat": 0.0, "name": "a6f968949c1b797c25375e451b18aeb2", "is_disabled": 0, "rental_uris": {"android": "https://dc.lft.to/lastmile_qr_scan", "ios": "https://dc.lft.to/lastmile_qr_scan"}, "fusion_lon": 0.0, "lat": 38.87921033333333, "bike_id": "a6f968949c1b797c25375e451b18aeb2", "type": "electric_scooter", "is_reserved": 0, "lon": -76.9448125}, {"fusion_lat": 0.0, "name": "d7c76788f3e69b97d0064a36726a1470", "is_disabled": 0, "rental_uris": {"android": "https://dc.lft.to/lastmile_qr_scan", "ios": "https://dc.lft.to/lastmile_qr_scan"}, "fusion_lon": 0.0, "lat": 38.88903416666667, "bike_id": "d7c76788f3e69b97d0064a36726a1470", "type": "electric_scooter", "is_reserved": 0, "lon": -76.99206649999999}, {"fusion_lat": 0.0, "name": "bb2393173370655c787558023abd201c", "is_disabled": 0, "rental_uris": {"android": "https://dc.lft.to/lastmile_qr_scan", "ios": "https://dc.lft.to/lastmile_qr_scan"}, "fusion_lon": 0.0, "lat": 38.949520166666666, "bike_id": "bb2393173370655c787558023abd201c", "type": "electric_scooter", "is_reserved": 0, "lon": -77.02313683333334}, {"fusion_lat": 0.0, "name": "0e9882062f4fcbd14a019672bdaa894d", "is_disabled": 0, "rental_uris": {"android": "https://dc.lft.to/lastmile_qr_scan", "ios": "https://dc.lft.to/lastmile_qr_scan"}, "fusion_lon": 0.0, "lat": 38.919669, "bike_id": "0e9882062f4fcbd14a019672bdaa894d", "type": "electric_scooter", "is_reserved": 0, "lon": -77.02497116666666}, {"fusion_lat": 0.0, "name": "985fa2c4cb3ef36d0d8c7190835a0f8b", "is_disabled": 0, "rental_uris": {"android": "https://dc.lft.to/lastmile_qr_scan", "ios": "https://dc.lft.to/lastmile_qr_scan"}, "fusion_lon": 0.0, "lat": 38.8935295, "bike_id": "985fa2c4cb3ef36d0d8c7190835a0f8b", "type": "electric_bike", "is_reserved": 0, "lon": -77.18743566666667}, {"fusion_lat": 0.0, "name": "c8e2927db9b5951661d50c367f013bcd", "is_disabled": 0, "rental_uris": {"android": "https://dc.lft.to/lastmile_qr_scan", "ios": "https://dc.lft.to/lastmile_qr_scan"}, "fusion_lon": 0.0, "lat": 38.9056045, "bike_id": "c8e2927db9b5951661d50c367f013bcd", "type": "electric_scooter", "is_reserved": 0, "lon": -77.01181066666666}, {"fusion_lat": 0.0, "name": "7d91fe6ad8182522f9152b0eb4962856", "is_disabled": 0, "rental_uris": {"android": "https://dc.lft.to/lastmile_qr_scan", "ios": "https://dc.lft.to/lastmile_qr_scan"}, "fusion_lon": 0.0, "lat": 38.926624333333336, "bike_id": "7d91fe6ad8182522f9152b0eb4962856", "type": "electric_scooter", "is_reserved": 0, "lon": -77.053527}, {"fusion_lat": 0.0, "name": "be3316e9e5cc7cfc275ed82f7cc87909", "is_disabled": 0, "rental_uris": {"android": "https://dc.lft.to/lastmile_qr_scan", "ios": "https://dc.lft.to/lastmile_qr_scan"}, "fusion_lon": 0.0, "lat": 38.89811733333333, "bike_id": "be3316e9e5cc7cfc275ed82f7cc87909", "type": "electric_scooter", "is_reserved": 0, "lon": -77.02953516666666}, {"fusion_lat": 0.0, "name": "d893cf0c7e127f1e6977438404526b4d", "is_disabled": 0, "rental_uris": {"android": "https://dc.lft.to/lastmile_qr_scan", "ios": "https://dc.lft.to/lastmile_qr_scan"}, "fusion_lon": 0.0, "lat": 38.87903383333333, "bike_id": "d893cf0c7e127f1e6977438404526b4d", "type": "electric_scooter", "is_reserved": 0, "lon": -77.00643066666666}, {"fusion_lat": 0.0, "name": "11d50aaa3164e122b57e31e65d0e6fc8", "is_disabled": 0, "rental_uris": {"android": "https://dc.lft.to/lastmile_qr_scan", "ios": "https://dc.lft.to/lastmile_qr_scan"}, "fusion_lon": 0.0, "lat": 38.92472983333333, "bike_id": "11d50aaa3164e122b57e31e65d0e6fc8", "type": "electric_scooter", "is_reserved": 0, "lon": -77.02835233333333}, {"fusion_lat": 0.0, "name": "32a962aa1ff328e59896f14d2ccf1bec", "is_disabled": 0, "rental_uris": {"android": "https://dc.lft.to/lastmile_qr_scan", "ios": "https://dc.lft.to/lastmile_qr_scan"}, "fusion_lon": 0.0, "lat": 38.892298833333335, "bike_id": "32a962aa1ff328e59896f14d2ccf1bec", "type": "electric_scooter", "is_reserved": 0, "lon": -77.00308383333333}, {"fusion_lat": 0.0, "name": "e353f8d73337cd01b9fca40af4033306", "is_disabled": 0, "rental_uris": {"android": "https://dc.lft.to/lastmile_qr_scan", "ios": "https://dc.lft.to/lastmile_qr_scan"}, "fusion_lon": 0.0, "lat": 38.9290185, "bike_id": "e353f8d73337cd01b9fca40af4033306", "type": "electric_scooter", "is_reserved": 0, "lon": -77.0327875}, {"fusion_lat": 0.0, "name": "c4f11fa376f2e4d81bc50a6754423256", "is_disabled": 0, "rental_uris": {"android": "https://dc.lft.to/lastmile_qr_scan", "ios": "https://dc.lft.to/lastmile_qr_scan"}, "fusion_lon": 0.0, "lat": 38.91413416666666, "bike_id": "c4f11fa376f2e4d81bc50a6754423256", "type": "electric_scooter", "is_reserved": 0, "lon": -77.03178466666667}, {"fusion_lat": 0.0, "name": "846dba4ba6d39ce6a43e0706567265b4", "is_disabled": 0, "rental_uris": {"android": "https://dc.lft.to/lastmile_qr_scan", "ios": "https://dc.lft.to/lastmile_qr_scan"}, "fusion_lon": 0.0, "lat": 38.892268, "bike_id": "846dba4ba6d39ce6a43e0706567265b4", "type": "electric_scooter", "is_reserved": 0, "lon": -77.04866183333333}, {"fusion_lat": 0.0, "name": "fc0acbda411de965af033e0bbf39d853", "is_disabled": 0, "rental_uris": {"android": "https://dc.lft.to/lastmile_qr_scan", "ios": "https://dc.lft.to/lastmile_qr_scan"}, "fusion_lon": 0.0, "lat": 38.91662266666667, "bike_id": "fc0acbda411de965af033e0bbf39d853", "type": "electric_scooter", "is_reserved": 0, "lon": -77.028126}, {"fusion_lat": 0.0, "name": "41fb7410ed9f13d96788b211f21e5d84", "is_disabled": 0, "rental_uris": {"android": "https://dc.lft.to/lastmile_qr_scan", "ios": "https://dc.lft.to/lastmile_qr_scan"}, "fusion_lon": 0.0, "lat": 38.927496833333336, "bike_id": "41fb7410ed9f13d96788b211f21e5d84", "type": "electric_scooter", "is_reserved": 0, "lon": -77.02539616666667}, {"fusion_lat": 0.0, "name": "edb21b5be6fd218bc6fb81435e05ec43", "is_disabled": 0, "rental_uris": {"android": "https://dc.lft.to/lastmile_qr_scan", "ios": "https://dc.lft.to/lastmile_qr_scan"}, "fusion_lon": 0.0, "lat": 38.8788535, "bike_id": "edb21b5be6fd218bc6fb81435e05ec43", "type": "electric_scooter", "is_reserved": 0, "lon": -77.02231966666666}, {"fusion_lat": 0.0, "name": "342a2dd867a5a402aafa7a94a8e5058e", "is_disabled": 0, "rental_uris": {"android": "https://dc.lft.to/lastmile_qr_scan", "ios": "https://dc.lft.to/lastmile_qr_scan"}, "fusion_lon": 0.0, "lat": 38.89616083333333, "bike_id": "342a2dd867a5a402aafa7a94a8e5058e", "type": "electric_bike", "is_reserved": 0, "lon": -76.90738983333334}, {"fusion_lat": 0.0, "name": "32509102c096314cce017fc23b1d11cd", "is_disabled": 0, "rental_uris": {"android": "https://dc.lft.to/lastmile_qr_scan", "ios": "https://dc.lft.to/lastmile_qr_scan"}, "fusion_lon": 0.0, "lat": 38.9233625, "bike_id": "32509102c096314cce017fc23b1d11cd", "type": "electric_scooter", "is_reserved": 0, "lon": -77.05299666666667}, {"fusion_lat": 0.0, "name": "2fe6e0bb5792d6a6f3c40712bafe39f7", "is_disabled": 0, "rental_uris": {"android": "https://dc.lft.to/lastmile_qr_scan", "ios": "https://dc.lft.to/lastmile_qr_scan"}, "fusion_lon": 0.0, "lat": 38.956219, "bike_id": "2fe6e0bb5792d6a6f3c40712bafe39f7", "type": "electric_bike", "is_reserved": 0, "lon": -76.93873}, {"fusion_lat": 0.0, "name": "dfb1765c40681e4f6090e7bf390584eb", "is_disabled": 0, "rental_uris": {"android": "https://dc.lft.to/lastmile_qr_scan", "ios": "https://dc.lft.to/lastmile_qr_scan"}, "fusion_lon": 0.0, "lat": 38.92109983333334, "bike_id": "dfb1765c40681e4f6090e7bf390584eb", "type": "electric_scooter", "is_reserved": 0, "lon": -77.0470895}, {"fusion_lat": 0.0, "name": "7bdea91360740617c9247e51b47821ec", "is_disabled": 0, "rental_uris": {"android": "https://dc.lft.to/lastmile_qr_scan", "ios": "https://dc.lft.to/lastmile_qr_scan"}, "fusion_lon": 0.0, "lat": 38.912583, "bike_id": "7bdea91360740617c9247e51b47821ec", "type": "electric_scooter", "is_reserved": 0, "lon": -77.03840933333333}, {"fusion_lat": 0.0, "name": "07103385f7d97f0e1ad03deffbe94874", "is_disabled": 0, "rental_uris": {"android": "https://dc.lft.to/lastmile_qr_scan", "ios": "https://dc.lft.to/lastmile_qr_scan"}, "fusion_lon": 0.0, "lat": 38.925557166666664, "bike_id": "07103385f7d97f0e1ad03deffbe94874", "type": "electric_scooter", "is_reserved": 0, "lon": -76.98321183333333}, {"fusion_lat": 0.0, "name": "532545fc2e0d8b286d609fd74187bf5b", "is_disabled": 0, "rental_uris": {"android": "https://dc.lft.to/lastmile_qr_scan", "ios": "https://dc.lft.to/lastmile_qr_scan"}, "fusion_lon": 0.0, "lat": 38.902401166666664, "bike_id": "532545fc2e0d8b286d609fd74187bf5b", "type": "electric_scooter", "is_reserved": 0, "lon": -77.05902933333333}, {"fusion_lat": 0.0, "name": "b56ce482da991df75e77ef31f1e5b911", "is_disabled": 0, "rental_uris": {"android": "https://dc.lft.to/lastmile_qr_scan", "ios": "https://dc.lft.to/lastmile_qr_scan"}, "fusion_lon": 0.0, "lat": 38.90722, "bike_id": "b56ce482da991df75e77ef31f1e5b911", "type": "electric_scooter", "is_reserved": 0, "lon": -77.04361083333333}, {"fusion_lat": 0.0, "name": "5122550c38fbb7d58d9a1d5d4fb47cee", "is_disabled": 0, "rental_uris": {"android": "https://dc.lft.to/lastmile_qr_scan", "ios": "https://dc.lft.to/lastmile_qr_scan"}, "fusion_lon": 0.0, "lat": 38.88451233333333, "bike_id": "5122550c38fbb7d58d9a1d5d4fb47cee", "type": "electric_scooter", "is_reserved": 0, "lon": -76.99392033333334}, {"fusion_lat": 0.0, "name": "28ef1a6ee8212c8b174070e62177cebc", "is_disabled": 0, "rental_uris": {"android": "https://dc.lft.to/lastmile_qr_scan", "ios": "https://dc.lft.to/lastmile_qr_scan"}, "fusion_lon": 0.0, "lat": 38.89545783333333, "bike_id": "28ef1a6ee8212c8b174070e62177cebc", "type": "electric_scooter", "is_reserved": 0, "lon": -77.02578816666667}, {"fusion_lat": 0.0, "name": "b3139ad7660a89dc73c609e826f38cd6", "is_disabled": 0, "rental_uris": {"android": "https://dc.lft.to/lastmile_qr_scan", "ios": "https://dc.lft.to/lastmile_qr_scan"}, "fusion_lon": 0.0, "lat": 38.9169055, "bike_id": "b3139ad7660a89dc73c609e826f38cd6", "type": "electric_bike", "is_reserved": 0, "lon": -77.03129633333333}, {"fusion_lat": 0.0, "name": "61d48d8b604cf0ce2b61775823413ae2", "is_disabled": 0, "rental_uris": {"android": "https://dc.lft.to/lastmile_qr_scan", "ios": "https://dc.lft.to/lastmile_qr_scan"}, "fusion_lon": 0.0, "lat": 38.90430416666667, "bike_id": "61d48d8b604cf0ce2b61775823413ae2", "type": "electric_scooter", "is_reserved": 0, "lon": -76.99611366666667}, {"fusion_lat": 0.0, "name": "d0e6dfe2f46d1a327a6ec3b6ab2eea89", "is_disabled": 0, "rental_uris": {"android": "https://dc.lft.to/lastmile_qr_scan", "ios": "https://dc.lft.to/lastmile_qr_scan"}, "fusion_lon": 0.0, "lat": 38.806807, "bike_id": "d0e6dfe2f46d1a327a6ec3b6ab2eea89", "type": "electric_bike", "is_reserved": 0, "lon": -77.06921566666666}, {"fusion_lat": 0.0, "name": "9636b1043d052919a51841e4caaebc90", "is_disabled": 0, "rental_uris": {"android": "https://dc.lft.to/lastmile_qr_scan", "ios": "https://dc.lft.to/lastmile_qr_scan"}, "fusion_lon": 0.0, "lat": 38.90569, "bike_id": "9636b1043d052919a51841e4caaebc90", "type": "electric_scooter", "is_reserved": 0, "lon": -77.03802433333334}, {"fusion_lat": 0.0, "name": "dceb6d62f8a46856c3c4eb94c095760d", "is_disabled": 0, "rental_uris": {"android": "https://dc.lft.to/lastmile_qr_scan", "ios": "https://dc.lft.to/lastmile_qr_scan"}, "fusion_lon": 0.0, "lat": 38.85797783333334, "bike_id": "dceb6d62f8a46856c3c4eb94c095760d", "type": "electric_bike", "is_reserved": 0, "lon": -77.12015983333333}, {"fusion_lat": 0.0, "name": "0306c267eb904c3abaf6c2a1350ea65c", "is_disabled": 0, "rental_uris": {"android": "https://dc.lft.to/lastmile_qr_scan", "ios": "https://dc.lft.to/lastmile_qr_scan"}, "fusion_lon": 0.0, "lat": 38.93552616666667, "bike_id": "0306c267eb904c3abaf6c2a1350ea65c", "type": "electric_scooter", "is_reserved": 0, "lon": -77.03491733333334}, {"fusion_lat": 0.0, "name": "b41b3fd632ac5646d2d933f8869ef9e8", "is_disabled": 0, "rental_uris": {"android": "https://dc.lft.to/lastmile_qr_scan", "ios": "https://dc.lft.to/lastmile_qr_scan"}, "fusion_lon": 0.0, "lat": 38.93049883333333, "bike_id": "b41b3fd632ac5646d2d933f8869ef9e8", "type": "electric_scooter", "is_reserved": 0, "lon": -77.03611983333333}, {"fusion_lat": 0.0, "name": "f166b126e9c01d37024d1375878fa340", "is_disabled": 0, "rental_uris": {"android": "https://dc.lft.to/lastmile_qr_scan", "ios": "https://dc.lft.to/lastmile_qr_scan"}, "fusion_lon": 0.0, "lat": 38.881557666666666, "bike_id": "f166b126e9c01d37024d1375878fa340", "type": "electric_scooter", "is_reserved": 0, "lon": -77.02754966666667}, {"fusion_lat": 0.0, "name": "864d30c8bdbb9e8e8ed3690d6d4cc937", "is_disabled": 0, "rental_uris": {"android": "https://dc.lft.to/lastmile_qr_scan", "ios": "https://dc.lft.to/lastmile_qr_scan"}, "fusion_lon": 0.0, "lat": 38.862569, "bike_id": "864d30c8bdbb9e8e8ed3690d6d4cc937", "type": "electric_bike", "is_reserved": 0, "lon": -76.98351916666667}, {"fusion_lat": 0.0, "name": "c833a77c150e96594414560d4efd2f7d", "is_disabled": 0, "rental_uris": {"android": "https://dc.lft.to/lastmile_qr_scan", "ios": "https://dc.lft.to/lastmile_qr_scan"}, "fusion_lon": 0.0, "lat": 38.931434, "bike_id": "c833a77c150e96594414560d4efd2f7d", "type": "electric_scooter", "is_reserved": 0, "lon": -77.03834233333333}, {"fusion_lat": 0.0, "name": "e60eb43f16a4e0007af4f82466122643", "is_disabled": 0, "rental_uris": {"android": "https://dc.lft.to/lastmile_qr_scan", "ios": "https://dc.lft.to/lastmile_qr_scan"}, "fusion_lon": 0.0, "lat": 38.871779, "bike_id": "e60eb43f16a4e0007af4f82466122643", "type": "electric_scooter", "is_reserved": 0, "lon": -77.00616383333333}, {"fusion_lat": 0.0, "name": "3ec73f0c2dd7ccf4686fe59d9e22205a", "is_disabled": 0, "rental_uris": {"android": "https://dc.lft.to/lastmile_qr_scan", "ios": "https://dc.lft.to/lastmile_qr_scan"}, "fusion_lon": 0.0, "lat": 38.90563083333333, "bike_id": "3ec73f0c2dd7ccf4686fe59d9e22205a", "type": "electric_scooter", "is_reserved": 0, "lon": -77.01310783333334}, {"fusion_lat": 0.0, "name": "24dcbc1d6ddf4a10cc61aa334a00e050", "is_disabled": 0, "rental_uris": {"android": "https://dc.lft.to/lastmile_qr_scan", "ios": "https://dc.lft.to/lastmile_qr_scan"}, "fusion_lon": 0.0, "lat": 38.942087, "bike_id": "24dcbc1d6ddf4a10cc61aa334a00e050", "type": "electric_bike", "is_reserved": 0, "lon": -77.01826683333333}, {"fusion_lat": 0.0, "name": "fdc45403c235e0f7473d677d8ca21d76", "is_disabled": 0, "rental_uris": {"android": "https://dc.lft.to/lastmile_qr_scan", "ios": "https://dc.lft.to/lastmile_qr_scan"}, "fusion_lon": 0.0, "lat": 38.910335, "bike_id": "fdc45403c235e0f7473d677d8ca21d76", "type": "electric_scooter", "is_reserved": 0, "lon": -77.007581}, {"fusion_lat": 0.0, "name": "b328eace08adb6e351a3339d0f52f076", "is_disabled": 0, "rental_uris": {"android": "https://dc.lft.to/lastmile_qr_scan", "ios": "https://dc.lft.to/lastmile_qr_scan"}, "fusion_lon": 0.0, "lat": 38.911251, "bike_id": "b328eace08adb6e351a3339d0f52f076", "type": "electric_scooter", "is_reserved": 0, "lon": -77.02200383333333}, {"fusion_lat": 0.0, "name": "2a6bf4962410f2683c672195d961bfaf", "is_disabled": 0, "rental_uris": {"android": "https://dc.lft.to/lastmile_qr_scan", "ios": "https://dc.lft.to/lastmile_qr_scan"}, "fusion_lon": 0.0, "lat": 38.93067833333333, "bike_id": "2a6bf4962410f2683c672195d961bfaf", "type": "electric_scooter", "is_reserved": 0, "lon": -77.0297405}, {"fusion_lat": 0.0, "name": "578b38ddd2192ad8c49fdace3ade96e4", "is_disabled": 0, "rental_uris": {"android": "https://dc.lft.to/lastmile_qr_scan", "ios": "https://dc.lft.to/lastmile_qr_scan"}, "fusion_lon": 0.0, "lat": 38.932484, "bike_id": "578b38ddd2192ad8c49fdace3ade96e4", "type": "electric_scooter", "is_reserved": 0, "lon": -77.02846616666666}, {"fusion_lat": 0.0, "name": "ddc2d5066ceaed4b658f145eeb5a7d9a", "is_disabled": 0, "rental_uris": {"android": "https://dc.lft.to/lastmile_qr_scan", "ios": "https://dc.lft.to/lastmile_qr_scan"}, "fusion_lon": 0.0, "lat": 38.89235566666667, "bike_id": "ddc2d5066ceaed4b658f145eeb5a7d9a", "type": "electric_scooter", "is_reserved": 0, "lon": -77.01716083333334}, {"fusion_lat": 0.0, "name": "d03e4e4c7467b80d137fba26ae80ed18", "is_disabled": 0, "rental_uris": {"android": "https://dc.lft.to/lastmile_qr_scan", "ios": "https://dc.lft.to/lastmile_qr_scan"}, "fusion_lon": 0.0, "lat": 38.88614783333333, "bike_id": "d03e4e4c7467b80d137fba26ae80ed18", "type": "electric_scooter", "is_reserved": 0, "lon": -77.01558716666666}, {"fusion_lat": 0.0, "name": "3ff21258fdc469e7465f3bff84ebd522", "is_disabled": 0, "rental_uris": {"android": "https://dc.lft.to/lastmile_qr_scan", "ios": "https://dc.lft.to/lastmile_qr_scan"}, "fusion_lon": 0.0, "lat": 38.88737233333333, "bike_id": "3ff21258fdc469e7465f3bff84ebd522", "type": "electric_scooter", "is_reserved": 0, "lon": -76.99491216666667}, {"fusion_lat": 0.0, "name": "2fcfe70c3846625ef5c4b9339a9eb94e", "is_disabled": 0, "rental_uris": {"android": "https://dc.lft.to/lastmile_qr_scan", "ios": "https://dc.lft.to/lastmile_qr_scan"}, "fusion_lon": 0.0, "lat": 38.854716, "bike_id": "2fcfe70c3846625ef5c4b9339a9eb94e", "type": "electric_scooter", "is_reserved": 0, "lon": -76.97235116666667}, {"fusion_lat": 0.0, "name": "6fe0cd5cda6d7e9ae155e44eff6c07fa", "is_disabled": 0, "rental_uris": {"android": "https://dc.lft.to/lastmile_qr_scan", "ios": "https://dc.lft.to/lastmile_qr_scan"}, "fusion_lon": 0.0, "lat": 38.9285275, "bike_id": "6fe0cd5cda6d7e9ae155e44eff6c07fa", "type": "electric_scooter", "is_reserved": 0, "lon": -77.02440516666667}, {"fusion_lat": 0.0, "name": "bed244898cbfc63d40f2d621745cb67a", "is_disabled": 0, "rental_uris": {"android": "https://dc.lft.to/lastmile_qr_scan", "ios": "https://dc.lft.to/lastmile_qr_scan"}, "fusion_lon": 0.0, "lat": 38.88138983333333, "bike_id": "bed244898cbfc63d40f2d621745cb67a", "type": "electric_scooter", "is_reserved": 0, "lon": -77.027208}, {"fusion_lat": 0.0, "name": "57b4d1e9b9df88d7e8ef3640410bc4ce", "is_disabled": 0, "rental_uris": {"android": "https://dc.lft.to/lastmile_qr_scan", "ios": "https://dc.lft.to/lastmile_qr_scan"}, "fusion_lon": 0.0, "lat": 38.9213425, "bike_id": "57b4d1e9b9df88d7e8ef3640410bc4ce", "type": "electric_scooter", "is_reserved": 0, "lon": -77.009592}, {"fusion_lat": 0.0, "name": "363474ac6b0d5bf25e7495eaca750eab", "is_disabled": 0, "rental_uris": {"android": "https://dc.lft.to/lastmile_qr_scan", "ios": "https://dc.lft.to/lastmile_qr_scan"}, "fusion_lon": 0.0, "lat": 38.91692233333333, "bike_id": "363474ac6b0d5bf25e7495eaca750eab", "type": "electric_scooter", "is_reserved": 0, "lon": -77.03212466666666}, {"fusion_lat": 0.0, "name": "7ff6aa4cc2bd65dedc66d5dfad7c0c5c", "is_disabled": 0, "rental_uris": {"android": "https://dc.lft.to/lastmile_qr_scan", "ios": "https://dc.lft.to/lastmile_qr_scan"}, "fusion_lon": 0.0, "lat": 38.887696166666665, "bike_id": "7ff6aa4cc2bd65dedc66d5dfad7c0c5c", "type": "electric_scooter", "is_reserved": 0, "lon": -76.97749333333333}, {"fusion_lat": 0.0, "name": "8ac0cf3735f833e9bac796dc19991684", "is_disabled": 0, "rental_uris": {"android": "https://dc.lft.to/lastmile_qr_scan", "ios": "https://dc.lft.to/lastmile_qr_scan"}, "fusion_lon": 0.0, "lat": 38.910179666666664, "bike_id": "8ac0cf3735f833e9bac796dc19991684", "type": "electric_scooter", "is_reserved": 0, "lon": -77.038536}, {"fusion_lat": 0.0, "name": "daa2ae7bd9323f6da6791ac51e191330", "is_disabled": 0, "rental_uris": {"android": "https://dc.lft.to/lastmile_qr_scan", "ios": "https://dc.lft.to/lastmile_qr_scan"}, "fusion_lon": 0.0, "lat": 38.91819066666667, "bike_id": "daa2ae7bd9323f6da6791ac51e191330", "type": "electric_scooter", "is_reserved": 0, "lon": -77.02525216666666}, {"fusion_lat": 0.0, "name": "67b5f428c098eb7edd4d02d27b937973", "is_disabled": 0, "rental_uris": {"android": "https://dc.lft.to/lastmile_qr_scan", "ios": "https://dc.lft.to/lastmile_qr_scan"}, "fusion_lon": 0.0, "lat": 38.87376116666667, "bike_id": "67b5f428c098eb7edd4d02d27b937973", "type": "electric_scooter", "is_reserved": 0, "lon": -77.00088816666667}, {"fusion_lat": 0.0, "name": "3d93f80f35cc0a53814a2e42e972b72b", "is_disabled": 0, "rental_uris": {"android": "https://dc.lft.to/lastmile_qr_scan", "ios": "https://dc.lft.to/lastmile_qr_scan"}, "fusion_lon": 0.0, "lat": 38.909778333333335, "bike_id": "3d93f80f35cc0a53814a2e42e972b72b", "type": "electric_scooter", "is_reserved": 0, "lon": -77.00882333333334}, {"fusion_lat": 0.0, "name": "be09ac770b705def7da8b1174e40e9b3", "is_disabled": 0, "rental_uris": {"android": "https://dc.lft.to/lastmile_qr_scan", "ios": "https://dc.lft.to/lastmile_qr_scan"}, "fusion_lon": 0.0, "lat": 38.9039565, "bike_id": "be09ac770b705def7da8b1174e40e9b3", "type": "electric_scooter", "is_reserved": 0, "lon": -77.04890466666667}, {"fusion_lat": 0.0, "name": "7be5bd906a070b9bf3daf548fb97aa4c", "is_disabled": 0, "rental_uris": {"android": "https://dc.lft.to/lastmile_qr_scan", "ios": "https://dc.lft.to/lastmile_qr_scan"}, "fusion_lon": 0.0, "lat": 38.96188866666667, "bike_id": "7be5bd906a070b9bf3daf548fb97aa4c", "type": "electric_bike", "is_reserved": 0, "lon": -77.05270583333333}, {"fusion_lat": 0.0, "name": "f064e818f0c0331bdb84472d8c88bc54", "is_disabled": 0, "rental_uris": {"android": "https://dc.lft.to/lastmile_qr_scan", "ios": "https://dc.lft.to/lastmile_qr_scan"}, "fusion_lon": 0.0, "lat": 38.89616083333333, "bike_id": "f064e818f0c0331bdb84472d8c88bc54", "type": "electric_bike", "is_reserved": 0, "lon": -76.90744866666667}, {"fusion_lat": 0.0, "name": "69ce98cf0a38ce7298d68e0266b72727", "is_disabled": 0, "rental_uris": {"android": "https://dc.lft.to/lastmile_qr_scan", "ios": "https://dc.lft.to/lastmile_qr_scan"}, "fusion_lon": 0.0, "lat": 38.926764166666665, "bike_id": "69ce98cf0a38ce7298d68e0266b72727", "type": "electric_scooter", "is_reserved": 0, "lon": -77.03638933333333}, {"fusion_lat": 0.0, "name": "ee2ed6fc6d4368833075c99d289d7f79", "is_disabled": 0, "rental_uris": {"android": "https://dc.lft.to/lastmile_qr_scan", "ios": "https://dc.lft.to/lastmile_qr_scan"}, "fusion_lon": 0.0, "lat": 38.928409, "bike_id": "ee2ed6fc6d4368833075c99d289d7f79", "type": "electric_scooter", "is_reserved": 0, "lon": -77.01406783333333}, {"fusion_lat": 0.0, "name": "1f385035f84e155ee4a1188251a0010b", "is_disabled": 0, "rental_uris": {"android": "https://dc.lft.to/lastmile_qr_scan", "ios": "https://dc.lft.to/lastmile_qr_scan"}, "fusion_lon": 0.0, "lat": 38.946132666666664, "bike_id": "1f385035f84e155ee4a1188251a0010b", "type": "electric_scooter", "is_reserved": 0, "lon": -77.080129}, {"fusion_lat": 0.0, "name": "5648a7a352d96e325049a8aea6f71353", "is_disabled": 0, "rental_uris": {"android": "https://dc.lft.to/lastmile_qr_scan", "ios": "https://dc.lft.to/lastmile_qr_scan"}, "fusion_lon": 0.0, "lat": 38.922365166666665, "bike_id": "5648a7a352d96e325049a8aea6f71353", "type": "electric_scooter", "is_reserved": 0, "lon": -77.01842466666666}, {"fusion_lat": 0.0, "name": "f8e7ba4c1fc7f07a9346f22fe3c83aad", "is_disabled": 0, "rental_uris": {"android": "https://dc.lft.to/lastmile_qr_scan", "ios": "https://dc.lft.to/lastmile_qr_scan"}, "fusion_lon": 0.0, "lat": 38.91810566666667, "bike_id": "f8e7ba4c1fc7f07a9346f22fe3c83aad", "type": "electric_scooter", "is_reserved": 0, "lon": -77.03209633333333}, {"fusion_lat": 0.0, "name": "8190757df83252e2f45b4448eab9196b", "is_disabled": 0, "rental_uris": {"android": "https://dc.lft.to/lastmile_qr_scan", "ios": "https://dc.lft.to/lastmile_qr_scan"}, "fusion_lon": 0.0, "lat": 38.948329666666666, "bike_id": "8190757df83252e2f45b4448eab9196b", "type": "electric_scooter", "is_reserved": 0, "lon": -77.08001716666666}, {"fusion_lat": 0.0, "name": "149ca2794209e78dbe5b9e4024beb135", "is_disabled": 0, "rental_uris": {"android": "https://dc.lft.to/lastmile_qr_scan", "ios": "https://dc.lft.to/lastmile_qr_scan"}, "fusion_lon": 0.0, "lat": 38.874942, "bike_id": "149ca2794209e78dbe5b9e4024beb135", "type": "electric_bike", "is_reserved": 0, "lon": -77.211257}, {"fusion_lat": 0.0, "name": "0923ec68b366c664088196df9132e6be", "is_disabled": 0, "rental_uris": {"android": "https://dc.lft.to/lastmile_qr_scan", "ios": "https://dc.lft.to/lastmile_qr_scan"}, "fusion_lon": 0.0, "lat": 38.90149983333333, "bike_id": "0923ec68b366c664088196df9132e6be", "type": "electric_scooter", "is_reserved": 0, "lon": -77.0229575}, {"fusion_lat": 0.0, "name": "b24dc9fef2c4ca2fde29cbb4f6aa69e5", "is_disabled": 0, "rental_uris": {"android": "https://dc.lft.to/lastmile_qr_scan", "ios": "https://dc.lft.to/lastmile_qr_scan"}, "fusion_lon": 0.0, "lat": 38.87885683333333, "bike_id": "b24dc9fef2c4ca2fde29cbb4f6aa69e5", "type": "electric_scooter", "is_reserved": 0, "lon": -76.99520633333333}, {"fusion_lat": 0.0, "name": "0e05a325bbe2a221111d2ed772f273b7", "is_disabled": 0, "rental_uris": {"android": "https://dc.lft.to/lastmile_qr_scan", "ios": "https://dc.lft.to/lastmile_qr_scan"}, "fusion_lon": 0.0, "lat": 38.84356616666667, "bike_id": "0e05a325bbe2a221111d2ed772f273b7", "type": "electric_bike", "is_reserved": 0, "lon": -76.978186}, {"fusion_lat": 0.0, "name": "f6eafeb950fc92f9d259111ec112bc7e", "is_disabled": 0, "rental_uris": {"android": "https://dc.lft.to/lastmile_qr_scan", "ios": "https://dc.lft.to/lastmile_qr_scan"}, "fusion_lon": 0.0, "lat": 38.958796666666665, "bike_id": "f6eafeb950fc92f9d259111ec112bc7e", "type": "electric_bike", "is_reserved": 0, "lon": -76.92492333333334}, {"fusion_lat": 0.0, "name": "5654be9bea1f0b3712f0142a64a94443", "is_disabled": 0, "rental_uris": {"android": "https://dc.lft.to/lastmile_qr_scan", "ios": "https://dc.lft.to/lastmile_qr_scan"}, "fusion_lon": 0.0, "lat": 38.919726, "bike_id": "5654be9bea1f0b3712f0142a64a94443", "type": "electric_scooter", "is_reserved": 0, "lon": -77.0181245}, {"fusion_lat": 0.0, "name": "e100a0f3e2c8ac8dd71f8c7c46927fa4", "is_disabled": 0, "rental_uris": {"android": "https://dc.lft.to/lastmile_qr_scan", "ios": "https://dc.lft.to/lastmile_qr_scan"}, "fusion_lon": 0.0, "lat": 38.926595666666664, "bike_id": "e100a0f3e2c8ac8dd71f8c7c46927fa4", "type": "electric_scooter", "is_reserved": 0, "lon": -77.05358483333333}, {"fusion_lat": 0.0, "name": "c146d8695fdcb7f4bdcfdf9328dfb0e0", "is_disabled": 0, "rental_uris": {"android": "https://dc.lft.to/lastmile_qr_scan", "ios": "https://dc.lft.to/lastmile_qr_scan"}, "fusion_lon": 0.0, "lat": 38.896676, "bike_id": "c146d8695fdcb7f4bdcfdf9328dfb0e0", "type": "electric_scooter", "is_reserved": 0, "lon": -76.93210016666667}, {"fusion_lat": 0.0, "name": "615bef41db52272a0e6cfac6e890892e", "is_disabled": 0, "rental_uris": {"android": "https://dc.lft.to/lastmile_qr_scan", "ios": "https://dc.lft.to/lastmile_qr_scan"}, "fusion_lon": 0.0, "lat": 38.902320833333334, "bike_id": "615bef41db52272a0e6cfac6e890892e", "type": "electric_scooter", "is_reserved": 0, "lon": -77.0607865}, {"fusion_lat": 0.0, "name": "9cf0f8440b614572af4efa271025a73b", "is_disabled": 0, "rental_uris": {"android": "https://dc.lft.to/lastmile_qr_scan", "ios": "https://dc.lft.to/lastmile_qr_scan"}, "fusion_lon": 0.0, "lat": 38.871767166666665, "bike_id": "9cf0f8440b614572af4efa271025a73b", "type": "electric_scooter", "is_reserved": 0, "lon": -77.00616883333333},