{"data": {"bikes": [{"fusion_lat": 0.0, "name": "919cff3e6c731e791b78245a591b0243", "is_disabled": 0, "rental_uris": {"android": "https://dc.lft.to/lastmile_qr_scan", "ios": "https://dc.lft.to/lastmile_qr_scan"}, "fusion_lon": 0.0, "lat": 38.892228, "bike_id": "919cff3e6c731e791b78245a591b0243", "type": "electric_scooter", "is_reserved": 0, "lon": -77.04323683333334}, {"fusion_lat": 0.0, "name": "2441774f8412b1f39366d0b68a4d9e3b", "is_disabled": 0, "rental_uris": {"android": "https://dc.lft.to/lastmile_qr_scan", "ios": "https://dc.lft.to/lastmile_qr_scan"}, "fusion_lon": 0.0, "lat": 38.904749833333334, "bike_id": "2441774f8412b1f39366d0b68a4d9e3b", "type": "electric_scooter", "is_reserved": 0, "lon": -76.95198416666666}, {"fusion_lat": 0.0, "name": "0fcdbca8eae99817f232ad4c5d0765e4", "is_disabled": 0, "rental_uris": {"android": "https://dc.lft.to/lastmile_qr_scan", "ios": "https://dc.lft.to/lastmile_qr_scan"}, "fusion_lon": 0.0, "lat": 38.92208466666666, "bike_id": "0fcdbca8eae99817f232ad4c5d0765e4", "type": "electric_bike", "is_reserved": 0, "lon": -77.08184083333333}, {"fusion_lat": 0.0, "name": "4b9d5dcf611d495716642991b4c97e96", "is_disabled": 0, "rental_uris": {"android": "https://dc.lft.to/lastmile_qr_scan", "ios": "https://dc.lft.to/lastmile_qr_scan"}, "fusion_lon": 0.0, "lat": 38.91707366666667, "bike_id": "4b9d5dcf611d495716642991b4c97e96", "type": "electric_scooter", "is_reserved": 0, "lon": -77.04144866666667}, {"fusion_lat": 0.0, "name": "8e860d835c4b3028053f6846054d8e5e", "is_disabled": 0, "rental_uris": {"android": "https://dc.lft.to/lastmile_qr_scan", "ios": "https://dc.lft.to/lastmile_qr_scan"}, "fusion_lon": 0.0, "lat": 38.942724, "bike_id": "8e860d835c4b3028053f6846054d8e5e", "type": "electric_scooter", "is_reserved": 0, "lon": -77.03251216666666}, {"fusion_lat": 0.0, "name": "4cf043b0ca2ba68f145750b957f1b10d", "is_disabled": 0, "rental_uris": {"android": "https://dc.lft.to/lastmile_qr_scan", "ios": "https://dc.lft.to/lastmile_qr_scan"}, "fusion_lon": 0.0, "lat": 38.93482, "bike_id": "4cf043b0ca2ba68f145750b957f1b10d", "type": "electric_scooter", "is_reserved": 0, "lon": -77.07266716666666}, {"fusion_lat": 0.0, "name": "1bc4320bf5b600c2f47c7ed917738bec", "is_disabled": 0, "rental_uris": {"android": "https://dc.lft.to/lastmile_qr_scan", "ios": "https://dc.lft.to/lastmile_qr_scan"}, "fusion_lon": 0.0, "lat": 38.905883833333334, "bike_id": "1bc4320bf5b600c2f47c7ed917738bec", "type": "electric_scooter", "is_reserved": 0, "lon": -77.01611016666666}, {"fusion_lat": 0.0, "name": "ec2dee32762253c6106e4d13667ff30b", "is_disabled": 0, "rental_uris": {"android": "https://dc.lft.to/lastmile_qr_scan", "ios": "https://dc.lft.to/lastmile_qr_scan"}, "fusion_lon": 0.0, "lat": 38.90451383333333, "bike_id": "ec2dee32762253c6106e4d13667ff30b", "type": "electric_bike", "is_reserved": 0, "lon": -77.04348966666667}, {"fusion_lat": 0.0, "name": "f680d2790f3bdb74ffc0e364e5bba968", "is_disabled": 0, "rental_uris": {"android": "https://dc.lft.to/lastmile_qr_scan", "ios": "https://dc.lft.to/lastmile_qr_scan"}, "fusion_lon": 0.0, "lat": 38.90126466666667, "bike_id": "f680d2790f3bdb74ffc0e364e5bba968", "type": "electric_scooter", "is_reserved": 0, "lon": -77.01816433333333}, {"fusion_lat": 0.0, "name": "319189bb7c828774904dd1660b732458", "is_disabled": 0, "rental_uris": {"android": "https://dc.lft.to/lastmile_qr_scan", "ios": "https://dc.lft.to/lastmile_qr_scan"}, "fusion_lon": 0.0, "lat": 38.923516166666666, "bike_id": "319189bb7c828774904dd1660b732458", "type": "electric_scooter", "is_reserved": 0, "lon": -77.03907566666666}, {"fusion_lat": 0.0, "name": "436e8b6fe80fc46fc33031ee2586c3af", "is_disabled": 0, "rental_uris": {"android": "https://dc.lft.to/lastmile_qr_scan", "ios": "https://dc.lft.to/lastmile_qr_scan"}, "fusion_lon": 0.0, "lat": 38.917435166666664, "bike_id": "436e8b6fe80fc46fc33031ee2586c3af", "type": "electric_scooter", "is_reserved": 0, "lon": -77.03184816666666}, {"fusion_lat": 0.0, "name": "010a04a31b143ca97e2beb275dbc69bf", "is_disabled": 0, "rental_uris": {"android": "https://dc.lft.to/lastmile_qr_scan", "ios": "https://dc.lft.to/lastmile_qr_scan"}, "fusion_lon": 0.0, "lat": 38.89218783333333, "bike_id": "010a04a31b143ca97e2beb275dbc69bf", "type": "electric_scooter", "is_reserved": 0, "lon": -77.02369466666667}, {"fusion_lat": 0.0, "name": "a9b4ac4186a762644e9cbd3a187fe956", "is_disabled": 0, "rental_uris": {"android": "https://dc.lft.to/lastmile_qr_scan", "ios": "https://dc.lft.to/lastmile_qr_scan"}, "fusion_lon": 0.0, "lat": 38.87855833333333, "bike_id": "a9b4ac4186a762644e9cbd3a187fe956", "type": "electric_scooter", "is_reserved": 0, "lon": -77.00559983333333}, {"fusion_lat": 0.0, "name": "fa5c496a00df0a3677bc3e7be81a9246", "is_disabled": 0, "rental_uris": {"android": "https://dc.lft.to/lastmile_qr_scan", "ios": "https://dc.lft.to/lastmile_qr_scan"}, "fusion_lon": 0.0, "lat": 38.90244583333333, "bike_id": "fa5c496a00df0a3677bc3e7be81a9246", "type": "electric_scooter", "is_reserved": 0, "lon": -77.01093433333334}, {"fusion_lat": 0.0, "name": "a5d12a8b071ce00a894da4c127499652", "is_disabled": 0, "rental_uris": {"android": "https://dc.lft.to/lastmile_qr_scan", "ios": "https://dc.lft.to/lastmile_qr_scan"}, "fusion_lon": 0.0, "lat": 38.92472083333333, "bike_id": "a5d12a8b071ce00a894da4c127499652", "type": "electric_scooter", "is_reserved": 0, "lon": -77.03533183333333}, {"fusion_lat": 0.0, "name": "30b662a5bc4b8d322a8b4fd0437909e8", "is_disabled": 0, "rental_uris": {"android": "https://dc.lft.to/lastmile_qr_scan", "ios": "https://dc.lft.to/lastmile_qr_scan"}, "fusion_lon": 0.0, "lat": 38.918625166666665, "bike_id": "30b662a5bc4b8d322a8b4fd0437909e8", "type": "electric_scooter", "is_reserved": 0, "lon": -77.04589366666667}, {"fusion_lat": 0.0, "name": "f01562712d276850f0127e03401727f9", "is_disabled": 0, "rental_uris": {"android": "https://dc.lft.to/lastmile_qr_scan", "ios": "https://dc.lft.to/lastmile_qr_scan"}, "fusion_lon": 0.0, "lat": 38.909678666666665, "bike_id": "f01562712d276850f0127e03401727f9", "type": "electric_scooter", "is_reserved": 0, "lon": -77.03865266666666}, {"fusion_lat": 0.0, "name": "2627aae5ab69ad63377223e1582270e4", "is_disabled": 0, "rental_uris": {"android": "https://dc.lft.to/lastmile_qr_scan", "ios": "https://dc.lft.to/lastmile_qr_scan"}, "fusion_lon": 0.0, "lat": 38.900602, "bike_id": "2627aae5ab69ad63377223e1582270e4", "type": "electric_scooter", "is_reserved": 0, "lon": -77.01622266666666}, {"fusion_lat": 0.0, "name": "a772758615e6d6709505f8aceaa91704", "is_disabled": 0, "rental_uris": {"android": "https://dc.lft.to/lastmile_qr_scan", "ios": "https://dc.lft.to/lastmile_qr_scan"}, "fusion_lon": 0.0, "lat": 38.905746666666666, "bike_id": "a772758615e6d6709505f8aceaa91704", "type": "electric_scooter", "is_reserved": 0, "lon": -77.0220065}, {"fusion_lat": 0.0, "name": "938b6a43f894de9238e748ed1c37b131", "is_disabled": 0, "rental_uris": {"android": "https://dc.lft.to/lastmile_qr_scan", "ios": "https://dc.lft.to/lastmile_qr_scan"}, "fusion_lon": 0.0, "lat": 38.91102433333333, "bike_id": "938b6a43f894de9238e748ed1c37b131", "type": "electric_scooter", "is_reserved": 0, "lon": -77.02195533333334}, {"fusion_lat": 0.0, "name": "1acc0c5a253834a7b4d92b2b57ca1d39", "is_disabled": 0, "rental_uris": {"android": "https://dc.lft.to/lastmile_qr_scan", "ios": "https://dc.lft.to/lastmile_qr_scan"}, "fusion_lon": 0.0, "lat": 38.91227966666667, "bike_id": "1acc0c5a253834a7b4d92b2b57ca1d39", "type": "electric_scooter", "is_reserved": 0, "lon": -77.032079}, {"fusion_lat": 0.0, "name": "307f6f93b2626c825d2d2915f9c57480", "is_disabled": 0, "rental_uris": {"android": "https://dc.lft.to/lastmile_qr_scan", "ios": "https://dc.lft.to/lastmile_qr_scan"}, "fusion_lon": 0.0, "lat": 38.90284183333333, "bike_id": "307f6f93b2626c825d2d2915f9c57480", "type": "electric_scooter", "is_reserved": 0, "lon": -77.03647316666667}, {"fusion_lat": 0.0, "name": "aa2ca6e27cb4992669b7da9f83624c1e", "is_disabled": 0, "rental_uris": {"android": "https://dc.lft.to/lastmile_qr_scan", "ios": "https://dc.lft.to/lastmile_qr_scan"}, "fusion_lon": 0.0, "lat": 38.93626066666667, "bike_id": "aa2ca6e27cb4992669b7da9f83624c1e", "type": "electric_scooter", "is_reserved": 0, "lon": -77.036567}, {"fusion_lat": 0.0, "name": "9ae76705d26e6f2e78655757cdc3b493", "is_disabled": 0, "rental_uris": {"android": "https://dc.lft.to/lastmile_qr_scan", "ios": "https://dc.lft.to/lastmile_qr_scan"}, "fusion_lon": 0.0, "lat": 38.915488333333336, "bike_id": "9ae76705d26e6f2e78655757cdc3b493", "type": "electric_scooter", "is_reserved": 0, "lon": -77.02085816666667}, {"fusion_lat": 0.0, "name": "878441674aca4eba32fad2dba6c81331", "is_disabled": 0, "rental_uris": {"android": "https://dc.lft.to/lastmile_qr_scan", "ios": "https://dc.lft.to/lastmile_qr_scan"}, "fusion_lon": 0.0, "lat": 38.86139383333333, "bike_id": "878441674aca4eba32fad2dba6c81331", "type": "electric_bike", "is_reserved": 0, "lon": -76.9716915}, {"fusion_lat": 0.0, "name": "d45b950a8bb53f813c94849f3cd78793", "is_disabled": 0, "rental_uris": {"android": "https://dc.lft.to/lastmile_qr_scan", "ios": "https://dc.lft.to/lastmile_qr_scan"}, "fusion_lon": 0.0, "lat": 38.8930835, "bike_id": "d45b950a8bb53f813c94849f3cd78793", "type": "electric_scooter", "is_reserved": 0, "lon": -77.05587616666666}, {"fusion_lat": 0.0, "name": "b3a0b5a77ced8e59215a3a9eb649e3a1", "is_disabled": 0, "rental_uris": {"android": "https://dc.lft.to/lastmile_qr_scan", "ios": "https://dc.lft.to/lastmile_qr_scan"}, "fusion_lon": 0.0, "lat": 38.8836205, "bike_id": "b3a0b5a77ced8e59215a3a9eb649e3a1", "type": "electric_scooter", "is_reserved": 0, "lon": -76.941577}, {"fusion_lat": 0.0, "name": "9581fca088ff2e060fd74ba7ff1ee92c", "is_disabled": 0, "rental_uris": {"android": "https://dc.lft.to/lastmile_qr_scan", "ios": "https://dc.lft.to/lastmile_qr_scan"}, "fusion_lon": 0.0, "lat": 38.923418166666664, "bike_id": "9581fca088ff2e060fd74ba7ff1ee92c", "type": "electric_scooter", "is_reserved": 0, "lon": -77.0522585}, {"fusion_lat": 0.0, "name": "1240fb102e8b10ccd29857d7fc1aad1b", "is_disabled": 0, "rental_uris": {"android": "https://dc.lft.to/lastmile_qr_scan", "ios": "https://dc.lft.to/lastmile_qr_scan"}, "fusion_lon": 0.0, "lat": 38.9025805, "bike_id": "1240fb102e8b10ccd29857d7fc1aad1b", "type": "electric_scooter", "is_reserved": 0, "lon": -77.03962716666666}, {"fusion_lat": 0.0, "name": "8fe7a8a4e2cc424828bd6d3e66f5d2bd", "is_disabled": 0, "rental_uris": {"android": "https://dc.lft.to/lastmile_qr_scan", "ios": "https://dc.lft.to/lastmile_qr_scan"}, "fusion_lon": 0.0, "lat": 38.931902666666666, "bike_id": "8fe7a8a4e2cc424828bd6d3e66f5d2bd", "type": "electric_scooter", "is_reserved": 0, "lon": -77.03260016666667}, {"fusion_lat": 0.0, "name": "82110cc68bd5fc842070ec761245ef85", "is_disabled": 0, "rental_uris": {"android": "https://dc.lft.to/lastmile_qr_scan", "ios": "https://dc.lft.to/lastmile_qr_scan"}, "fusion_lon": 0.0, "lat": 38.843590166666665, "bike_id": "82110cc68bd5fc842070ec761245ef85", "type": "electric_bike", "is_reserved": 0, "lon": -76.9782145}, {"fusion_lat": 0.0, "name": "8e1064b1d8ba0a8d8ff24d2444edc94b", "is_disabled": 0, "rental_uris": {"android": "https://dc.lft.to/lastmile_qr_scan", "ios": "https://dc.lft.to/lastmile_qr_scan"}, "fusion_lon": 0.0, "lat": 38.92434816666667, "bike_id": "8e1064b1d8ba0a8d8ff24d2444edc94b", "type": "electric_scooter", "is_reserved": 0, "lon": -77.02968483333333}, {"fusion_lat": 0.0, "name": "38f7737c84830d733f9d0b0ddd3729bf", "is_disabled": 0, "rental_uris": {"android": "https://dc.lft.to/lastmile_qr_scan", "ios": "https://dc.lft.to/lastmile_qr_scan"}, "fusion_lon": 0.0, "lat": 38.94500383333333, "bike_id": "38f7737c84830d733f9d0b0ddd3729bf", "type": "electric_scooter", "is_reserved": 0, "lon": -77.03150033333333}, {"fusion_lat": 0.0, "name": "b377c6f217e380cb2efb46a4da9069e7", "is_disabled": 0, "rental_uris": {"android": "https://dc.lft.to/lastmile_qr_scan", "ios": "https://dc.lft.to/lastmile_qr_scan"}, "fusion_lon": 0.0, "lat": 38.9039685, "bike_id": "b377c6f217e380cb2efb46a4da9069e7", "type": "electric_scooter", "is_reserved": 0, "lon": -77.038248}, {"fusion_lat": 0.0, "name": "9eda4acdf5fb6cfd31cb3b78230624b4", "is_disabled": 0, "rental_uris": {"android": "https://dc.lft.to/lastmile_qr_scan", "ios": "https://dc.lft.to/lastmile_qr_scan"}, "fusion_lon": 0.0, "lat": 38.910588, "bike_id": "9eda4acdf5fb6cfd31cb3b78230624b4", "type": "electric_scooter", "is_reserved": 0, "lon": -77.0265265}, {"fusion_lat": 0.0, "name": "5571594cfc737be5c25cd547a31c024b", "is_disabled": 0, "rental_uris": {"android": "https://dc.lft.to/lastmile_qr_scan", "ios": "https://dc.lft.to/lastmile_qr_scan"}, "fusion_lon": 0.0, "lat": 38.90075816666667, "bike_id": "5571594cfc737be5c25cd547a31c024b", "type": "electric_bike", "is_reserved": 0, "lon": -77.03939066666666}, {"fusion_lat": 0.0, "name": "010a347d32fbb96e6d787eb52f016720", "is_disabled": 0, "rental_uris": {"android": "https://dc.lft.to/lastmile_qr_scan", "ios": "https://dc.lft.to/lastmile_qr_scan"}, "fusion_lon": 0.0, "lat": 38.89935966666667, "bike_id": "010a347d32fbb96e6d787eb52f016720", "type": "electric_scooter", "is_reserved": 0, "lon": -77.02176916666667}, {"fusion_lat": 0.0, "name": "df33f21f26072be099fd83b93ed9015f", "is_disabled": 0, "rental_uris": {"android": "https://dc.lft.to/lastmile_qr_scan", "ios": "https://dc.lft.to/lastmile_qr_scan"}, "fusion_lon": 0.0, "lat": 38.87666933333333, "bike_id": "df33f21f26072be099fd83b93ed9015f", "type": "electric_scooter", "is_reserved": 0, "lon": -77.0046705}, {"fusion_lat": 0.0, "name": "c7a87b8f8625b46376bfa5f6eb41243b", "is_disabled": 0, "rental_uris": {"android": "https://dc.lft.to/lastmile_qr_scan", "ios": "https://dc.lft.to/lastmile_qr_scan"}, "fusion_lon": 0.0, "lat": 38.916911666666664, "bike_id": "c7a87b8f8625b46376bfa5f6eb41243b", "type": "electric_scooter", "is_reserved": 0, "lon": -77.02596716666666}, {"fusion_lat": 0.0, "name": "d59e8bcf92a2253b2d185752dd2361cd", "is_disabled": 0, "rental_uris": {"android": "https://dc.lft.to/lastmile_qr_scan", "ios": "https://dc.lft.to/lastmile_qr_scan"}, "fusion_lon": 0.0, "lat": 38.9245355, "bike_id": "d59e8bcf92a2253b2d185752dd2361cd", "type": "electric_scooter", "is_reserved": 0, "lon": -77.03974966666667}, {"fusion_lat": 0.0, "name": "ff29e46d4e2b3ff08e5d100ddfd7646b", "is_disabled": 0, "rental_uris": {"android": "https://dc.lft.to/lastmile_qr_scan", "ios": "https://dc.lft.to/lastmile_qr_scan"}, "fusion_lon": 0.0, "lat": 38.92129216666667, "bike_id": "ff29e46d4e2b3ff08e5d100ddfd7646b", "type": "electric_scooter", "is_reserved": 0, "lon": -77.04416383333333}, {"fusion_lat": 0.0, "name": "ea786d6ab7ed9da679f40b6e3091c425", "is_disabled": 0, "rental_uris": {"android": "https://dc.lft.to/lastmile_qr_scan", "ios": "https://dc.lft.to/lastmile_qr_scan"}, "fusion_lon": 0.0, "lat": 38.90673133333333, "bike_id": "ea786d6ab7ed9da679f40b6e3091c425", "type": "electric_scooter", "is_reserved": 0, "lon": -77.027039}, {"fusion_lat": 0.0, "name": "2a44be1e774bcb5503e0360345824905", "is_disabled": 0, "rental_uris": {"android": "https://dc.lft.to/lastmile_qr_scan", "ios": "https://dc.lft.to/lastmile_qr_scan"}, "fusion_lon": 0.0, "lat": 38.88718266666667, "bike_id": "2a44be1e774bcb5503e0360345824905", "type": "electric_scooter", "is_reserved": 0, "lon": -77.02179716666667}, {"fusion_lat": 0.0, "name": "75bb0821c409a6ea969b40dc3d28dfb3", "is_disabled": 0, "rental_uris": {"android": "https://dc.lft.to/lastmile_qr_scan", "ios": "https://dc.lft.to/lastmile_qr_scan"}, "fusion_lon": 0.0, "lat": 38.944173666666664, "bike_id": "75bb0821c409a6ea969b40dc3d28dfb3", "type": "electric_scooter", "is_reserved": 0, "lon": -77.06321216666667}, {"fusion_lat": 0.0, "name": "cb7851897334393acdb5c50a99305747", "is_disabled": 0, "rental_uris": {"android": "https://dc.lft.to/lastmile_qr_scan", "ios": "https://dc.lft.to/lastmile_qr_scan"}, "fusion_lon": 0.0, "lat": 38.91119166666667, "bike_id": "cb7851897334393acdb5c50a99305747", "type": "electric_scooter", "is_reserved": 0, "lon": -77.03280166666667}, {"fusion_lat": 0.0, "name": "ad3b2bd5d265387f6988fbd2b3ff77e0", "is_disabled": 0, "rental_uris": {"android": "https://dc.lft.to/lastmile_qr_scan", "ios": "https://dc.lft.to/lastmile_qr_scan"}, "fusion_lon": 0.0, "lat": 38.95889116666667, "bike_id": "ad3b2bd5d265387f6988fbd2b3ff77e0", "type": "electric_scooter", "is_reserved": 0, "lon": -77.002832}, {"fusion_lat": 0.0, "name": "fcaf0678ceab563ecb960bdb22fadab5", "is_disabled": 0, "rental_uris": {"android": "https://dc.lft.to/lastmile_qr_scan", "ios": "https://dc.lft.to/lastmile_qr_scan"}, "fusion_lon": 0.0, "lat": 38.922481, "bike_id": "fcaf0678ceab563ecb960bdb22fadab5", "type": "electric_scooter", "is_reserved": 0, "lon": -77.030845}, {"fusion_lat": 0.0, "name": "ba3d824371ea5ea0a0375892b28e38f2", "is_disabled": 0, "rental_uris": {"android": "https://dc.lft.to/lastmile_qr_scan", "ios": "https://dc.lft.to/lastmile_qr_scan"}, "fusion_lon": 0.0, "lat": 38.9073375, "bike_id": "ba3d824371ea5ea0a0375892b28e38f2", "type": "electric_scooter", "is_reserved": 0, "lon": -77.02802966666667}, {"fusion_lat": 0.0, "name": "e5854bd422c05e12ba7e12e501720969", "is_disabled": 0, "rental_uris": {"android": "https://dc.lft.to/lastmile_qr_scan", "ios": "https://dc.lft.to/lastmile_qr_scan"}, "fusion_lon": 0.0, "lat": 38.9062135, "bike_id": "e5854bd422c05e12ba7e12e501720969", "type": "electric_scooter", "is_reserved": 0, "lon": -77.02527183333333}, {"fusion_lat": 0.0, "name": "8c67eb867cb79e43678705a6a05d8ac5", "is_disabled": 0, "rental_uris": {"android": "https://dc.lft.to/lastmile_qr_scan", "ios": "https://dc.lft.to/lastmile_qr_scan"}, "fusion_lon": 0.0, "lat": 38.9082705, "bike_id": "8c67eb867cb79e43678705a6a05d8ac5", "type": "electric_bike", "is_reserved": 0, "lon": -77.04355683333333}, {"fusion_lat": 0.0, "name": "5b20d0e41c3d7e1334520fe173a9117a", "is_disabled": 0, "rental_uris": {"android": "https://dc.lft.to/lastmile_qr_scan", "ios": "https://dc.lft.to/lastmile_qr_scan"}, "fusion_lon": 0.0, "lat": 38.93586116666667, "bike_id": "5b20d0e41c3d7e1334520fe173a9117a", "type": "electric_scooter", "is_reserved": 0, "lon": -77.03343783333334}, {"fusion_lat": 0.0, "name": "fb635fa3e0e470a3452563b839e50e98", "is_disabled": 0, "rental_uris": {"android": "https://dc.lft.to/lastmile_qr_scan", "ios": "https://dc.lft.to/lastmile_qr_scan"}, "fusion_lon": 0.0, "lat": 38.92287316666667, "bike_id": "fb635fa3e0e470a3452563b839e50e98", "type": "electric_scooter", "is_reserved": 0, "lon": -77.02334733333333}, {"fusion_lat": 0.0, "name": "69d215e5802e3fb5a948445be3b11f56", "is_disabled": 0, "rental_uris": {"android": "https://dc.lft.to/lastmile_qr_scan", "ios": "https://dc.lft.to/lastmile_qr_scan"}, "fusion_lon": 0.0, "lat": 38.88310633333333, "bike_id": "69d215e5802e3fb5a948445be3b11f56", "type": "electric_scooter", "is_reserved": 0, "lon": -77.01390383333333}, {"fusion_lat": 0.0, "name": "7d796ffbaa161f4b6cb3aa387ceb9850", "is_disabled": 0, "rental_uris": {"android": "https://dc.lft.to/lastmile_qr_scan", "ios": "https://dc.lft.to/lastmile_qr_scan"}, "fusion_lon": 0.0, "lat": 38.89224133333333, "bike_id": "7d796ffbaa161f4b6cb3aa387ceb9850", "type": "electric_scooter", "is_reserved": 0, "lon": -77.03222383333333}, {"fusion_lat": 0.0, "name": "e7ea8548723a41967620645e82e4404c", "is_disabled": 0, "rental_uris": {"android": "https://dc.lft.to/lastmile_qr_scan", "ios": "https://dc.lft.to/lastmile_qr_scan"}, "fusion_lon": 0.0, "lat": 38.92449966666667, "bike_id": "e7ea8548723a41967620645e82e4404c", "type": "electric_scooter", "is_reserved": 0, "lon": -77.00879633333334}, {"fusion_lat": 0.0, "name": "5cbc4b90be99deaba9b2afc5b5e8310e", "is_disabled": 0, "rental_uris": {"android": "https://dc.lft.to/lastmile_qr_scan", "ios": "https://dc.lft.to/lastmile_qr_scan"}, "fusion_lon": 0.0, "lat": 38.88986366666666, "bike_id": "5cbc4b90be99deaba9b2afc5b5e8310e", "type": "electric_scooter", "is_reserved": 0, "lon": -77.0033995}, {"fusion_lat": 0.0, "name": "613684108ba8ecdf3f27804d509041a7", "is_disabled": 0, "rental_uris": {"android": "https://dc.lft.to/lastmile_qr_scan", "ios": "https://dc.lft.to/lastmile_qr_scan"}, "fusion_lon": 0.0, "lat": 38.907028, "bike_id": "613684108ba8ecdf3f27804d509041a7", "type": "electric_scooter", "is_reserved": 0, "lon": -76.99836133333334}, {"fusion_lat": 0.0, "name": "7a9076b4dee5d10c88b2fa1cf22047b5", "is_disabled": 0, "rental_uris": {"android": "https://dc.lft.to/lastmile_qr_scan", "ios": "https://dc.lft.to/lastmile_qr_scan"}, "fusion_lon": 0.0, "lat": 38.91273783333333, "bike_id": "7a9076b4dee5d10c88b2fa1cf22047b5", "type": "electric_scooter", "is_reserved": 0, "lon": -77.02238016666666}, {"fusion_lat": 0.0, "name": "e14764bfe3b381202c946297193375bc", "is_disabled": 0, "rental_uris": {"android": "https://dc.lft.to/lastmile_qr_scan", "ios": "https://dc.lft.to/lastmile_qr_scan"}, "fusion_lon": 0.0, "lat": 38.9174855, "bike_id": "e14764bfe3b381202c946297193375bc", "type": "electric_scooter", "is_reserved": 0, "lon": -77.04572216666666}, {"fusion_lat": 0.0, "name": "a425f3eb31869acd5683190cca546714", "is_disabled": 0, "rental_uris": {"android": "https://dc.lft.to/lastmile_qr_scan", "ios": "https://dc.lft.to/lastmile_qr_scan"}, "fusion_lon": 0.0, "lat": 38.922463666666665, "bike_id": "a425f3eb31869acd5683190cca546714", "type": "electric_scooter", "is_reserved": 0, "lon": -77.03887016666667}, {"fusion_lat": 0.0, "name": "e3d5c367af05c816020290adcecdb13c", "is_disabled": 0, "rental_uris": {"android": "https://dc.lft.to/lastmile_qr_scan", "ios": "https://dc.lft.to/lastmile_qr_scan"}, "fusion_lon": 0.0, "lat": 38.94125116666667, "bike_id": "e3d5c367af05c816020290adcecdb13c", "type": "electric_bike", "is_reserved": 0, "lon": -76.990303}, {"fusion_lat": 0.0, "name": "5f6ac6850fa64d58a5f0a0d14c7e686e", "is_disabled": 0, "rental_uris": {"android": "https://dc.lft.to/lastmile_qr_scan", "ios": "https://dc.lft.to/lastmile_qr_scan"}, "fusion_lon": 0.0, "lat": 38.91625033333333, "bike_id": "5f6ac6850fa64d58a5f0a0d14c7e686e", "type": "electric_scooter", "is_reserved": 0, "lon": -77.096573}, {"fusion_lat": 0.0, "name": "91efcf1a17e9f5484131350e9b102edf", "is_disabled": 0, "rental_uris": {"android": "https://dc.lft.to/lastmile_qr_scan", "ios": "https://dc.lft.to/lastmile_qr_scan"}, "fusion_lon": 0.0, "lat": 38.90392583333333, "bike_id": "91efcf1a17e9f5484131350e9b102edf", "type": "electric_scooter", "is_reserved": 0, "lon": -77.03837583333333}, {"fusion_lat": 0.0, "name": "1d075799c9a7c130238f2c1db313d733", "is_disabled": 0, "rental_uris": {"android": "https://dc.lft.to/lastmile_qr_scan", "ios": "https://dc.lft.to/lastmile_qr_scan"}, "fusion_lon": 0.0, "lat": 38.92920983333333, "bike_id": "1d075799c9a7c130238f2c1db313d733", "type": "electric_scooter", "is_reserved": 0, "lon": -77.03260616666667}, {"fusion_lat": 0.0, "name": "665d252eea6578ab3d21b958d0b4611f", "is_disabled": 0, "rental_uris": {"android": "https://dc.lft.to/lastmile_qr_scan", "ios": "https://dc.lft.to/lastmile_qr_scan"}, "fusion_lon": 0.0, "lat": 38.93872616666667, "bike_id": "665d252eea6578ab3d21b958d0b4611f", "type": "electric_scooter", "is_reserved": 0, "lon": -77.02944566666666}, {"fusion_lat": 0.0, "name": "08afd8a6e5182e858300b4808642d3fd", "is_disabled": 0, "rental_uris": {"android": "https://dc.lft.to/lastmile_qr_scan", "ios": "https://dc.lft.to/lastmile_qr_scan"}, "fusion_lon": 0.0, "lat": 38.916097, "bike_id": "08afd8a6e5182e858300b4808642d3fd", "type": "electric_scooter", "is_reserved": 0, "lon": -77.02161266666667}, {"fusion_lat": 0.0, "name": "ecce648e8c4232c591a08f18fceed017", "is_disabled": 0, "rental_uris": {"android": "https://dc.lft.to/lastmile_qr_scan", "ios": "https://dc.lft.to/lastmile_qr_scan"}, "fusion_lon": 0.0, "lat": 38.949209333333336, "bike_id": "ecce648e8c4232c591a08f18fceed017", "type": "electric_bike", "is_reserved": 0, "lon": -77.00796333333334}, {"fusion_lat": 0.0, "name": "29599ae0994b4524a668c9ed1dd99b15", "is_disabled": 0, "rental_uris": {"android": "https://dc.lft.to/lastmile_qr_scan", "ios": "https://dc.lft.to/lastmile_qr_scan"}, "fusion_lon": 0.0, "lat": 38.9126425, "bike_id": "29599ae0994b4524a668c9ed1dd99b15", "type": "electric_scooter", "is_reserved": 0, "lon": -77.03860316666666}, {"fusion_lat": 0.0, "name": "1a65b871342279562705587fecc0a44e", "is_disabled": 0, "rental_uris": {"android": "https://dc.lft.to/lastmile_qr_scan", "ios": "https://dc.lft.to/lastmile_qr_scan"}, "fusion_lon": 0.0, "lat": 38.92680383333333, "bike_id": "1a65b871342279562705587fecc0a44e", "type": "electric_scooter", "is_reserved": 0, "lon": -77.02778966666666}, {"fusion_lat": 0.0, "name": "bf857c83b13b7380da01a77ae06a406d", "is_disabled": 0, "rental_uris": {"android": "https://dc.lft.to/lastmile_qr_scan", "ios": "https://dc.lft.to/lastmile_qr_scan"}, "fusion_lon": 0.0, "lat": 38.920733, "bike_id": "bf857c83b13b7380da01a77ae06a406d", "type": "electric_scooter", "is_reserved": 0, "lon": -77.01466916666666}, {"fusion_lat": 0.0, "name": "c935fcb3eef8851bc7351f1db5a7dd6f", "is_disabled": 0, "rental_uris": {"android": "https://dc.lft.to/lastmile_qr_scan", "ios": "https://dc.lft.to/lastmile_qr_scan"}, "fusion_lon": 0.0, "lat": 38.924304666666664, "bike_id": "c935fcb3eef8851bc7351f1db5a7dd6f", "type": "electric_scooter", "is_reserved": 0, "lon": -77.04464233333333}, {"fusion_lat": 0.0, "name": "6b410e8f63be4b21a618750a218edb78", "is_disabled": 0, "rental_uris": {"android": "https://dc.lft.to/lastmile_qr_scan", "ios": "https://dc.lft.to/lastmile_qr_scan"}, "fusion_lon": 0.0, "lat": 38.972857833333336, "bike_id": "6b410e8f63be4b21a618750a218edb78", "type": "electric_scooter", "is_reserved": 0, "lon": -77.011596}, {"fusion_lat": 0.0, "name": "dab9479a1ed0564a2cc79acb3f2505df", "is_disabled": 0, "rental_uris": {"android": "https://dc.lft.to/lastmile_qr_scan", "ios": "https://dc.lft.to/lastmile_qr_scan"}, "fusion_lon": 0.0, "lat": 38.9019075, "bike_id": "dab9479a1ed0564a2cc79acb3f2505df", "type": "electric_scooter", "is_reserved": 0, "lon": -77.02752033333333}, {"fusion_lat": 0.0, "name": "fc046e5a2b74d4abd7b4e6aea720b875", "is_disabled": 0, "rental_uris": {"android": "https://dc.lft.to/lastmile_qr_scan", "ios": "https://dc.lft.to/lastmile_qr_scan"}, "fusion_lon": 0.0, "lat": 38.91319, "bike_id": "fc046e5a2b74d4abd7b4e6aea720b875", "type": "electric_scooter", "is_reserved": 0, "lon": -77.03201833333334}, {"fusion_lat": 0.0, "name": "6da1ca72e4bc83748c1257bdeeaa86a7", "is_disabled": 0, "rental_uris": {"android": "https://dc.lft.to/lastmile_qr_scan", "ios": "https://dc.lft.to/lastmile_qr_scan"}, "fusion_lon": 0.0, "lat": 38.862176166666664, "bike_id": "6da1ca72e4bc83748c1257bdeeaa86a7", "type": "electric_scooter", "is_reserved": 0, "lon": -76.99488416666667}, {"fusion_lat": 0.0, "name": "c79bd3f9ef5251e1bdfe5c99876b0ab7", "is_disabled": 0, "rental_uris": {"android": "https://dc.lft.to/lastmile_qr_scan", "ios": "https://dc.lft.to/lastmile_qr_scan"}, "fusion_lon": 0.0, "lat": 38.915604333333334, "bike_id": "c79bd3f9ef5251e1bdfe5c99876b0ab7", "type": "electric_scooter", "is_reserved": 0, "lon": -77.0385875}, {"fusion_lat": 0.0, "name": "1427df5092de78a2e01d60efc7793168", "is_disabled": 0, "rental_uris": {"android": "https://dc.lft.to/lastmile_qr_scan", "ios": "https://dc.lft.to/lastmile_qr_scan"}, "fusion_lon": 0.0, "lat": 38.920422333333335, "bike_id": "1427df5092de78a2e01d60efc7793168", "type": "electric_scooter", "is_reserved": 0, "lon": -77.01793966666666}, {"fusion_lat": 0.0, "name": "47939dad4b4368a4f1e9ad17184bfab4", "is_disabled": 0, "rental_uris": {"android": "https://dc.lft.to/lastmile_qr_scan", "ios": "https://dc.lft.to/lastmile_qr_scan"}, "fusion_lon": 0.0, "lat": 38.886522166666666, "bike_id": "47939dad4b4368a4f1e9ad17184bfab4", "type": "electric_scooter", "is_reserved": 0, "lon": -77.03378233333333}, {"fusion_lat": 0.0, "name": "eea7177b3cb0c3dbf3f86f62bf8937ba", "is_disabled": 0, "rental_uris": {"android": "https://dc.lft.to/lastmile_qr_scan", "ios": "https://dc.lft.to/lastmile_qr_scan"}, "fusion_lon": 0.0, "lat": 38.90252266666667, "bike_id": "eea7177b3cb0c3dbf3f86f62bf8937ba", "type": "electric_scooter", "is_reserved": 0, "lon": -77.0532255}, {"fusion_lat": 0.0, "name": "952091e86f37331eff4e1ccba7805012", "is_disabled": 0, "rental_uris": {"android": "https://dc.lft.to/lastmile_qr_scan", "ios": "https://dc.lft.to/lastmile_qr_scan"}, "fusion_lon": 0.0, "lat": 38.897216, "bike_id": "952091e86f37331eff4e1ccba7805012", "type": "electric_scooter", "is_reserved": 0, "lon": -77.01291066666667}, {"fusion_lat": 0.0, "name": "3c7f680a7f9cc8c73c3867476e4e3e0e", "is_disabled": 0, "rental_uris": {"android": "https://dc.lft.to/lastmile_qr_scan", "ios": "https://dc.lft.to/lastmile_qr_scan"}, "fusion_lon": 0.0, "lat": 38.941963333333334, "bike_id": "3c7f680a7f9cc8c73c3867476e4e3e0e", "type": "electric_scooter", "is_reserved": 0, "lon": -77.02536766666667}, {"fusion_lat": 0.0, "name": "347cbd4a22060431ab467bbed3baaa43", "is_disabled": 0, "rental_uris": {"android": "https://dc.lft.to/lastmile_qr_scan", "ios": "https://dc.lft.to/lastmile_qr_scan"}, "fusion_lon": 0.0, "lat": 38.96183716666667, "bike_id": "347cbd4a22060431ab467bbed3baaa43", "type": "electric_bike", "is_reserved": 0, "lon": -77.052656}, {"fusion_lat": 0.0, "name": "802fb246ed1600e609c62d63ebdf54a9", "is_disabled": 0, "rental_uris": {"android": "https://dc.lft.to/lastmile_qr_scan", "ios": "https://dc.lft.to/lastmile_qr_scan"}, "fusion_lon": 0.0, "lat": 38.907999333333336, "bike_id": "802fb246ed1600e609c62d63ebdf54a9", "type": "electric_scooter", "is_reserved": 0, "lon": -77.038485}, {"fusion_lat": 0.0, "name": "1617b95c7596a9de9b428f43c6e0b949", "is_disabled": 0, "rental_uris": {"android": "https://dc.lft.to/lastmile_qr_scan", "ios": "https://dc.lft.to/lastmile_qr_scan"}, "fusion_lon": 0.0, "lat": 38.900267, "bike_id": "1617b95c7596a9de9b428f43c6e0b949", "type": "electric_scooter", "is_reserved": 0, "lon": -77.01196466666667}, {"fusion_lat": 0.0, "name": "27c06129333c439b838e075483b144be", "is_disabled": 0, "rental_uris": {"android": "https://dc.lft.to/lastmile_qr_scan", "ios": "https://dc.lft.to/lastmile_qr_scan"}, "fusion_lon": 0.0, "lat": 38.91291233333333, "bike_id": "27c06129333c439b838e075483b144be", "type": "electric_scooter", "is_reserved": 0, "lon": -77.04519016666667}, {"fusion_lat": 0.0, "name": "3dbd2433216bc44ccf2d87a665406e8b", "is_disabled": 0, "rental_uris": {"android": "https://dc.lft.to/lastmile_qr_scan", "ios": "https://dc.lft.to/lastmile_qr_scan"}, "fusion_lon": 0.0, "lat": 38.9263545, "bike_id": "3dbd2433216bc44ccf2d87a665406e8b", "type": "electric_scooter", "is_reserved": 0, "lon": -77.03504483333333}, {"fusion_lat": 0.0, "name": "3ce82c7e5271ad4012ca5cf3fadfcbca", "is_disabled": 0, "rental_uris": {"android": "https://dc.lft.to/lastmile_qr_scan", "ios": "https://dc.lft.to/lastmile_qr_scan"}, "fusion_lon": 0.0, "lat": 38.897285, "bike_id": "3ce82c7e5271ad4012ca5cf3fadfcbca", "type": "electric_scooter", "is_reserved": 0, "lon": -77.0274845}, {"fusion_lat": 0.0, "name": "e78adb0551a33810550e1fa984ba814e", "is_disabled": 0, "rental_uris": {"android": "https://dc.lft.to/lastmile_qr_scan", "ios": "https://dc.lft.to/lastmile_qr_scan"}, "fusion_lon": 0.0, "lat": 38.924583, "bike_id": "e78adb0551a33810550e1fa984ba814e", "type": "electric_scooter", "is_reserved": 0, "lon": -76.99907066666667}, {"fusion_lat": 0.0, "name": "aad3b7978205301f04fee93593342fa0", "is_disabled": 0, "rental_uris": {"android": "https://dc.lft.to/lastmile_qr_scan", "ios": "https://dc.lft.to/lastmile_qr_scan"}, "fusion_lon": 0.0, "lat": 38.90833966666667, "bike_id": "aad3b7978205301f04fee93593342fa0", "type": "electric_scooter", "is_reserved": 0, "lon": -77.036333}, {"fusion_lat": 0.0, "name": "4ae87853b20ac16162150a558652d61a", "is_disabled": 0, "rental_uris": {"android": "https://dc.lft.to/lastmile_qr_scan", "ios": "https://dc.lft.to/lastmile_qr_scan"}, "fusion_lon": 0.0, "lat": 38.909683333333334, "bike_id": "4ae87853b20ac16162150a558652d61a", "type": "electric_scooter", "is_reserved": 0, "lon": -77.03243216666667}, {"fusion_lat": 0.0, "name": "feffbff107cc2853143cfdf277058677", "is_disabled": 0, "rental_uris": {"android": "https://dc.lft.to/lastmile_qr_scan", "ios": "https://dc.lft.to/lastmile_qr_scan"}, "fusion_lon": 0.0, "lat": 38.89218983333333, "bike_id": "feffbff107cc2853143cfdf277058677", "type": "electric_scooter", "is_reserved": 0, "lon": -77.02368683333333}, {"fusion_lat": 0.0, "name": "514bacf83d5c8368691a2590a83d07df", "is_disabled": 0, "rental_uris": {"android": "https://dc.lft.to/lastmile_qr_scan", "ios": "https://dc.lft.to/lastmile_qr_scan"}, "fusion_lon": 0.0, "lat": 38.96591166666666, "bike_id": "514bacf83d5c8368691a2590a83d07df", "type": "electric_scooter", "is_reserved": 0, "lon": -77.01595333333333}, {"fusion_lat": 0.0, "name": "5c68ca972870d7b0803704f4b8f2f429", "is_disabled": 0, "rental_uris": {"android": "https://dc.lft.to/lastmile_qr_scan", "ios": "https://dc.lft.to/lastmile_qr_scan"}, "fusion_lon": 0.0, "lat": 38.874701333333334, "bike_id": "5c68ca972870d7b0803704f4b8f2f429", "type": "electric_scooter", "is_reserved": 0, "lon": -77.00557833333333}, {"fusion_lat": 0.0, "name": "dcdcda124a28d24c9d1d887d684d3e03", "is_disabled": 0, "rental_uris": {"android": "https://dc.lft.to/lastmile_qr_scan", "ios": "https://dc.lft.to/lastmile_qr_scan"}, "fusion_lon": 0.0, "lat": 38.93378, "bike_id": "dcdcda124a28d24c9d1d887d684d3e03", "type": "electric_scooter", "is_reserved": 0, "lon": -77.03882566666667}, {"fusion_lat": 0.0, "name": "6048636ae9a0f775cb84bb5516fdc6f1", "is_disabled": 0, "rental_uris": {"android": "https://dc.lft.to/lastmile_qr_scan", "ios": "https://dc.lft.to/lastmile_qr_scan"}, "fusion_lon": 0.0, "lat": 38.92079066666667, "bike_id": "6048636ae9a0f775cb84bb5516fdc6f1", "type": "electric_scooter", "is_reserved": 0, "lon": -77.02506566666666}, {"fusion_lat": 0.0, "name": "5c5a6221fcdef848dc5adcc62d57e775", "is_disabled": 0, "rental_uris": {"android": "https://dc.lft.to/lastmile_qr_scan", "ios": "https://dc.lft.to/lastmile_qr_scan"}, "fusion_lon": 0.0, "lat": 38.87719833333333, "bike_id": "5c5a6221fcdef848dc5adcc62d57e775", "type": "electric_scooter", "is_reserved": 0, "lon": -77.017598}, {"fusion_lat": 0.0, "name": "7ae10ad52455a16beef945852adcf285", "is_disabled": 0, "rental_uris": {"android": "https://dc.lft.to/lastmile_qr_scan", "ios": "https://dc.lft.to/lastmile_qr_scan"}, "fusion_lon": 0.0, "lat": 38.90707483333333, "bike_id": "7ae10ad52455a16beef945852adcf285", "type": "electric_scooter", "is_reserved": 0, "lon": -77.04963233333334}, {"fusion_lat": 0.0, "name": "8e311fce4f1ab855fb635bb009b187bc", "is_disabled": 0, "rental_uris": {"android": "https://dc.lft.to/lastmile_qr_scan", "ios": "https://dc.lft.to/lastmile_qr_scan"}, "fusion_lon": 0.0, "lat": 38.9068095, "bike_id": "8e311fce4f1ab855fb635bb009b187bc", "type": "electric_scooter", "is_reserved": 0, "lon": -77.02694166666667}, {"fusion_lat": 0.0, "name": "a8163502fd0bbfb38033d82d6e370bcd", "is_disabled": 0, "rental_uris": {"android": "https://dc.lft.to/lastmile_qr_scan", "ios": "https://dc.lft.to/lastmile_qr_scan"}, "fusion_lon": 0.0, "lat": 38.91423133333333, "bike_id": "a8163502fd0bbfb38033d82d6e370bcd", "type": "electric_scooter", "is_reserved": 0, "lon": -77.03821516666666}, {"fusion_lat": 0.0, "name": "b05af8be233fee2616a94791b1cd0d70", "is_disabled": 0, "rental_uris": {"android": "https://dc.lft.to/lastmile_qr_scan", "ios": "https://dc.lft.to/lastmile_qr_scan"}, "fusion_lon": 0.0, "lat": 38.90353983333333, "bike_id": "b05af8be233fee2616a94791b1cd0d70", "type": "electric_scooter", "is_reserved": 0, "lon": -77.00723016666667}, {"fusion_lat": 0.0, "name": "b95dd00e93a6f93834d6a2da926c966d", "is_disabled": 0, "rental_uris": {"android": "https://dc.lft.to/lastmile_qr_scan", "ios": "https://dc.lft.to/lastmile_qr_scan"}, "fusion_lon": 0.0, "lat": 38.871068, "bike_id": "b95dd00e93a6f93834d6a2da926c966d", "type": "electric_scooter", "is_reserved": 0, "lon": -76.96575166666666}, {"fusion_lat": 0.0, "name": "9cac086c90cfb9e1b5c997265c1fa76e", "is_disabled": 0, "rental_uris": {"android": "https://dc.lft.to/lastmile_qr_scan", "ios": "https://dc.lft.to/lastmile_qr_scan"}, "fusion_lon": 0.0, "lat": 38.8778865, "bike_id": "9cac086c90cfb9e1b5c997265c1fa76e", "type": "electric_bike", "is_reserved": 0, "lon": -77.00848466666666}, {"fusion_lat": 0.0, "name": "5ab3ec4b3d6a4325834d31271af9fb4a", "is_disabled": 0, "rental_uris": {"android": "https://dc.lft.to/lastmile_qr_scan", "ios": "https://dc.lft.to/lastmile_qr_scan"}, "fusion_lon": 0.0, "lat": 38.927039666666666, "bike_id": "5ab3ec4b3d6a4325834d31271af9fb4a", "type": "electric_scooter", "is_reserved": 0, "lon": -77.0205995}, {"fusion_lat": 0.0, "name": "a26ff10e4225dd60f7d68c93ebaffe8b", "is_disabled": 0, "rental_uris": {"android": "https://dc.lft.to/lastmile_qr_scan", "ios": "https://dc.lft.to/lastmile_qr_scan"}, "fusion_lon": 0.0, "lat": 38.878508, "bike_id": "a26ff10e4225dd60f7d68c93ebaffe8b", "type": "electric_scooter", "is_reserved": 0, "lon": -77.001087}, {"fusion_lat": 0.0, "name": "598c484becc02a5b15f9148e976a53bf", "is_disabled": 0, "rental_uris": {"android": "https://dc.lft.to/lastmile_qr_scan", "ios": "https://dc.lft.to/lastmile_qr_scan"}, "fusion_lon": 0.0, "lat": 38.928876, "bike_id": "598c484becc02a5b15f9148e976a53bf", "type": "electric_scooter", "is_reserved": 0, "lon": -77.01361266666666}, {"fusion_lat": 0.0, "name": "9535be472267f0fda29a2d6460c60fa9", "is_disabled": 0, "rental_uris": {"android": "https://dc.lft.to/lastmile_qr_scan", "ios": "https://dc.lft.to/lastmile_qr_scan"}, "fusion_lon": 0.0, "lat": 38.90734583333333, "bike_id": "9535be472267f0fda29a2d6460c60fa9", "type": "electric_scooter", "is_reserved": 0, "lon": -77.02957266666667}, {"fusion_lat": 0.0, "name": "80f6dbeaf245e3013858f95eca84fe28", "is_disabled": 0, "rental_uris": {"android": "https://dc.lft.to/lastmile_qr_scan", "ios": "https://dc.lft.to/lastmile_qr_scan"}, "fusion_lon": 0.0, "lat": 38.915192166666664, "bike_id": "80f6dbeaf245e3013858f95eca84fe28", "type": "electric_scooter", "is_reserved": 0, "lon": -77.012167}, {"fusion_lat": 0.0, "name": "1fa0ebc460afec63b91f90dd6b4f6cd9", "is_disabled": 0, "rental_uris": {"android": "https://dc.lft.to/lastmile_qr_scan", "ios": "https://dc.lft.to/lastmile_qr_scan"}, "fusion_lon": 0.0, "lat": 38.905604, "bike_id": "1fa0ebc460afec63b91f90dd6b4f6cd9", "type": "electric_scooter", "is_reserved": 0, "lon": -76.98325983333334}, {"fusion_lat": 0.0, "name": "f158cb5db8016e0be71d11791c26ea6f", "is_disabled": 0, "rental_uris": {"android": "https://dc.lft.to/lastmile_qr_scan", "ios": "https://dc.lft.to/lastmile_qr_scan"}, "fusion_lon": 0.0, "lat": 38.901231833333334, "bike_id": "f158cb5db8016e0be71d11791c26ea6f", "type": "electric_scooter", "is_reserved": 0, "lon": -77.04989416666666}, {"fusion_lat": 0.0, "name": "c705236615e89b046d16dc37649d4a5f", "is_disabled": 0, "rental_uris": {"android": "https://dc.lft.to/lastmile_qr_scan", "ios": "https://dc.lft.to/lastmile_qr_scan"}, "fusion_lon": 0.0, "lat": 38.90584333333334, "bike_id": "c705236615e89b046d16dc37649d4a5f", "type": "electric_scooter", "is_reserved": 0, "lon": -77.04184666666667}, {"fusion_lat": 0.0, "name": "e21d085f1c793dec3b52336a12c0053d", "is_disabled": 0, "rental_uris": {"android": "https://dc.lft.to/lastmile_qr_scan", "ios": "https://dc.lft.to/lastmile_qr_scan"}, "fusion_lon": 0.0, "lat": 38.9248955, "bike_id": "e21d085f1c793dec3b52336a12c0053d", "type": "electric_bike", "is_reserved": 0, "lon": -77.23353783333333}, {"fusion_lat": 0.0, "name": "46f5cbb9d96c27a57cfe377856db0a2f", "is_disabled": 0, "rental_uris": {"android": "https://dc.lft.to/lastmile_qr_scan", "ios": "https://dc.lft.to/lastmile_qr_scan"}, "fusion_lon": 0.0, "lat": 38.93237766666667, "bike_id": "46f5cbb9d96c27a57cfe377856db0a2f", "type": "electric_bike", "is_reserved": 0, "lon": -76.97422766666666}, {"fusion_lat": 0.0, "name": "1e0997cd45dce7784e7ede865254eef4", "is_disabled": 0, "rental_uris": {"android": "https://dc.lft.to/lastmile_qr_scan", "ios": "https://dc.lft.to/lastmile_qr_scan"}, "fusion_lon": 0.0, "lat": 38.8967105, "bike_id": "1e0997cd45dce7784e7ede865254eef4", "type": "electric_scooter", "is_reserved": 0, "lon": -76.93207916666667}, {"fusion_lat": 0.0, "name": "96a7607c9a4f44384a4a9f023b987e33", "is_disabled": 0, "rental_uris": {"android": "https://dc.lft.to/lastmile_qr_scan", "ios": "https://dc.lft.to/lastmile_qr_scan"}, "fusion_lon": 0.0, "lat": 38.90522383333333, "bike_id": "96a7607c9a4f44384a4a9f023b987e33", "type": "electric_scooter", "is_reserved": 0, "lon": -77.067837}, {"fusion_lat": 0.0, "name": "0d00c34057e44ef8332f30988ab0bb83", "is_disabled": 0, "rental_uris": {"android": "https://dc.lft.to/lastmile_qr_scan", "ios": "https://dc.lft.to/lastmile_qr_scan"}, "fusion_lon": 0.0, "lat": 38.90968783333334, "bike_id": "0d00c34057e44ef8332f30988ab0bb83", "type": "electric_scooter", "is_reserved": 0, "lon": -77.032474}, {"fusion_lat": 0.0, "name": "cfc1666efc5f2e8d4ea30cd8ed0a60cb", "is_disabled": 0, "rental_uris": {"android": "https://dc.lft.to/lastmile_qr_scan", "ios": "https://dc.lft.to/lastmile_qr_scan"}, "fusion_lon": 0.0, "lat": 38.934867, "bike_id": "cfc1666efc5f2e8d4ea30cd8ed0a60cb", "type": "electric_scooter", "is_reserved": 0, "lon": -77.045326}, {"fusion_lat": 0.0, "name": "31ee469b455479c3113c9fd572cb3e5a", "is_disabled": 0, "rental_uris": {"android": "https://dc.lft.to/lastmile_qr_scan", "ios": "https://dc.lft.to/lastmile_qr_scan"}, "fusion_lon": 0.0, "lat": 38.9072865, "bike_id": "31ee469b455479c3113c9fd572cb3e5a", "type": "electric_scooter", "is_reserved": 0, "lon": -77.03174283333334}, {"fusion_lat": 0.0, "name": "1b9fd29ae48343ffac5713b0f2f36d5a", "is_disabled": 0, "rental_uris": {"android": "https://dc.lft.to/lastmile_qr_scan", "ios": "https://dc.lft.to/lastmile_qr_scan"}, "fusion_lon": 0.0, "lat": 38.932697833333336, "bike_id": "1b9fd29ae48343ffac5713b0f2f36d5a", "type": "electric_scooter", "is_reserved": 0, "lon": -77.01917933333333}, {"fusion_lat": 0.0, "name": "2d437489d240d4aeb351a1d52e73890d", "is_disabled": 0, "rental_uris": {"android": "https://dc.lft.to/lastmile_qr_scan", "ios": "https://dc.lft.to/lastmile_qr_scan"}, "fusion_lon": 0.0, "lat": 38.8982995, "bike_id": "2d437489d240d4aeb351a1d52e73890d", "type": "electric_scooter", "is_reserved": 0, "lon": -77.02811783333334}, {"fusion_lat": 0.0, "name": "a8d807b8cf91d57d6932dd7389d240d7", "is_disabled": 0, "rental_uris": {"android": "https://dc.lft.to/lastmile_qr_scan", "ios": "https://dc.lft.to/lastmile_qr_scan"}, "fusion_lon": 0.0, "lat": 38.91275366666667, "bike_id": "a8d807b8cf91d57d6932dd7389d240d7", "type": "electric_scooter", "is_reserved": 0, "lon": -77.03177816666667}, {"fusion_lat": 0.0, "name": "de5b0f84d636dc93d5cf5a1a3c7b4b0f", "is_disabled": 0, "rental_uris": {"android": "https://dc.lft.to/lastmile_qr_scan", "ios": "https://dc.lft.to/lastmile_qr_scan"}, "fusion_lon": 0.0, "lat": 38.931756166666666, "bike_id": "de5b0f84d636dc93d5cf5a1a3c7b4b0f", "type": "electric_scooter", "is_reserved": 0, "lon": -77.05648833333333}, {"fusion_lat": 0.0, "name": "1400169c8e973e2e4000bda638cb70d4", "is_disabled": 0, "rental_uris": {"android": "https://dc.lft.to/lastmile_qr_scan", "ios": "https://dc.lft.to/lastmile_qr_scan"}, "fusion_lon": 0.0, "lat": 38.89546816666667, "bike_id": "1400169c8e973e2e4000bda638cb70d4", "type": "electric_scooter", "is_reserved": 0, "lon": -76.98337}, {"fusion_lat": 0.0, "name": "db218c350a88da80fd4769b7612c264e", "is_disabled": 0, "rental_uris": {"android": "https://dc.lft.to/lastmile_qr_scan", "ios": "https://dc.lft.to/lastmile_qr_scan"}, "fusion_lon": 0.0, "lat": 38.887089, "bike_id": "db218c350a88da80fd4769b7612c264e", "type": "electric_scooter", "is_reserved": 0, "lon": -76.99676566666666}, {"fusion_lat": 0.0, "name": "51c575492907c51f510530bffd8ba613", "is_disabled": 0, "rental_uris": {"android": "https://dc.lft.to/lastmile_qr_scan", "ios": "https://dc.lft.to/lastmile_qr_scan"}, "fusion_lon": 0.0, "lat": 38.934422166666664, "bike_id": "51c575492907c51f510530bffd8ba613", "type": "electric_scooter", "is_reserved": 0, "lon": -77.038727}, {"fusion_lat": 0.0, "name": "682fd8824c1e5df443636aa0734cc211", "is_disabled": 0, "rental_uris": {"android": "https://dc.lft.to/lastmile_qr_scan", "ios": "https://dc.lft.to/lastmile_qr_scan"}, "fusion_lon": 0.0, "lat": 38.8922385, "bike_id": "682fd8824c1e5df443636aa0734cc211", "type": "electric_scooter", "is_reserved": 0, "lon": -77.0486615}, {"fusion_lat": 0.0, "name": "11bc41d01963837c03cd408f3ccca217", "is_disabled": 0, "rental_uris": {"android": "https://dc.lft.to/lastmile_qr_scan", "ios": "https://dc.lft.to/lastmile_qr_scan"}, "fusion_lon": 0.0, "lat": 38.90264116666667, "bike_id": "11bc41d01963837c03cd408f3ccca217", "type": "electric_scooter", "is_reserved": 0, "lon": -77.00330066666666}, {"fusion_lat": 0.0, "name": "3134d9a46efa4a73c5a500bf51ea9fa6", "is_disabled": 0, "rental_uris": {"android": "https://dc.lft.to/lastmile_qr_scan", "ios": "https://dc.lft.to/lastmile_qr_scan"}, "fusion_lon": 0.0, "lat": 38.892003833333334, "bike_id": "3134d9a46efa4a73c5a500bf51ea9fa6", "type": "electric_scooter", "is_reserved": 0, "lon": -77.04333483333333}, {"fusion_lat": 0.0, "name": "365c904cbb34119c06c3bf230d004951", "is_disabled": 0, "rental_uris": {"android": "https://dc.lft.to/lastmile_qr_scan", "ios": "https://dc.lft.to/lastmile_qr_scan"}, "fusion_lon": 0.0, "lat": 38.905719500000004, "bike_id": "365c904cbb34119c06c3bf230d004951", "type": "electric_scooter", "is_reserved": 0, "lon": -77.007054}, {"fusion_lat": 0.0, "name": "16fd5321c823ea81e9f33604e6ecd33b", "is_disabled": 0, "rental_uris": {"android": "https://dc.lft.to/lastmile_qr_scan", "ios": "https://dc.lft.to/lastmile_qr_scan"}, "fusion_lon": 0.0, "lat": 38.909803333333336, "bike_id": "16fd5321c823ea81e9f33604e6ecd33b", "type": "electric_scooter", "is_reserved": 0, "lon": -77.03200233333334}, {"fusion_lat": 0.0, "name": "4b9fd6adfc6d0fd46ffb170214bf0cfd", "is_disabled": 0, "rental_uris": {"android": "https://dc.lft.to/lastmile_qr_scan", "ios": "https://dc.lft.to/lastmile_qr_scan"}, "fusion_lon": 0.0, "lat": 38.92541133333334, "bike_id": "4b9fd6adfc6d0fd46ffb170214bf0cfd", "type": "electric_scooter", "is_reserved": 0, "lon": -77.03484766666666}, {"fusion_lat": 0.0, "name": "88d656e7c0548e6d928062d14f74dc79", "is_disabled": 0, "rental_uris": {"android": "https://dc.lft.to/lastmile_qr_scan", "ios": "https://dc.lft.to/lastmile_qr_scan"}, "fusion_lon": 0.0, "lat": 38.922393666666665, "bike_id": "88d656e7c0548e6d928062d14f74dc79", "type": "electric_scooter", "is_reserved": 0, "lon": -77.035243}, {"fusion_lat": 0.0, "name": "dd6ae0044fe7575667cb85500183494f", "is_disabled": 0, "rental_uris": {"android": "https://dc.lft.to/lastmile_qr_scan", "ios": "https://dc.lft.to/lastmile_qr_scan"}, "fusion_lon": 0.0, "lat": 38.912103, "bike_id": "dd6ae0044fe7575667cb85500183494f", "type": "electric_scooter", "is_reserved": 0, "lon": -77.03202766666666}, {"fusion_lat": 0.0, "name": "c2ce9c2e44efb25a080fe64f938ef32a", "is_disabled": 0, "rental_uris": {"android": "https://dc.lft.to/lastmile_qr_scan", "ios": "https://dc.lft.to/lastmile_qr_scan"}, "fusion_lon": 0.0, "lat": 38.932079, "bike_id": "c2ce9c2e44efb25a080fe64f938ef32a", "type": "electric_scooter", "is_reserved": 0, "lon": -77.03662}, {"fusion_lat": 0.0, "name": "bcf4a2195a4f70cdc7df8542d38202a7", "is_disabled": 0, "rental_uris": {"android": "https://dc.lft.to/lastmile_qr_scan", "ios": "https://dc.lft.to/lastmile_qr_scan"}, "fusion_lon": 0.0, "lat": 38.917041166666664, "bike_id": "bcf4a2195a4f70cdc7df8542d38202a7", "type": "electric_scooter", "is_reserved": 0, "lon": -77.04208333333334}, {"fusion_lat": 0.0, "name": "97badd4263a3e89208bdee369a8b9189", "is_disabled": 0, "rental_uris": {"android": "https://dc.lft.to/lastmile_qr_scan", "ios": "https://dc.lft.to/lastmile_qr_scan"}, "fusion_lon": 0.0, "lat": 38.9073095, "bike_id": "97badd4263a3e89208bdee369a8b9189", "type": "electric_scooter", "is_reserved": 0, "lon": -77.0236015}, {"fusion_lat": 0.0, "name": "1c622af06f528de522bcff0b864b4853", "is_disabled": 0, "rental_uris": {"android": "https://dc.lft.to/lastmile_qr_scan", "ios": "https://dc.lft.to/lastmile_qr_scan"}, "fusion_lon": 0.0, "lat": 38.907029333333334, "bike_id": "1c622af06f528de522bcff0b864b4853", "type": "electric_scooter", "is_reserved": 0, "lon": -77.05052866666666}, {"fusion_lat": 0.0, "name": "0590087c3c0d6aab7c5c0f831f99c7e3", "is_disabled": 0, "rental_uris": {"android": "https://dc.lft.to/lastmile_qr_scan", "ios": "https://dc.lft.to/lastmile_qr_scan"}, "fusion_lon": 0.0, "lat": 38.905058333333336, "bike_id": "0590087c3c0d6aab7c5c0f831f99c7e3", "type": "electric_scooter", "is_reserved": 0, "lon": -77.00920916666666}, {"fusion_lat": 0.0, "name": "d1bc4a62a5df3606781b5c9732489a15", "is_disabled": 0, "rental_uris": {"android": "https://dc.lft.to/lastmile_qr_scan", "ios": "https://dc.lft.to/lastmile_qr_scan"}, "fusion_lon": 0.0, "lat": 38.90570833333334, "bike_id": "d1bc4a62a5df3606781b5c9732489a15", "type": "electric_scooter", "is_reserved": 0, "lon": -77.0209685}, {"fusion_lat": 0.0, "name": "25137a98e77eb3121215bb90379e4500", "is_disabled": 0, "rental_uris": {"android": "https://dc.lft.to/lastmile_qr_scan", "ios": "https://dc.lft.to/lastmile_qr_scan"}, "fusion_lon": 0.0, "lat": 38.87111483333333, "bike_id": "25137a98e77eb3121215bb90379e4500", "type": "electric_scooter", "is_reserved": 0, "lon": -77.005666}, {"fusion_lat": 0.0, "name": "01dd2a63a74ad750285fffda87000818", "is_disabled": 0, "rental_uris": {"android": "https://dc.lft.to/lastmile_qr_scan", "ios": "https://dc.lft.to/lastmile_qr_scan"}, "fusion_lon": 0.0, "lat": 38.92174883333333, "bike_id": "01dd2a63a74ad750285fffda87000818", "type": "electric_scooter", "is_reserved": 0, "lon": -77.0402685}, {"fusion_lat": 0.0, "name": "1d860c199ef149e441ffbc45c48e8d6b", "is_disabled": 0, "rental_uris": {"android": "https://dc.lft.to/lastmile_qr_scan", "ios": "https://dc.lft.to/lastmile_qr_scan"}, "fusion_lon": 0.0, "lat": 38.901740333333336, "bike_id": "1d860c199ef149e441ffbc45c48e8d6b", "type": "electric_scooter", "is_reserved": 0, "lon": -76.99258666666667}, {"fusion_lat": 0.0, "name": "7352155a8f6573f3a80e5ac6d5cf213d", "is_disabled": 0, "rental_uris": {"android": "https://dc.lft.to/lastmile_qr_scan", "ios": "https://dc.lft.to/lastmile_qr_scan"}, "fusion_lon": 0.0, "lat": 38.88734983333333, "bike_id": "7352155a8f6573f3a80e5ac6d5cf213d", "type": "electric_scooter", "is_reserved": 0, "lon": -77.01509116666666}, {"fusion_lat": 0.0, "name": "34b5e7085c86cc342bc95333038cee52", "is_disabled": 0, "rental_uris": {"android": "https://dc.lft.to/lastmile_qr_scan", "ios": "https://dc.lft.to/lastmile_qr_scan"}, "fusion_lon": 0.0, "lat": 38.932008833333335, "bike_id": "34b5e7085c86cc342bc95333038cee52", "type": "electric_scooter", "is_reserved": 0, "lon": -77.0366515}, {"fusion_lat": 0.0, "name": "5f2987935f4f68c5824e22ed10982809", "is_disabled": 0, "rental_uris": {"android": "https://dc.lft.to/lastmile_qr_scan", "ios": "https://dc.lft.to/lastmile_qr_scan"}, "fusion_lon": 0.0, "lat": 38.806712166666664, "bike_id": "5f2987935f4f68c5824e22ed10982809", "type": "electric_bike", "is_reserved": 0, "lon": -77.06912366666667}, {"fusion_lat": 0.0, "name": "c1ab7a01efb3956d2e2a78a87508fd1d", "is_disabled": 0, "rental_uris": {"android": "https://dc.lft.to/lastmile_qr_scan", "ios": "https://dc.lft.to/lastmile_qr_scan"}, "fusion_lon": 0.0, "lat": 38.9027425, "bike_id": "c1ab7a01efb3956d2e2a78a87508fd1d", "type": "electric_scooter", "is_reserved": 0, "lon": -77.01369383333333}, {"fusion_lat": 0.0, "name": "dd14114e25ecb3d2f0e10e653dcc978f", "is_disabled": 0, "rental_uris": {"android": "https://dc.lft.to/lastmile_qr_scan", "ios": "https://dc.lft.to/lastmile_qr_scan"}, "fusion_lon": 0.0, "lat": 38.89228716666667, "bike_id": "dd14114e25ecb3d2f0e10e653dcc978f", "type": "electric_scooter", "is_reserved": 0, "lon": -76.98814283333333}, {"fusion_lat": 0.0, "name": "185397d9057fdc21c958f526277bf076", "is_disabled": 0, "rental_uris": {"android": "https://dc.lft.to/lastmile_qr_scan", "ios": "https://dc.lft.to/lastmile_qr_scan"}, "fusion_lon": 0.0, "lat": 38.9223705, "bike_id": "185397d9057fdc21c958f526277bf076", "type": "electric_scooter", "is_reserved": 0, "lon": -77.02908416666666}, {"fusion_lat": 0.0, "name": "23dd15c91e46ae81fa2d5889c1fe8b34", "is_disabled": 0, "rental_uris": {"android": "https://dc.lft.to/lastmile_qr_scan", "ios": "https://dc.lft.to/lastmile_qr_scan"}, "fusion_lon": 0.0, "lat": 38.898436333333336, "bike_id": "23dd15c91e46ae81fa2d5889c1fe8b34", "type": "electric_bike", "is_reserved": 0, "lon": -77.02460783333333}, {"fusion_lat": 0.0, "name": "84628376952402d158ba2aa410564b4f", "is_disabled": 0, "rental_uris": {"android": "https://dc.lft.to/lastmile_qr_scan", "ios": "https://dc.lft.to/lastmile_qr_scan"}, "fusion_lon": 0.0, "lat": 38.9021345, "bike_id": "84628376952402d158ba2aa410564b4f", "type": "electric_scooter", "is_reserved": 0, "lon": -77.01886016666667}, {"fusion_lat": 0.0, "name": "6a852a95b474c53b60bfd8d0d81b5dc8", "is_disabled": 0, "rental_uris": {"android": "https://dc.lft.to/lastmile_qr_scan", "ios": "https://dc.lft.to/lastmile_qr_scan"}, "fusion_lon": 0.0, "lat": 38.936312, "bike_id": "6a852a95b474c53b60bfd8d0d81b5dc8", "type": "electric_bike", "is_reserved": 0, "lon": -77.02112366666667}, {"fusion_lat": 0.0, "name": "368f28f483c10533d805781616d240de", "is_disabled": 0, "rental_uris": {"android": "https://dc.lft.to/lastmile_qr_scan", "ios": "https://dc.lft.to/lastmile_qr_scan"}, "fusion_lon": 0.0, "lat": 38.909740166666666, "bike_id": "368f28f483c10533d805781616d240de", "type": "electric_scooter", "is_reserved": 0, "lon": -77.04704783333334}, {"fusion_lat": 0.0, "name": "b59ac3050005b2cb01982392a3a6ceb2", "is_disabled": 0, "rental_uris": {"android": "https://dc.lft.to/lastmile_qr_scan", "ios": "https://dc.lft.to/lastmile_qr_scan"}, "fusion_lon": 0.0, "lat": 38.83628566666667, "bike_id": "b59ac3050005b2cb01982392a3a6ceb2", "type": "electric_bike", "is_reserved": 0, "lon": -77.06945716666667}, {"fusion_lat": 0.0, "name": "3c5a10d7295f903472104f4d7cabc5ef", "is_disabled": 0, "rental_uris": {"android": "https://dc.lft.to/lastmile_qr_scan", "ios": "https://dc.lft.to/lastmile_qr_scan"}, "fusion_lon": 0.0, "lat": 38.910913666666666, "bike_id": "3c5a10d7295f903472104f4d7cabc5ef", "type": "electric_scooter", "is_reserved": 0, "lon": -77.04489883333333}, {"fusion_lat": 0.0, "name": "bedc633b68bb5d6d3006476a71cd8fe8", "is_disabled": 0, "rental_uris": {"android": "https://dc.lft.to/lastmile_qr_scan", "ios": "https://dc.lft.to/lastmile_qr_scan"}, "fusion_lon": 0.0, "lat": 38.90667, "bike_id": "bedc633b68bb5d6d3006476a71cd8fe8", "type": "electric_scooter", "is_reserved": 0, "lon": -77.0096555}, {"fusion_lat": 0.0, "name": "63f338c26c06546b1fb43fb6f477c369", "is_disabled": 0, "rental_uris": {"android": "https://dc.lft.to/lastmile_qr_scan", "ios": "https://dc.lft.to/lastmile_qr_scan"}, "fusion_lon": 0.0, "lat": 38.93482266666667, "bike_id": "63f338c26c06546b1fb43fb6f477c369", "type": "electric_scooter", "is_reserved": 0, "lon": -77.07266483333333}, {"fusion_lat": 0.0, "name": "3a8770d3da2b2e29dcc0d0f299319356", "is_disabled": 0, "rental_uris": {"android": "https://dc.lft.to/lastmile_qr_scan", "ios": "https://dc.lft.to/lastmile_qr_scan"}, "fusion_lon": 0.0, "lat": 38.94196216666667, "bike_id": "3a8770d3da2b2e29dcc0d0f299319356", "type": "electric_scooter", "is_reserved": 0, "lon": -77.02537366666667}, {"fusion_lat": 0.0, "name": "a973024c009e18617c51c285cef9d3f8", "is_disabled": 0, "rental_uris": {"android": "https://dc.lft.to/lastmile_qr_scan", "ios": "https://dc.lft.to/lastmile_qr_scan"}, "fusion_lon": 0.0, "lat": 38.88135416666667, "bike_id": "a973024c009e18617c51c285cef9d3f8", "type": "electric_bike", "is_reserved": 0, "lon": -76.98119433333333}, {"fusion_lat": 0.0, "name": "29efb768ef735660b81e2d35d31efa3f", "is_disabled": 0, "rental_uris": {"android": "https://dc.lft.to/lastmile_qr_scan", "ios": "https://dc.lft.to/lastmile_qr_scan"}, "fusion_lon": 0.0, "lat": 38.924024833333334, "bike_id": "29efb768ef735660b81e2d35d31efa3f", "type": "electric_scooter", "is_reserved": 0, "lon": -77.02541866666667}, {"fusion_lat": 0.0, "name": "345f9caad21349510e8e134ec353b1b6", "is_disabled": 0, "rental_uris": {"android": "https://dc.lft.to/lastmile_qr_scan", "ios": "https://dc.lft.to/lastmile_qr_scan"}, "fusion_lon": 0.0, "lat": 38.91173366666666, "bike_id": "345f9caad21349510e8e134ec353b1b6", "type": "electric_scooter", "is_reserved": 0, "lon": -77.0271485}, {"fusion_lat": 0.0, "name": "9e57a304ac6a3ac4e39f1e05cf0c4501", "is_disabled": 0, "rental_uris": {"android": "https://dc.lft.to/lastmile_qr_scan", "ios": "https://dc.lft.to/lastmile_qr_scan"}, "fusion_lon": 0.0, "lat": 38.902089833333335, "bike_id": "9e57a304ac6a3ac4e39f1e05cf0c4501", "type": "electric_scooter", "is_reserved": 0, "lon": -77.04593133333333}, {"fusion_lat": 0.0, "name": "88a619039f5305b475a12005ac451dfd", "is_disabled": 0, "rental_uris": {"android": "https://dc.lft.to/lastmile_qr_scan", "ios": "https://dc.lft.to/lastmile_qr_scan"}, "fusion_lon": 0.0, "lat": 38.9056485, "bike_id": "88a619039f5305b475a12005ac451dfd", "type": "electric_scooter", "is_reserved": 0, "lon": -77.02096583333334}, {"fusion_lat": 0.0, "name": "5deec22bd3cf0ea4d9c1e577aaeac25a", "is_disabled": 0, "rental_uris": {"android": "https://dc.lft.to/lastmile_qr_scan", "ios": "https://dc.lft.to/lastmile_qr_scan"}, "fusion_lon": 0.0, "lat": 38.906937, "bike_id": "5deec22bd3cf0ea4d9c1e577aaeac25a", "type": "electric_scooter", "is_reserved": 0, "lon": -76.95193083333334}, {"fusion_lat": 0.0, "name": "a7d8712d2d3c558d016e9fe2fd8ebc51", "is_disabled": 0, "rental_uris": {"android": "https://dc.lft.to/lastmile_qr_scan", "ios": "https://dc.lft.to/lastmile_qr_scan"}, "fusion_lon": 0.0, "lat": 38.91668816666667, "bike_id": "a7d8712d2d3c558d016e9fe2fd8ebc51", "type": "electric_scooter", "is_reserved": 0, "lon": -77.0385405}, {"fusion_lat": 0.0, "name": "d86bd3c75abd772ce16bee932bffa52b", "is_disabled": 0, "rental_uris": {"android": "https://dc.lft.to/lastmile_qr_scan", "ios": "https://dc.lft.to/lastmile_qr_scan"}, "fusion_lon": 0.0, "lat": 38.92219383333333, "bike_id": "d86bd3c75abd772ce16bee932bffa52b", "type": "electric_scooter", "is_reserved": 0, "lon": -76.99629266666666}, {"fusion_lat": 0.0, "name": "ac9b1b02f0b85debded4424774c63678", "is_disabled": 0, "rental_uris": {"android": "https://dc.lft.to/lastmile_qr_scan", "ios": "https://dc.lft.to/lastmile_qr_scan"}, "fusion_lon": 0.0, "lat": 38.907346833333335, "bike_id": "ac9b1b02f0b85debded4424774c63678", "type": "electric_scooter", "is_reserved": 0, "lon": -77.03438016666666}, {"fusion_lat": 0.0, "name": "77c2bba65162f44844652514aef57b96", "is_disabled": 0, "rental_uris": {"android": "https://dc.lft.to/lastmile_qr_scan", "ios": "https://dc.lft.to/lastmile_qr_scan"}, "fusion_lon": 0.0, "lat": 38.92755483333333, "bike_id": "77c2bba65162f44844652514aef57b96", "type": "electric_scooter", "is_reserved": 0, "lon": -77.02448983333333}, {"fusion_lat": 0.0, "name": "84a6b4296c13dd28a1612281877fec90", "is_disabled": 0, "rental_uris": {"android": "https://dc.lft.to/lastmile_qr_scan", "ios": "https://dc.lft.to/lastmile_qr_scan"}, "fusion_lon": 0.0, "lat": 38.9080085, "bike_id": "84a6b4296c13dd28a1612281877fec90", "type": "electric_scooter", "is_reserved": 0, "lon": -77.04290016666667}, {"fusion_lat": 0.0, "name": "ef417891427d0509d40ab17dd08ee49d", "is_disabled": 0, "rental_uris": {"android": "https://dc.lft.to/lastmile_qr_scan", "ios": "https://dc.lft.to/lastmile_qr_scan"}, "fusion_lon": 0.0, "lat": 38.858013166666666, "bike_id": "ef417891427d0509d40ab17dd08ee49d", "type": "electric_bike", "is_reserved": 0, "lon": -77.051363}, {"fusion_lat": 0.0, "name": "d58af9252d8f5b68ee4024291d1f08a0", "is_disabled": 0, "rental_uris": {"android": "https://dc.lft.to/lastmile_qr_scan", "ios": "https://dc.lft.to/lastmile_qr_scan"}, "fusion_lon": 0.0, "lat": 38.944132, "bike_id": "d58af9252d8f5b68ee4024291d1f08a0", "type": "electric_scooter", "is_reserved": 0, "lon": -77.06321383333334}, {"fusion_lat": 0.0, "name": "6a9ce0231a38c4ad520fd0cab961e557", "is_disabled": 0, "rental_uris": {"android": "https://dc.lft.to/lastmile_qr_scan", "ios": "https://dc.lft.to/lastmile_qr_scan"}, "fusion_lon": 0.0, "lat": 38.9360565, "bike_id": "6a9ce0231a38c4ad520fd0cab961e557", "type": "electric_scooter", "is_reserved": 0, "lon": -77.05858316666666}, {"fusion_lat": 0.0, "name": "aed10c533c09d4158a0154788db2f20b", "is_disabled": 0, "rental_uris": {"android": "https://dc.lft.to/lastmile_qr_scan", "ios": "https://dc.lft.to/lastmile_qr_scan"}, "fusion_lon": 0.0, "lat": 38.92119266666667, "bike_id": "aed10c533c09d4158a0154788db2f20b", "type": "electric_scooter", "is_reserved": 0, "lon": -77.04583116666667}, {"fusion_lat": 0.0, "name": "435d8100fd9a1007b949568e7d652af9", "is_disabled": 0, "rental_uris": {"android": "https://dc.lft.to/lastmile_qr_scan", "ios": "https://dc.lft.to/lastmile_qr_scan"}, "fusion_lon": 0.0, "lat": 38.903306, "bike_id": "435d8100fd9a1007b949568e7d652af9", "type": "electric_bike", "is_reserved": 0, "lon": -76.975253}, {"fusion_lat": 0.0, "name": "42ca3cccb578c9a23bb814a20cdcbdae", "is_disabled": 0, "rental_uris": {"android": "https://dc.lft.to/lastmile_qr_scan", "ios": "https://dc.lft.to/lastmile_qr_scan"}, "fusion_lon": 0.0, "lat": 38.842816166666665, "bike_id": "42ca3cccb578c9a23bb814a20cdcbdae", "type": "electric_bike", "is_reserved": 0, "lon": -77.04490383333334}, {"fusion_lat": 0.0, "name": "3cae2481acd4da7a5edb3d157d2e93ac", "is_disabled": 0, "rental_uris": {"android": "https://dc.lft.to/lastmile_qr_scan", "ios": "https://dc.lft.to/lastmile_qr_scan"}, "fusion_lon": 0.0, "lat": 38.928171666666664, "bike_id": "3cae2481acd4da7a5edb3d157d2e93ac", "type": "electric_scooter", "is_reserved": 0, "lon": -77.02330966666666}, {"fusion_lat": 0.0, "name": "ca0e265e91c8ac8432cee9bda00a1510", "is_disabled": 0, "rental_uris": {"android": "https://dc.lft.to/lastmile_qr_scan", "ios": "https://dc.lft.to/lastmile_qr_scan"}, "fusion_lon": 0.0, "lat": 38.910374833333336, "bike_id": "ca0e265e91c8ac8432cee9bda00a1510", "type": "electric_scooter", "is_reserved": 0, "lon": -77.03305166666667}, {"fusion_lat": 0.0, "name": "fdbf308e073bfc7fff25df938c0cd77d", "is_disabled": 0, "rental_uris": {"android": "https://dc.lft.to/lastmile_qr_scan", "ios": "https://dc.lft.to/lastmile_qr_scan"}, "fusion_lon": 0.0, "lat": 38.892337833333336, "bike_id": "fdbf308e073bfc7fff25df938c0cd77d", "type": "electric_scooter", "is_reserved": 0, "lon": -77.04654416666666}, {"fusion_lat": 0.0, "name": "de583f0fb9ff1f0f19f79c874939da27", "is_disabled": 0, "rental_uris": {"android": "https://dc.lft.to/lastmile_qr_scan", "ios": "https://dc.lft.to/lastmile_qr_scan"}, "fusion_lon": 0.0, "lat": 38.9433975, "bike_id": "de583f0fb9ff1f0f19f79c874939da27", "type": "electric_scooter", "is_reserved": 0, "lon": -77.03245433333333}, {"fusion_lat": 0.0, "name": "d70ba5bdb3cfb07bd0a8d0af9ae17396", "is_disabled": 0, "rental_uris": {"android": "https://dc.lft.to/lastmile_qr_scan", "ios": "https://dc.lft.to/lastmile_qr_scan"}, "fusion_lon": 0.0, "lat": 38.9347405, "bike_id": "d70ba5bdb3cfb07bd0a8d0af9ae17396", "type": "electric_scooter", "is_reserved": 0, "lon": -77.07218083333333}, {"fusion_lat": 0.0, "name": "40bffc98b227720f8ad1ea9be2ea6bd1", "is_disabled": 0, "rental_uris": {"android": "https://dc.lft.to/lastmile_qr_scan", "ios": "https://dc.lft.to/lastmile_qr_scan"}, "fusion_lon": 0.0, "lat": 38.90131133333333, "bike_id": "40bffc98b227720f8ad1ea9be2ea6bd1", "type": "electric_scooter", "is_reserved": 0, "lon": -77.04174516666667}, {"fusion_lat": 0.0, "name": "11a805bb4046b5227a93a98c21dc2426", "is_disabled": 0, "rental_uris": {"android": "https://dc.lft.to/lastmile_qr_scan", "ios": "https://dc.lft.to/lastmile_qr_scan"}, "fusion_lon": 0.0, "lat": 38.9008935, "bike_id": "11a805bb4046b5227a93a98c21dc2426", "type": "electric_scooter", "is_reserved": 0, "lon": -76.98329866666667}, {"fusion_lat": 0.0, "name": "2364113d7f27a58e54e143993f01158a", "is_disabled": 0, "rental_uris": {"android": "https://dc.lft.to/lastmile_qr_scan", "ios": "https://dc.lft.to/lastmile_qr_scan"}, "fusion_lon": 0.0, "lat": 38.902040166666666, "bike_id": "2364113d7f27a58e54e143993f01158a", "type": "electric_scooter", "is_reserved": 0, "lon": -77.0455375}, {"fusion_lat": 0.0, "name": "0130fb827a5381ab86c89b9bae57a563", "is_disabled": 0, "rental_uris": {"android": "https://dc.lft.to/lastmile_qr_scan", "ios": "https://dc.lft.to/lastmile_qr_scan"}, "fusion_lon": 0.0, "lat": 38.853220666666665, "bike_id": "0130fb827a5381ab86c89b9bae57a563", "type": "electric_scooter", "is_reserved": 0, "lon": -76.98011}, {"fusion_lat": 0.0, "name": "58ff4c0134a515850476dd4d7e5e4973", "is_disabled": 0, "rental_uris": {"android": "https://dc.lft.to/lastmile_qr_scan", "ios": "https://dc.lft.to/lastmile_qr_scan"}, "fusion_lon": 0.0, "lat": 38.911302166666665, "bike_id": "58ff4c0134a515850476dd4d7e5e4973", "type": "electric_scooter", "is_reserved": 0, "lon": -77.0526955}, {"fusion_lat": 0.0, "name": "770f48faa9ecc6937ac62c8d14c9de72", "is_disabled": 0, "rental_uris": {"android": "https://dc.lft.to/lastmile_qr_scan", "ios": "https://dc.lft.to/lastmile_qr_scan"}, "fusion_lon": 0.0, "lat": 38.89214583333333, "bike_id": "770f48faa9ecc6937ac62c8d14c9de72", "type": "electric_scooter", "is_reserved": 0, "lon": -77.02496316666667}, {"fusion_lat": 0.0, "name": "25239e9f5aaef7e3798e2f40bc6f4e30", "is_disabled": 0, "rental_uris": {"android": "https://dc.lft.to/lastmile_qr_scan", "ios": "https://dc.lft.to/lastmile_qr_scan"}, "fusion_lon": 0.0, "lat": 38.9207445, "bike_id": "25239e9f5aaef7e3798e2f40bc6f4e30", "type": "electric_scooter", "is_reserved": 0, "lon": -77.013912}, {"fusion_lat": 0.0, "name": "9bed5f7913859abe3b7aa6a73c8e6cba", "is_disabled": 0, "rental_uris": {"android": "https://dc.lft.to/lastmile_qr_scan", "ios": "https://dc.lft.to/lastmile_qr_scan"}, "fusion_lon": 0.0, "lat": 38.90015666666667, "bike_id": "9bed5f7913859abe3b7aa6a73c8e6cba", "type": "electric_scooter", "is_reserved": 0, "lon": -76.98812233333334}, {"fusion_lat": 0.0, "name": "babaaf7ca691cecf46235f58a50ee881", "is_disabled": 0, "rental_uris": {"android": "https://dc.lft.to/lastmile_qr_scan", "ios": "https://dc.lft.to/lastmile_qr_scan"}, "fusion_lon": 0.0, "lat": 38.923476, "bike_id": "babaaf7ca691cecf46235f58a50ee881", "type": "electric_scooter", "is_reserved": 0, "lon": -77.01909733333333}, {"fusion_lat": 0.0, "name": "e17e78b263a3f7c9a854b9e3a2e1a7d8", "is_disabled": 0, "rental_uris": {"android": "https://dc.lft.to/lastmile_qr_scan", "ios": "https://dc.lft.to/lastmile_qr_scan"}, "fusion_lon": 0.0, "lat": 38.898774833333334, "bike_id": "e17e78b263a3f7c9a854b9e3a2e1a7d8", "type": "electric_scooter", "is_reserved": 0, "lon": -76.93183316666666}, {"fusion_lat": 0.0, "name": "133726ba46b8074ae3054c87146935c7", "is_disabled": 0, "rental_uris": {"android": "https://dc.lft.to/lastmile_qr_scan", "ios": "https://dc.lft.to/lastmile_qr_scan"}, "fusion_lon": 0.0, "lat": 38.90432333333333, "bike_id": "133726ba46b8074ae3054c87146935c7", "type": "electric_scooter", "is_reserved": 0, "lon": -77.02592883333334}, {"fusion_lat": 0.0, "name": "4c96790f0c528f56c694e558ed95abf6", "is_disabled": 0, "rental_uris": {"android": "https://dc.lft.to/lastmile_qr_scan", "ios": "https://dc.lft.to/lastmile_qr_scan"}, "fusion_lon": 0.0, "lat": 38.92024116666666, "bike_id": "4c96790f0c528f56c694e558ed95abf6", "type": "electric_scooter", "is_reserved": 0, "lon": -77.01311383333334}, {"fusion_lat": 0.0, "name": "72f5be51ccd4fe59dcbb14aed5c2ea72", "is_disabled": 0, "rental_uris": {"android": "https://dc.lft.to/lastmile_qr_scan", "ios": "https://dc.lft.to/lastmile_qr_scan"}, "fusion_lon": 0.0, "lat": 38.8935095, "bike_id": "72f5be51ccd4fe59dcbb14aed5c2ea72", "type": "electric_scooter", "is_reserved": 0, "lon": -77.031731}, {"fusion_lat": 0.0, "name": "91f2d211ea24a82a6c22b68b04de6fe6", "is_disabled": 0, "rental_uris": {"android": "https://dc.lft.to/lastmile_qr_scan", "ios": "https://dc.lft.to/lastmile_qr_scan"}, "fusion_lon": 0.0, "lat": 38.911172, "bike_id": "91f2d211ea24a82a6c22b68b04de6fe6", "type": "electric_scooter", "is_reserved": 0, "lon": -77.007689}, {"fusion_lat": 0.0, "name": "9c2cbfcdd05840fdcbd82dc2a91627ac", "is_disabled": 0, "rental_uris": {"android": "https://dc.lft.to/lastmile_qr_scan", "ios": "https://dc.lft.to/lastmile_qr_scan"}, "fusion_lon": 0.0, "lat": 38.92970483333333, "bike_id": "9c2cbfcdd05840fdcbd82dc2a91627ac", "type": "electric_scooter", "is_reserved": 0, "lon": -77.0279165}, {"fusion_lat": 0.0, "name": "07f99cb5900fc1e4efb93d4cac5bdf2b", "is_disabled": 0, "rental_uris": {"android": "https://dc.lft.to/lastmile_qr_scan", "ios": "https://dc.lft.to/lastmile_qr_scan"}, "fusion_lon": 0.0, "lat": 38.8922135, "bike_id": "07f99cb5900fc1e4efb93d4cac5bdf2b", "type": "electric_scooter", "is_reserved": 0, "lon": -77.04867116666667}, {"fusion_lat": 0.0, "name": "132e723edadd19fc3eebdefb51d32696", "is_disabled": 0, "rental_uris": {"android": "https://dc.lft.to/lastmile_qr_scan", "ios": "https://dc.lft.to/lastmile_qr_scan"}, "fusion_lon": 0.0, "lat": 38.90734783333333, "bike_id": "132e723edadd19fc3eebdefb51d32696", "type": "electric_scooter", "is_reserved": 0, "lon": -77.04334083333333}, {"fusion_lat": 0.0, "name": "e8ad475297e6120d3fad22e7c174034e", "is_disabled": 0, "rental_uris": {"android": "https://dc.lft.to/lastmile_qr_scan", "ios": "https://dc.lft.to/lastmile_qr_scan"}, "fusion_lon": 0.0, "lat": 38.891990166666666, "bike_id": "e8ad475297e6120d3fad22e7c174034e", "type": "electric_scooter", "is_reserved": 0, "lon": -77.022585}, {"fusion_lat": 0.0, "name": "7895fd733a314c472506d54da83fac2c", "is_disabled": 0, "rental_uris": {"android": "https://dc.lft.to/lastmile_qr_scan", "ios": "https://dc.lft.to/lastmile_qr_scan"}, "fusion_lon": 0.0, "lat": 38.91534466666667, "bike_id": "7895fd733a314c472506d54da83fac2c", "type": "electric_scooter", "is_reserved": 0, "lon": -77.01215166666667}, {"fusion_lat": 0.0, "name": "f8bb209131d50244e0d307edf2531929", "is_disabled": 0, "rental_uris": {"android": "https://dc.lft.to/lastmile_qr_scan", "ios": "https://dc.lft.to/lastmile_qr_scan"}, "fusion_lon": 0.0, "lat": 38.889920000000004, "bike_id": "f8bb209131d50244e0d307edf2531929", "type": "electric_scooter", "is_reserved": 0, "lon": -76.99246566666666}, {"fusion_lat": 0.0, "name": "0fa920cd474d81b284a3877cbcafce73", "is_disabled": 0, "rental_uris": {"android": "https://dc.lft.to/lastmile_qr_scan", "ios": "https://dc.lft.to/lastmile_qr_scan"}, "fusion_lon": 0.0, "lat": 38.905566, "bike_id": "0fa920cd474d81b284a3877cbcafce73", "type": "electric_scooter", "is_reserved": 0, "lon": -77.0465965}, {"fusion_lat": 0.0, "name": "21964e773e93d11c8f1b0e001671ee93", "is_disabled": 0, "rental_uris": {"android": "https://dc.lft.to/lastmile_qr_scan", "ios": "https://dc.lft.to/lastmile_qr_scan"}, "fusion_lon": 0.0, "lat": 38.892289166666664, "bike_id": "21964e773e93d11c8f1b0e001671ee93", "type": "electric_scooter", "is_reserved": 0, "lon": -77.03172316666667}, {"fusion_lat": 0.0, "name": "b417c41033ed05f4d8bd4b04a89d1cd9", "is_disabled": 0, "rental_uris": {"android": "https://dc.lft.to/lastmile_qr_scan", "ios": "https://dc.lft.to/lastmile_qr_scan"}, "fusion_lon": 0.0, "lat": 38.902461833333334, "bike_id": "b417c41033ed05f4d8bd4b04a89d1cd9", "type": "electric_scooter", "is_reserved": 0, "lon": -77.063354}, {"fusion_lat": 0.0, "name": "a78c06bc350986d49acfd1ed71937267", "is_disabled": 0, "rental_uris": {"android": "https://dc.lft.to/lastmile_qr_scan", "ios": "https://dc.lft.to/lastmile_qr_scan"}, "fusion_lon": 0.0, "lat": 38.9189775, "bike_id": "a78c06bc350986d49acfd1ed71937267", "type": "electric_scooter", "is_reserved": 0, "lon": -77.000401}, {"fusion_lat": 0.0, "name": "bc12b22dc46ebf88d07dd240cb916752", "is_disabled": 0, "rental_uris": {"android": "https://dc.lft.to/lastmile_qr_scan", "ios": "https://dc.lft.to/lastmile_qr_scan"}, "fusion_lon": 0.0, "lat": 38.9666565, "bike_id": "bc12b22dc46ebf88d07dd240cb916752", "type": "electric_scooter", "is_reserved": 0, "lon": -77.02546216666667}, {"fusion_lat": 0.0, "name": "b8654428f0dba0b40ebd7c1ad3d2306b", "is_disabled": 0, "rental_uris": {"android": "https://dc.lft.to/lastmile_qr_scan", "ios": "https://dc.lft.to/lastmile_qr_scan"}, "fusion_lon": 0.0, "lat": 38.927224333333335, "bike_id": "b8654428f0dba0b40ebd7c1ad3d2306b", "type": "electric_scooter", "is_reserved": 0, "lon": -77.03060216666667}, {"fusion_lat": 0.0, "name": "1ee1a0c865076cf03ac476e1e4e205b0", "is_disabled": 0, "rental_uris": {"android": "https://dc.lft.to/lastmile_qr_scan", "ios": "https://dc.lft.to/lastmile_qr_scan"}, "fusion_lon": 0.0, "lat": 38.9170855, "bike_id": "1ee1a0c865076cf03ac476e1e4e205b0", "type": "electric_scooter", "is_reserved": 0, "lon": -77.03868166666666}, {"fusion_lat": 0.0, "name": "7c6311c4a2f96fb5f81538db2bd34636", "is_disabled": 0, "rental_uris": {"android": "https://dc.lft.to/lastmile_qr_scan", "ios": "https://dc.lft.to/lastmile_qr_scan"}, "fusion_lon": 0.0, "lat": 38.92537083333333, "bike_id": "7c6311c4a2f96fb5f81538db2bd34636", "type": "electric_scooter", "is_reserved": 0, "lon": -77.00756616666666}, {"fusion_lat": 0.0, "name": "289411cc0c21de637ca47968808c8624", "is_disabled": 0, "rental_uris": {"android": "https://dc.lft.to/lastmile_qr_scan", "ios": "https://dc.lft.to/lastmile_qr_scan"}, "fusion_lon": 0.0, "lat": 38.81912116666667, "bike_id": "289411cc0c21de637ca47968808c8624", "type": "electric_bike", "is_reserved": 0, "lon": -77.047966}, {"fusion_lat": 0.0, "name": "3a96f1fbbf2778f25e93b14c22daa3d5", "is_disabled": 0, "rental_uris": {"android": "https://dc.lft.to/lastmile_qr_scan", "ios": "https://dc.lft.to/lastmile_qr_scan"}, "fusion_lon": 0.0, "lat": 38.905651, "bike_id": "3a96f1fbbf2778f25e93b14c22daa3d5", "type": "electric_scooter", "is_reserved": 0, "lon": -77.02098283333333}, {"fusion_lat": 0.0, "name": "c2b9df8722762b257165fc32d8f5e8d1", "is_disabled": 0, "rental_uris": {"android": "https://dc.lft.to/lastmile_qr_scan", "ios": "https://dc.lft.to/lastmile_qr_scan"}, "fusion_lon": 0.0, "lat": 38.80707183333333, "bike_id": "c2b9df8722762b257165fc32d8f5e8d1", "type": "electric_bike", "is_reserved": 0, "lon": -77.06168516666666}, {"fusion_lat": 0.0, "name": "74a185ea93244ee2e18ac33ea5138b3f", "is_disabled": 0, "rental_uris": {"android": "https://dc.lft.to/lastmile_qr_scan", "ios": "https://dc.lft.to/lastmile_qr_scan"}, "fusion_lon": 0.0, "lat": 38.920533, "bike_id": "74a185ea93244ee2e18ac33ea5138b3f", "type": "electric_scooter", "is_reserved": 0, "lon": -77.04188483333333}, {"fusion_lat": 0.0, "name": "378107270ee3e2886182f407eaba6527", "is_disabled": 0, "rental_uris": {"android": "https://dc.lft.to/lastmile_qr_scan", "ios": "https://dc.lft.to/lastmile_qr_scan"}, "fusion_lon": 0.0, "lat": 38.883028333333336, "bike_id": "378107270ee3e2886182f407eaba6527", "type": "electric_scooter", "is_reserved": 0, "lon": -76.9485745}, {"fusion_lat": 0.0, "name": "f617d5705bad712b778e529888a6205d", "is_disabled": 0, "rental_uris": {"android": "https://dc.lft.to/lastmile_qr_scan", "ios": "https://dc.lft.to/lastmile_qr_scan"}, "fusion_lon": 0.0, "lat": 38.9039155, "bike_id": "f617d5705bad712b778e529888a6205d", "type": "electric_scooter", "is_reserved": 0, "lon": -77.0681655}, {"fusion_lat": 0.0, "name": "d1961f3e385e5a0150e45ab5e0330a22", "is_disabled": 0, "rental_uris": {"android": "https://dc.lft.to/lastmile_qr_scan", "ios": "https://dc.lft.to/lastmile_qr_scan"}, "fusion_lon": 0.0, "lat": 38.891041, "bike_id": "d1961f3e385e5a0150e45ab5e0330a22", "type": "electric_scooter", "is_reserved": 0, "lon": -76.99620783333333}, {"fusion_lat": 0.0, "name": "73b74f8aba0182506e5b272f3f6e8beb", "is_disabled": 0, "rental_uris": {"android": "https://dc.lft.to/lastmile_qr_scan", "ios": "https://dc.lft.to/lastmile_qr_scan"}, "fusion_lon": 0.0, "lat": 38.8124545, "bike_id": "73b74f8aba0182506e5b272f3f6e8beb", "type": "electric_bike", "is_reserved": 0, "lon": -77.11777866666667}, {"fusion_lat": 0.0, "name": "bc3378f0890337b96bc35913913c96f8", "is_disabled": 0, "rental_uris": {"android": "https://dc.lft.to/lastmile_qr_scan", "ios": "https://dc.lft.to/lastmile_qr_scan"}, "fusion_lon": 0.0, "lat": 38.9073465, "bike_id": "bc3378f0890337b96bc35913913c96f8", "type": "electric_scooter", "is_reserved": 0, "lon": -76.9354675}, {"fusion_lat": 0.0, "name": "e99f5aa13babf0c1a726e65636a2f2d2", "is_disabled": 0, "rental_uris": {"android": "https://dc.lft.to/lastmile_qr_scan", "ios": "https://dc.lft.to/lastmile_qr_scan"}, "fusion_lon": 0.0, "lat": 38.89973883333333, "bike_id": "e99f5aa13babf0c1a726e65636a2f2d2", "type": "electric_scooter", "is_reserved": 0, "lon": -77.05259716666667}, {"fusion_lat": 0.0, "name": "27259688d794cd5527733b8df18c5bf8", "is_disabled": 0, "rental_uris": {"android": "https://dc.lft.to/lastmile_qr_scan", "ios": "https://dc.lft.to/lastmile_qr_scan"}, "fusion_lon": 0.0, "lat": 38.89220666666667, "bike_id": "27259688d794cd5527733b8df18c5bf8", "type": "electric_scooter", "is_reserved": 0, "lon": -77.0237105}, {"fusion_lat": 0.0, "name": "b992c87a480fc05e4b2a419866eb5bc8", "is_disabled": 0, "rental_uris": {"android": "https://dc.lft.to/lastmile_qr_scan", "ios": "https://dc.lft.to/lastmile_qr_scan"}, "fusion_lon": 0.0, "lat": 38.92500183333333, "bike_id": "b992c87a480fc05e4b2a419866eb5bc8", "type": "electric_scooter", "is_reserved": 0, "lon": -77.05221483333334}, {"fusion_lat": 0.0, "name": "e52794d5258c08478bc24f531599ef06", "is_disabled": 0, "rental_uris": {"android": "https://dc.lft.to/lastmile_qr_scan", "ios": "https://dc.lft.to/lastmile_qr_scan"}, "fusion_lon": 0.0, "lat": 38.8901535, "bike_id": "e52794d5258c08478bc24f531599ef06", "type": "electric_scooter", "is_reserved": 0, "lon": -76.937343}, {"fusion_lat": 0.0, "name": "4ca3f29c95fb6c7701b8f05f14678f8d", "is_disabled": 0, "rental_uris": {"android": "https://dc.lft.to/lastmile_qr_scan", "ios": "https://dc.lft.to/lastmile_qr_scan"}, "fusion_lon": 0.0, "lat": 38.943312166666665, "bike_id": "4ca3f29c95fb6c7701b8f05f14678f8d", "type": "electric_scooter", "is_reserved": 0, "lon": -77.015523}, {"fusion_lat": 0.0, "name": "87c75fd068eb5ee5aa26ed073a1b3823", "is_disabled": 0, "rental_uris": {"android": "https://dc.lft.to/lastmile_qr_scan", "ios": "https://dc.lft.to/lastmile_qr_scan"}, "fusion_lon": 0.0, "lat": 38.9019255, "bike_id": "87c75fd068eb5ee5aa26ed073a1b3823", "type": "electric_scooter", "is_reserved": 0, "lon": -77.0505305}, {"fusion_lat": 0.0, "name": "4599cd1bbef086d82553e751d2d2ed3e", "is_disabled": 0, "rental_uris": {"android": "https://dc.lft.to/lastmile_qr_scan", "ios": "https://dc.lft.to/lastmile_qr_scan"}, "fusion_lon": 0.0, "lat": 38.920130666666665, "bike_id": "4599cd1bbef086d82553e751d2d2ed3e", "type": "electric_bike", "is_reserved": 0, "lon": -76.9906555}, {"fusion_lat": 0.0, "name": "718b54b8933c68956778a285135d0015", "is_disabled": 0, "rental_uris": {"android": "https://dc.lft.to/lastmile_qr_scan", "ios": "https://dc.lft.to/lastmile_qr_scan"}, "fusion_lon": 0.0, "lat": 38.89473733333333, "bike_id": "718b54b8933c68956778a285135d0015", "type": "electric_scooter", "is_reserved": 0, "lon": -77.021655}, {"fusion_lat": 0.0, "name": "ec21bce8ddba54305355f990f97e644b", "is_disabled": 0, "rental_uris": {"android": "https://dc.lft.to/lastmile_qr_scan", "ios": "https://dc.lft.to/lastmile_qr_scan"}, "fusion_lon": 0.0, "lat": 38.90814433333333, "bike_id": "ec21bce8ddba54305355f990f97e644b", "type": "electric_scooter", "is_reserved": 0, "lon": -77.034573}, {"fusion_lat": 0.0, "name": "1d239629b0a38408d31b83d7cf50e9a5", "is_disabled": 0, "rental_uris": {"android": "https://dc.lft.to/lastmile_qr_scan", "ios": "https://dc.lft.to/lastmile_qr_scan"}, "fusion_lon": 0.0, "lat": 38.911092, "bike_id": "1d239629b0a38408d31b83d7cf50e9a5", "type": "electric_scooter", "is_reserved": 0, "lon": -77.01000966666666}, {"fusion_lat": 0.0, "name": "92daffc162fdeb38aea64acd835acb77", "is_disabled": 0, "rental_uris": {"android": "https://dc.lft.to/lastmile_qr_scan", "ios": "https://dc.lft.to/lastmile_qr_scan"}, "fusion_lon": 0.0, "lat": 38.89608666666667, "bike_id": "92daffc162fdeb38aea64acd835acb77", "type": "electric_scooter", "is_reserved": 0, "lon": -76.9810935}, {"fusion_lat": 0.0, "name": "ad0af9895fe7cef0ddea750a6411cf5c", "is_disabled": 0, "rental_uris": {"android": "https://dc.lft.to/lastmile_qr_scan", "ios": "https://dc.lft.to/lastmile_qr_scan"}, "fusion_lon": 0.0, "lat": 38.94192833333334, "bike_id": "ad0af9895fe7cef0ddea750a6411cf5c", "type": "electric_scooter", "is_reserved": 0, "lon": -77.02533266666667}, {"fusion_lat": 0.0, "name": "3a60d22151f22cc308a2c8f6eb17581a", "is_disabled": 0, "rental_uris": {"android": "https://dc.lft.to/lastmile_qr_scan", "ios": "https://dc.lft.to/lastmile_qr_scan"}, "fusion_lon": 0.0, "lat": 38.91008383333333, "bike_id": "3a60d22151f22cc308a2c8f6eb17581a", "type": "electric_scooter", "is_reserved": 0, "lon": -77.02091816666666}, {"fusion_lat": 0.0, "name": "f227ae463e30f4c4acbe2a66f883ecb7", "is_disabled": 0, "rental_uris": {"android": "https://dc.lft.to/lastmile_qr_scan", "ios": "https://dc.lft.to/lastmile_qr_scan"}, "fusion_lon": 0.0, "lat": 38.902747, "bike_id": "f227ae463e30f4c4acbe2a66f883ecb7", "type": "electric_scooter", "is_reserved": 0, "lon": -77.02769116666667}, {"fusion_lat": 0.0, "name": "686e5eb20c69d26a0e4375060c615580", "is_disabled": 0, "rental_uris": {"android": "https://dc.lft.to/lastmile_qr_scan", "ios": "https://dc.lft.to/lastmile_qr_scan"}, "fusion_lon": 0.0, "lat": 38.915549166666665, "bike_id": "686e5eb20c69d26a0e4375060c615580", "type": "electric_scooter", "is_reserved": 0, "lon": -77.03173983333333}, {"fusion_lat": 0.0, "name": "61577cde2bc4f1add73f8d93dc7c20f1", "is_disabled": 0, "rental_uris": {"android": "https://dc.lft.to/lastmile_qr_scan", "ios": "https://dc.lft.to/lastmile_qr_scan"}, "fusion_lon": 0.0, "lat": 38.902547, "bike_id": "61577cde2bc4f1add73f8d93dc7c20f1", "type": "electric_scooter", "is_reserved": 0, "lon": -77.03968166666667}, {"fusion_lat": 0.0, "name": "839a71e15f171eb107604510ae2b313f", "is_disabled": 0, "rental_uris": {"android": "https://dc.lft.to/lastmile_qr_scan", "ios": "https://dc.lft.to/lastmile_qr_scan"}, "fusion_lon": 0.0, "lat": 38.9212105, "bike_id": "839a71e15f171eb107604510ae2b313f", "type": "electric_scooter", "is_reserved": 0, "lon": -77.01209283333333}, {"fusion_lat": 0.0, "name": "808b43b4f3e49968357ae13b5622d261", "is_disabled": 0, "rental_uris": {"android": "https://dc.lft.to/lastmile_qr_scan", "ios": "https://dc.lft.to/lastmile_qr_scan"}, "fusion_lon": 0.0, "lat": 39.003001833333336, "bike_id": "808b43b4f3e49968357ae13b5622d261", "type": "electric_bike", "is_reserved": 0, "lon": -76.90340316666666}, {"fusion_lat": 0.0, "name": "b7bd3517c44d118a9dac0dd691b62c2f", "is_disabled": 0, "rental_uris": {"android": "https://dc.lft.to/lastmile_qr_scan", "ios": "https://dc.lft.to/lastmile_qr_scan"}, "fusion_lon": 0.0, "lat": 38.90570533333333, "bike_id": "b7bd3517c44d118a9dac0dd691b62c2f", "type": "electric_scooter", "is_reserved": 0, "lon": -77.043326}, {"fusion_lat": 0.0, "name": "1cd72270765910fb13a3a065c8b81ac9", "is_disabled": 0, "rental_uris": {"android": "https://dc.lft.to/lastmile_qr_scan", "ios": "https://dc.lft.to/lastmile_qr_scan"}, "fusion_lon": 0.0, "lat": 38.90143366666667, "bike_id": "1cd72270765910fb13a3a065c8b81ac9", "type": "electric_scooter", "is_reserved": 0, "lon": -77.02300033333333}, {"fusion_lat": 0.0, "name": "c10cc8234da0d50edb36fd58cec5cfaf", "is_disabled": 0, "rental_uris": {"android": "https://dc.lft.to/lastmile_qr_scan", "ios": "https://dc.lft.to/lastmile_qr_scan"}, "fusion_lon": 0.0, "lat": 38.9370695, "bike_id": "c10cc8234da0d50edb36fd58cec5cfaf", "type": "electric_scooter", "is_reserved": 0, "lon": -77.061016}, {"fusion_lat": 0.0, "name": "339ce3abb783bff02691c26e8ec96ffe", "is_disabled": 0, "rental_uris": {"android": "https://dc.lft.to/lastmile_qr_scan", "ios": "https://dc.lft.to/lastmile_qr_scan"}, "fusion_lon": 0.0, "lat": 38.91709566666667, "bike_id": "339ce3abb783bff02691c26e8ec96ffe", "type": "electric_scooter", "is_reserved": 0, "lon": -77.02422133333333}, {"fusion_lat": 0.0, "name": "60f36d62a7dbd559d2982de6a5c6c290", "is_disabled": 0, "rental_uris": {"android": "https://dc.lft.to/lastmile_qr_scan", "ios": "https://dc.lft.to/lastmile_qr_scan"}, "fusion_lon": 0.0, "lat": 38.919153666666666, "bike_id": "60f36d62a7dbd559d2982de6a5c6c290", "type": "electric_scooter", "is_reserved": 0, "lon": -77.02400683333333}, {"fusion_lat": 0.0, "name": "3519d2dd6e1951360e1a6c43b5729100", "is_disabled": 0, "rental_uris": {"android": "https://dc.lft.to/lastmile_qr_scan", "ios": "https://dc.lft.to/lastmile_qr_scan"}, "fusion_lon": 0.0, "lat": 38.87643216666667, "bike_id": "3519d2dd6e1951360e1a6c43b5729100", "type": "electric_scooter", "is_reserved": 0, "lon": -77.01569566666667}, {"fusion_lat": 0.0, "name": "e46d110fb35c41e4ca0a882da05435fc", "is_disabled": 0, "rental_uris": {"android": "https://dc.lft.to/lastmile_qr_scan", "ios": "https://dc.lft.to/lastmile_qr_scan"}, "fusion_lon": 0.0, "lat": 38.9192455, "bike_id": "e46d110fb35c41e4ca0a882da05435fc", "type": "electric_scooter", "is_reserved": 0, "lon": -77.0121075}, {"fusion_lat": 0.0, "name": "a5d08c4fa7775bf971458d613e79bb2e", "is_disabled": 0, "rental_uris": {"android": "https://dc.lft.to/lastmile_qr_scan", "ios": "https://dc.lft.to/lastmile_qr_scan"}, "fusion_lon": 0.0, "lat": 38.9452555, "bike_id": "a5d08c4fa7775bf971458d613e79bb2e", "type": "electric_scooter", "is_reserved": 0, "lon": -77.02097033333334}, {"fusion_lat": 0.0, "name": "98af6959b541cedf8ae32df93dd5b1cf", "is_disabled": 0, "rental_uris": {"android": "https://dc.lft.to/lastmile_qr_scan", "ios": "https://dc.lft.to/lastmile_qr_scan"}, "fusion_lon": 0.0, "lat": 38.85440083333334, "bike_id": "98af6959b541cedf8ae32df93dd5b1cf", "type": "electric_bike", "is_reserved": 0, "lon": -77.05340333333334}, {"fusion_lat": 0.0, "name": "275d3afc0c288205316bcc591870688c", "is_disabled": 0, "rental_uris": {"android": "https://dc.lft.to/lastmile_qr_scan", "ios": "https://dc.lft.to/lastmile_qr_scan"}, "fusion_lon": 0.0, "lat": 38.984726333333334, "bike_id": "275d3afc0c288205316bcc591870688c", "type": "electric_scooter", "is_reserved": 0, "lon": -77.02638533333334}, {"fusion_lat": 0.0, "name": "41ee3caa0dd61c42e0208c78c17600d4", "is_disabled": 0, "rental_uris": {"android": "https://dc.lft.to/lastmile_qr_scan", "ios": "https://dc.lft.to/lastmile_qr_scan"}, "fusion_lon": 0.0, "lat": 38.921351333333334, "bike_id": "41ee3caa0dd61c42e0208c78c17600d4", "type": "electric_scooter", "is_reserved": 0, "lon": -77.004007}, {"fusion_lat": 0.0, "name": "86e6d41839baf47e2db8f058aeb7ecc8", "is_disabled": 0, "rental_uris": {"android": "https://dc.lft.to/lastmile_qr_scan", "ios": "https://dc.lft.to/lastmile_qr_scan"}, "fusion_lon": 0.0, "lat": 38.91982483333334, "bike_id": "86e6d41839baf47e2db8f058aeb7ecc8", "type": "electric_scooter", "is_reserved": 0, "lon": -77.04087283333334}, {"fusion_lat": 0.0, "name": "7da25428eaeb2a9c33e349552c2b2f7f", "is_disabled": 0, "rental_uris": {"android": "https://dc.lft.to/lastmile_qr_scan", "ios": "https://dc.lft.to/lastmile_qr_scan"}, "fusion_lon": 0.0, "lat": 38.90970016666667, "bike_id": "7da25428eaeb2a9c33e349552c2b2f7f", "type": "electric_scooter", "is_reserved": 0, "lon": -77.0460875}, {"fusion_lat": 0.0, "name": "70efa8618658021f46040bbd16418ad7", "is_disabled": 0, "rental_uris": {"android": "https://dc.lft.to/lastmile_qr_scan", "ios": "https://dc.lft.to/lastmile_qr_scan"}, "fusion_lon": 0.0, "lat": 38.99222866666667, "bike_id": "70efa8618658021f46040bbd16418ad7", "type": "electric_bike", "is_reserved": 0, "lon": -76.9441665}, {"fusion_lat": 0.0, "name": "850433596d128aa5b93d005daf82800e", "is_disabled": 0, "rental_uris": {"android": "https://dc.lft.to/lastmile_qr_scan", "ios": "https://dc.lft.to/lastmile_qr_scan"}, "fusion_lon": 0.0, "lat": 38.903612, "bike_id": "850433596d128aa5b93d005daf82800e", "type": "electric_scooter", "is_reserved": 0, "lon": -77.0365605}, {"fusion_lat": 0.0, "name": "54786bc9e4f44ee93b3c5098d0c0e6bb", "is_disabled": 0, "rental_uris": {"android": "https://dc.lft.to/lastmile_qr_scan", "ios": "https://dc.lft.to/lastmile_qr_scan"}, "fusion_lon": 0.0, "lat": 38.93086183333333, "bike_id": "54786bc9e4f44ee93b3c5098d0c0e6bb", "type": "electric_scooter", "is_reserved": 0, "lon": -77.036565}, {"fusion_lat": 0.0, "name": "8ae201505a828b31505175e4e3ff5f12", "is_disabled": 0, "rental_uris": {"android": "https://dc.lft.to/lastmile_qr_scan", "ios": "https://dc.lft.to/lastmile_qr_scan"}, "fusion_lon": 0.0, "lat": 38.9084215, "bike_id": "8ae201505a828b31505175e4e3ff5f12", "type": "electric_scooter", "is_reserved": 0, "lon": -77.02698816666667}, {"fusion_lat": 0.0, "name": "bb346f08978fdce6aa7be362cf0adb16", "is_disabled": 0, "rental_uris": {"android": "https://dc.lft.to/lastmile_qr_scan", "ios": "https://dc.lft.to/lastmile_qr_scan"}, "fusion_lon": 0.0, "lat": 38.877365166666664, "bike_id": "bb346f08978fdce6aa7be362cf0adb16", "type": "electric_scooter", "is_reserved": 0, "lon": -76.970326}, {"fusion_lat": 0.0, "name": "8a7c7ab46ce6fbf0ba519d822dfd85e1", "is_disabled": 0, "rental_uris": {"android": "https://dc.lft.to/lastmile_qr_scan", "ios": "https://dc.lft.to/lastmile_qr_scan"}, "fusion_lon": 0.0, "lat": 38.923366333333334, "bike_id": "8a7c7ab46ce6fbf0ba519d822dfd85e1", "type": "electric_scooter", "is_reserved": 0, "lon": -77.0361695}, {"fusion_lat": 0.0, "name": "abb0b6479a2a4444757922ee5b4d248d", "is_disabled": 0, "rental_uris": {"android": "https://dc.lft.to/lastmile_qr_scan", "ios": "https://dc.lft.to/lastmile_qr_scan"}, "fusion_lon": 0.0, "lat": 38.8983365, "bike_id": "abb0b6479a2a4444757922ee5b4d248d", "type": "electric_scooter", "is_reserved": 0, "lon": -77.00741533333333}, {"fusion_lat": 0.0, "name": "55fd3b6c6e6ea7794453a02155a1c927", "is_disabled": 0, "rental_uris": {"android": "https://dc.lft.to/lastmile_qr_scan", "ios": "https://dc.lft.to/lastmile_qr_scan"}, "fusion_lon": 0.0, "lat": 39.07053483333333, "bike_id": "55fd3b6c6e6ea7794453a02155a1c927", "type": "electric_bike", "is_reserved": 0, "lon": -77.11480166666666}, {"fusion_lat": 0.0, "name": "1867bf8128845a7f5bf864916c555855", "is_disabled": 0, "rental_uris": {"android": "https://dc.lft.to/lastmile_qr_scan", "ios": "https://dc.lft.to/lastmile_qr_scan"}, "fusion_lon": 0.0, "lat": 38.901646166666666, "bike_id": "1867bf8128845a7f5bf864916c555855", "type": "electric_scooter", "is_reserved": 0, "lon": -77.05308983333333}, {"fusion_lat": 0.0, "name": "fafe1b02205107f4c24c5d6145d85691", "is_disabled": 0, "rental_uris": {"android": "https://dc.lft.to/lastmile_qr_scan", "ios": "https://dc.lft.to/lastmile_qr_scan"}, "fusion_lon": 0.0, "lat": 38.87651183333333, "bike_id": "fafe1b02205107f4c24c5d6145d85691", "type": "electric_scooter", "is_reserved": 0, "lon": -77.00064383333333}, {"fusion_lat": 0.0, "name": "5aace4d1ff2272b8f5629ab3d1945a3b", "is_disabled": 0, "rental_uris": {"android": "https://dc.lft.to/lastmile_qr_scan", "ios": "https://dc.lft.to/lastmile_qr_scan"}, "fusion_lon": 0.0, "lat": 38.900031, "bike_id": "5aace4d1ff2272b8f5629ab3d1945a3b", "type": "electric_scooter", "is_reserved": 0, "lon": -77.0228545}, {"fusion_lat": 0.0, "name": "a54f8e2fb331dfcb14339af87b3ae84e", "is_disabled": 0, "rental_uris": {"android": "https://dc.lft.to/lastmile_qr_scan", "ios": "https://dc.lft.to/lastmile_qr_scan"}, "fusion_lon": 0.0, "lat": 38.8975775, "bike_id": "a54f8e2fb331dfcb14339af87b3ae84e", "type": "electric_scooter", "is_reserved": 0, "lon": -77.02199716666667}, {"fusion_lat": 0.0, "name": "90bc8eec36bd18e857acd3c210058632", "is_disabled": 0, "rental_uris": {"android": "https://dc.lft.to/lastmile_qr_scan", "ios": "https://dc.lft.to/lastmile_qr_scan"}, "fusion_lon": 0.0, "lat": 38.907547666666666, "bike_id": "90bc8eec36bd18e857acd3c210058632", "type": "electric_scooter", "is_reserved": 0, "lon": -77.03578616666667}, {"fusion_lat": 0.0, "name": "4801abc73011fc90863a84dd20fc75cf", "is_disabled": 0, "rental_uris": {"android": "https://dc.lft.to/lastmile_qr_scan", "ios": "https://dc.lft.to/lastmile_qr_scan"}, "fusion_lon": 0.0, "lat": 38.904693333333334, "bike_id": "4801abc73011fc90863a84dd20fc75cf", "type": "electric_scooter", "is_reserved": 0, "lon": -77.0486}, {"fusion_lat": 0.0, "name": "4758334014ae3022736dbc102dfeb4c8", "is_disabled": 0, "rental_uris": {"android": "https://dc.lft.to/lastmile_qr_scan", "ios": "https://dc.lft.to/lastmile_qr_scan"}, "fusion_lon": 0.0, "lat": 38.9112345, "bike_id": "4758334014ae3022736dbc102dfeb4c8", "type": "electric_scooter", "is_reserved": 0, "lon": -77.0325435}, {"fusion_lat": 0.0, "name": "e8a11f9c39d0e76466566e8c8614fd21", "is_disabled": 0, "rental_uris": {"android": "https://dc.lft.to/lastmile_qr_scan", "ios": "https://dc.lft.to/lastmile_qr_scan"}, "fusion_lon": 0.0, "lat": 38.915618, "bike_id": "e8a11f9c39d0e76466566e8c8614fd21", "type": "electric_scooter", "is_reserved": 0, "lon": -77.0313795}, {"fusion_lat": 0.0, "name": "118008e401062bd618828b6acfc75ae2", "is_disabled": 0, "rental_uris": {"android": "https://dc.lft.to/lastmile_qr_scan", "ios": "https://dc.lft.to/lastmile_qr_scan"}, "fusion_lon": 0.0, "lat": 38.886216, "bike_id": "118008e401062bd618828b6acfc75ae2", "type": "electric_scooter", "is_reserved": 0, "lon": -77.0281625}, {"fusion_lat": 0.0, "name": "857261cbf8622a286d2e6aeb2a2f487c", "is_disabled": 0, "rental_uris": {"android": "https://dc.lft.to/lastmile_qr_scan", "ios": "https://dc.lft.to/lastmile_qr_scan"}, "fusion_lon": 0.0, "lat": 38.89223166666667, "bike_id": "857261cbf8622a286d2e6aeb2a2f487c", "type": "electric_scooter", "is_reserved": 0, "lon": -77.02780316666667}, {"fusion_lat": 0.0, "name": "d5f9beb4dcb05010dfc1f8fcfbc0f039", "is_disabled": 0, "rental_uris": {"android": "https://dc.lft.to/lastmile_qr_scan", "ios": "https://dc.lft.to/lastmile_qr_scan"}, "fusion_lon": 0.0, "lat": 39.036031, "bike_id": "d5f9beb4dcb05010dfc1f8fcfbc0f039", "type": "electric_bike", "is_reserved": 0, "lon": -77.0554265}, {"fusion_lat": 0.0, "name": "3a0805fae1ce21ad04bef02134f6bebc", "is_disabled": 0, "rental_uris": {"android": "https://dc.lft.to/lastmile_qr_scan", "ios": "https://dc.lft.to/lastmile_qr_scan"}, "fusion_lon": 0.0, "lat": 38.91639333333333, "bike_id": "3a0805fae1ce21ad04bef02134f6bebc", "type": "electric_scooter", "is_reserved": 0, "lon": -77.05056333333333}, {"fusion_lat": 0.0, "name": "9594e44dca7f839f6ff4b2035bd51f58", "is_disabled": 0, "rental_uris": {"android": "https://dc.lft.to/lastmile_qr_scan", "ios": "https://dc.lft.to/lastmile_qr_scan"}, "fusion_lon": 0.0, "lat": 38.917014333333334, "bike_id": "9594e44dca7f839f6ff4b2035bd51f58", "type": "electric_scooter", "is_reserved": 0, "lon": -77.02400433333334}, {"fusion_lat": 0.0, "name": "87440d0629bb2850b92b62e95c79119c", "is_disabled": 0, "rental_uris": {"android": "https://dc.lft.to/lastmile_qr_scan", "ios": "https://dc.lft.to/lastmile_qr_scan"}, "fusion_lon": 0.0, "lat": 38.92089083333333, "bike_id": "87440d0629bb2850b92b62e95c79119c", "type": "electric_scooter", "is_reserved": 0, "lon": -77.02513333333333}, {"fusion_lat": 0.0, "name": "3f5560476181a440c8b0529d046acd37", "is_disabled": 0, "rental_uris": {"android": "https://dc.lft.to/lastmile_qr_scan", "ios": "https://dc.lft.to/lastmile_qr_scan"}, "fusion_lon": 0.0, "lat": 38.88745316666667, "bike_id": "3f5560476181a440c8b0529d046acd37", "type": "electric_scooter", "is_reserved": 0, "lon": -77.017853}, {"fusion_lat": 0.0, "name": "bec2704b77a09e5ace848c5e49327a58", "is_disabled": 0, "rental_uris": {"android": "https://dc.lft.to/lastmile_qr_scan", "ios": "https://dc.lft.to/lastmile_qr_scan"}, "fusion_lon": 0.0, "lat": 38.88729133333333, "bike_id": "bec2704b77a09e5ace848c5e49327a58", "type": "electric_scooter", "is_reserved": 0, "lon": -77.03182616666666}, {"fusion_lat": 0.0, "name": "a772c72f48d67411840e4666d5e489d1", "is_disabled": 0, "rental_uris": {"android": "https://dc.lft.to/lastmile_qr_scan", "ios": "https://dc.lft.to/lastmile_qr_scan"}, "fusion_lon": 0.0, "lat": 38.9181895, "bike_id": "a772c72f48d67411840e4666d5e489d1", "type": "electric_scooter", "is_reserved": 0, "lon": -77.03683066666666}, {"fusion_lat": 0.0, "name": "33e6af927b33ad00964aa471a3a674b2", "is_disabled": 0, "rental_uris": {"android": "https://dc.lft.to/lastmile_qr_scan", "ios": "https://dc.lft.to/lastmile_qr_scan"}, "fusion_lon": 0.0, "lat": 38.897139833333334, "bike_id": "33e6af927b33ad00964aa471a3a674b2", "type": "electric_scooter", "is_reserved": 0, "lon": -77.027584}, {"fusion_lat": 0.0, "name": "2eee0881bf16fae24a0620faddb4d89b", "is_disabled": 0, "rental_uris": {"android": "https://dc.lft.to/lastmile_qr_scan", "ios": "https://dc.lft.to/lastmile_qr_scan"}, "fusion_lon": 0.0, "lat": 38.919888666666665, "bike_id": "2eee0881bf16fae24a0620faddb4d89b", "type": "electric_scooter", "is_reserved": 0, "lon": -77.0327445}, {"fusion_lat": 0.0, "name": "ab517ee6d5bb6b208d5956a3d96520bc", "is_disabled": 0, "rental_uris": {"android": "https://dc.lft.to/lastmile_qr_scan", "ios": "https://dc.lft.to/lastmile_qr_scan"}, "fusion_lon": 0.0, "lat": 38.9002155, "bike_id": "ab517ee6d5bb6b208d5956a3d96520bc", "type": "electric_scooter", "is_reserved": 0, "lon": -77.01199833333334}, {"fusion_lat": 0.0, "name": "d22565be0182516cca8f9a3fb317107a", "is_disabled": 0, "rental_uris": {"android": "https://dc.lft.to/lastmile_qr_scan", "ios": "https://dc.lft.to/lastmile_qr_scan"}, "fusion_lon": 0.0, "lat": 38.92076266666667, "bike_id": "d22565be0182516cca8f9a3fb317107a", "type": "electric_bike", "is_reserved": 0, "lon": -76.98945083333334}, {"fusion_lat": 0.0, "name": "525ab9ce970c50c60b27f10c9d8bd0fd", "is_disabled": 0, "rental_uris": {"android": "https://dc.lft.to/lastmile_qr_scan", "ios": "https://dc.lft.to/lastmile_qr_scan"}, "fusion_lon": 0.0, "lat": 38.924361833333336, "bike_id": "525ab9ce970c50c60b27f10c9d8bd0fd", "type": "electric_scooter", "is_reserved": 0, "lon": -77.00060916666666}, {"fusion_lat": 0.0, "name": "7c3f957725a1f7d256b7d373a0890fd9", "is_disabled": 0, "rental_uris": {"android": "https://dc.lft.to/lastmile_qr_scan", "ios": "https://dc.lft.to/lastmile_qr_scan"}, "fusion_lon": 0.0, "lat": 38.88735966666667, "bike_id": "7c3f957725a1f7d256b7d373a0890fd9", "type": "electric_scooter", "is_reserved": 0, "lon": -77.0032035}, {"fusion_lat": 0.0, "name": "17c036c1ccac02645ee797db80431317", "is_disabled": 0, "rental_uris": {"android": "https://dc.lft.to/lastmile_qr_scan", "ios": "https://dc.lft.to/lastmile_qr_scan"}, "fusion_lon": 0.0, "lat": 38.942281666666666, "bike_id": "17c036c1ccac02645ee797db80431317", "type": "electric_scooter", "is_reserved": 0, "lon": -77.01384683333333}, {"fusion_lat": 0.0, "name": "77bce92a4fde7623333f61f48e9c71d6", "is_disabled": 0, "rental_uris": {"android": "https://dc.lft.to/lastmile_qr_scan", "ios": "https://dc.lft.to/lastmile_qr_scan"}, "fusion_lon": 0.0, "lat": 38.90384133333333, "bike_id": "77bce92a4fde7623333f61f48e9c71d6", "type": "electric_scooter", "is_reserved": 0, "lon": -77.03804733333334}, {"fusion_lat": 0.0, "name": "da41820e404b1e15fb7a52c27cb23191", "is_disabled": 0, "rental_uris": {"android": "https://dc.lft.to/lastmile_qr_scan", "ios": "https://dc.lft.to/lastmile_qr_scan"}, "fusion_lon": 0.0, "lat": 38.90293633333334, "bike_id": "da41820e404b1e15fb7a52c27cb23191", "type": "electric_scooter", "is_reserved": 0, "lon": -77.03952516666666}, {"fusion_lat": 0.0, "name": "5ed260951880812b9b933c81f2cf896e", "is_disabled": 0, "rental_uris": {"android": "https://dc.lft.to/lastmile_qr_scan", "ios": "https://dc.lft.to/lastmile_qr_scan"}, "fusion_lon": 0.0, "lat": 38.8996365, "bike_id": "5ed260951880812b9b933c81f2cf896e", "type": "electric_scooter", "is_reserved": 0, "lon": -76.98700066666666}, {"fusion_lat": 0.0, "name": "80071ec425ebd205ce9e8c564e817b43", "is_disabled": 0, "rental_uris": {"android": "https://dc.lft.to/lastmile_qr_scan", "ios": "https://dc.lft.to/lastmile_qr_scan"}, "fusion_lon": 0.0, "lat": 38.887254166666665, "bike_id": "80071ec425ebd205ce9e8c564e817b43", "type": "electric_scooter", "is_reserved": 0, "lon": -76.98355183333334},