{"data": {"bikes": [{"is_disabled": 0, "fusion_lon": 0.0, "fusion_lat": 0.0, "lat": 38.915349666666664, "type": "electric_scooter", "lon": -77.021864, "bike_id": "c6feb74771409c086e555b9cabdb8a81", "rental_uris": {"android": "https://dc.lft.to/lastmile_qr_scan", "ios": "https://dc.lft.to/lastmile_qr_scan"}, "name": "c6feb74771409c086e555b9cabdb8a81", "is_reserved": 0}, {"is_disabled": 0, "fusion_lon": 0.0, "fusion_lat": 0.0, "lat": 38.8667425, "type": "electric_scooter", "lon": -76.9888515, "bike_id": "f9e45f9e73a4bd99fc35009a56dddd2e", "rental_uris": {"android": "https://dc.lft.to/lastmile_qr_scan", "ios": "https://dc.lft.to/lastmile_qr_scan"}, "name": "f9e45f9e73a4bd99fc35009a56dddd2e", "is_reserved": 0}, {"is_disabled": 0, "fusion_lon": 0.0, "fusion_lat": 0.0, "lat": 38.917632166666664, "type": "electric_scooter", "lon": -77.03192216666666, "bike_id": "251b9525dc2e21076df06cb430a586ad", "rental_uris": {"android": "https://dc.lft.to/lastmile_qr_scan", "ios": "https://dc.lft.to/lastmile_qr_scan"}, "name": "251b9525dc2e21076df06cb430a586ad", "is_reserved": 0}, {"is_disabled": 0, "fusion_lon": 0.0, "fusion_lat": 0.0, "lat": 38.92835616666667, "type": "electric_scooter", "lon": -77.055446, "bike_id": "571b1afa07b655faf1ed7fdd46001019", "rental_uris": {"android": "https://dc.lft.to/lastmile_qr_scan", "ios": "https://dc.lft.to/lastmile_qr_scan"}, "name": "571b1afa07b655faf1ed7fdd46001019", "is_reserved": 0}, {"is_disabled": 0, "fusion_lon": 0.0, "fusion_lat": 0.0, "lat": 38.91034833333333, "type": "electric_scooter", "lon": -77.03801966666667, "bike_id": "8ca384e0d5d1caf4123a821a523a20e9", "rental_uris": {"android": "https://dc.lft.to/lastmile_qr_scan", "ios": "https://dc.lft.to/lastmile_qr_scan"}, "name": "8ca384e0d5d1caf4123a821a523a20e9", "is_reserved": 0}, {"is_disabled": 0, "fusion_lon": 0.0, "fusion_lat": 0.0, "lat": 38.86809066666667, "type": "electric_scooter", "lon": -77.01171733333334, "bike_id": "e38557cd646aafdf2e031554e65b48b7", "rental_uris": {"android": "https://dc.lft.to/lastmile_qr_scan", "ios": "https://dc.lft.to/lastmile_qr_scan"}, "name": "e38557cd646aafdf2e031554e65b48b7", "is_reserved": 0}, {"is_disabled": 0, "fusion_lon": 0.0, "fusion_lat": 0.0, "lat": 38.89388966666667, "type": "electric_scooter", "lon": -76.94997716666667, "bike_id": "7b53ad9d98a081f4f811597edf118e8d", "rental_uris": {"android": "https://dc.lft.to/lastmile_qr_scan", "ios": "https://dc.lft.to/lastmile_qr_scan"}, "name": "7b53ad9d98a081f4f811597edf118e8d", "is_reserved": 0}, {"is_disabled": 0, "fusion_lon": 0.0, "fusion_lat": 0.0, "lat": 38.89832616666666, "type": "electric_scooter", "lon": -77.022157, "bike_id": "77d0d4c0019b694a7ef3698818ce42c6", "rental_uris": {"android": "https://dc.lft.to/lastmile_qr_scan", "ios": "https://dc.lft.to/lastmile_qr_scan"}, "name": "77d0d4c0019b694a7ef3698818ce42c6", "is_reserved": 0}, {"is_disabled": 0, "fusion_lon": 0.0, "fusion_lat": 0.0, "lat": 39.05457033333333, "type": "electric_bike", "lon": -77.14325133333334, "bike_id": "c31b4c9e459bb8cb2571fd1337577229", "rental_uris": {"android": "https://dc.lft.to/lastmile_qr_scan", "ios": "https://dc.lft.to/lastmile_qr_scan"}, "name": "c31b4c9e459bb8cb2571fd1337577229", "is_reserved": 0}, {"is_disabled": 0, "fusion_lon": 0.0, "fusion_lat": 0.0, "lat": 38.94605216666667, "type": "electric_bike", "lon": -77.34413766666667, "bike_id": "7210275b34ca4a331666bf7aff9c301e", "rental_uris": {"android": "https://dc.lft.to/lastmile_qr_scan", "ios": "https://dc.lft.to/lastmile_qr_scan"}, "name": "7210275b34ca4a331666bf7aff9c301e", "is_reserved": 0}, {"is_disabled": 0, "fusion_lon": 0.0, "fusion_lat": 0.0, "lat": 38.8974205, "type": "electric_scooter", "lon": -77.04722683333334, "bike_id": "d6e7d5146ca5e13ac21a2aaca9bd54a0", "rental_uris": {"android": "https://dc.lft.to/lastmile_qr_scan", "ios": "https://dc.lft.to/lastmile_qr_scan"}, "name": "d6e7d5146ca5e13ac21a2aaca9bd54a0", "is_reserved": 0}, {"is_disabled": 0, "fusion_lon": 0.0, "fusion_lat": 0.0, "lat": 38.926564666666664, "type": "electric_bike", "lon": -76.99753116666666, "bike_id": "09f7fe079ac3671a3fb2b211f1f77c31", "rental_uris": {"android": "https://dc.lft.to/lastmile_qr_scan", "ios": "https://dc.lft.to/lastmile_qr_scan"}, "name": "09f7fe079ac3671a3fb2b211f1f77c31", "is_reserved": 0}, {"is_disabled": 0, "fusion_lon": 0.0, "fusion_lat": 0.0, "lat": 38.77621466666667, "type": "electric_bike", "lon": -77.08355333333333, "bike_id": "6abdf8b9a366d1c7f9fdad4f6d523850", "rental_uris": {"android": "https://dc.lft.to/lastmile_qr_scan", "ios": "https://dc.lft.to/lastmile_qr_scan"}, "name": "6abdf8b9a366d1c7f9fdad4f6d523850", "is_reserved": 0}, {"is_disabled": 0, "fusion_lon": 0.0, "fusion_lat": 0.0, "lat": 38.88962133333333, "type": "electric_scooter", "lon": -76.99148666666666, "bike_id": "f42cacb08baf98faabebda1744997c2b", "rental_uris": {"android": "https://dc.lft.to/lastmile_qr_scan", "ios": "https://dc.lft.to/lastmile_qr_scan"}, "name": "f42cacb08baf98faabebda1744997c2b", "is_reserved": 0}, {"is_disabled": 0, "fusion_lon": 0.0, "fusion_lat": 0.0, "lat": 38.898269666666664, "type": "electric_scooter", "lon": -77.02962616666667, "bike_id": "4a0692dcc3e9d2632cd86414bab6811d", "rental_uris": {"android": "https://dc.lft.to/lastmile_qr_scan", "ios": "https://dc.lft.to/lastmile_qr_scan"}, "name": "4a0692dcc3e9d2632cd86414bab6811d", "is_reserved": 0}, {"is_disabled": 0, "fusion_lon": 0.0, "fusion_lat": 0.0, "lat": 38.888517, "type": "electric_bike", "lon": -76.97700883333333, "bike_id": "12e87138ba8b4583eb7dbbf05446146c", "rental_uris": {"android": "https://dc.lft.to/lastmile_qr_scan", "ios": "https://dc.lft.to/lastmile_qr_scan"}, "name": "12e87138ba8b4583eb7dbbf05446146c", "is_reserved": 0}, {"is_disabled": 0, "fusion_lon": 0.0, "fusion_lat": 0.0, "lat": 38.887451166666665, "type": "electric_scooter", "lon": -77.01429966666667, "bike_id": "7ff8f9b7de8ecadac189ab0fe089ce4f", "rental_uris": {"android": "https://dc.lft.to/lastmile_qr_scan", "ios": "https://dc.lft.to/lastmile_qr_scan"}, "name": "7ff8f9b7de8ecadac189ab0fe089ce4f", "is_reserved": 0}, {"is_disabled": 0, "fusion_lon": 0.0, "fusion_lat": 0.0, "lat": 38.89681983333333, "type": "electric_scooter", "lon": -76.93540433333334, "bike_id": "f7e5f043b98e9cc910bdbe6f034fc95a", "rental_uris": {"android": "https://dc.lft.to/lastmile_qr_scan", "ios": "https://dc.lft.to/lastmile_qr_scan"}, "name": "f7e5f043b98e9cc910bdbe6f034fc95a", "is_reserved": 0}, {"is_disabled": 0, "fusion_lon": 0.0, "fusion_lat": 0.0, "lat": 38.924180666666665, "type": "electric_scooter", "lon": -77.020137, "bike_id": "f0a58ec321bbc069bbf6d3b7ffb210ad", "rental_uris": {"android": "https://dc.lft.to/lastmile_qr_scan", "ios": "https://dc.lft.to/lastmile_qr_scan"}, "name": "f0a58ec321bbc069bbf6d3b7ffb210ad", "is_reserved": 0}, {"is_disabled": 0, "fusion_lon": 0.0, "fusion_lat": 0.0, "lat": 38.897301, "type": "electric_scooter", "lon": -77.04674666666666, "bike_id": "8a35404e6f10fc87b3cd8c95f96964f6", "rental_uris": {"android": "https://dc.lft.to/lastmile_qr_scan", "ios": "https://dc.lft.to/lastmile_qr_scan"}, "name": "8a35404e6f10fc87b3cd8c95f96964f6", "is_reserved": 0}, {"is_disabled": 0, "fusion_lon": 0.0, "fusion_lat": 0.0, "lat": 38.905716, "type": "electric_scooter", "lon": -77.005707, "bike_id": "b5e7041a030648a0805a735b91133460", "rental_uris": {"android": "https://dc.lft.to/lastmile_qr_scan", "ios": "https://dc.lft.to/lastmile_qr_scan"}, "name": "b5e7041a030648a0805a735b91133460", "is_reserved": 0}, {"is_disabled": 0, "fusion_lon": 0.0, "fusion_lat": 0.0, "lat": 38.917376833333336, "type": "electric_scooter", "lon": -77.0364235, "bike_id": "125d9a6cf400597588dd8be5d348550b", "rental_uris": {"android": "https://dc.lft.to/lastmile_qr_scan", "ios": "https://dc.lft.to/lastmile_qr_scan"}, "name": "125d9a6cf400597588dd8be5d348550b", "is_reserved": 0}, {"is_disabled": 0, "fusion_lon": 0.0, "fusion_lat": 0.0, "lat": 38.900322833333334, "type": "electric_scooter", "lon": -77.03353283333334, "bike_id": "fa303a4be22058cc1a8a66d2e2a96a51", "rental_uris": {"android": "https://dc.lft.to/lastmile_qr_scan", "ios": "https://dc.lft.to/lastmile_qr_scan"}, "name": "fa303a4be22058cc1a8a66d2e2a96a51", "is_reserved": 0}, {"is_disabled": 0, "fusion_lon": 0.0, "fusion_lat": 0.0, "lat": 38.8977585, "type": "electric_scooter", "lon": -77.05014416666667, "bike_id": "53df60436cad895f288561f7ee6fd0e1", "rental_uris": {"android": "https://dc.lft.to/lastmile_qr_scan", "ios": "https://dc.lft.to/lastmile_qr_scan"}, "name": "53df60436cad895f288561f7ee6fd0e1", "is_reserved": 0}, {"is_disabled": 0, "fusion_lon": 0.0, "fusion_lat": 0.0, "lat": 38.91692916666667, "type": "electric_scooter", "lon": -77.03216983333333, "bike_id": "cafc32924d8cb6d85d6af6444fef1080", "rental_uris": {"android": "https://dc.lft.to/lastmile_qr_scan", "ios": "https://dc.lft.to/lastmile_qr_scan"}, "name": "cafc32924d8cb6d85d6af6444fef1080", "is_reserved": 0}, {"is_disabled": 0, "fusion_lon": 0.0, "fusion_lat": 0.0, "lat": 38.89990933333333, "type": "electric_scooter", "lon": -77.00657666666666, "bike_id": "62ba9ca4bbeb39bb9479bcbc144f20d3", "rental_uris": {"android": "https://dc.lft.to/lastmile_qr_scan", "ios": "https://dc.lft.to/lastmile_qr_scan"}, "name": "62ba9ca4bbeb39bb9479bcbc144f20d3", "is_reserved": 0}, {"is_disabled": 0, "fusion_lon": 0.0, "fusion_lat": 0.0, "lat": 38.84294466666667, "type": "electric_scooter", "lon": -76.999498, "bike_id": "79304df8a25d8556a3d709bd4b444a68", "rental_uris": {"android": "https://dc.lft.to/lastmile_qr_scan", "ios": "https://dc.lft.to/lastmile_qr_scan"}, "name": "79304df8a25d8556a3d709bd4b444a68", "is_reserved": 0}, {"is_disabled": 0, "fusion_lon": 0.0, "fusion_lat": 0.0, "lat": 38.895280166666666, "type": "electric_scooter", "lon": -76.94889466666666, "bike_id": "3facf2d06aaec936efb138c20f5f37bd", "rental_uris": {"android": "https://dc.lft.to/lastmile_qr_scan", "ios": "https://dc.lft.to/lastmile_qr_scan"}, "name": "3facf2d06aaec936efb138c20f5f37bd", "is_reserved": 0}, {"is_disabled": 0, "fusion_lon": 0.0, "fusion_lat": 0.0, "lat": 38.88706766666667, "type": "electric_scooter", "lon": -76.9536555, "bike_id": "4a7636069e2540e037674be713c54771", "rental_uris": {"android": "https://dc.lft.to/lastmile_qr_scan", "ios": "https://dc.lft.to/lastmile_qr_scan"}, "name": "4a7636069e2540e037674be713c54771", "is_reserved": 0}, {"is_disabled": 0, "fusion_lon": 0.0, "fusion_lat": 0.0, "lat": 38.917441333333336, "type": "electric_scooter", "lon": -77.03659, "bike_id": "bc125e8aaae92199d7004d024df294bf", "rental_uris": {"android": "https://dc.lft.to/lastmile_qr_scan", "ios": "https://dc.lft.to/lastmile_qr_scan"}, "name": "bc125e8aaae92199d7004d024df294bf", "is_reserved": 0}, {"is_disabled": 0, "fusion_lon": 0.0, "fusion_lat": 0.0, "lat": 38.91678666666667, "type": "electric_scooter", "lon": -77.0269475, "bike_id": "32b8de988bb06a3c46f88c7b4231ef09", "rental_uris": {"android": "https://dc.lft.to/lastmile_qr_scan", "ios": "https://dc.lft.to/lastmile_qr_scan"}, "name": "32b8de988bb06a3c46f88c7b4231ef09", "is_reserved": 0}, {"is_disabled": 0, "fusion_lon": 0.0, "fusion_lat": 0.0, "lat": 38.862492833333334, "type": "electric_scooter", "lon": -76.99533916666667, "bike_id": "503b9f850f4953333cff0f57f9204854", "rental_uris": {"android": "https://dc.lft.to/lastmile_qr_scan", "ios": "https://dc.lft.to/lastmile_qr_scan"}, "name": "503b9f850f4953333cff0f57f9204854", "is_reserved": 0}, {"is_disabled": 0, "fusion_lon": 0.0, "fusion_lat": 0.0, "lat": 38.9042825, "type": "electric_scooter", "lon": -77.02602233333333, "bike_id": "650297734781ad2b69a862716b4add30", "rental_uris": {"android": "https://dc.lft.to/lastmile_qr_scan", "ios": "https://dc.lft.to/lastmile_qr_scan"}, "name": "650297734781ad2b69a862716b4add30", "is_reserved": 0}, {"is_disabled": 0, "fusion_lon": 0.0, "fusion_lat": 0.0, "lat": 38.9267245, "type": "electric_scooter", "lon": -77.032123, "bike_id": "cb309ae4f8ac4c2e67d8175c0683e3cf", "rental_uris": {"android": "https://dc.lft.to/lastmile_qr_scan", "ios": "https://dc.lft.to/lastmile_qr_scan"}, "name": "cb309ae4f8ac4c2e67d8175c0683e3cf", "is_reserved": 0}, {"is_disabled": 0, "fusion_lon": 0.0, "fusion_lat": 0.0, "lat": 38.86565983333333, "type": "electric_bike", "lon": -76.97292233333333, "bike_id": "0f1ac6fc5f12a68c23f3cb7d5d75d38e", "rental_uris": {"android": "https://dc.lft.to/lastmile_qr_scan", "ios": "https://dc.lft.to/lastmile_qr_scan"}, "name": "0f1ac6fc5f12a68c23f3cb7d5d75d38e", "is_reserved": 0}, {"is_disabled": 0, "fusion_lon": 0.0, "fusion_lat": 0.0, "lat": 38.92028783333333, "type": "electric_scooter", "lon": -77.01144033333334, "bike_id": "049985951c774d3ad9b001e357437423", "rental_uris": {"android": "https://dc.lft.to/lastmile_qr_scan", "ios": "https://dc.lft.to/lastmile_qr_scan"}, "name": "049985951c774d3ad9b001e357437423", "is_reserved": 0}, {"is_disabled": 0, "fusion_lon": 0.0, "fusion_lat": 0.0, "lat": 38.905559833333335, "type": "electric_scooter", "lon": -77.00581633333333, "bike_id": "3b94a203a67eaff32385e52fc1d4b61e", "rental_uris": {"android": "https://dc.lft.to/lastmile_qr_scan", "ios": "https://dc.lft.to/lastmile_qr_scan"}, "name": "3b94a203a67eaff32385e52fc1d4b61e", "is_reserved": 0}, {"is_disabled": 0, "fusion_lon": 0.0, "fusion_lat": 0.0, "lat": 38.93004116666667, "type": "electric_scooter", "lon": -77.07842783333334, "bike_id": "e3d63ac77b9f7ab8c3a59d25833b9f46", "rental_uris": {"android": "https://dc.lft.to/lastmile_qr_scan", "ios": "https://dc.lft.to/lastmile_qr_scan"}, "name": "e3d63ac77b9f7ab8c3a59d25833b9f46", "is_reserved": 0}, {"is_disabled": 0, "fusion_lon": 0.0, "fusion_lat": 0.0, "lat": 38.9082305, "type": "electric_scooter", "lon": -77.03365166666667, "bike_id": "a214616028f9c939afca770229047315", "rental_uris": {"android": "https://dc.lft.to/lastmile_qr_scan", "ios": "https://dc.lft.to/lastmile_qr_scan"}, "name": "a214616028f9c939afca770229047315", "is_reserved": 0}, {"is_disabled": 0, "fusion_lon": 0.0, "fusion_lat": 0.0, "lat": 38.93719266666667, "type": "electric_scooter", "lon": -77.03262116666667, "bike_id": "446c6f9ef3adfd7d11b15a570ca9a4f3", "rental_uris": {"android": "https://dc.lft.to/lastmile_qr_scan", "ios": "https://dc.lft.to/lastmile_qr_scan"}, "name": "446c6f9ef3adfd7d11b15a570ca9a4f3", "is_reserved": 0}, {"is_disabled": 0, "fusion_lon": 0.0, "fusion_lat": 0.0, "lat": 38.863608, "type": "electric_scooter", "lon": -76.99065183333333, "bike_id": "cedfa1cf095d1636f23db9a269f0aa58", "rental_uris": {"android": "https://dc.lft.to/lastmile_qr_scan", "ios": "https://dc.lft.to/lastmile_qr_scan"}, "name": "cedfa1cf095d1636f23db9a269f0aa58", "is_reserved": 0}, {"is_disabled": 0, "fusion_lon": 0.0, "fusion_lat": 0.0, "lat": 38.919429666666666, "type": "electric_scooter", "lon": -77.01805966666667, "bike_id": "feaa15c616cbc4f1625da23e9c288a47", "rental_uris": {"android": "https://dc.lft.to/lastmile_qr_scan", "ios": "https://dc.lft.to/lastmile_qr_scan"}, "name": "feaa15c616cbc4f1625da23e9c288a47", "is_reserved": 0}, {"is_disabled": 0, "fusion_lon": 0.0, "fusion_lat": 0.0, "lat": 38.90489616666667, "type": "electric_scooter", "lon": -77.02944066666667, "bike_id": "631c3b14d5c7322407be693bb6290fbe", "rental_uris": {"android": "https://dc.lft.to/lastmile_qr_scan", "ios": "https://dc.lft.to/lastmile_qr_scan"}, "name": "631c3b14d5c7322407be693bb6290fbe", "is_reserved": 0}, {"is_disabled": 0, "fusion_lon": 0.0, "fusion_lat": 0.0, "lat": 38.94559616666667, "type": "electric_bike", "lon": -77.05114083333333, "bike_id": "0a46e4b3fadcc6dd644be02470170a7b", "rental_uris": {"android": "https://dc.lft.to/lastmile_qr_scan", "ios": "https://dc.lft.to/lastmile_qr_scan"}, "name": "0a46e4b3fadcc6dd644be02470170a7b", "is_reserved": 0}, {"is_disabled": 0, "fusion_lon": 0.0, "fusion_lat": 0.0, "lat": 38.88688483333333, "type": "electric_scooter", "lon": -76.954804, "bike_id": "575dcb0401e7fb4c6efeb54b881cd4f4", "rental_uris": {"android": "https://dc.lft.to/lastmile_qr_scan", "ios": "https://dc.lft.to/lastmile_qr_scan"}, "name": "575dcb0401e7fb4c6efeb54b881cd4f4", "is_reserved": 0}, {"is_disabled": 0, "fusion_lon": 0.0, "fusion_lat": 0.0, "lat": 38.912137, "type": "electric_scooter", "lon": -77.03204383333333, "bike_id": "763c777cbf39a63536f5f2860cc1d91b", "rental_uris": {"android": "https://dc.lft.to/lastmile_qr_scan", "ios": "https://dc.lft.to/lastmile_qr_scan"}, "name": "763c777cbf39a63536f5f2860cc1d91b", "is_reserved": 0}, {"is_disabled": 0, "fusion_lon": 0.0, "fusion_lat": 0.0, "lat": 38.8982705, "type": "electric_scooter", "lon": -77.02965266666666, "bike_id": "c9b8fc157f52d3b004f53d46bd293f94", "rental_uris": {"android": "https://dc.lft.to/lastmile_qr_scan", "ios": "https://dc.lft.to/lastmile_qr_scan"}, "name": "c9b8fc157f52d3b004f53d46bd293f94", "is_reserved": 0}, {"is_disabled": 0, "fusion_lon": 0.0, "fusion_lat": 0.0, "lat": 38.906950333333334, "type": "electric_scooter", "lon": -77.07456983333333, "bike_id": "ea858cf2c4488198d0b077b7cec983f0", "rental_uris": {"android": "https://dc.lft.to/lastmile_qr_scan", "ios": "https://dc.lft.to/lastmile_qr_scan"}, "name": "ea858cf2c4488198d0b077b7cec983f0", "is_reserved": 0}, {"is_disabled": 0, "fusion_lon": 0.0, "fusion_lat": 0.0, "lat": 38.93425833333333, "type": "electric_scooter", "lon": -77.05840816666667, "bike_id": "5ebb9ab5fbfb394e33e415cf21bafa70", "rental_uris": {"android": "https://dc.lft.to/lastmile_qr_scan", "ios": "https://dc.lft.to/lastmile_qr_scan"}, "name": "5ebb9ab5fbfb394e33e415cf21bafa70", "is_reserved": 0}, {"is_disabled": 0, "fusion_lon": 0.0, "fusion_lat": 0.0, "lat": 38.9002, "type": "electric_scooter", "lon": -77.0437545, "bike_id": "a8707d2ada0039bcb89856c6f5a33514", "rental_uris": {"android": "https://dc.lft.to/lastmile_qr_scan", "ios": "https://dc.lft.to/lastmile_qr_scan"}, "name": "a8707d2ada0039bcb89856c6f5a33514", "is_reserved": 0}, {"is_disabled": 0, "fusion_lon": 0.0, "fusion_lat": 0.0, "lat": 38.92810683333333, "type": "electric_scooter", "lon": -77.02348066666667, "bike_id": "367ec35472c152a6899946404c22be64", "rental_uris": {"android": "https://dc.lft.to/lastmile_qr_scan", "ios": "https://dc.lft.to/lastmile_qr_scan"}, "name": "367ec35472c152a6899946404c22be64", "is_reserved": 0}, {"is_disabled": 0, "fusion_lon": 0.0, "fusion_lat": 0.0, "lat": 38.92825066666666, "type": "electric_scooter", "lon": -77.02260883333334, "bike_id": "6218a8cb310bb3a4e020bd6266585970", "rental_uris": {"android": "https://dc.lft.to/lastmile_qr_scan", "ios": "https://dc.lft.to/lastmile_qr_scan"}, "name": "6218a8cb310bb3a4e020bd6266585970", "is_reserved": 0}, {"is_disabled": 0, "fusion_lon": 0.0, "fusion_lat": 0.0, "lat": 38.944748, "type": "electric_bike", "lon": -77.00645183333333, "bike_id": "e9f2c4477c1232d34ab23b61a7a4c76a", "rental_uris": {"android": "https://dc.lft.to/lastmile_qr_scan", "ios": "https://dc.lft.to/lastmile_qr_scan"}, "name": "e9f2c4477c1232d34ab23b61a7a4c76a", "is_reserved": 0}, {"is_disabled": 0, "fusion_lon": 0.0, "fusion_lat": 0.0, "lat": 38.9181655, "type": "electric_scooter", "lon": -77.03258216666667, "bike_id": "9012c84b5ddd47bcb7f53dc48ff312a5", "rental_uris": {"android": "https://dc.lft.to/lastmile_qr_scan", "ios": "https://dc.lft.to/lastmile_qr_scan"}, "name": "9012c84b5ddd47bcb7f53dc48ff312a5", "is_reserved": 0}, {"is_disabled": 0, "fusion_lon": 0.0, "fusion_lat": 0.0, "lat": 38.9054095, "type": "electric_scooter", "lon": -77.05040833333334, "bike_id": "4d3b5b182a91bca4504da8670e21e383", "rental_uris": {"android": "https://dc.lft.to/lastmile_qr_scan", "ios": "https://dc.lft.to/lastmile_qr_scan"}, "name": "4d3b5b182a91bca4504da8670e21e383", "is_reserved": 0}, {"is_disabled": 0, "fusion_lon": 0.0, "fusion_lat": 0.0, "lat": 38.90859966666667, "type": "electric_scooter", "lon": -77.0098865, "bike_id": "61b96afa7070d3307703a897d8c69fc0", "rental_uris": {"android": "https://dc.lft.to/lastmile_qr_scan", "ios": "https://dc.lft.to/lastmile_qr_scan"}, "name": "61b96afa7070d3307703a897d8c69fc0", "is_reserved": 0}, {"is_disabled": 0, "fusion_lon": 0.0, "fusion_lat": 0.0, "lat": 38.923349333333334, "type": "electric_scooter", "lon": -77.04311333333334, "bike_id": "024f4225de2038a0b32d2ea930f50a43", "rental_uris": {"android": "https://dc.lft.to/lastmile_qr_scan", "ios": "https://dc.lft.to/lastmile_qr_scan"}, "name": "024f4225de2038a0b32d2ea930f50a43", "is_reserved": 0}, {"is_disabled": 0, "fusion_lon": 0.0, "fusion_lat": 0.0, "lat": 38.916937833333336, "type": "electric_scooter", "lon": -77.029932, "bike_id": "9df284ac6df61e5cd87a2634e4c51df6", "rental_uris": {"android": "https://dc.lft.to/lastmile_qr_scan", "ios": "https://dc.lft.to/lastmile_qr_scan"}, "name": "9df284ac6df61e5cd87a2634e4c51df6", "is_reserved": 0}, {"is_disabled": 0, "fusion_lon": 0.0, "fusion_lat": 0.0, "lat": 38.904970666666664, "type": "electric_scooter", "lon": -77.02957516666666, "bike_id": "a097eaeb6701bfb541972290f3ba07a6", "rental_uris": {"android": "https://dc.lft.to/lastmile_qr_scan", "ios": "https://dc.lft.to/lastmile_qr_scan"}, "name": "a097eaeb6701bfb541972290f3ba07a6", "is_reserved": 0}, {"is_disabled": 0, "fusion_lon": 0.0, "fusion_lat": 0.0, "lat": 38.91613433333333, "type": "electric_bike", "lon": -76.97155316666667, "bike_id": "b1df6c7f2b6c80c053d6b852844d3683", "rental_uris": {"android": "https://dc.lft.to/lastmile_qr_scan", "ios": "https://dc.lft.to/lastmile_qr_scan"}, "name": "b1df6c7f2b6c80c053d6b852844d3683", "is_reserved": 0}, {"is_disabled": 0, "fusion_lon": 0.0, "fusion_lat": 0.0, "lat": 38.883875, "type": "electric_bike", "lon": -77.01761033333334, "bike_id": "e068a4292bed4a6f17bed87a7a86952d", "rental_uris": {"android": "https://dc.lft.to/lastmile_qr_scan", "ios": "https://dc.lft.to/lastmile_qr_scan"}, "name": "e068a4292bed4a6f17bed87a7a86952d", "is_reserved": 0}, {"is_disabled": 0, "fusion_lon": 0.0, "fusion_lat": 0.0, "lat": 38.86908, "type": "electric_bike", "lon": -77.13181, "bike_id": "1d04f83d6f40c0b13a286fccdf1a5086", "rental_uris": {"android": "https://dc.lft.to/lastmile_qr_scan", "ios": "https://dc.lft.to/lastmile_qr_scan"}, "name": "1d04f83d6f40c0b13a286fccdf1a5086", "is_reserved": 0}, {"is_disabled": 0, "fusion_lon": 0.0, "fusion_lat": 0.0, "lat": 38.93554916666667, "type": "electric_bike", "lon": -77.08193366666667, "bike_id": "ed17fe91ed0b85cb95290682d656acb3", "rental_uris": {"android": "https://dc.lft.to/lastmile_qr_scan", "ios": "https://dc.lft.to/lastmile_qr_scan"}, "name": "ed17fe91ed0b85cb95290682d656acb3", "is_reserved": 0}, {"is_disabled": 0, "fusion_lon": 0.0, "fusion_lat": 0.0, "lat": 38.8850455, "type": "electric_scooter", "lon": -77.02090333333334, "bike_id": "a8ad93906d413dc6963e7480b057a175", "rental_uris": {"android": "https://dc.lft.to/lastmile_qr_scan", "ios": "https://dc.lft.to/lastmile_qr_scan"}, "name": "a8ad93906d413dc6963e7480b057a175", "is_reserved": 0}, {"is_disabled": 0, "fusion_lon": 0.0, "fusion_lat": 0.0, "lat": 38.91988683333334, "type": "electric_bike", "lon": -76.97312716666667, "bike_id": "a94d61691e3e99aab521ea5344ae7cc3", "rental_uris": {"android": "https://dc.lft.to/lastmile_qr_scan", "ios": "https://dc.lft.to/lastmile_qr_scan"}, "name": "a94d61691e3e99aab521ea5344ae7cc3", "is_reserved": 0}, {"is_disabled": 0, "fusion_lon": 0.0, "fusion_lat": 0.0, "lat": 38.89923866666667, "type": "electric_scooter", "lon": -77.02927966666667, "bike_id": "f37eb62bd272e97e7a5f6855eca72119", "rental_uris": {"android": "https://dc.lft.to/lastmile_qr_scan", "ios": "https://dc.lft.to/lastmile_qr_scan"}, "name": "f37eb62bd272e97e7a5f6855eca72119", "is_reserved": 0}, {"is_disabled": 0, "fusion_lon": 0.0, "fusion_lat": 0.0, "lat": 38.909546, "type": "electric_scooter", "lon": -77.02714033333334, "bike_id": "89890fe83913a1a7363cde502d35f202", "rental_uris": {"android": "https://dc.lft.to/lastmile_qr_scan", "ios": "https://dc.lft.to/lastmile_qr_scan"}, "name": "89890fe83913a1a7363cde502d35f202", "is_reserved": 0}, {"is_disabled": 0, "fusion_lon": 0.0, "fusion_lat": 0.0, "lat": 38.909563166666665, "type": "electric_scooter", "lon": -77.04862016666667, "bike_id": "fa7c764e466e429c2435db763423467a", "rental_uris": {"android": "https://dc.lft.to/lastmile_qr_scan", "ios": "https://dc.lft.to/lastmile_qr_scan"}, "name": "fa7c764e466e429c2435db763423467a", "is_reserved": 0}, {"is_disabled": 0, "fusion_lon": 0.0, "fusion_lat": 0.0, "lat": 38.923278833333335, "type": "electric_scooter", "lon": -77.036655, "bike_id": "31f6496cf23aebf1680c73cde6fa1108", "rental_uris": {"android": "https://dc.lft.to/lastmile_qr_scan", "ios": "https://dc.lft.to/lastmile_qr_scan"}, "name": "31f6496cf23aebf1680c73cde6fa1108", "is_reserved": 0}, {"is_disabled": 0, "fusion_lon": 0.0, "fusion_lat": 0.0, "lat": 38.88995283333333, "type": "electric_scooter", "lon": -77.048914, "bike_id": "927e2320bc726a51414e864a46bda136", "rental_uris": {"android": "https://dc.lft.to/lastmile_qr_scan", "ios": "https://dc.lft.to/lastmile_qr_scan"}, "name": "927e2320bc726a51414e864a46bda136", "is_reserved": 0}, {"is_disabled": 0, "fusion_lon": 0.0, "fusion_lat": 0.0, "lat": 38.9083175, "type": "electric_scooter", "lon": -76.9970045, "bike_id": "5fc559c0f286ed8ef75c0af31466fb3d", "rental_uris": {"android": "https://dc.lft.to/lastmile_qr_scan", "ios": "https://dc.lft.to/lastmile_qr_scan"}, "name": "5fc559c0f286ed8ef75c0af31466fb3d", "is_reserved": 0}, {"is_disabled": 0, "fusion_lon": 0.0, "fusion_lat": 0.0, "lat": 38.9088005, "type": "electric_scooter", "lon": -77.03388733333334, "bike_id": "5a6872a739204e2d8efc211c24fcafc7", "rental_uris": {"android": "https://dc.lft.to/lastmile_qr_scan", "ios": "https://dc.lft.to/lastmile_qr_scan"}, "name": "5a6872a739204e2d8efc211c24fcafc7", "is_reserved": 0}, {"is_disabled": 0, "fusion_lon": 0.0, "fusion_lat": 0.0, "lat": 38.90397383333333, "type": "electric_scooter", "lon": -77.02804283333333, "bike_id": "00a81a7a9779e5026ca3e62289f136a3", "rental_uris": {"android": "https://dc.lft.to/lastmile_qr_scan", "ios": "https://dc.lft.to/lastmile_qr_scan"}, "name": "00a81a7a9779e5026ca3e62289f136a3", "is_reserved": 0}, {"is_disabled": 0, "fusion_lon": 0.0, "fusion_lat": 0.0, "lat": 38.94922783333333, "type": "electric_bike", "lon": -77.007965, "bike_id": "5a27237640c0d1f44c93dad9976748da", "rental_uris": {"android": "https://dc.lft.to/lastmile_qr_scan", "ios": "https://dc.lft.to/lastmile_qr_scan"}, "name": "5a27237640c0d1f44c93dad9976748da", "is_reserved": 0}, {"is_disabled": 0, "fusion_lon": 0.0, "fusion_lat": 0.0, "lat": 38.8956435, "type": "electric_scooter", "lon": -77.02301733333333, "bike_id": "ae6fa0de1249f2e9bb5a7eba05d2241b", "rental_uris": {"android": "https://dc.lft.to/lastmile_qr_scan", "ios": "https://dc.lft.to/lastmile_qr_scan"}, "name": "ae6fa0de1249f2e9bb5a7eba05d2241b", "is_reserved": 0}, {"is_disabled": 0, "fusion_lon": 0.0, "fusion_lat": 0.0, "lat": 38.91603833333333, "type": "electric_scooter", "lon": -77.04012416666667, "bike_id": "57ea15a67fd1760a02cdb081842e8066", "rental_uris": {"android": "https://dc.lft.to/lastmile_qr_scan", "ios": "https://dc.lft.to/lastmile_qr_scan"}, "name": "57ea15a67fd1760a02cdb081842e8066", "is_reserved": 0}, {"is_disabled": 0, "fusion_lon": 0.0, "fusion_lat": 0.0, "lat": 38.901553166666666, "type": "electric_scooter", "lon": -77.0231135, "bike_id": "262178743e9f4ce063a29d4a19045873", "rental_uris": {"android": "https://dc.lft.to/lastmile_qr_scan", "ios": "https://dc.lft.to/lastmile_qr_scan"}, "name": "262178743e9f4ce063a29d4a19045873", "is_reserved": 0}, {"is_disabled": 0, "fusion_lon": 0.0, "fusion_lat": 0.0, "lat": 38.93307766666667, "type": "electric_scooter", "lon": -77.03267716666667, "bike_id": "90f1bc5217b824f2c4fa06ab7b3d3f43", "rental_uris": {"android": "https://dc.lft.to/lastmile_qr_scan", "ios": "https://dc.lft.to/lastmile_qr_scan"}, "name": "90f1bc5217b824f2c4fa06ab7b3d3f43", "is_reserved": 0}, {"is_disabled": 0, "fusion_lon": 0.0, "fusion_lat": 0.0, "lat": 38.89836283333333, "type": "electric_scooter", "lon": -76.946356, "bike_id": "093090289d08ed693e19afd63957cebb", "rental_uris": {"android": "https://dc.lft.to/lastmile_qr_scan", "ios": "https://dc.lft.to/lastmile_qr_scan"}, "name": "093090289d08ed693e19afd63957cebb", "is_reserved": 0}, {"is_disabled": 0, "fusion_lon": 0.0, "fusion_lat": 0.0, "lat": 38.97543066666667, "type": "electric_bike", "lon": -76.9952905, "bike_id": "f38176cab649326e156bb13095d6f478", "rental_uris": {"android": "https://dc.lft.to/lastmile_qr_scan", "ios": "https://dc.lft.to/lastmile_qr_scan"}, "name": "f38176cab649326e156bb13095d6f478", "is_reserved": 0}, {"is_disabled": 0, "fusion_lon": 0.0, "fusion_lat": 0.0, "lat": 38.9300675, "type": "electric_scooter", "lon": -77.022072, "bike_id": "6018a3965bb6c20c69e82366f6b4ebf0", "rental_uris": {"android": "https://dc.lft.to/lastmile_qr_scan", "ios": "https://dc.lft.to/lastmile_qr_scan"}, "name": "6018a3965bb6c20c69e82366f6b4ebf0", "is_reserved": 0}, {"is_disabled": 0, "fusion_lon": 0.0, "fusion_lat": 0.0, "lat": 38.91158633333333, "type": "electric_scooter", "lon": -77.02384833333333, "bike_id": "f7084379355a30ac132415388d5f30f1", "rental_uris": {"android": "https://dc.lft.to/lastmile_qr_scan", "ios": "https://dc.lft.to/lastmile_qr_scan"}, "name": "f7084379355a30ac132415388d5f30f1", "is_reserved": 0}, {"is_disabled": 0, "fusion_lon": 0.0, "fusion_lat": 0.0, "lat": 38.895039, "type": "electric_scooter", "lon": -76.9487935, "bike_id": "668e53c5c6939bcc02cd1d5b520c11cd", "rental_uris": {"android": "https://dc.lft.to/lastmile_qr_scan", "ios": "https://dc.lft.to/lastmile_qr_scan"}, "name": "668e53c5c6939bcc02cd1d5b520c11cd", "is_reserved": 0}, {"is_disabled": 0, "fusion_lon": 0.0, "fusion_lat": 0.0, "lat": 38.90671183333333, "type": "electric_scooter", "lon": -77.0090225, "bike_id": "21248540dddb10d695e126ec39163094", "rental_uris": {"android": "https://dc.lft.to/lastmile_qr_scan", "ios": "https://dc.lft.to/lastmile_qr_scan"}, "name": "21248540dddb10d695e126ec39163094", "is_reserved": 0}, {"is_disabled": 0, "fusion_lon": 0.0, "fusion_lat": 0.0, "lat": 38.91708366666667, "type": "electric_scooter", "lon": -77.033502, "bike_id": "fb06a52e138f23aae97d0c65d9687486", "rental_uris": {"android": "https://dc.lft.to/lastmile_qr_scan", "ios": "https://dc.lft.to/lastmile_qr_scan"}, "name": "fb06a52e138f23aae97d0c65d9687486", "is_reserved": 0}, {"is_disabled": 0, "fusion_lon": 0.0, "fusion_lat": 0.0, "lat": 38.9087495, "type": "electric_scooter", "lon": -77.02688916666666, "bike_id": "425a121d6df3234e182b243bce39df0d", "rental_uris": {"android": "https://dc.lft.to/lastmile_qr_scan", "ios": "https://dc.lft.to/lastmile_qr_scan"}, "name": "425a121d6df3234e182b243bce39df0d", "is_reserved": 0}, {"is_disabled": 0, "fusion_lon": 0.0, "fusion_lat": 0.0, "lat": 38.90755933333333, "type": "electric_scooter", "lon": -77.00232366666667, "bike_id": "258368351760154295db49c99b94a2e1", "rental_uris": {"android": "https://dc.lft.to/lastmile_qr_scan", "ios": "https://dc.lft.to/lastmile_qr_scan"}, "name": "258368351760154295db49c99b94a2e1", "is_reserved": 0}, {"is_disabled": 0, "fusion_lon": 0.0, "fusion_lat": 0.0, "lat": 38.911670666666666, "type": "electric_scooter", "lon": -77.02708433333333, "bike_id": "0332d863e853b17f7df01d9f0a2646c5", "rental_uris": {"android": "https://dc.lft.to/lastmile_qr_scan", "ios": "https://dc.lft.to/lastmile_qr_scan"}, "name": "0332d863e853b17f7df01d9f0a2646c5", "is_reserved": 0}, {"is_disabled": 0, "fusion_lon": 0.0, "fusion_lat": 0.0, "lat": 38.930623833333335, "type": "electric_scooter", "lon": -77.029856, "bike_id": "cb4c87c660a87e7c8ee615b1b782f913", "rental_uris": {"android": "https://dc.lft.to/lastmile_qr_scan", "ios": "https://dc.lft.to/lastmile_qr_scan"}, "name": "cb4c87c660a87e7c8ee615b1b782f913", "is_reserved": 0}, {"is_disabled": 0, "fusion_lon": 0.0, "fusion_lat": 0.0, "lat": 38.9230985, "type": "electric_scooter", "lon": -77.03917466666667, "bike_id": "39b8f10b52e6d159052d3408623cabf2", "rental_uris": {"android": "https://dc.lft.to/lastmile_qr_scan", "ios": "https://dc.lft.to/lastmile_qr_scan"}, "name": "39b8f10b52e6d159052d3408623cabf2", "is_reserved": 0}, {"is_disabled": 0, "fusion_lon": 0.0, "fusion_lat": 0.0, "lat": 38.923645666666665, "type": "electric_bike", "lon": -77.0512935, "bike_id": "e4b56872a92cfa9c13ee614e09f79fbe", "rental_uris": {"android": "https://dc.lft.to/lastmile_qr_scan", "ios": "https://dc.lft.to/lastmile_qr_scan"}, "name": "e4b56872a92cfa9c13ee614e09f79fbe", "is_reserved": 0}, {"is_disabled": 0, "fusion_lon": 0.0, "fusion_lat": 0.0, "lat": 38.942063, "type": "electric_scooter", "lon": -77.01829233333333, "bike_id": "5206e1cadecbea3c26067c44882efe05", "rental_uris": {"android": "https://dc.lft.to/lastmile_qr_scan", "ios": "https://dc.lft.to/lastmile_qr_scan"}, "name": "5206e1cadecbea3c26067c44882efe05", "is_reserved": 0}, {"is_disabled": 0, "fusion_lon": 0.0, "fusion_lat": 0.0, "lat": 38.905899833333336, "type": "electric_scooter", "lon": -77.00271, "bike_id": "351533d87b19c0363d6ef822d998d340", "rental_uris": {"android": "https://dc.lft.to/lastmile_qr_scan", "ios": "https://dc.lft.to/lastmile_qr_scan"}, "name": "351533d87b19c0363d6ef822d998d340", "is_reserved": 0}, {"is_disabled": 0, "fusion_lon": 0.0, "fusion_lat": 0.0, "lat": 38.89783766666667, "type": "electric_scooter", "lon": -76.97099983333334, "bike_id": "f80224e3b48d8cedf325eb4e260427c3", "rental_uris": {"android": "https://dc.lft.to/lastmile_qr_scan", "ios": "https://dc.lft.to/lastmile_qr_scan"}, "name": "f80224e3b48d8cedf325eb4e260427c3", "is_reserved": 0}, {"is_disabled": 0, "fusion_lon": 0.0, "fusion_lat": 0.0, "lat": 38.91203933333333, "type": "electric_scooter", "lon": -77.0008495, "bike_id": "fba38cce6a320f703ba40e725372343e", "rental_uris": {"android": "https://dc.lft.to/lastmile_qr_scan", "ios": "https://dc.lft.to/lastmile_qr_scan"}, "name": "fba38cce6a320f703ba40e725372343e", "is_reserved": 0}, {"is_disabled": 0, "fusion_lon": 0.0, "fusion_lat": 0.0, "lat": 38.944403666666666, "type": "electric_scooter", "lon": -77.060446, "bike_id": "25a20edfc83119519a114cebec8f9c3b", "rental_uris": {"android": "https://dc.lft.to/lastmile_qr_scan", "ios": "https://dc.lft.to/lastmile_qr_scan"}, "name": "25a20edfc83119519a114cebec8f9c3b", "is_reserved": 0}, {"is_disabled": 0, "fusion_lon": 0.0, "fusion_lat": 0.0, "lat": 38.911403, "type": "electric_scooter", "lon": -76.984901, "bike_id": "d5be0dfbb31700b7c2015451825d7e55", "rental_uris": {"android": "https://dc.lft.to/lastmile_qr_scan", "ios": "https://dc.lft.to/lastmile_qr_scan"}, "name": "d5be0dfbb31700b7c2015451825d7e55", "is_reserved": 0}, {"is_disabled": 0, "fusion_lon": 0.0, "fusion_lat": 0.0, "lat": 38.916413166666665, "type": "electric_scooter", "lon": -77.05063383333334, "bike_id": "f175c557face72f46f7d8c5e18da4f02", "rental_uris": {"android": "https://dc.lft.to/lastmile_qr_scan", "ios": "https://dc.lft.to/lastmile_qr_scan"}, "name": "f175c557face72f46f7d8c5e18da4f02", "is_reserved": 0}, {"is_disabled": 0, "fusion_lon": 0.0, "fusion_lat": 0.0, "lat": 38.931885, "type": "electric_scooter", "lon": -77.02836383333333, "bike_id": "e0e818ee5a305a66ed8e36fbc43560d2", "rental_uris": {"android": "https://dc.lft.to/lastmile_qr_scan", "ios": "https://dc.lft.to/lastmile_qr_scan"}, "name": "e0e818ee5a305a66ed8e36fbc43560d2", "is_reserved": 0}, {"is_disabled": 0, "fusion_lon": 0.0, "fusion_lat": 0.0, "lat": 38.897435333333334, "type": "electric_scooter", "lon": -77.01599566666667, "bike_id": "67f171821772a00dcfaf3b89e7082c6a", "rental_uris": {"android": "https://dc.lft.to/lastmile_qr_scan", "ios": "https://dc.lft.to/lastmile_qr_scan"}, "name": "67f171821772a00dcfaf3b89e7082c6a", "is_reserved": 0}, {"is_disabled": 0, "fusion_lon": 0.0, "fusion_lat": 0.0, "lat": 38.90766716666667, "type": "electric_scooter", "lon": -77.03183266666667, "bike_id": "8247ff835cdd73e098ae098c23b72a87", "rental_uris": {"android": "https://dc.lft.to/lastmile_qr_scan", "ios": "https://dc.lft.to/lastmile_qr_scan"}, "name": "8247ff835cdd73e098ae098c23b72a87", "is_reserved": 0}, {"is_disabled": 0, "fusion_lon": 0.0, "fusion_lat": 0.0, "lat": 38.90927666666666, "type": "electric_scooter", "lon": -76.99230016666667, "bike_id": "520cac5db338602a779837aab9d9c854", "rental_uris": {"android": "https://dc.lft.to/lastmile_qr_scan", "ios": "https://dc.lft.to/lastmile_qr_scan"}, "name": "520cac5db338602a779837aab9d9c854", "is_reserved": 0}, {"is_disabled": 0, "fusion_lon": 0.0, "fusion_lat": 0.0, "lat": 38.90758733333333, "type": "electric_bike", "lon": -77.04330183333333, "bike_id": "6a0c5d596d5704dd359bdf51c25cc48d", "rental_uris": {"android": "https://dc.lft.to/lastmile_qr_scan", "ios": "https://dc.lft.to/lastmile_qr_scan"}, "name": "6a0c5d596d5704dd359bdf51c25cc48d", "is_reserved": 0}, {"is_disabled": 0, "fusion_lon": 0.0, "fusion_lat": 0.0, "lat": 38.900676, "type": "electric_scooter", "lon": -77.0391925, "bike_id": "9eae3d1ce81dd473a5cd0b26e6e8f24e", "rental_uris": {"android": "https://dc.lft.to/lastmile_qr_scan", "ios": "https://dc.lft.to/lastmile_qr_scan"}, "name": "9eae3d1ce81dd473a5cd0b26e6e8f24e", "is_reserved": 0}, {"is_disabled": 0, "fusion_lon": 0.0, "fusion_lat": 0.0, "lat": 38.899693166666665, "type": "electric_scooter", "lon": -77.01620133333333, "bike_id": "61b1f9f389d5363c559b04857e1b1727", "rental_uris": {"android": "https://dc.lft.to/lastmile_qr_scan", "ios": "https://dc.lft.to/lastmile_qr_scan"}, "name": "61b1f9f389d5363c559b04857e1b1727", "is_reserved": 0}, {"is_disabled": 0, "fusion_lon": 0.0, "fusion_lat": 0.0, "lat": 38.93679216666666, "type": "electric_scooter", "lon": -77.03630283333334, "bike_id": "b3a64e530de4876227e37fc5ba574b13", "rental_uris": {"android": "https://dc.lft.to/lastmile_qr_scan", "ios": "https://dc.lft.to/lastmile_qr_scan"}, "name": "b3a64e530de4876227e37fc5ba574b13", "is_reserved": 0}, {"is_disabled": 0, "fusion_lon": 0.0, "fusion_lat": 0.0, "lat": 38.96054633333333, "type": "electric_scooter", "lon": -77.08563966666667, "bike_id": "898ef39c3878d07f841164726f87f3b9", "rental_uris": {"android": "https://dc.lft.to/lastmile_qr_scan", "ios": "https://dc.lft.to/lastmile_qr_scan"}, "name": "898ef39c3878d07f841164726f87f3b9", "is_reserved": 0}, {"is_disabled": 0, "fusion_lon": 0.0, "fusion_lat": 0.0, "lat": 38.9418955, "type": "electric_scooter", "lon": -77.04258766666666, "bike_id": "5ba7c6dac6805d076514a19048adb559", "rental_uris": {"android": "https://dc.lft.to/lastmile_qr_scan", "ios": "https://dc.lft.to/lastmile_qr_scan"}, "name": "5ba7c6dac6805d076514a19048adb559", "is_reserved": 0}, {"is_disabled": 0, "fusion_lon": 0.0, "fusion_lat": 0.0, "lat": 38.902744, "type": "electric_scooter", "lon": -77.04388033333333, "bike_id": "96bf68984dd7f564d179702fc194a7d1", "rental_uris": {"android": "https://dc.lft.to/lastmile_qr_scan", "ios": "https://dc.lft.to/lastmile_qr_scan"}, "name": "96bf68984dd7f564d179702fc194a7d1", "is_reserved": 0}, {"is_disabled": 0, "fusion_lon": 0.0, "fusion_lat": 0.0, "lat": 38.89333666666667, "type": "electric_scooter", "lon": -77.021264, "bike_id": "8b6a9d91df0be8f4f4362bf220e9cd8e", "rental_uris": {"android": "https://dc.lft.to/lastmile_qr_scan", "ios": "https://dc.lft.to/lastmile_qr_scan"}, "name": "8b6a9d91df0be8f4f4362bf220e9cd8e", "is_reserved": 0}, {"is_disabled": 0, "fusion_lon": 0.0, "fusion_lat": 0.0, "lat": 38.93131016666667, "type": "electric_scooter", "lon": -77.0220025, "bike_id": "366a4df8589d0ca710172b10f28e04e2", "rental_uris": {"android": "https://dc.lft.to/lastmile_qr_scan", "ios": "https://dc.lft.to/lastmile_qr_scan"}, "name": "366a4df8589d0ca710172b10f28e04e2", "is_reserved": 0}, {"is_disabled": 0, "fusion_lon": 0.0, "fusion_lat": 0.0, "lat": 38.905999333333334, "type": "electric_scooter", "lon": -77.01619933333333, "bike_id": "79a9e59f741a7951c156eb1df85c2dae", "rental_uris": {"android": "https://dc.lft.to/lastmile_qr_scan", "ios": "https://dc.lft.to/lastmile_qr_scan"}, "name": "79a9e59f741a7951c156eb1df85c2dae", "is_reserved": 0}, {"is_disabled": 0, "fusion_lon": 0.0, "fusion_lat": 0.0, "lat": 38.9353755, "type": "electric_scooter", "lon": -77.03412416666667, "bike_id": "d6ce9790ac161c455f8ffb45d06fad8e", "rental_uris": {"android": "https://dc.lft.to/lastmile_qr_scan", "ios": "https://dc.lft.to/lastmile_qr_scan"}, "name": "d6ce9790ac161c455f8ffb45d06fad8e", "is_reserved": 0}, {"is_disabled": 0, "fusion_lon": 0.0, "fusion_lat": 0.0, "lat": 38.923148833333336, "type": "electric_scooter", "lon": -77.03924383333333, "bike_id": "4b734df425e49db232023e6301c825dd", "rental_uris": {"android": "https://dc.lft.to/lastmile_qr_scan", "ios": "https://dc.lft.to/lastmile_qr_scan"}, "name": "4b734df425e49db232023e6301c825dd", "is_reserved": 0}, {"is_disabled": 0, "fusion_lon": 0.0, "fusion_lat": 0.0, "lat": 39.02298666666667, "type": "electric_bike", "lon": -77.02101333333333, "bike_id": "61684d42ed680ec996e81f1a28239978", "rental_uris": {"android": "https://dc.lft.to/lastmile_qr_scan", "ios": "https://dc.lft.to/lastmile_qr_scan"}, "name": "61684d42ed680ec996e81f1a28239978", "is_reserved": 0}, {"is_disabled": 0, "fusion_lon": 0.0, "fusion_lat": 0.0, "lat": 38.897583833333336, "type": "electric_scooter", "lon": -77.05144766666666, "bike_id": "ff93c0740492e0690f0716c4a3e65a01", "rental_uris": {"android": "https://dc.lft.to/lastmile_qr_scan", "ios": "https://dc.lft.to/lastmile_qr_scan"}, "name": "ff93c0740492e0690f0716c4a3e65a01", "is_reserved": 0}, {"is_disabled": 0, "fusion_lon": 0.0, "fusion_lat": 0.0, "lat": 38.89844983333333, "type": "electric_scooter", "lon": -76.94489666666666, "bike_id": "1de2decbc49d2861c1b3d13de1aa420b", "rental_uris": {"android": "https://dc.lft.to/lastmile_qr_scan", "ios": "https://dc.lft.to/lastmile_qr_scan"}, "name": "1de2decbc49d2861c1b3d13de1aa420b", "is_reserved": 0}, {"is_disabled": 0, "fusion_lon": 0.0, "fusion_lat": 0.0, "lat": 38.890433, "type": "electric_scooter", "lon": -76.93761233333333, "bike_id": "c8ce0d0fc90a811f9858c594bddd818d", "rental_uris": {"android": "https://dc.lft.to/lastmile_qr_scan", "ios": "https://dc.lft.to/lastmile_qr_scan"}, "name": "c8ce0d0fc90a811f9858c594bddd818d", "is_reserved": 0}, {"is_disabled": 0, "fusion_lon": 0.0, "fusion_lat": 0.0, "lat": 38.90767833333334, "type": "electric_scooter", "lon": -77.045126, "bike_id": "0f2c40650b87cd4dfeac11861d71319a", "rental_uris": {"android": "https://dc.lft.to/lastmile_qr_scan", "ios": "https://dc.lft.to/lastmile_qr_scan"}, "name": "0f2c40650b87cd4dfeac11861d71319a", "is_reserved": 0}, {"is_disabled": 0, "fusion_lon": 0.0, "fusion_lat": 0.0, "lat": 38.9127125, "type": "electric_scooter", "lon": -77.022264, "bike_id": "cb40e45228ab818ddac0407237adf4aa", "rental_uris": {"android": "https://dc.lft.to/lastmile_qr_scan", "ios": "https://dc.lft.to/lastmile_qr_scan"}, "name": "cb40e45228ab818ddac0407237adf4aa", "is_reserved": 0}, {"is_disabled": 0, "fusion_lon": 0.0, "fusion_lat": 0.0, "lat": 38.906629, "type": "electric_scooter", "lon": -77.04338866666667, "bike_id": "5cf322034da695f9dcdf507560284131", "rental_uris": {"android": "https://dc.lft.to/lastmile_qr_scan", "ios": "https://dc.lft.to/lastmile_qr_scan"}, "name": "5cf322034da695f9dcdf507560284131", "is_reserved": 0}, {"is_disabled": 0, "fusion_lon": 0.0, "fusion_lat": 0.0, "lat": 38.90733766666666, "type": "electric_scooter", "lon": -77.03449666666667, "bike_id": "c03d3ea9ba59916595f20f57dc268e09", "rental_uris": {"android": "https://dc.lft.to/lastmile_qr_scan", "ios": "https://dc.lft.to/lastmile_qr_scan"}, "name": "c03d3ea9ba59916595f20f57dc268e09", "is_reserved": 0}, {"is_disabled": 0, "fusion_lon": 0.0, "fusion_lat": 0.0, "lat": 38.8671355, "type": "electric_scooter", "lon": -76.98731783333334, "bike_id": "1c7f15b769671cfa412500a82b819329", "rental_uris": {"android": "https://dc.lft.to/lastmile_qr_scan", "ios": "https://dc.lft.to/lastmile_qr_scan"}, "name": "1c7f15b769671cfa412500a82b819329", "is_reserved": 0}, {"is_disabled": 0, "fusion_lon": 0.0, "fusion_lat": 0.0, "lat": 38.925726, "type": "electric_scooter", "lon": -77.03751966666667, "bike_id": "6fb5b57938fd7d7c5d5d637db7d84329", "rental_uris": {"android": "https://dc.lft.to/lastmile_qr_scan", "ios": "https://dc.lft.to/lastmile_qr_scan"}, "name": "6fb5b57938fd7d7c5d5d637db7d84329", "is_reserved": 0}, {"is_disabled": 0, "fusion_lon": 0.0, "fusion_lat": 0.0, "lat": 38.912757, "type": "electric_scooter", "lon": -77.03858083333333, "bike_id": "b18c5d236f1459e19d10dc3d8a6ab62b", "rental_uris": {"android": "https://dc.lft.to/lastmile_qr_scan", "ios": "https://dc.lft.to/lastmile_qr_scan"}, "name": "b18c5d236f1459e19d10dc3d8a6ab62b", "is_reserved": 0}, {"is_disabled": 0, "fusion_lon": 0.0, "fusion_lat": 0.0, "lat": 38.897817833333335, "type": "electric_scooter", "lon": -77.0502315, "bike_id": "8df26f88c8ad87b19fe6b782379a21f0", "rental_uris": {"android": "https://dc.lft.to/lastmile_qr_scan", "ios": "https://dc.lft.to/lastmile_qr_scan"}, "name": "8df26f88c8ad87b19fe6b782379a21f0", "is_reserved": 0}, {"is_disabled": 0, "fusion_lon": 0.0, "fusion_lat": 0.0, "lat": 38.89835133333333, "type": "electric_scooter", "lon": -76.94635433333333, "bike_id": "67e8a8e488b1827012fe0fac71436087", "rental_uris": {"android": "https://dc.lft.to/lastmile_qr_scan", "ios": "https://dc.lft.to/lastmile_qr_scan"}, "name": "67e8a8e488b1827012fe0fac71436087", "is_reserved": 0}, {"is_disabled": 0, "fusion_lon": 0.0, "fusion_lat": 0.0, "lat": 38.867010666666665, "type": "electric_scooter", "lon": -76.98716183333333, "bike_id": "e74bd99bdd0404468cb4d1ea228c2715", "rental_uris": {"android": "https://dc.lft.to/lastmile_qr_scan", "ios": "https://dc.lft.to/lastmile_qr_scan"}, "name": "e74bd99bdd0404468cb4d1ea228c2715", "is_reserved": 0}, {"is_disabled": 0, "fusion_lon": 0.0, "fusion_lat": 0.0, "lat": 38.941090833333334, "type": "electric_scooter", "lon": -77.0614305, "bike_id": "bf46cf792a867399da6f0d69696f51dc", "rental_uris": {"android": "https://dc.lft.to/lastmile_qr_scan", "ios": "https://dc.lft.to/lastmile_qr_scan"}, "name": "bf46cf792a867399da6f0d69696f51dc", "is_reserved": 0}, {"is_disabled": 0, "fusion_lon": 0.0, "fusion_lat": 0.0, "lat": 38.87913116666667, "type": "electric_scooter", "lon": -77.02200066666667, "bike_id": "06c11e0e0edfdbf09f2e110e7ef660d8", "rental_uris": {"android": "https://dc.lft.to/lastmile_qr_scan", "ios": "https://dc.lft.to/lastmile_qr_scan"}, "name": "06c11e0e0edfdbf09f2e110e7ef660d8", "is_reserved": 0}, {"is_disabled": 0, "fusion_lon": 0.0, "fusion_lat": 0.0, "lat": 38.89526816666667, "type": "electric_scooter", "lon": -76.94891966666667, "bike_id": "d6276f65d73cf387de6c5f4802274bbb", "rental_uris": {"android": "https://dc.lft.to/lastmile_qr_scan", "ios": "https://dc.lft.to/lastmile_qr_scan"}, "name": "d6276f65d73cf387de6c5f4802274bbb", "is_reserved": 0}, {"is_disabled": 0, "fusion_lon": 0.0, "fusion_lat": 0.0, "lat": 38.90036766666667, "type": "electric_scooter", "lon": -76.99637033333333, "bike_id": "5246a6fceb7125ff9d9ffb27013de514", "rental_uris": {"android": "https://dc.lft.to/lastmile_qr_scan", "ios": "https://dc.lft.to/lastmile_qr_scan"}, "name": "5246a6fceb7125ff9d9ffb27013de514", "is_reserved": 0}, {"is_disabled": 0, "fusion_lon": 0.0, "fusion_lat": 0.0, "lat": 38.91740733333334, "type": "electric_scooter", "lon": -77.04170133333334, "bike_id": "ad5975f3baab2c59e04454115324282b", "rental_uris": {"android": "https://dc.lft.to/lastmile_qr_scan", "ios": "https://dc.lft.to/lastmile_qr_scan"}, "name": "ad5975f3baab2c59e04454115324282b", "is_reserved": 0}, {"is_disabled": 0, "fusion_lon": 0.0, "fusion_lat": 0.0, "lat": 38.883355333333334, "type": "electric_scooter", "lon": -77.0163945, "bike_id": "c1b88edd92bb07ea0038c1cbbac8b884", "rental_uris": {"android": "https://dc.lft.to/lastmile_qr_scan", "ios": "https://dc.lft.to/lastmile_qr_scan"}, "name": "c1b88edd92bb07ea0038c1cbbac8b884", "is_reserved": 0}, {"is_disabled": 0, "fusion_lon": 0.0, "fusion_lat": 0.0, "lat": 38.9430265, "type": "electric_scooter", "lon": -77.0276395, "bike_id": "c8331ce9c25438da1aff9a177d078ef0", "rental_uris": {"android": "https://dc.lft.to/lastmile_qr_scan", "ios": "https://dc.lft.to/lastmile_qr_scan"}, "name": "c8331ce9c25438da1aff9a177d078ef0", "is_reserved": 0}, {"is_disabled": 0, "fusion_lon": 0.0, "fusion_lat": 0.0, "lat": 38.904926833333334, "type": "electric_scooter", "lon": -77.051385, "bike_id": "86d117f5a1d90abbb331ec8b2b4fc989", "rental_uris": {"android": "https://dc.lft.to/lastmile_qr_scan", "ios": "https://dc.lft.to/lastmile_qr_scan"}, "name": "86d117f5a1d90abbb331ec8b2b4fc989", "is_reserved": 0}, {"is_disabled": 0, "fusion_lon": 0.0, "fusion_lat": 0.0, "lat": 38.91937316666667, "type": "electric_bike", "lon": -76.97505633333333, "bike_id": "4c0eb7de738344f8cfc311bebb474d3b", "rental_uris": {"android": "https://dc.lft.to/lastmile_qr_scan", "ios": "https://dc.lft.to/lastmile_qr_scan"}, "name": "4c0eb7de738344f8cfc311bebb474d3b", "is_reserved": 0}, {"is_disabled": 0, "fusion_lon": 0.0, "fusion_lat": 0.0, "lat": 38.901105333333334, "type": "electric_scooter", "lon": -77.059836, "bike_id": "f6d078f6e2130bb0a3332955d04756c7", "rental_uris": {"android": "https://dc.lft.to/lastmile_qr_scan", "ios": "https://dc.lft.to/lastmile_qr_scan"}, "name": "f6d078f6e2130bb0a3332955d04756c7", "is_reserved": 0}, {"is_disabled": 0, "fusion_lon": 0.0, "fusion_lat": 0.0, "lat": 38.91120316666667, "type": "electric_scooter", "lon": -77.03303516666666, "bike_id": "a18f9607aa136aea9ceee61fa670af0b", "rental_uris": {"android": "https://dc.lft.to/lastmile_qr_scan", "ios": "https://dc.lft.to/lastmile_qr_scan"}, "name": "a18f9607aa136aea9ceee61fa670af0b", "is_reserved": 0}, {"is_disabled": 0, "fusion_lon": 0.0, "fusion_lat": 0.0, "lat": 38.92574533333333, "type": "electric_scooter", "lon": -76.99497183333334, "bike_id": "23b3eb222e37e1dd76d14413017ee1dc", "rental_uris": {"android": "https://dc.lft.to/lastmile_qr_scan", "ios": "https://dc.lft.to/lastmile_qr_scan"}, "name": "23b3eb222e37e1dd76d14413017ee1dc", "is_reserved": 0}, {"is_disabled": 0, "fusion_lon": 0.0, "fusion_lat": 0.0, "lat": 38.902468, "type": "electric_scooter", "lon": -77.01944583333334, "bike_id": "86c89161ce870d3276baf30d7c93911a", "rental_uris": {"android": "https://dc.lft.to/lastmile_qr_scan", "ios": "https://dc.lft.to/lastmile_qr_scan"}, "name": "86c89161ce870d3276baf30d7c93911a", "is_reserved": 0}, {"is_disabled": 0, "fusion_lon": 0.0, "fusion_lat": 0.0, "lat": 38.91802116666667, "type": "electric_scooter", "lon": -77.04037983333333, "bike_id": "f38ba0e42c481000abd4d87543286eb7", "rental_uris": {"android": "https://dc.lft.to/lastmile_qr_scan", "ios": "https://dc.lft.to/lastmile_qr_scan"}, "name": "f38ba0e42c481000abd4d87543286eb7", "is_reserved": 0}, {"is_disabled": 0, "fusion_lon": 0.0, "fusion_lat": 0.0, "lat": 38.882008, "type": "electric_bike", "lon": -77.10743816666667, "bike_id": "ea42b9bcbc22c7aa435094cd1f555c47", "rental_uris": {"android": "https://dc.lft.to/lastmile_qr_scan", "ios": "https://dc.lft.to/lastmile_qr_scan"}, "name": "ea42b9bcbc22c7aa435094cd1f555c47", "is_reserved": 0}, {"is_disabled": 0, "fusion_lon": 0.0, "fusion_lat": 0.0, "lat": 38.883457166666666, "type": "electric_scooter", "lon": -76.9417785, "bike_id": "90bb0375b44bb611bf9db9f9f5905de7", "rental_uris": {"android": "https://dc.lft.to/lastmile_qr_scan", "ios": "https://dc.lft.to/lastmile_qr_scan"}, "name": "90bb0375b44bb611bf9db9f9f5905de7", "is_reserved": 0}, {"is_disabled": 0, "fusion_lon": 0.0, "fusion_lat": 0.0, "lat": 38.899975166666664, "type": "electric_scooter", "lon": -76.9223115, "bike_id": "8cc74d000d3f092d218bb309e0f534f6", "rental_uris": {"android": "https://dc.lft.to/lastmile_qr_scan", "ios": "https://dc.lft.to/lastmile_qr_scan"}, "name": "8cc74d000d3f092d218bb309e0f534f6", "is_reserved": 0}, {"is_disabled": 0, "fusion_lon": 0.0, "fusion_lat": 0.0, "lat": 38.91819783333333, "type": "electric_scooter", "lon": -77.01020666666666, "bike_id": "2812470431efe1759244321b168a21da", "rental_uris": {"android": "https://dc.lft.to/lastmile_qr_scan", "ios": "https://dc.lft.to/lastmile_qr_scan"}, "name": "2812470431efe1759244321b168a21da", "is_reserved": 0}, {"is_disabled": 0, "fusion_lon": 0.0, "fusion_lat": 0.0, "lat": 38.91050633333333, "type": "electric_scooter", "lon": -77.04347116666666, "bike_id": "c6efa0c6d5c5250391b5020f83035137", "rental_uris": {"android": "https://dc.lft.to/lastmile_qr_scan", "ios": "https://dc.lft.to/lastmile_qr_scan"}, "name": "c6efa0c6d5c5250391b5020f83035137", "is_reserved": 0}, {"is_disabled": 0, "fusion_lon": 0.0, "fusion_lat": 0.0, "lat": 38.852054, "type": "electric_bike", "lon": -77.10136083333333, "bike_id": "bf646a667bb4d30563076836e1c584be", "rental_uris": {"android": "https://dc.lft.to/lastmile_qr_scan", "ios": "https://dc.lft.to/lastmile_qr_scan"}, "name": "bf646a667bb4d30563076836e1c584be", "is_reserved": 0}, {"is_disabled": 0, "fusion_lon": 0.0, "fusion_lat": 0.0, "lat": 38.89878933333333, "type": "electric_scooter", "lon": -76.93185133333333, "bike_id": "2c16a7d87da54e97670cb4a35c6d5713", "rental_uris": {"android": "https://dc.lft.to/lastmile_qr_scan", "ios": "https://dc.lft.to/lastmile_qr_scan"}, "name": "2c16a7d87da54e97670cb4a35c6d5713", "is_reserved": 0}, {"is_disabled": 0, "fusion_lon": 0.0, "fusion_lat": 0.0, "lat": 38.91039633333333, "type": "electric_scooter", "lon": -77.040656, "bike_id": "20394ebda58df693f2d650299fd2d4c7", "rental_uris": {"android": "https://dc.lft.to/lastmile_qr_scan", "ios": "https://dc.lft.to/lastmile_qr_scan"}, "name": "20394ebda58df693f2d650299fd2d4c7", "is_reserved": 0}, {"is_disabled": 0, "fusion_lon": 0.0, "fusion_lat": 0.0, "lat": 38.81929066666667, "type": "electric_bike", "lon": -77.00231833333333, "bike_id": "1577a5528204b6586e0645fbb61b2679", "rental_uris": {"android": "https://dc.lft.to/lastmile_qr_scan", "ios": "https://dc.lft.to/lastmile_qr_scan"}, "name": "1577a5528204b6586e0645fbb61b2679", "is_reserved": 0}, {"is_disabled": 0, "fusion_lon": 0.0, "fusion_lat": 0.0, "lat": 38.926285, "type": "electric_scooter", "lon": -77.05709216666666, "bike_id": "45cc72815484bea701f2b020727ec1d8", "rental_uris": {"android": "https://dc.lft.to/lastmile_qr_scan", "ios": "https://dc.lft.to/lastmile_qr_scan"}, "name": "45cc72815484bea701f2b020727ec1d8", "is_reserved": 0}, {"is_disabled": 0, "fusion_lon": 0.0, "fusion_lat": 0.0, "lat": 38.905027833333335, "type": "electric_scooter", "lon": -76.98851, "bike_id": "bc4c4da45c9ceb28e19801ef24648a36", "rental_uris": {"android": "https://dc.lft.to/lastmile_qr_scan", "ios": "https://dc.lft.to/lastmile_qr_scan"}, "name": "bc4c4da45c9ceb28e19801ef24648a36", "is_reserved": 0}, {"is_disabled": 0, "fusion_lon": 0.0, "fusion_lat": 0.0, "lat": 38.952906166666665, "type": "electric_scooter", "lon": -77.0686775, "bike_id": "12bf336601eaec315d07c60e1763ae02", "rental_uris": {"android": "https://dc.lft.to/lastmile_qr_scan", "ios": "https://dc.lft.to/lastmile_qr_scan"}, "name": "12bf336601eaec315d07c60e1763ae02", "is_reserved": 0}, {"is_disabled": 0, "fusion_lon": 0.0, "fusion_lat": 0.0, "lat": 38.88764716666667, "type": "electric_scooter", "lon": -76.95673133333334, "bike_id": "07157229e929e7e11027832fc5ae3b4c", "rental_uris": {"android": "https://dc.lft.to/lastmile_qr_scan", "ios": "https://dc.lft.to/lastmile_qr_scan"}, "name": "07157229e929e7e11027832fc5ae3b4c", "is_reserved": 0}, {"is_disabled": 0, "fusion_lon": 0.0, "fusion_lat": 0.0, "lat": 38.9111545, "type": "electric_scooter", "lon": -77.0383585, "bike_id": "f6d98b674d88f31b7902a06ae20947da", "rental_uris": {"android": "https://dc.lft.to/lastmile_qr_scan", "ios": "https://dc.lft.to/lastmile_qr_scan"}, "name": "f6d98b674d88f31b7902a06ae20947da", "is_reserved": 0}, {"is_disabled": 0, "fusion_lon": 0.0, "fusion_lat": 0.0, "lat": 38.904216166666664, "type": "electric_scooter", "lon": -76.9851295, "bike_id": "0369baaa94bdb10ffc4eb2d34e3f3871", "rental_uris": {"android": "https://dc.lft.to/lastmile_qr_scan", "ios": "https://dc.lft.to/lastmile_qr_scan"}, "name": "0369baaa94bdb10ffc4eb2d34e3f3871", "is_reserved": 0}, {"is_disabled": 0, "fusion_lon": 0.0, "fusion_lat": 0.0, "lat": 38.90028816666667, "type": "electric_scooter", "lon": -76.99829183333334, "bike_id": "e990c9fe1678872c5f0db40d5ea11d31", "rental_uris": {"android": "https://dc.lft.to/lastmile_qr_scan", "ios": "https://dc.lft.to/lastmile_qr_scan"}, "name": "e990c9fe1678872c5f0db40d5ea11d31", "is_reserved": 0}, {"is_disabled": 0, "fusion_lon": 0.0, "fusion_lat": 0.0, "lat": 38.959610833333336, "type": "electric_bike", "lon": -76.98169816666666, "bike_id": "029d11474ffe281d91d59f2d05b80dca", "rental_uris": {"android": "https://dc.lft.to/lastmile_qr_scan", "ios": "https://dc.lft.to/lastmile_qr_scan"}, "name": "029d11474ffe281d91d59f2d05b80dca", "is_reserved": 0}, {"is_disabled": 0, "fusion_lon": 0.0, "fusion_lat": 0.0, "lat": 38.88729766666667, "type": "electric_scooter", "lon": -77.02834, "bike_id": "f9f2acb3f47e0c5c9c3275e346199b63", "rental_uris": {"android": "https://dc.lft.to/lastmile_qr_scan", "ios": "https://dc.lft.to/lastmile_qr_scan"}, "name": "f9f2acb3f47e0c5c9c3275e346199b63", "is_reserved": 0}, {"is_disabled": 0, "fusion_lon": 0.0, "fusion_lat": 0.0, "lat": 38.924477333333336, "type": "electric_bike", "lon": -76.9683815, "bike_id": "70946ee2a65cbed6f8898d45e6923193", "rental_uris": {"android": "https://dc.lft.to/lastmile_qr_scan", "ios": "https://dc.lft.to/lastmile_qr_scan"}, "name": "70946ee2a65cbed6f8898d45e6923193", "is_reserved": 0}, {"is_disabled": 0, "fusion_lon": 0.0, "fusion_lat": 0.0, "lat": 38.9002835, "type": "electric_scooter", "lon": -77.00204183333334, "bike_id": "bca5b0fca8a995961266fa7c2a0f784a", "rental_uris": {"android": "https://dc.lft.to/lastmile_qr_scan", "ios": "https://dc.lft.to/lastmile_qr_scan"}, "name": "bca5b0fca8a995961266fa7c2a0f784a", "is_reserved": 0}, {"is_disabled": 0, "fusion_lon": 0.0, "fusion_lat": 0.0, "lat": 38.923806166666665, "type": "electric_scooter", "lon": -77.0313455, "bike_id": "d5402103884a5f469496238886328d1c", "rental_uris": {"android": "https://dc.lft.to/lastmile_qr_scan", "ios": "https://dc.lft.to/lastmile_qr_scan"}, "name": "d5402103884a5f469496238886328d1c", "is_reserved": 0}, {"is_disabled": 0, "fusion_lon": 0.0, "fusion_lat": 0.0, "lat": 38.90941566666667, "type": "electric_scooter", "lon": -77.03214783333334, "bike_id": "acd6cc4d5ca96f92044ac25ba21eb645", "rental_uris": {"android": "https://dc.lft.to/lastmile_qr_scan", "ios": "https://dc.lft.to/lastmile_qr_scan"}, "name": "acd6cc4d5ca96f92044ac25ba21eb645", "is_reserved": 0}, {"is_disabled": 0, "fusion_lon": 0.0, "fusion_lat": 0.0, "lat": 38.925526, "type": "electric_scooter", "lon": -77.03309116666667, "bike_id": "ee71e0f34a6763cb3d2d5589416869b4", "rental_uris": {"android": "https://dc.lft.to/lastmile_qr_scan", "ios": "https://dc.lft.to/lastmile_qr_scan"}, "name": "ee71e0f34a6763cb3d2d5589416869b4", "is_reserved": 0}, {"is_disabled": 0, "fusion_lon": 0.0, "fusion_lat": 0.0, "lat": 38.8937385, "type": "electric_scooter", "lon": -76.9499605, "bike_id": "1ce54dbef007b1632d53468b8ef287db", "rental_uris": {"android": "https://dc.lft.to/lastmile_qr_scan", "ios": "https://dc.lft.to/lastmile_qr_scan"}, "name": "1ce54dbef007b1632d53468b8ef287db", "is_reserved": 0}, {"is_disabled": 0, "fusion_lon": 0.0, "fusion_lat": 0.0, "lat": 38.93632233333334, "type": "electric_scooter", "lon": -77.03263883333334, "bike_id": "cd021115d1e159f837f4b84af7c45247", "rental_uris": {"android": "https://dc.lft.to/lastmile_qr_scan", "ios": "https://dc.lft.to/lastmile_qr_scan"}, "name": "cd021115d1e159f837f4b84af7c45247", "is_reserved": 0}, {"is_disabled": 0, "fusion_lon": 0.0, "fusion_lat": 0.0, "lat": 38.924439, "type": "electric_scooter", "lon": -77.04028233333334, "bike_id": "80a3f8397d97a1a07eb969d45efe4d5d", "rental_uris": {"android": "https://dc.lft.to/lastmile_qr_scan", "ios": "https://dc.lft.to/lastmile_qr_scan"}, "name": "80a3f8397d97a1a07eb969d45efe4d5d", "is_reserved": 0}, {"is_disabled": 0, "fusion_lon": 0.0, "fusion_lat": 0.0, "lat": 38.88756133333333, "type": "electric_bike", "lon": -76.900908, "bike_id": "cb289e0a031cda30329b57d63ba90fb4", "rental_uris": {"android": "https://dc.lft.to/lastmile_qr_scan", "ios": "https://dc.lft.to/lastmile_qr_scan"}, "name": "cb289e0a031cda30329b57d63ba90fb4", "is_reserved": 0}, {"is_disabled": 0, "fusion_lon": 0.0, "fusion_lat": 0.0, "lat": 39.105659333333335, "type": "electric_bike", "lon": -77.15268183333333, "bike_id": "5e708f2b680db6aeb3618d46a5e04b55", "rental_uris": {"android": "https://dc.lft.to/lastmile_qr_scan", "ios": "https://dc.lft.to/lastmile_qr_scan"}, "name": "5e708f2b680db6aeb3618d46a5e04b55", "is_reserved": 0}, {"is_disabled": 0, "fusion_lon": 0.0, "fusion_lat": 0.0, "lat": 38.904108, "type": "electric_scooter", "lon": -77.02585816666667, "bike_id": "132829bfe615419d2adcd652de79e5b7", "rental_uris": {"android": "https://dc.lft.to/lastmile_qr_scan", "ios": "https://dc.lft.to/lastmile_qr_scan"}, "name": "132829bfe615419d2adcd652de79e5b7", "is_reserved": 0}, {"is_disabled": 0, "fusion_lon": 0.0, "fusion_lat": 0.0, "lat": 38.9255015, "type": "electric_scooter", "lon": -77.05298616666667, "bike_id": "35848d6eebaa516c3a7c56a604d9ecb5", "rental_uris": {"android": "https://dc.lft.to/lastmile_qr_scan", "ios": "https://dc.lft.to/lastmile_qr_scan"}, "name": "35848d6eebaa516c3a7c56a604d9ecb5", "is_reserved": 0}, {"is_disabled": 0, "fusion_lon": 0.0, "fusion_lat": 0.0, "lat": 38.934885, "type": "electric_scooter", "lon": -77.03287016666667, "bike_id": "40ebbe9d5f38d3ee57b3b93a413d542e", "rental_uris": {"android": "https://dc.lft.to/lastmile_qr_scan", "ios": "https://dc.lft.to/lastmile_qr_scan"}, "name": "40ebbe9d5f38d3ee57b3b93a413d542e", "is_reserved": 0}, {"is_disabled": 0, "fusion_lon": 0.0, "fusion_lat": 0.0, "lat": 39.0002125, "type": "electric_bike", "lon": -76.87285133333333, "bike_id": "e0bb4a7130186ca5cc8cbf365675b6a3", "rental_uris": {"android": "https://dc.lft.to/lastmile_qr_scan", "ios": "https://dc.lft.to/lastmile_qr_scan"}, "name": "e0bb4a7130186ca5cc8cbf365675b6a3", "is_reserved": 0}, {"is_disabled": 0, "fusion_lon": 0.0, "fusion_lat": 0.0, "lat": 38.90174616666667, "type": "electric_scooter", "lon": -77.02204533333334, "bike_id": "de51d0bcff4e64bf2c035d27ff50f151", "rental_uris": {"android": "https://dc.lft.to/lastmile_qr_scan", "ios": "https://dc.lft.to/lastmile_qr_scan"}, "name": "de51d0bcff4e64bf2c035d27ff50f151", "is_reserved": 0}, {"is_disabled": 0, "fusion_lon": 0.0, "fusion_lat": 0.0, "lat": 38.91712116666667, "type": "electric_scooter", "lon": -77.02845466666666, "bike_id": "ee54a137e602aea275ebc5c63c6f7394", "rental_uris": {"android": "https://dc.lft.to/lastmile_qr_scan", "ios": "https://dc.lft.to/lastmile_qr_scan"}, "name": "ee54a137e602aea275ebc5c63c6f7394", "is_reserved": 0}, {"is_disabled": 0, "fusion_lon": 0.0, "fusion_lat": 0.0, "lat": 38.918192833333336, "type": "electric_scooter", "lon": -77.0401195, "bike_id": "f7913b8d301fdf349a9554aeff8f03d4", "rental_uris": {"android": "https://dc.lft.to/lastmile_qr_scan", "ios": "https://dc.lft.to/lastmile_qr_scan"}, "name": "f7913b8d301fdf349a9554aeff8f03d4", "is_reserved": 0}, {"is_disabled": 0, "fusion_lon": 0.0, "fusion_lat": 0.0, "lat": 38.828737333333336, "type": "electric_bike", "lon": -77.11218883333333, "bike_id": "7dcb6b82d6ff027c1723985710cec8f9", "rental_uris": {"android": "https://dc.lft.to/lastmile_qr_scan", "ios": "https://dc.lft.to/lastmile_qr_scan"}, "name": "7dcb6b82d6ff027c1723985710cec8f9", "is_reserved": 0}, {"is_disabled": 0, "fusion_lon": 0.0, "fusion_lat": 0.0, "lat": 38.902659166666666, "type": "electric_scooter", "lon": -77.0609875, "bike_id": "51a9853636169d114f6069b12219e2af", "rental_uris": {"android": "https://dc.lft.to/lastmile_qr_scan", "ios": "https://dc.lft.to/lastmile_qr_scan"}, "name": "51a9853636169d114f6069b12219e2af", "is_reserved": 0}, {"is_disabled": 0, "fusion_lon": 0.0, "fusion_lat": 0.0, "lat": 38.91548566666667, "type": "electric_scooter", "lon": -77.03851766666666, "bike_id": "b3031cd150c1d0efd0bee7dfea154690", "rental_uris": {"android": "https://dc.lft.to/lastmile_qr_scan", "ios": "https://dc.lft.to/lastmile_qr_scan"}, "name": "b3031cd150c1d0efd0bee7dfea154690", "is_reserved": 0}, {"is_disabled": 0, "fusion_lon": 0.0, "fusion_lat": 0.0, "lat": 38.897374, "type": "electric_scooter", "lon": -77.0217145, "bike_id": "724c9dc10e643bbc44f443c1f5f47128", "rental_uris": {"android": "https://dc.lft.to/lastmile_qr_scan", "ios": "https://dc.lft.to/lastmile_qr_scan"}, "name": "724c9dc10e643bbc44f443c1f5f47128", "is_reserved": 0}, {"is_disabled": 0, "fusion_lon": 0.0, "fusion_lat": 0.0, "lat": 38.89976133333333, "type": "electric_scooter", "lon": -77.01625083333333, "bike_id": "6823416ca3fe478e1e16af39d4d8403a", "rental_uris": {"android": "https://dc.lft.to/lastmile_qr_scan", "ios": "https://dc.lft.to/lastmile_qr_scan"}, "name": "6823416ca3fe478e1e16af39d4d8403a", "is_reserved": 0}, {"is_disabled": 0, "fusion_lon": 0.0, "fusion_lat": 0.0, "lat": 38.8787595, "type": "electric_scooter", "lon": -77.01950333333333, "bike_id": "92be0072df18fadb332f97ab5be260b8", "rental_uris": {"android": "https://dc.lft.to/lastmile_qr_scan", "ios": "https://dc.lft.to/lastmile_qr_scan"}, "name": "92be0072df18fadb332f97ab5be260b8", "is_reserved": 0}, {"is_disabled": 0, "fusion_lon": 0.0, "fusion_lat": 0.0, "lat": 39.0526745, "type": "electric_bike", "lon": -77.04386433333333, "bike_id": "5a079c52e316aefeb85893f66e839719", "rental_uris": {"android": "https://dc.lft.to/lastmile_qr_scan", "ios": "https://dc.lft.to/lastmile_qr_scan"}, "name": "5a079c52e316aefeb85893f66e839719", "is_reserved": 0}, {"is_disabled": 0, "fusion_lon": 0.0, "fusion_lat": 0.0, "lat": 38.909545666666666, "type": "electric_scooter", "lon": -77.03963066666667, "bike_id": "0cf73201e3c55cbafc883f9319e881bb", "rental_uris": {"android": "https://dc.lft.to/lastmile_qr_scan", "ios": "https://dc.lft.to/lastmile_qr_scan"}, "name": "0cf73201e3c55cbafc883f9319e881bb", "is_reserved": 0}, {"is_disabled": 0, "fusion_lon": 0.0, "fusion_lat": 0.0, "lat": 38.91703416666667, "type": "electric_bike", "lon": -77.09561966666666, "bike_id": "ccd9b8be51bc820b60b6fe18bced0a66", "rental_uris": {"android": "https://dc.lft.to/lastmile_qr_scan", "ios": "https://dc.lft.to/lastmile_qr_scan"}, "name": "ccd9b8be51bc820b60b6fe18bced0a66", "is_reserved": 0}, {"is_disabled": 0, "fusion_lon": 0.0, "fusion_lat": 0.0, "lat": 38.9336555, "type": "electric_scooter", "lon": -77.05748533333333, "bike_id": "80a926f2cf7c06f93e0a5a795420362f", "rental_uris": {"android": "https://dc.lft.to/lastmile_qr_scan", "ios": "https://dc.lft.to/lastmile_qr_scan"}, "name": "80a926f2cf7c06f93e0a5a795420362f", "is_reserved": 0}, {"is_disabled": 0, "fusion_lon": 0.0, "fusion_lat": 0.0, "lat": 38.9489305, "type": "electric_bike", "lon": -76.96371483333333, "bike_id": "a7eb5e006ff801fa9740763193d60f2e", "rental_uris": {"android": "https://dc.lft.to/lastmile_qr_scan", "ios": "https://dc.lft.to/lastmile_qr_scan"}, "name": "a7eb5e006ff801fa9740763193d60f2e", "is_reserved": 0}, {"is_disabled": 0, "fusion_lon": 0.0, "fusion_lat": 0.0, "lat": 38.93415683333333, "type": "electric_scooter", "lon": -77.01968533333333, "bike_id": "d3a86cec21d38f0a3146bff7f5327e75", "rental_uris": {"android": "https://dc.lft.to/lastmile_qr_scan", "ios": "https://dc.lft.to/lastmile_qr_scan"}, "name": "d3a86cec21d38f0a3146bff7f5327e75", "is_reserved": 0}, {"is_disabled": 0, "fusion_lon": 0.0, "fusion_lat": 0.0, "lat": 38.9281525, "type": "electric_scooter", "lon": -77.02350733333333, "bike_id": "1ad88e4e68f74a9f82f3c092d8381540", "rental_uris": {"android": "https://dc.lft.to/lastmile_qr_scan", "ios": "https://dc.lft.to/lastmile_qr_scan"}, "name": "1ad88e4e68f74a9f82f3c092d8381540", "is_reserved": 0}, {"is_disabled": 0, "fusion_lon": 0.0, "fusion_lat": 0.0, "lat": 38.924940666666664, "type": "electric_scooter", "lon": -77.0393275, "bike_id": "c4ce1918dac81bd15ca9ec6eb0a1fbb3", "rental_uris": {"android": "https://dc.lft.to/lastmile_qr_scan", "ios": "https://dc.lft.to/lastmile_qr_scan"}, "name": "c4ce1918dac81bd15ca9ec6eb0a1fbb3", "is_reserved": 0}, {"is_disabled": 0, "fusion_lon": 0.0, "fusion_lat": 0.0, "lat": 38.90770066666666, "type": "electric_scooter", "lon": -77.031919, "bike_id": "8632b42820af7e7f7bd9b825672ed4c5", "rental_uris": {"android": "https://dc.lft.to/lastmile_qr_scan", "ios": "https://dc.lft.to/lastmile_qr_scan"}, "name": "8632b42820af7e7f7bd9b825672ed4c5", "is_reserved": 0}, {"is_disabled": 0, "fusion_lon": 0.0, "fusion_lat": 0.0, "lat": 38.933332, "type": "electric_bike", "lon": -77.04217333333334, "bike_id": "f38e0d7b51a08b6d513099a99accec82", "rental_uris": {"android": "https://dc.lft.to/lastmile_qr_scan", "ios": "https://dc.lft.to/lastmile_qr_scan"}, "name": "f38e0d7b51a08b6d513099a99accec82", "is_reserved": 0}, {"is_disabled": 0, "fusion_lon": 0.0, "fusion_lat": 0.0, "lat": 38.94625516666667, "type": "electric_scooter", "lon": -77.03627416666667, "bike_id": "b7b308bf8d6b7d74543ae843c9b08329", "rental_uris": {"android": "https://dc.lft.to/lastmile_qr_scan", "ios": "https://dc.lft.to/lastmile_qr_scan"}, "name": "b7b308bf8d6b7d74543ae843c9b08329", "is_reserved": 0}, {"is_disabled": 0, "fusion_lon": 0.0, "fusion_lat": 0.0, "lat": 38.931019666666664, "type": "electric_scooter", "lon": -77.026706, "bike_id": "5d9fcb89c1dc10e7024d0268f8a34c70", "rental_uris": {"android": "https://dc.lft.to/lastmile_qr_scan", "ios": "https://dc.lft.to/lastmile_qr_scan"}, "name": "5d9fcb89c1dc10e7024d0268f8a34c70", "is_reserved": 0}, {"is_disabled": 0, "fusion_lon": 0.0, "fusion_lat": 0.0, "lat": 38.86700316666666, "type": "electric_scooter", "lon": -76.98714033333333, "bike_id": "320da3981caeee181eebbbeaa094e9b4", "rental_uris": {"android": "https://dc.lft.to/lastmile_qr_scan", "ios": "https://dc.lft.to/lastmile_qr_scan"}, "name": "320da3981caeee181eebbbeaa094e9b4", "is_reserved": 0}, {"is_disabled": 0, "fusion_lon": 0.0, "fusion_lat": 0.0, "lat": 38.92028616666666, "type": "electric_scooter", "lon": -77.0315245, "bike_id": "9d2741dcbc3ee7c4046de791928c92a6", "rental_uris": {"android": "https://dc.lft.to/lastmile_qr_scan", "ios": "https://dc.lft.to/lastmile_qr_scan"}, "name": "9d2741dcbc3ee7c4046de791928c92a6", "is_reserved": 0}, {"is_disabled": 0, "fusion_lon": 0.0, "fusion_lat": 0.0, "lat": 38.90384933333333, "type": "electric_scooter", "lon": -77.030272, "bike_id": "53ad8c9c37efb49f7ab062f8463bebc2", "rental_uris": {"android": "https://dc.lft.to/lastmile_qr_scan", "ios": "https://dc.lft.to/lastmile_qr_scan"}, "name": "53ad8c9c37efb49f7ab062f8463bebc2", "is_reserved": 0}, {"is_disabled": 0, "fusion_lon": 0.0, "fusion_lat": 0.0, "lat": 38.8691095, "type": "electric_scooter", "lon": -77.01377, "bike_id": "57861c8d4100ee337622e1dc6b438f18", "rental_uris": {"android": "https://dc.lft.to/lastmile_qr_scan", "ios": "https://dc.lft.to/lastmile_qr_scan"}, "name": "57861c8d4100ee337622e1dc6b438f18", "is_reserved": 0}, {"is_disabled": 0, "fusion_lon": 0.0, "fusion_lat": 0.0, "lat": 38.93188983333334, "type": "electric_scooter", "lon": -77.028359, "bike_id": "2665d519fc09d481061a582ed512f026", "rental_uris": {"android": "https://dc.lft.to/lastmile_qr_scan", "ios": "https://dc.lft.to/lastmile_qr_scan"}, "name": "2665d519fc09d481061a582ed512f026", "is_reserved": 0}, {"is_disabled": 0, "fusion_lon": 0.0, "fusion_lat": 0.0, "lat": 38.916321333333336, "type": "electric_scooter", "lon": -77.03155666666666, "bike_id": "360cac6ef05ebcac4aaa0ef8153fda12", "rental_uris": {"android": "https://dc.lft.to/lastmile_qr_scan", "ios": "https://dc.lft.to/lastmile_qr_scan"}, "name": "360cac6ef05ebcac4aaa0ef8153fda12", "is_reserved": 0}, {"is_disabled": 0, "fusion_lon": 0.0, "fusion_lat": 0.0, "lat": 38.929657166666665, "type": "electric_scooter", "lon": -77.04205483333334, "bike_id": "ddbe46e6dfdcb2ad8264a464edb8bf69", "rental_uris": {"android": "https://dc.lft.to/lastmile_qr_scan", "ios": "https://dc.lft.to/lastmile_qr_scan"}, "name": "ddbe46e6dfdcb2ad8264a464edb8bf69", "is_reserved": 0}, {"is_disabled": 0, "fusion_lon": 0.0, "fusion_lat": 0.0, "lat": 38.877756166666664, "type": "electric_scooter", "lon": -77.01437633333333, "bike_id": "5cc8b6ae514b446a79afea3b20e68e93", "rental_uris": {"android": "https://dc.lft.to/lastmile_qr_scan", "ios": "https://dc.lft.to/lastmile_qr_scan"}, "name": "5cc8b6ae514b446a79afea3b20e68e93", "is_reserved": 0}, {"is_disabled": 0, "fusion_lon": 0.0, "fusion_lat": 0.0, "lat": 38.900371166666666, "type": "electric_scooter", "lon": -77.00737316666667, "bike_id": "c688568c1006ca0465156fe25458471d", "rental_uris": {"android": "https://dc.lft.to/lastmile_qr_scan", "ios": "https://dc.lft.to/lastmile_qr_scan"}, "name": "c688568c1006ca0465156fe25458471d", "is_reserved": 0}, {"is_disabled": 0, "fusion_lon": 0.0, "fusion_lat": 0.0, "lat": 38.91811933333334, "type": "electric_scooter", "lon": -77.041576, "bike_id": "48153c6be9c8a02f2ea883ec9439de24", "rental_uris": {"android": "https://dc.lft.to/lastmile_qr_scan", "ios": "https://dc.lft.to/lastmile_qr_scan"}, "name": "48153c6be9c8a02f2ea883ec9439de24", "is_reserved": 0}, {"is_disabled": 0, "fusion_lon": 0.0, "fusion_lat": 0.0, "lat": 38.9260255, "type": "electric_scooter", "lon": -77.02156916666667, "bike_id": "6a64b1bf07b8fdc445953164f800ef6a", "rental_uris": {"android": "https://dc.lft.to/lastmile_qr_scan", "ios": "https://dc.lft.to/lastmile_qr_scan"}, "name": "6a64b1bf07b8fdc445953164f800ef6a", "is_reserved": 0}, {"is_disabled": 0, "fusion_lon": 0.0, "fusion_lat": 0.0, "lat": 38.848818333333334, "type": "electric_scooter", "lon": -77.005174, "bike_id": "6e024d6debdb7f021e274c5e8cedc5d9", "rental_uris": {"android": "https://dc.lft.to/lastmile_qr_scan", "ios": "https://dc.lft.to/lastmile_qr_scan"}, "name": "6e024d6debdb7f021e274c5e8cedc5d9", "is_reserved": 0}, {"is_disabled": 0, "fusion_lon": 0.0, "fusion_lat": 0.0, "lat": 38.8964715, "type": "electric_scooter", "lon": -77.0433765, "bike_id": "3f4750a8d92fb4c1a54f761f62b84177", "rental_uris": {"android": "https://dc.lft.to/lastmile_qr_scan", "ios": "https://dc.lft.to/lastmile_qr_scan"}, "name": "3f4750a8d92fb4c1a54f761f62b84177", "is_reserved": 0}, {"is_disabled": 0, "fusion_lon": 0.0, "fusion_lat": 0.0, "lat": 38.981365, "type": "electric_bike", "lon": -77.00769333333334, "bike_id": "f1e5027503e960692e051f3ade0f0386", "rental_uris": {"android": "https://dc.lft.to/lastmile_qr_scan", "ios": "https://dc.lft.to/lastmile_qr_scan"}, "name": "f1e5027503e960692e051f3ade0f0386", "is_reserved": 0}, {"is_disabled": 0, "fusion_lon": 0.0, "fusion_lat": 0.0, "lat": 38.913096, "type": "electric_bike", "lon": -77.0217185, "bike_id": "c9b2b7c90f6e6130da6d21d780d44b90", "rental_uris": {"android": "https://dc.lft.to/lastmile_qr_scan", "ios": "https://dc.lft.to/lastmile_qr_scan"}, "name": "c9b2b7c90f6e6130da6d21d780d44b90", "is_reserved": 0}, {"is_disabled": 0, "fusion_lon": 0.0, "fusion_lat": 0.0, "lat": 38.96762433333333, "type": "electric_bike", "lon": -77.09162633333334, "bike_id": "00e79c80a4c69cc2bd61663195339954", "rental_uris": {"android": "https://dc.lft.to/lastmile_qr_scan", "ios": "https://dc.lft.to/lastmile_qr_scan"}, "name": "00e79c80a4c69cc2bd61663195339954", "is_reserved": 0}, {"is_disabled": 0, "fusion_lon": 0.0, "fusion_lat": 0.0, "lat": 38.9126435, "type": "electric_scooter", "lon": -77.04778366666666, "bike_id": "2a3ff0f26012272fa7941d378f9455b6", "rental_uris": {"android": "https://dc.lft.to/lastmile_qr_scan", "ios": "https://dc.lft.to/lastmile_qr_scan"}, "name": "2a3ff0f26012272fa7941d378f9455b6", "is_reserved": 0}, {"is_disabled": 0, "fusion_lon": 0.0, "fusion_lat": 0.0, "lat": 38.9282765, "type": "electric_scooter", "lon": -77.02254433333333, "bike_id": "2c34a444a36c81ae85b9057121358a56", "rental_uris": {"android": "https://dc.lft.to/lastmile_qr_scan", "ios": "https://dc.lft.to/lastmile_qr_scan"}, "name": "2c34a444a36c81ae85b9057121358a56", "is_reserved": 0}, {"is_disabled": 0, "fusion_lon": 0.0, "fusion_lat": 0.0, "lat": 38.90134366666667, "type": "electric_scooter", "lon": -77.01198733333334, "bike_id": "a39248693e290f8daf18baecc2177344", "rental_uris": {"android": "https://dc.lft.to/lastmile_qr_scan", "ios": "https://dc.lft.to/lastmile_qr_scan"}, "name": "a39248693e290f8daf18baecc2177344", "is_reserved": 0}, {"is_disabled": 0, "fusion_lon": 0.0, "fusion_lat": 0.0, "lat": 38.91265383333333, "type": "electric_scooter", "lon": -77.0169635, "bike_id": "4e6ef9cb31cf4ce64adf3d22e231ea8c", "rental_uris": {"android": "https://dc.lft.to/lastmile_qr_scan", "ios": "https://dc.lft.to/lastmile_qr_scan"}, "name": "4e6ef9cb31cf4ce64adf3d22e231ea8c", "is_reserved": 0}, {"is_disabled": 0, "fusion_lon": 0.0, "fusion_lat": 0.0, "lat": 38.895328166666665, "type": "electric_scooter", "lon": -77.02953333333333, "bike_id": "e0ec4d6d53348d6483fcd72d54cc158b", "rental_uris": {"android": "https://dc.lft.to/lastmile_qr_scan", "ios": "https://dc.lft.to/lastmile_qr_scan"}, "name": "e0ec4d6d53348d6483fcd72d54cc158b", "is_reserved": 0}, {"is_disabled": 0, "fusion_lon": 0.0, "fusion_lat": 0.0, "lat": 38.99912466666667, "type": "electric_bike", "lon": -77.02871933333333, "bike_id": "13e2aa0291cdfa6d24dce8163a947abb", "rental_uris": {"android": "https://dc.lft.to/lastmile_qr_scan", "ios": "https://dc.lft.to/lastmile_qr_scan"}, "name": "13e2aa0291cdfa6d24dce8163a947abb", "is_reserved": 0}, {"is_disabled": 0, "fusion_lon": 0.0, "fusion_lat": 0.0, "lat": 38.90718583333334, "type": "electric_scooter", "lon": -77.04677866666667, "bike_id": "3ecac2c425a06089dc3e9b45d35ef106", "rental_uris": {"android": "https://dc.lft.to/lastmile_qr_scan", "ios": "https://dc.lft.to/lastmile_qr_scan"}, "name": "3ecac2c425a06089dc3e9b45d35ef106", "is_reserved": 0}, {"is_disabled": 0, "fusion_lon": 0.0, "fusion_lat": 0.0, "lat": 38.888897166666666, "type": "electric_scooter", "lon": -77.01548783333334, "bike_id": "1519c961d967fa7cd10967e00c4bd03b", "rental_uris": {"android": "https://dc.lft.to/lastmile_qr_scan", "ios": "https://dc.lft.to/lastmile_qr_scan"}, "name": "1519c961d967fa7cd10967e00c4bd03b", "is_reserved": 0}, {"is_disabled": 0, "fusion_lon": 0.0, "fusion_lat": 0.0, "lat": 38.89225233333333, "type": "electric_scooter", "lon": -77.04662366666666, "bike_id": "958fa9801e5cc1cad54ff75624ffa6cf", "rental_uris": {"android": "https://dc.lft.to/lastmile_qr_scan", "ios": "https://dc.lft.to/lastmile_qr_scan"}, "name": "958fa9801e5cc1cad54ff75624ffa6cf", "is_reserved": 0}, {"is_disabled": 0, "fusion_lon": 0.0, "fusion_lat": 0.0, "lat": 38.85807783333333, "type": "electric_scooter", "lon": -76.98654833333333, "bike_id": "771353d8f0dad6500ad634d640499ffb", "rental_uris": {"android": "https://dc.lft.to/lastmile_qr_scan", "ios": "https://dc.lft.to/lastmile_qr_scan"}, "name": "771353d8f0dad6500ad634d640499ffb", "is_reserved": 0}, {"is_disabled": 0, "fusion_lon": 0.0, "fusion_lat": 0.0, "lat": 38.9287915, "type": "electric_scooter", "lon": -77.02736766666666, "bike_id": "b6c887c583cd5837961f88dd69851eae", "rental_uris": {"android": "https://dc.lft.to/lastmile_qr_scan", "ios": "https://dc.lft.to/lastmile_qr_scan"}, "name": "b6c887c583cd5837961f88dd69851eae", "is_reserved": 0}, {"is_disabled": 0, "fusion_lon": 0.0, "fusion_lat": 0.0, "lat": 38.917787, "type": "electric_scooter", "lon": -77.03207966666666, "bike_id": "2a4fb8891114fe3b95943a9a13bb7977", "rental_uris": {"android": "https://dc.lft.to/lastmile_qr_scan", "ios": "https://dc.lft.to/lastmile_qr_scan"}, "name": "2a4fb8891114fe3b95943a9a13bb7977", "is_reserved": 0}, {"is_disabled": 0, "fusion_lon": 0.0, "fusion_lat": 0.0, "lat": 38.915903166666666, "type": "electric_scooter", "lon": -77.04676483333333, "bike_id": "2d06581ea35547d794ca8dd554e7d90a", "rental_uris": {"android": "https://dc.lft.to/lastmile_qr_scan", "ios": "https://dc.lft.to/lastmile_qr_scan"}, "name": "2d06581ea35547d794ca8dd554e7d90a", "is_reserved": 0}, {"is_disabled": 0, "fusion_lon": 0.0, "fusion_lat": 0.0, "lat": 38.9154905, "type": "electric_scooter", "lon": -77.03851933333333, "bike_id": "435a93e2a398fd2ac56c060c7782ac91", "rental_uris": {"android": "https://dc.lft.to/lastmile_qr_scan", "ios": "https://dc.lft.to/lastmile_qr_scan"}, "name": "435a93e2a398fd2ac56c060c7782ac91", "is_reserved": 0}, {"is_disabled": 0, "fusion_lon": 0.0, "fusion_lat": 0.0, "lat": 38.9192745, "type": "electric_scooter", "lon": -77.03421383333334, "bike_id": "7efc740dae9310aaac52239ad9b52990", "rental_uris": {"android": "https://dc.lft.to/lastmile_qr_scan", "ios": "https://dc.lft.to/lastmile_qr_scan"}, "name": "7efc740dae9310aaac52239ad9b52990", "is_reserved": 0}, {"is_disabled": 0, "fusion_lon": 0.0, "fusion_lat": 0.0, "lat": 38.9243685, "type": "electric_bike", "lon": -76.90759516666667, "bike_id": "c42e4c48e483ef771e3cedfcbcbe97a1", "rental_uris": {"android": "https://dc.lft.to/lastmile_qr_scan", "ios": "https://dc.lft.to/lastmile_qr_scan"}, "name": "c42e4c48e483ef771e3cedfcbcbe97a1", "is_reserved": 0}, {"is_disabled": 0, "fusion_lon": 0.0, "fusion_lat": 0.0, "lat": 38.9197345, "type": "electric_scooter", "lon": -77.04157633333334, "bike_id": "0ac489f834fada043ab37bc3c8f21035", "rental_uris": {"android": "https://dc.lft.to/lastmile_qr_scan", "ios": "https://dc.lft.to/lastmile_qr_scan"}, "name": "0ac489f834fada043ab37bc3c8f21035", "is_reserved": 0}, {"is_disabled": 0, "fusion_lon": 0.0, "fusion_lat": 0.0, "lat": 38.914354833333334, "type": "electric_scooter", "lon": -77.00901566666667, "bike_id": "29e808e3797eff9987faece5ec461e05", "rental_uris": {"android": "https://dc.lft.to/lastmile_qr_scan", "ios": "https://dc.lft.to/lastmile_qr_scan"}, "name": "29e808e3797eff9987faece5ec461e05", "is_reserved": 0}, {"is_disabled": 0, "fusion_lon": 0.0, "fusion_lat": 0.0, "lat": 38.956151, "type": "electric_scooter", "lon": -77.02762216666666, "bike_id": "e37ede467004884b49b3bf05417bed7b", "rental_uris": {"android": "https://dc.lft.to/lastmile_qr_scan", "ios": "https://dc.lft.to/lastmile_qr_scan"}, "name": "e37ede467004884b49b3bf05417bed7b", "is_reserved": 0}, {"is_disabled": 0, "fusion_lon": 0.0, "fusion_lat": 0.0, "lat": 38.898400333333335, "type": "electric_scooter", "lon": -77.02198816666667, "bike_id": "4c0323c7abea113425179c21ce33a8be", "rental_uris": {"android": "https://dc.lft.to/lastmile_qr_scan", "ios": "https://dc.lft.to/lastmile_qr_scan"}, "name": "4c0323c7abea113425179c21ce33a8be", "is_reserved": 0}, {"is_disabled": 0, "fusion_lon": 0.0, "fusion_lat": 0.0, "lat": 38.91541133333333, "type": "electric_scooter", "lon": -77.03208583333333, "bike_id": "a53095439218cdaf312262976ead4736", "rental_uris": {"android": "https://dc.lft.to/lastmile_qr_scan", "ios": "https://dc.lft.to/lastmile_qr_scan"}, "name": "a53095439218cdaf312262976ead4736", "is_reserved": 0}, {"is_disabled": 0, "fusion_lon": 0.0, "fusion_lat": 0.0, "lat": 38.917065, "type": "electric_scooter", "lon": -77.02626266666667, "bike_id": "e2b240c3f408aaadbd3cc856136102d7", "rental_uris": {"android": "https://dc.lft.to/lastmile_qr_scan", "ios": "https://dc.lft.to/lastmile_qr_scan"}, "name": "e2b240c3f408aaadbd3cc856136102d7", "is_reserved": 0}, {"is_disabled": 0, "fusion_lon": 0.0, "fusion_lat": 0.0, "lat": 38.90700116666667, "type": "electric_scooter", "lon": -77.0630025, "bike_id": "4e122000f42947d023f7027188f5a68f", "rental_uris": {"android": "https://dc.lft.to/lastmile_qr_scan", "ios": "https://dc.lft.to/lastmile_qr_scan"}, "name": "4e122000f42947d023f7027188f5a68f", "is_reserved": 0}, {"is_disabled": 0, "fusion_lon": 0.0, "fusion_lat": 0.0, "lat": 38.8787225, "type": "electric_scooter", "lon": -76.96526016666667, "bike_id": "ed7c031a1c448b9a23bdc46b8875eec2", "rental_uris": {"android": "https://dc.lft.to/lastmile_qr_scan", "ios": "https://dc.lft.to/lastmile_qr_scan"}, "name": "ed7c031a1c448b9a23bdc46b8875eec2", "is_reserved": 0}, {"is_disabled": 0, "fusion_lon": 0.0, "fusion_lat": 0.0, "lat": 38.93679216666666, "type": "electric_scooter", "lon": -77.03625033333333, "bike_id": "ba0003cd30282589d893a29d75c6a69e", "rental_uris": {"android": "https://dc.lft.to/lastmile_qr_scan", "ios": "https://dc.lft.to/lastmile_qr_scan"}, "name": "ba0003cd30282589d893a29d75c6a69e", "is_reserved": 0}, {"is_disabled": 0, "fusion_lon": 0.0, "fusion_lat": 0.0, "lat": 38.824470166666664, "type": "electric_bike", "lon": -77.07051616666666, "bike_id": "028e07c122df4c43e75d493f645b78bc", "rental_uris": {"android": "https://dc.lft.to/lastmile_qr_scan", "ios": "https://dc.lft.to/lastmile_qr_scan"}, "name": "028e07c122df4c43e75d493f645b78bc", "is_reserved": 0}, {"is_disabled": 0, "fusion_lon": 0.0, "fusion_lat": 0.0, "lat": 38.86540166666666, "type": "electric_bike", "lon": -77.12819433333334, "bike_id": "0261f80939fe69d7cef539281425323a", "rental_uris": {"android": "https://dc.lft.to/lastmile_qr_scan", "ios": "https://dc.lft.to/lastmile_qr_scan"}, "name": "0261f80939fe69d7cef539281425323a", "is_reserved": 0}, {"is_disabled": 0, "fusion_lon": 0.0, "fusion_lat": 0.0, "lat": 38.9159925, "type": "electric_scooter", "lon": -77.0229755, "bike_id": "bf051f0b1a055e4cd3e34d62a209d594", "rental_uris": {"android": "https://dc.lft.to/lastmile_qr_scan", "ios": "https://dc.lft.to/lastmile_qr_scan"}, "name": "bf051f0b1a055e4cd3e34d62a209d594", "is_reserved": 0}, {"is_disabled": 0, "fusion_lon": 0.0, "fusion_lat": 0.0, "lat": 38.92260066666667, "type": "electric_scooter", "lon": -77.04222383333334, "bike_id": "1faff382ba8b57c581c33c4bada5bf99", "rental_uris": {"android": "https://dc.lft.to/lastmile_qr_scan", "ios": "https://dc.lft.to/lastmile_qr_scan"}, "name": "1faff382ba8b57c581c33c4bada5bf99", "is_reserved": 0}, {"is_disabled": 0, "fusion_lon": 0.0, "fusion_lat": 0.0, "lat": 38.92156416666667, "type": "electric_scooter", "lon": -77.034418, "bike_id": "ecf0c8fc5908eba568ef094663ac9589", "rental_uris": {"android": "https://dc.lft.to/lastmile_qr_scan", "ios": "https://dc.lft.to/lastmile_qr_scan"}, "name": "ecf0c8fc5908eba568ef094663ac9589", "is_reserved": 0}, {"is_disabled": 0, "fusion_lon": 0.0, "fusion_lat": 0.0, "lat": 38.827866666666665, "type": "electric_bike", "lon": -77.11086466666667, "bike_id": "1d1834ce111c17790d59f1d0d9c7c4a0", "rental_uris": {"android": "https://dc.lft.to/lastmile_qr_scan", "ios": "https://dc.lft.to/lastmile_qr_scan"}, "name": "1d1834ce111c17790d59f1d0d9c7c4a0", "is_reserved": 0}, {"is_disabled": 0, "fusion_lon": 0.0, "fusion_lat": 0.0, "lat": 38.863603499999996, "type": "electric_scooter", "lon": -76.990581, "bike_id": "5dd6e3b7b750d94d7f21e1f8f99e1055", "rental_uris": {"android": "https://dc.lft.to/lastmile_qr_scan", "ios": "https://dc.lft.to/lastmile_qr_scan"}, "name": "5dd6e3b7b750d94d7f21e1f8f99e1055", "is_reserved": 0}, {"is_disabled": 0, "fusion_lon": 0.0, "fusion_lat": 0.0, "lat": 38.90970933333333, "type": "electric_scooter", "lon": -77.03634516666666, "bike_id": "5e8afac6a4c24fd627254749a8800b45", "rental_uris": {"android": "https://dc.lft.to/lastmile_qr_scan", "ios": "https://dc.lft.to/lastmile_qr_scan"}, "name": "5e8afac6a4c24fd627254749a8800b45", "is_reserved": 0}, {"is_disabled": 0, "fusion_lon": 0.0, "fusion_lat": 0.0, "lat": 38.90176966666667, "type": "electric_scooter", "lon": -77.02209766666667, "bike_id": "d987d208634fbd02502f5b6ba80cff66", "rental_uris": {"android": "https://dc.lft.to/lastmile_qr_scan", "ios": "https://dc.lft.to/lastmile_qr_scan"}, "name": "d987d208634fbd02502f5b6ba80cff66", "is_reserved": 0}, {"is_disabled": 0, "fusion_lon": 0.0, "fusion_lat": 0.0, "lat": 38.919554833333336, "type": "electric_scooter", "lon": -77.00076616666666, "bike_id": "af53716d0ad54279ebcfb26d1bd9ec21", "rental_uris": {"android": "https://dc.lft.to/lastmile_qr_scan", "ios": "https://dc.lft.to/lastmile_qr_scan"}, "name": "af53716d0ad54279ebcfb26d1bd9ec21", "is_reserved": 0}, {"is_disabled": 0, "fusion_lon": 0.0, "fusion_lat": 0.0, "lat": 38.922822333333336, "type": "electric_scooter", "lon": -77.044702, "bike_id": "aeb33025eb9b5308fbfc1a774935e681", "rental_uris": {"android": "https://dc.lft.to/lastmile_qr_scan", "ios": "https://dc.lft.to/lastmile_qr_scan"}, "name": "aeb33025eb9b5308fbfc1a774935e681", "is_reserved": 0}, {"is_disabled": 0, "fusion_lon": 0.0, "fusion_lat": 0.0, "lat": 38.89223416666667, "type": "electric_scooter", "lon": -77.0226585, "bike_id": "15b04b40586b0ed593ac9964cd887440", "rental_uris": {"android": "https://dc.lft.to/lastmile_qr_scan", "ios": "https://dc.lft.to/lastmile_qr_scan"}, "name": "15b04b40586b0ed593ac9964cd887440", "is_reserved": 0}, {"is_disabled": 0, "fusion_lon": 0.0, "fusion_lat": 0.0, "lat": 38.9024095, "type": "electric_scooter", "lon": -77.0019775, "bike_id": "7ae9f10bc80cba4890e75889f97d9496", "rental_uris": {"android": "https://dc.lft.to/lastmile_qr_scan", "ios": "https://dc.lft.to/lastmile_qr_scan"}, "name": "7ae9f10bc80cba4890e75889f97d9496", "is_reserved": 0}, {"is_disabled": 0, "fusion_lon": 0.0, "fusion_lat": 0.0, "lat": 38.92973816666667, "type": "electric_scooter", "lon": -77.0282295, "bike_id": "22548df9a5c487b6d02efbad0c756ba0", "rental_uris": {"android": "https://dc.lft.to/lastmile_qr_scan", "ios": "https://dc.lft.to/lastmile_qr_scan"}, "name": "22548df9a5c487b6d02efbad0c756ba0", "is_reserved": 0}, {"is_disabled": 0, "fusion_lon": 0.0, "fusion_lat": 0.0, "lat": 38.904270333333336, "type": "electric_scooter", "lon": -77.0260525, "bike_id": "c7f96fdd928065f779e2755d07cb8695", "rental_uris": {"android": "https://dc.lft.to/lastmile_qr_scan", "ios": "https://dc.lft.to/lastmile_qr_scan"}, "name": "c7f96fdd928065f779e2755d07cb8695", "is_reserved": 0}, {"is_disabled": 0, "fusion_lon": 0.0, "fusion_lat": 0.0, "lat": 38.9011, "type": "electric_scooter", "lon": -77.01812233333334, "bike_id": "281269703fc635221f45c73eaf38c36b", "rental_uris": {"android": "https://dc.lft.to/lastmile_qr_scan", "ios": "https://dc.lft.to/lastmile_qr_scan"}, "name": "281269703fc635221f45c73eaf38c36b", "is_reserved": 0}, {"is_disabled": 0, "fusion_lon": 0.0, "fusion_lat": 0.0, "lat": 38.91761866666667, "type": "electric_scooter", "lon": -77.03425516666667, "bike_id": "aed6193ef8c43e9d837eebb6130d4d08", "rental_uris": {"android": "https://dc.lft.to/lastmile_qr_scan", "ios": "https://dc.lft.to/lastmile_qr_scan"}, "name": "aed6193ef8c43e9d837eebb6130d4d08", "is_reserved": 0}, {"is_disabled": 0, "fusion_lon": 0.0, "fusion_lat": 0.0, "lat": 38.85806216666667, "type": "electric_scooter", "lon": -76.98658116666667, "bike_id": "b44c95e4a240ed0cb0811b921b9f04c3", "rental_uris": {"android": "https://dc.lft.to/lastmile_qr_scan", "ios": "https://dc.lft.to/lastmile_qr_scan"}, "name": "b44c95e4a240ed0cb0811b921b9f04c3", "is_reserved": 0}, {"is_disabled": 0, "fusion_lon": 0.0, "fusion_lat": 0.0, "lat": 38.910386, "type": "electric_scooter", "lon": -77.04010216666667, "bike_id": "b7df480670ef9ff344bad87bf872c303", "rental_uris": {"android": "https://dc.lft.to/lastmile_qr_scan", "ios": "https://dc.lft.to/lastmile_qr_scan"}, "name": "b7df480670ef9ff344bad87bf872c303", "is_reserved": 0}, {"is_disabled": 0, "fusion_lon": 0.0, "fusion_lat": 0.0, "lat": 38.90494233333333, "type": "electric_scooter", "lon": -77.02988283333333, "bike_id": "c39e832a7551bec2edf9185f0847198f", "rental_uris": {"android": "https://dc.lft.to/lastmile_qr_scan", "ios": "https://dc.lft.to/lastmile_qr_scan"}, "name": "c39e832a7551bec2edf9185f0847198f", "is_reserved": 0}, {"is_disabled": 0, "fusion_lon": 0.0, "fusion_lat": 0.0, "lat": 38.9131425, "type": "electric_scooter", "lon": -76.98655466666666, "bike_id": "405bd09a478b892ad6eb01582e9f6d1a", "rental_uris": {"android": "https://dc.lft.to/lastmile_qr_scan", "ios": "https://dc.lft.to/lastmile_qr_scan"}, "name": "405bd09a478b892ad6eb01582e9f6d1a", "is_reserved": 0}, {"is_disabled": 0, "fusion_lon": 0.0, "fusion_lat": 0.0, "lat": 38.91117916666666, "type": "electric_scooter", "lon": -77.03832033333333, "bike_id": "ae1f9c9828b04b223d1789ea7c3eb349", "rental_uris": {"android": "https://dc.lft.to/lastmile_qr_scan", "ios": "https://dc.lft.to/lastmile_qr_scan"}, "name": "ae1f9c9828b04b223d1789ea7c3eb349", "is_reserved": 0}, {"is_disabled": 0, "fusion_lon": 0.0, "fusion_lat": 0.0, "lat": 38.942008333333334, "type": "electric_scooter", "lon": -77.0259025, "bike_id": "a996755ff52ad70c7cb32a670db99693", "rental_uris": {"android": "https://dc.lft.to/lastmile_qr_scan", "ios": "https://dc.lft.to/lastmile_qr_scan"}, "name": "a996755ff52ad70c7cb32a670db99693", "is_reserved": 0}, {"is_disabled": 0, "fusion_lon": 0.0, "fusion_lat": 0.0, "lat": 38.9173545, "type": "electric_scooter", "lon": -77.03644, "bike_id": "85d0aacb1eea50e65b16e791feee82f7", "rental_uris": {"android": "https://dc.lft.to/lastmile_qr_scan", "ios": "https://dc.lft.to/lastmile_qr_scan"}, "name": "85d0aacb1eea50e65b16e791feee82f7", "is_reserved": 0}, {"is_disabled": 0, "fusion_lon": 0.0, "fusion_lat": 0.0, "lat": 38.90216933333333, "type": "electric_scooter", "lon": -77.02366366666666, "bike_id": "7538b0be9bf4cd1c3db525f299ca11c3", "rental_uris": {"android": "https://dc.lft.to/lastmile_qr_scan", "ios": "https://dc.lft.to/lastmile_qr_scan"}, "name": "7538b0be9bf4cd1c3db525f299ca11c3", "is_reserved": 0}, {"is_disabled": 0, "fusion_lon": 0.0, "fusion_lat": 0.0, "lat": 38.927496, "type": "electric_scooter", "lon": -77.01617716666667, "bike_id": "cdb2d7ce5a05fa545e841269cd9c1808", "rental_uris": {"android": "https://dc.lft.to/lastmile_qr_scan", "ios": "https://dc.lft.to/lastmile_qr_scan"}, "name": "cdb2d7ce5a05fa545e841269cd9c1808", "is_reserved": 0}, {"is_disabled": 0, "fusion_lon": 0.0, "fusion_lat": 0.0, "lat": 38.899790333333335, "type": "electric_scooter", "lon": -77.05284533333334, "bike_id": "c21478e99308f9d00afab93b015ca21b", "rental_uris": {"android": "https://dc.lft.to/lastmile_qr_scan", "ios": "https://dc.lft.to/lastmile_qr_scan"}, "name": "c21478e99308f9d00afab93b015ca21b", "is_reserved": 0}, {"is_disabled": 0, "fusion_lon": 0.0, "fusion_lat": 0.0, "lat": 38.9560585, "type": "electric_scooter", "lon": -77.02791683333334, "bike_id": "5eed366393f5fe8a474e9beebbc80d7a", "rental_uris": {"android": "https://dc.lft.to/lastmile_qr_scan", "ios": "https://dc.lft.to/lastmile_qr_scan"}, "name": "5eed366393f5fe8a474e9beebbc80d7a", "is_reserved": 0}, {"is_disabled": 0, "fusion_lon": 0.0, "fusion_lat": 0.0, "lat": 38.876634333333335, "type": "electric_scooter", "lon": -77.008107, "bike_id": "095bfe1e04933cf1ffd0b19c246c993a", "rental_uris": {"android": "https://dc.lft.to/lastmile_qr_scan", "ios": "https://dc.lft.to/lastmile_qr_scan"}, "name": "095bfe1e04933cf1ffd0b19c246c993a", "is_reserved": 0}, {"is_disabled": 0, "fusion_lon": 0.0, "fusion_lat": 0.0, "lat": 38.866613666666666, "type": "electric_scooter", "lon": -76.98886016666667, "bike_id": "073db5818d6c98a989663e86c38d1fc2", "rental_uris": {"android": "https://dc.lft.to/lastmile_qr_scan", "ios": "https://dc.lft.to/lastmile_qr_scan"}, "name": "073db5818d6c98a989663e86c38d1fc2", "is_reserved": 0}, {"is_disabled": 0, "fusion_lon": 0.0, "fusion_lat": 0.0, "lat": 38.89827733333333, "type": "electric_scooter", "lon": -77.02946816666666, "bike_id": "a3d298e637315d8197d0b300adaa13f3", "rental_uris": {"android": "https://dc.lft.to/lastmile_qr_scan", "ios": "https://dc.lft.to/lastmile_qr_scan"}, "name": "a3d298e637315d8197d0b300adaa13f3", "is_reserved": 0}, {"is_disabled": 0, "fusion_lon": 0.0, "fusion_lat": 0.0, "lat": 38.892083166666666, "type": "electric_bike", "lon": -76.98556716666667, "bike_id": "b67c7d0a8442fd0767d9ee5c496f3633", "rental_uris": {"android": "https://dc.lft.to/lastmile_qr_scan", "ios": "https://dc.lft.to/lastmile_qr_scan"}, "name": "b67c7d0a8442fd0767d9ee5c496f3633", "is_reserved": 0}, {"is_disabled": 0, "fusion_lon": 0.0, "fusion_lat": 0.0, "lat": 38.917142, "type": "electric_bike", "lon": -77.221311, "bike_id": "619e4f67cc196fc12ff0afffdc55d748", "rental_uris": {"android": "https://dc.lft.to/lastmile_qr_scan", "ios": "https://dc.lft.to/lastmile_qr_scan"}, "name": "619e4f67cc196fc12ff0afffdc55d748", "is_reserved": 0}, {"is_disabled": 0, "fusion_lon": 0.0, "fusion_lat": 0.0, "lat": 38.936699833333336, "type": "electric_bike", "lon": -76.952054, "bike_id": "bcf259398f21b2b64dbb2b0dc188be2a", "rental_uris": {"android": "https://dc.lft.to/lastmile_qr_scan", "ios": "https://dc.lft.to/lastmile_qr_scan"}, "name": "bcf259398f21b2b64dbb2b0dc188be2a", "is_reserved": 0}, {"is_disabled": 0, "fusion_lon": 0.0, "fusion_lat": 0.0, "lat": 39.0388335, "type": "electric_bike", "lon": -77.10907916666666, "bike_id": "ce7baad4cf28dda7ac62b2bca2b1f1cc", "rental_uris": {"android": "https://dc.lft.to/lastmile_qr_scan", "ios": "https://dc.lft.to/lastmile_qr_scan"}, "name": "ce7baad4cf28dda7ac62b2bca2b1f1cc", "is_reserved": 0}, {"is_disabled": 0, "fusion_lon": 0.0, "fusion_lat": 0.0, "lat": 38.89730083333333, "type": "electric_scooter", "lon": -77.00378066666667, "bike_id": "fcde608ab655dac253c95a1853aea07d", "rental_uris": {"android": "https://dc.lft.to/lastmile_qr_scan", "ios": "https://dc.lft.to/lastmile_qr_scan"}, "name": "fcde608ab655dac253c95a1853aea07d", "is_reserved": 0}, {"is_disabled": 0, "fusion_lon": 0.0, "fusion_lat": 0.0, "lat": 38.93862566666667, "type": "electric_scooter", "lon": -77.0264985, "bike_id": "a7f868ceefa2624ae5580413c8c59033", "rental_uris": {"android": "https://dc.lft.to/lastmile_qr_scan", "ios": "https://dc.lft.to/lastmile_qr_scan"}, "name": "a7f868ceefa2624ae5580413c8c59033", "is_reserved": 0}, {"is_disabled": 0, "fusion_lon": 0.0, "fusion_lat": 0.0, "lat": 38.907397333333336, "type": "electric_scooter", "lon": -77.02954783333334, "bike_id": "b577975367a91c92e54a59fc29527a46", "rental_uris": {"android": "https://dc.lft.to/lastmile_qr_scan", "ios": "https://dc.lft.to/lastmile_qr_scan"}, "name": "b577975367a91c92e54a59fc29527a46", "is_reserved": 0}, {"is_disabled": 0, "fusion_lon": 0.0, "fusion_lat": 0.0, "lat": 38.9253165, "type": "electric_scooter", "lon": -77.04420083333333, "bike_id": "fdf53f318cee1b9be0ee8d6857646a48", "rental_uris": {"android": "https://dc.lft.to/lastmile_qr_scan", "ios": "https://dc.lft.to/lastmile_qr_scan"}, "name": "fdf53f318cee1b9be0ee8d6857646a48", "is_reserved": 0}, {"is_disabled": 0, "fusion_lon": 0.0, "fusion_lat": 0.0, "lat": 38.905384833333336, "type": "electric_scooter", "lon": -77.05079316666667, "bike_id": "54ee6840543957a8a938f1c0ea6fb8b4", "rental_uris": {"android": "https://dc.lft.to/lastmile_qr_scan", "ios": "https://dc.lft.to/lastmile_qr_scan"}, "name": "54ee6840543957a8a938f1c0ea6fb8b4", "is_reserved": 0}, {"is_disabled": 0, "fusion_lon": 0.0, "fusion_lat": 0.0, "lat": 38.900192, "type": "electric_scooter", "lon": -76.99878816666667, "bike_id": "fb6d5ed8db8771b89b4fa0de7fd47f1d", "rental_uris": {"android": "https://dc.lft.to/lastmile_qr_scan", "ios": "https://dc.lft.to/lastmile_qr_scan"}, "name": "fb6d5ed8db8771b89b4fa0de7fd47f1d", "is_reserved": 0}, {"is_disabled": 0, "fusion_lon": 0.0, "fusion_lat": 0.0, "lat": 38.904962166666664, "type": "electric_scooter", "lon": -77.00119733333334, "bike_id": "f2180fac55b386252938bd5e0d9d89b3", "rental_uris": {"android": "https://dc.lft.to/lastmile_qr_scan", "ios": "https://dc.lft.to/lastmile_qr_scan"}, "name": "f2180fac55b386252938bd5e0d9d89b3", "is_reserved": 0}, {"is_disabled": 0, "fusion_lon": 0.0, "fusion_lat": 0.0, "lat": 38.895349333333336, "type": "electric_scooter", "lon": -77.04128583333333, "bike_id": "86cd73133fbb8960343143eddbc577c6", "rental_uris": {"android": "https://dc.lft.to/lastmile_qr_scan", "ios": "https://dc.lft.to/lastmile_qr_scan"}, "name": "86cd73133fbb8960343143eddbc577c6", "is_reserved": 0}, {"is_disabled": 0, "fusion_lon": 0.0, "fusion_lat": 0.0, "lat": 38.89830666666667, "type": "electric_scooter", "lon": -76.94632966666667, "bike_id": "9c3bd543b5b72e211a8103b3f0fb85fa", "rental_uris": {"android": "https://dc.lft.to/lastmile_qr_scan", "ios": "https://dc.lft.to/lastmile_qr_scan"}, "name": "9c3bd543b5b72e211a8103b3f0fb85fa", "is_reserved": 0}, {"is_disabled": 0, "fusion_lon": 0.0, "fusion_lat": 0.0, "lat": 38.91636666666667, "type": "electric_scooter", "lon": -77.04024116666666, "bike_id": "e47746c2769d2f695777ffd104846b07", "rental_uris": {"android": "https://dc.lft.to/lastmile_qr_scan", "ios": "https://dc.lft.to/lastmile_qr_scan"}, "name": "e47746c2769d2f695777ffd104846b07", "is_reserved": 0}, {"is_disabled": 0, "fusion_lon": 0.0, "fusion_lat": 0.0, "lat": 38.9057525, "type": "electric_scooter", "lon": -77.02204633333334, "bike_id": "84d87303bfeebb26c86348c76765323c", "rental_uris": {"android": "https://dc.lft.to/lastmile_qr_scan", "ios": "https://dc.lft.to/lastmile_qr_scan"}, "name": "84d87303bfeebb26c86348c76765323c", "is_reserved": 0},