{"data": {"bikes": [{"fusion_lat": 0.0, "name": "f264f1bf3c7b8bb806cb68546651fd2e", "is_disabled": 0, "rental_uris": {"android": "https://dc.lft.to/lastmile_qr_scan", "ios": "https://dc.lft.to/lastmile_qr_scan"}, "fusion_lon": 0.0, "lat": 38.92740216666667, "bike_id": "f264f1bf3c7b8bb806cb68546651fd2e", "type": "electric_bike", "is_reserved": 0, "lon": -76.99362633333334}, {"fusion_lat": 0.0, "name": "ffcb28d41834401bd5150aa1500902e1", "is_disabled": 0, "rental_uris": {"android": "https://dc.lft.to/lastmile_qr_scan", "ios": "https://dc.lft.to/lastmile_qr_scan"}, "fusion_lon": 0.0, "lat": 38.9085565, "bike_id": "ffcb28d41834401bd5150aa1500902e1", "type": "electric_scooter", "is_reserved": 0, "lon": -76.99762416666667}, {"fusion_lat": 0.0, "name": "8ece0f38ebefb3c09291243fbf645383", "is_disabled": 0, "rental_uris": {"android": "https://dc.lft.to/lastmile_qr_scan", "ios": "https://dc.lft.to/lastmile_qr_scan"}, "fusion_lon": 0.0, "lat": 38.906827166666666, "bike_id": "8ece0f38ebefb3c09291243fbf645383", "type": "electric_bike", "is_reserved": 0, "lon": -76.9449265}, {"fusion_lat": 0.0, "name": "e1b3d7ce32632963bf86f832775d8944", "is_disabled": 0, "rental_uris": {"android": "https://dc.lft.to/lastmile_qr_scan", "ios": "https://dc.lft.to/lastmile_qr_scan"}, "fusion_lon": 0.0, "lat": 38.90152283333333, "bike_id": "e1b3d7ce32632963bf86f832775d8944", "type": "electric_scooter", "is_reserved": 0, "lon": -76.9306825}, {"fusion_lat": 0.0, "name": "c7217a95df6dc0da765be0123dbf40ce", "is_disabled": 0, "rental_uris": {"android": "https://dc.lft.to/lastmile_qr_scan", "ios": "https://dc.lft.to/lastmile_qr_scan"}, "fusion_lon": 0.0, "lat": 38.9223225, "bike_id": "c7217a95df6dc0da765be0123dbf40ce", "type": "electric_scooter", "is_reserved": 0, "lon": -77.0424825}, {"fusion_lat": 0.0, "name": "66a0fb2d52e2bf512bcef5e326b3563a", "is_disabled": 0, "rental_uris": {"android": "https://dc.lft.to/lastmile_qr_scan", "ios": "https://dc.lft.to/lastmile_qr_scan"}, "fusion_lon": 0.0, "lat": 38.96126116666667, "bike_id": "66a0fb2d52e2bf512bcef5e326b3563a", "type": "electric_bike", "is_reserved": 0, "lon": -77.03272766666667}, {"fusion_lat": 0.0, "name": "769c472fc7b54d729678f4f78e451491", "is_disabled": 0, "rental_uris": {"android": "https://dc.lft.to/lastmile_qr_scan", "ios": "https://dc.lft.to/lastmile_qr_scan"}, "fusion_lon": 0.0, "lat": 38.9230645, "bike_id": "769c472fc7b54d729678f4f78e451491", "type": "electric_scooter", "is_reserved": 0, "lon": -77.04120716666667}, {"fusion_lat": 0.0, "name": "afbeed3fa534c365a5e56f6cd51b3545", "is_disabled": 0, "rental_uris": {"android": "https://dc.lft.to/lastmile_qr_scan", "ios": "https://dc.lft.to/lastmile_qr_scan"}, "fusion_lon": 0.0, "lat": 38.913305333333334, "bike_id": "afbeed3fa534c365a5e56f6cd51b3545", "type": "electric_scooter", "is_reserved": 0, "lon": -77.04274916666667}, {"fusion_lat": 0.0, "name": "c74f9340b41599a2118346c48a443665", "is_disabled": 0, "rental_uris": {"android": "https://dc.lft.to/lastmile_qr_scan", "ios": "https://dc.lft.to/lastmile_qr_scan"}, "fusion_lon": 0.0, "lat": 38.92806316666667, "bike_id": "c74f9340b41599a2118346c48a443665", "type": "electric_scooter", "is_reserved": 0, "lon": -77.0435795}, {"fusion_lat": 0.0, "name": "7c655240ad0649f12fe4505c8028a922", "is_disabled": 0, "rental_uris": {"android": "https://dc.lft.to/lastmile_qr_scan", "ios": "https://dc.lft.to/lastmile_qr_scan"}, "fusion_lon": 0.0, "lat": 38.8954555, "bike_id": "7c655240ad0649f12fe4505c8028a922", "type": "electric_scooter", "is_reserved": 0, "lon": -76.94940566666666}, {"fusion_lat": 0.0, "name": "f47b2f645c4fba2f5adcaf079857a8e5", "is_disabled": 0, "rental_uris": {"android": "https://dc.lft.to/lastmile_qr_scan", "ios": "https://dc.lft.to/lastmile_qr_scan"}, "fusion_lon": 0.0, "lat": 38.87662683333333, "bike_id": "f47b2f645c4fba2f5adcaf079857a8e5", "type": "electric_scooter", "is_reserved": 0, "lon": -76.9962355}, {"fusion_lat": 0.0, "name": "a3efd9dd59637b7dea4e3e6b3700ecd7", "is_disabled": 0, "rental_uris": {"android": "https://dc.lft.to/lastmile_qr_scan", "ios": "https://dc.lft.to/lastmile_qr_scan"}, "fusion_lon": 0.0, "lat": 38.87382733333333, "bike_id": "a3efd9dd59637b7dea4e3e6b3700ecd7", "type": "electric_scooter", "is_reserved": 0, "lon": -77.0003495}, {"fusion_lat": 0.0, "name": "380776d0f15556e7eced3a86359f3c81", "is_disabled": 0, "rental_uris": {"android": "https://dc.lft.to/lastmile_qr_scan", "ios": "https://dc.lft.to/lastmile_qr_scan"}, "fusion_lon": 0.0, "lat": 38.87481316666667, "bike_id": "380776d0f15556e7eced3a86359f3c81", "type": "electric_scooter", "is_reserved": 0, "lon": -77.00121866666667}, {"fusion_lat": 0.0, "name": "7b356897a3ba3fefdd79bfc6c04cbe3b", "is_disabled": 0, "rental_uris": {"android": "https://dc.lft.to/lastmile_qr_scan", "ios": "https://dc.lft.to/lastmile_qr_scan"}, "fusion_lon": 0.0, "lat": 38.95731833333333, "bike_id": "7b356897a3ba3fefdd79bfc6c04cbe3b", "type": "electric_scooter", "is_reserved": 0, "lon": -77.02404283333334}, {"fusion_lat": 0.0, "name": "60fd19f643326a67f91dbdde91e4e5cb", "is_disabled": 0, "rental_uris": {"android": "https://dc.lft.to/lastmile_qr_scan", "ios": "https://dc.lft.to/lastmile_qr_scan"}, "fusion_lon": 0.0, "lat": 38.915847666666664, "bike_id": "60fd19f643326a67f91dbdde91e4e5cb", "type": "electric_scooter", "is_reserved": 0, "lon": -77.04539433333333}, {"fusion_lat": 0.0, "name": "dd8334fb02ad8310b13635a94dd68eb7", "is_disabled": 0, "rental_uris": {"android": "https://dc.lft.to/lastmile_qr_scan", "ios": "https://dc.lft.to/lastmile_qr_scan"}, "fusion_lon": 0.0, "lat": 38.909825166666664, "bike_id": "dd8334fb02ad8310b13635a94dd68eb7", "type": "electric_scooter", "is_reserved": 0, "lon": -77.03262516666666}, {"fusion_lat": 0.0, "name": "220ff59214482efcf1b1bf4b07345ece", "is_disabled": 0, "rental_uris": {"android": "https://dc.lft.to/lastmile_qr_scan", "ios": "https://dc.lft.to/lastmile_qr_scan"}, "fusion_lon": 0.0, "lat": 38.91487216666667, "bike_id": "220ff59214482efcf1b1bf4b07345ece", "type": "electric_scooter", "is_reserved": 0, "lon": -77.04282016666667}, {"fusion_lat": 0.0, "name": "69f360c8270565fe1cc4f146d26aa6bb", "is_disabled": 0, "rental_uris": {"android": "https://dc.lft.to/lastmile_qr_scan", "ios": "https://dc.lft.to/lastmile_qr_scan"}, "fusion_lon": 0.0, "lat": 38.9279165, "bike_id": "69f360c8270565fe1cc4f146d26aa6bb", "type": "electric_scooter", "is_reserved": 0, "lon": -77.0225845}, {"fusion_lat": 0.0, "name": "679d561b14a6e47ab7a3906f94f104a0", "is_disabled": 0, "rental_uris": {"android": "https://dc.lft.to/lastmile_qr_scan", "ios": "https://dc.lft.to/lastmile_qr_scan"}, "fusion_lon": 0.0, "lat": 38.92308166666667, "bike_id": "679d561b14a6e47ab7a3906f94f104a0", "type": "electric_scooter", "is_reserved": 0, "lon": -77.04411}, {"fusion_lat": 0.0, "name": "67ad265f8bbfb1ec70068096382b2d88", "is_disabled": 0, "rental_uris": {"android": "https://dc.lft.to/lastmile_qr_scan", "ios": "https://dc.lft.to/lastmile_qr_scan"}, "fusion_lon": 0.0, "lat": 38.9060275, "bike_id": "67ad265f8bbfb1ec70068096382b2d88", "type": "electric_scooter", "is_reserved": 0, "lon": -77.06291216666666}, {"fusion_lat": 0.0, "name": "1cb7af7aed34a66efb31b006dca1b7b8", "is_disabled": 0, "rental_uris": {"android": "https://dc.lft.to/lastmile_qr_scan", "ios": "https://dc.lft.to/lastmile_qr_scan"}, "fusion_lon": 0.0, "lat": 38.8753355, "bike_id": "1cb7af7aed34a66efb31b006dca1b7b8", "type": "electric_scooter", "is_reserved": 0, "lon": -77.00506683333333}, {"fusion_lat": 0.0, "name": "1a7aebffce2416dfd060f45dbf75add8", "is_disabled": 0, "rental_uris": {"android": "https://dc.lft.to/lastmile_qr_scan", "ios": "https://dc.lft.to/lastmile_qr_scan"}, "fusion_lon": 0.0, "lat": 38.927520333333334, "bike_id": "1a7aebffce2416dfd060f45dbf75add8", "type": "electric_scooter", "is_reserved": 0, "lon": -77.0242615}, {"fusion_lat": 0.0, "name": "d823d1f8da04aa0203e41f53103ea561", "is_disabled": 0, "rental_uris": {"android": "https://dc.lft.to/lastmile_qr_scan", "ios": "https://dc.lft.to/lastmile_qr_scan"}, "fusion_lon": 0.0, "lat": 38.900644166666666, "bike_id": "d823d1f8da04aa0203e41f53103ea561", "type": "electric_scooter", "is_reserved": 0, "lon": -76.9275105}, {"fusion_lat": 0.0, "name": "670d864924baf59303e2e04c3b387117", "is_disabled": 0, "rental_uris": {"android": "https://dc.lft.to/lastmile_qr_scan", "ios": "https://dc.lft.to/lastmile_qr_scan"}, "fusion_lon": 0.0, "lat": 38.8964025, "bike_id": "670d864924baf59303e2e04c3b387117", "type": "electric_scooter", "is_reserved": 0, "lon": -77.05091816666666}, {"fusion_lat": 0.0, "name": "ac9fdc8e3a9881a5672de8559fa62189", "is_disabled": 0, "rental_uris": {"android": "https://dc.lft.to/lastmile_qr_scan", "ios": "https://dc.lft.to/lastmile_qr_scan"}, "fusion_lon": 0.0, "lat": 38.928088333333335, "bike_id": "ac9fdc8e3a9881a5672de8559fa62189", "type": "electric_scooter", "is_reserved": 0, "lon": -77.02329466666667}, {"fusion_lat": 0.0, "name": "9a49bdea7ba9ebc57272ac603f153b87", "is_disabled": 0, "rental_uris": {"android": "https://dc.lft.to/lastmile_qr_scan", "ios": "https://dc.lft.to/lastmile_qr_scan"}, "fusion_lon": 0.0, "lat": 38.90733216666667, "bike_id": "9a49bdea7ba9ebc57272ac603f153b87", "type": "electric_scooter", "is_reserved": 0, "lon": -77.03446666666666}, {"fusion_lat": 0.0, "name": "0d5d10cf2672e021bb40b07f630d1af0", "is_disabled": 0, "rental_uris": {"android": "https://dc.lft.to/lastmile_qr_scan", "ios": "https://dc.lft.to/lastmile_qr_scan"}, "fusion_lon": 0.0, "lat": 38.92214516666667, "bike_id": "0d5d10cf2672e021bb40b07f630d1af0", "type": "electric_scooter", "is_reserved": 0, "lon": -76.99629266666666}, {"fusion_lat": 0.0, "name": "c45776ce18bbb220b02fc69eeb84dd19", "is_disabled": 0, "rental_uris": {"android": "https://dc.lft.to/lastmile_qr_scan", "ios": "https://dc.lft.to/lastmile_qr_scan"}, "fusion_lon": 0.0, "lat": 38.89233816666667, "bike_id": "c45776ce18bbb220b02fc69eeb84dd19", "type": "electric_scooter", "is_reserved": 0, "lon": -77.04655283333334}, {"fusion_lat": 0.0, "name": "988893b1703ae16f4812d2d2332f8c2e", "is_disabled": 0, "rental_uris": {"android": "https://dc.lft.to/lastmile_qr_scan", "ios": "https://dc.lft.to/lastmile_qr_scan"}, "fusion_lon": 0.0, "lat": 38.84282016666667, "bike_id": "988893b1703ae16f4812d2d2332f8c2e", "type": "electric_bike", "is_reserved": 0, "lon": -77.044941}, {"fusion_lat": 0.0, "name": "450e15a02009a65783a1099387a98cbd", "is_disabled": 0, "rental_uris": {"android": "https://dc.lft.to/lastmile_qr_scan", "ios": "https://dc.lft.to/lastmile_qr_scan"}, "fusion_lon": 0.0, "lat": 38.927529666666665, "bike_id": "450e15a02009a65783a1099387a98cbd", "type": "electric_scooter", "is_reserved": 0, "lon": -77.02447466666666}, {"fusion_lat": 0.0, "name": "89538ba056d82cce918499c7150a6ecc", "is_disabled": 0, "rental_uris": {"android": "https://dc.lft.to/lastmile_qr_scan", "ios": "https://dc.lft.to/lastmile_qr_scan"}, "fusion_lon": 0.0, "lat": 38.903313833333335, "bike_id": "89538ba056d82cce918499c7150a6ecc", "type": "electric_bike", "is_reserved": 0, "lon": -76.97528366666667}, {"fusion_lat": 0.0, "name": "0df6a8584d810058a5f344938ab5397f", "is_disabled": 0, "rental_uris": {"android": "https://dc.lft.to/lastmile_qr_scan", "ios": "https://dc.lft.to/lastmile_qr_scan"}, "fusion_lon": 0.0, "lat": 38.916846166666666, "bike_id": "0df6a8584d810058a5f344938ab5397f", "type": "electric_scooter", "is_reserved": 0, "lon": -77.02804483333334}, {"fusion_lat": 0.0, "name": "06902330042d73ac3c2a4fc3ceb304aa", "is_disabled": 0, "rental_uris": {"android": "https://dc.lft.to/lastmile_qr_scan", "ios": "https://dc.lft.to/lastmile_qr_scan"}, "fusion_lon": 0.0, "lat": 38.90449866666667, "bike_id": "06902330042d73ac3c2a4fc3ceb304aa", "type": "electric_scooter", "is_reserved": 0, "lon": -77.01999166666667}, {"fusion_lat": 0.0, "name": "ac9844ce7a6e263d5c3c0d883e42a47c", "is_disabled": 0, "rental_uris": {"android": "https://dc.lft.to/lastmile_qr_scan", "ios": "https://dc.lft.to/lastmile_qr_scan"}, "fusion_lon": 0.0, "lat": 38.857362, "bike_id": "ac9844ce7a6e263d5c3c0d883e42a47c", "type": "electric_bike", "is_reserved": 0, "lon": -77.0535175}, {"fusion_lat": 0.0, "name": "d5ccc0920dc28b5cc2fd0e3b4ef47815", "is_disabled": 0, "rental_uris": {"android": "https://dc.lft.to/lastmile_qr_scan", "ios": "https://dc.lft.to/lastmile_qr_scan"}, "fusion_lon": 0.0, "lat": 38.908147, "bike_id": "d5ccc0920dc28b5cc2fd0e3b4ef47815", "type": "electric_scooter", "is_reserved": 0, "lon": -77.04260566666666}, {"fusion_lat": 0.0, "name": "33bd77f831e61733e8d8a632b5c1e7cf", "is_disabled": 0, "rental_uris": {"android": "https://dc.lft.to/lastmile_qr_scan", "ios": "https://dc.lft.to/lastmile_qr_scan"}, "fusion_lon": 0.0, "lat": 38.89559066666666, "bike_id": "33bd77f831e61733e8d8a632b5c1e7cf", "type": "electric_scooter", "is_reserved": 0, "lon": -76.9942885}, {"fusion_lat": 0.0, "name": "3d6225415296f5bf76f20e4bbb54423b", "is_disabled": 0, "rental_uris": {"android": "https://dc.lft.to/lastmile_qr_scan", "ios": "https://dc.lft.to/lastmile_qr_scan"}, "fusion_lon": 0.0, "lat": 38.88210816666667, "bike_id": "3d6225415296f5bf76f20e4bbb54423b", "type": "electric_bike", "is_reserved": 0, "lon": -76.99272283333333}, {"fusion_lat": 0.0, "name": "79a12dd44f7a6209fc2ef80044265cb4", "is_disabled": 0, "rental_uris": {"android": "https://dc.lft.to/lastmile_qr_scan", "ios": "https://dc.lft.to/lastmile_qr_scan"}, "fusion_lon": 0.0, "lat": 38.876687, "bike_id": "79a12dd44f7a6209fc2ef80044265cb4", "type": "electric_scooter", "is_reserved": 0, "lon": -77.01759966666667}, {"fusion_lat": 0.0, "name": "a83f128d35381c211ab13068681a856e", "is_disabled": 0, "rental_uris": {"android": "https://dc.lft.to/lastmile_qr_scan", "ios": "https://dc.lft.to/lastmile_qr_scan"}, "fusion_lon": 0.0, "lat": 38.91931983333333, "bike_id": "a83f128d35381c211ab13068681a856e", "type": "electric_scooter", "is_reserved": 0, "lon": -77.0455935}, {"fusion_lat": 0.0, "name": "89c8b5df85fef51599c3674e20fe7979", "is_disabled": 0, "rental_uris": {"android": "https://dc.lft.to/lastmile_qr_scan", "ios": "https://dc.lft.to/lastmile_qr_scan"}, "fusion_lon": 0.0, "lat": 38.89876916666667, "bike_id": "89c8b5df85fef51599c3674e20fe7979", "type": "electric_bike", "is_reserved": 0, "lon": -77.11333316666666}, {"fusion_lat": 0.0, "name": "241e8f239fbbb4dd2d4bcaa04f2f4597", "is_disabled": 0, "rental_uris": {"android": "https://dc.lft.to/lastmile_qr_scan", "ios": "https://dc.lft.to/lastmile_qr_scan"}, "fusion_lon": 0.0, "lat": 39.01415266666667, "bike_id": "241e8f239fbbb4dd2d4bcaa04f2f4597", "type": "electric_bike", "is_reserved": 0, "lon": -77.04498333333333}, {"fusion_lat": 0.0, "name": "f0de50e9718f1a86c7b3297ce71256e0", "is_disabled": 0, "rental_uris": {"android": "https://dc.lft.to/lastmile_qr_scan", "ios": "https://dc.lft.to/lastmile_qr_scan"}, "fusion_lon": 0.0, "lat": 38.873733, "bike_id": "f0de50e9718f1a86c7b3297ce71256e0", "type": "electric_bike", "is_reserved": 0, "lon": -77.11799516666666}, {"fusion_lat": 0.0, "name": "0ba8c746699a4a38484736e2b333a028", "is_disabled": 0, "rental_uris": {"android": "https://dc.lft.to/lastmile_qr_scan", "ios": "https://dc.lft.to/lastmile_qr_scan"}, "fusion_lon": 0.0, "lat": 38.92382, "bike_id": "0ba8c746699a4a38484736e2b333a028", "type": "electric_scooter", "is_reserved": 0, "lon": -77.04112883333333}, {"fusion_lat": 0.0, "name": "bad3d1b43c25c4f65d24258cd11f6689", "is_disabled": 0, "rental_uris": {"android": "https://dc.lft.to/lastmile_qr_scan", "ios": "https://dc.lft.to/lastmile_qr_scan"}, "fusion_lon": 0.0, "lat": 38.911085, "bike_id": "bad3d1b43c25c4f65d24258cd11f6689", "type": "electric_scooter", "is_reserved": 0, "lon": -77.0210195}, {"fusion_lat": 0.0, "name": "bfa65b00a7f6cb6b65186be0ea6fcf69", "is_disabled": 0, "rental_uris": {"android": "https://dc.lft.to/lastmile_qr_scan", "ios": "https://dc.lft.to/lastmile_qr_scan"}, "fusion_lon": 0.0, "lat": 38.91996866666667, "bike_id": "bfa65b00a7f6cb6b65186be0ea6fcf69", "type": "electric_scooter", "is_reserved": 0, "lon": -77.07193516666666}, {"fusion_lat": 0.0, "name": "f39f0c9d9301b4164b890028606c4b26", "is_disabled": 0, "rental_uris": {"android": "https://dc.lft.to/lastmile_qr_scan", "ios": "https://dc.lft.to/lastmile_qr_scan"}, "fusion_lon": 0.0, "lat": 38.854229833333335, "bike_id": "f39f0c9d9301b4164b890028606c4b26", "type": "electric_bike", "is_reserved": 0, "lon": -77.1207925}, {"fusion_lat": 0.0, "name": "b8956c674f2e669463e2de72b1bb96e6", "is_disabled": 0, "rental_uris": {"android": "https://dc.lft.to/lastmile_qr_scan", "ios": "https://dc.lft.to/lastmile_qr_scan"}, "fusion_lon": 0.0, "lat": 38.8075385, "bike_id": "b8956c674f2e669463e2de72b1bb96e6", "type": "electric_bike", "is_reserved": 0, "lon": -77.09455666666666}, {"fusion_lat": 0.0, "name": "2f17689ec130cefe57927fa095922ae1", "is_disabled": 0, "rental_uris": {"android": "https://dc.lft.to/lastmile_qr_scan", "ios": "https://dc.lft.to/lastmile_qr_scan"}, "fusion_lon": 0.0, "lat": 38.8829865, "bike_id": "2f17689ec130cefe57927fa095922ae1", "type": "electric_scooter", "is_reserved": 0, "lon": -76.94853566666667}, {"fusion_lat": 0.0, "name": "f3b526c8813bdcb34f5d3a089afe8f2b", "is_disabled": 0, "rental_uris": {"android": "https://dc.lft.to/lastmile_qr_scan", "ios": "https://dc.lft.to/lastmile_qr_scan"}, "fusion_lon": 0.0, "lat": 38.88654116666667, "bike_id": "f3b526c8813bdcb34f5d3a089afe8f2b", "type": "electric_scooter", "is_reserved": 0, "lon": -77.01983666666666}, {"fusion_lat": 0.0, "name": "6adcbeb099efe83d078665706eb5ca89", "is_disabled": 0, "rental_uris": {"android": "https://dc.lft.to/lastmile_qr_scan", "ios": "https://dc.lft.to/lastmile_qr_scan"}, "fusion_lon": 0.0, "lat": 38.9055875, "bike_id": "6adcbeb099efe83d078665706eb5ca89", "type": "electric_scooter", "is_reserved": 0, "lon": -77.00566216666667}, {"fusion_lat": 0.0, "name": "359ca6d74a423bfac0b59c5fa5d124d2", "is_disabled": 0, "rental_uris": {"android": "https://dc.lft.to/lastmile_qr_scan", "ios": "https://dc.lft.to/lastmile_qr_scan"}, "fusion_lon": 0.0, "lat": 38.906207, "bike_id": "359ca6d74a423bfac0b59c5fa5d124d2", "type": "electric_scooter", "is_reserved": 0, "lon": -77.04132633333333}, {"fusion_lat": 0.0, "name": "d95c1bab0e1f25917d7e9de9cf1ada07", "is_disabled": 0, "rental_uris": {"android": "https://dc.lft.to/lastmile_qr_scan", "ios": "https://dc.lft.to/lastmile_qr_scan"}, "fusion_lon": 0.0, "lat": 38.931465833333334, "bike_id": "d95c1bab0e1f25917d7e9de9cf1ada07", "type": "electric_scooter", "is_reserved": 0, "lon": -77.03957766666667}, {"fusion_lat": 0.0, "name": "13cf0fea47db3957c75af4a348085ad7", "is_disabled": 0, "rental_uris": {"android": "https://dc.lft.to/lastmile_qr_scan", "ios": "https://dc.lft.to/lastmile_qr_scan"}, "fusion_lon": 0.0, "lat": 38.926841, "bike_id": "13cf0fea47db3957c75af4a348085ad7", "type": "electric_scooter", "is_reserved": 0, "lon": -77.02544183333333}, {"fusion_lat": 0.0, "name": "ecd45318ea9941615a184617a3ac19bf", "is_disabled": 0, "rental_uris": {"android": "https://dc.lft.to/lastmile_qr_scan", "ios": "https://dc.lft.to/lastmile_qr_scan"}, "fusion_lon": 0.0, "lat": 38.940784, "bike_id": "ecd45318ea9941615a184617a3ac19bf", "type": "electric_scooter", "is_reserved": 0, "lon": -77.05215283333334}, {"fusion_lat": 0.0, "name": "7b962b009870095bed263f36be484ca6", "is_disabled": 0, "rental_uris": {"android": "https://dc.lft.to/lastmile_qr_scan", "ios": "https://dc.lft.to/lastmile_qr_scan"}, "fusion_lon": 0.0, "lat": 38.84841766666667, "bike_id": "7b962b009870095bed263f36be484ca6", "type": "electric_bike", "is_reserved": 0, "lon": -77.07915616666666}, {"fusion_lat": 0.0, "name": "606467d99951c5b938fc730d8de7f39a", "is_disabled": 0, "rental_uris": {"android": "https://dc.lft.to/lastmile_qr_scan", "ios": "https://dc.lft.to/lastmile_qr_scan"}, "fusion_lon": 0.0, "lat": 38.91464033333333, "bike_id": "606467d99951c5b938fc730d8de7f39a", "type": "electric_scooter", "is_reserved": 0, "lon": -77.02179833333334}, {"fusion_lat": 0.0, "name": "d5cf5379cc550bd1c746bb01a10bef24", "is_disabled": 0, "rental_uris": {"android": "https://dc.lft.to/lastmile_qr_scan", "ios": "https://dc.lft.to/lastmile_qr_scan"}, "fusion_lon": 0.0, "lat": 38.909153, "bike_id": "d5cf5379cc550bd1c746bb01a10bef24", "type": "electric_scooter", "is_reserved": 0, "lon": -77.03644733333333}, {"fusion_lat": 0.0, "name": "e7f0f85a7325fad297aef328ff642697", "is_disabled": 0, "rental_uris": {"android": "https://dc.lft.to/lastmile_qr_scan", "ios": "https://dc.lft.to/lastmile_qr_scan"}, "fusion_lon": 0.0, "lat": 38.9643965, "bike_id": "e7f0f85a7325fad297aef328ff642697", "type": "electric_bike", "is_reserved": 0, "lon": -77.02068516666667}, {"fusion_lat": 0.0, "name": "d7c2ff7657c77fb74a4f09d8da92316e", "is_disabled": 0, "rental_uris": {"android": "https://dc.lft.to/lastmile_qr_scan", "ios": "https://dc.lft.to/lastmile_qr_scan"}, "fusion_lon": 0.0, "lat": 38.897516833333334, "bike_id": "d7c2ff7657c77fb74a4f09d8da92316e", "type": "electric_scooter", "is_reserved": 0, "lon": -77.04884766666666}, {"fusion_lat": 0.0, "name": "466b16364de175ea508c7f5b1d9b5419", "is_disabled": 0, "rental_uris": {"android": "https://dc.lft.to/lastmile_qr_scan", "ios": "https://dc.lft.to/lastmile_qr_scan"}, "fusion_lon": 0.0, "lat": 38.9365115, "bike_id": "466b16364de175ea508c7f5b1d9b5419", "type": "electric_scooter", "is_reserved": 0, "lon": -77.036818}, {"fusion_lat": 0.0, "name": "0903a337491bc457789b6b2f023a59ec", "is_disabled": 0, "rental_uris": {"android": "https://dc.lft.to/lastmile_qr_scan", "ios": "https://dc.lft.to/lastmile_qr_scan"}, "fusion_lon": 0.0, "lat": 38.9201765, "bike_id": "0903a337491bc457789b6b2f023a59ec", "type": "electric_scooter", "is_reserved": 0, "lon": -77.08189483333334}, {"fusion_lat": 0.0, "name": "248b654610df5bc84da38171ea37ab83", "is_disabled": 0, "rental_uris": {"android": "https://dc.lft.to/lastmile_qr_scan", "ios": "https://dc.lft.to/lastmile_qr_scan"}, "fusion_lon": 0.0, "lat": 38.96676566666667, "bike_id": "248b654610df5bc84da38171ea37ab83", "type": "electric_bike", "is_reserved": 0, "lon": -77.02169716666667}, {"fusion_lat": 0.0, "name": "94dd0b577f6c89c82f93322e602a4ca1", "is_disabled": 0, "rental_uris": {"android": "https://dc.lft.to/lastmile_qr_scan", "ios": "https://dc.lft.to/lastmile_qr_scan"}, "fusion_lon": 0.0, "lat": 38.882413666666665, "bike_id": "94dd0b577f6c89c82f93322e602a4ca1", "type": "electric_scooter", "is_reserved": 0, "lon": -77.00358266666667}, {"fusion_lat": 0.0, "name": "e29c4eb4ee6430ec626cdb7720f04145", "is_disabled": 0, "rental_uris": {"android": "https://dc.lft.to/lastmile_qr_scan", "ios": "https://dc.lft.to/lastmile_qr_scan"}, "fusion_lon": 0.0, "lat": 38.89485, "bike_id": "e29c4eb4ee6430ec626cdb7720f04145", "type": "electric_scooter", "is_reserved": 0, "lon": -77.01111466666667}, {"fusion_lat": 0.0, "name": "08e4c5aedbbc6e44708f44706e2b7dde", "is_disabled": 0, "rental_uris": {"android": "https://dc.lft.to/lastmile_qr_scan", "ios": "https://dc.lft.to/lastmile_qr_scan"}, "fusion_lon": 0.0, "lat": 38.92207633333334, "bike_id": "08e4c5aedbbc6e44708f44706e2b7dde", "type": "electric_scooter", "is_reserved": 0, "lon": -77.02014833333334}, {"fusion_lat": 0.0, "name": "2ad53cc42a3cb0cdb13855806d79d70a", "is_disabled": 0, "rental_uris": {"android": "https://dc.lft.to/lastmile_qr_scan", "ios": "https://dc.lft.to/lastmile_qr_scan"}, "fusion_lon": 0.0, "lat": 38.920726, "bike_id": "2ad53cc42a3cb0cdb13855806d79d70a", "type": "electric_scooter", "is_reserved": 0, "lon": -77.022784}, {"fusion_lat": 0.0, "name": "64039662a94cd0983e255042812fadfa", "is_disabled": 0, "rental_uris": {"android": "https://dc.lft.to/lastmile_qr_scan", "ios": "https://dc.lft.to/lastmile_qr_scan"}, "fusion_lon": 0.0, "lat": 38.93182383333333, "bike_id": "64039662a94cd0983e255042812fadfa", "type": "electric_scooter", "is_reserved": 0, "lon": -77.0429985}, {"fusion_lat": 0.0, "name": "4b290024938fa019d87ec2cb215b5bc3", "is_disabled": 0, "rental_uris": {"android": "https://dc.lft.to/lastmile_qr_scan", "ios": "https://dc.lft.to/lastmile_qr_scan"}, "fusion_lon": 0.0, "lat": 38.88712683333333, "bike_id": "4b290024938fa019d87ec2cb215b5bc3", "type": "electric_scooter", "is_reserved": 0, "lon": -77.02579433333334}, {"fusion_lat": 0.0, "name": "2269e0ae2c9b46fb7a9adc0c4baf8ebf", "is_disabled": 0, "rental_uris": {"android": "https://dc.lft.to/lastmile_qr_scan", "ios": "https://dc.lft.to/lastmile_qr_scan"}, "fusion_lon": 0.0, "lat": 38.890145833333335, "bike_id": "2269e0ae2c9b46fb7a9adc0c4baf8ebf", "type": "electric_scooter", "is_reserved": 0, "lon": -76.93733316666666}, {"fusion_lat": 0.0, "name": "b77d2234f21a6b0a2457aa0b8651baa0", "is_disabled": 0, "rental_uris": {"android": "https://dc.lft.to/lastmile_qr_scan", "ios": "https://dc.lft.to/lastmile_qr_scan"}, "fusion_lon": 0.0, "lat": 38.9462745, "bike_id": "b77d2234f21a6b0a2457aa0b8651baa0", "type": "electric_scooter", "is_reserved": 0, "lon": -77.0184635}, {"fusion_lat": 0.0, "name": "09c416d90a69b79e47486052b717242a", "is_disabled": 0, "rental_uris": {"android": "https://dc.lft.to/lastmile_qr_scan", "ios": "https://dc.lft.to/lastmile_qr_scan"}, "fusion_lon": 0.0, "lat": 38.900631, "bike_id": "09c416d90a69b79e47486052b717242a", "type": "electric_scooter", "is_reserved": 0, "lon": -77.00221616666667}, {"fusion_lat": 0.0, "name": "9df6ff5ed248ede3cdab2f022316daf5", "is_disabled": 0, "rental_uris": {"android": "https://dc.lft.to/lastmile_qr_scan", "ios": "https://dc.lft.to/lastmile_qr_scan"}, "fusion_lon": 0.0, "lat": 38.91103066666667, "bike_id": "9df6ff5ed248ede3cdab2f022316daf5", "type": "electric_scooter", "is_reserved": 0, "lon": -77.01152466666667}, {"fusion_lat": 0.0, "name": "38af7dc890320ec720a8526fe95c85f9", "is_disabled": 0, "rental_uris": {"android": "https://dc.lft.to/lastmile_qr_scan", "ios": "https://dc.lft.to/lastmile_qr_scan"}, "fusion_lon": 0.0, "lat": 38.8984335, "bike_id": "38af7dc890320ec720a8526fe95c85f9", "type": "electric_scooter", "is_reserved": 0, "lon": -77.02972616666666}, {"fusion_lat": 0.0, "name": "271d8a2d1a18ff70448c6d337216e594", "is_disabled": 0, "rental_uris": {"android": "https://dc.lft.to/lastmile_qr_scan", "ios": "https://dc.lft.to/lastmile_qr_scan"}, "fusion_lon": 0.0, "lat": 38.871806166666666, "bike_id": "271d8a2d1a18ff70448c6d337216e594", "type": "electric_scooter", "is_reserved": 0, "lon": -77.00924833333333}, {"fusion_lat": 0.0, "name": "601c4184b24562b4c3291e0045d7b77c", "is_disabled": 0, "rental_uris": {"android": "https://dc.lft.to/lastmile_qr_scan", "ios": "https://dc.lft.to/lastmile_qr_scan"}, "fusion_lon": 0.0, "lat": 38.918851833333335, "bike_id": "601c4184b24562b4c3291e0045d7b77c", "type": "electric_scooter", "is_reserved": 0, "lon": -77.03489783333333}, {"fusion_lat": 0.0, "name": "f5c573eab649068b2866570580670068", "is_disabled": 0, "rental_uris": {"android": "https://dc.lft.to/lastmile_qr_scan", "ios": "https://dc.lft.to/lastmile_qr_scan"}, "fusion_lon": 0.0, "lat": 38.928675, "bike_id": "f5c573eab649068b2866570580670068", "type": "electric_scooter", "is_reserved": 0, "lon": -77.02731916666667}, {"fusion_lat": 0.0, "name": "a70fce5e9279e6f04f1e04e90a16a56e", "is_disabled": 0, "rental_uris": {"android": "https://dc.lft.to/lastmile_qr_scan", "ios": "https://dc.lft.to/lastmile_qr_scan"}, "fusion_lon": 0.0, "lat": 38.904549, "bike_id": "a70fce5e9279e6f04f1e04e90a16a56e", "type": "electric_scooter", "is_reserved": 0, "lon": -77.0532005}, {"fusion_lat": 0.0, "name": "622502dc6bd5bbbfbe333b3a052195a3", "is_disabled": 0, "rental_uris": {"android": "https://dc.lft.to/lastmile_qr_scan", "ios": "https://dc.lft.to/lastmile_qr_scan"}, "fusion_lon": 0.0, "lat": 38.907644, "bike_id": "622502dc6bd5bbbfbe333b3a052195a3", "type": "electric_scooter", "is_reserved": 0, "lon": -77.05591266666667}, {"fusion_lat": 0.0, "name": "eee3c670a2c546d7afec98cb07264c07", "is_disabled": 0, "rental_uris": {"android": "https://dc.lft.to/lastmile_qr_scan", "ios": "https://dc.lft.to/lastmile_qr_scan"}, "fusion_lon": 0.0, "lat": 38.9047875, "bike_id": "eee3c670a2c546d7afec98cb07264c07", "type": "electric_scooter", "is_reserved": 0, "lon": -77.03253716666667}, {"fusion_lat": 0.0, "name": "b009b779ba2de63b5b4f858018ea3a3b", "is_disabled": 0, "rental_uris": {"android": "https://dc.lft.to/lastmile_qr_scan", "ios": "https://dc.lft.to/lastmile_qr_scan"}, "fusion_lon": 0.0, "lat": 38.91426716666667, "bike_id": "b009b779ba2de63b5b4f858018ea3a3b", "type": "electric_scooter", "is_reserved": 0, "lon": -77.02196416666666}, {"fusion_lat": 0.0, "name": "8ba4931658704978aa5ee19a516c8c8c", "is_disabled": 0, "rental_uris": {"android": "https://dc.lft.to/lastmile_qr_scan", "ios": "https://dc.lft.to/lastmile_qr_scan"}, "fusion_lon": 0.0, "lat": 38.906805166666665, "bike_id": "8ba4931658704978aa5ee19a516c8c8c", "type": "electric_scooter", "is_reserved": 0, "lon": -77.0721265}, {"fusion_lat": 0.0, "name": "5203b33dd04d5a166891e3b87bce3d00", "is_disabled": 0, "rental_uris": {"android": "https://dc.lft.to/lastmile_qr_scan", "ios": "https://dc.lft.to/lastmile_qr_scan"}, "fusion_lon": 0.0, "lat": 38.9126765, "bike_id": "5203b33dd04d5a166891e3b87bce3d00", "type": "electric_scooter", "is_reserved": 0, "lon": -77.03827083333333}, {"fusion_lat": 0.0, "name": "9d2b12458911a4da4d7dc1525070e657", "is_disabled": 0, "rental_uris": {"android": "https://dc.lft.to/lastmile_qr_scan", "ios": "https://dc.lft.to/lastmile_qr_scan"}, "fusion_lon": 0.0, "lat": 38.900625, "bike_id": "9d2b12458911a4da4d7dc1525070e657", "type": "electric_scooter", "is_reserved": 0, "lon": -76.93385616666667}, {"fusion_lat": 0.0, "name": "c4e6f2662151340c2c3a9e01c43432b4", "is_disabled": 0, "rental_uris": {"android": "https://dc.lft.to/lastmile_qr_scan", "ios": "https://dc.lft.to/lastmile_qr_scan"}, "fusion_lon": 0.0, "lat": 38.915501, "bike_id": "c4e6f2662151340c2c3a9e01c43432b4", "type": "electric_scooter", "is_reserved": 0, "lon": -77.01132916666667}, {"fusion_lat": 0.0, "name": "bbe67df3d77b54fd9876035c714bc06f", "is_disabled": 0, "rental_uris": {"android": "https://dc.lft.to/lastmile_qr_scan", "ios": "https://dc.lft.to/lastmile_qr_scan"}, "fusion_lon": 0.0, "lat": 38.83515216666667, "bike_id": "bbe67df3d77b54fd9876035c714bc06f", "type": "electric_bike", "is_reserved": 0, "lon": -76.986771}, {"fusion_lat": 0.0, "name": "04f5bf5ae6dace18fdab165138d2d242", "is_disabled": 0, "rental_uris": {"android": "https://dc.lft.to/lastmile_qr_scan", "ios": "https://dc.lft.to/lastmile_qr_scan"}, "fusion_lon": 0.0, "lat": 38.939998333333335, "bike_id": "04f5bf5ae6dace18fdab165138d2d242", "type": "electric_scooter", "is_reserved": 0, "lon": -77.08426866666667}, {"fusion_lat": 0.0, "name": "0f278017b4be11d74aa957fad6cebfad", "is_disabled": 0, "rental_uris": {"android": "https://dc.lft.to/lastmile_qr_scan", "ios": "https://dc.lft.to/lastmile_qr_scan"}, "fusion_lon": 0.0, "lat": 38.94271083333334, "bike_id": "0f278017b4be11d74aa957fad6cebfad", "type": "electric_scooter", "is_reserved": 0, "lon": -77.032608}, {"fusion_lat": 0.0, "name": "0a827632e468cf90262935b323d21e63", "is_disabled": 0, "rental_uris": {"android": "https://dc.lft.to/lastmile_qr_scan", "ios": "https://dc.lft.to/lastmile_qr_scan"}, "fusion_lon": 0.0, "lat": 38.88526683333333, "bike_id": "0a827632e468cf90262935b323d21e63", "type": "electric_scooter", "is_reserved": 0, "lon": -76.92916116666666}, {"fusion_lat": 0.0, "name": "dceccdeaa6b0973c40d5387f6ed2689a", "is_disabled": 0, "rental_uris": {"android": "https://dc.lft.to/lastmile_qr_scan", "ios": "https://dc.lft.to/lastmile_qr_scan"}, "fusion_lon": 0.0, "lat": 38.90847266666667, "bike_id": "dceccdeaa6b0973c40d5387f6ed2689a", "type": "electric_scooter", "is_reserved": 0, "lon": -77.033043}, {"fusion_lat": 0.0, "name": "7c286fd8a516f55a569f9bd47cc9e0d1", "is_disabled": 0, "rental_uris": {"android": "https://dc.lft.to/lastmile_qr_scan", "ios": "https://dc.lft.to/lastmile_qr_scan"}, "fusion_lon": 0.0, "lat": 38.90575033333333, "bike_id": "7c286fd8a516f55a569f9bd47cc9e0d1", "type": "electric_scooter", "is_reserved": 0, "lon": -77.02605133333333}, {"fusion_lat": 0.0, "name": "0f008f0903fd2f360a640b58969129aa", "is_disabled": 0, "rental_uris": {"android": "https://dc.lft.to/lastmile_qr_scan", "ios": "https://dc.lft.to/lastmile_qr_scan"}, "fusion_lon": 0.0, "lat": 38.92836716666667, "bike_id": "0f008f0903fd2f360a640b58969129aa", "type": "electric_scooter", "is_reserved": 0, "lon": -77.01587183333334}, {"fusion_lat": 0.0, "name": "403586ac1c74d46c2325a5d90e115930", "is_disabled": 0, "rental_uris": {"android": "https://dc.lft.to/lastmile_qr_scan", "ios": "https://dc.lft.to/lastmile_qr_scan"}, "fusion_lon": 0.0, "lat": 38.8991125, "bike_id": "403586ac1c74d46c2325a5d90e115930", "type": "electric_scooter", "is_reserved": 0, "lon": -76.94586933333333}, {"fusion_lat": 0.0, "name": "dfd7d47d5d7c93f773f62ca8d43a0db6", "is_disabled": 0, "rental_uris": {"android": "https://dc.lft.to/lastmile_qr_scan", "ios": "https://dc.lft.to/lastmile_qr_scan"}, "fusion_lon": 0.0, "lat": 38.875811166666665, "bike_id": "dfd7d47d5d7c93f773f62ca8d43a0db6", "type": "electric_bike", "is_reserved": 0, "lon": -77.23411466666667}, {"fusion_lat": 0.0, "name": "f572aaaf630cdab3a82baa25694f935c", "is_disabled": 0, "rental_uris": {"android": "https://dc.lft.to/lastmile_qr_scan", "ios": "https://dc.lft.to/lastmile_qr_scan"}, "fusion_lon": 0.0, "lat": 38.9390855, "bike_id": "f572aaaf630cdab3a82baa25694f935c", "type": "electric_scooter", "is_reserved": 0, "lon": -77.07800316666666}, {"fusion_lat": 0.0, "name": "a00da199e1d76d1f03abed42380306a8", "is_disabled": 0, "rental_uris": {"android": "https://dc.lft.to/lastmile_qr_scan", "ios": "https://dc.lft.to/lastmile_qr_scan"}, "fusion_lon": 0.0, "lat": 38.88830933333333, "bike_id": "a00da199e1d76d1f03abed42380306a8", "type": "electric_scooter", "is_reserved": 0, "lon": -77.04912083333333}, {"fusion_lat": 0.0, "name": "5b635069bd4f1f38c6552272a1b4c104", "is_disabled": 0, "rental_uris": {"android": "https://dc.lft.to/lastmile_qr_scan", "ios": "https://dc.lft.to/lastmile_qr_scan"}, "fusion_lon": 0.0, "lat": 38.90777666666666, "bike_id": "5b635069bd4f1f38c6552272a1b4c104", "type": "electric_scooter", "is_reserved": 0, "lon": -77.042491}, {"fusion_lat": 0.0, "name": "f3af45b7a65113b3cf705ba25df9045f", "is_disabled": 0, "rental_uris": {"android": "https://dc.lft.to/lastmile_qr_scan", "ios": "https://dc.lft.to/lastmile_qr_scan"}, "fusion_lon": 0.0, "lat": 38.91552, "bike_id": "f3af45b7a65113b3cf705ba25df9045f", "type": "electric_scooter", "is_reserved": 0, "lon": -77.0036475}, {"fusion_lat": 0.0, "name": "f5a4b07b0c0d82a53228b79e9a7528b1", "is_disabled": 0, "rental_uris": {"android": "https://dc.lft.to/lastmile_qr_scan", "ios": "https://dc.lft.to/lastmile_qr_scan"}, "fusion_lon": 0.0, "lat": 38.89910033333334, "bike_id": "f5a4b07b0c0d82a53228b79e9a7528b1", "type": "electric_scooter", "is_reserved": 0, "lon": -76.9334805}, {"fusion_lat": 0.0, "name": "3422d701d7f34164ac32747706ccacbf", "is_disabled": 0, "rental_uris": {"android": "https://dc.lft.to/lastmile_qr_scan", "ios": "https://dc.lft.to/lastmile_qr_scan"}, "fusion_lon": 0.0, "lat": 38.919229333333334, "bike_id": "3422d701d7f34164ac32747706ccacbf", "type": "electric_scooter", "is_reserved": 0, "lon": -77.02658733333334}, {"fusion_lat": 0.0, "name": "7172f44f77fd106f7f43e1e63bf4095a", "is_disabled": 0, "rental_uris": {"android": "https://dc.lft.to/lastmile_qr_scan", "ios": "https://dc.lft.to/lastmile_qr_scan"}, "fusion_lon": 0.0, "lat": 38.92265716666667, "bike_id": "7172f44f77fd106f7f43e1e63bf4095a", "type": "electric_scooter", "is_reserved": 0, "lon": -77.03518783333334}, {"fusion_lat": 0.0, "name": "56007856827493a6ffacb0fd08c02af8", "is_disabled": 0, "rental_uris": {"android": "https://dc.lft.to/lastmile_qr_scan", "ios": "https://dc.lft.to/lastmile_qr_scan"}, "fusion_lon": 0.0, "lat": 38.905186666666665, "bike_id": "56007856827493a6ffacb0fd08c02af8", "type": "electric_scooter", "is_reserved": 0, "lon": -77.0677215}, {"fusion_lat": 0.0, "name": "29241982bcb1e038a80e3b33055feed3", "is_disabled": 0, "rental_uris": {"android": "https://dc.lft.to/lastmile_qr_scan", "ios": "https://dc.lft.to/lastmile_qr_scan"}, "fusion_lon": 0.0, "lat": 38.930309666666666, "bike_id": "29241982bcb1e038a80e3b33055feed3", "type": "electric_scooter", "is_reserved": 0, "lon": -77.03786333333333}, {"fusion_lat": 0.0, "name": "2c3d5f7bcbf3fdc1aa398e76ed25ac0b", "is_disabled": 0, "rental_uris": {"android": "https://dc.lft.to/lastmile_qr_scan", "ios": "https://dc.lft.to/lastmile_qr_scan"}, "fusion_lon": 0.0, "lat": 38.9663375, "bike_id": "2c3d5f7bcbf3fdc1aa398e76ed25ac0b", "type": "electric_bike", "is_reserved": 0, "lon": -77.02749166666666}, {"fusion_lat": 0.0, "name": "398c41151d94044c4335f79fc41f63aa", "is_disabled": 0, "rental_uris": {"android": "https://dc.lft.to/lastmile_qr_scan", "ios": "https://dc.lft.to/lastmile_qr_scan"}, "fusion_lon": 0.0, "lat": 38.86267483333334, "bike_id": "398c41151d94044c4335f79fc41f63aa", "type": "electric_bike", "is_reserved": 0, "lon": -76.98345966666666}, {"fusion_lat": 0.0, "name": "a2298dc1d2a63d11739130ac47fa3048", "is_disabled": 0, "rental_uris": {"android": "https://dc.lft.to/lastmile_qr_scan", "ios": "https://dc.lft.to/lastmile_qr_scan"}, "fusion_lon": 0.0, "lat": 38.897442, "bike_id": "a2298dc1d2a63d11739130ac47fa3048", "type": "electric_scooter", "is_reserved": 0, "lon": -77.00196583333333}, {"fusion_lat": 0.0, "name": "17dd4e5eb1be7c4210a94eb4202e5568", "is_disabled": 0, "rental_uris": {"android": "https://dc.lft.to/lastmile_qr_scan", "ios": "https://dc.lft.to/lastmile_qr_scan"}, "fusion_lon": 0.0, "lat": 38.88394566666667, "bike_id": "17dd4e5eb1be7c4210a94eb4202e5568", "type": "electric_scooter", "is_reserved": 0, "lon": -76.930361}, {"fusion_lat": 0.0, "name": "6aae4b2c27341bd4b14fa6f0894684be", "is_disabled": 0, "rental_uris": {"android": "https://dc.lft.to/lastmile_qr_scan", "ios": "https://dc.lft.to/lastmile_qr_scan"}, "fusion_lon": 0.0, "lat": 38.93675433333333, "bike_id": "6aae4b2c27341bd4b14fa6f0894684be", "type": "electric_scooter", "is_reserved": 0, "lon": -77.03639833333334}, {"fusion_lat": 0.0, "name": "0acba3cf7ad8f202d293bcd566a797ac", "is_disabled": 0, "rental_uris": {"android": "https://dc.lft.to/lastmile_qr_scan", "ios": "https://dc.lft.to/lastmile_qr_scan"}, "fusion_lon": 0.0, "lat": 38.928661166666664, "bike_id": "0acba3cf7ad8f202d293bcd566a797ac", "type": "electric_scooter", "is_reserved": 0, "lon": -77.0733915}, {"fusion_lat": 0.0, "name": "c7f6170f2c2da56d7272dc3778eadd86", "is_disabled": 0, "rental_uris": {"android": "https://dc.lft.to/lastmile_qr_scan", "ios": "https://dc.lft.to/lastmile_qr_scan"}, "fusion_lon": 0.0, "lat": 38.9006285, "bike_id": "c7f6170f2c2da56d7272dc3778eadd86", "type": "electric_scooter", "is_reserved": 0, "lon": -77.01628116666667}, {"fusion_lat": 0.0, "name": "21bc7628d2a74026fc3f1b23e9dba504", "is_disabled": 0, "rental_uris": {"android": "https://dc.lft.to/lastmile_qr_scan", "ios": "https://dc.lft.to/lastmile_qr_scan"}, "fusion_lon": 0.0, "lat": 38.9101255, "bike_id": "21bc7628d2a74026fc3f1b23e9dba504", "type": "electric_scooter", "is_reserved": 0, "lon": -77.05281633333334}, {"fusion_lat": 0.0, "name": "43745b2fce060415e6c034c536b10110", "is_disabled": 0, "rental_uris": {"android": "https://dc.lft.to/lastmile_qr_scan", "ios": "https://dc.lft.to/lastmile_qr_scan"}, "fusion_lon": 0.0, "lat": 38.927693166666664, "bike_id": "43745b2fce060415e6c034c536b10110", "type": "electric_scooter", "is_reserved": 0, "lon": -77.02746183333333}, {"fusion_lat": 0.0, "name": "10fd0920d7f28d34bb2667bba16d6e65", "is_disabled": 0, "rental_uris": {"android": "https://dc.lft.to/lastmile_qr_scan", "ios": "https://dc.lft.to/lastmile_qr_scan"}, "fusion_lon": 0.0, "lat": 38.841928833333334, "bike_id": "10fd0920d7f28d34bb2667bba16d6e65", "type": "electric_bike", "is_reserved": 0, "lon": -77.07752516666666}, {"fusion_lat": 0.0, "name": "7d543888dd3450599b35ccaa23a5b74b", "is_disabled": 0, "rental_uris": {"android": "https://dc.lft.to/lastmile_qr_scan", "ios": "https://dc.lft.to/lastmile_qr_scan"}, "fusion_lon": 0.0, "lat": 38.883453, "bike_id": "7d543888dd3450599b35ccaa23a5b74b", "type": "electric_scooter", "is_reserved": 0, "lon": -77.01366233333333}, {"fusion_lat": 0.0, "name": "8559547b00a25e9eb945dd4c83bdf9ff", "is_disabled": 0, "rental_uris": {"android": "https://dc.lft.to/lastmile_qr_scan", "ios": "https://dc.lft.to/lastmile_qr_scan"}, "fusion_lon": 0.0, "lat": 38.824594, "bike_id": "8559547b00a25e9eb945dd4c83bdf9ff", "type": "electric_bike", "is_reserved": 0, "lon": -77.00792183333333}, {"fusion_lat": 0.0, "name": "88431d025a1a2ab6977a187bc50c2e0c", "is_disabled": 0, "rental_uris": {"android": "https://dc.lft.to/lastmile_qr_scan", "ios": "https://dc.lft.to/lastmile_qr_scan"}, "fusion_lon": 0.0, "lat": 38.929641333333336, "bike_id": "88431d025a1a2ab6977a187bc50c2e0c", "type": "electric_scooter", "is_reserved": 0, "lon": -77.019766}, {"fusion_lat": 0.0, "name": "1f53612a0c96fec7735e69f1003e23c0", "is_disabled": 0, "rental_uris": {"android": "https://dc.lft.to/lastmile_qr_scan", "ios": "https://dc.lft.to/lastmile_qr_scan"}, "fusion_lon": 0.0, "lat": 38.89224333333333, "bike_id": "1f53612a0c96fec7735e69f1003e23c0", "type": "electric_scooter", "is_reserved": 0, "lon": -77.03216466666667}, {"fusion_lat": 0.0, "name": "3a5e5bb5273b4b9a2dec2322da294a6b", "is_disabled": 0, "rental_uris": {"android": "https://dc.lft.to/lastmile_qr_scan", "ios": "https://dc.lft.to/lastmile_qr_scan"}, "fusion_lon": 0.0, "lat": 38.91082566666667, "bike_id": "3a5e5bb5273b4b9a2dec2322da294a6b", "type": "electric_scooter", "is_reserved": 0, "lon": -77.06501433333334}, {"fusion_lat": 0.0, "name": "3cac80e675a79fc3f19c18926c6cdf76", "is_disabled": 0, "rental_uris": {"android": "https://dc.lft.to/lastmile_qr_scan", "ios": "https://dc.lft.to/lastmile_qr_scan"}, "fusion_lon": 0.0, "lat": 38.887655333333335, "bike_id": "3cac80e675a79fc3f19c18926c6cdf76", "type": "electric_scooter", "is_reserved": 0, "lon": -76.977573}, {"fusion_lat": 0.0, "name": "5c1d5a84a01e4ac564577658521cb280", "is_disabled": 0, "rental_uris": {"android": "https://dc.lft.to/lastmile_qr_scan", "ios": "https://dc.lft.to/lastmile_qr_scan"}, "fusion_lon": 0.0, "lat": 38.842967333333334, "bike_id": "5c1d5a84a01e4ac564577658521cb280", "type": "electric_bike", "is_reserved": 0, "lon": -77.1086365}, {"fusion_lat": 0.0, "name": "ea3e1c54df70f31b5ebf4f9b3f70a14e", "is_disabled": 0, "rental_uris": {"android": "https://dc.lft.to/lastmile_qr_scan", "ios": "https://dc.lft.to/lastmile_qr_scan"}, "fusion_lon": 0.0, "lat": 38.892297, "bike_id": "ea3e1c54df70f31b5ebf4f9b3f70a14e", "type": "electric_scooter", "is_reserved": 0, "lon": -77.024092}, {"fusion_lat": 0.0, "name": "c0601a446ee06d77dd9068ae5fb40ebb", "is_disabled": 0, "rental_uris": {"android": "https://dc.lft.to/lastmile_qr_scan", "ios": "https://dc.lft.to/lastmile_qr_scan"}, "fusion_lon": 0.0, "lat": 38.9140205, "bike_id": "c0601a446ee06d77dd9068ae5fb40ebb", "type": "electric_scooter", "is_reserved": 0, "lon": -77.00837333333334}, {"fusion_lat": 0.0, "name": "3a53af4667e648a72bd61c01f3de1ba0", "is_disabled": 0, "rental_uris": {"android": "https://dc.lft.to/lastmile_qr_scan", "ios": "https://dc.lft.to/lastmile_qr_scan"}, "fusion_lon": 0.0, "lat": 38.9093355, "bike_id": "3a53af4667e648a72bd61c01f3de1ba0", "type": "electric_scooter", "is_reserved": 0, "lon": -77.048576}, {"fusion_lat": 0.0, "name": "c41b09e4804bf4d3d97f54437d23ed54", "is_disabled": 0, "rental_uris": {"android": "https://dc.lft.to/lastmile_qr_scan", "ios": "https://dc.lft.to/lastmile_qr_scan"}, "fusion_lon": 0.0, "lat": 38.907267833333336, "bike_id": "c41b09e4804bf4d3d97f54437d23ed54", "type": "electric_scooter", "is_reserved": 0, "lon": -77.03177783333334}, {"fusion_lat": 0.0, "name": "b33a954be45d6c937d593cad5021fb71", "is_disabled": 0, "rental_uris": {"android": "https://dc.lft.to/lastmile_qr_scan", "ios": "https://dc.lft.to/lastmile_qr_scan"}, "fusion_lon": 0.0, "lat": 38.904699, "bike_id": "b33a954be45d6c937d593cad5021fb71", "type": "electric_scooter", "is_reserved": 0, "lon": -77.00696383333333}, {"fusion_lat": 0.0, "name": "a6552a08960194f149fbb05679cffbba", "is_disabled": 0, "rental_uris": {"android": "https://dc.lft.to/lastmile_qr_scan", "ios": "https://dc.lft.to/lastmile_qr_scan"}, "fusion_lon": 0.0, "lat": 38.944038, "bike_id": "a6552a08960194f149fbb05679cffbba", "type": "electric_scooter", "is_reserved": 0, "lon": -77.03863033333333}, {"fusion_lat": 0.0, "name": "079265c6bc89ab54140f9efc49fbdff7", "is_disabled": 0, "rental_uris": {"android": "https://dc.lft.to/lastmile_qr_scan", "ios": "https://dc.lft.to/lastmile_qr_scan"}, "fusion_lon": 0.0, "lat": 38.925464166666664, "bike_id": "079265c6bc89ab54140f9efc49fbdff7", "type": "electric_scooter", "is_reserved": 0, "lon": -77.03333233333333}, {"fusion_lat": 0.0, "name": "05e1b24f018dbb47806a07f9b27b745c", "is_disabled": 0, "rental_uris": {"android": "https://dc.lft.to/lastmile_qr_scan", "ios": "https://dc.lft.to/lastmile_qr_scan"}, "fusion_lon": 0.0, "lat": 38.880175333333334, "bike_id": "05e1b24f018dbb47806a07f9b27b745c", "type": "electric_scooter", "is_reserved": 0, "lon": -76.9311355}, {"fusion_lat": 0.0, "name": "fce2bd930f3c24daa4d4797370171954", "is_disabled": 0, "rental_uris": {"android": "https://dc.lft.to/lastmile_qr_scan", "ios": "https://dc.lft.to/lastmile_qr_scan"}, "fusion_lon": 0.0, "lat": 38.907114666666665, "bike_id": "fce2bd930f3c24daa4d4797370171954", "type": "electric_scooter", "is_reserved": 0, "lon": -77.046617}, {"fusion_lat": 0.0, "name": "c648fce47230a7aa1436b5a36150112f", "is_disabled": 0, "rental_uris": {"android": "https://dc.lft.to/lastmile_qr_scan", "ios": "https://dc.lft.to/lastmile_qr_scan"}, "fusion_lon": 0.0, "lat": 38.899057666666664, "bike_id": "c648fce47230a7aa1436b5a36150112f", "type": "electric_scooter", "is_reserved": 0, "lon": -76.94549816666667}, {"fusion_lat": 0.0, "name": "85ae311bd91978dfb784989ef44ea62e", "is_disabled": 0, "rental_uris": {"android": "https://dc.lft.to/lastmile_qr_scan", "ios": "https://dc.lft.to/lastmile_qr_scan"}, "fusion_lon": 0.0, "lat": 38.93447616666667, "bike_id": "85ae311bd91978dfb784989ef44ea62e", "type": "electric_scooter", "is_reserved": 0, "lon": -77.03869066666667}, {"fusion_lat": 0.0, "name": "d9773ecf96f26d37a3c108ba9df599ac", "is_disabled": 0, "rental_uris": {"android": "https://dc.lft.to/lastmile_qr_scan", "ios": "https://dc.lft.to/lastmile_qr_scan"}, "fusion_lon": 0.0, "lat": 38.92812466666667, "bike_id": "d9773ecf96f26d37a3c108ba9df599ac", "type": "electric_scooter", "is_reserved": 0, "lon": -77.02328416666667}, {"fusion_lat": 0.0, "name": "0c144251a0d2e18a51acdf890de52fee", "is_disabled": 0, "rental_uris": {"android": "https://dc.lft.to/lastmile_qr_scan", "ios": "https://dc.lft.to/lastmile_qr_scan"}, "fusion_lon": 0.0, "lat": 38.9165945, "bike_id": "0c144251a0d2e18a51acdf890de52fee", "type": "electric_scooter", "is_reserved": 0, "lon": -77.0385555}, {"fusion_lat": 0.0, "name": "db1b3be33258dcf64e6b9986600f65e3", "is_disabled": 0, "rental_uris": {"android": "https://dc.lft.to/lastmile_qr_scan", "ios": "https://dc.lft.to/lastmile_qr_scan"}, "fusion_lon": 0.0, "lat": 38.8587525, "bike_id": "db1b3be33258dcf64e6b9986600f65e3", "type": "electric_bike", "is_reserved": 0, "lon": -77.09559033333333}, {"fusion_lat": 0.0, "name": "297f7ed54bdd6e07cba6af10deedb52e", "is_disabled": 0, "rental_uris": {"android": "https://dc.lft.to/lastmile_qr_scan", "ios": "https://dc.lft.to/lastmile_qr_scan"}, "fusion_lon": 0.0, "lat": 38.89797, "bike_id": "297f7ed54bdd6e07cba6af10deedb52e", "type": "electric_scooter", "is_reserved": 0, "lon": -76.98461616666667}, {"fusion_lat": 0.0, "name": "9445e0ed91f4f23174ed696c0e4faf93", "is_disabled": 0, "rental_uris": {"android": "https://dc.lft.to/lastmile_qr_scan", "ios": "https://dc.lft.to/lastmile_qr_scan"}, "fusion_lon": 0.0, "lat": 38.932334166666664, "bike_id": "9445e0ed91f4f23174ed696c0e4faf93", "type": "electric_bike", "is_reserved": 0, "lon": -77.02832333333333}, {"fusion_lat": 0.0, "name": "d31af731530644c98d7dd06893b923fa", "is_disabled": 0, "rental_uris": {"android": "https://dc.lft.to/lastmile_qr_scan", "ios": "https://dc.lft.to/lastmile_qr_scan"}, "fusion_lon": 0.0, "lat": 38.906641666666665, "bike_id": "d31af731530644c98d7dd06893b923fa", "type": "electric_scooter", "is_reserved": 0, "lon": -77.04623216666667}, {"fusion_lat": 0.0, "name": "7556bba085dc3c6687b02e8659e8a021", "is_disabled": 0, "rental_uris": {"android": "https://dc.lft.to/lastmile_qr_scan", "ios": "https://dc.lft.to/lastmile_qr_scan"}, "fusion_lon": 0.0, "lat": 38.905683833333335, "bike_id": "7556bba085dc3c6687b02e8659e8a021", "type": "electric_scooter", "is_reserved": 0, "lon": -77.04070966666667}, {"fusion_lat": 0.0, "name": "1c2c01e851ec155383314989cb6f18c4", "is_disabled": 0, "rental_uris": {"android": "https://dc.lft.to/lastmile_qr_scan", "ios": "https://dc.lft.to/lastmile_qr_scan"}, "fusion_lon": 0.0, "lat": 38.87806533333333, "bike_id": "1c2c01e851ec155383314989cb6f18c4", "type": "electric_scooter", "is_reserved": 0, "lon": -77.015283}, {"fusion_lat": 0.0, "name": "18780f28e4b7da6e7e52a8f39967692e", "is_disabled": 0, "rental_uris": {"android": "https://dc.lft.to/lastmile_qr_scan", "ios": "https://dc.lft.to/lastmile_qr_scan"}, "fusion_lon": 0.0, "lat": 38.99444583333333, "bike_id": "18780f28e4b7da6e7e52a8f39967692e", "type": "electric_bike", "is_reserved": 0, "lon": -76.99588683333333}, {"fusion_lat": 0.0, "name": "49d4bed79735654294e6801edeb8e019", "is_disabled": 0, "rental_uris": {"android": "https://dc.lft.to/lastmile_qr_scan", "ios": "https://dc.lft.to/lastmile_qr_scan"}, "fusion_lon": 0.0, "lat": 38.884708833333335, "bike_id": "49d4bed79735654294e6801edeb8e019", "type": "electric_scooter", "is_reserved": 0, "lon": -77.02378283333333}, {"fusion_lat": 0.0, "name": "f878285ef1edf2e318180e766108f0f6", "is_disabled": 0, "rental_uris": {"android": "https://dc.lft.to/lastmile_qr_scan", "ios": "https://dc.lft.to/lastmile_qr_scan"}, "fusion_lon": 0.0, "lat": 38.93439716666666, "bike_id": "f878285ef1edf2e318180e766108f0f6", "type": "electric_scooter", "is_reserved": 0, "lon": -77.02382933333334}, {"fusion_lat": 0.0, "name": "223735a5d7fa868010bb0b4370827b2e", "is_disabled": 0, "rental_uris": {"android": "https://dc.lft.to/lastmile_qr_scan", "ios": "https://dc.lft.to/lastmile_qr_scan"}, "fusion_lon": 0.0, "lat": 38.903075666666666, "bike_id": "223735a5d7fa868010bb0b4370827b2e", "type": "electric_scooter", "is_reserved": 0, "lon": -76.9765335}, {"fusion_lat": 0.0, "name": "2f35cd9f785e137bca3ca519cbdc9f8d", "is_disabled": 0, "rental_uris": {"android": "https://dc.lft.to/lastmile_qr_scan", "ios": "https://dc.lft.to/lastmile_qr_scan"}, "fusion_lon": 0.0, "lat": 38.92106916666667, "bike_id": "2f35cd9f785e137bca3ca519cbdc9f8d", "type": "electric_scooter", "is_reserved": 0, "lon": -77.03192283333334}, {"fusion_lat": 0.0, "name": "06f968ab63034717cca5f1e61bcb9c68", "is_disabled": 0, "rental_uris": {"android": "https://dc.lft.to/lastmile_qr_scan", "ios": "https://dc.lft.to/lastmile_qr_scan"}, "fusion_lon": 0.0, "lat": 38.91802716666667, "bike_id": "06f968ab63034717cca5f1e61bcb9c68", "type": "electric_scooter", "is_reserved": 0, "lon": -77.03442933333334}, {"fusion_lat": 0.0, "name": "037c9997dea1245a3722c6a203ba5e03", "is_disabled": 0, "rental_uris": {"android": "https://dc.lft.to/lastmile_qr_scan", "ios": "https://dc.lft.to/lastmile_qr_scan"}, "fusion_lon": 0.0, "lat": 38.90574433333333, "bike_id": "037c9997dea1245a3722c6a203ba5e03", "type": "electric_scooter", "is_reserved": 0, "lon": -77.02202983333333}, {"fusion_lat": 0.0, "name": "2ae3af6f00a3298067163d9583321166", "is_disabled": 0, "rental_uris": {"android": "https://dc.lft.to/lastmile_qr_scan", "ios": "https://dc.lft.to/lastmile_qr_scan"}, "fusion_lon": 0.0, "lat": 38.92862516666667, "bike_id": "2ae3af6f00a3298067163d9583321166", "type": "electric_scooter", "is_reserved": 0, "lon": -77.033999}, {"fusion_lat": 0.0, "name": "4e3cfd8d7b8a0d8fccbf72ea420bed8c", "is_disabled": 0, "rental_uris": {"android": "https://dc.lft.to/lastmile_qr_scan", "ios": "https://dc.lft.to/lastmile_qr_scan"}, "fusion_lon": 0.0, "lat": 38.934835, "bike_id": "4e3cfd8d7b8a0d8fccbf72ea420bed8c", "type": "electric_scooter", "is_reserved": 0, "lon": -77.073243}, {"fusion_lat": 0.0, "name": "f6441db3f1ad79362a6732511de1c434", "is_disabled": 0, "rental_uris": {"android": "https://dc.lft.to/lastmile_qr_scan", "ios": "https://dc.lft.to/lastmile_qr_scan"}, "fusion_lon": 0.0, "lat": 38.90955816666666, "bike_id": "f6441db3f1ad79362a6732511de1c434", "type": "electric_scooter", "is_reserved": 0, "lon": -77.046091}, {"fusion_lat": 0.0, "name": "efa8c2f6fe3ddbb8478ffa523998bc86", "is_disabled": 0, "rental_uris": {"android": "https://dc.lft.to/lastmile_qr_scan", "ios": "https://dc.lft.to/lastmile_qr_scan"}, "fusion_lon": 0.0, "lat": 38.895655166666664, "bike_id": "efa8c2f6fe3ddbb8478ffa523998bc86", "type": "electric_bike", "is_reserved": 0, "lon": -77.12737216666666}, {"fusion_lat": 0.0, "name": "ec2f7922eb5978e28649c4ddd23f3b55", "is_disabled": 0, "rental_uris": {"android": "https://dc.lft.to/lastmile_qr_scan", "ios": "https://dc.lft.to/lastmile_qr_scan"}, "fusion_lon": 0.0, "lat": 38.922451, "bike_id": "ec2f7922eb5978e28649c4ddd23f3b55", "type": "electric_scooter", "is_reserved": 0, "lon": -77.03085766666666}, {"fusion_lat": 0.0, "name": "01782165189580a02d7ef030f1911b54", "is_disabled": 0, "rental_uris": {"android": "https://dc.lft.to/lastmile_qr_scan", "ios": "https://dc.lft.to/lastmile_qr_scan"}, "fusion_lon": 0.0, "lat": 38.930074166666664, "bike_id": "01782165189580a02d7ef030f1911b54", "type": "electric_bike", "is_reserved": 0, "lon": -77.016209}, {"fusion_lat": 0.0, "name": "360ee8b25ba959976798480b4726b454", "is_disabled": 0, "rental_uris": {"android": "https://dc.lft.to/lastmile_qr_scan", "ios": "https://dc.lft.to/lastmile_qr_scan"}, "fusion_lon": 0.0, "lat": 38.90536083333333, "bike_id": "360ee8b25ba959976798480b4726b454", "type": "electric_bike", "is_reserved": 0, "lon": -76.99808366666667}, {"fusion_lat": 0.0, "name": "a6512ac84e3a56a01a298de81e7c42d7", "is_disabled": 0, "rental_uris": {"android": "https://dc.lft.to/lastmile_qr_scan", "ios": "https://dc.lft.to/lastmile_qr_scan"}, "fusion_lon": 0.0, "lat": 38.91509766666667, "bike_id": "a6512ac84e3a56a01a298de81e7c42d7", "type": "electric_scooter", "is_reserved": 0, "lon": -77.032581}, {"fusion_lat": 0.0, "name": "e42426c55a0e04638d5507a3d36876af", "is_disabled": 0, "rental_uris": {"android": "https://dc.lft.to/lastmile_qr_scan", "ios": "https://dc.lft.to/lastmile_qr_scan"}, "fusion_lon": 0.0, "lat": 38.895303166666665, "bike_id": "e42426c55a0e04638d5507a3d36876af", "type": "electric_scooter", "is_reserved": 0, "lon": -76.94895566666666}, {"fusion_lat": 0.0, "name": "665d95a7211e9c586456bd256dfc1420", "is_disabled": 0, "rental_uris": {"android": "https://dc.lft.to/lastmile_qr_scan", "ios": "https://dc.lft.to/lastmile_qr_scan"}, "fusion_lon": 0.0, "lat": 38.90896083333333, "bike_id": "665d95a7211e9c586456bd256dfc1420", "type": "electric_scooter", "is_reserved": 0, "lon": -77.04306133333333}, {"fusion_lat": 0.0, "name": "2f192abafea3cbe980c11644ce44de58", "is_disabled": 0, "rental_uris": {"android": "https://dc.lft.to/lastmile_qr_scan", "ios": "https://dc.lft.to/lastmile_qr_scan"}, "fusion_lon": 0.0, "lat": 38.917161, "bike_id": "2f192abafea3cbe980c11644ce44de58", "type": "electric_scooter", "is_reserved": 0, "lon": -76.96868833333333}, {"fusion_lat": 0.0, "name": "8693f0e10d0c157dca16b165b0a2cb5f", "is_disabled": 0, "rental_uris": {"android": "https://dc.lft.to/lastmile_qr_scan", "ios": "https://dc.lft.to/lastmile_qr_scan"}, "fusion_lon": 0.0, "lat": 38.905841333333335, "bike_id": "8693f0e10d0c157dca16b165b0a2cb5f", "type": "electric_scooter", "is_reserved": 0, "lon": -77.0660955}, {"fusion_lat": 0.0, "name": "48b31d8317feada8ad7528c6d0e0c27d", "is_disabled": 0, "rental_uris": {"android": "https://dc.lft.to/lastmile_qr_scan", "ios": "https://dc.lft.to/lastmile_qr_scan"}, "fusion_lon": 0.0, "lat": 38.905037666666665, "bike_id": "48b31d8317feada8ad7528c6d0e0c27d", "type": "electric_scooter", "is_reserved": 0, "lon": -77.02947883333333}, {"fusion_lat": 0.0, "name": "9a51d03d6f89361237205ec83e0e61a0", "is_disabled": 0, "rental_uris": {"android": "https://dc.lft.to/lastmile_qr_scan", "ios": "https://dc.lft.to/lastmile_qr_scan"}, "fusion_lon": 0.0, "lat": 38.918341166666664, "bike_id": "9a51d03d6f89361237205ec83e0e61a0", "type": "electric_scooter", "is_reserved": 0, "lon": -77.02270783333333}, {"fusion_lat": 0.0, "name": "702b2d7ef88be4d22bac6558d076aa91", "is_disabled": 0, "rental_uris": {"android": "https://dc.lft.to/lastmile_qr_scan", "ios": "https://dc.lft.to/lastmile_qr_scan"}, "fusion_lon": 0.0, "lat": 38.920515333333334, "bike_id": "702b2d7ef88be4d22bac6558d076aa91", "type": "electric_scooter", "is_reserved": 0, "lon": -77.02367016666666}, {"fusion_lat": 0.0, "name": "868c50382ce68947717bb9d26d0b331c", "is_disabled": 0, "rental_uris": {"android": "https://dc.lft.to/lastmile_qr_scan", "ios": "https://dc.lft.to/lastmile_qr_scan"}, "fusion_lon": 0.0, "lat": 38.90425783333333, "bike_id": "868c50382ce68947717bb9d26d0b331c", "type": "electric_scooter", "is_reserved": 0, "lon": -77.02684983333333}, {"fusion_lat": 0.0, "name": "f4340cba5e1773e6040e06a114187f3c", "is_disabled": 0, "rental_uris": {"android": "https://dc.lft.to/lastmile_qr_scan", "ios": "https://dc.lft.to/lastmile_qr_scan"}, "fusion_lon": 0.0, "lat": 38.90711683333333, "bike_id": "f4340cba5e1773e6040e06a114187f3c", "type": "electric_scooter", "is_reserved": 0, "lon": -77.03444083333333}, {"fusion_lat": 0.0, "name": "074e087e6a3bb25358b5c7bc63be5d70", "is_disabled": 0, "rental_uris": {"android": "https://dc.lft.to/lastmile_qr_scan", "ios": "https://dc.lft.to/lastmile_qr_scan"}, "fusion_lon": 0.0, "lat": 38.91048033333333, "bike_id": "074e087e6a3bb25358b5c7bc63be5d70", "type": "electric_scooter", "is_reserved": 0, "lon": -77.06453916666666}, {"fusion_lat": 0.0, "name": "a5666dc2938f97dd287323593a806c6a", "is_disabled": 0, "rental_uris": {"android": "https://dc.lft.to/lastmile_qr_scan", "ios": "https://dc.lft.to/lastmile_qr_scan"}, "fusion_lon": 0.0, "lat": 38.922538, "bike_id": "a5666dc2938f97dd287323593a806c6a", "type": "electric_scooter", "is_reserved": 0, "lon": -77.07451666666667}, {"fusion_lat": 0.0, "name": "40998eb8485c954637a7136f3f94b14b", "is_disabled": 0, "rental_uris": {"android": "https://dc.lft.to/lastmile_qr_scan", "ios": "https://dc.lft.to/lastmile_qr_scan"}, "fusion_lon": 0.0, "lat": 38.9182215, "bike_id": "40998eb8485c954637a7136f3f94b14b", "type": "electric_scooter", "is_reserved": 0, "lon": -77.03681883333333}, {"fusion_lat": 0.0, "name": "43b3e432424156f73c006dfa62fb83a4", "is_disabled": 0, "rental_uris": {"android": "https://dc.lft.to/lastmile_qr_scan", "ios": "https://dc.lft.to/lastmile_qr_scan"}, "fusion_lon": 0.0, "lat": 38.925659333333336, "bike_id": "43b3e432424156f73c006dfa62fb83a4", "type": "electric_scooter", "is_reserved": 0, "lon": -77.04371416666666}, {"fusion_lat": 0.0, "name": "1392d4925e6d237fddc670087e88ca0a", "is_disabled": 0, "rental_uris": {"android": "https://dc.lft.to/lastmile_qr_scan", "ios": "https://dc.lft.to/lastmile_qr_scan"}, "fusion_lon": 0.0, "lat": 38.90721966666667, "bike_id": "1392d4925e6d237fddc670087e88ca0a", "type": "electric_scooter", "is_reserved": 0, "lon": -77.049891}, {"fusion_lat": 0.0, "name": "572c7603688edfb766baacae379b2f0a", "is_disabled": 0, "rental_uris": {"android": "https://dc.lft.to/lastmile_qr_scan", "ios": "https://dc.lft.to/lastmile_qr_scan"}, "fusion_lon": 0.0, "lat": 38.88822966666667, "bike_id": "572c7603688edfb766baacae379b2f0a", "type": "electric_scooter", "is_reserved": 0, "lon": -76.986641}, {"fusion_lat": 0.0, "name": "457f95d8555e29bce1257a6a8fad988a", "is_disabled": 0, "rental_uris": {"android": "https://dc.lft.to/lastmile_qr_scan", "ios": "https://dc.lft.to/lastmile_qr_scan"}, "fusion_lon": 0.0, "lat": 38.92548516666667, "bike_id": "457f95d8555e29bce1257a6a8fad988a", "type": "electric_scooter", "is_reserved": 0, "lon": -77.04297583333333}, {"fusion_lat": 0.0, "name": "513c73921b1ba0d0a4da1164d2d73f25", "is_disabled": 0, "rental_uris": {"android": "https://dc.lft.to/lastmile_qr_scan", "ios": "https://dc.lft.to/lastmile_qr_scan"}, "fusion_lon": 0.0, "lat": 38.920113666666666, "bike_id": "513c73921b1ba0d0a4da1164d2d73f25", "type": "electric_scooter", "is_reserved": 0, "lon": -77.071251}, {"fusion_lat": 0.0, "name": "2c4341f03093899b9f1868eb8731642a", "is_disabled": 0, "rental_uris": {"android": "https://dc.lft.to/lastmile_qr_scan", "ios": "https://dc.lft.to/lastmile_qr_scan"}, "fusion_lon": 0.0, "lat": 38.95378766666666, "bike_id": "2c4341f03093899b9f1868eb8731642a", "type": "electric_bike", "is_reserved": 0, "lon": -76.979602}, {"fusion_lat": 0.0, "name": "2bb3d50ae52d5f997206bbbeabc8f0dd", "is_disabled": 0, "rental_uris": {"android": "https://dc.lft.to/lastmile_qr_scan", "ios": "https://dc.lft.to/lastmile_qr_scan"}, "fusion_lon": 0.0, "lat": 38.926171333333336, "bike_id": "2bb3d50ae52d5f997206bbbeabc8f0dd", "type": "electric_scooter", "is_reserved": 0, "lon": -77.0432415}, {"fusion_lat": 0.0, "name": "0f72e5f144712f397456f56323a7325c", "is_disabled": 0, "rental_uris": {"android": "https://dc.lft.to/lastmile_qr_scan", "ios": "https://dc.lft.to/lastmile_qr_scan"}, "fusion_lon": 0.0, "lat": 38.90727166666667, "bike_id": "0f72e5f144712f397456f56323a7325c", "type": "electric_scooter", "is_reserved": 0, "lon": -77.03448433333334}, {"fusion_lat": 0.0, "name": "bc0db5dad406702c6f285f364d977b96", "is_disabled": 0, "rental_uris": {"android": "https://dc.lft.to/lastmile_qr_scan", "ios": "https://dc.lft.to/lastmile_qr_scan"}, "fusion_lon": 0.0, "lat": 38.922550666666666, "bike_id": "bc0db5dad406702c6f285f364d977b96", "type": "electric_scooter", "is_reserved": 0, "lon": -77.0195385}, {"fusion_lat": 0.0, "name": "174dbd6944b2ec196e9f1afaff60fb7d", "is_disabled": 0, "rental_uris": {"android": "https://dc.lft.to/lastmile_qr_scan", "ios": "https://dc.lft.to/lastmile_qr_scan"}, "fusion_lon": 0.0, "lat": 38.91904566666667, "bike_id": "174dbd6944b2ec196e9f1afaff60fb7d", "type": "electric_scooter", "is_reserved": 0, "lon": -77.01360233333334}, {"fusion_lat": 0.0, "name": "5e63d3a2092edcfab956da32afb76242", "is_disabled": 0, "rental_uris": {"android": "https://dc.lft.to/lastmile_qr_scan", "ios": "https://dc.lft.to/lastmile_qr_scan"}, "fusion_lon": 0.0, "lat": 38.918002666666666, "bike_id": "5e63d3a2092edcfab956da32afb76242", "type": "electric_scooter", "is_reserved": 0, "lon": -77.0344185}, {"fusion_lat": 0.0, "name": "49d573e29d0b02133a8668a22943c569", "is_disabled": 0, "rental_uris": {"android": "https://dc.lft.to/lastmile_qr_scan", "ios": "https://dc.lft.to/lastmile_qr_scan"}, "fusion_lon": 0.0, "lat": 38.91341216666667, "bike_id": "49d573e29d0b02133a8668a22943c569", "type": "electric_scooter", "is_reserved": 0, "lon": -77.04784383333333}, {"fusion_lat": 0.0, "name": "c1d51f3ab11b286ac377809d89a4047e", "is_disabled": 0, "rental_uris": {"android": "https://dc.lft.to/lastmile_qr_scan", "ios": "https://dc.lft.to/lastmile_qr_scan"}, "fusion_lon": 0.0, "lat": 38.90735, "bike_id": "c1d51f3ab11b286ac377809d89a4047e", "type": "electric_scooter", "is_reserved": 0, "lon": -77.02808033333334}, {"fusion_lat": 0.0, "name": "1e67ad368f0f0c9e60d23c003e606d96", "is_disabled": 0, "rental_uris": {"android": "https://dc.lft.to/lastmile_qr_scan", "ios": "https://dc.lft.to/lastmile_qr_scan"}, "fusion_lon": 0.0, "lat": 38.911236, "bike_id": "1e67ad368f0f0c9e60d23c003e606d96", "type": "electric_scooter", "is_reserved": 0, "lon": -77.02196516666666}, {"fusion_lat": 0.0, "name": "9caf919eae69ecfb553e98f1ec70db5e", "is_disabled": 0, "rental_uris": {"android": "https://dc.lft.to/lastmile_qr_scan", "ios": "https://dc.lft.to/lastmile_qr_scan"}, "fusion_lon": 0.0, "lat": 38.9082275, "bike_id": "9caf919eae69ecfb553e98f1ec70db5e", "type": "electric_scooter", "is_reserved": 0, "lon": -77.018309}, {"fusion_lat": 0.0, "name": "bfaddaf33074c4681a8a4280a0137c8b", "is_disabled": 0, "rental_uris": {"android": "https://dc.lft.to/lastmile_qr_scan", "ios": "https://dc.lft.to/lastmile_qr_scan"}, "fusion_lon": 0.0, "lat": 38.845095666666666, "bike_id": "bfaddaf33074c4681a8a4280a0137c8b", "type": "electric_bike", "is_reserved": 0, "lon": -76.99353133333334}, {"fusion_lat": 0.0, "name": "cca16843346814321d98b4211a8b0e8a", "is_disabled": 0, "rental_uris": {"android": "https://dc.lft.to/lastmile_qr_scan", "ios": "https://dc.lft.to/lastmile_qr_scan"}, "fusion_lon": 0.0, "lat": 38.913248333333335, "bike_id": "cca16843346814321d98b4211a8b0e8a", "type": "electric_scooter", "is_reserved": 0, "lon": -77.01503383333333}, {"fusion_lat": 0.0, "name": "012cc981709d9d876191ddffa620aaea", "is_disabled": 0, "rental_uris": {"android": "https://dc.lft.to/lastmile_qr_scan", "ios": "https://dc.lft.to/lastmile_qr_scan"}, "fusion_lon": 0.0, "lat": 38.908405333333334, "bike_id": "012cc981709d9d876191ddffa620aaea", "type": "electric_scooter", "is_reserved": 0, "lon": -77.02693083333334}, {"fusion_lat": 0.0, "name": "1b16dabaefc72b9c1df6ab31604e30d5", "is_disabled": 0, "rental_uris": {"android": "https://dc.lft.to/lastmile_qr_scan", "ios": "https://dc.lft.to/lastmile_qr_scan"}, "fusion_lon": 0.0, "lat": 38.900977833333336, "bike_id": "1b16dabaefc72b9c1df6ab31604e30d5", "type": "electric_scooter", "is_reserved": 0, "lon": -77.0221425}, {"fusion_lat": 0.0, "name": "bb503ce3034c5ef427bb6878ecbf8313", "is_disabled": 0, "rental_uris": {"android": "https://dc.lft.to/lastmile_qr_scan", "ios": "https://dc.lft.to/lastmile_qr_scan"}, "fusion_lon": 0.0, "lat": 38.941977333333334, "bike_id": "bb503ce3034c5ef427bb6878ecbf8313", "type": "electric_scooter", "is_reserved": 0, "lon": -77.02588}, {"fusion_lat": 0.0, "name": "b3b6db5424480ca3a01d3505842e7c9b", "is_disabled": 0, "rental_uris": {"android": "https://dc.lft.to/lastmile_qr_scan", "ios": "https://dc.lft.to/lastmile_qr_scan"}, "fusion_lon": 0.0, "lat": 38.95635983333333, "bike_id": "b3b6db5424480ca3a01d3505842e7c9b", "type": "electric_scooter", "is_reserved": 0, "lon": -77.03302983333333}, {"fusion_lat": 0.0, "name": "f98ade9281f4f7f0c01ef29dae7c0580", "is_disabled": 0, "rental_uris": {"android": "https://dc.lft.to/lastmile_qr_scan", "ios": "https://dc.lft.to/lastmile_qr_scan"}, "fusion_lon": 0.0, "lat": 38.8747015, "bike_id": "f98ade9281f4f7f0c01ef29dae7c0580", "type": "electric_scooter", "is_reserved": 0, "lon": -77.00557266666667}, {"fusion_lat": 0.0, "name": "83431ffb7a39a561583bd1312131e23d", "is_disabled": 0, "rental_uris": {"android": "https://dc.lft.to/lastmile_qr_scan", "ios": "https://dc.lft.to/lastmile_qr_scan"}, "fusion_lon": 0.0, "lat": 38.933778833333335, "bike_id": "83431ffb7a39a561583bd1312131e23d", "type": "electric_scooter", "is_reserved": 0, "lon": -77.03883966666666}, {"fusion_lat": 0.0, "name": "49118526a8868e29bccad28cccd7448c", "is_disabled": 0, "rental_uris": {"android": "https://dc.lft.to/lastmile_qr_scan", "ios": "https://dc.lft.to/lastmile_qr_scan"}, "fusion_lon": 0.0, "lat": 38.926350666666664, "bike_id": "49118526a8868e29bccad28cccd7448c", "type": "electric_scooter", "is_reserved": 0, "lon": -77.035055}, {"fusion_lat": 0.0, "name": "a0c77ebed6759004890a5db4c2025564", "is_disabled": 0, "rental_uris": {"android": "https://dc.lft.to/lastmile_qr_scan", "ios": "https://dc.lft.to/lastmile_qr_scan"}, "fusion_lon": 0.0, "lat": 38.9082565, "bike_id": "a0c77ebed6759004890a5db4c2025564", "type": "electric_scooter", "is_reserved": 0, "lon": -77.03666}, {"fusion_lat": 0.0, "name": "9576f90ba34fb941ff48e82a5d06fd2d", "is_disabled": 0, "rental_uris": {"android": "https://dc.lft.to/lastmile_qr_scan", "ios": "https://dc.lft.to/lastmile_qr_scan"}, "fusion_lon": 0.0, "lat": 38.9360235, "bike_id": "9576f90ba34fb941ff48e82a5d06fd2d", "type": "electric_scooter", "is_reserved": 0, "lon": -77.03655583333334}, {"fusion_lat": 0.0, "name": "3512f1b7c0c6748007f646f29e137443", "is_disabled": 0, "rental_uris": {"android": "https://dc.lft.to/lastmile_qr_scan", "ios": "https://dc.lft.to/lastmile_qr_scan"}, "fusion_lon": 0.0, "lat": 38.924546666666664, "bike_id": "3512f1b7c0c6748007f646f29e137443", "type": "electric_scooter", "is_reserved": 0, "lon": -76.99906333333334}, {"fusion_lat": 0.0, "name": "eeac40c8d4cb0d447a337334256be81d", "is_disabled": 0, "rental_uris": {"android": "https://dc.lft.to/lastmile_qr_scan", "ios": "https://dc.lft.to/lastmile_qr_scan"}, "fusion_lon": 0.0, "lat": 38.965918, "bike_id": "eeac40c8d4cb0d447a337334256be81d", "type": "electric_scooter", "is_reserved": 0, "lon": -77.015967}, {"fusion_lat": 0.0, "name": "9d8ea5f50210413a3a0010d49b1e85d6", "is_disabled": 0, "rental_uris": {"android": "https://dc.lft.to/lastmile_qr_scan", "ios": "https://dc.lft.to/lastmile_qr_scan"}, "fusion_lon": 0.0, "lat": 38.87649866666667, "bike_id": "9d8ea5f50210413a3a0010d49b1e85d6", "type": "electric_scooter", "is_reserved": 0, "lon": -77.00733916666667}, {"fusion_lat": 0.0, "name": "56e326344dd84d448bc7f0006d4da55c", "is_disabled": 0, "rental_uris": {"android": "https://dc.lft.to/lastmile_qr_scan", "ios": "https://dc.lft.to/lastmile_qr_scan"}, "fusion_lon": 0.0, "lat": 38.90257616666667, "bike_id": "56e326344dd84d448bc7f0006d4da55c", "type": "electric_scooter", "is_reserved": 0, "lon": -77.0638805}, {"fusion_lat": 0.0, "name": "ee78612f777803701b67bf18faa559be", "is_disabled": 0, "rental_uris": {"android": "https://dc.lft.to/lastmile_qr_scan", "ios": "https://dc.lft.to/lastmile_qr_scan"}, "fusion_lon": 0.0, "lat": 38.898725666666664, "bike_id": "ee78612f777803701b67bf18faa559be", "type": "electric_scooter", "is_reserved": 0, "lon": -76.93185183333334}, {"fusion_lat": 0.0, "name": "2f6c000369061a1c4cae478d1a784a6a", "is_disabled": 0, "rental_uris": {"android": "https://dc.lft.to/lastmile_qr_scan", "ios": "https://dc.lft.to/lastmile_qr_scan"}, "fusion_lon": 0.0, "lat": 38.89511066666667, "bike_id": "2f6c000369061a1c4cae478d1a784a6a", "type": "electric_scooter", "is_reserved": 0, "lon": -76.98820433333333}, {"fusion_lat": 0.0, "name": "4a983d4508672d84da23d05f3eb1aa98", "is_disabled": 0, "rental_uris": {"android": "https://dc.lft.to/lastmile_qr_scan", "ios": "https://dc.lft.to/lastmile_qr_scan"}, "fusion_lon": 0.0, "lat": 39.05251283333333, "bike_id": "4a983d4508672d84da23d05f3eb1aa98", "type": "electric_bike", "is_reserved": 0, "lon": -77.080657}, {"fusion_lat": 0.0, "name": "4cec836b0722ae5b7d3c33c4fd085323", "is_disabled": 0, "rental_uris": {"android": "https://dc.lft.to/lastmile_qr_scan", "ios": "https://dc.lft.to/lastmile_qr_scan"}, "fusion_lon": 0.0, "lat": 38.935238, "bike_id": "4cec836b0722ae5b7d3c33c4fd085323", "type": "electric_scooter", "is_reserved": 0, "lon": -77.072629}, {"fusion_lat": 0.0, "name": "c54887eab63f8fa913a5346c8c05e87a", "is_disabled": 0, "rental_uris": {"android": "https://dc.lft.to/lastmile_qr_scan", "ios": "https://dc.lft.to/lastmile_qr_scan"}, "fusion_lon": 0.0, "lat": 38.90860416666666, "bike_id": "c54887eab63f8fa913a5346c8c05e87a", "type": "electric_scooter", "is_reserved": 0, "lon": -77.022848}, {"fusion_lat": 0.0, "name": "7daf98dc375d98463b3393992f9d29e2", "is_disabled": 0, "rental_uris": {"android": "https://dc.lft.to/lastmile_qr_scan", "ios": "https://dc.lft.to/lastmile_qr_scan"}, "fusion_lon": 0.0, "lat": 38.900678166666665, "bike_id": "7daf98dc375d98463b3393992f9d29e2", "type": "electric_scooter", "is_reserved": 0, "lon": -77.03837533333333}, {"fusion_lat": 0.0, "name": "b808e06033b9fa4ded50d329728a7989", "is_disabled": 0, "rental_uris": {"android": "https://dc.lft.to/lastmile_qr_scan", "ios": "https://dc.lft.to/lastmile_qr_scan"}, "fusion_lon": 0.0, "lat": 38.9253595, "bike_id": "b808e06033b9fa4ded50d329728a7989", "type": "electric_scooter", "is_reserved": 0, "lon": -77.03523016666666}, {"fusion_lat": 0.0, "name": "fc89047fd2f8ed7abf1bb1b25f9aa37d", "is_disabled": 0, "rental_uris": {"android": "https://dc.lft.to/lastmile_qr_scan", "ios": "https://dc.lft.to/lastmile_qr_scan"}, "fusion_lon": 0.0, "lat": 38.90638533333333, "bike_id": "fc89047fd2f8ed7abf1bb1b25f9aa37d", "type": "electric_scooter", "is_reserved": 0, "lon": -77.05321266666667}, {"fusion_lat": 0.0, "name": "2e3236ab1bc213d2826fc125caa9a912", "is_disabled": 0, "rental_uris": {"android": "https://dc.lft.to/lastmile_qr_scan", "ios": "https://dc.lft.to/lastmile_qr_scan"}, "fusion_lon": 0.0, "lat": 38.8475665, "bike_id": "2e3236ab1bc213d2826fc125caa9a912", "type": "electric_scooter", "is_reserved": 0, "lon": -76.99498666666666}, {"fusion_lat": 0.0, "name": "bb0f36fffc3b2716526e98686a402f04", "is_disabled": 0, "rental_uris": {"android": "https://dc.lft.to/lastmile_qr_scan", "ios": "https://dc.lft.to/lastmile_qr_scan"}, "fusion_lon": 0.0, "lat": 38.934088, "bike_id": "bb0f36fffc3b2716526e98686a402f04", "type": "electric_scooter", "is_reserved": 0, "lon": -77.02201716666667}, {"fusion_lat": 0.0, "name": "35087538f6e827d78187724147a581bc", "is_disabled": 0, "rental_uris": {"android": "https://dc.lft.to/lastmile_qr_scan", "ios": "https://dc.lft.to/lastmile_qr_scan"}, "fusion_lon": 0.0, "lat": 38.905083833333336, "bike_id": "35087538f6e827d78187724147a581bc", "type": "electric_scooter", "is_reserved": 0, "lon": -77.04821516666667}, {"fusion_lat": 0.0, "name": "44979411d10b25fce6e961c269dda722", "is_disabled": 0, "rental_uris": {"android": "https://dc.lft.to/lastmile_qr_scan", "ios": "https://dc.lft.to/lastmile_qr_scan"}, "fusion_lon": 0.0, "lat": 38.90126083333333, "bike_id": "44979411d10b25fce6e961c269dda722", "type": "electric_scooter", "is_reserved": 0, "lon": -77.01821183333334}, {"fusion_lat": 0.0, "name": "b9b9caa8efed488b08c1e87c12cb1290", "is_disabled": 0, "rental_uris": {"android": "https://dc.lft.to/lastmile_qr_scan", "ios": "https://dc.lft.to/lastmile_qr_scan"}, "fusion_lon": 0.0, "lat": 38.91159616666667, "bike_id": "b9b9caa8efed488b08c1e87c12cb1290", "type": "electric_scooter", "is_reserved": 0, "lon": -77.04353583333334}, {"fusion_lat": 0.0, "name": "71d21d98cadbca35f5535cb0e9e0aa1a", "is_disabled": 0, "rental_uris": {"android": "https://dc.lft.to/lastmile_qr_scan", "ios": "https://dc.lft.to/lastmile_qr_scan"}, "fusion_lon": 0.0, "lat": 38.904838166666664, "bike_id": "71d21d98cadbca35f5535cb0e9e0aa1a", "type": "electric_scooter", "is_reserved": 0, "lon": -76.94963066666666}, {"fusion_lat": 0.0, "name": "ae9db5de122403bc0665a5af616ba866", "is_disabled": 0, "rental_uris": {"android": "https://dc.lft.to/lastmile_qr_scan", "ios": "https://dc.lft.to/lastmile_qr_scan"}, "fusion_lon": 0.0, "lat": 38.905511833333335, "bike_id": "ae9db5de122403bc0665a5af616ba866", "type": "electric_scooter", "is_reserved": 0, "lon": -77.04655433333333}, {"fusion_lat": 0.0, "name": "173afb75f1134bc3298099fd1e39092e", "is_disabled": 0, "rental_uris": {"android": "https://dc.lft.to/lastmile_qr_scan", "ios": "https://dc.lft.to/lastmile_qr_scan"}, "fusion_lon": 0.0, "lat": 38.8988795, "bike_id": "173afb75f1134bc3298099fd1e39092e", "type": "electric_scooter", "is_reserved": 0, "lon": -77.00152366666667}, {"fusion_lat": 0.0, "name": "050aacc8caba1476634f4ed2a7674003", "is_disabled": 0, "rental_uris": {"android": "https://dc.lft.to/lastmile_qr_scan", "ios": "https://dc.lft.to/lastmile_qr_scan"}, "fusion_lon": 0.0, "lat": 38.893497833333335, "bike_id": "050aacc8caba1476634f4ed2a7674003", "type": "electric_scooter", "is_reserved": 0, "lon": -76.986561}, {"fusion_lat": 0.0, "name": "724be3fe64178921e7429bb88a92f81b", "is_disabled": 0, "rental_uris": {"android": "https://dc.lft.to/lastmile_qr_scan", "ios": "https://dc.lft.to/lastmile_qr_scan"}, "fusion_lon": 0.0, "lat": 38.920301, "bike_id": "724be3fe64178921e7429bb88a92f81b", "type": "electric_scooter", "is_reserved": 0, "lon": -77.02713683333333}, {"fusion_lat": 0.0, "name": "504e4e837cc5bb408b81a1d545c2a790", "is_disabled": 0, "rental_uris": {"android": "https://dc.lft.to/lastmile_qr_scan", "ios": "https://dc.lft.to/lastmile_qr_scan"}, "fusion_lon": 0.0, "lat": 38.93179633333333, "bike_id": "504e4e837cc5bb408b81a1d545c2a790", "type": "electric_scooter", "is_reserved": 0, "lon": -77.032997}, {"fusion_lat": 0.0, "name": "0ead0cff4a7c8170b6b01ba7861d0a61", "is_disabled": 0, "rental_uris": {"android": "https://dc.lft.to/lastmile_qr_scan", "ios": "https://dc.lft.to/lastmile_qr_scan"}, "fusion_lon": 0.0, "lat": 38.9305815, "bike_id": "0ead0cff4a7c8170b6b01ba7861d0a61", "type": "electric_scooter", "is_reserved": 0, "lon": -77.03942133333334}, {"fusion_lat": 0.0, "name": "f6032b7b1259036a3ead1aef78796133", "is_disabled": 0, "rental_uris": {"android": "https://dc.lft.to/lastmile_qr_scan", "ios": "https://dc.lft.to/lastmile_qr_scan"}, "fusion_lon": 0.0, "lat": 38.9089055, "bike_id": "f6032b7b1259036a3ead1aef78796133", "type": "electric_scooter", "is_reserved": 0, "lon": -77.0438755}, {"fusion_lat": 0.0, "name": "63cd4d779c275d68ec1c85998a84e7f7", "is_disabled": 0, "rental_uris": {"android": "https://dc.lft.to/lastmile_qr_scan", "ios": "https://dc.lft.to/lastmile_qr_scan"}, "fusion_lon": 0.0, "lat": 38.90904533333333, "bike_id": "63cd4d779c275d68ec1c85998a84e7f7", "type": "electric_scooter", "is_reserved": 0, "lon": -77.02603133333334}, {"fusion_lat": 0.0, "name": "3bcf77382849e0554c3a521f2fd569c8", "is_disabled": 0, "rental_uris": {"android": "https://dc.lft.to/lastmile_qr_scan", "ios": "https://dc.lft.to/lastmile_qr_scan"}, "fusion_lon": 0.0, "lat": 38.915546166666665, "bike_id": "3bcf77382849e0554c3a521f2fd569c8", "type": "electric_scooter", "is_reserved": 0, "lon": -77.0103785}, {"fusion_lat": 0.0, "name": "c0a2e8453afa0932c908759ad2508300", "is_disabled": 0, "rental_uris": {"android": "https://dc.lft.to/lastmile_qr_scan", "ios": "https://dc.lft.to/lastmile_qr_scan"}, "fusion_lon": 0.0, "lat": 38.88343833333333, "bike_id": "c0a2e8453afa0932c908759ad2508300", "type": "electric_scooter", "is_reserved": 0, "lon": -76.93499633333333}, {"fusion_lat": 0.0, "name": "82eb65cc7bb41feeaf50e35cbccf1d71", "is_disabled": 0, "rental_uris": {"android": "https://dc.lft.to/lastmile_qr_scan", "ios": "https://dc.lft.to/lastmile_qr_scan"}, "fusion_lon": 0.0, "lat": 38.901334166666665, "bike_id": "82eb65cc7bb41feeaf50e35cbccf1d71", "type": "electric_scooter", "is_reserved": 0, "lon": -77.04469133333333}, {"fusion_lat": 0.0, "name": "acc6a89302a931c4f9ed246f3bee6158", "is_disabled": 0, "rental_uris": {"android": "https://dc.lft.to/lastmile_qr_scan", "ios": "https://dc.lft.to/lastmile_qr_scan"}, "fusion_lon": 0.0, "lat": 38.94386516666667, "bike_id": "acc6a89302a931c4f9ed246f3bee6158", "type": "electric_scooter", "is_reserved": 0, "lon": -77.095061}, {"fusion_lat": 0.0, "name": "9f14cdfa084f17e1c1d022c62973f0b0", "is_disabled": 0, "rental_uris": {"android": "https://dc.lft.to/lastmile_qr_scan", "ios": "https://dc.lft.to/lastmile_qr_scan"}, "fusion_lon": 0.0, "lat": 38.9216025, "bike_id": "9f14cdfa084f17e1c1d022c62973f0b0", "type": "electric_scooter", "is_reserved": 0, "lon": -77.03271483333333}, {"fusion_lat": 0.0, "name": "74dfc2ce94d86afe6387204bd6e2c38b", "is_disabled": 0, "rental_uris": {"android": "https://dc.lft.to/lastmile_qr_scan", "ios": "https://dc.lft.to/lastmile_qr_scan"}, "fusion_lon": 0.0, "lat": 38.890263833333336, "bike_id": "74dfc2ce94d86afe6387204bd6e2c38b", "type": "electric_scooter", "is_reserved": 0, "lon": -77.03181466666666}, {"fusion_lat": 0.0, "name": "c5cefd5063ebf1fad16b52dcb9aa1e2b", "is_disabled": 0, "rental_uris": {"android": "https://dc.lft.to/lastmile_qr_scan", "ios": "https://dc.lft.to/lastmile_qr_scan"}, "fusion_lon": 0.0, "lat": 38.920963, "bike_id": "c5cefd5063ebf1fad16b52dcb9aa1e2b", "type": "electric_scooter", "is_reserved": 0, "lon": -77.02515233333334}, {"fusion_lat": 0.0, "name": "3199b8c0b21bb056859e0b05fc2d1a8c", "is_disabled": 0, "rental_uris": {"android": "https://dc.lft.to/lastmile_qr_scan", "ios": "https://dc.lft.to/lastmile_qr_scan"}, "fusion_lon": 0.0, "lat": 38.9407785, "bike_id": "3199b8c0b21bb056859e0b05fc2d1a8c", "type": "electric_scooter", "is_reserved": 0, "lon": -77.0239525}, {"fusion_lat": 0.0, "name": "2e09e7b88a102c3cf079fbf1e7656054", "is_disabled": 0, "rental_uris": {"android": "https://dc.lft.to/lastmile_qr_scan", "ios": "https://dc.lft.to/lastmile_qr_scan"}, "fusion_lon": 0.0, "lat": 38.92611733333333, "bike_id": "2e09e7b88a102c3cf079fbf1e7656054", "type": "electric_scooter", "is_reserved": 0, "lon": -77.03958283333333}, {"fusion_lat": 0.0, "name": "7bae8b2fc1c60528505bb3d2f8f0311b", "is_disabled": 0, "rental_uris": {"android": "https://dc.lft.to/lastmile_qr_scan", "ios": "https://dc.lft.to/lastmile_qr_scan"}, "fusion_lon": 0.0, "lat": 38.90148683333334, "bike_id": "7bae8b2fc1c60528505bb3d2f8f0311b", "type": "electric_scooter", "is_reserved": 0, "lon": -77.034696}, {"fusion_lat": 0.0, "name": "8aceac61d3850ad014dfcbb824233104", "is_disabled": 0, "rental_uris": {"android": "https://dc.lft.to/lastmile_qr_scan", "ios": "https://dc.lft.to/lastmile_qr_scan"}, "fusion_lon": 0.0, "lat": 38.92806216666666, "bike_id": "8aceac61d3850ad014dfcbb824233104", "type": "electric_scooter", "is_reserved": 0, "lon": -77.04359166666667}, {"fusion_lat": 0.0, "name": "8ec1b9c6c747e2e38966171a1292c50c", "is_disabled": 0, "rental_uris": {"android": "https://dc.lft.to/lastmile_qr_scan", "ios": "https://dc.lft.to/lastmile_qr_scan"}, "fusion_lon": 0.0, "lat": 38.877286, "bike_id": "8ec1b9c6c747e2e38966171a1292c50c", "type": "electric_scooter", "is_reserved": 0, "lon": -76.99675866666666}, {"fusion_lat": 0.0, "name": "3bf31bb1c930e60e6640d560306ac8fe", "is_disabled": 0, "rental_uris": {"android": "https://dc.lft.to/lastmile_qr_scan", "ios": "https://dc.lft.to/lastmile_qr_scan"}, "fusion_lon": 0.0, "lat": 38.885366833333336, "bike_id": "3bf31bb1c930e60e6640d560306ac8fe", "type": "electric_scooter", "is_reserved": 0, "lon": -77.000634}, {"fusion_lat": 0.0, "name": "8e8c7616ae89b707c50269e47d0a8570", "is_disabled": 0, "rental_uris": {"android": "https://dc.lft.to/lastmile_qr_scan", "ios": "https://dc.lft.to/lastmile_qr_scan"}, "fusion_lon": 0.0, "lat": 38.885368, "bike_id": "8e8c7616ae89b707c50269e47d0a8570", "type": "electric_scooter", "is_reserved": 0, "lon": -77.0006335}, {"fusion_lat": 0.0, "name": "bc3875d71f95c5016d47203b5fd68423", "is_disabled": 0, "rental_uris": {"android": "https://dc.lft.to/lastmile_qr_scan", "ios": "https://dc.lft.to/lastmile_qr_scan"}, "fusion_lon": 0.0, "lat": 38.904571833333335, "bike_id": "bc3875d71f95c5016d47203b5fd68423", "type": "electric_scooter", "is_reserved": 0, "lon": -77.00160583333333}, {"fusion_lat": 0.0, "name": "d84098489b051ded74996e3f562b907d", "is_disabled": 0, "rental_uris": {"android": "https://dc.lft.to/lastmile_qr_scan", "ios": "https://dc.lft.to/lastmile_qr_scan"}, "fusion_lon": 0.0, "lat": 38.913149833333335, "bike_id": "d84098489b051ded74996e3f562b907d", "type": "electric_scooter", "is_reserved": 0, "lon": -77.01445916666667}, {"fusion_lat": 0.0, "name": "1103e5649ae5dab7e6900f88323488b9", "is_disabled": 0, "rental_uris": {"android": "https://dc.lft.to/lastmile_qr_scan", "ios": "https://dc.lft.to/lastmile_qr_scan"}, "fusion_lon": 0.0, "lat": 38.93862516666667, "bike_id": "1103e5649ae5dab7e6900f88323488b9", "type": "electric_scooter", "is_reserved": 0, "lon": -77.03207866666666}, {"fusion_lat": 0.0, "name": "ea01ab1b2ceb6fcc226ba2c0944084e6", "is_disabled": 0, "rental_uris": {"android": "https://dc.lft.to/lastmile_qr_scan", "ios": "https://dc.lft.to/lastmile_qr_scan"}, "fusion_lon": 0.0, "lat": 38.87381333333333, "bike_id": "ea01ab1b2ceb6fcc226ba2c0944084e6", "type": "electric_scooter", "is_reserved": 0, "lon": -77.000461}, {"fusion_lat": 0.0, "name": "bf5c933510c1d408d6dc6c3ed4c934ea", "is_disabled": 0, "rental_uris": {"android": "https://dc.lft.to/lastmile_qr_scan", "ios": "https://dc.lft.to/lastmile_qr_scan"}, "fusion_lon": 0.0, "lat": 38.91375766666667, "bike_id": "bf5c933510c1d408d6dc6c3ed4c934ea", "type": "electric_scooter", "is_reserved": 0, "lon": -77.01997333333334}, {"fusion_lat": 0.0, "name": "88dba7249b5c4e57f0142a622972fcfe", "is_disabled": 0, "rental_uris": {"android": "https://dc.lft.to/lastmile_qr_scan", "ios": "https://dc.lft.to/lastmile_qr_scan"}, "fusion_lon": 0.0, "lat": 38.9192135, "bike_id": "88dba7249b5c4e57f0142a622972fcfe", "type": "electric_scooter", "is_reserved": 0, "lon": -77.02414733333333}, {"fusion_lat": 0.0, "name": "78faead9df0c5ee7efd9abeda6fa568f", "is_disabled": 0, "rental_uris": {"android": "https://dc.lft.to/lastmile_qr_scan", "ios": "https://dc.lft.to/lastmile_qr_scan"}, "fusion_lon": 0.0, "lat": 38.900411166666665, "bike_id": "78faead9df0c5ee7efd9abeda6fa568f", "type": "electric_scooter", "is_reserved": 0, "lon": -77.04475283333333}, {"fusion_lat": 0.0, "name": "fa51d72fa09fa2bb5c2908f21fb6b247", "is_disabled": 0, "rental_uris": {"android": "https://dc.lft.to/lastmile_qr_scan", "ios": "https://dc.lft.to/lastmile_qr_scan"}, "fusion_lon": 0.0, "lat": 38.8783945, "bike_id": "fa51d72fa09fa2bb5c2908f21fb6b247", "type": "electric_scooter", "is_reserved": 0, "lon": -76.990393}, {"fusion_lat": 0.0, "name": "05c5738b6e774d191796d8aa8b7eae6f", "is_disabled": 0, "rental_uris": {"android": "https://dc.lft.to/lastmile_qr_scan", "ios": "https://dc.lft.to/lastmile_qr_scan"}, "fusion_lon": 0.0, "lat": 38.914284, "bike_id": "05c5738b6e774d191796d8aa8b7eae6f", "type": "electric_scooter", "is_reserved": 0, "lon": -76.9844425}, {"fusion_lat": 0.0, "name": "406651796c38e1e8639bdf2206f1eb35", "is_disabled": 0, "rental_uris": {"android": "https://dc.lft.to/lastmile_qr_scan", "ios": "https://dc.lft.to/lastmile_qr_scan"}, "fusion_lon": 0.0, "lat": 38.85367033333333, "bike_id": "406651796c38e1e8639bdf2206f1eb35", "type": "electric_bike", "is_reserved": 0, "lon": -77.11521933333333}, {"fusion_lat": 0.0, "name": "b4661c3738cd3b014cae83d01a03e832", "is_disabled": 0, "rental_uris": {"android": "https://dc.lft.to/lastmile_qr_scan", "ios": "https://dc.lft.to/lastmile_qr_scan"}, "fusion_lon": 0.0, "lat": 38.92272366666667, "bike_id": "b4661c3738cd3b014cae83d01a03e832", "type": "electric_scooter", "is_reserved": 0, "lon": -77.04282533333334}, {"fusion_lat": 0.0, "name": "d1526629fce6a75416aee4404e07d6cb", "is_disabled": 0, "rental_uris": {"android": "https://dc.lft.to/lastmile_qr_scan", "ios": "https://dc.lft.to/lastmile_qr_scan"}, "fusion_lon": 0.0, "lat": 38.897548666666665, "bike_id": "d1526629fce6a75416aee4404e07d6cb", "type": "electric_scooter", "is_reserved": 0, "lon": -77.0268215}, {"fusion_lat": 0.0, "name": "7c788f97bbbabad42e19789503444373", "is_disabled": 0, "rental_uris": {"android": "https://dc.lft.to/lastmile_qr_scan", "ios": "https://dc.lft.to/lastmile_qr_scan"}, "fusion_lon": 0.0, "lat": 38.87731683333333, "bike_id": "7c788f97bbbabad42e19789503444373", "type": "electric_scooter", "is_reserved": 0, "lon": -76.9966095}, {"fusion_lat": 0.0, "name": "bf33b760f036463a3993050f1859d744", "is_disabled": 0, "rental_uris": {"android": "https://dc.lft.to/lastmile_qr_scan", "ios": "https://dc.lft.to/lastmile_qr_scan"}, "fusion_lon": 0.0, "lat": 38.918075333333334, "bike_id": "bf33b760f036463a3993050f1859d744", "type": "electric_scooter", "is_reserved": 0, "lon": -77.03149416666666}, {"fusion_lat": 0.0, "name": "31de807b011d3533c4b5efd9634daff2", "is_disabled": 0, "rental_uris": {"android": "https://dc.lft.to/lastmile_qr_scan", "ios": "https://dc.lft.to/lastmile_qr_scan"}, "fusion_lon": 0.0, "lat": 38.88293216666667, "bike_id": "31de807b011d3533c4b5efd9634daff2", "type": "electric_scooter", "is_reserved": 0, "lon": -77.01740683333334}, {"fusion_lat": 0.0, "name": "c2b6fe49c5269c085424631dde555989", "is_disabled": 0, "rental_uris": {"android": "https://dc.lft.to/lastmile_qr_scan", "ios": "https://dc.lft.to/lastmile_qr_scan"}, "fusion_lon": 0.0, "lat": 38.933787833333334, "bike_id": "c2b6fe49c5269c085424631dde555989", "type": "electric_scooter", "is_reserved": 0, "lon": -77.0325065}, {"fusion_lat": 0.0, "name": "5c3761b98957ada0c6e230d2ce66784c", "is_disabled": 0, "rental_uris": {"android": "https://dc.lft.to/lastmile_qr_scan", "ios": "https://dc.lft.to/lastmile_qr_scan"}, "fusion_lon": 0.0, "lat": 39.034303333333334, "bike_id": "5c3761b98957ada0c6e230d2ce66784c", "type": "electric_bike", "is_reserved": 0, "lon": -77.0430055}, {"fusion_lat": 0.0, "name": "5fe2f10cf48825526112150914034c7d", "is_disabled": 0, "rental_uris": {"android": "https://dc.lft.to/lastmile_qr_scan", "ios": "https://dc.lft.to/lastmile_qr_scan"}, "fusion_lon": 0.0, "lat": 38.90845933333333, "bike_id": "5fe2f10cf48825526112150914034c7d", "type": "electric_scooter", "is_reserved": 0, "lon": -77.03296066666667}, {"fusion_lat": 0.0, "name": "482da13f668cadc6a17c3c7849f50861", "is_disabled": 0, "rental_uris": {"android": "https://dc.lft.to/lastmile_qr_scan", "ios": "https://dc.lft.to/lastmile_qr_scan"}, "fusion_lon": 0.0, "lat": 38.88721733333333, "bike_id": "482da13f668cadc6a17c3c7849f50861", "type": "electric_scooter", "is_reserved": 0, "lon": -77.02585183333333}, {"fusion_lat": 0.0, "name": "ca5e097f852cd28d7f03fe78139f9b62", "is_disabled": 0, "rental_uris": {"android": "https://dc.lft.to/lastmile_qr_scan", "ios": "https://dc.lft.to/lastmile_qr_scan"}, "fusion_lon": 0.0, "lat": 38.933596, "bike_id": "ca5e097f852cd28d7f03fe78139f9b62", "type": "electric_scooter", "is_reserved": 0, "lon": -77.03890833333334}, {"fusion_lat": 0.0, "name": "c86e2ae99aad1a3f08348a0c64042a12", "is_disabled": 0, "rental_uris": {"android": "https://dc.lft.to/lastmile_qr_scan", "ios": "https://dc.lft.to/lastmile_qr_scan"}, "fusion_lon": 0.0, "lat": 38.92594783333333, "bike_id": "c86e2ae99aad1a3f08348a0c64042a12", "type": "electric_scooter", "is_reserved": 0, "lon": -77.02378716666666}, {"fusion_lat": 0.0, "name": "bc4213fadf6a71fff51decf1029dd0ab", "is_disabled": 0, "rental_uris": {"android": "https://dc.lft.to/lastmile_qr_scan", "ios": "https://dc.lft.to/lastmile_qr_scan"}, "fusion_lon": 0.0, "lat": 38.90339816666667, "bike_id": "bc4213fadf6a71fff51decf1029dd0ab", "type": "electric_scooter", "is_reserved": 0, "lon": -76.97251766666666}, {"fusion_lat": 0.0, "name": "d920c40cdac682fd828620007733c121", "is_disabled": 0, "rental_uris": {"android": "https://dc.lft.to/lastmile_qr_scan", "ios": "https://dc.lft.to/lastmile_qr_scan"}, "fusion_lon": 0.0, "lat": 38.9568285, "bike_id": "d920c40cdac682fd828620007733c121", "type": "electric_bike", "is_reserved": 0, "lon": -77.0222825}, {"fusion_lat": 0.0, "name": "3121dbbd9fe7bd2f663760cd92ac17b6", "is_disabled": 0, "rental_uris": {"android": "https://dc.lft.to/lastmile_qr_scan", "ios": "https://dc.lft.to/lastmile_qr_scan"}, "fusion_lon": 0.0, "lat": 38.936234166666665, "bike_id": "3121dbbd9fe7bd2f663760cd92ac17b6", "type": "electric_scooter", "is_reserved": 0, "lon": -77.03658533333333}, {"fusion_lat": 0.0, "name": "a7ae1eb7874816b9b26bf3d7963025f1", "is_disabled": 0, "rental_uris": {"android": "https://dc.lft.to/lastmile_qr_scan", "ios": "https://dc.lft.to/lastmile_qr_scan"}, "fusion_lon": 0.0, "lat": 38.9035615, "bike_id": "a7ae1eb7874816b9b26bf3d7963025f1", "type": "electric_scooter", "is_reserved": 0, "lon": -77.03857266666667}, {"fusion_lat": 0.0, "name": "1d939b7ca3f1692b31556de86aad3dc8", "is_disabled": 0, "rental_uris": {"android": "https://dc.lft.to/lastmile_qr_scan", "ios": "https://dc.lft.to/lastmile_qr_scan"}, "fusion_lon": 0.0, "lat": 38.94133983333333, "bike_id": "1d939b7ca3f1692b31556de86aad3dc8", "type": "electric_scooter", "is_reserved": 0, "lon": -77.0060935}, {"fusion_lat": 0.0, "name": "8cc39691be574299e0b4d283164ce0da", "is_disabled": 0, "rental_uris": {"android": "https://dc.lft.to/lastmile_qr_scan", "ios": "https://dc.lft.to/lastmile_qr_scan"}, "fusion_lon": 0.0, "lat": 38.90694083333333, "bike_id": "8cc39691be574299e0b4d283164ce0da", "type": "electric_scooter", "is_reserved": 0, "lon": -77.01542616666667}, {"fusion_lat": 0.0, "name": "c730dd9c179c3a437c1ad564651a1977", "is_disabled": 0, "rental_uris": {"android": "https://dc.lft.to/lastmile_qr_scan", "ios": "https://dc.lft.to/lastmile_qr_scan"}, "fusion_lon": 0.0, "lat": 38.8728645, "bike_id": "c730dd9c179c3a437c1ad564651a1977", "type": "electric_scooter", "is_reserved": 0, "lon": -77.00985933333334}, {"fusion_lat": 0.0, "name": "17bf5a4e6ebe557e92cbd35d95f18d3e", "is_disabled": 0, "rental_uris": {"android": "https://dc.lft.to/lastmile_qr_scan", "ios": "https://dc.lft.to/lastmile_qr_scan"}, "fusion_lon": 0.0, "lat": 38.92625116666667, "bike_id": "17bf5a4e6ebe557e92cbd35d95f18d3e", "type": "electric_scooter", "is_reserved": 0, "lon": -77.04193}, {"fusion_lat": 0.0, "name": "ed4d0099d26e42f9917f468c0cc72b17", "is_disabled": 0, "rental_uris": {"android": "https://dc.lft.to/lastmile_qr_scan", "ios": "https://dc.lft.to/lastmile_qr_scan"}, "fusion_lon": 0.0, "lat": 38.909738833333336, "bike_id": "ed4d0099d26e42f9917f468c0cc72b17", "type": "electric_scooter", "is_reserved": 0, "lon": -77.00894916666667}, {"fusion_lat": 0.0, "name": "1973d31c89fcd2bd5f2c50824ce806f5", "is_disabled": 0, "rental_uris": {"android": "https://dc.lft.to/lastmile_qr_scan", "ios": "https://dc.lft.to/lastmile_qr_scan"}, "fusion_lon": 0.0, "lat": 38.839332666666664, "bike_id": "1973d31c89fcd2bd5f2c50824ce806f5", "type": "electric_bike", "is_reserved": 0, "lon": -77.07902633333333}, {"fusion_lat": 0.0, "name": "06e7b2e49726df7ad707088cdc4fe03d", "is_disabled": 0, "rental_uris": {"android": "https://dc.lft.to/lastmile_qr_scan", "ios": "https://dc.lft.to/lastmile_qr_scan"}, "fusion_lon": 0.0, "lat": 38.91778566666667, "bike_id": "06e7b2e49726df7ad707088cdc4fe03d", "type": "electric_scooter", "is_reserved": 0, "lon": -77.040987}, {"fusion_lat": 0.0, "name": "43882a1561ab7955c2a6a32dea578b80", "is_disabled": 0, "rental_uris": {"android": "https://dc.lft.to/lastmile_qr_scan", "ios": "https://dc.lft.to/lastmile_qr_scan"}, "fusion_lon": 0.0, "lat": 38.93354166666667, "bike_id": "43882a1561ab7955c2a6a32dea578b80", "type": "electric_scooter", "is_reserved": 0, "lon": -77.07310333333334}, {"fusion_lat": 0.0, "name": "919e6a61bf010cb28c93e7802653b116", "is_disabled": 0, "rental_uris": {"android": "https://dc.lft.to/lastmile_qr_scan", "ios": "https://dc.lft.to/lastmile_qr_scan"}, "fusion_lon": 0.0, "lat": 38.91920366666667, "bike_id": "919e6a61bf010cb28c93e7802653b116", "type": "electric_scooter", "is_reserved": 0, "lon": -77.04155566666667}, {"fusion_lat": 0.0, "name": "8517ce211058cd5ca8b8e07a519f1bd4", "is_disabled": 0, "rental_uris": {"android": "https://dc.lft.to/lastmile_qr_scan", "ios": "https://dc.lft.to/lastmile_qr_scan"}, "fusion_lon": 0.0, "lat": 38.950877, "bike_id": "8517ce211058cd5ca8b8e07a519f1bd4", "type": "electric_bike", "is_reserved": 0, "lon": -76.99790366666667}, {"fusion_lat": 0.0, "name": "cfeacbd098d8d1b64c4530b6cf05f043", "is_disabled": 0, "rental_uris": {"android": "https://dc.lft.to/lastmile_qr_scan", "ios": "https://dc.lft.to/lastmile_qr_scan"}, "fusion_lon": 0.0, "lat": 38.89216866666666, "bike_id": "cfeacbd098d8d1b64c4530b6cf05f043", "type": "electric_scooter", "is_reserved": 0, "lon": -76.95742133333333}, {"fusion_lat": 0.0, "name": "fc7a56a143241f2107c0030ae8e06c2a", "is_disabled": 0, "rental_uris": {"android": "https://dc.lft.to/lastmile_qr_scan", "ios": "https://dc.lft.to/lastmile_qr_scan"}, "fusion_lon": 0.0, "lat": 38.8954415, "bike_id": "fc7a56a143241f2107c0030ae8e06c2a", "type": "electric_scooter", "is_reserved": 0, "lon": -76.98337466666666}, {"fusion_lat": 0.0, "name": "9ecacb843cfb184e4d478c2cfdaa7a84", "is_disabled": 0, "rental_uris": {"android": "https://dc.lft.to/lastmile_qr_scan", "ios": "https://dc.lft.to/lastmile_qr_scan"}, "fusion_lon": 0.0, "lat": 38.89577466666667, "bike_id": "9ecacb843cfb184e4d478c2cfdaa7a84", "type": "electric_scooter", "is_reserved": 0, "lon": -76.948875}, {"fusion_lat": 0.0, "name": "baa66f6f5ff0b93b3e99da0edd8a7528", "is_disabled": 0, "rental_uris": {"android": "https://dc.lft.to/lastmile_qr_scan", "ios": "https://dc.lft.to/lastmile_qr_scan"}, "fusion_lon": 0.0, "lat": 38.91837366666667, "bike_id": "baa66f6f5ff0b93b3e99da0edd8a7528", "type": "electric_scooter", "is_reserved": 0, "lon": -77.04034216666666}, {"fusion_lat": 0.0, "name": "6c35984f886244ae29b996e968ca1679", "is_disabled": 0, "rental_uris": {"android": "https://dc.lft.to/lastmile_qr_scan", "ios": "https://dc.lft.to/lastmile_qr_scan"}, "fusion_lon": 0.0, "lat": 38.944973, "bike_id": "6c35984f886244ae29b996e968ca1679", "type": "electric_scooter", "is_reserved": 0, "lon": -77.0387885}, {"fusion_lat": 0.0, "name": "68e75042dc00bd5b28ad641a33344e40", "is_disabled": 0, "rental_uris": {"android": "https://dc.lft.to/lastmile_qr_scan", "ios": "https://dc.lft.to/lastmile_qr_scan"}, "fusion_lon": 0.0, "lat": 38.90259916666667, "bike_id": "68e75042dc00bd5b28ad641a33344e40", "type": "electric_scooter", "is_reserved": 0, "lon": -77.053263}, {"fusion_lat": 0.0, "name": "c334c36032743b08a819f13ff8f71d6e", "is_disabled": 0, "rental_uris": {"android": "https://dc.lft.to/lastmile_qr_scan", "ios": "https://dc.lft.to/lastmile_qr_scan"}, "fusion_lon": 0.0, "lat": 38.9550485, "bike_id": "c334c36032743b08a819f13ff8f71d6e", "type": "electric_scooter", "is_reserved": 0, "lon": -77.0283785}, {"fusion_lat": 0.0, "name": "858f21849a3f29e6e2e8a7865f93df4c", "is_disabled": 0, "rental_uris": {"android": "https://dc.lft.to/lastmile_qr_scan", "ios": "https://dc.lft.to/lastmile_qr_scan"}, "fusion_lon": 0.0, "lat": 38.937603333333335, "bike_id": "858f21849a3f29e6e2e8a7865f93df4c", "type": "electric_bike", "is_reserved": 0, "lon": -76.95823583333333}, {"fusion_lat": 0.0, "name": "77e201d790b5beb8773cf3d8029a30e0", "is_disabled": 0, "rental_uris": {"android": "https://dc.lft.to/lastmile_qr_scan", "ios": "https://dc.lft.to/lastmile_qr_scan"}, "fusion_lon": 0.0, "lat": 38.928341833333334, "bike_id": "77e201d790b5beb8773cf3d8029a30e0", "type": "electric_scooter", "is_reserved": 0, "lon": -76.99345316666667}, {"fusion_lat": 0.0, "name": "c4e420da142cd577d511f40531df49fa", "is_disabled": 0, "rental_uris": {"android": "https://dc.lft.to/lastmile_qr_scan", "ios": "https://dc.lft.to/lastmile_qr_scan"}, "fusion_lon": 0.0, "lat": 38.89011716666667, "bike_id": "c4e420da142cd577d511f40531df49fa", "type": "electric_scooter", "is_reserved": 0, "lon": -76.93733516666667}, {"fusion_lat": 0.0, "name": "b7a0cd8248efa851f5d2195b92d2f4f6", "is_disabled": 0, "rental_uris": {"android": "https://dc.lft.to/lastmile_qr_scan", "ios": "https://dc.lft.to/lastmile_qr_scan"}, "fusion_lon": 0.0, "lat": 38.93241416666667, "bike_id": "b7a0cd8248efa851f5d2195b92d2f4f6", "type": "electric_scooter", "is_reserved": 0, "lon": -77.03843316666666}, {"fusion_lat": 0.0, "name": "423f5e1fe0d54b020c878f4c36670781", "is_disabled": 0, "rental_uris": {"android": "https://dc.lft.to/lastmile_qr_scan", "ios": "https://dc.lft.to/lastmile_qr_scan"}, "fusion_lon": 0.0, "lat": 38.905135, "bike_id": "423f5e1fe0d54b020c878f4c36670781", "type": "electric_scooter", "is_reserved": 0, "lon": -77.03169033333333}, {"fusion_lat": 0.0, "name": "ed3e4b1b8e05309d5a6e16962e4db988", "is_disabled": 0, "rental_uris": {"android": "https://dc.lft.to/lastmile_qr_scan", "ios": "https://dc.lft.to/lastmile_qr_scan"}, "fusion_lon": 0.0, "lat": 38.9076005, "bike_id": "ed3e4b1b8e05309d5a6e16962e4db988", "type": "electric_scooter", "is_reserved": 0, "lon": -77.00036316666667}, {"fusion_lat": 0.0, "name": "e833be355282031d282238ac482457d7", "is_disabled": 0, "rental_uris": {"android": "https://dc.lft.to/lastmile_qr_scan", "ios": "https://dc.lft.to/lastmile_qr_scan"}, "fusion_lon": 0.0, "lat": 38.91633783333333, "bike_id": "e833be355282031d282238ac482457d7", "type": "electric_scooter", "is_reserved": 0, "lon": -77.01078}, {"fusion_lat": 0.0, "name": "9e8256513797c14410ca045d2c3a2344", "is_disabled": 0, "rental_uris": {"android": "https://dc.lft.to/lastmile_qr_scan", "ios": "https://dc.lft.to/lastmile_qr_scan"}, "fusion_lon": 0.0, "lat": 38.93280766666667, "bike_id": "9e8256513797c14410ca045d2c3a2344", "type": "electric_scooter", "is_reserved": 0, "lon": -77.040825}, {"fusion_lat": 0.0, "name": "15d3cd04535a060b46924ee465c1516c", "is_disabled": 0, "rental_uris": {"android": "https://dc.lft.to/lastmile_qr_scan", "ios": "https://dc.lft.to/lastmile_qr_scan"}, "fusion_lon": 0.0, "lat": 38.91107316666667, "bike_id": "15d3cd04535a060b46924ee465c1516c", "type": "electric_bike", "is_reserved": 0, "lon": -77.00266616666667},