{"data": {"bikes": [{"is_reserved": 0, "fusion_lon": 0.0, "fusion_lat": 0.0, "name": "e6c659c61448e8c7391ad12ec9989373", "type": "electric_scooter", "is_disabled": 0, "lat": 38.904894166666665, "rental_uris": {"android": "https://dc.lft.to/lastmile_qr_scan", "ios": "https://dc.lft.to/lastmile_qr_scan"}, "bike_id": "e6c659c61448e8c7391ad12ec9989373", "lon": -77.0573075}, {"is_reserved": 0, "fusion_lon": 0.0, "fusion_lat": 0.0, "name": "851feac878f54b21c719baacec4c9eef", "type": "electric_scooter", "is_disabled": 0, "lat": 38.9395655, "rental_uris": {"android": "https://dc.lft.to/lastmile_qr_scan", "ios": "https://dc.lft.to/lastmile_qr_scan"}, "bike_id": "851feac878f54b21c719baacec4c9eef", "lon": -77.024961}, {"is_reserved": 0, "fusion_lon": 0.0, "fusion_lat": 0.0, "name": "dbdca9958708da33982a84acc387f2d9", "type": "electric_scooter", "is_disabled": 0, "lat": 38.914979333333335, "rental_uris": {"android": "https://dc.lft.to/lastmile_qr_scan", "ios": "https://dc.lft.to/lastmile_qr_scan"}, "bike_id": "dbdca9958708da33982a84acc387f2d9", "lon": -77.01995716666667}, {"is_reserved": 0, "fusion_lon": 0.0, "fusion_lat": 0.0, "name": "1e19a4699a5b142def6aeb2d1b552b26", "type": "electric_scooter", "is_disabled": 0, "lat": 38.864761, "rental_uris": {"android": "https://dc.lft.to/lastmile_qr_scan", "ios": "https://dc.lft.to/lastmile_qr_scan"}, "bike_id": "1e19a4699a5b142def6aeb2d1b552b26", "lon": -76.98229283333333}, {"is_reserved": 0, "fusion_lon": 0.0, "fusion_lat": 0.0, "name": "704f97983aca4ffee8c2dfacc21625ce", "type": "electric_scooter", "is_disabled": 0, "lat": 38.90270266666667, "rental_uris": {"android": "https://dc.lft.to/lastmile_qr_scan", "ios": "https://dc.lft.to/lastmile_qr_scan"}, "bike_id": "704f97983aca4ffee8c2dfacc21625ce", "lon": -77.0365085}, {"is_reserved": 0, "fusion_lon": 0.0, "fusion_lat": 0.0, "name": "08a9beb481ee9c3618f82accfe01168b", "type": "electric_scooter", "is_disabled": 0, "lat": 38.931699, "rental_uris": {"android": "https://dc.lft.to/lastmile_qr_scan", "ios": "https://dc.lft.to/lastmile_qr_scan"}, "bike_id": "08a9beb481ee9c3618f82accfe01168b", "lon": -77.03669516666666}, {"is_reserved": 0, "fusion_lon": 0.0, "fusion_lat": 0.0, "name": "2af6f8c68adbc9673c1a27ba235710e1", "type": "electric_scooter", "is_disabled": 0, "lat": 38.9179455, "rental_uris": {"android": "https://dc.lft.to/lastmile_qr_scan", "ios": "https://dc.lft.to/lastmile_qr_scan"}, "bike_id": "2af6f8c68adbc9673c1a27ba235710e1", "lon": -77.040193}, {"is_reserved": 0, "fusion_lon": 0.0, "fusion_lat": 0.0, "name": "028c534f607fa6bfe8829f0d23746944", "type": "electric_scooter", "is_disabled": 0, "lat": 38.90591833333333, "rental_uris": {"android": "https://dc.lft.to/lastmile_qr_scan", "ios": "https://dc.lft.to/lastmile_qr_scan"}, "bike_id": "028c534f607fa6bfe8829f0d23746944", "lon": -77.00356083333334}, {"is_reserved": 0, "fusion_lon": 0.0, "fusion_lat": 0.0, "name": "b2a660f5b8350330af41229328375281", "type": "electric_scooter", "is_disabled": 0, "lat": 38.92268216666667, "rental_uris": {"android": "https://dc.lft.to/lastmile_qr_scan", "ios": "https://dc.lft.to/lastmile_qr_scan"}, "bike_id": "b2a660f5b8350330af41229328375281", "lon": -77.042475}, {"is_reserved": 0, "fusion_lon": 0.0, "fusion_lat": 0.0, "name": "078d6b200324664390e20d05c7ca3099", "type": "electric_scooter", "is_disabled": 0, "lat": 38.908801, "rental_uris": {"android": "https://dc.lft.to/lastmile_qr_scan", "ios": "https://dc.lft.to/lastmile_qr_scan"}, "bike_id": "078d6b200324664390e20d05c7ca3099", "lon": -76.998551}, {"is_reserved": 0, "fusion_lon": 0.0, "fusion_lat": 0.0, "name": "d3967c44a7abfcfeefa8e54aa08df97c", "type": "electric_scooter", "is_disabled": 0, "lat": 38.996064833333335, "rental_uris": {"android": "https://dc.lft.to/lastmile_qr_scan", "ios": "https://dc.lft.to/lastmile_qr_scan"}, "bike_id": "d3967c44a7abfcfeefa8e54aa08df97c", "lon": -77.0321785}, {"is_reserved": 0, "fusion_lon": 0.0, "fusion_lat": 0.0, "name": "dccdf65142d8a10fff511f9aa7e8aea8", "type": "electric_scooter", "is_disabled": 0, "lat": 38.888134666666666, "rental_uris": {"android": "https://dc.lft.to/lastmile_qr_scan", "ios": "https://dc.lft.to/lastmile_qr_scan"}, "bike_id": "dccdf65142d8a10fff511f9aa7e8aea8", "lon": -76.93343983333334}, {"is_reserved": 0, "fusion_lon": 0.0, "fusion_lat": 0.0, "name": "7d85b4425a5623ea20b33c11ff0fd0fe", "type": "electric_scooter", "is_disabled": 0, "lat": 38.920931, "rental_uris": {"android": "https://dc.lft.to/lastmile_qr_scan", "ios": "https://dc.lft.to/lastmile_qr_scan"}, "bike_id": "7d85b4425a5623ea20b33c11ff0fd0fe", "lon": -77.00431383333333}, {"is_reserved": 0, "fusion_lon": 0.0, "fusion_lat": 0.0, "name": "9f3e770312bc1d377442cf0aac4215f8", "type": "electric_scooter", "is_disabled": 0, "lat": 38.916554, "rental_uris": {"android": "https://dc.lft.to/lastmile_qr_scan", "ios": "https://dc.lft.to/lastmile_qr_scan"}, "bike_id": "9f3e770312bc1d377442cf0aac4215f8", "lon": -77.0296905}, {"is_reserved": 0, "fusion_lon": 0.0, "fusion_lat": 0.0, "name": "7aa00fe42a8c6c7b13d038326dfa5e08", "type": "electric_scooter", "is_disabled": 0, "lat": 38.88729716666667, "rental_uris": {"android": "https://dc.lft.to/lastmile_qr_scan", "ios": "https://dc.lft.to/lastmile_qr_scan"}, "bike_id": "7aa00fe42a8c6c7b13d038326dfa5e08", "lon": -77.02822733333333}, {"is_reserved": 0, "fusion_lon": 0.0, "fusion_lat": 0.0, "name": "b1f0aaab178a7420159254f2cd47da3a", "type": "electric_scooter", "is_disabled": 0, "lat": 38.911827, "rental_uris": {"android": "https://dc.lft.to/lastmile_qr_scan", "ios": "https://dc.lft.to/lastmile_qr_scan"}, "bike_id": "b1f0aaab178a7420159254f2cd47da3a", "lon": -77.00968816666666}, {"is_reserved": 0, "fusion_lon": 0.0, "fusion_lat": 0.0, "name": "fd5cc78e4eed7ea091053e0176a263f9", "type": "electric_scooter", "is_disabled": 0, "lat": 38.909527, "rental_uris": {"android": "https://dc.lft.to/lastmile_qr_scan", "ios": "https://dc.lft.to/lastmile_qr_scan"}, "bike_id": "fd5cc78e4eed7ea091053e0176a263f9", "lon": -77.03204533333333}, {"is_reserved": 0, "fusion_lon": 0.0, "fusion_lat": 0.0, "name": "a645ef69210e99fa2c1c78a19d88eddf", "type": "electric_scooter", "is_disabled": 0, "lat": 38.93177933333333, "rental_uris": {"android": "https://dc.lft.to/lastmile_qr_scan", "ios": "https://dc.lft.to/lastmile_qr_scan"}, "bike_id": "a645ef69210e99fa2c1c78a19d88eddf", "lon": -77.038542}, {"is_reserved": 0, "fusion_lon": 0.0, "fusion_lat": 0.0, "name": "a4c318f09a55fd43861a5ac1cc80500a", "type": "electric_bike", "is_disabled": 0, "lat": 38.887558166666665, "rental_uris": {"android": "https://dc.lft.to/lastmile_qr_scan", "ios": "https://dc.lft.to/lastmile_qr_scan"}, "bike_id": "a4c318f09a55fd43861a5ac1cc80500a", "lon": -76.94775166666666}, {"is_reserved": 0, "fusion_lon": 0.0, "fusion_lat": 0.0, "name": "87f924fc311e8d743d09a57bb49bfbea", "type": "electric_scooter", "is_disabled": 0, "lat": 38.92612733333333, "rental_uris": {"android": "https://dc.lft.to/lastmile_qr_scan", "ios": "https://dc.lft.to/lastmile_qr_scan"}, "bike_id": "87f924fc311e8d743d09a57bb49bfbea", "lon": -77.02158566666667}, {"is_reserved": 0, "fusion_lon": 0.0, "fusion_lat": 0.0, "name": "8a3f5c87d8893f1e23d566e39f5cf409", "type": "electric_scooter", "is_disabled": 0, "lat": 38.909625166666665, "rental_uris": {"android": "https://dc.lft.to/lastmile_qr_scan", "ios": "https://dc.lft.to/lastmile_qr_scan"}, "bike_id": "8a3f5c87d8893f1e23d566e39f5cf409", "lon": -77.03860683333333}, {"is_reserved": 0, "fusion_lon": 0.0, "fusion_lat": 0.0, "name": "37187fd0f0e4ee53ff9b905ac38689f6", "type": "electric_scooter", "is_disabled": 0, "lat": 38.90584616666666, "rental_uris": {"android": "https://dc.lft.to/lastmile_qr_scan", "ios": "https://dc.lft.to/lastmile_qr_scan"}, "bike_id": "37187fd0f0e4ee53ff9b905ac38689f6", "lon": -77.03856083333334}, {"is_reserved": 0, "fusion_lon": 0.0, "fusion_lat": 0.0, "name": "b8b57054a27b4e800fa848c2d172ecbc", "type": "electric_scooter", "is_disabled": 0, "lat": 38.926569666666666, "rental_uris": {"android": "https://dc.lft.to/lastmile_qr_scan", "ios": "https://dc.lft.to/lastmile_qr_scan"}, "bike_id": "b8b57054a27b4e800fa848c2d172ecbc", "lon": -77.03728066666666}, {"is_reserved": 0, "fusion_lon": 0.0, "fusion_lat": 0.0, "name": "87eeac1c00aa2b948c0a8ef8616e0f02", "type": "electric_scooter", "is_disabled": 0, "lat": 38.905535666666665, "rental_uris": {"android": "https://dc.lft.to/lastmile_qr_scan", "ios": "https://dc.lft.to/lastmile_qr_scan"}, "bike_id": "87eeac1c00aa2b948c0a8ef8616e0f02", "lon": -77.046566}, {"is_reserved": 0, "fusion_lon": 0.0, "fusion_lat": 0.0, "name": "2fc356aae298c64818bb8c55f1cb8942", "type": "electric_scooter", "is_disabled": 0, "lat": 38.88777983333333, "rental_uris": {"android": "https://dc.lft.to/lastmile_qr_scan", "ios": "https://dc.lft.to/lastmile_qr_scan"}, "bike_id": "2fc356aae298c64818bb8c55f1cb8942", "lon": -76.95526216666667}, {"is_reserved": 0, "fusion_lon": 0.0, "fusion_lat": 0.0, "name": "1341a717de64616010bdd591abc832be", "type": "electric_scooter", "is_disabled": 0, "lat": 38.89225316666667, "rental_uris": {"android": "https://dc.lft.to/lastmile_qr_scan", "ios": "https://dc.lft.to/lastmile_qr_scan"}, "bike_id": "1341a717de64616010bdd591abc832be", "lon": -77.04497916666666}, {"is_reserved": 0, "fusion_lon": 0.0, "fusion_lat": 0.0, "name": "5881cbdd6ff04ab93157ac34760de7e9", "type": "electric_bike", "is_disabled": 0, "lat": 39.02434733333333, "rental_uris": {"android": "https://dc.lft.to/lastmile_qr_scan", "ios": "https://dc.lft.to/lastmile_qr_scan"}, "bike_id": "5881cbdd6ff04ab93157ac34760de7e9", "lon": -77.13098083333334}, {"is_reserved": 0, "fusion_lon": 0.0, "fusion_lat": 0.0, "name": "3f5a32566b5f73d63aa723d6c9903dfe", "type": "electric_scooter", "is_disabled": 0, "lat": 38.917102166666666, "rental_uris": {"android": "https://dc.lft.to/lastmile_qr_scan", "ios": "https://dc.lft.to/lastmile_qr_scan"}, "bike_id": "3f5a32566b5f73d63aa723d6c9903dfe", "lon": -77.03862783333334}, {"is_reserved": 0, "fusion_lon": 0.0, "fusion_lat": 0.0, "name": "2462f28cefb234593e4b1bc3bc1b92e0", "type": "electric_scooter", "is_disabled": 0, "lat": 38.90672416666666, "rental_uris": {"android": "https://dc.lft.to/lastmile_qr_scan", "ios": "https://dc.lft.to/lastmile_qr_scan"}, "bike_id": "2462f28cefb234593e4b1bc3bc1b92e0", "lon": -77.038417}, {"is_reserved": 0, "fusion_lon": 0.0, "fusion_lat": 0.0, "name": "a19c04e634d91ffa0a4eaf48d86ee96a", "type": "electric_scooter", "is_disabled": 0, "lat": 38.922325, "rental_uris": {"android": "https://dc.lft.to/lastmile_qr_scan", "ios": "https://dc.lft.to/lastmile_qr_scan"}, "bike_id": "a19c04e634d91ffa0a4eaf48d86ee96a", "lon": -77.02334116666667}, {"is_reserved": 0, "fusion_lon": 0.0, "fusion_lat": 0.0, "name": "1b1afadb43735bb6af92b126b1351a4d", "type": "electric_scooter", "is_disabled": 0, "lat": 38.90635366666667, "rental_uris": {"android": "https://dc.lft.to/lastmile_qr_scan", "ios": "https://dc.lft.to/lastmile_qr_scan"}, "bike_id": "1b1afadb43735bb6af92b126b1351a4d", "lon": -77.0477865}, {"is_reserved": 0, "fusion_lon": 0.0, "fusion_lat": 0.0, "name": "0a54e0f9918b7f193b0d662d72233b51", "type": "electric_scooter", "is_disabled": 0, "lat": 38.9080315, "rental_uris": {"android": "https://dc.lft.to/lastmile_qr_scan", "ios": "https://dc.lft.to/lastmile_qr_scan"}, "bike_id": "0a54e0f9918b7f193b0d662d72233b51", "lon": -77.023811}, {"is_reserved": 0, "fusion_lon": 0.0, "fusion_lat": 0.0, "name": "71c89ac4c05a4df527c6938997e12f9d", "type": "electric_scooter", "is_disabled": 0, "lat": 38.897211666666664, "rental_uris": {"android": "https://dc.lft.to/lastmile_qr_scan", "ios": "https://dc.lft.to/lastmile_qr_scan"}, "bike_id": "71c89ac4c05a4df527c6938997e12f9d", "lon": -77.0294045}, {"is_reserved": 0, "fusion_lon": 0.0, "fusion_lat": 0.0, "name": "92ae53bdcbf92483c732768278106b25", "type": "electric_bike", "is_disabled": 0, "lat": 38.9478545, "rental_uris": {"android": "https://dc.lft.to/lastmile_qr_scan", "ios": "https://dc.lft.to/lastmile_qr_scan"}, "bike_id": "92ae53bdcbf92483c732768278106b25", "lon": -76.972102}, {"is_reserved": 0, "fusion_lon": 0.0, "fusion_lat": 0.0, "name": "cffd25dc52f0dc525193ea66e9fdd273", "type": "electric_scooter", "is_disabled": 0, "lat": 38.88745483333334, "rental_uris": {"android": "https://dc.lft.to/lastmile_qr_scan", "ios": "https://dc.lft.to/lastmile_qr_scan"}, "bike_id": "cffd25dc52f0dc525193ea66e9fdd273", "lon": -77.01540216666666}, {"is_reserved": 0, "fusion_lon": 0.0, "fusion_lat": 0.0, "name": "150c19e2e5c6ba8b8549f25f45b128e5", "type": "electric_scooter", "is_disabled": 0, "lat": 38.907735833333334, "rental_uris": {"android": "https://dc.lft.to/lastmile_qr_scan", "ios": "https://dc.lft.to/lastmile_qr_scan"}, "bike_id": "150c19e2e5c6ba8b8549f25f45b128e5", "lon": -77.04007016666667}, {"is_reserved": 0, "fusion_lon": 0.0, "fusion_lat": 0.0, "name": "9c55f09a37ae17ae1d8919ffb8b0b18e", "type": "electric_scooter", "is_disabled": 0, "lat": 38.905723, "rental_uris": {"android": "https://dc.lft.to/lastmile_qr_scan", "ios": "https://dc.lft.to/lastmile_qr_scan"}, "bike_id": "9c55f09a37ae17ae1d8919ffb8b0b18e", "lon": -77.04479316666666}, {"is_reserved": 0, "fusion_lon": 0.0, "fusion_lat": 0.0, "name": "e69f40c787e13a7c37d493144fa89504", "type": "electric_scooter", "is_disabled": 0, "lat": 38.860719, "rental_uris": {"android": "https://dc.lft.to/lastmile_qr_scan", "ios": "https://dc.lft.to/lastmile_qr_scan"}, "bike_id": "e69f40c787e13a7c37d493144fa89504", "lon": -76.968953}, {"is_reserved": 0, "fusion_lon": 0.0, "fusion_lat": 0.0, "name": "694d945f8713cb88c28a1fd1247af71d", "type": "electric_bike", "is_disabled": 0, "lat": 38.88688783333333, "rental_uris": {"android": "https://dc.lft.to/lastmile_qr_scan", "ios": "https://dc.lft.to/lastmile_qr_scan"}, "bike_id": "694d945f8713cb88c28a1fd1247af71d", "lon": -76.97637666666667}, {"is_reserved": 0, "fusion_lon": 0.0, "fusion_lat": 0.0, "name": "cad949153cd0ee35dd93697b32853582", "type": "electric_scooter", "is_disabled": 0, "lat": 38.923197, "rental_uris": {"android": "https://dc.lft.to/lastmile_qr_scan", "ios": "https://dc.lft.to/lastmile_qr_scan"}, "bike_id": "cad949153cd0ee35dd93697b32853582", "lon": -77.043885}, {"is_reserved": 0, "fusion_lon": 0.0, "fusion_lat": 0.0, "name": "5262293d96043e67dc1737bd385f3d68", "type": "electric_scooter", "is_disabled": 0, "lat": 38.82387, "rental_uris": {"android": "https://dc.lft.to/lastmile_qr_scan", "ios": "https://dc.lft.to/lastmile_qr_scan"}, "bike_id": "5262293d96043e67dc1737bd385f3d68", "lon": -77.0118505}, {"is_reserved": 0, "fusion_lon": 0.0, "fusion_lat": 0.0, "name": "0bda8fe235ca9b63c0674e2df0dfa7b5", "type": "electric_scooter", "is_disabled": 0, "lat": 38.874441, "rental_uris": {"android": "https://dc.lft.to/lastmile_qr_scan", "ios": "https://dc.lft.to/lastmile_qr_scan"}, "bike_id": "0bda8fe235ca9b63c0674e2df0dfa7b5", "lon": -77.00566733333334}, {"is_reserved": 0, "fusion_lon": 0.0, "fusion_lat": 0.0, "name": "f2b76c71364397f049f0532c997a686f", "type": "electric_scooter", "is_disabled": 0, "lat": 38.9091225, "rental_uris": {"android": "https://dc.lft.to/lastmile_qr_scan", "ios": "https://dc.lft.to/lastmile_qr_scan"}, "bike_id": "f2b76c71364397f049f0532c997a686f", "lon": -77.07263983333333}, {"is_reserved": 0, "fusion_lon": 0.0, "fusion_lat": 0.0, "name": "18a3a30f880e5519c6417fb263d6f039", "type": "electric_scooter", "is_disabled": 0, "lat": 38.90001616666667, "rental_uris": {"android": "https://dc.lft.to/lastmile_qr_scan", "ios": "https://dc.lft.to/lastmile_qr_scan"}, "bike_id": "18a3a30f880e5519c6417fb263d6f039", "lon": -77.040084}, {"is_reserved": 0, "fusion_lon": 0.0, "fusion_lat": 0.0, "name": "1f6bf44f413bdcf29fc48426ead7d099", "type": "electric_scooter", "is_disabled": 0, "lat": 38.867376166666666, "rental_uris": {"android": "https://dc.lft.to/lastmile_qr_scan", "ios": "https://dc.lft.to/lastmile_qr_scan"}, "bike_id": "1f6bf44f413bdcf29fc48426ead7d099", "lon": -76.98782816666667}, {"is_reserved": 0, "fusion_lon": 0.0, "fusion_lat": 0.0, "name": "33893a2a1f076df7e0aa040a9c6973fa", "type": "electric_scooter", "is_disabled": 0, "lat": 38.89937333333334, "rental_uris": {"android": "https://dc.lft.to/lastmile_qr_scan", "ios": "https://dc.lft.to/lastmile_qr_scan"}, "bike_id": "33893a2a1f076df7e0aa040a9c6973fa", "lon": -77.0238205}, {"is_reserved": 0, "fusion_lon": 0.0, "fusion_lat": 0.0, "name": "f03655754214178ee6559df9dc0639de", "type": "electric_bike", "is_disabled": 0, "lat": 38.88048633333333, "rental_uris": {"android": "https://dc.lft.to/lastmile_qr_scan", "ios": "https://dc.lft.to/lastmile_qr_scan"}, "bike_id": "f03655754214178ee6559df9dc0639de", "lon": -77.01131133333334}, {"is_reserved": 0, "fusion_lon": 0.0, "fusion_lat": 0.0, "name": "4228f5de9d9276777dcd248d03ad851f", "type": "electric_scooter", "is_disabled": 0, "lat": 38.89371416666667, "rental_uris": {"android": "https://dc.lft.to/lastmile_qr_scan", "ios": "https://dc.lft.to/lastmile_qr_scan"}, "bike_id": "4228f5de9d9276777dcd248d03ad851f", "lon": -77.03228883333334}, {"is_reserved": 0, "fusion_lon": 0.0, "fusion_lat": 0.0, "name": "f69dd04777ed1b049ed86e812ce5d15d", "type": "electric_scooter", "is_disabled": 0, "lat": 38.90005083333333, "rental_uris": {"android": "https://dc.lft.to/lastmile_qr_scan", "ios": "https://dc.lft.to/lastmile_qr_scan"}, "bike_id": "f69dd04777ed1b049ed86e812ce5d15d", "lon": -76.996235}, {"is_reserved": 0, "fusion_lon": 0.0, "fusion_lat": 0.0, "name": "cf9ceeda9f86d3dbcd227e9285dcff11", "type": "electric_scooter", "is_disabled": 0, "lat": 38.876846, "rental_uris": {"android": "https://dc.lft.to/lastmile_qr_scan", "ios": "https://dc.lft.to/lastmile_qr_scan"}, "bike_id": "cf9ceeda9f86d3dbcd227e9285dcff11", "lon": -77.00407183333333}, {"is_reserved": 0, "fusion_lon": 0.0, "fusion_lat": 0.0, "name": "71e8885f80cf70713e5b9812a7c6cc2c", "type": "electric_scooter", "is_disabled": 0, "lat": 38.9149795, "rental_uris": {"android": "https://dc.lft.to/lastmile_qr_scan", "ios": "https://dc.lft.to/lastmile_qr_scan"}, "bike_id": "71e8885f80cf70713e5b9812a7c6cc2c", "lon": -77.02000283333334}, {"is_reserved": 0, "fusion_lon": 0.0, "fusion_lat": 0.0, "name": "e74a9a26b3325c9b483c17467300d14c", "type": "electric_scooter", "is_disabled": 0, "lat": 38.90732366666667, "rental_uris": {"android": "https://dc.lft.to/lastmile_qr_scan", "ios": "https://dc.lft.to/lastmile_qr_scan"}, "bike_id": "e74a9a26b3325c9b483c17467300d14c", "lon": -76.98630383333334}, {"is_reserved": 0, "fusion_lon": 0.0, "fusion_lat": 0.0, "name": "b0c2cd805800bc18e80c7c1601847fb5", "type": "electric_scooter", "is_disabled": 0, "lat": 38.90375516666667, "rental_uris": {"android": "https://dc.lft.to/lastmile_qr_scan", "ios": "https://dc.lft.to/lastmile_qr_scan"}, "bike_id": "b0c2cd805800bc18e80c7c1601847fb5", "lon": -77.042479}, {"is_reserved": 0, "fusion_lon": 0.0, "fusion_lat": 0.0, "name": "ad265e4aa185511924dc08e3a65df572", "type": "electric_scooter", "is_disabled": 0, "lat": 38.90339616666667, "rental_uris": {"android": "https://dc.lft.to/lastmile_qr_scan", "ios": "https://dc.lft.to/lastmile_qr_scan"}, "bike_id": "ad265e4aa185511924dc08e3a65df572", "lon": -76.98277716666666}, {"is_reserved": 0, "fusion_lon": 0.0, "fusion_lat": 0.0, "name": "60260e41d92c5ff3ff2e1e569b96ae23", "type": "electric_scooter", "is_disabled": 0, "lat": 38.90306283333334, "rental_uris": {"android": "https://dc.lft.to/lastmile_qr_scan", "ios": "https://dc.lft.to/lastmile_qr_scan"}, "bike_id": "60260e41d92c5ff3ff2e1e569b96ae23", "lon": -77.0505725}, {"is_reserved": 0, "fusion_lon": 0.0, "fusion_lat": 0.0, "name": "44f66b45486150ceaa90566e43aa6563", "type": "electric_scooter", "is_disabled": 0, "lat": 38.91181983333333, "rental_uris": {"android": "https://dc.lft.to/lastmile_qr_scan", "ios": "https://dc.lft.to/lastmile_qr_scan"}, "bike_id": "44f66b45486150ceaa90566e43aa6563", "lon": -77.0296085}, {"is_reserved": 0, "fusion_lon": 0.0, "fusion_lat": 0.0, "name": "5ccd674af535e570a97d3f64b1951713", "type": "electric_scooter", "is_disabled": 0, "lat": 38.9311305, "rental_uris": {"android": "https://dc.lft.to/lastmile_qr_scan", "ios": "https://dc.lft.to/lastmile_qr_scan"}, "bike_id": "5ccd674af535e570a97d3f64b1951713", "lon": -77.03030683333333}, {"is_reserved": 0, "fusion_lon": 0.0, "fusion_lat": 0.0, "name": "6029245e074cec47985c7a200aec0038", "type": "electric_scooter", "is_disabled": 0, "lat": 38.924021333333336, "rental_uris": {"android": "https://dc.lft.to/lastmile_qr_scan", "ios": "https://dc.lft.to/lastmile_qr_scan"}, "bike_id": "6029245e074cec47985c7a200aec0038", "lon": -77.02702033333334}, {"is_reserved": 0, "fusion_lon": 0.0, "fusion_lat": 0.0, "name": "2e1d12e18e08ac50c026a8c8d4dd6433", "type": "electric_scooter", "is_disabled": 0, "lat": 38.9156725, "rental_uris": {"android": "https://dc.lft.to/lastmile_qr_scan", "ios": "https://dc.lft.to/lastmile_qr_scan"}, "bike_id": "2e1d12e18e08ac50c026a8c8d4dd6433", "lon": -77.02384083333334}, {"is_reserved": 0, "fusion_lon": 0.0, "fusion_lat": 0.0, "name": "2d888949facb6403817ea525adab6257", "type": "electric_scooter", "is_disabled": 0, "lat": 38.901404666666664, "rental_uris": {"android": "https://dc.lft.to/lastmile_qr_scan", "ios": "https://dc.lft.to/lastmile_qr_scan"}, "bike_id": "2d888949facb6403817ea525adab6257", "lon": -77.00012183333334}, {"is_reserved": 0, "fusion_lon": 0.0, "fusion_lat": 0.0, "name": "32dbb1a1cce1c67e405f826ca82b568d", "type": "electric_scooter", "is_disabled": 0, "lat": 38.899179, "rental_uris": {"android": "https://dc.lft.to/lastmile_qr_scan", "ios": "https://dc.lft.to/lastmile_qr_scan"}, "bike_id": "32dbb1a1cce1c67e405f826ca82b568d", "lon": -76.93364483333333}, {"is_reserved": 0, "fusion_lon": 0.0, "fusion_lat": 0.0, "name": "5cdd7711b1fe550ba3b0dd29da35e603", "type": "electric_scooter", "is_disabled": 0, "lat": 38.905604, "rental_uris": {"android": "https://dc.lft.to/lastmile_qr_scan", "ios": "https://dc.lft.to/lastmile_qr_scan"}, "bike_id": "5cdd7711b1fe550ba3b0dd29da35e603", "lon": -77.0221835}, {"is_reserved": 0, "fusion_lon": 0.0, "fusion_lat": 0.0, "name": "80bd5c1e9a04cdc4b3deeaf205bef363", "type": "electric_scooter", "is_disabled": 0, "lat": 38.901552833333334, "rental_uris": {"android": "https://dc.lft.to/lastmile_qr_scan", "ios": "https://dc.lft.to/lastmile_qr_scan"}, "bike_id": "80bd5c1e9a04cdc4b3deeaf205bef363", "lon": -76.97629833333333}, {"is_reserved": 0, "fusion_lon": 0.0, "fusion_lat": 0.0, "name": "8a9c50c9b9a4256a4323628acf8c9b71", "type": "electric_scooter", "is_disabled": 0, "lat": 38.8952515, "rental_uris": {"android": "https://dc.lft.to/lastmile_qr_scan", "ios": "https://dc.lft.to/lastmile_qr_scan"}, "bike_id": "8a9c50c9b9a4256a4323628acf8c9b71", "lon": -77.003364}, {"is_reserved": 0, "fusion_lon": 0.0, "fusion_lat": 0.0, "name": "751da6108df4f05007a7191c1721c306", "type": "electric_scooter", "is_disabled": 0, "lat": 38.90642366666667, "rental_uris": {"android": "https://dc.lft.to/lastmile_qr_scan", "ios": "https://dc.lft.to/lastmile_qr_scan"}, "bike_id": "751da6108df4f05007a7191c1721c306", "lon": -77.00597883333333}, {"is_reserved": 0, "fusion_lon": 0.0, "fusion_lat": 0.0, "name": "c05da6424c07c24f417d14da785e3d4c", "type": "electric_scooter", "is_disabled": 0, "lat": 38.90985333333333, "rental_uris": {"android": "https://dc.lft.to/lastmile_qr_scan", "ios": "https://dc.lft.to/lastmile_qr_scan"}, "bike_id": "c05da6424c07c24f417d14da785e3d4c", "lon": -77.04869233333334}, {"is_reserved": 0, "fusion_lon": 0.0, "fusion_lat": 0.0, "name": "90f43433a91ffb2a063c469c6e327044", "type": "electric_scooter", "is_disabled": 0, "lat": 38.9020815, "rental_uris": {"android": "https://dc.lft.to/lastmile_qr_scan", "ios": "https://dc.lft.to/lastmile_qr_scan"}, "bike_id": "90f43433a91ffb2a063c469c6e327044", "lon": -76.97605316666667}, {"is_reserved": 0, "fusion_lon": 0.0, "fusion_lat": 0.0, "name": "5984afdf05abe4bc6848b56bb1fb4f68", "type": "electric_scooter", "is_disabled": 0, "lat": 38.928217, "rental_uris": {"android": "https://dc.lft.to/lastmile_qr_scan", "ios": "https://dc.lft.to/lastmile_qr_scan"}, "bike_id": "5984afdf05abe4bc6848b56bb1fb4f68", "lon": -77.01413433333333}, {"is_reserved": 0, "fusion_lon": 0.0, "fusion_lat": 0.0, "name": "c5a636165b5343fe27a093906e199ff8", "type": "electric_scooter", "is_disabled": 0, "lat": 38.897613, "rental_uris": {"android": "https://dc.lft.to/lastmile_qr_scan", "ios": "https://dc.lft.to/lastmile_qr_scan"}, "bike_id": "c5a636165b5343fe27a093906e199ff8", "lon": -77.046655}, {"is_reserved": 0, "fusion_lon": 0.0, "fusion_lat": 0.0, "name": "06bfffb6f5f183eaa6b85e3d31eb6a3c", "type": "electric_scooter", "is_disabled": 0, "lat": 38.900812, "rental_uris": {"android": "https://dc.lft.to/lastmile_qr_scan", "ios": "https://dc.lft.to/lastmile_qr_scan"}, "bike_id": "06bfffb6f5f183eaa6b85e3d31eb6a3c", "lon": -77.01300366666666}, {"is_reserved": 0, "fusion_lon": 0.0, "fusion_lat": 0.0, "name": "038972a489234e513d0a9468bb3b9f46", "type": "electric_scooter", "is_disabled": 0, "lat": 38.8861515, "rental_uris": {"android": "https://dc.lft.to/lastmile_qr_scan", "ios": "https://dc.lft.to/lastmile_qr_scan"}, "bike_id": "038972a489234e513d0a9468bb3b9f46", "lon": -76.955779}, {"is_reserved": 0, "fusion_lon": 0.0, "fusion_lat": 0.0, "name": "0a4600e8b56f33932a837e5ec4236722", "type": "electric_scooter", "is_disabled": 0, "lat": 38.89536183333333, "rental_uris": {"android": "https://dc.lft.to/lastmile_qr_scan", "ios": "https://dc.lft.to/lastmile_qr_scan"}, "bike_id": "0a4600e8b56f33932a837e5ec4236722", "lon": -77.03259333333334}, {"is_reserved": 0, "fusion_lon": 0.0, "fusion_lat": 0.0, "name": "778fad1b0be915e959594b37c32ef5bc", "type": "electric_bike", "is_disabled": 0, "lat": 38.807095333333336, "rental_uris": {"android": "https://dc.lft.to/lastmile_qr_scan", "ios": "https://dc.lft.to/lastmile_qr_scan"}, "bike_id": "778fad1b0be915e959594b37c32ef5bc", "lon": -77.06174866666667}, {"is_reserved": 0, "fusion_lon": 0.0, "fusion_lat": 0.0, "name": "e2e07acbd7f72ddc7a2e7b7b837404d7", "type": "electric_scooter", "is_disabled": 0, "lat": 38.88733166666667, "rental_uris": {"android": "https://dc.lft.to/lastmile_qr_scan", "ios": "https://dc.lft.to/lastmile_qr_scan"}, "bike_id": "e2e07acbd7f72ddc7a2e7b7b837404d7", "lon": -77.02827933333333}, {"is_reserved": 0, "fusion_lon": 0.0, "fusion_lat": 0.0, "name": "84f99e4086adf28dc210d5a2a0303779", "type": "electric_scooter", "is_disabled": 0, "lat": 38.86700616666667, "rental_uris": {"android": "https://dc.lft.to/lastmile_qr_scan", "ios": "https://dc.lft.to/lastmile_qr_scan"}, "bike_id": "84f99e4086adf28dc210d5a2a0303779", "lon": -76.9859345}, {"is_reserved": 0, "fusion_lon": 0.0, "fusion_lat": 0.0, "name": "acbd5db4ebbd98916beeff95d4e11d30", "type": "electric_bike", "is_disabled": 0, "lat": 38.807652833333336, "rental_uris": {"android": "https://dc.lft.to/lastmile_qr_scan", "ios": "https://dc.lft.to/lastmile_qr_scan"}, "bike_id": "acbd5db4ebbd98916beeff95d4e11d30", "lon": -77.09466583333334}, {"is_reserved": 0, "fusion_lon": 0.0, "fusion_lat": 0.0, "name": "bf80062a33e029986ee85817050bba07", "type": "electric_scooter", "is_disabled": 0, "lat": 38.88305733333333, "rental_uris": {"android": "https://dc.lft.to/lastmile_qr_scan", "ios": "https://dc.lft.to/lastmile_qr_scan"}, "bike_id": "bf80062a33e029986ee85817050bba07", "lon": -77.03140283333333}, {"is_reserved": 0, "fusion_lon": 0.0, "fusion_lat": 0.0, "name": "a0a4c84485cccce8f62b2a29de721155", "type": "electric_scooter", "is_disabled": 0, "lat": 38.882286666666666, "rental_uris": {"android": "https://dc.lft.to/lastmile_qr_scan", "ios": "https://dc.lft.to/lastmile_qr_scan"}, "bike_id": "a0a4c84485cccce8f62b2a29de721155", "lon": -76.989771}, {"is_reserved": 0, "fusion_lon": 0.0, "fusion_lat": 0.0, "name": "44f5ba82a96604f82ecc1bbcab6d0cde", "type": "electric_scooter", "is_disabled": 0, "lat": 38.898521333333335, "rental_uris": {"android": "https://dc.lft.to/lastmile_qr_scan", "ios": "https://dc.lft.to/lastmile_qr_scan"}, "bike_id": "44f5ba82a96604f82ecc1bbcab6d0cde", "lon": -76.9818825}, {"is_reserved": 0, "fusion_lon": 0.0, "fusion_lat": 0.0, "name": "801b875c1c6ecb0758cb634b88fb24ee", "type": "electric_scooter", "is_disabled": 0, "lat": 38.900287666666664, "rental_uris": {"android": "https://dc.lft.to/lastmile_qr_scan", "ios": "https://dc.lft.to/lastmile_qr_scan"}, "bike_id": "801b875c1c6ecb0758cb634b88fb24ee", "lon": -77.03342816666667}, {"is_reserved": 0, "fusion_lon": 0.0, "fusion_lat": 0.0, "name": "8bd7d68609fcea501f31c032612c8294", "type": "electric_scooter", "is_disabled": 0, "lat": 38.90122433333333, "rental_uris": {"android": "https://dc.lft.to/lastmile_qr_scan", "ios": "https://dc.lft.to/lastmile_qr_scan"}, "bike_id": "8bd7d68609fcea501f31c032612c8294", "lon": -77.02994833333334}, {"is_reserved": 0, "fusion_lon": 0.0, "fusion_lat": 0.0, "name": "d9431f7d7345f17ce749c3a6c32efe4c", "type": "electric_bike", "is_disabled": 0, "lat": 38.898788333333336, "rental_uris": {"android": "https://dc.lft.to/lastmile_qr_scan", "ios": "https://dc.lft.to/lastmile_qr_scan"}, "bike_id": "d9431f7d7345f17ce749c3a6c32efe4c", "lon": -77.03998783333333}, {"is_reserved": 0, "fusion_lon": 0.0, "fusion_lat": 0.0, "name": "299b0f784dee8b8f810f69ea32457e25", "type": "electric_scooter", "is_disabled": 0, "lat": 38.91081583333333, "rental_uris": {"android": "https://dc.lft.to/lastmile_qr_scan", "ios": "https://dc.lft.to/lastmile_qr_scan"}, "bike_id": "299b0f784dee8b8f810f69ea32457e25", "lon": -77.06551966666666}, {"is_reserved": 0, "fusion_lon": 0.0, "fusion_lat": 0.0, "name": "a43d0852f36b77a06ca5c9cbc1acfde3", "type": "electric_scooter", "is_disabled": 0, "lat": 38.911019833333334, "rental_uris": {"android": "https://dc.lft.to/lastmile_qr_scan", "ios": "https://dc.lft.to/lastmile_qr_scan"}, "bike_id": "a43d0852f36b77a06ca5c9cbc1acfde3", "lon": -77.0219975}, {"is_reserved": 0, "fusion_lon": 0.0, "fusion_lat": 0.0, "name": "7bb7fcb488ce9e30ae947540677540e0", "type": "electric_scooter", "is_disabled": 0, "lat": 38.9059715, "rental_uris": {"android": "https://dc.lft.to/lastmile_qr_scan", "ios": "https://dc.lft.to/lastmile_qr_scan"}, "bike_id": "7bb7fcb488ce9e30ae947540677540e0", "lon": -77.03473066666666}, {"is_reserved": 0, "fusion_lon": 0.0, "fusion_lat": 0.0, "name": "04e1f1aef6e7aba52a6b924abbeee093", "type": "electric_scooter", "is_disabled": 0, "lat": 38.922473333333336, "rental_uris": {"android": "https://dc.lft.to/lastmile_qr_scan", "ios": "https://dc.lft.to/lastmile_qr_scan"}, "bike_id": "04e1f1aef6e7aba52a6b924abbeee093", "lon": -77.032077}, {"is_reserved": 0, "fusion_lon": 0.0, "fusion_lat": 0.0, "name": "286f427eccc5a65ec258c27b79c94da3", "type": "electric_scooter", "is_disabled": 0, "lat": 38.908159, "rental_uris": {"android": "https://dc.lft.to/lastmile_qr_scan", "ios": "https://dc.lft.to/lastmile_qr_scan"}, "bike_id": "286f427eccc5a65ec258c27b79c94da3", "lon": -77.04345316666667}, {"is_reserved": 0, "fusion_lon": 0.0, "fusion_lat": 0.0, "name": "7e3de3b0ee0c2db3edaf34dbca1d9ced", "type": "electric_scooter", "is_disabled": 0, "lat": 38.93932983333333, "rental_uris": {"android": "https://dc.lft.to/lastmile_qr_scan", "ios": "https://dc.lft.to/lastmile_qr_scan"}, "bike_id": "7e3de3b0ee0c2db3edaf34dbca1d9ced", "lon": -77.06054866666666}, {"is_reserved": 0, "fusion_lon": 0.0, "fusion_lat": 0.0, "name": "7ee60662c1c8b6f4ea121f6282ef7e8a", "type": "electric_scooter", "is_disabled": 0, "lat": 38.921114, "rental_uris": {"android": "https://dc.lft.to/lastmile_qr_scan", "ios": "https://dc.lft.to/lastmile_qr_scan"}, "bike_id": "7ee60662c1c8b6f4ea121f6282ef7e8a", "lon": -77.042165}, {"is_reserved": 0, "fusion_lon": 0.0, "fusion_lat": 0.0, "name": "685a2804cd565b0d78ee43a08b1a2b1b", "type": "electric_scooter", "is_disabled": 0, "lat": 38.89627383333333, "rental_uris": {"android": "https://dc.lft.to/lastmile_qr_scan", "ios": "https://dc.lft.to/lastmile_qr_scan"}, "bike_id": "685a2804cd565b0d78ee43a08b1a2b1b", "lon": -77.02954583333333}, {"is_reserved": 0, "fusion_lon": 0.0, "fusion_lat": 0.0, "name": "8c9e7c9abcce0ff6585843e4aa2d7cbf", "type": "electric_scooter", "is_disabled": 0, "lat": 38.9001245, "rental_uris": {"android": "https://dc.lft.to/lastmile_qr_scan", "ios": "https://dc.lft.to/lastmile_qr_scan"}, "bike_id": "8c9e7c9abcce0ff6585843e4aa2d7cbf", "lon": -76.9302935}, {"is_reserved": 0, "fusion_lon": 0.0, "fusion_lat": 0.0, "name": "eaa13dd0509802db1681c5134d6d4b00", "type": "electric_scooter", "is_disabled": 0, "lat": 38.9332495, "rental_uris": {"android": "https://dc.lft.to/lastmile_qr_scan", "ios": "https://dc.lft.to/lastmile_qr_scan"}, "bike_id": "eaa13dd0509802db1681c5134d6d4b00", "lon": -77.085593}, {"is_reserved": 0, "fusion_lon": 0.0, "fusion_lat": 0.0, "name": "15b236fe3044eec8bd0ceb84b930f432", "type": "electric_scooter", "is_disabled": 0, "lat": 38.8669995, "rental_uris": {"android": "https://dc.lft.to/lastmile_qr_scan", "ios": "https://dc.lft.to/lastmile_qr_scan"}, "bike_id": "15b236fe3044eec8bd0ceb84b930f432", "lon": -76.98593666666666}, {"is_reserved": 0, "fusion_lon": 0.0, "fusion_lat": 0.0, "name": "be2e0accee823f08843aea8a92a4c1fa", "type": "electric_scooter", "is_disabled": 0, "lat": 38.8923365, "rental_uris": {"android": "https://dc.lft.to/lastmile_qr_scan", "ios": "https://dc.lft.to/lastmile_qr_scan"}, "bike_id": "be2e0accee823f08843aea8a92a4c1fa", "lon": -77.02383766666667}, {"is_reserved": 0, "fusion_lon": 0.0, "fusion_lat": 0.0, "name": "2383862435b3e4054b7a2e2807016fd4", "type": "electric_scooter", "is_disabled": 0, "lat": 38.91020983333333, "rental_uris": {"android": "https://dc.lft.to/lastmile_qr_scan", "ios": "https://dc.lft.to/lastmile_qr_scan"}, "bike_id": "2383862435b3e4054b7a2e2807016fd4", "lon": -77.04291566666667}, {"is_reserved": 0, "fusion_lon": 0.0, "fusion_lat": 0.0, "name": "2c10dc903100fbe10825248a3f9b499f", "type": "electric_scooter", "is_disabled": 0, "lat": 38.92536616666667, "rental_uris": {"android": "https://dc.lft.to/lastmile_qr_scan", "ios": "https://dc.lft.to/lastmile_qr_scan"}, "bike_id": "2c10dc903100fbe10825248a3f9b499f", "lon": -76.9721615}, {"is_reserved": 0, "fusion_lon": 0.0, "fusion_lat": 0.0, "name": "fbea0ef41dd7188fef6f0cb0a1fb6c26", "type": "electric_scooter", "is_disabled": 0, "lat": 38.9055505, "rental_uris": {"android": "https://dc.lft.to/lastmile_qr_scan", "ios": "https://dc.lft.to/lastmile_qr_scan"}, "bike_id": "fbea0ef41dd7188fef6f0cb0a1fb6c26", "lon": -77.0486755}, {"is_reserved": 0, "fusion_lon": 0.0, "fusion_lat": 0.0, "name": "85909819adde6642d9d02d5c5a37bab0", "type": "electric_scooter", "is_disabled": 0, "lat": 38.93104833333334, "rental_uris": {"android": "https://dc.lft.to/lastmile_qr_scan", "ios": "https://dc.lft.to/lastmile_qr_scan"}, "bike_id": "85909819adde6642d9d02d5c5a37bab0", "lon": -77.03810983333334}, {"is_reserved": 0, "fusion_lon": 0.0, "fusion_lat": 0.0, "name": "59d2e0ada5efe78c974e91442d840f86", "type": "electric_scooter", "is_disabled": 0, "lat": 38.92266466666667, "rental_uris": {"android": "https://dc.lft.to/lastmile_qr_scan", "ios": "https://dc.lft.to/lastmile_qr_scan"}, "bike_id": "59d2e0ada5efe78c974e91442d840f86", "lon": -77.04248716666666}, {"is_reserved": 0, "fusion_lon": 0.0, "fusion_lat": 0.0, "name": "98115478103ff8bd3817b61ad3a03f6e", "type": "electric_scooter", "is_disabled": 0, "lat": 38.89017233333333, "rental_uris": {"android": "https://dc.lft.to/lastmile_qr_scan", "ios": "https://dc.lft.to/lastmile_qr_scan"}, "bike_id": "98115478103ff8bd3817b61ad3a03f6e", "lon": -76.9373215}, {"is_reserved": 0, "fusion_lon": 0.0, "fusion_lat": 0.0, "name": "ac99f6fe7b402967ace965ee977ec9fb", "type": "electric_scooter", "is_disabled": 0, "lat": 38.89800683333333, "rental_uris": {"android": "https://dc.lft.to/lastmile_qr_scan", "ios": "https://dc.lft.to/lastmile_qr_scan"}, "bike_id": "ac99f6fe7b402967ace965ee977ec9fb", "lon": -77.040122}, {"is_reserved": 0, "fusion_lon": 0.0, "fusion_lat": 0.0, "name": "8550765ac19d7564423d8ba76bc07710", "type": "electric_scooter", "is_disabled": 0, "lat": 38.934843, "rental_uris": {"android": "https://dc.lft.to/lastmile_qr_scan", "ios": "https://dc.lft.to/lastmile_qr_scan"}, "bike_id": "8550765ac19d7564423d8ba76bc07710", "lon": -77.06486816666667}, {"is_reserved": 0, "fusion_lon": 0.0, "fusion_lat": 0.0, "name": "81060a885be7053e17dc4c0e7d00bcac", "type": "electric_scooter", "is_disabled": 0, "lat": 38.89754533333333, "rental_uris": {"android": "https://dc.lft.to/lastmile_qr_scan", "ios": "https://dc.lft.to/lastmile_qr_scan"}, "bike_id": "81060a885be7053e17dc4c0e7d00bcac", "lon": -77.0269455}, {"is_reserved": 0, "fusion_lon": 0.0, "fusion_lat": 0.0, "name": "543a421546faf6c9754eb809dcdf4a7d", "type": "electric_scooter", "is_disabled": 0, "lat": 38.9052935, "rental_uris": {"android": "https://dc.lft.to/lastmile_qr_scan", "ios": "https://dc.lft.to/lastmile_qr_scan"}, "bike_id": "543a421546faf6c9754eb809dcdf4a7d", "lon": -77.04181983333334}, {"is_reserved": 0, "fusion_lon": 0.0, "fusion_lat": 0.0, "name": "ed7fae5b29422d19ceb397e24d47dd1a", "type": "electric_scooter", "is_disabled": 0, "lat": 38.95203166666667, "rental_uris": {"android": "https://dc.lft.to/lastmile_qr_scan", "ios": "https://dc.lft.to/lastmile_qr_scan"}, "bike_id": "ed7fae5b29422d19ceb397e24d47dd1a", "lon": -77.0273225}, {"is_reserved": 0, "fusion_lon": 0.0, "fusion_lat": 0.0, "name": "37ec2dd29a68395b4ed6b86a986ebf7d", "type": "electric_scooter", "is_disabled": 0, "lat": 38.9035705, "rental_uris": {"android": "https://dc.lft.to/lastmile_qr_scan", "ios": "https://dc.lft.to/lastmile_qr_scan"}, "bike_id": "37ec2dd29a68395b4ed6b86a986ebf7d", "lon": -77.005849}, {"is_reserved": 0, "fusion_lon": 0.0, "fusion_lat": 0.0, "name": "1f396ba610b0d3f55a83bf7be570ca0f", "type": "electric_scooter", "is_disabled": 0, "lat": 38.875434, "rental_uris": {"android": "https://dc.lft.to/lastmile_qr_scan", "ios": "https://dc.lft.to/lastmile_qr_scan"}, "bike_id": "1f396ba610b0d3f55a83bf7be570ca0f", "lon": -77.00596433333334}, {"is_reserved": 0, "fusion_lon": 0.0, "fusion_lat": 0.0, "name": "ce16348aa79f8748e648822d593b1663", "type": "electric_scooter", "is_disabled": 0, "lat": 38.90717583333333, "rental_uris": {"android": "https://dc.lft.to/lastmile_qr_scan", "ios": "https://dc.lft.to/lastmile_qr_scan"}, "bike_id": "ce16348aa79f8748e648822d593b1663", "lon": -77.04810583333334}, {"is_reserved": 0, "fusion_lon": 0.0, "fusion_lat": 0.0, "name": "6c49cd64a27ac15627e6c59ab47e834a", "type": "electric_scooter", "is_disabled": 0, "lat": 38.91799233333333, "rental_uris": {"android": "https://dc.lft.to/lastmile_qr_scan", "ios": "https://dc.lft.to/lastmile_qr_scan"}, "bike_id": "6c49cd64a27ac15627e6c59ab47e834a", "lon": -77.03203533333334}, {"is_reserved": 0, "fusion_lon": 0.0, "fusion_lat": 0.0, "name": "b1b939e995628a2714a8f77e430e9134", "type": "electric_scooter", "is_disabled": 0, "lat": 38.90810533333333, "rental_uris": {"android": "https://dc.lft.to/lastmile_qr_scan", "ios": "https://dc.lft.to/lastmile_qr_scan"}, "bike_id": "b1b939e995628a2714a8f77e430e9134", "lon": -77.0384445}, {"is_reserved": 0, "fusion_lon": 0.0, "fusion_lat": 0.0, "name": "e844bf70b4e7c9cefb871a7ba9a508c7", "type": "electric_scooter", "is_disabled": 0, "lat": 38.90124216666667, "rental_uris": {"android": "https://dc.lft.to/lastmile_qr_scan", "ios": "https://dc.lft.to/lastmile_qr_scan"}, "bike_id": "e844bf70b4e7c9cefb871a7ba9a508c7", "lon": -77.04010116666667}, {"is_reserved": 0, "fusion_lon": 0.0, "fusion_lat": 0.0, "name": "69f9078ab63b4c1cc4feb3e855c0e114", "type": "electric_scooter", "is_disabled": 0, "lat": 38.909757166666665, "rental_uris": {"android": "https://dc.lft.to/lastmile_qr_scan", "ios": "https://dc.lft.to/lastmile_qr_scan"}, "bike_id": "69f9078ab63b4c1cc4feb3e855c0e114", "lon": -77.0385575}, {"is_reserved": 0, "fusion_lon": 0.0, "fusion_lat": 0.0, "name": "1dc7d047d33adecdb15012bb3ca0d661", "type": "electric_scooter", "is_disabled": 0, "lat": 38.8665265, "rental_uris": {"android": "https://dc.lft.to/lastmile_qr_scan", "ios": "https://dc.lft.to/lastmile_qr_scan"}, "bike_id": "1dc7d047d33adecdb15012bb3ca0d661", "lon": -76.98883566666666}, {"is_reserved": 0, "fusion_lon": 0.0, "fusion_lat": 0.0, "name": "1ced1a5996600227c30ab0947b7ebaa8", "type": "electric_scooter", "is_disabled": 0, "lat": 38.9166435, "rental_uris": {"android": "https://dc.lft.to/lastmile_qr_scan", "ios": "https://dc.lft.to/lastmile_qr_scan"}, "bike_id": "1ced1a5996600227c30ab0947b7ebaa8", "lon": -77.01921616666667}, {"is_reserved": 0, "fusion_lon": 0.0, "fusion_lat": 0.0, "name": "3b923962a1d1f6820d47f2ce2b979c89", "type": "electric_scooter", "is_disabled": 0, "lat": 38.8745645, "rental_uris": {"android": "https://dc.lft.to/lastmile_qr_scan", "ios": "https://dc.lft.to/lastmile_qr_scan"}, "bike_id": "3b923962a1d1f6820d47f2ce2b979c89", "lon": -77.0054665}, {"is_reserved": 0, "fusion_lon": 0.0, "fusion_lat": 0.0, "name": "3db5c3ab3f74d8040326fed008ad5611", "type": "electric_scooter", "is_disabled": 0, "lat": 38.917927, "rental_uris": {"android": "https://dc.lft.to/lastmile_qr_scan", "ios": "https://dc.lft.to/lastmile_qr_scan"}, "bike_id": "3db5c3ab3f74d8040326fed008ad5611", "lon": -77.032205}, {"is_reserved": 0, "fusion_lon": 0.0, "fusion_lat": 0.0, "name": "b4c35a87c23a25d01badf48c6303c08c", "type": "electric_scooter", "is_disabled": 0, "lat": 38.920706, "rental_uris": {"android": "https://dc.lft.to/lastmile_qr_scan", "ios": "https://dc.lft.to/lastmile_qr_scan"}, "bike_id": "b4c35a87c23a25d01badf48c6303c08c", "lon": -77.01444716666667}, {"is_reserved": 0, "fusion_lon": 0.0, "fusion_lat": 0.0, "name": "65cb5d45bc233134cbec050c4471a5e7", "type": "electric_scooter", "is_disabled": 0, "lat": 38.9299745, "rental_uris": {"android": "https://dc.lft.to/lastmile_qr_scan", "ios": "https://dc.lft.to/lastmile_qr_scan"}, "bike_id": "65cb5d45bc233134cbec050c4471a5e7", "lon": -77.013007}, {"is_reserved": 0, "fusion_lon": 0.0, "fusion_lat": 0.0, "name": "3d6c90784ddd830bcfe2cd9f4bb75aed", "type": "electric_scooter", "is_disabled": 0, "lat": 38.908772, "rental_uris": {"android": "https://dc.lft.to/lastmile_qr_scan", "ios": "https://dc.lft.to/lastmile_qr_scan"}, "bike_id": "3d6c90784ddd830bcfe2cd9f4bb75aed", "lon": -77.03753966666666}, {"is_reserved": 0, "fusion_lon": 0.0, "fusion_lat": 0.0, "name": "c6e5bf949694598e7388b743ea511d75", "type": "electric_scooter", "is_disabled": 0, "lat": 38.903731, "rental_uris": {"android": "https://dc.lft.to/lastmile_qr_scan", "ios": "https://dc.lft.to/lastmile_qr_scan"}, "bike_id": "c6e5bf949694598e7388b743ea511d75", "lon": -77.040206}, {"is_reserved": 0, "fusion_lon": 0.0, "fusion_lat": 0.0, "name": "06c05fc0b13eb327b49fe63225663d3b", "type": "electric_scooter", "is_disabled": 0, "lat": 38.90132766666667, "rental_uris": {"android": "https://dc.lft.to/lastmile_qr_scan", "ios": "https://dc.lft.to/lastmile_qr_scan"}, "bike_id": "06c05fc0b13eb327b49fe63225663d3b", "lon": -77.039694}, {"is_reserved": 0, "fusion_lon": 0.0, "fusion_lat": 0.0, "name": "8818fefa8e54fcdcc71c2325106b1f03", "type": "electric_scooter", "is_disabled": 0, "lat": 38.8665215, "rental_uris": {"android": "https://dc.lft.to/lastmile_qr_scan", "ios": "https://dc.lft.to/lastmile_qr_scan"}, "bike_id": "8818fefa8e54fcdcc71c2325106b1f03", "lon": -76.98507466666666}, {"is_reserved": 0, "fusion_lon": 0.0, "fusion_lat": 0.0, "name": "cb172d502093c87cd1a7a00426c2de1d", "type": "electric_scooter", "is_disabled": 0, "lat": 38.895245833333334, "rental_uris": {"android": "https://dc.lft.to/lastmile_qr_scan", "ios": "https://dc.lft.to/lastmile_qr_scan"}, "bike_id": "cb172d502093c87cd1a7a00426c2de1d", "lon": -77.00339733333334}, {"is_reserved": 0, "fusion_lon": 0.0, "fusion_lat": 0.0, "name": "90d0b4d020db480051a7dc7c7c3d968b", "type": "electric_scooter", "is_disabled": 0, "lat": 38.8989745, "rental_uris": {"android": "https://dc.lft.to/lastmile_qr_scan", "ios": "https://dc.lft.to/lastmile_qr_scan"}, "bike_id": "90d0b4d020db480051a7dc7c7c3d968b", "lon": -77.04084216666666}, {"is_reserved": 0, "fusion_lon": 0.0, "fusion_lat": 0.0, "name": "e5fda510921b23352bce41a322af92b3", "type": "electric_scooter", "is_disabled": 0, "lat": 38.92108616666667, "rental_uris": {"android": "https://dc.lft.to/lastmile_qr_scan", "ios": "https://dc.lft.to/lastmile_qr_scan"}, "bike_id": "e5fda510921b23352bce41a322af92b3", "lon": -77.0333555}, {"is_reserved": 0, "fusion_lon": 0.0, "fusion_lat": 0.0, "name": "99f658843eba800f0abd7b5c95183e63", "type": "electric_scooter", "is_disabled": 0, "lat": 38.892237, "rental_uris": {"android": "https://dc.lft.to/lastmile_qr_scan", "ios": "https://dc.lft.to/lastmile_qr_scan"}, "bike_id": "99f658843eba800f0abd7b5c95183e63", "lon": -77.04373033333333}, {"is_reserved": 0, "fusion_lon": 0.0, "fusion_lat": 0.0, "name": "076941bfb8808c6fef3e348acfbfc958", "type": "electric_scooter", "is_disabled": 0, "lat": 38.923299666666665, "rental_uris": {"android": "https://dc.lft.to/lastmile_qr_scan", "ios": "https://dc.lft.to/lastmile_qr_scan"}, "bike_id": "076941bfb8808c6fef3e348acfbfc958", "lon": -77.04316966666667}, {"is_reserved": 0, "fusion_lon": 0.0, "fusion_lat": 0.0, "name": "e5efb9a3d544f62e0c5172dceed72675", "type": "electric_scooter", "is_disabled": 0, "lat": 38.90772666666667, "rental_uris": {"android": "https://dc.lft.to/lastmile_qr_scan", "ios": "https://dc.lft.to/lastmile_qr_scan"}, "bike_id": "e5efb9a3d544f62e0c5172dceed72675", "lon": -77.03828366666667}, {"is_reserved": 0, "fusion_lon": 0.0, "fusion_lat": 0.0, "name": "48cec58fc20805ec492d80ab81f2df2f", "type": "electric_scooter", "is_disabled": 0, "lat": 38.92449516666667, "rental_uris": {"android": "https://dc.lft.to/lastmile_qr_scan", "ios": "https://dc.lft.to/lastmile_qr_scan"}, "bike_id": "48cec58fc20805ec492d80ab81f2df2f", "lon": -77.02157333333334}, {"is_reserved": 0, "fusion_lon": 0.0, "fusion_lat": 0.0, "name": "7fe4aa0ecae3f8eba4796dfad7b3c1cb", "type": "electric_bike", "is_disabled": 0, "lat": 38.845602666666665, "rental_uris": {"android": "https://dc.lft.to/lastmile_qr_scan", "ios": "https://dc.lft.to/lastmile_qr_scan"}, "bike_id": "7fe4aa0ecae3f8eba4796dfad7b3c1cb", "lon": -77.06694616666667}, {"is_reserved": 0, "fusion_lon": 0.0, "fusion_lat": 0.0, "name": "d81e91521a9a9444b1add5acc1f2541a", "type": "electric_scooter", "is_disabled": 0, "lat": 38.866551, "rental_uris": {"android": "https://dc.lft.to/lastmile_qr_scan", "ios": "https://dc.lft.to/lastmile_qr_scan"}, "bike_id": "d81e91521a9a9444b1add5acc1f2541a", "lon": -76.98880466666667}, {"is_reserved": 0, "fusion_lon": 0.0, "fusion_lat": 0.0, "name": "898b66627d11a896a9efb370895b4c2d", "type": "electric_scooter", "is_disabled": 0, "lat": 38.93852783333333, "rental_uris": {"android": "https://dc.lft.to/lastmile_qr_scan", "ios": "https://dc.lft.to/lastmile_qr_scan"}, "bike_id": "898b66627d11a896a9efb370895b4c2d", "lon": -77.025177}, {"is_reserved": 0, "fusion_lon": 0.0, "fusion_lat": 0.0, "name": "77bb61afd22431ef102cb73c615af06a", "type": "electric_scooter", "is_disabled": 0, "lat": 38.941857, "rental_uris": {"android": "https://dc.lft.to/lastmile_qr_scan", "ios": "https://dc.lft.to/lastmile_qr_scan"}, "bike_id": "77bb61afd22431ef102cb73c615af06a", "lon": -77.02492033333333}, {"is_reserved": 0, "fusion_lon": 0.0, "fusion_lat": 0.0, "name": "f7cb488c121c08742236252363fdc537", "type": "electric_bike", "is_disabled": 0, "lat": 38.99346116666667, "rental_uris": {"android": "https://dc.lft.to/lastmile_qr_scan", "ios": "https://dc.lft.to/lastmile_qr_scan"}, "bike_id": "f7cb488c121c08742236252363fdc537", "lon": -77.11573083333333}, {"is_reserved": 0, "fusion_lon": 0.0, "fusion_lat": 0.0, "name": "626e7d3e902500427aa0216c63e57821", "type": "electric_scooter", "is_disabled": 0, "lat": 38.9046305, "rental_uris": {"android": "https://dc.lft.to/lastmile_qr_scan", "ios": "https://dc.lft.to/lastmile_qr_scan"}, "bike_id": "626e7d3e902500427aa0216c63e57821", "lon": -77.04788733333334}, {"is_reserved": 0, "fusion_lon": 0.0, "fusion_lat": 0.0, "name": "a2ba87a7ee2147b1cc3b5be205ee3355", "type": "electric_scooter", "is_disabled": 0, "lat": 38.902710666666664, "rental_uris": {"android": "https://dc.lft.to/lastmile_qr_scan", "ios": "https://dc.lft.to/lastmile_qr_scan"}, "bike_id": "a2ba87a7ee2147b1cc3b5be205ee3355", "lon": -77.03381766666666}, {"is_reserved": 0, "fusion_lon": 0.0, "fusion_lat": 0.0, "name": "9236074afdca0b7fbe315503e50beef0", "type": "electric_scooter", "is_disabled": 0, "lat": 38.9302065, "rental_uris": {"android": "https://dc.lft.to/lastmile_qr_scan", "ios": "https://dc.lft.to/lastmile_qr_scan"}, "bike_id": "9236074afdca0b7fbe315503e50beef0", "lon": -77.055296}, {"is_reserved": 0, "fusion_lon": 0.0, "fusion_lat": 0.0, "name": "30063b9cf41cf2bb0c3ef69b6d06a1db", "type": "electric_scooter", "is_disabled": 0, "lat": 38.88727433333333, "rental_uris": {"android": "https://dc.lft.to/lastmile_qr_scan", "ios": "https://dc.lft.to/lastmile_qr_scan"}, "bike_id": "30063b9cf41cf2bb0c3ef69b6d06a1db", "lon": -77.02180133333333}, {"is_reserved": 0, "fusion_lon": 0.0, "fusion_lat": 0.0, "name": "0b9588e960b6b261d5f5d3297143224d", "type": "electric_scooter", "is_disabled": 0, "lat": 38.8964305, "rental_uris": {"android": "https://dc.lft.to/lastmile_qr_scan", "ios": "https://dc.lft.to/lastmile_qr_scan"}, "bike_id": "0b9588e960b6b261d5f5d3297143224d", "lon": -77.03302466666666}, {"is_reserved": 0, "fusion_lon": 0.0, "fusion_lat": 0.0, "name": "5e2b46edb9a1e29acf5b4ea8445abc40", "type": "electric_scooter", "is_disabled": 0, "lat": 38.902061, "rental_uris": {"android": "https://dc.lft.to/lastmile_qr_scan", "ios": "https://dc.lft.to/lastmile_qr_scan"}, "bike_id": "5e2b46edb9a1e29acf5b4ea8445abc40", "lon": -77.02180716666666}, {"is_reserved": 0, "fusion_lon": 0.0, "fusion_lat": 0.0, "name": "a4a87d8d8132f41f52646a3e9779d588", "type": "electric_bike", "is_disabled": 0, "lat": 38.8001825, "rental_uris": {"android": "https://dc.lft.to/lastmile_qr_scan", "ios": "https://dc.lft.to/lastmile_qr_scan"}, "bike_id": "a4a87d8d8132f41f52646a3e9779d588", "lon": -77.05481066666667}, {"is_reserved": 0, "fusion_lon": 0.0, "fusion_lat": 0.0, "name": "2e18bb07c3480350227837314c6bf362", "type": "electric_scooter", "is_disabled": 0, "lat": 38.91654833333333, "rental_uris": {"android": "https://dc.lft.to/lastmile_qr_scan", "ios": "https://dc.lft.to/lastmile_qr_scan"}, "bike_id": "2e18bb07c3480350227837314c6bf362", "lon": -77.029656}, {"is_reserved": 0, "fusion_lon": 0.0, "fusion_lat": 0.0, "name": "793136cb1a924a470fff9adc06bce6cb", "type": "electric_scooter", "is_disabled": 0, "lat": 38.92008583333333, "rental_uris": {"android": "https://dc.lft.to/lastmile_qr_scan", "ios": "https://dc.lft.to/lastmile_qr_scan"}, "bike_id": "793136cb1a924a470fff9adc06bce6cb", "lon": -77.03890366666667}, {"is_reserved": 0, "fusion_lon": 0.0, "fusion_lat": 0.0, "name": "103cab2f8a97bd987a32ed3d91b54ae5", "type": "electric_scooter", "is_disabled": 0, "lat": 38.92365266666667, "rental_uris": {"android": "https://dc.lft.to/lastmile_qr_scan", "ios": "https://dc.lft.to/lastmile_qr_scan"}, "bike_id": "103cab2f8a97bd987a32ed3d91b54ae5", "lon": -77.04234816666667}, {"is_reserved": 0, "fusion_lon": 0.0, "fusion_lat": 0.0, "name": "1920bf6e21af88706a1f0dc7e9571bbf", "type": "electric_scooter", "is_disabled": 0, "lat": 38.91116683333333, "rental_uris": {"android": "https://dc.lft.to/lastmile_qr_scan", "ios": "https://dc.lft.to/lastmile_qr_scan"}, "bike_id": "1920bf6e21af88706a1f0dc7e9571bbf", "lon": -77.03832283333334}, {"is_reserved": 0, "fusion_lon": 0.0, "fusion_lat": 0.0, "name": "cf6f32ef6cbb9e8e364b1964adcdb030", "type": "electric_scooter", "is_disabled": 0, "lat": 38.957337, "rental_uris": {"android": "https://dc.lft.to/lastmile_qr_scan", "ios": "https://dc.lft.to/lastmile_qr_scan"}, "bike_id": "cf6f32ef6cbb9e8e364b1964adcdb030", "lon": -77.02402533333333}, {"is_reserved": 0, "fusion_lon": 0.0, "fusion_lat": 0.0, "name": "40b7d80701676204b10400608be10b69", "type": "electric_scooter", "is_disabled": 0, "lat": 38.903647, "rental_uris": {"android": "https://dc.lft.to/lastmile_qr_scan", "ios": "https://dc.lft.to/lastmile_qr_scan"}, "bike_id": "40b7d80701676204b10400608be10b69", "lon": -77.04216}, {"is_reserved": 0, "fusion_lon": 0.0, "fusion_lat": 0.0, "name": "58916c4b86e2981ba5029821b883cbc0", "type": "electric_scooter", "is_disabled": 0, "lat": 38.91818516666667, "rental_uris": {"android": "https://dc.lft.to/lastmile_qr_scan", "ios": "https://dc.lft.to/lastmile_qr_scan"}, "bike_id": "58916c4b86e2981ba5029821b883cbc0", "lon": -77.0369445}, {"is_reserved": 0, "fusion_lon": 0.0, "fusion_lat": 0.0, "name": "f28715114d410da01d4b718ed7db275f", "type": "electric_scooter", "is_disabled": 0, "lat": 38.90234816666667, "rental_uris": {"android": "https://dc.lft.to/lastmile_qr_scan", "ios": "https://dc.lft.to/lastmile_qr_scan"}, "bike_id": "f28715114d410da01d4b718ed7db275f", "lon": -77.02690816666667}, {"is_reserved": 0, "fusion_lon": 0.0, "fusion_lat": 0.0, "name": "dd927952e2c45f2481d7d13dcf1030e3", "type": "electric_bike", "is_disabled": 0, "lat": 38.956512333333336, "rental_uris": {"android": "https://dc.lft.to/lastmile_qr_scan", "ios": "https://dc.lft.to/lastmile_qr_scan"}, "bike_id": "dd927952e2c45f2481d7d13dcf1030e3", "lon": -77.0127995}, {"is_reserved": 0, "fusion_lon": 0.0, "fusion_lat": 0.0, "name": "d9ed226951e1b99db0cecb37e23a1312", "type": "electric_scooter", "is_disabled": 0, "lat": 38.896043666666664, "rental_uris": {"android": "https://dc.lft.to/lastmile_qr_scan", "ios": "https://dc.lft.to/lastmile_qr_scan"}, "bike_id": "d9ed226951e1b99db0cecb37e23a1312", "lon": -77.0317375}, {"is_reserved": 0, "fusion_lon": 0.0, "fusion_lat": 0.0, "name": "2fde7d8621f05df975384e1ea0051e53", "type": "electric_scooter", "is_disabled": 0, "lat": 38.91737716666667, "rental_uris": {"android": "https://dc.lft.to/lastmile_qr_scan", "ios": "https://dc.lft.to/lastmile_qr_scan"}, "bike_id": "2fde7d8621f05df975384e1ea0051e53", "lon": -77.02116466666666}, {"is_reserved": 0, "fusion_lon": 0.0, "fusion_lat": 0.0, "name": "fd599894b849c2196527b64623d8dea2", "type": "electric_scooter", "is_disabled": 0, "lat": 38.906728333333334, "rental_uris": {"android": "https://dc.lft.to/lastmile_qr_scan", "ios": "https://dc.lft.to/lastmile_qr_scan"}, "bike_id": "fd599894b849c2196527b64623d8dea2", "lon": -77.03841016666667}, {"is_reserved": 0, "fusion_lon": 0.0, "fusion_lat": 0.0, "name": "5546a18e3c24953043adbedd28fef219", "type": "electric_scooter", "is_disabled": 0, "lat": 38.93277033333333, "rental_uris": {"android": "https://dc.lft.to/lastmile_qr_scan", "ios": "https://dc.lft.to/lastmile_qr_scan"}, "bike_id": "5546a18e3c24953043adbedd28fef219", "lon": -77.028511}, {"is_reserved": 0, "fusion_lon": 0.0, "fusion_lat": 0.0, "name": "044c4787b8990e0158f39cb2bf5519c9", "type": "electric_bike", "is_disabled": 0, "lat": 38.98811033333333, "rental_uris": {"android": "https://dc.lft.to/lastmile_qr_scan", "ios": "https://dc.lft.to/lastmile_qr_scan"}, "bike_id": "044c4787b8990e0158f39cb2bf5519c9", "lon": -77.02661866666666}, {"is_reserved": 0, "fusion_lon": 0.0, "fusion_lat": 0.0, "name": "0eeac756174ac22b94d065b08ee4b6bd", "type": "electric_scooter", "is_disabled": 0, "lat": 38.904741333333334, "rental_uris": {"android": "https://dc.lft.to/lastmile_qr_scan", "ios": "https://dc.lft.to/lastmile_qr_scan"}, "bike_id": "0eeac756174ac22b94d065b08ee4b6bd", "lon": -77.03787}, {"is_reserved": 0, "fusion_lon": 0.0, "fusion_lat": 0.0, "name": "03d5a82fdd0fb89789952292326c10c0", "type": "electric_scooter", "is_disabled": 0, "lat": 38.87140333333333, "rental_uris": {"android": "https://dc.lft.to/lastmile_qr_scan", "ios": "https://dc.lft.to/lastmile_qr_scan"}, "bike_id": "03d5a82fdd0fb89789952292326c10c0", "lon": -77.00700116666667}, {"is_reserved": 0, "fusion_lon": 0.0, "fusion_lat": 0.0, "name": "41e6d8d96c019ae00b76c3b05cff117a", "type": "electric_scooter", "is_disabled": 0, "lat": 38.86655916666667, "rental_uris": {"android": "https://dc.lft.to/lastmile_qr_scan", "ios": "https://dc.lft.to/lastmile_qr_scan"}, "bike_id": "41e6d8d96c019ae00b76c3b05cff117a", "lon": -76.98882733333333}, {"is_reserved": 0, "fusion_lon": 0.0, "fusion_lat": 0.0, "name": "ef3ef8188d6298e7cc998cbd0ec7921b", "type": "electric_scooter", "is_disabled": 0, "lat": 38.904718, "rental_uris": {"android": "https://dc.lft.to/lastmile_qr_scan", "ios": "https://dc.lft.to/lastmile_qr_scan"}, "bike_id": "ef3ef8188d6298e7cc998cbd0ec7921b", "lon": -77.037926}, {"is_reserved": 0, "fusion_lon": 0.0, "fusion_lat": 0.0, "name": "0cc65fd94cbe061a3f4c066b9fcf9535", "type": "electric_scooter", "is_disabled": 0, "lat": 38.900586833333335, "rental_uris": {"android": "https://dc.lft.to/lastmile_qr_scan", "ios": "https://dc.lft.to/lastmile_qr_scan"}, "bike_id": "0cc65fd94cbe061a3f4c066b9fcf9535", "lon": -77.01516233333334}, {"is_reserved": 0, "fusion_lon": 0.0, "fusion_lat": 0.0, "name": "86e09f80ccc5f4b360339ea80487837d", "type": "electric_bike", "is_disabled": 0, "lat": 38.89632966666667, "rental_uris": {"android": "https://dc.lft.to/lastmile_qr_scan", "ios": "https://dc.lft.to/lastmile_qr_scan"}, "bike_id": "86e09f80ccc5f4b360339ea80487837d", "lon": -76.9073465}, {"is_reserved": 0, "fusion_lon": 0.0, "fusion_lat": 0.0, "name": "c1006e4deff2139002c3efee66dc6074", "type": "electric_scooter", "is_disabled": 0, "lat": 38.920870666666666, "rental_uris": {"android": "https://dc.lft.to/lastmile_qr_scan", "ios": "https://dc.lft.to/lastmile_qr_scan"}, "bike_id": "c1006e4deff2139002c3efee66dc6074", "lon": -77.024076}, {"is_reserved": 0, "fusion_lon": 0.0, "fusion_lat": 0.0, "name": "7a7e30090938ed2eeefd96f781540e32", "type": "electric_scooter", "is_disabled": 0, "lat": 38.8974515, "rental_uris": {"android": "https://dc.lft.to/lastmile_qr_scan", "ios": "https://dc.lft.to/lastmile_qr_scan"}, "bike_id": "7a7e30090938ed2eeefd96f781540e32", "lon": -77.03343283333334}, {"is_reserved": 0, "fusion_lon": 0.0, "fusion_lat": 0.0, "name": "162384115eddaac6324d8307377919ae", "type": "electric_scooter", "is_disabled": 0, "lat": 38.904981166666666, "rental_uris": {"android": "https://dc.lft.to/lastmile_qr_scan", "ios": "https://dc.lft.to/lastmile_qr_scan"}, "bike_id": "162384115eddaac6324d8307377919ae", "lon": -76.97418883333333}, {"is_reserved": 0, "fusion_lon": 0.0, "fusion_lat": 0.0, "name": "484b4582d5dac09bb37a2bc6b28b0dd7", "type": "electric_scooter", "is_disabled": 0, "lat": 38.909523666666665, "rental_uris": {"android": "https://dc.lft.to/lastmile_qr_scan", "ios": "https://dc.lft.to/lastmile_qr_scan"}, "bike_id": "484b4582d5dac09bb37a2bc6b28b0dd7", "lon": -77.03206116666667}, {"is_reserved": 0, "fusion_lon": 0.0, "fusion_lat": 0.0, "name": "bf0d15070c958a0e56992955237afd05", "type": "electric_scooter", "is_disabled": 0, "lat": 38.91824666666667, "rental_uris": {"android": "https://dc.lft.to/lastmile_qr_scan", "ios": "https://dc.lft.to/lastmile_qr_scan"}, "bike_id": "bf0d15070c958a0e56992955237afd05", "lon": -77.03459366666667}, {"is_reserved": 0, "fusion_lon": 0.0, "fusion_lat": 0.0, "name": "694955e796c66b95fcb9d4886459690b", "type": "electric_scooter", "is_disabled": 0, "lat": 38.90383716666667, "rental_uris": {"android": "https://dc.lft.to/lastmile_qr_scan", "ios": "https://dc.lft.to/lastmile_qr_scan"}, "bike_id": "694955e796c66b95fcb9d4886459690b", "lon": -77.0300985}, {"is_reserved": 0, "fusion_lon": 0.0, "fusion_lat": 0.0, "name": "ceaf06cc4e3c184e092f76fb851cb761", "type": "electric_scooter", "is_disabled": 0, "lat": 38.895110833333334, "rental_uris": {"android": "https://dc.lft.to/lastmile_qr_scan", "ios": "https://dc.lft.to/lastmile_qr_scan"}, "bike_id": "ceaf06cc4e3c184e092f76fb851cb761", "lon": -77.04681716666667}, {"is_reserved": 0, "fusion_lon": 0.0, "fusion_lat": 0.0, "name": "69a2cc7933a331878f8d5be40d8735fd", "type": "electric_scooter", "is_disabled": 0, "lat": 38.90050383333333, "rental_uris": {"android": "https://dc.lft.to/lastmile_qr_scan", "ios": "https://dc.lft.to/lastmile_qr_scan"}, "bike_id": "69a2cc7933a331878f8d5be40d8735fd", "lon": -77.0291315}, {"is_reserved": 0, "fusion_lon": 0.0, "fusion_lat": 0.0, "name": "af4b7d11d93a00b9c0f6ceb368646f28", "type": "electric_scooter", "is_disabled": 0, "lat": 38.93213166666666, "rental_uris": {"android": "https://dc.lft.to/lastmile_qr_scan", "ios": "https://dc.lft.to/lastmile_qr_scan"}, "bike_id": "af4b7d11d93a00b9c0f6ceb368646f28", "lon": -77.0326175}, {"is_reserved": 0, "fusion_lon": 0.0, "fusion_lat": 0.0, "name": "f107c3c6717736c5cb0f6fa5ea698b55", "type": "electric_scooter", "is_disabled": 0, "lat": 38.88529966666667, "rental_uris": {"android": "https://dc.lft.to/lastmile_qr_scan", "ios": "https://dc.lft.to/lastmile_qr_scan"}, "bike_id": "f107c3c6717736c5cb0f6fa5ea698b55", "lon": -76.982714}, {"is_reserved": 0, "fusion_lon": 0.0, "fusion_lat": 0.0, "name": "76543d8c1c75d21f980c5c66d53d24e3", "type": "electric_scooter", "is_disabled": 0, "lat": 38.897344833333335, "rental_uris": {"android": "https://dc.lft.to/lastmile_qr_scan", "ios": "https://dc.lft.to/lastmile_qr_scan"}, "bike_id": "76543d8c1c75d21f980c5c66d53d24e3", "lon": -77.0557775}, {"is_reserved": 0, "fusion_lon": 0.0, "fusion_lat": 0.0, "name": "b9f6181201fd1f1e4e7f0790c4a337de", "type": "electric_scooter", "is_disabled": 0, "lat": 38.90364733333333, "rental_uris": {"android": "https://dc.lft.to/lastmile_qr_scan", "ios": "https://dc.lft.to/lastmile_qr_scan"}, "bike_id": "b9f6181201fd1f1e4e7f0790c4a337de", "lon": -77.03203266666667}, {"is_reserved": 0, "fusion_lon": 0.0, "fusion_lat": 0.0, "name": "87a8bf9aba3befadd7cd3b8db4244ec6", "type": "electric_scooter", "is_disabled": 0, "lat": 38.9512475, "rental_uris": {"android": "https://dc.lft.to/lastmile_qr_scan", "ios": "https://dc.lft.to/lastmile_qr_scan"}, "bike_id": "87a8bf9aba3befadd7cd3b8db4244ec6", "lon": -77.01359683333334}, {"is_reserved": 0, "fusion_lon": 0.0, "fusion_lat": 0.0, "name": "a0b1ecb053d148dadeebd58cef87ffa9", "type": "electric_scooter", "is_disabled": 0, "lat": 38.89501516666667, "rental_uris": {"android": "https://dc.lft.to/lastmile_qr_scan", "ios": "https://dc.lft.to/lastmile_qr_scan"}, "bike_id": "a0b1ecb053d148dadeebd58cef87ffa9", "lon": -77.02875983333334}, {"is_reserved": 0, "fusion_lon": 0.0, "fusion_lat": 0.0, "name": "98edf36cb21adcadc3f5844f970f03f8", "type": "electric_scooter", "is_disabled": 0, "lat": 38.914917333333335, "rental_uris": {"android": "https://dc.lft.to/lastmile_qr_scan", "ios": "https://dc.lft.to/lastmile_qr_scan"}, "bike_id": "98edf36cb21adcadc3f5844f970f03f8", "lon": -77.01856333333333}, {"is_reserved": 0, "fusion_lon": 0.0, "fusion_lat": 0.0, "name": "b3e4aea9a7a8e53a01736cce90b82514", "type": "electric_scooter", "is_disabled": 0, "lat": 38.91467566666667, "rental_uris": {"android": "https://dc.lft.to/lastmile_qr_scan", "ios": "https://dc.lft.to/lastmile_qr_scan"}, "bike_id": "b3e4aea9a7a8e53a01736cce90b82514", "lon": -77.03198433333333}, {"is_reserved": 0, "fusion_lon": 0.0, "fusion_lat": 0.0, "name": "63e024298e98e7d293cafcb1ee781720", "type": "electric_scooter", "is_disabled": 0, "lat": 38.91108666666667, "rental_uris": {"android": "https://dc.lft.to/lastmile_qr_scan", "ios": "https://dc.lft.to/lastmile_qr_scan"}, "bike_id": "63e024298e98e7d293cafcb1ee781720", "lon": -77.0314655}, {"is_reserved": 0, "fusion_lon": 0.0, "fusion_lat": 0.0, "name": "c2d0346ec4a71423d02550c7645caba4", "type": "electric_bike", "is_disabled": 0, "lat": 38.941473333333334, "rental_uris": {"android": "https://dc.lft.to/lastmile_qr_scan", "ios": "https://dc.lft.to/lastmile_qr_scan"}, "bike_id": "c2d0346ec4a71423d02550c7645caba4", "lon": -77.00196833333334}, {"is_reserved": 0, "fusion_lon": 0.0, "fusion_lat": 0.0, "name": "c55edc426bcab912e46f4f3374b069ea", "type": "electric_scooter", "is_disabled": 0, "lat": 38.93561166666667, "rental_uris": {"android": "https://dc.lft.to/lastmile_qr_scan", "ios": "https://dc.lft.to/lastmile_qr_scan"}, "bike_id": "c55edc426bcab912e46f4f3374b069ea", "lon": -77.073159}, {"is_reserved": 0, "fusion_lon": 0.0, "fusion_lat": 0.0, "name": "3900efcba90e278e7ffde340a2565fc9", "type": "electric_scooter", "is_disabled": 0, "lat": 38.97728166666667, "rental_uris": {"android": "https://dc.lft.to/lastmile_qr_scan", "ios": "https://dc.lft.to/lastmile_qr_scan"}, "bike_id": "3900efcba90e278e7ffde340a2565fc9", "lon": -77.01725383333333}, {"is_reserved": 0, "fusion_lon": 0.0, "fusion_lat": 0.0, "name": "6dc136d0eba457477de1687483ce41ee", "type": "electric_scooter", "is_disabled": 0, "lat": 38.8873715, "rental_uris": {"android": "https://dc.lft.to/lastmile_qr_scan", "ios": "https://dc.lft.to/lastmile_qr_scan"}, "bike_id": "6dc136d0eba457477de1687483ce41ee", "lon": -77.022095}, {"is_reserved": 0, "fusion_lon": 0.0, "fusion_lat": 0.0, "name": "e2431d29523488ac7b0c075573a247cc", "type": "electric_bike", "is_disabled": 0, "lat": 38.79676283333333, "rental_uris": {"android": "https://dc.lft.to/lastmile_qr_scan", "ios": "https://dc.lft.to/lastmile_qr_scan"}, "bike_id": "e2431d29523488ac7b0c075573a247cc", "lon": -76.99332066666666}, {"is_reserved": 0, "fusion_lon": 0.0, "fusion_lat": 0.0, "name": "67049d62b77b410c6780a2b7689c4174", "type": "electric_scooter", "is_disabled": 0, "lat": 38.89319166666667, "rental_uris": {"android": "https://dc.lft.to/lastmile_qr_scan", "ios": "https://dc.lft.to/lastmile_qr_scan"}, "bike_id": "67049d62b77b410c6780a2b7689c4174", "lon": -77.018036}, {"is_reserved": 0, "fusion_lon": 0.0, "fusion_lat": 0.0, "name": "1e49c72384e77771ebaefcb9d1f906b1", "type": "electric_bike", "is_disabled": 0, "lat": 38.806553, "rental_uris": {"android": "https://dc.lft.to/lastmile_qr_scan", "ios": "https://dc.lft.to/lastmile_qr_scan"}, "bike_id": "1e49c72384e77771ebaefcb9d1f906b1", "lon": -77.08763633333334}, {"is_reserved": 0, "fusion_lon": 0.0, "fusion_lat": 0.0, "name": "7328d24be155d4d3c336e21d431b16c0", "type": "electric_scooter", "is_disabled": 0, "lat": 38.9264915, "rental_uris": {"android": "https://dc.lft.to/lastmile_qr_scan", "ios": "https://dc.lft.to/lastmile_qr_scan"}, "bike_id": "7328d24be155d4d3c336e21d431b16c0", "lon": -77.03542766666666}, {"is_reserved": 0, "fusion_lon": 0.0, "fusion_lat": 0.0, "name": "170037d2553ae27de5cd25307a505b6a", "type": "electric_scooter", "is_disabled": 0, "lat": 38.8859015, "rental_uris": {"android": "https://dc.lft.to/lastmile_qr_scan", "ios": "https://dc.lft.to/lastmile_qr_scan"}, "bike_id": "170037d2553ae27de5cd25307a505b6a", "lon": -77.00581183333334}, {"is_reserved": 0, "fusion_lon": 0.0, "fusion_lat": 0.0, "name": "c87bf63835251953c6d3374671cbdb31", "type": "electric_scooter", "is_disabled": 0, "lat": 38.90235416666667, "rental_uris": {"android": "https://dc.lft.to/lastmile_qr_scan", "ios": "https://dc.lft.to/lastmile_qr_scan"}, "bike_id": "c87bf63835251953c6d3374671cbdb31", "lon": -77.053403}, {"is_reserved": 0, "fusion_lon": 0.0, "fusion_lat": 0.0, "name": "1f95464f6627a11618e00c2b8fe5dd54", "type": "electric_scooter", "is_disabled": 0, "lat": 38.87787866666667, "rental_uris": {"android": "https://dc.lft.to/lastmile_qr_scan", "ios": "https://dc.lft.to/lastmile_qr_scan"}, "bike_id": "1f95464f6627a11618e00c2b8fe5dd54", "lon": -76.99409483333334}, {"is_reserved": 0, "fusion_lon": 0.0, "fusion_lat": 0.0, "name": "a20a20cc5da17dc3947740e00b792e3c", "type": "electric_scooter", "is_disabled": 0, "lat": 38.897616666666664, "rental_uris": {"android": "https://dc.lft.to/lastmile_qr_scan", "ios": "https://dc.lft.to/lastmile_qr_scan"}, "bike_id": "a20a20cc5da17dc3947740e00b792e3c", "lon": -77.02690766666667}, {"is_reserved": 0, "fusion_lon": 0.0, "fusion_lat": 0.0, "name": "e6dfbfeeebd78d4d9c4c4b74b62fe924", "type": "electric_scooter", "is_disabled": 0, "lat": 38.89167166666667, "rental_uris": {"android": "https://dc.lft.to/lastmile_qr_scan", "ios": "https://dc.lft.to/lastmile_qr_scan"}, "bike_id": "e6dfbfeeebd78d4d9c4c4b74b62fe924", "lon": -76.9517775}, {"is_reserved": 0, "fusion_lon": 0.0, "fusion_lat": 0.0, "name": "a44e583f4d8ba25def28c53222302cb8", "type": "electric_scooter", "is_disabled": 0, "lat": 38.907705166666666, "rental_uris": {"android": "https://dc.lft.to/lastmile_qr_scan", "ios": "https://dc.lft.to/lastmile_qr_scan"}, "bike_id": "a44e583f4d8ba25def28c53222302cb8", "lon": -77.038188}, {"is_reserved": 0, "fusion_lon": 0.0, "fusion_lat": 0.0, "name": "7337caa724ba587235ba6c151effee72", "type": "electric_scooter", "is_disabled": 0, "lat": 38.90953733333333, "rental_uris": {"android": "https://dc.lft.to/lastmile_qr_scan", "ios": "https://dc.lft.to/lastmile_qr_scan"}, "bike_id": "7337caa724ba587235ba6c151effee72", "lon": -77.03207716666667}, {"is_reserved": 0, "fusion_lon": 0.0, "fusion_lat": 0.0, "name": "3e6bae5061caf6ea3c66cae37f9389e8", "type": "electric_scooter", "is_disabled": 0, "lat": 38.896168, "rental_uris": {"android": "https://dc.lft.to/lastmile_qr_scan", "ios": "https://dc.lft.to/lastmile_qr_scan"}, "bike_id": "3e6bae5061caf6ea3c66cae37f9389e8", "lon": -76.9816585}, {"is_reserved": 0, "fusion_lon": 0.0, "fusion_lat": 0.0, "name": "48b12528963e206648eb12e1814393be", "type": "electric_scooter", "is_disabled": 0, "lat": 38.883919666666664, "rental_uris": {"android": "https://dc.lft.to/lastmile_qr_scan", "ios": "https://dc.lft.to/lastmile_qr_scan"}, "bike_id": "48b12528963e206648eb12e1814393be", "lon": -76.95443883333333}, {"is_reserved": 0, "fusion_lon": 0.0, "fusion_lat": 0.0, "name": "7f07c7dfb898e8643e3ad986f37a7a23", "type": "electric_bike", "is_disabled": 0, "lat": 38.93689333333333, "rental_uris": {"android": "https://dc.lft.to/lastmile_qr_scan", "ios": "https://dc.lft.to/lastmile_qr_scan"}, "bike_id": "7f07c7dfb898e8643e3ad986f37a7a23", "lon": -76.9905825}, {"is_reserved": 0, "fusion_lon": 0.0, "fusion_lat": 0.0, "name": "b3ada0252a98d54933ef32651b45c4cc", "type": "electric_scooter", "is_disabled": 0, "lat": 38.892987, "rental_uris": {"android": "https://dc.lft.to/lastmile_qr_scan", "ios": "https://dc.lft.to/lastmile_qr_scan"}, "bike_id": "b3ada0252a98d54933ef32651b45c4cc", "lon": -76.99826016666667}, {"is_reserved": 0, "fusion_lon": 0.0, "fusion_lat": 0.0, "name": "d8449f779afb8f71ec595d0770f6a673", "type": "electric_scooter", "is_disabled": 0, "lat": 38.922947, "rental_uris": {"android": "https://dc.lft.to/lastmile_qr_scan", "ios": "https://dc.lft.to/lastmile_qr_scan"}, "bike_id": "d8449f779afb8f71ec595d0770f6a673", "lon": -77.042666}, {"is_reserved": 0, "fusion_lon": 0.0, "fusion_lat": 0.0, "name": "8fb1a047587fa8d5557f06c0428a3e28", "type": "electric_scooter", "is_disabled": 0, "lat": 38.951825166666666, "rental_uris": {"android": "https://dc.lft.to/lastmile_qr_scan", "ios": "https://dc.lft.to/lastmile_qr_scan"}, "bike_id": "8fb1a047587fa8d5557f06c0428a3e28", "lon": -77.0261005}, {"is_reserved": 0, "fusion_lon": 0.0, "fusion_lat": 0.0, "name": "986d428685214f2f6eca01b9294787b3", "type": "electric_scooter", "is_disabled": 0, "lat": 38.922991, "rental_uris": {"android": "https://dc.lft.to/lastmile_qr_scan", "ios": "https://dc.lft.to/lastmile_qr_scan"}, "bike_id": "986d428685214f2f6eca01b9294787b3", "lon": -77.04300016666667}, {"is_reserved": 0, "fusion_lon": 0.0, "fusion_lat": 0.0, "name": "93904264e08851a5b144dd74cc8cf0a5", "type": "electric_scooter", "is_disabled": 0, "lat": 38.8847025, "rental_uris": {"android": "https://dc.lft.to/lastmile_qr_scan", "ios": "https://dc.lft.to/lastmile_qr_scan"}, "bike_id": "93904264e08851a5b144dd74cc8cf0a5", "lon": -77.02655766666666}, {"is_reserved": 0, "fusion_lon": 0.0, "fusion_lat": 0.0, "name": "87fe66b83c4972bc6856d9474809b56c", "type": "electric_scooter", "is_disabled": 0, "lat": 38.89364, "rental_uris": {"android": "https://dc.lft.to/lastmile_qr_scan", "ios": "https://dc.lft.to/lastmile_qr_scan"}, "bike_id": "87fe66b83c4972bc6856d9474809b56c", "lon": -77.05492583333333}, {"is_reserved": 0, "fusion_lon": 0.0, "fusion_lat": 0.0, "name": "8351cb9cd7e23261dc593ffd1fdb1892", "type": "electric_scooter", "is_disabled": 0, "lat": 38.9037845, "rental_uris": {"android": "https://dc.lft.to/lastmile_qr_scan", "ios": "https://dc.lft.to/lastmile_qr_scan"}, "bike_id": "8351cb9cd7e23261dc593ffd1fdb1892", "lon": -77.04039266666666}, {"is_reserved": 0, "fusion_lon": 0.0, "fusion_lat": 0.0, "name": "1763f90ba9d5219c35a0fa3210e5e8e1", "type": "electric_scooter", "is_disabled": 0, "lat": 38.9181205, "rental_uris": {"android": "https://dc.lft.to/lastmile_qr_scan", "ios": "https://dc.lft.to/lastmile_qr_scan"}, "bike_id": "1763f90ba9d5219c35a0fa3210e5e8e1", "lon": -77.032522}, {"is_reserved": 0, "fusion_lon": 0.0, "fusion_lat": 0.0, "name": "62dcf343a68449e69877def45cafcf0a", "type": "electric_scooter", "is_disabled": 0, "lat": 38.89798283333333, "rental_uris": {"android": "https://dc.lft.to/lastmile_qr_scan", "ios": "https://dc.lft.to/lastmile_qr_scan"}, "bike_id": "62dcf343a68449e69877def45cafcf0a", "lon": -77.02490066666667}, {"is_reserved": 0, "fusion_lon": 0.0, "fusion_lat": 0.0, "name": "4ae1a967649fac6c5d03bca76192933d", "type": "electric_scooter", "is_disabled": 0, "lat": 38.90796733333333, "rental_uris": {"android": "https://dc.lft.to/lastmile_qr_scan", "ios": "https://dc.lft.to/lastmile_qr_scan"}, "bike_id": "4ae1a967649fac6c5d03bca76192933d", "lon": -77.03182266666667}, {"is_reserved": 0, "fusion_lon": 0.0, "fusion_lat": 0.0, "name": "e4f62b29834a61e1267c3f2e729cc449", "type": "electric_scooter", "is_disabled": 0, "lat": 38.900059, "rental_uris": {"android": "https://dc.lft.to/lastmile_qr_scan", "ios": "https://dc.lft.to/lastmile_qr_scan"}, "bike_id": "e4f62b29834a61e1267c3f2e729cc449", "lon": -76.99622366666667}, {"is_reserved": 0, "fusion_lon": 0.0, "fusion_lat": 0.0, "name": "23b37695290e7d65ae2e28dbf5cd1ec5", "type": "electric_scooter", "is_disabled": 0, "lat": 38.88720083333333, "rental_uris": {"android": "https://dc.lft.to/lastmile_qr_scan", "ios": "https://dc.lft.to/lastmile_qr_scan"}, "bike_id": "23b37695290e7d65ae2e28dbf5cd1ec5", "lon": -77.03215316666666}, {"is_reserved": 0, "fusion_lon": 0.0, "fusion_lat": 0.0, "name": "95dd0bdfb0929f009651eec15ac02f74", "type": "electric_bike", "is_disabled": 0, "lat": 39.043015833333335, "rental_uris": {"android": "https://dc.lft.to/lastmile_qr_scan", "ios": "https://dc.lft.to/lastmile_qr_scan"}, "bike_id": "95dd0bdfb0929f009651eec15ac02f74", "lon": -77.05159316666666}, {"is_reserved": 0, "fusion_lon": 0.0, "fusion_lat": 0.0, "name": "f2cdabbc8c20b0cfceeddf340d7c25be", "type": "electric_scooter", "is_disabled": 0, "lat": 38.9059725, "rental_uris": {"android": "https://dc.lft.to/lastmile_qr_scan", "ios": "https://dc.lft.to/lastmile_qr_scan"}, "bike_id": "f2cdabbc8c20b0cfceeddf340d7c25be", "lon": -77.06422883333333}, {"is_reserved": 0, "fusion_lon": 0.0, "fusion_lat": 0.0, "name": "9fc71e92db033e4af6574701a0d0014b", "type": "electric_scooter", "is_disabled": 0, "lat": 38.896064833333334, "rental_uris": {"android": "https://dc.lft.to/lastmile_qr_scan", "ios": "https://dc.lft.to/lastmile_qr_scan"}, "bike_id": "9fc71e92db033e4af6574701a0d0014b", "lon": -76.99969783333333}, {"is_reserved": 0, "fusion_lon": 0.0, "fusion_lat": 0.0, "name": "bf52cb57e102940dc74665556c4fdbed", "type": "electric_scooter", "is_disabled": 0, "lat": 38.9204245, "rental_uris": {"android": "https://dc.lft.to/lastmile_qr_scan", "ios": "https://dc.lft.to/lastmile_qr_scan"}, "bike_id": "bf52cb57e102940dc74665556c4fdbed", "lon": -76.99735066666666}, {"is_reserved": 0, "fusion_lon": 0.0, "fusion_lat": 0.0, "name": "f5613c0a09ee6bd097b7b8400e281bfd", "type": "electric_scooter", "is_disabled": 0, "lat": 38.921209166666664, "rental_uris": {"android": "https://dc.lft.to/lastmile_qr_scan", "ios": "https://dc.lft.to/lastmile_qr_scan"}, "bike_id": "f5613c0a09ee6bd097b7b8400e281bfd", "lon": -77.03670816666667}, {"is_reserved": 0, "fusion_lon": 0.0, "fusion_lat": 0.0, "name": "1f15114f95e8c59a1430d3dcb94bfc67", "type": "electric_scooter", "is_disabled": 0, "lat": 38.89609, "rental_uris": {"android": "https://dc.lft.to/lastmile_qr_scan", "ios": "https://dc.lft.to/lastmile_qr_scan"}, "bike_id": "1f15114f95e8c59a1430d3dcb94bfc67", "lon": -77.01143166666667}, {"is_reserved": 0, "fusion_lon": 0.0, "fusion_lat": 0.0, "name": "9b349fbdeadf8f241a80f6c587be1c89", "type": "electric_scooter", "is_disabled": 0, "lat": 38.86055966666667, "rental_uris": {"android": "https://dc.lft.to/lastmile_qr_scan", "ios": "https://dc.lft.to/lastmile_qr_scan"}, "bike_id": "9b349fbdeadf8f241a80f6c587be1c89", "lon": -76.98504083333333}, {"is_reserved": 0, "fusion_lon": 0.0, "fusion_lat": 0.0, "name": "0e1abb06f5b2fa2948a5bbf7d078e260", "type": "electric_scooter", "is_disabled": 0, "lat": 38.91533533333333, "rental_uris": {"android": "https://dc.lft.to/lastmile_qr_scan", "ios": "https://dc.lft.to/lastmile_qr_scan"}, "bike_id": "0e1abb06f5b2fa2948a5bbf7d078e260", "lon": -76.97054333333334}, {"is_reserved": 0, "fusion_lon": 0.0, "fusion_lat": 0.0, "name": "1e0721a12720d1d933e1f3f53c95566c", "type": "electric_scooter", "is_disabled": 0, "lat": 38.9028075, "rental_uris": {"android": "https://dc.lft.to/lastmile_qr_scan", "ios": "https://dc.lft.to/lastmile_qr_scan"}, "bike_id": "1e0721a12720d1d933e1f3f53c95566c", "lon": -77.02273516666666}, {"is_reserved": 0, "fusion_lon": 0.0, "fusion_lat": 0.0, "name": "841a0e3d64ae7237c41373d66076720a", "type": "electric_scooter", "is_disabled": 0, "lat": 38.924365, "rental_uris": {"android": "https://dc.lft.to/lastmile_qr_scan", "ios": "https://dc.lft.to/lastmile_qr_scan"}, "bike_id": "841a0e3d64ae7237c41373d66076720a", "lon": -77.0521315}, {"is_reserved": 0, "fusion_lon": 0.0, "fusion_lat": 0.0, "name": "30430459def5ef7764212458d2d77367", "type": "electric_scooter", "is_disabled": 0, "lat": 38.907309166666664, "rental_uris": {"android": "https://dc.lft.to/lastmile_qr_scan", "ios": "https://dc.lft.to/lastmile_qr_scan"}, "bike_id": "30430459def5ef7764212458d2d77367", "lon": -76.98693633333333}, {"is_reserved": 0, "fusion_lon": 0.0, "fusion_lat": 0.0, "name": "f79a8a37238237d1f1e2054ef0a97142", "type": "electric_scooter", "is_disabled": 0, "lat": 38.9168835, "rental_uris": {"android": "https://dc.lft.to/lastmile_qr_scan", "ios": "https://dc.lft.to/lastmile_qr_scan"}, "bike_id": "f79a8a37238237d1f1e2054ef0a97142", "lon": -77.0289445}, {"is_reserved": 0, "fusion_lon": 0.0, "fusion_lat": 0.0, "name": "ff3d5b6dbd52f4819efde90c35172644", "type": "electric_scooter", "is_disabled": 0, "lat": 38.9036745, "rental_uris": {"android": "https://dc.lft.to/lastmile_qr_scan", "ios": "https://dc.lft.to/lastmile_qr_scan"}, "bike_id": "ff3d5b6dbd52f4819efde90c35172644", "lon": -76.9971235}, {"is_reserved": 0, "fusion_lon": 0.0, "fusion_lat": 0.0, "name": "7a95fecd53e56dfaa2602072c3a62eda", "type": "electric_scooter", "is_disabled": 0, "lat": 38.898840166666666, "rental_uris": {"android": "https://dc.lft.to/lastmile_qr_scan", "ios": "https://dc.lft.to/lastmile_qr_scan"}, "bike_id": "7a95fecd53e56dfaa2602072c3a62eda", "lon": -77.032763}, {"is_reserved": 0, "fusion_lon": 0.0, "fusion_lat": 0.0, "name": "6a9ffb30a21029466e95a2f0a6136e60", "type": "electric_scooter", "is_disabled": 0, "lat": 38.9371035, "rental_uris": {"android": "https://dc.lft.to/lastmile_qr_scan", "ios": "https://dc.lft.to/lastmile_qr_scan"}, "bike_id": "6a9ffb30a21029466e95a2f0a6136e60", "lon": -77.02937883333334}, {"is_reserved": 0, "fusion_lon": 0.0, "fusion_lat": 0.0, "name": "cc2c358bfc9586cba68e86b41869735a", "type": "electric_scooter", "is_disabled": 0, "lat": 38.9258195, "rental_uris": {"android": "https://dc.lft.to/lastmile_qr_scan", "ios": "https://dc.lft.to/lastmile_qr_scan"}, "bike_id": "cc2c358bfc9586cba68e86b41869735a", "lon": -77.039828}, {"is_reserved": 0, "fusion_lon": 0.0, "fusion_lat": 0.0, "name": "5ef699a0ccbf75a3bb56db2858ad99dd", "type": "electric_scooter", "is_disabled": 0, "lat": 38.92338783333334, "rental_uris": {"android": "https://dc.lft.to/lastmile_qr_scan", "ios": "https://dc.lft.to/lastmile_qr_scan"}, "bike_id": "5ef699a0ccbf75a3bb56db2858ad99dd", "lon": -77.051216}, {"is_reserved": 0, "fusion_lon": 0.0, "fusion_lat": 0.0, "name": "cff135a4abb594afc9c23e732bf3d25a", "type": "electric_scooter", "is_disabled": 0, "lat": 38.92116383333333, "rental_uris": {"android": "https://dc.lft.to/lastmile_qr_scan", "ios": "https://dc.lft.to/lastmile_qr_scan"}, "bike_id": "cff135a4abb594afc9c23e732bf3d25a", "lon": -77.03930883333334}, {"is_reserved": 0, "fusion_lon": 0.0, "fusion_lat": 0.0, "name": "193a0a3ab0c39ab59bbc6b82c24d9171", "type": "electric_scooter", "is_disabled": 0, "lat": 38.869995, "rental_uris": {"android": "https://dc.lft.to/lastmile_qr_scan", "ios": "https://dc.lft.to/lastmile_qr_scan"}, "bike_id": "193a0a3ab0c39ab59bbc6b82c24d9171", "lon": -76.9759375}, {"is_reserved": 0, "fusion_lon": 0.0, "fusion_lat": 0.0, "name": "04a8610fbb49273a2c7976f2aaf71a66", "type": "electric_scooter", "is_disabled": 0, "lat": 38.91901633333333, "rental_uris": {"android": "https://dc.lft.to/lastmile_qr_scan", "ios": "https://dc.lft.to/lastmile_qr_scan"}, "bike_id": "04a8610fbb49273a2c7976f2aaf71a66", "lon": -77.03455066666666}, {"is_reserved": 0, "fusion_lon": 0.0, "fusion_lat": 0.0, "name": "91f6d5baa1b8c6be3af2d337c64ea2b7", "type": "electric_scooter", "is_disabled": 0, "lat": 38.98457833333333, "rental_uris": {"android": "https://dc.lft.to/lastmile_qr_scan", "ios": "https://dc.lft.to/lastmile_qr_scan"}, "bike_id": "91f6d5baa1b8c6be3af2d337c64ea2b7", "lon": -77.026441}, {"is_reserved": 0, "fusion_lon": 0.0, "fusion_lat": 0.0, "name": "996ca798096eae48b64f0e76a4c638b7", "type": "electric_scooter", "is_disabled": 0, "lat": 38.905571, "rental_uris": {"android": "https://dc.lft.to/lastmile_qr_scan", "ios": "https://dc.lft.to/lastmile_qr_scan"}, "bike_id": "996ca798096eae48b64f0e76a4c638b7", "lon": -77.0434335}, {"is_reserved": 0, "fusion_lon": 0.0, "fusion_lat": 0.0, "name": "89d5d3388b3707231d35ee0274bbd320", "type": "electric_scooter", "is_disabled": 0, "lat": 38.91412316666667, "rental_uris": {"android": "https://dc.lft.to/lastmile_qr_scan", "ios": "https://dc.lft.to/lastmile_qr_scan"}, "bike_id": "89d5d3388b3707231d35ee0274bbd320", "lon": -77.04501966666666}, {"is_reserved": 0, "fusion_lon": 0.0, "fusion_lat": 0.0, "name": "cdb8cfec3c44571bb201c48043c70257", "type": "electric_scooter", "is_disabled": 0, "lat": 38.91492683333333, "rental_uris": {"android": "https://dc.lft.to/lastmile_qr_scan", "ios": "https://dc.lft.to/lastmile_qr_scan"}, "bike_id": "cdb8cfec3c44571bb201c48043c70257", "lon": -77.01467583333333}, {"is_reserved": 0, "fusion_lon": 0.0, "fusion_lat": 0.0, "name": "3e2a0840918a0043fd41e8244d2682e4", "type": "electric_scooter", "is_disabled": 0, "lat": 38.905385333333335, "rental_uris": {"android": "https://dc.lft.to/lastmile_qr_scan", "ios": "https://dc.lft.to/lastmile_qr_scan"}, "bike_id": "3e2a0840918a0043fd41e8244d2682e4", "lon": -77.02964083333333}, {"is_reserved": 0, "fusion_lon": 0.0, "fusion_lat": 0.0, "name": "d6bdf799b85acd913e79f10452b5c82f", "type": "electric_scooter", "is_disabled": 0, "lat": 38.901888166666666, "rental_uris": {"android": "https://dc.lft.to/lastmile_qr_scan", "ios": "https://dc.lft.to/lastmile_qr_scan"}, "bike_id": "d6bdf799b85acd913e79f10452b5c82f", "lon": -77.012561}, {"is_reserved": 0, "fusion_lon": 0.0, "fusion_lat": 0.0, "name": "1b93eae08dd92a2320463cd983353e6f", "type": "electric_scooter", "is_disabled": 0, "lat": 38.92109383333333, "rental_uris": {"android": "https://dc.lft.to/lastmile_qr_scan", "ios": "https://dc.lft.to/lastmile_qr_scan"}, "bike_id": "1b93eae08dd92a2320463cd983353e6f", "lon": -77.04117383333333}, {"is_reserved": 0, "fusion_lon": 0.0, "fusion_lat": 0.0, "name": "53ebc3dcb886fa160fa67f3212ab5966", "type": "electric_scooter", "is_disabled": 0, "lat": 38.887260166666664, "rental_uris": {"android": "https://dc.lft.to/lastmile_qr_scan", "ios": "https://dc.lft.to/lastmile_qr_scan"}, "bike_id": "53ebc3dcb886fa160fa67f3212ab5966", "lon": -77.02819266666667}, {"is_reserved": 0, "fusion_lon": 0.0, "fusion_lat": 0.0, "name": "20dfb83effc81e9753bdd5cc042bf323", "type": "electric_scooter", "is_disabled": 0, "lat": 38.87827716666666, "rental_uris": {"android": "https://dc.lft.to/lastmile_qr_scan", "ios": "https://dc.lft.to/lastmile_qr_scan"}, "bike_id": "20dfb83effc81e9753bdd5cc042bf323", "lon": -76.96307}, {"is_reserved": 0, "fusion_lon": 0.0, "fusion_lat": 0.0, "name": "18ae2ee388dc33658335b4a0cf9334a3", "type": "electric_scooter", "is_disabled": 0, "lat": 38.932309833333335, "rental_uris": {"android": "https://dc.lft.to/lastmile_qr_scan", "ios": "https://dc.lft.to/lastmile_qr_scan"}, "bike_id": "18ae2ee388dc33658335b4a0cf9334a3", "lon": -77.03873216666666}, {"is_reserved": 0, "fusion_lon": 0.0, "fusion_lat": 0.0, "name": "bfd0cd72a64a690daa10b83b09826fe0", "type": "electric_bike", "is_disabled": 0, "lat": 39.052808166666665, "rental_uris": {"android": "https://dc.lft.to/lastmile_qr_scan", "ios": "https://dc.lft.to/lastmile_qr_scan"}, "bike_id": "bfd0cd72a64a690daa10b83b09826fe0", "lon": -77.080679}, {"is_reserved": 0, "fusion_lon": 0.0, "fusion_lat": 0.0, "name": "0549e15bd65cf156534f78b49665825c", "type": "electric_scooter", "is_disabled": 0, "lat": 38.86657616666667, "rental_uris": {"android": "https://dc.lft.to/lastmile_qr_scan", "ios": "https://dc.lft.to/lastmile_qr_scan"}, "bike_id": "0549e15bd65cf156534f78b49665825c", "lon": -76.98883183333334}, {"is_reserved": 0, "fusion_lon": 0.0, "fusion_lat": 0.0, "name": "346c66ce8338020c9a8c369aeb51496b", "type": "electric_scooter", "is_disabled": 0, "lat": 38.90242116666667, "rental_uris": {"android": "https://dc.lft.to/lastmile_qr_scan", "ios": "https://dc.lft.to/lastmile_qr_scan"}, "bike_id": "346c66ce8338020c9a8c369aeb51496b", "lon": -76.99554966666666}, {"is_reserved": 0, "fusion_lon": 0.0, "fusion_lat": 0.0, "name": "e76eac06157ce016a99240278b601e4b", "type": "electric_scooter", "is_disabled": 0, "lat": 38.92329733333333, "rental_uris": {"android": "https://dc.lft.to/lastmile_qr_scan", "ios": "https://dc.lft.to/lastmile_qr_scan"}, "bike_id": "e76eac06157ce016a99240278b601e4b", "lon": -77.04320266666667}, {"is_reserved": 0, "fusion_lon": 0.0, "fusion_lat": 0.0, "name": "7fc8e36befb3bab22ba227c7d0647df5", "type": "electric_scooter", "is_disabled": 0, "lat": 38.90629916666666, "rental_uris": {"android": "https://dc.lft.to/lastmile_qr_scan", "ios": "https://dc.lft.to/lastmile_qr_scan"}, "bike_id": "7fc8e36befb3bab22ba227c7d0647df5", "lon": -77.04794666666666}, {"is_reserved": 0, "fusion_lon": 0.0, "fusion_lat": 0.0, "name": "79390e5debc19c329885be0bac5638f7", "type": "electric_scooter", "is_disabled": 0, "lat": 38.89274966666667, "rental_uris": {"android": "https://dc.lft.to/lastmile_qr_scan", "ios": "https://dc.lft.to/lastmile_qr_scan"}, "bike_id": "79390e5debc19c329885be0bac5638f7", "lon": -76.9423535}, {"is_reserved": 0, "fusion_lon": 0.0, "fusion_lat": 0.0, "name": "41e7868a2f027acbbccaa674a5fd532c", "type": "electric_scooter", "is_disabled": 0, "lat": 38.899172166666666, "rental_uris": {"android": "https://dc.lft.to/lastmile_qr_scan", "ios": "https://dc.lft.to/lastmile_qr_scan"}, "bike_id": "41e7868a2f027acbbccaa674a5fd532c", "lon": -76.9338385}, {"is_reserved": 0, "fusion_lon": 0.0, "fusion_lat": 0.0, "name": "81bb98b9007f4cb8e63be3f92658a2a1", "type": "electric_scooter", "is_disabled": 0, "lat": 38.9268375, "rental_uris": {"android": "https://dc.lft.to/lastmile_qr_scan", "ios": "https://dc.lft.to/lastmile_qr_scan"}, "bike_id": "81bb98b9007f4cb8e63be3f92658a2a1", "lon": -77.02993216666667}, {"is_reserved": 0, "fusion_lon": 0.0, "fusion_lat": 0.0, "name": "dc6b37fcc76773943d139b09b8afb723", "type": "electric_scooter", "is_disabled": 0, "lat": 38.90650733333333, "rental_uris": {"android": "https://dc.lft.to/lastmile_qr_scan", "ios": "https://dc.lft.to/lastmile_qr_scan"}, "bike_id": "dc6b37fcc76773943d139b09b8afb723", "lon": -77.048687}, {"is_reserved": 0, "fusion_lon": 0.0, "fusion_lat": 0.0, "name": "73bd868fe9a345bed86c9f3ee89d557e", "type": "electric_scooter", "is_disabled": 0, "lat": 38.91918866666666, "rental_uris": {"android": "https://dc.lft.to/lastmile_qr_scan", "ios": "https://dc.lft.to/lastmile_qr_scan"}, "bike_id": "73bd868fe9a345bed86c9f3ee89d557e", "lon": -77.02510783333334}, {"is_reserved": 0, "fusion_lon": 0.0, "fusion_lat": 0.0, "name": "a8cf4eac52e7210e4cd5566f78c76a25", "type": "electric_scooter", "is_disabled": 0, "lat": 38.915720666666665, "rental_uris": {"android": "https://dc.lft.to/lastmile_qr_scan", "ios": "https://dc.lft.to/lastmile_qr_scan"}, "bike_id": "a8cf4eac52e7210e4cd5566f78c76a25", "lon": -77.01990233333333}, {"is_reserved": 0, "fusion_lon": 0.0, "fusion_lat": 0.0, "name": "4ab516b5a3f12fd7f3831f99ad177f2e", "type": "electric_scooter", "is_disabled": 0, "lat": 38.917957333333334, "rental_uris": {"android": "https://dc.lft.to/lastmile_qr_scan", "ios": "https://dc.lft.to/lastmile_qr_scan"}, "bike_id": "4ab516b5a3f12fd7f3831f99ad177f2e", "lon": -77.04021166666666}, {"is_reserved": 0, "fusion_lon": 0.0, "fusion_lat": 0.0, "name": "e05e307200296c5a76ac2df2ca12850e", "type": "electric_scooter", "is_disabled": 0, "lat": 38.89220916666667, "rental_uris": {"android": "https://dc.lft.to/lastmile_qr_scan", "ios": "https://dc.lft.to/lastmile_qr_scan"}, "bike_id": "e05e307200296c5a76ac2df2ca12850e", "lon": -77.0234985}, {"is_reserved": 0, "fusion_lon": 0.0, "fusion_lat": 0.0, "name": "cca802207fdb7324db1e61b3e121a988", "type": "electric_bike", "is_disabled": 0, "lat": 39.062950666666666, "rental_uris": {"android": "https://dc.lft.to/lastmile_qr_scan", "ios": "https://dc.lft.to/lastmile_qr_scan"}, "bike_id": "cca802207fdb7324db1e61b3e121a988", "lon": -77.0498045}, {"is_reserved": 0, "fusion_lon": 0.0, "fusion_lat": 0.0, "name": "4b738f6b2806d16e82d6e6f595b2d7a9", "type": "electric_bike", "is_disabled": 0, "lat": 39.054973, "rental_uris": {"android": "https://dc.lft.to/lastmile_qr_scan", "ios": "https://dc.lft.to/lastmile_qr_scan"}, "bike_id": "4b738f6b2806d16e82d6e6f595b2d7a9", "lon": -77.11789816666666}, {"is_reserved": 0, "fusion_lon": 0.0, "fusion_lat": 0.0, "name": "d935c226c359efc0b3c11b798b0abe4f", "type": "electric_scooter", "is_disabled": 0, "lat": 38.9157025, "rental_uris": {"android": "https://dc.lft.to/lastmile_qr_scan", "ios": "https://dc.lft.to/lastmile_qr_scan"}, "bike_id": "d935c226c359efc0b3c11b798b0abe4f", "lon": -77.03210583333333}, {"is_reserved": 0, "fusion_lon": 0.0, "fusion_lat": 0.0, "name": "1ed877c0f9dd473d7ff5c2f97e7d444d", "type": "electric_scooter", "is_disabled": 0, "lat": 38.92565033333333, "rental_uris": {"android": "https://dc.lft.to/lastmile_qr_scan", "ios": "https://dc.lft.to/lastmile_qr_scan"}, "bike_id": "1ed877c0f9dd473d7ff5c2f97e7d444d", "lon": -77.02286716666667}, {"is_reserved": 0, "fusion_lon": 0.0, "fusion_lat": 0.0, "name": "b0649a558de541fcfb2c51c78eb3a8b6", "type": "electric_scooter", "is_disabled": 0, "lat": 38.90860166666667, "rental_uris": {"android": "https://dc.lft.to/lastmile_qr_scan", "ios": "https://dc.lft.to/lastmile_qr_scan"}, "bike_id": "b0649a558de541fcfb2c51c78eb3a8b6", "lon": -77.04260033333334}, {"is_reserved": 0, "fusion_lon": 0.0, "fusion_lat": 0.0, "name": "a3d478b05dc55c0491a3f80ffa6d099f", "type": "electric_scooter", "is_disabled": 0, "lat": 38.92661716666667, "rental_uris": {"android": "https://dc.lft.to/lastmile_qr_scan", "ios": "https://dc.lft.to/lastmile_qr_scan"}, "bike_id": "a3d478b05dc55c0491a3f80ffa6d099f", "lon": -77.008723}, {"is_reserved": 0, "fusion_lon": 0.0, "fusion_lat": 0.0, "name": "e991f0aae41bed77dfb0930c7d3a1e25", "type": "electric_bike", "is_disabled": 0, "lat": 39.034288, "rental_uris": {"android": "https://dc.lft.to/lastmile_qr_scan", "ios": "https://dc.lft.to/lastmile_qr_scan"}, "bike_id": "e991f0aae41bed77dfb0930c7d3a1e25", "lon": -77.04099866666667}, {"is_reserved": 0, "fusion_lon": 0.0, "fusion_lat": 0.0, "name": "016de461298d90e15a18458aac693534", "type": "electric_scooter", "is_disabled": 0, "lat": 38.906449333333335, "rental_uris": {"android": "https://dc.lft.to/lastmile_qr_scan", "ios": "https://dc.lft.to/lastmile_qr_scan"}, "bike_id": "016de461298d90e15a18458aac693534", "lon": -77.05122416666667}, {"is_reserved": 0, "fusion_lon": 0.0, "fusion_lat": 0.0, "name": "bdfe4a9318ea4ab6d760078833a0bdf0", "type": "electric_bike", "is_disabled": 0, "lat": 38.88337116666667, "rental_uris": {"android": "https://dc.lft.to/lastmile_qr_scan", "ios": "https://dc.lft.to/lastmile_qr_scan"}, "bike_id": "bdfe4a9318ea4ab6d760078833a0bdf0", "lon": -77.06569516666667}, {"is_reserved": 0, "fusion_lon": 0.0, "fusion_lat": 0.0, "name": "b27299d9dffa99f44034da9819e357b2", "type": "electric_scooter", "is_disabled": 0, "lat": 38.902361666666664, "rental_uris": {"android": "https://dc.lft.to/lastmile_qr_scan", "ios": "https://dc.lft.to/lastmile_qr_scan"}, "bike_id": "b27299d9dffa99f44034da9819e357b2", "lon": -77.00199716666667}, {"is_reserved": 0, "fusion_lon": 0.0, "fusion_lat": 0.0, "name": "03e4cdc115bc95805ef710deabf2d67b", "type": "electric_bike", "is_disabled": 0, "lat": 38.908621, "rental_uris": {"android": "https://dc.lft.to/lastmile_qr_scan", "ios": "https://dc.lft.to/lastmile_qr_scan"}, "bike_id": "03e4cdc115bc95805ef710deabf2d67b", "lon": -76.94007533333334}, {"is_reserved": 0, "fusion_lon": 0.0, "fusion_lat": 0.0, "name": "9a73a1a1a691a03c5bf3e820f2670af1", "type": "electric_scooter", "is_disabled": 0, "lat": 38.91494083333333, "rental_uris": {"android": "https://dc.lft.to/lastmile_qr_scan", "ios": "https://dc.lft.to/lastmile_qr_scan"}, "bike_id": "9a73a1a1a691a03c5bf3e820f2670af1", "lon": -77.01852966666667}, {"is_reserved": 0, "fusion_lon": 0.0, "fusion_lat": 0.0, "name": "b43581c9097d9f559f83542bb17a2fa0", "type": "electric_scooter", "is_disabled": 0, "lat": 38.901286999999996, "rental_uris": {"android": "https://dc.lft.to/lastmile_qr_scan", "ios": "https://dc.lft.to/lastmile_qr_scan"}, "bike_id": "b43581c9097d9f559f83542bb17a2fa0", "lon": -77.04623016666666}, {"is_reserved": 0, "fusion_lon": 0.0, "fusion_lat": 0.0, "name": "56dab8126cfd27d85855af4270b54fe4", "type": "electric_scooter", "is_disabled": 0, "lat": 38.917259666666666, "rental_uris": {"android": "https://dc.lft.to/lastmile_qr_scan", "ios": "https://dc.lft.to/lastmile_qr_scan"}, "bike_id": "56dab8126cfd27d85855af4270b54fe4", "lon": -77.02975133333334}, {"is_reserved": 0, "fusion_lon": 0.0, "fusion_lat": 0.0, "name": "29b96032a609e8189384893ce7173a93", "type": "electric_scooter", "is_disabled": 0, "lat": 38.865032, "rental_uris": {"android": "https://dc.lft.to/lastmile_qr_scan", "ios": "https://dc.lft.to/lastmile_qr_scan"}, "bike_id": "29b96032a609e8189384893ce7173a93", "lon": -76.9900085}, {"is_reserved": 0, "fusion_lon": 0.0, "fusion_lat": 0.0, "name": "cfda9a915b19ac7a383bbc23982641c8", "type": "electric_scooter", "is_disabled": 0, "lat": 38.923309, "rental_uris": {"android": "https://dc.lft.to/lastmile_qr_scan", "ios": "https://dc.lft.to/lastmile_qr_scan"}, "bike_id": "cfda9a915b19ac7a383bbc23982641c8", "lon": -77.04309966666666}, {"is_reserved": 0, "fusion_lon": 0.0, "fusion_lat": 0.0, "name": "b29853b2b5bd0e713ca516e2712c75bf", "type": "electric_scooter", "is_disabled": 0, "lat": 38.923387, "rental_uris": {"android": "https://dc.lft.to/lastmile_qr_scan", "ios": "https://dc.lft.to/lastmile_qr_scan"}, "bike_id": "b29853b2b5bd0e713ca516e2712c75bf", "lon": -77.047908}, {"is_reserved": 0, "fusion_lon": 0.0, "fusion_lat": 0.0, "name": "bae6ef12aff4316a4d0a8dedc45fff7d", "type": "electric_scooter", "is_disabled": 0, "lat": 38.9395945, "rental_uris": {"android": "https://dc.lft.to/lastmile_qr_scan", "ios": "https://dc.lft.to/lastmile_qr_scan"}, "bike_id": "bae6ef12aff4316a4d0a8dedc45fff7d", "lon": -77.027531}, {"is_reserved": 0, "fusion_lon": 0.0, "fusion_lat": 0.0, "name": "da7330efb554c203e4892d410d93efec", "type": "electric_scooter", "is_disabled": 0, "lat": 38.905578, "rental_uris": {"android": "https://dc.lft.to/lastmile_qr_scan", "ios": "https://dc.lft.to/lastmile_qr_scan"}, "bike_id": "da7330efb554c203e4892d410d93efec", "lon": -77.04159483333333}, {"is_reserved": 0, "fusion_lon": 0.0, "fusion_lat": 0.0, "name": "3c1ad40d4451509d9eefac22df44e8a0", "type": "electric_scooter", "is_disabled": 0, "lat": 38.910335, "rental_uris": {"android": "https://dc.lft.to/lastmile_qr_scan", "ios": "https://dc.lft.to/lastmile_qr_scan"}, "bike_id": "3c1ad40d4451509d9eefac22df44e8a0", "lon": -76.99334833333333}, {"is_reserved": 0, "fusion_lon": 0.0, "fusion_lat": 0.0, "name": "7b5bacfbaf89669c245b8fdc87bf9f67", "type": "electric_scooter", "is_disabled": 0, "lat": 38.93538733333333, "rental_uris": {"android": "https://dc.lft.to/lastmile_qr_scan", "ios": "https://dc.lft.to/lastmile_qr_scan"}, "bike_id": "7b5bacfbaf89669c245b8fdc87bf9f67", "lon": -77.057479}, {"is_reserved": 0, "fusion_lon": 0.0, "fusion_lat": 0.0, "name": "cb81b6acf7be08cc2dbe68f1238e5c92", "type": "electric_scooter", "is_disabled": 0, "lat": 38.92248566666667, "rental_uris": {"android": "https://dc.lft.to/lastmile_qr_scan", "ios": "https://dc.lft.to/lastmile_qr_scan"}, "bike_id": "cb81b6acf7be08cc2dbe68f1238e5c92", "lon": -77.01947933333334}, {"is_reserved": 0, "fusion_lon": 0.0, "fusion_lat": 0.0, "name": "50d9233b38872154fc924274c6a91b84", "type": "electric_scooter", "is_disabled": 0, "lat": 38.89536583333334, "rental_uris": {"android": "https://dc.lft.to/lastmile_qr_scan", "ios": "https://dc.lft.to/lastmile_qr_scan"}, "bike_id": "50d9233b38872154fc924274c6a91b84", "lon": -77.00342866666666}, {"is_reserved": 0, "fusion_lon": 0.0, "fusion_lat": 0.0, "name": "0250dd84e04d9740a1618b06b157e557", "type": "electric_scooter", "is_disabled": 0, "lat": 38.93164, "rental_uris": {"android": "https://dc.lft.to/lastmile_qr_scan", "ios": "https://dc.lft.to/lastmile_qr_scan"}, "bike_id": "0250dd84e04d9740a1618b06b157e557", "lon": -77.0561005}, {"is_reserved": 0, "fusion_lon": 0.0, "fusion_lat": 0.0, "name": "b4de04b7a2aac200809a15c7800f167e", "type": "electric_scooter", "is_disabled": 0, "lat": 38.89222, "rental_uris": {"android": "https://dc.lft.to/lastmile_qr_scan", "ios": "https://dc.lft.to/lastmile_qr_scan"}, "bike_id": "b4de04b7a2aac200809a15c7800f167e", "lon": -77.04262283333334}, {"is_reserved": 0, "fusion_lon": 0.0, "fusion_lat": 0.0, "name": "f6befbf2d2b7ba58a41dfe6b761e641f", "type": "electric_scooter", "is_disabled": 0, "lat": 38.88589066666667, "rental_uris": {"android": "https://dc.lft.to/lastmile_qr_scan", "ios": "https://dc.lft.to/lastmile_qr_scan"}, "bike_id": "f6befbf2d2b7ba58a41dfe6b761e641f", "lon": -76.996215}, {"is_reserved": 0, "fusion_lon": 0.0, "fusion_lat": 0.0, "name": "53874ef29a2c245bc68217821e00e5f9", "type": "electric_scooter", "is_disabled": 0, "lat": 38.878018833333336, "rental_uris": {"android": "https://dc.lft.to/lastmile_qr_scan", "ios": "https://dc.lft.to/lastmile_qr_scan"}, "bike_id": "53874ef29a2c245bc68217821e00e5f9", "lon": -76.93092316666667}, {"is_reserved": 0, "fusion_lon": 0.0, "fusion_lat": 0.0, "name": "c0615f1276a73bbbb5607e41e38f2fda", "type": "electric_scooter", "is_disabled": 0, "lat": 38.90036883333333, "rental_uris": {"android": "https://dc.lft.to/lastmile_qr_scan", "ios": "https://dc.lft.to/lastmile_qr_scan"}, "bike_id": "c0615f1276a73bbbb5607e41e38f2fda", "lon": -77.00210983333334}, {"is_reserved": 0, "fusion_lon": 0.0, "fusion_lat": 0.0, "name": "0359167546955a670d0a59f23966db24", "type": "electric_scooter", "is_disabled": 0, "lat": 38.890189666666664, "rental_uris": {"android": "https://dc.lft.to/lastmile_qr_scan", "ios": "https://dc.lft.to/lastmile_qr_scan"}, "bike_id": "0359167546955a670d0a59f23966db24", "lon": -76.93730516666666}, {"is_reserved": 0, "fusion_lon": 0.0, "fusion_lat": 0.0, "name": "bc4f111d8d56b856435d12e531fe8f53", "type": "electric_scooter", "is_disabled": 0, "lat": 38.906001, "rental_uris": {"android": "https://dc.lft.to/lastmile_qr_scan", "ios": "https://dc.lft.to/lastmile_qr_scan"}, "bike_id": "bc4f111d8d56b856435d12e531fe8f53", "lon": -77.0351495}, {"is_reserved": 0, "fusion_lon": 0.0, "fusion_lat": 0.0, "name": "a20a8ea808ae106cef23ba9bd9e2c718", "type": "electric_scooter", "is_disabled": 0, "lat": 38.9108385, "rental_uris": {"android": "https://dc.lft.to/lastmile_qr_scan", "ios": "https://dc.lft.to/lastmile_qr_scan"}, "bike_id": "a20a8ea808ae106cef23ba9bd9e2c718", "lon": -76.99268566666667}, {"is_reserved": 0, "fusion_lon": 0.0, "fusion_lat": 0.0, "name": "7862459ba9cab0a78bfba7befc8deb4a", "type": "electric_scooter", "is_disabled": 0, "lat": 38.9204515, "rental_uris": {"android": "https://dc.lft.to/lastmile_qr_scan", "ios": "https://dc.lft.to/lastmile_qr_scan"},