{"data": {"bikes": [{"bike_id": "c4f8800cb43b80ee2321909f0c12a295", "is_reserved": 0, "fusion_lon": 0.0, "lat": 38.928978666666666, "is_disabled": 0, "name": "c4f8800cb43b80ee2321909f0c12a295", "fusion_lat": 0.0, "rental_uris": {"ios": "https://dc.lft.to/lastmile_qr_scan", "android": "https://dc.lft.to/lastmile_qr_scan"}, "lon": -77.05454783333333, "type": "electric_scooter"}, {"bike_id": "393c0fdbbbf29cfac402192bba27816a", "is_reserved": 0, "fusion_lon": 0.0, "lat": 38.898782833333335, "is_disabled": 0, "name": "393c0fdbbbf29cfac402192bba27816a", "fusion_lat": 0.0, "rental_uris": {"ios": "https://dc.lft.to/lastmile_qr_scan", "android": "https://dc.lft.to/lastmile_qr_scan"}, "lon": -76.931599, "type": "electric_scooter"}, {"bike_id": "d81af4074dfe10befe719d5c36683ad3", "is_reserved": 0, "fusion_lon": 0.0, "lat": 38.903818333333334, "is_disabled": 0, "name": "d81af4074dfe10befe719d5c36683ad3", "fusion_lat": 0.0, "rental_uris": {"ios": "https://dc.lft.to/lastmile_qr_scan", "android": "https://dc.lft.to/lastmile_qr_scan"}, "lon": -77.01101633333333, "type": "electric_scooter"}, {"bike_id": "3b0af15816d73d6a2407d2c4daebf52f", "is_reserved": 0, "fusion_lon": 0.0, "lat": 38.9572975, "is_disabled": 0, "name": "3b0af15816d73d6a2407d2c4daebf52f", "fusion_lat": 0.0, "rental_uris": {"ios": "https://dc.lft.to/lastmile_qr_scan", "android": "https://dc.lft.to/lastmile_qr_scan"}, "lon": -76.98020816666667, "type": "electric_bike"}, {"bike_id": "3b8f7779758234f0c7949baacaaa846b", "is_reserved": 0, "fusion_lon": 0.0, "lat": 38.921486333333334, "is_disabled": 0, "name": "3b8f7779758234f0c7949baacaaa846b", "fusion_lat": 0.0, "rental_uris": {"ios": "https://dc.lft.to/lastmile_qr_scan", "android": "https://dc.lft.to/lastmile_qr_scan"}, "lon": -77.03494083333334, "type": "electric_scooter"}, {"bike_id": "487bdf99f34ecc4932c4447f4832121b", "is_reserved": 0, "fusion_lon": 0.0, "lat": 38.9067785, "is_disabled": 0, "name": "487bdf99f34ecc4932c4447f4832121b", "fusion_lat": 0.0, "rental_uris": {"ios": "https://dc.lft.to/lastmile_qr_scan", "android": "https://dc.lft.to/lastmile_qr_scan"}, "lon": -77.06267483333333, "type": "electric_bike"}, {"bike_id": "9964afb432fa929e08620d5829a515d6", "is_reserved": 0, "fusion_lon": 0.0, "lat": 38.90565383333333, "is_disabled": 0, "name": "9964afb432fa929e08620d5829a515d6", "fusion_lat": 0.0, "rental_uris": {"ios": "https://dc.lft.to/lastmile_qr_scan", "android": "https://dc.lft.to/lastmile_qr_scan"}, "lon": -77.00577533333333, "type": "electric_scooter"}, {"bike_id": "c105a2204416321aa7845c25872fe10e", "is_reserved": 0, "fusion_lon": 0.0, "lat": 38.86389616666666, "is_disabled": 0, "name": "c105a2204416321aa7845c25872fe10e", "fusion_lat": 0.0, "rental_uris": {"ios": "https://dc.lft.to/lastmile_qr_scan", "android": "https://dc.lft.to/lastmile_qr_scan"}, "lon": -76.98994266666666, "type": "electric_bike"}, {"bike_id": "24f3d8bca2fefee3543be997c5d7c8ad", "is_reserved": 0, "fusion_lon": 0.0, "lat": 38.9981925, "is_disabled": 0, "name": "24f3d8bca2fefee3543be997c5d7c8ad", "fusion_lat": 0.0, "rental_uris": {"ios": "https://dc.lft.to/lastmile_qr_scan", "android": "https://dc.lft.to/lastmile_qr_scan"}, "lon": -76.88370583333334, "type": "electric_bike"}, {"bike_id": "5bb403aacb25115de2ba01e427694f1d", "is_reserved": 0, "fusion_lon": 0.0, "lat": 38.90339783333334, "is_disabled": 0, "name": "5bb403aacb25115de2ba01e427694f1d", "fusion_lat": 0.0, "rental_uris": {"ios": "https://dc.lft.to/lastmile_qr_scan", "android": "https://dc.lft.to/lastmile_qr_scan"}, "lon": -77.06651316666667, "type": "electric_scooter"}, {"bike_id": "ca7dae5dc29f9321de4926239bd36933", "is_reserved": 0, "fusion_lon": 0.0, "lat": 38.9168135, "is_disabled": 0, "name": "ca7dae5dc29f9321de4926239bd36933", "fusion_lat": 0.0, "rental_uris": {"ios": "https://dc.lft.to/lastmile_qr_scan", "android": "https://dc.lft.to/lastmile_qr_scan"}, "lon": -77.01217283333334, "type": "electric_scooter"}, {"bike_id": "decf955deb9eb8ab3559fa770003ada0", "is_reserved": 0, "fusion_lon": 0.0, "lat": 38.807091666666665, "is_disabled": 0, "name": "decf955deb9eb8ab3559fa770003ada0", "fusion_lat": 0.0, "rental_uris": {"ios": "https://dc.lft.to/lastmile_qr_scan", "android": "https://dc.lft.to/lastmile_qr_scan"}, "lon": -77.0617315, "type": "electric_bike"}, {"bike_id": "4f8929fc0d525e7598825394727d7953", "is_reserved": 0, "fusion_lon": 0.0, "lat": 38.9417245, "is_disabled": 0, "name": "4f8929fc0d525e7598825394727d7953", "fusion_lat": 0.0, "rental_uris": {"ios": "https://dc.lft.to/lastmile_qr_scan", "android": "https://dc.lft.to/lastmile_qr_scan"}, "lon": -77.04133566666667, "type": "electric_scooter"}, {"bike_id": "94d1d2ef1b6ccfda8b7b6c80d841c214", "is_reserved": 0, "fusion_lon": 0.0, "lat": 38.9057695, "is_disabled": 0, "name": "94d1d2ef1b6ccfda8b7b6c80d841c214", "fusion_lat": 0.0, "rental_uris": {"ios": "https://dc.lft.to/lastmile_qr_scan", "android": "https://dc.lft.to/lastmile_qr_scan"}, "lon": -77.0220575, "type": "electric_scooter"}, {"bike_id": "52edefaae83941012c0d07b2d088f27a", "is_reserved": 0, "fusion_lon": 0.0, "lat": 38.9267045, "is_disabled": 0, "name": "52edefaae83941012c0d07b2d088f27a", "fusion_lat": 0.0, "rental_uris": {"ios": "https://dc.lft.to/lastmile_qr_scan", "android": "https://dc.lft.to/lastmile_qr_scan"}, "lon": -77.09550316666666, "type": "electric_scooter"}, {"bike_id": "defb94a4372ba6108f1ece21395d4fdf", "is_reserved": 0, "fusion_lon": 0.0, "lat": 38.936164, "is_disabled": 0, "name": "defb94a4372ba6108f1ece21395d4fdf", "fusion_lat": 0.0, "rental_uris": {"ios": "https://dc.lft.to/lastmile_qr_scan", "android": "https://dc.lft.to/lastmile_qr_scan"}, "lon": -77.055842, "type": "electric_scooter"}, {"bike_id": "36103a04ab57a8bd731e953b8ce7233d", "is_reserved": 0, "fusion_lon": 0.0, "lat": 38.89223716666667, "is_disabled": 0, "name": "36103a04ab57a8bd731e953b8ce7233d", "fusion_lat": 0.0, "rental_uris": {"ios": "https://dc.lft.to/lastmile_qr_scan", "android": "https://dc.lft.to/lastmile_qr_scan"}, "lon": -77.0398265, "type": "electric_scooter"}, {"bike_id": "0ba3ca9091eea61c35f06c28db649aaa", "is_reserved": 0, "fusion_lon": 0.0, "lat": 38.901516, "is_disabled": 0, "name": "0ba3ca9091eea61c35f06c28db649aaa", "fusion_lat": 0.0, "rental_uris": {"ios": "https://dc.lft.to/lastmile_qr_scan", "android": "https://dc.lft.to/lastmile_qr_scan"}, "lon": -76.93065933333334, "type": "electric_scooter"}, {"bike_id": "54a61ead21d2f135c8d8454c46c90b4e", "is_reserved": 0, "fusion_lon": 0.0, "lat": 38.89822616666667, "is_disabled": 0, "name": "54a61ead21d2f135c8d8454c46c90b4e", "fusion_lat": 0.0, "rental_uris": {"ios": "https://dc.lft.to/lastmile_qr_scan", "android": "https://dc.lft.to/lastmile_qr_scan"}, "lon": -77.04328216666667, "type": "electric_scooter"}, {"bike_id": "65100a3dda8a9eaaa30e33fe5551dc55", "is_reserved": 0, "fusion_lon": 0.0, "lat": 38.94066316666667, "is_disabled": 0, "name": "65100a3dda8a9eaaa30e33fe5551dc55", "fusion_lat": 0.0, "rental_uris": {"ios": "https://dc.lft.to/lastmile_qr_scan", "android": "https://dc.lft.to/lastmile_qr_scan"}, "lon": -76.99464083333334, "type": "electric_scooter"}, {"bike_id": "edf302bb23cad6492c283d7c0d0e359a", "is_reserved": 0, "fusion_lon": 0.0, "lat": 38.9186705, "is_disabled": 0, "name": "edf302bb23cad6492c283d7c0d0e359a", "fusion_lat": 0.0, "rental_uris": {"ios": "https://dc.lft.to/lastmile_qr_scan", "android": "https://dc.lft.to/lastmile_qr_scan"}, "lon": -77.04379416666667, "type": "electric_scooter"}, {"bike_id": "21d0cf6f33f70e81ce2ed9d4212d38c2", "is_reserved": 0, "fusion_lon": 0.0, "lat": 38.922346166666664, "is_disabled": 0, "name": "21d0cf6f33f70e81ce2ed9d4212d38c2", "fusion_lat": 0.0, "rental_uris": {"ios": "https://dc.lft.to/lastmile_qr_scan", "android": "https://dc.lft.to/lastmile_qr_scan"}, "lon": -77.03340683333333, "type": "electric_scooter"}, {"bike_id": "8e5fa14c8ba2b1dab96e28e784fda5c2", "is_reserved": 0, "fusion_lon": 0.0, "lat": 38.914198, "is_disabled": 0, "name": "8e5fa14c8ba2b1dab96e28e784fda5c2", "fusion_lat": 0.0, "rental_uris": {"ios": "https://dc.lft.to/lastmile_qr_scan", "android": "https://dc.lft.to/lastmile_qr_scan"}, "lon": -77.03908633333333, "type": "electric_scooter"}, {"bike_id": "3a95733c7126b4aa4e2866a84f7c07df", "is_reserved": 0, "fusion_lon": 0.0, "lat": 38.911473666666666, "is_disabled": 0, "name": "3a95733c7126b4aa4e2866a84f7c07df", "fusion_lat": 0.0, "rental_uris": {"ios": "https://dc.lft.to/lastmile_qr_scan", "android": "https://dc.lft.to/lastmile_qr_scan"}, "lon": -77.04175833333333, "type": "electric_scooter"}, {"bike_id": "a5a4c8acaaf7804faf9f343bbf1c5b56", "is_reserved": 0, "fusion_lon": 0.0, "lat": 38.915656, "is_disabled": 0, "name": "a5a4c8acaaf7804faf9f343bbf1c5b56", "fusion_lat": 0.0, "rental_uris": {"ios": "https://dc.lft.to/lastmile_qr_scan", "android": "https://dc.lft.to/lastmile_qr_scan"}, "lon": -77.0384535, "type": "electric_scooter"}, {"bike_id": "a4c25774966fac0a6a181bf658390539", "is_reserved": 0, "fusion_lon": 0.0, "lat": 38.91585833333333, "is_disabled": 0, "name": "a4c25774966fac0a6a181bf658390539", "fusion_lat": 0.0, "rental_uris": {"ios": "https://dc.lft.to/lastmile_qr_scan", "android": "https://dc.lft.to/lastmile_qr_scan"}, "lon": -77.04474333333333, "type": "electric_scooter"}, {"bike_id": "4c1be368079def5bf22cac8bfa6fb55b", "is_reserved": 0, "fusion_lon": 0.0, "lat": 38.909574, "is_disabled": 0, "name": "4c1be368079def5bf22cac8bfa6fb55b", "fusion_lat": 0.0, "rental_uris": {"ios": "https://dc.lft.to/lastmile_qr_scan", "android": "https://dc.lft.to/lastmile_qr_scan"}, "lon": -77.0316525, "type": "electric_scooter"}, {"bike_id": "b3e9afd94192c097d7534dce11afc71e", "is_reserved": 0, "fusion_lon": 0.0, "lat": 38.8797945, "is_disabled": 0, "name": "b3e9afd94192c097d7534dce11afc71e", "fusion_lat": 0.0, "rental_uris": {"ios": "https://dc.lft.to/lastmile_qr_scan", "android": "https://dc.lft.to/lastmile_qr_scan"}, "lon": -76.915979, "type": "electric_bike"}, {"bike_id": "54f189fad290fb2de0cb534c5228a680", "is_reserved": 0, "fusion_lon": 0.0, "lat": 38.905719166666664, "is_disabled": 0, "name": "54f189fad290fb2de0cb534c5228a680", "fusion_lat": 0.0, "rental_uris": {"ios": "https://dc.lft.to/lastmile_qr_scan", "android": "https://dc.lft.to/lastmile_qr_scan"}, "lon": -77.03830583333334, "type": "electric_scooter"}, {"bike_id": "6290c0212e6029cc03fb0d4255b5f66c", "is_reserved": 0, "fusion_lon": 0.0, "lat": 38.911805333333334, "is_disabled": 0, "name": "6290c0212e6029cc03fb0d4255b5f66c", "fusion_lat": 0.0, "rental_uris": {"ios": "https://dc.lft.to/lastmile_qr_scan", "android": "https://dc.lft.to/lastmile_qr_scan"}, "lon": -77.0454435, "type": "electric_scooter"}, {"bike_id": "e42ac06adffd4631f885f73b1d1166af", "is_reserved": 0, "fusion_lon": 0.0, "lat": 38.9460105, "is_disabled": 0, "name": "e42ac06adffd4631f885f73b1d1166af", "fusion_lat": 0.0, "rental_uris": {"ios": "https://dc.lft.to/lastmile_qr_scan", "android": "https://dc.lft.to/lastmile_qr_scan"}, "lon": -77.02978883333333, "type": "electric_scooter"}, {"bike_id": "4accd3aa136e98ff70a0b4e9098e385d", "is_reserved": 0, "fusion_lon": 0.0, "lat": 38.8922255, "is_disabled": 0, "name": "4accd3aa136e98ff70a0b4e9098e385d", "fusion_lat": 0.0, "rental_uris": {"ios": "https://dc.lft.to/lastmile_qr_scan", "android": "https://dc.lft.to/lastmile_qr_scan"}, "lon": -77.03984616666666, "type": "electric_scooter"}, {"bike_id": "cfccf30c8d679c074de9324ddb008e33", "is_reserved": 0, "fusion_lon": 0.0, "lat": 38.89223766666667, "is_disabled": 0, "name": "cfccf30c8d679c074de9324ddb008e33", "fusion_lat": 0.0, "rental_uris": {"ios": "https://dc.lft.to/lastmile_qr_scan", "android": "https://dc.lft.to/lastmile_qr_scan"}, "lon": -77.0486185, "type": "electric_scooter"}, {"bike_id": "d5cede5da768135bc80205d3d3e13cd2", "is_reserved": 0, "fusion_lon": 0.0, "lat": 38.8543895, "is_disabled": 0, "name": "d5cede5da768135bc80205d3d3e13cd2", "fusion_lat": 0.0, "rental_uris": {"ios": "https://dc.lft.to/lastmile_qr_scan", "android": "https://dc.lft.to/lastmile_qr_scan"}, "lon": -76.90980633333334, "type": "electric_bike"}, {"bike_id": "ddbc576bffae6b540139888da1fb3a1d", "is_reserved": 0, "fusion_lon": 0.0, "lat": 38.877443166666666, "is_disabled": 0, "name": "ddbc576bffae6b540139888da1fb3a1d", "fusion_lat": 0.0, "rental_uris": {"ios": "https://dc.lft.to/lastmile_qr_scan", "android": "https://dc.lft.to/lastmile_qr_scan"}, "lon": -76.98058416666667, "type": "electric_bike"}, {"bike_id": "9f0f7c7b5017d04208a8e6fc2b27dd34", "is_reserved": 0, "fusion_lon": 0.0, "lat": 38.886017833333334, "is_disabled": 0, "name": "9f0f7c7b5017d04208a8e6fc2b27dd34", "fusion_lat": 0.0, "rental_uris": {"ios": "https://dc.lft.to/lastmile_qr_scan", "android": "https://dc.lft.to/lastmile_qr_scan"}, "lon": -77.00565066666667, "type": "electric_scooter"}, {"bike_id": "eb317e31b7add61842dbc0ecfc4c76e1", "is_reserved": 0, "fusion_lon": 0.0, "lat": 38.911926, "is_disabled": 0, "name": "eb317e31b7add61842dbc0ecfc4c76e1", "fusion_lat": 0.0, "rental_uris": {"ios": "https://dc.lft.to/lastmile_qr_scan", "android": "https://dc.lft.to/lastmile_qr_scan"}, "lon": -77.06097166666666, "type": "electric_scooter"}, {"bike_id": "7115ffb0070cbcf359251ae1a5fcdba0", "is_reserved": 0, "fusion_lon": 0.0, "lat": 38.81051716666666, "is_disabled": 0, "name": "7115ffb0070cbcf359251ae1a5fcdba0", "fusion_lat": 0.0, "rental_uris": {"ios": "https://dc.lft.to/lastmile_qr_scan", "android": "https://dc.lft.to/lastmile_qr_scan"}, "lon": -77.08508233333333, "type": "electric_bike"}, {"bike_id": "f651f8e99dbe49cb9a31ddaa4f6d8cc5", "is_reserved": 0, "fusion_lon": 0.0, "lat": 38.844262666666665, "is_disabled": 0, "name": "f651f8e99dbe49cb9a31ddaa4f6d8cc5", "fusion_lat": 0.0, "rental_uris": {"ios": "https://dc.lft.to/lastmile_qr_scan", "android": "https://dc.lft.to/lastmile_qr_scan"}, "lon": -76.99778416666666, "type": "electric_scooter"}, {"bike_id": "3351baec7e04820e0aec1ff60cd4bc6b", "is_reserved": 0, "fusion_lon": 0.0, "lat": 38.914423666666664, "is_disabled": 0, "name": "3351baec7e04820e0aec1ff60cd4bc6b", "fusion_lat": 0.0, "rental_uris": {"ios": "https://dc.lft.to/lastmile_qr_scan", "android": "https://dc.lft.to/lastmile_qr_scan"}, "lon": -77.03465783333333, "type": "electric_scooter"}, {"bike_id": "fb3cfec201763e69030344107b63ee40", "is_reserved": 0, "fusion_lon": 0.0, "lat": 38.93493733333333, "is_disabled": 0, "name": "fb3cfec201763e69030344107b63ee40", "fusion_lat": 0.0, "rental_uris": {"ios": "https://dc.lft.to/lastmile_qr_scan", "android": "https://dc.lft.to/lastmile_qr_scan"}, "lon": -77.02843616666667, "type": "electric_scooter"}, {"bike_id": "216bc4f5ace5aa8d54b066bcc8959d4a", "is_reserved": 0, "fusion_lon": 0.0, "lat": 38.903230666666666, "is_disabled": 0, "name": "216bc4f5ace5aa8d54b066bcc8959d4a", "fusion_lat": 0.0, "rental_uris": {"ios": "https://dc.lft.to/lastmile_qr_scan", "android": "https://dc.lft.to/lastmile_qr_scan"}, "lon": -77.03322083333333, "type": "electric_scooter"}, {"bike_id": "20d8ce889da0e1379ae830e78079e6b1", "is_reserved": 0, "fusion_lon": 0.0, "lat": 38.89732716666666, "is_disabled": 0, "name": "20d8ce889da0e1379ae830e78079e6b1", "fusion_lat": 0.0, "rental_uris": {"ios": "https://dc.lft.to/lastmile_qr_scan", "android": "https://dc.lft.to/lastmile_qr_scan"}, "lon": -77.055756, "type": "electric_scooter"}, {"bike_id": "3145daa3539019cda87d00fec0947dc1", "is_reserved": 0, "fusion_lon": 0.0, "lat": 38.903780166666664, "is_disabled": 0, "name": "3145daa3539019cda87d00fec0947dc1", "fusion_lat": 0.0, "rental_uris": {"ios": "https://dc.lft.to/lastmile_qr_scan", "android": "https://dc.lft.to/lastmile_qr_scan"}, "lon": -77.04488583333334, "type": "electric_scooter"}, {"bike_id": "f0327beb8e1f32ab7e9508db4d41ea45", "is_reserved": 0, "fusion_lon": 0.0, "lat": 38.888485, "is_disabled": 0, "name": "f0327beb8e1f32ab7e9508db4d41ea45", "fusion_lat": 0.0, "rental_uris": {"ios": "https://dc.lft.to/lastmile_qr_scan", "android": "https://dc.lft.to/lastmile_qr_scan"}, "lon": -76.92681916666666, "type": "electric_scooter"}, {"bike_id": "268387811a0a129904c31752023d33ae", "is_reserved": 0, "fusion_lon": 0.0, "lat": 38.949709666666664, "is_disabled": 0, "name": "268387811a0a129904c31752023d33ae", "fusion_lat": 0.0, "rental_uris": {"ios": "https://dc.lft.to/lastmile_qr_scan", "android": "https://dc.lft.to/lastmile_qr_scan"}, "lon": -76.97286416666667, "type": "electric_bike"}, {"bike_id": "81464b8b5b2845760aa3b10f7ae85ca0", "is_reserved": 0, "fusion_lon": 0.0, "lat": 38.90376416666667, "is_disabled": 0, "name": "81464b8b5b2845760aa3b10f7ae85ca0", "fusion_lat": 0.0, "rental_uris": {"ios": "https://dc.lft.to/lastmile_qr_scan", "android": "https://dc.lft.to/lastmile_qr_scan"}, "lon": -76.99565633333333, "type": "electric_scooter"}, {"bike_id": "fd2f5842076658411326e8de88fda592", "is_reserved": 0, "fusion_lon": 0.0, "lat": 38.8875445, "is_disabled": 0, "name": "fd2f5842076658411326e8de88fda592", "fusion_lat": 0.0, "rental_uris": {"ios": "https://dc.lft.to/lastmile_qr_scan", "android": "https://dc.lft.to/lastmile_qr_scan"}, "lon": -77.03154483333333, "type": "electric_scooter"}, {"bike_id": "fd40ea184524f04bf1817f1629260ea3", "is_reserved": 0, "fusion_lon": 0.0, "lat": 38.86617866666667, "is_disabled": 0, "name": "fd40ea184524f04bf1817f1629260ea3", "fusion_lat": 0.0, "rental_uris": {"ios": "https://dc.lft.to/lastmile_qr_scan", "android": "https://dc.lft.to/lastmile_qr_scan"}, "lon": -76.94573683333333, "type": "electric_bike"}, {"bike_id": "f15dd2c021f6110037ac54c209dd95b6", "is_reserved": 0, "fusion_lon": 0.0, "lat": 38.94805133333333, "is_disabled": 0, "name": "f15dd2c021f6110037ac54c209dd95b6", "fusion_lat": 0.0, "rental_uris": {"ios": "https://dc.lft.to/lastmile_qr_scan", "android": "https://dc.lft.to/lastmile_qr_scan"}, "lon": -77.079122, "type": "electric_scooter"}, {"bike_id": "8312a417985dff7b7846478711bacb61", "is_reserved": 0, "fusion_lon": 0.0, "lat": 38.860097833333334, "is_disabled": 0, "name": "8312a417985dff7b7846478711bacb61", "fusion_lat": 0.0, "rental_uris": {"ios": "https://dc.lft.to/lastmile_qr_scan", "android": "https://dc.lft.to/lastmile_qr_scan"}, "lon": -77.057704, "type": "electric_bike"}, {"bike_id": "278e657a5192c57810213945caef5726", "is_reserved": 0, "fusion_lon": 0.0, "lat": 38.9325445, "is_disabled": 0, "name": "278e657a5192c57810213945caef5726", "fusion_lat": 0.0, "rental_uris": {"ios": "https://dc.lft.to/lastmile_qr_scan", "android": "https://dc.lft.to/lastmile_qr_scan"}, "lon": -77.03273833333333, "type": "electric_scooter"}, {"bike_id": "c0c6ccd469825d21e5421142dd95a511", "is_reserved": 0, "fusion_lon": 0.0, "lat": 38.9052965, "is_disabled": 0, "name": "c0c6ccd469825d21e5421142dd95a511", "fusion_lat": 0.0, "rental_uris": {"ios": "https://dc.lft.to/lastmile_qr_scan", "android": "https://dc.lft.to/lastmile_qr_scan"}, "lon": -77.0513175, "type": "electric_scooter"}, {"bike_id": "5ed1ca3cd191f127bde915a83036af96", "is_reserved": 0, "fusion_lon": 0.0, "lat": 38.90082266666667, "is_disabled": 0, "name": "5ed1ca3cd191f127bde915a83036af96", "fusion_lat": 0.0, "rental_uris": {"ios": "https://dc.lft.to/lastmile_qr_scan", "android": "https://dc.lft.to/lastmile_qr_scan"}, "lon": -76.93863733333333, "type": "electric_scooter"}, {"bike_id": "618381a0fc251a71f3eea8efb953d241", "is_reserved": 0, "fusion_lon": 0.0, "lat": 38.919643, "is_disabled": 0, "name": "618381a0fc251a71f3eea8efb953d241", "fusion_lat": 0.0, "rental_uris": {"ios": "https://dc.lft.to/lastmile_qr_scan", "android": "https://dc.lft.to/lastmile_qr_scan"}, "lon": -77.03180066666667, "type": "electric_scooter"}, {"bike_id": "e205ada39761b5d9325e4005752b86b6", "is_reserved": 0, "fusion_lon": 0.0, "lat": 38.90573716666667, "is_disabled": 0, "name": "e205ada39761b5d9325e4005752b86b6", "fusion_lat": 0.0, "rental_uris": {"ios": "https://dc.lft.to/lastmile_qr_scan", "android": "https://dc.lft.to/lastmile_qr_scan"}, "lon": -77.03071816666667, "type": "electric_scooter"}, {"bike_id": "06a9c63f7c68e870e3443f5f41dcd959", "is_reserved": 0, "fusion_lon": 0.0, "lat": 38.865234666666666, "is_disabled": 0, "name": "06a9c63f7c68e870e3443f5f41dcd959", "fusion_lat": 0.0, "rental_uris": {"ios": "https://dc.lft.to/lastmile_qr_scan", "android": "https://dc.lft.to/lastmile_qr_scan"}, "lon": -76.9902685, "type": "electric_scooter"}, {"bike_id": "85642484e421e70b2995028437cbc5c3", "is_reserved": 0, "fusion_lon": 0.0, "lat": 38.914555166666666, "is_disabled": 0, "name": "85642484e421e70b2995028437cbc5c3", "fusion_lat": 0.0, "rental_uris": {"ios": "https://dc.lft.to/lastmile_qr_scan", "android": "https://dc.lft.to/lastmile_qr_scan"}, "lon": -77.02181566666667, "type": "electric_scooter"}, {"bike_id": "69071c7f3ed6e994bc91c75152a74160", "is_reserved": 0, "fusion_lon": 0.0, "lat": 38.920882166666665, "is_disabled": 0, "name": "69071c7f3ed6e994bc91c75152a74160", "fusion_lat": 0.0, "rental_uris": {"ios": "https://dc.lft.to/lastmile_qr_scan", "android": "https://dc.lft.to/lastmile_qr_scan"}, "lon": -77.02409133333333, "type": "electric_scooter"}, {"bike_id": "1277a515ad4d208023c6598cf6a08944", "is_reserved": 0, "fusion_lon": 0.0, "lat": 38.900164, "is_disabled": 0, "name": "1277a515ad4d208023c6598cf6a08944", "fusion_lat": 0.0, "rental_uris": {"ios": "https://dc.lft.to/lastmile_qr_scan", "android": "https://dc.lft.to/lastmile_qr_scan"}, "lon": -76.9974565, "type": "electric_scooter"}, {"bike_id": "36998792de2b1272d9e504e9c845a029", "is_reserved": 0, "fusion_lon": 0.0, "lat": 38.911203, "is_disabled": 0, "name": "36998792de2b1272d9e504e9c845a029", "fusion_lat": 0.0, "rental_uris": {"ios": "https://dc.lft.to/lastmile_qr_scan", "android": "https://dc.lft.to/lastmile_qr_scan"}, "lon": -77.03841133333333, "type": "electric_scooter"}, {"bike_id": "1b64e0e356de5fe8d5ef1c75300e3902", "is_reserved": 0, "fusion_lon": 0.0, "lat": 38.901031, "is_disabled": 0, "name": "1b64e0e356de5fe8d5ef1c75300e3902", "fusion_lat": 0.0, "rental_uris": {"ios": "https://dc.lft.to/lastmile_qr_scan", "android": "https://dc.lft.to/lastmile_qr_scan"}, "lon": -77.0316605, "type": "electric_scooter"}, {"bike_id": "a530d92487dc6f0ea17f513be456726a", "is_reserved": 0, "fusion_lon": 0.0, "lat": 38.871403666666666, "is_disabled": 0, "name": "a530d92487dc6f0ea17f513be456726a", "fusion_lat": 0.0, "rental_uris": {"ios": "https://dc.lft.to/lastmile_qr_scan", "android": "https://dc.lft.to/lastmile_qr_scan"}, "lon": -76.97738483333333, "type": "electric_scooter"}, {"bike_id": "7f28576818dc1d28437ad4676388ca1f", "is_reserved": 0, "fusion_lon": 0.0, "lat": 38.85874533333333, "is_disabled": 0, "name": "7f28576818dc1d28437ad4676388ca1f", "fusion_lat": 0.0, "rental_uris": {"ios": "https://dc.lft.to/lastmile_qr_scan", "android": "https://dc.lft.to/lastmile_qr_scan"}, "lon": -77.0956415, "type": "electric_bike"}, {"bike_id": "ac7508d20ae9137149c6667dbdbf03e8", "is_reserved": 0, "fusion_lon": 0.0, "lat": 38.91126783333333, "is_disabled": 0, "name": "ac7508d20ae9137149c6667dbdbf03e8", "fusion_lat": 0.0, "rental_uris": {"ios": "https://dc.lft.to/lastmile_qr_scan", "android": "https://dc.lft.to/lastmile_qr_scan"}, "lon": -77.02194416666667, "type": "electric_scooter"}, {"bike_id": "52e75400a328bccd8ac9787ee4f93a33", "is_reserved": 0, "fusion_lon": 0.0, "lat": 38.887181166666664, "is_disabled": 0, "name": "52e75400a328bccd8ac9787ee4f93a33", "fusion_lat": 0.0, "rental_uris": {"ios": "https://dc.lft.to/lastmile_qr_scan", "android": "https://dc.lft.to/lastmile_qr_scan"}, "lon": -77.02578633333333, "type": "electric_scooter"}, {"bike_id": "edee71e46b9653b50fb9460b28f08acb", "is_reserved": 0, "fusion_lon": 0.0, "lat": 38.8637365, "is_disabled": 0, "name": "edee71e46b9653b50fb9460b28f08acb", "fusion_lat": 0.0, "rental_uris": {"ios": "https://dc.lft.to/lastmile_qr_scan", "android": "https://dc.lft.to/lastmile_qr_scan"}, "lon": -76.9906135, "type": "electric_scooter"}, {"bike_id": "98453b4e3b846406d06ef4b238c2d611", "is_reserved": 0, "fusion_lon": 0.0, "lat": 38.8529085, "is_disabled": 0, "name": "98453b4e3b846406d06ef4b238c2d611", "fusion_lat": 0.0, "rental_uris": {"ios": "https://dc.lft.to/lastmile_qr_scan", "android": "https://dc.lft.to/lastmile_qr_scan"}, "lon": -77.05278183333333, "type": "electric_bike"}, {"bike_id": "8270067587f9415b53327eb4b071f017", "is_reserved": 0, "fusion_lon": 0.0, "lat": 38.924774166666666, "is_disabled": 0, "name": "8270067587f9415b53327eb4b071f017", "fusion_lat": 0.0, "rental_uris": {"ios": "https://dc.lft.to/lastmile_qr_scan", "android": "https://dc.lft.to/lastmile_qr_scan"}, "lon": -77.05210916666667, "type": "electric_scooter"}, {"bike_id": "8bdc9b8e7b73bdf12f4a3f899850339c", "is_reserved": 0, "fusion_lon": 0.0, "lat": 38.927658666666666, "is_disabled": 0, "name": "8bdc9b8e7b73bdf12f4a3f899850339c", "fusion_lat": 0.0, "rental_uris": {"ios": "https://dc.lft.to/lastmile_qr_scan", "android": "https://dc.lft.to/lastmile_qr_scan"}, "lon": -77.03246766666666, "type": "electric_scooter"}, {"bike_id": "6399b23812041f8424d3f37cd0eb4a68", "is_reserved": 0, "fusion_lon": 0.0, "lat": 38.93163083333334, "is_disabled": 0, "name": "6399b23812041f8424d3f37cd0eb4a68", "fusion_lat": 0.0, "rental_uris": {"ios": "https://dc.lft.to/lastmile_qr_scan", "android": "https://dc.lft.to/lastmile_qr_scan"}, "lon": -77.05645833333334, "type": "electric_scooter"}, {"bike_id": "fe98facbd898f8e7e759e4aee2b86dee", "is_reserved": 0, "fusion_lon": 0.0, "lat": 38.88772483333333, "is_disabled": 0, "name": "fe98facbd898f8e7e759e4aee2b86dee", "fusion_lat": 0.0, "rental_uris": {"ios": "https://dc.lft.to/lastmile_qr_scan", "android": "https://dc.lft.to/lastmile_qr_scan"}, "lon": -76.93268333333333, "type": "electric_scooter"}, {"bike_id": "a62888aaaae814fb626c3d4cb79b2b13", "is_reserved": 0, "fusion_lon": 0.0, "lat": 38.89973283333333, "is_disabled": 0, "name": "a62888aaaae814fb626c3d4cb79b2b13", "fusion_lat": 0.0, "rental_uris": {"ios": "https://dc.lft.to/lastmile_qr_scan", "android": "https://dc.lft.to/lastmile_qr_scan"}, "lon": -77.015543, "type": "electric_scooter"}, {"bike_id": "d59eaab027623e8209728846e054b04b", "is_reserved": 0, "fusion_lon": 0.0, "lat": 38.909436, "is_disabled": 0, "name": "d59eaab027623e8209728846e054b04b", "fusion_lat": 0.0, "rental_uris": {"ios": "https://dc.lft.to/lastmile_qr_scan", "android": "https://dc.lft.to/lastmile_qr_scan"}, "lon": -77.03850033333333, "type": "electric_scooter"}, {"bike_id": "cd5d34791c304c8fa6524e9fd95c00cb", "is_reserved": 0, "fusion_lon": 0.0, "lat": 38.887797166666665, "is_disabled": 0, "name": "cd5d34791c304c8fa6524e9fd95c00cb", "fusion_lat": 0.0, "rental_uris": {"ios": "https://dc.lft.to/lastmile_qr_scan", "android": "https://dc.lft.to/lastmile_qr_scan"}, "lon": -76.95530333333333, "type": "electric_scooter"}, {"bike_id": "66d5b12cfc25a712a4912a2d2e6f5c6f", "is_reserved": 0, "fusion_lon": 0.0, "lat": 38.89680366666666, "is_disabled": 0, "name": "66d5b12cfc25a712a4912a2d2e6f5c6f", "fusion_lat": 0.0, "rental_uris": {"ios": "https://dc.lft.to/lastmile_qr_scan", "android": "https://dc.lft.to/lastmile_qr_scan"}, "lon": -77.02599133333334, "type": "electric_scooter"}, {"bike_id": "99bb4ba618d9da19202d57a1fd3d0ad4", "is_reserved": 0, "fusion_lon": 0.0, "lat": 38.9037315, "is_disabled": 0, "name": "99bb4ba618d9da19202d57a1fd3d0ad4", "fusion_lat": 0.0, "rental_uris": {"ios": "https://dc.lft.to/lastmile_qr_scan", "android": "https://dc.lft.to/lastmile_qr_scan"}, "lon": -77.045691, "type": "electric_scooter"}, {"bike_id": "4f7517623b59c0caf7d617fe1fcb9739", "is_reserved": 0, "fusion_lon": 0.0, "lat": 38.90276933333333, "is_disabled": 0, "name": "4f7517623b59c0caf7d617fe1fcb9739", "fusion_lat": 0.0, "rental_uris": {"ios": "https://dc.lft.to/lastmile_qr_scan", "android": "https://dc.lft.to/lastmile_qr_scan"}, "lon": -77.0385875, "type": "electric_scooter"}, {"bike_id": "d98c5f8cc0c7ee52f2375e5f56133289", "is_reserved": 0, "fusion_lon": 0.0, "lat": 38.898421, "is_disabled": 0, "name": "d98c5f8cc0c7ee52f2375e5f56133289", "fusion_lat": 0.0, "rental_uris": {"ios": "https://dc.lft.to/lastmile_qr_scan", "android": "https://dc.lft.to/lastmile_qr_scan"}, "lon": -76.9950245, "type": "electric_scooter"}, {"bike_id": "2d7905a745d4e53c4655f5a5cdc8da9f", "is_reserved": 0, "fusion_lon": 0.0, "lat": 38.89095183333333, "is_disabled": 0, "name": "2d7905a745d4e53c4655f5a5cdc8da9f", "fusion_lat": 0.0, "rental_uris": {"ios": "https://dc.lft.to/lastmile_qr_scan", "android": "https://dc.lft.to/lastmile_qr_scan"}, "lon": -76.943973, "type": "electric_scooter"}, {"bike_id": "e3e958e875586bfe9765a25a41e314c7", "is_reserved": 0, "fusion_lon": 0.0, "lat": 38.89897283333333, "is_disabled": 0, "name": "e3e958e875586bfe9765a25a41e314c7", "fusion_lat": 0.0, "rental_uris": {"ios": "https://dc.lft.to/lastmile_qr_scan", "android": "https://dc.lft.to/lastmile_qr_scan"}, "lon": -77.03969766666667, "type": "electric_scooter"}, {"bike_id": "3835f80d467ffe03f0904be41c862e18", "is_reserved": 0, "fusion_lon": 0.0, "lat": 38.918087666666665, "is_disabled": 0, "name": "3835f80d467ffe03f0904be41c862e18", "fusion_lat": 0.0, "rental_uris": {"ios": "https://dc.lft.to/lastmile_qr_scan", "android": "https://dc.lft.to/lastmile_qr_scan"}, "lon": -77.035778, "type": "electric_scooter"}, {"bike_id": "c7d3c318ae5e7e37f1a3e042273018d5", "is_reserved": 0, "fusion_lon": 0.0, "lat": 38.90973116666667, "is_disabled": 0, "name": "c7d3c318ae5e7e37f1a3e042273018d5", "fusion_lat": 0.0, "rental_uris": {"ios": "https://dc.lft.to/lastmile_qr_scan", "android": "https://dc.lft.to/lastmile_qr_scan"}, "lon": -77.05266916666666, "type": "electric_scooter"}, {"bike_id": "1f27a240c4b74db55500baac3bb8454d", "is_reserved": 0, "fusion_lon": 0.0, "lat": 38.9361055, "is_disabled": 0, "name": "1f27a240c4b74db55500baac3bb8454d", "fusion_lat": 0.0, "rental_uris": {"ios": "https://dc.lft.to/lastmile_qr_scan", "android": "https://dc.lft.to/lastmile_qr_scan"}, "lon": -77.1064455, "type": "electric_bike"}, {"bike_id": "ef96f655a5276731380118d66369398f", "is_reserved": 0, "fusion_lon": 0.0, "lat": 38.92368866666666, "is_disabled": 0, "name": "ef96f655a5276731380118d66369398f", "fusion_lat": 0.0, "rental_uris": {"ios": "https://dc.lft.to/lastmile_qr_scan", "android": "https://dc.lft.to/lastmile_qr_scan"}, "lon": -77.01913883333333, "type": "electric_scooter"}, {"bike_id": "cb8a960053816f8a74ecab97aee58c70", "is_reserved": 0, "fusion_lon": 0.0, "lat": 38.92762466666667, "is_disabled": 0, "name": "cb8a960053816f8a74ecab97aee58c70", "fusion_lat": 0.0, "rental_uris": {"ios": "https://dc.lft.to/lastmile_qr_scan", "android": "https://dc.lft.to/lastmile_qr_scan"}, "lon": -77.02776616666667, "type": "electric_scooter"}, {"bike_id": "dcdcb0795e0b41c6a680361488ff76dd", "is_reserved": 0, "fusion_lon": 0.0, "lat": 38.900864166666665, "is_disabled": 0, "name": "dcdcb0795e0b41c6a680361488ff76dd", "fusion_lat": 0.0, "rental_uris": {"ios": "https://dc.lft.to/lastmile_qr_scan", "android": "https://dc.lft.to/lastmile_qr_scan"}, "lon": -76.9387665, "type": "electric_scooter"}, {"bike_id": "e4756197d34bfa4f79f2e108dac288dd", "is_reserved": 0, "fusion_lon": 0.0, "lat": 38.924754166666666, "is_disabled": 0, "name": "e4756197d34bfa4f79f2e108dac288dd", "fusion_lat": 0.0, "rental_uris": {"ios": "https://dc.lft.to/lastmile_qr_scan", "android": "https://dc.lft.to/lastmile_qr_scan"}, "lon": -77.0521605, "type": "electric_scooter"}, {"bike_id": "1e84496374dce1a3e04f5ec239cb9729", "is_reserved": 0, "fusion_lon": 0.0, "lat": 38.884336166666664, "is_disabled": 0, "name": "1e84496374dce1a3e04f5ec239cb9729", "fusion_lat": 0.0, "rental_uris": {"ios": "https://dc.lft.to/lastmile_qr_scan", "android": "https://dc.lft.to/lastmile_qr_scan"}, "lon": -76.9574895, "type": "electric_scooter"}, {"bike_id": "fd78c93acc205e926df8584bcbd97e26", "is_reserved": 0, "fusion_lon": 0.0, "lat": 38.899066166666664, "is_disabled": 0, "name": "fd78c93acc205e926df8584bcbd97e26", "fusion_lat": 0.0, "rental_uris": {"ios": "https://dc.lft.to/lastmile_qr_scan", "android": "https://dc.lft.to/lastmile_qr_scan"}, "lon": -76.9335185, "type": "electric_scooter"}, {"bike_id": "35e4a8073133988a45ac2c8897c01c40", "is_reserved": 0, "fusion_lon": 0.0, "lat": 38.9126105, "is_disabled": 0, "name": "35e4a8073133988a45ac2c8897c01c40", "fusion_lat": 0.0, "rental_uris": {"ios": "https://dc.lft.to/lastmile_qr_scan", "android": "https://dc.lft.to/lastmile_qr_scan"}, "lon": -77.03125933333334, "type": "electric_scooter"}, {"bike_id": "57bcacdb971014523b052e44889a5c78", "is_reserved": 0, "fusion_lon": 0.0, "lat": 38.905572666666664, "is_disabled": 0, "name": "57bcacdb971014523b052e44889a5c78", "fusion_lat": 0.0, "rental_uris": {"ios": "https://dc.lft.to/lastmile_qr_scan", "android": "https://dc.lft.to/lastmile_qr_scan"}, "lon": -77.00586866666667, "type": "electric_scooter"}, {"bike_id": "76ee72a3165ef2cbffaf5d75be2a79c6", "is_reserved": 0, "fusion_lon": 0.0, "lat": 38.9206335, "is_disabled": 0, "name": "76ee72a3165ef2cbffaf5d75be2a79c6", "fusion_lat": 0.0, "rental_uris": {"ios": "https://dc.lft.to/lastmile_qr_scan", "android": "https://dc.lft.to/lastmile_qr_scan"}, "lon": -77.04256283333333, "type": "electric_scooter"}, {"bike_id": "6a57ca365a4a69bfa24cc22f177603b6", "is_reserved": 0, "fusion_lon": 0.0, "lat": 38.95479266666667, "is_disabled": 0, "name": "6a57ca365a4a69bfa24cc22f177603b6", "fusion_lat": 0.0, "rental_uris": {"ios": "https://dc.lft.to/lastmile_qr_scan", "android": "https://dc.lft.to/lastmile_qr_scan"}, "lon": -77.082399, "type": "electric_bike"}, {"bike_id": "7d35ab37fc8cf8c549501491d0bbdb4c", "is_reserved": 0, "fusion_lon": 0.0, "lat": 38.897581, "is_disabled": 0, "name": "7d35ab37fc8cf8c549501491d0bbdb4c", "fusion_lat": 0.0, "rental_uris": {"ios": "https://dc.lft.to/lastmile_qr_scan", "android": "https://dc.lft.to/lastmile_qr_scan"}, "lon": -76.94185516666667, "type": "electric_scooter"}, {"bike_id": "93b458a8d61bb0fd45ee4841d5a21cde", "is_reserved": 0, "fusion_lon": 0.0, "lat": 38.90456016666667, "is_disabled": 0, "name": "93b458a8d61bb0fd45ee4841d5a21cde", "fusion_lat": 0.0, "rental_uris": {"ios": "https://dc.lft.to/lastmile_qr_scan", "android": "https://dc.lft.to/lastmile_qr_scan"}, "lon": -77.04878783333334, "type": "electric_scooter"}, {"bike_id": "504d09342688a3b185d5333228ec0786", "is_reserved": 0, "fusion_lon": 0.0, "lat": 38.920917333333335, "is_disabled": 0, "name": "504d09342688a3b185d5333228ec0786", "fusion_lat": 0.0, "rental_uris": {"ios": "https://dc.lft.to/lastmile_qr_scan", "android": "https://dc.lft.to/lastmile_qr_scan"}, "lon": -77.02592533333333, "type": "electric_scooter"}, {"bike_id": "8232028775af84c41b2c2494c207d611", "is_reserved": 0, "fusion_lon": 0.0, "lat": 38.93151016666667, "is_disabled": 0, "name": "8232028775af84c41b2c2494c207d611", "fusion_lat": 0.0, "rental_uris": {"ios": "https://dc.lft.to/lastmile_qr_scan", "android": "https://dc.lft.to/lastmile_qr_scan"}, "lon": -77.03834933333333, "type": "electric_scooter"}, {"bike_id": "52a7c07c4b1b71fc1ac06f9958fec0da", "is_reserved": 0, "fusion_lon": 0.0, "lat": 38.925890333333335, "is_disabled": 0, "name": "52a7c07c4b1b71fc1ac06f9958fec0da", "fusion_lat": 0.0, "rental_uris": {"ios": "https://dc.lft.to/lastmile_qr_scan", "android": "https://dc.lft.to/lastmile_qr_scan"}, "lon": -77.00556466666667, "type": "electric_scooter"}, {"bike_id": "de72c5281378e32f8c4a3e3e6bc0d0e0", "is_reserved": 0, "fusion_lon": 0.0, "lat": 38.892292833333336, "is_disabled": 0, "name": "de72c5281378e32f8c4a3e3e6bc0d0e0", "fusion_lat": 0.0, "rental_uris": {"ios": "https://dc.lft.to/lastmile_qr_scan", "android": "https://dc.lft.to/lastmile_qr_scan"}, "lon": -77.02179333333333, "type": "electric_scooter"}, {"bike_id": "764b1166eaf52e51780ba08640450b80", "is_reserved": 0, "fusion_lon": 0.0, "lat": 38.91692616666667, "is_disabled": 0, "name": "764b1166eaf52e51780ba08640450b80", "fusion_lat": 0.0, "rental_uris": {"ios": "https://dc.lft.to/lastmile_qr_scan", "android": "https://dc.lft.to/lastmile_qr_scan"}, "lon": -77.02598383333333, "type": "electric_scooter"}, {"bike_id": "37eed9066801b0ab742c840dfd891bf6", "is_reserved": 0, "fusion_lon": 0.0, "lat": 38.93702583333334, "is_disabled": 0, "name": "37eed9066801b0ab742c840dfd891bf6", "fusion_lat": 0.0, "rental_uris": {"ios": "https://dc.lft.to/lastmile_qr_scan", "android": "https://dc.lft.to/lastmile_qr_scan"}, "lon": -77.02414383333333, "type": "electric_scooter"}, {"bike_id": "94a6fc991c27064ff0962e376728c585", "is_reserved": 0, "fusion_lon": 0.0, "lat": 38.924801, "is_disabled": 0, "name": "94a6fc991c27064ff0962e376728c585", "fusion_lat": 0.0, "rental_uris": {"ios": "https://dc.lft.to/lastmile_qr_scan", "android": "https://dc.lft.to/lastmile_qr_scan"}, "lon": -77.03494016666667, "type": "electric_scooter"}, {"bike_id": "1c11c90ebc1ca7178da41aa15eefa3c9", "is_reserved": 0, "fusion_lon": 0.0, "lat": 38.92712233333334, "is_disabled": 0, "name": "1c11c90ebc1ca7178da41aa15eefa3c9", "fusion_lat": 0.0, "rental_uris": {"ios": "https://dc.lft.to/lastmile_qr_scan", "android": "https://dc.lft.to/lastmile_qr_scan"}, "lon": -77.04099783333334, "type": "electric_scooter"}, {"bike_id": "5d1e194a67e1f833edd91c9543b00fd1", "is_reserved": 0, "fusion_lon": 0.0, "lat": 38.885301, "is_disabled": 0, "name": "5d1e194a67e1f833edd91c9543b00fd1", "fusion_lat": 0.0, "rental_uris": {"ios": "https://dc.lft.to/lastmile_qr_scan", "android": "https://dc.lft.to/lastmile_qr_scan"}, "lon": -77.005805, "type": "electric_scooter"}, {"bike_id": "443df24c530621e68caf2414b20b1c25", "is_reserved": 0, "fusion_lon": 0.0, "lat": 38.904679, "is_disabled": 0, "name": "443df24c530621e68caf2414b20b1c25", "fusion_lat": 0.0, "rental_uris": {"ios": "https://dc.lft.to/lastmile_qr_scan", "android": "https://dc.lft.to/lastmile_qr_scan"}, "lon": -77.029398, "type": "electric_scooter"}, {"bike_id": "64b05f617f0987cc421888152b978202", "is_reserved": 0, "fusion_lon": 0.0, "lat": 38.868268, "is_disabled": 0, "name": "64b05f617f0987cc421888152b978202", "fusion_lat": 0.0, "rental_uris": {"ios": "https://dc.lft.to/lastmile_qr_scan", "android": "https://dc.lft.to/lastmile_qr_scan"}, "lon": -76.98615683333334, "type": "electric_scooter"}, {"bike_id": "2ccc29eb8ee1cee5f5dcb05f628501ec", "is_reserved": 0, "fusion_lon": 0.0, "lat": 38.90706483333334, "is_disabled": 0, "name": "2ccc29eb8ee1cee5f5dcb05f628501ec", "fusion_lat": 0.0, "rental_uris": {"ios": "https://dc.lft.to/lastmile_qr_scan", "android": "https://dc.lft.to/lastmile_qr_scan"}, "lon": -76.98702566666667, "type": "electric_scooter"}, {"bike_id": "1eb59524fb5f02a54be104093faacc82", "is_reserved": 0, "fusion_lon": 0.0, "lat": 38.91216333333333, "is_disabled": 0, "name": "1eb59524fb5f02a54be104093faacc82", "fusion_lat": 0.0, "rental_uris": {"ios": "https://dc.lft.to/lastmile_qr_scan", "android": "https://dc.lft.to/lastmile_qr_scan"}, "lon": -77.02801416666667, "type": "electric_scooter"}, {"bike_id": "04cf4687003c3c7a399566fbdb9ebedc", "is_reserved": 0, "fusion_lon": 0.0, "lat": 38.898349333333336, "is_disabled": 0, "name": "04cf4687003c3c7a399566fbdb9ebedc", "fusion_lat": 0.0, "rental_uris": {"ios": "https://dc.lft.to/lastmile_qr_scan", "android": "https://dc.lft.to/lastmile_qr_scan"}, "lon": -76.94635983333333, "type": "electric_scooter"}, {"bike_id": "01b3b9c2cf8e9fbd3a68566cd778399b", "is_reserved": 0, "fusion_lon": 0.0, "lat": 38.917730166666665, "is_disabled": 0, "name": "01b3b9c2cf8e9fbd3a68566cd778399b", "fusion_lat": 0.0, "rental_uris": {"ios": "https://dc.lft.to/lastmile_qr_scan", "android": "https://dc.lft.to/lastmile_qr_scan"}, "lon": -77.01495616666666, "type": "electric_scooter"}, {"bike_id": "7603e572228f4d7a745319377e6c220b", "is_reserved": 0, "fusion_lon": 0.0, "lat": 38.89907933333333, "is_disabled": 0, "name": "7603e572228f4d7a745319377e6c220b", "fusion_lat": 0.0, "rental_uris": {"ios": "https://dc.lft.to/lastmile_qr_scan", "android": "https://dc.lft.to/lastmile_qr_scan"}, "lon": -77.0392185, "type": "electric_scooter"}, {"bike_id": "6df848bcc7442b0a5b3c4b78a11f1bee", "is_reserved": 0, "fusion_lon": 0.0, "lat": 38.866643, "is_disabled": 0, "name": "6df848bcc7442b0a5b3c4b78a11f1bee", "fusion_lat": 0.0, "rental_uris": {"ios": "https://dc.lft.to/lastmile_qr_scan", "android": "https://dc.lft.to/lastmile_qr_scan"}, "lon": -76.98906433333333, "type": "electric_scooter"}, {"bike_id": "660b0ec6916f05ca519172807553e928", "is_reserved": 0, "fusion_lon": 0.0, "lat": 38.93114283333333, "is_disabled": 0, "name": "660b0ec6916f05ca519172807553e928", "fusion_lat": 0.0, "rental_uris": {"ios": "https://dc.lft.to/lastmile_qr_scan", "android": "https://dc.lft.to/lastmile_qr_scan"}, "lon": -77.021328, "type": "electric_scooter"}, {"bike_id": "57286e4996ae5adbf7d4075997ad2f04", "is_reserved": 0, "fusion_lon": 0.0, "lat": 38.91880333333334, "is_disabled": 0, "name": "57286e4996ae5adbf7d4075997ad2f04", "fusion_lat": 0.0, "rental_uris": {"ios": "https://dc.lft.to/lastmile_qr_scan", "android": "https://dc.lft.to/lastmile_qr_scan"}, "lon": -77.04460816666666, "type": "electric_scooter"}, {"bike_id": "76045b9815b26ac59e1f5bab0274a448", "is_reserved": 0, "fusion_lon": 0.0, "lat": 38.96491966666667, "is_disabled": 0, "name": "76045b9815b26ac59e1f5bab0274a448", "fusion_lat": 0.0, "rental_uris": {"ios": "https://dc.lft.to/lastmile_qr_scan", "android": "https://dc.lft.to/lastmile_qr_scan"}, "lon": -77.0649005, "type": "electric_bike"}, {"bike_id": "73ed6db99f0573fe841f78ea8605f333", "is_reserved": 0, "fusion_lon": 0.0, "lat": 38.923159166666665, "is_disabled": 0, "name": "73ed6db99f0573fe841f78ea8605f333", "fusion_lat": 0.0, "rental_uris": {"ios": "https://dc.lft.to/lastmile_qr_scan", "android": "https://dc.lft.to/lastmile_qr_scan"}, "lon": -77.03658166666666, "type": "electric_scooter"}, {"bike_id": "8d0820a044f1d9300694477eed178661", "is_reserved": 0, "fusion_lon": 0.0, "lat": 38.890613, "is_disabled": 0, "name": "8d0820a044f1d9300694477eed178661", "fusion_lat": 0.0, "rental_uris": {"ios": "https://dc.lft.to/lastmile_qr_scan", "android": "https://dc.lft.to/lastmile_qr_scan"}, "lon": -77.02302366666666, "type": "electric_scooter"}, {"bike_id": "2a3556020db1a3c9dac3e62e9ea9495b", "is_reserved": 0, "fusion_lon": 0.0, "lat": 38.884901666666664, "is_disabled": 0, "name": "2a3556020db1a3c9dac3e62e9ea9495b", "fusion_lat": 0.0, "rental_uris": {"ios": "https://dc.lft.to/lastmile_qr_scan", "android": "https://dc.lft.to/lastmile_qr_scan"}, "lon": -77.03473366666667, "type": "electric_scooter"}, {"bike_id": "f1f81982d4d88a9605381331beb8cfe7", "is_reserved": 0, "fusion_lon": 0.0, "lat": 38.90458266666667, "is_disabled": 0, "name": "f1f81982d4d88a9605381331beb8cfe7", "fusion_lat": 0.0, "rental_uris": {"ios": "https://dc.lft.to/lastmile_qr_scan", "android": "https://dc.lft.to/lastmile_qr_scan"}, "lon": -77.05317083333334, "type": "electric_scooter"}, {"bike_id": "4ff9f079f59cfeb7c6c693a9bf668456", "is_reserved": 0, "fusion_lon": 0.0, "lat": 38.910364333333334, "is_disabled": 0, "name": "4ff9f079f59cfeb7c6c693a9bf668456", "fusion_lat": 0.0, "rental_uris": {"ios": "https://dc.lft.to/lastmile_qr_scan", "android": "https://dc.lft.to/lastmile_qr_scan"}, "lon": -77.04388383333334, "type": "electric_scooter"}, {"bike_id": "571e77982f78f5d330792af6e5638c77", "is_reserved": 0, "fusion_lon": 0.0, "lat": 38.900379666666666, "is_disabled": 0, "name": "571e77982f78f5d330792af6e5638c77", "fusion_lat": 0.0, "rental_uris": {"ios": "https://dc.lft.to/lastmile_qr_scan", "android": "https://dc.lft.to/lastmile_qr_scan"}, "lon": -77.00537916666667, "type": "electric_scooter"}, {"bike_id": "31d2bf86c4e0dc847c007d7f77d13067", "is_reserved": 0, "fusion_lon": 0.0, "lat": 38.9097115, "is_disabled": 0, "name": "31d2bf86c4e0dc847c007d7f77d13067", "fusion_lat": 0.0, "rental_uris": {"ios": "https://dc.lft.to/lastmile_qr_scan", "android": "https://dc.lft.to/lastmile_qr_scan"}, "lon": -77.04883616666666, "type": "electric_scooter"}, {"bike_id": "bc2881cee26efecb44de0ed2741036cd", "is_reserved": 0, "fusion_lon": 0.0, "lat": 38.88432933333333, "is_disabled": 0, "name": "bc2881cee26efecb44de0ed2741036cd", "fusion_lat": 0.0, "rental_uris": {"ios": "https://dc.lft.to/lastmile_qr_scan", "android": "https://dc.lft.to/lastmile_qr_scan"}, "lon": -76.95760166666666, "type": "electric_scooter"}, {"bike_id": "3e119557973eee5e0db4c3c75f71e584", "is_reserved": 0, "fusion_lon": 0.0, "lat": 38.9314925, "is_disabled": 0, "name": "3e119557973eee5e0db4c3c75f71e584", "fusion_lat": 0.0, "rental_uris": {"ios": "https://dc.lft.to/lastmile_qr_scan", "android": "https://dc.lft.to/lastmile_qr_scan"}, "lon": -77.057097, "type": "electric_scooter"}, {"bike_id": "30ee56346e06087e5a9c1d01c8b9746e", "is_reserved": 0, "fusion_lon": 0.0, "lat": 38.917459, "is_disabled": 0, "name": "30ee56346e06087e5a9c1d01c8b9746e", "fusion_lat": 0.0, "rental_uris": {"ios": "https://dc.lft.to/lastmile_qr_scan", "android": "https://dc.lft.to/lastmile_qr_scan"}, "lon": -77.007603, "type": "electric_scooter"}, {"bike_id": "11b97761482ef693fce73ce3d16defe6", "is_reserved": 0, "fusion_lon": 0.0, "lat": 38.908638333333336, "is_disabled": 0, "name": "11b97761482ef693fce73ce3d16defe6", "fusion_lat": 0.0, "rental_uris": {"ios": "https://dc.lft.to/lastmile_qr_scan", "android": "https://dc.lft.to/lastmile_qr_scan"}, "lon": -76.99941933333334, "type": "electric_scooter"}, {"bike_id": "060b1f4e7386669df8c95c8770130e47", "is_reserved": 0, "fusion_lon": 0.0, "lat": 38.940527333333335, "is_disabled": 0, "name": "060b1f4e7386669df8c95c8770130e47", "fusion_lat": 0.0, "rental_uris": {"ios": "https://dc.lft.to/lastmile_qr_scan", "android": "https://dc.lft.to/lastmile_qr_scan"}, "lon": -77.09271833333334, "type": "electric_scooter"}, {"bike_id": "9ccb16af2fc75b105994eeefa2a398e8", "is_reserved": 0, "fusion_lon": 0.0, "lat": 38.90363816666667, "is_disabled": 0, "name": "9ccb16af2fc75b105994eeefa2a398e8", "fusion_lat": 0.0, "rental_uris": {"ios": "https://dc.lft.to/lastmile_qr_scan", "android": "https://dc.lft.to/lastmile_qr_scan"}, "lon": -77.01904116666667, "type": "electric_scooter"}, {"bike_id": "ebe2223348b4ebff50c3158597fdc08d", "is_reserved": 0, "fusion_lon": 0.0, "lat": 38.9075875, "is_disabled": 0, "name": "ebe2223348b4ebff50c3158597fdc08d", "fusion_lat": 0.0, "rental_uris": {"ios": "https://dc.lft.to/lastmile_qr_scan", "android": "https://dc.lft.to/lastmile_qr_scan"}, "lon": -77.0010425, "type": "electric_scooter"}, {"bike_id": "da4bb68deb6b7e907224210c360670e8", "is_reserved": 0, "fusion_lon": 0.0, "lat": 38.97425766666667, "is_disabled": 0, "name": "da4bb68deb6b7e907224210c360670e8", "fusion_lat": 0.0, "rental_uris": {"ios": "https://dc.lft.to/lastmile_qr_scan", "android": "https://dc.lft.to/lastmile_qr_scan"}, "lon": -77.01527283333333, "type": "electric_scooter"}, {"bike_id": "2bf8d75946913663fece5f4dc70a2399", "is_reserved": 0, "fusion_lon": 0.0, "lat": 38.9032425, "is_disabled": 0, "name": "2bf8d75946913663fece5f4dc70a2399", "fusion_lat": 0.0, "rental_uris": {"ios": "https://dc.lft.to/lastmile_qr_scan", "android": "https://dc.lft.to/lastmile_qr_scan"}, "lon": -77.03849933333333, "type": "electric_scooter"}, {"bike_id": "299ee110cc134971da6d9fa9ce7f5992", "is_reserved": 0, "fusion_lon": 0.0, "lat": 38.91412416666667, "is_disabled": 0, "name": "299ee110cc134971da6d9fa9ce7f5992", "fusion_lat": 0.0, "rental_uris": {"ios": "https://dc.lft.to/lastmile_qr_scan", "android": "https://dc.lft.to/lastmile_qr_scan"}, "lon": -77.04147416666666, "type": "electric_scooter"}, {"bike_id": "31b66e6e4733090713c7dfe2b8e6ea20", "is_reserved": 0, "fusion_lon": 0.0, "lat": 38.9133435, "is_disabled": 0, "name": "31b66e6e4733090713c7dfe2b8e6ea20", "fusion_lat": 0.0, "rental_uris": {"ios": "https://dc.lft.to/lastmile_qr_scan", "android": "https://dc.lft.to/lastmile_qr_scan"}, "lon": -77.0312415, "type": "electric_scooter"}, {"bike_id": "e91825f632765da21b0c511986f07376", "is_reserved": 0, "fusion_lon": 0.0, "lat": 38.900450666666664, "is_disabled": 0, "name": "e91825f632765da21b0c511986f07376", "fusion_lat": 0.0, "rental_uris": {"ios": "https://dc.lft.to/lastmile_qr_scan", "android": "https://dc.lft.to/lastmile_qr_scan"}, "lon": -77.00213366666667, "type": "electric_scooter"}, {"bike_id": "c3c6a1b120419ec1ad2400b5523486f0", "is_reserved": 0, "fusion_lon": 0.0, "lat": 38.89681933333333, "is_disabled": 0, "name": "c3c6a1b120419ec1ad2400b5523486f0", "fusion_lat": 0.0, "rental_uris": {"ios": "https://dc.lft.to/lastmile_qr_scan", "android": "https://dc.lft.to/lastmile_qr_scan"}, "lon": -76.99624133333333, "type": "electric_scooter"}, {"bike_id": "b3ad649284062133eead8bc931e28f51", "is_reserved": 0, "fusion_lon": 0.0, "lat": 38.90636166666667, "is_disabled": 0, "name": "b3ad649284062133eead8bc931e28f51", "fusion_lat": 0.0, "rental_uris": {"ios": "https://dc.lft.to/lastmile_qr_scan", "android": "https://dc.lft.to/lastmile_qr_scan"}, "lon": -77.0513275, "type": "electric_scooter"}, {"bike_id": "73b9a825f174934ecce87af97f24e64f", "is_reserved": 0, "fusion_lon": 0.0, "lat": 38.9165325, "is_disabled": 0, "name": "73b9a825f174934ecce87af97f24e64f", "fusion_lat": 0.0, "rental_uris": {"ios": "https://dc.lft.to/lastmile_qr_scan", "android": "https://dc.lft.to/lastmile_qr_scan"}, "lon": -76.98592616666667, "type": "electric_bike"}, {"bike_id": "0b78fcb35180583fe4bc9df463b9a91a", "is_reserved": 0, "fusion_lon": 0.0, "lat": 38.904607166666665, "is_disabled": 0, "name": "0b78fcb35180583fe4bc9df463b9a91a", "fusion_lat": 0.0, "rental_uris": {"ios": "https://dc.lft.to/lastmile_qr_scan", "android": "https://dc.lft.to/lastmile_qr_scan"}, "lon": -77.01717183333334, "type": "electric_scooter"}, {"bike_id": "366fdf8c9c55900b86515ea6ac5e14aa", "is_reserved": 0, "fusion_lon": 0.0, "lat": 38.84293383333333, "is_disabled": 0, "name": "366fdf8c9c55900b86515ea6ac5e14aa", "fusion_lat": 0.0, "rental_uris": {"ios": "https://dc.lft.to/lastmile_qr_scan", "android": "https://dc.lft.to/lastmile_qr_scan"}, "lon": -76.999491, "type": "electric_scooter"}, {"bike_id": "da48b710779eed25dc6d356ccaeb2f88", "is_reserved": 0, "fusion_lon": 0.0, "lat": 38.86696116666667, "is_disabled": 0, "name": "da48b710779eed25dc6d356ccaeb2f88", "fusion_lat": 0.0, "rental_uris": {"ios": "https://dc.lft.to/lastmile_qr_scan", "android": "https://dc.lft.to/lastmile_qr_scan"}, "lon": -76.987244, "type": "electric_scooter"}, {"bike_id": "aff5bb40af6e98c6eb7764b4cee4e42e", "is_reserved": 0, "fusion_lon": 0.0, "lat": 38.93426483333333, "is_disabled": 0, "name": "aff5bb40af6e98c6eb7764b4cee4e42e", "fusion_lat": 0.0, "rental_uris": {"ios": "https://dc.lft.to/lastmile_qr_scan", "android": "https://dc.lft.to/lastmile_qr_scan"}, "lon": -77.03407533333333, "type": "electric_scooter"}, {"bike_id": "b583899769c4f9197897ed4d844d4aa9", "is_reserved": 0, "fusion_lon": 0.0, "lat": 38.924439666666665, "is_disabled": 0, "name": "b583899769c4f9197897ed4d844d4aa9", "fusion_lat": 0.0, "rental_uris": {"ios": "https://dc.lft.to/lastmile_qr_scan", "android": "https://dc.lft.to/lastmile_qr_scan"}, "lon": -77.03414766666667, "type": "electric_scooter"}, {"bike_id": "536a341f7e66764a5c55fc4da8c5b655", "is_reserved": 0, "fusion_lon": 0.0, "lat": 38.9358745, "is_disabled": 0, "name": "536a341f7e66764a5c55fc4da8c5b655", "fusion_lat": 0.0, "rental_uris": {"ios": "https://dc.lft.to/lastmile_qr_scan", "android": "https://dc.lft.to/lastmile_qr_scan"}, "lon": -77.02322183333334, "type": "electric_scooter"}, {"bike_id": "b62d67e13cc8d4b6b99bbad25656aa0a", "is_reserved": 0, "fusion_lon": 0.0, "lat": 38.9248115, "is_disabled": 0, "name": "b62d67e13cc8d4b6b99bbad25656aa0a", "fusion_lat": 0.0, "rental_uris": {"ios": "https://dc.lft.to/lastmile_qr_scan", "android": "https://dc.lft.to/lastmile_qr_scan"}, "lon": -77.05214916666667, "type": "electric_scooter"}, {"bike_id": "6c22e28ec37121cdd0796c92f0f5e99a", "is_reserved": 0, "fusion_lon": 0.0, "lat": 38.95556533333333, "is_disabled": 0, "name": "6c22e28ec37121cdd0796c92f0f5e99a", "fusion_lat": 0.0, "rental_uris": {"ios": "https://dc.lft.to/lastmile_qr_scan", "android": "https://dc.lft.to/lastmile_qr_scan"}, "lon": -76.93556816666667, "type": "electric_bike"}, {"bike_id": "54e0faf38860d690c81be2b049b0458b", "is_reserved": 0, "fusion_lon": 0.0, "lat": 38.905213333333336, "is_disabled": 0, "name": "54e0faf38860d690c81be2b049b0458b", "fusion_lat": 0.0, "rental_uris": {"ios": "https://dc.lft.to/lastmile_qr_scan", "android": "https://dc.lft.to/lastmile_qr_scan"}, "lon": -77.05032866666667, "type": "electric_scooter"}, {"bike_id": "d080abcba14a9a3d2986c004a84a4ea2", "is_reserved": 0, "fusion_lon": 0.0, "lat": 38.858091, "is_disabled": 0, "name": "d080abcba14a9a3d2986c004a84a4ea2", "fusion_lat": 0.0, "rental_uris": {"ios": "https://dc.lft.to/lastmile_qr_scan", "android": "https://dc.lft.to/lastmile_qr_scan"}, "lon": -76.98653983333334, "type": "electric_scooter"}, {"bike_id": "361ed79f43f2218a0cf1295366e44082", "is_reserved": 0, "fusion_lon": 0.0, "lat": 38.908637, "is_disabled": 0, "name": "361ed79f43f2218a0cf1295366e44082", "fusion_lat": 0.0, "rental_uris": {"ios": "https://dc.lft.to/lastmile_qr_scan", "android": "https://dc.lft.to/lastmile_qr_scan"}, "lon": -77.02588483333334, "type": "electric_scooter"}, {"bike_id": "1e9c11c7c20778b8db64c54d0c3fcbba", "is_reserved": 0, "fusion_lon": 0.0, "lat": 38.891865833333334, "is_disabled": 0, "name": "1e9c11c7c20778b8db64c54d0c3fcbba", "fusion_lat": 0.0, "rental_uris": {"ios": "https://dc.lft.to/lastmile_qr_scan", "android": "https://dc.lft.to/lastmile_qr_scan"}, "lon": -77.12259866666666, "type": "electric_bike"}, {"bike_id": "7729d1fa744a4cf09f140d4d2f85ce33", "is_reserved": 0, "fusion_lon": 0.0, "lat": 38.907129166666664, "is_disabled": 0, "name": "7729d1fa744a4cf09f140d4d2f85ce33", "fusion_lat": 0.0, "rental_uris": {"ios": "https://dc.lft.to/lastmile_qr_scan", "android": "https://dc.lft.to/lastmile_qr_scan"}, "lon": -76.997961, "type": "electric_scooter"}, {"bike_id": "a0ad5c494bff3598e33c228d2fa99fc5", "is_reserved": 0, "fusion_lon": 0.0, "lat": 38.920103833333336, "is_disabled": 0, "name": "a0ad5c494bff3598e33c228d2fa99fc5", "fusion_lat": 0.0, "rental_uris": {"ios": "https://dc.lft.to/lastmile_qr_scan", "android": "https://dc.lft.to/lastmile_qr_scan"}, "lon": -77.0418075, "type": "electric_scooter"}, {"bike_id": "bbbf7c1a476d00bb95639e344f4d8ae9", "is_reserved": 0, "fusion_lon": 0.0, "lat": 38.9095575, "is_disabled": 0, "name": "bbbf7c1a476d00bb95639e344f4d8ae9", "fusion_lat": 0.0, "rental_uris": {"ios": "https://dc.lft.to/lastmile_qr_scan", "android": "https://dc.lft.to/lastmile_qr_scan"}, "lon": -77.048292, "type": "electric_scooter"}, {"bike_id": "3aaadbef482771662cc26635f87a4725", "is_reserved": 0, "fusion_lon": 0.0, "lat": 38.91153716666667, "is_disabled": 0, "name": "3aaadbef482771662cc26635f87a4725", "fusion_lat": 0.0, "rental_uris": {"ios": "https://dc.lft.to/lastmile_qr_scan", "android": "https://dc.lft.to/lastmile_qr_scan"}, "lon": -77.041837, "type": "electric_scooter"}, {"bike_id": "15215825fa0d306a88ea92cdef42bbd5", "is_reserved": 0, "fusion_lon": 0.0, "lat": 38.880368833333335, "is_disabled": 0, "name": "15215825fa0d306a88ea92cdef42bbd5", "fusion_lat": 0.0, "rental_uris": {"ios": "https://dc.lft.to/lastmile_qr_scan", "android": "https://dc.lft.to/lastmile_qr_scan"}, "lon": -76.9272525, "type": "electric_scooter"}, {"bike_id": "5a3fda935459194fe051ee8f91ac4e1f", "is_reserved": 0, "fusion_lon": 0.0, "lat": 38.92463816666667, "is_disabled": 0, "name": "5a3fda935459194fe051ee8f91ac4e1f", "fusion_lat": 0.0, "rental_uris": {"ios": "https://dc.lft.to/lastmile_qr_scan", "android": "https://dc.lft.to/lastmile_qr_scan"}, "lon": -77.20845666666666, "type": "electric_bike"}, {"bike_id": "7ba7e082d8b6b1c75c11ace1d88ece92", "is_reserved": 0, "fusion_lon": 0.0, "lat": 38.924405166666666, "is_disabled": 0, "name": "7ba7e082d8b6b1c75c11ace1d88ece92", "fusion_lat": 0.0, "rental_uris": {"ios": "https://dc.lft.to/lastmile_qr_scan", "android": "https://dc.lft.to/lastmile_qr_scan"}, "lon": -77.03364633333334, "type": "electric_scooter"}, {"bike_id": "c847cbf498b32bd1bf9a3faa3e766e68", "is_reserved": 0, "fusion_lon": 0.0, "lat": 38.892262333333335, "is_disabled": 0, "name": "c847cbf498b32bd1bf9a3faa3e766e68", "fusion_lat": 0.0, "rental_uris": {"ios": "https://dc.lft.to/lastmile_qr_scan", "android": "https://dc.lft.to/lastmile_qr_scan"}, "lon": -77.03217983333333, "type": "electric_scooter"}, {"bike_id": "445033ef28b9c711b0b19a928227dda6", "is_reserved": 0, "fusion_lon": 0.0, "lat": 38.90571716666667, "is_disabled": 0, "name": "445033ef28b9c711b0b19a928227dda6", "fusion_lat": 0.0, "rental_uris": {"ios": "https://dc.lft.to/lastmile_qr_scan", "android": "https://dc.lft.to/lastmile_qr_scan"}, "lon": -77.004363, "type": "electric_scooter"}, {"bike_id": "341b4ebe09420cd4ee9cb09ee860df35", "is_reserved": 0, "fusion_lon": 0.0, "lat": 38.94175083333333, "is_disabled": 0, "name": "341b4ebe09420cd4ee9cb09ee860df35", "fusion_lat": 0.0, "rental_uris": {"ios": "https://dc.lft.to/lastmile_qr_scan", "android": "https://dc.lft.to/lastmile_qr_scan"}, "lon": -77.025008, "type": "electric_scooter"}, {"bike_id": "d8c3a326e9fedbdf40794643d94fbb69", "is_reserved": 0, "fusion_lon": 0.0, "lat": 38.857966166666664, "is_disabled": 0, "name": "d8c3a326e9fedbdf40794643d94fbb69", "fusion_lat": 0.0, "rental_uris": {"ios": "https://dc.lft.to/lastmile_qr_scan", "android": "https://dc.lft.to/lastmile_qr_scan"}, "lon": -76.98752966666666, "type": "electric_bike"}, {"bike_id": "4030d70abd9a26a52577a2de4006242a", "is_reserved": 0, "fusion_lon": 0.0, "lat": 38.92540833333334, "is_disabled": 0, "name": "4030d70abd9a26a52577a2de4006242a", "fusion_lat": 0.0, "rental_uris": {"ios": "https://dc.lft.to/lastmile_qr_scan", "android": "https://dc.lft.to/lastmile_qr_scan"}, "lon": -77.03465, "type": "electric_scooter"}, {"bike_id": "6af8de8e518744787747b1b783214e36", "is_reserved": 0, "fusion_lon": 0.0, "lat": 38.944202833333335, "is_disabled": 0, "name": "6af8de8e518744787747b1b783214e36", "fusion_lat": 0.0, "rental_uris": {"ios": "https://dc.lft.to/lastmile_qr_scan", "android": "https://dc.lft.to/lastmile_qr_scan"}, "lon": -77.01780716666667, "type": "electric_scooter"}, {"bike_id": "a334a57b7a3ecd215dbad472fab1f657", "is_reserved": 0, "fusion_lon": 0.0, "lat": 38.90668816666667, "is_disabled": 0, "name": "a334a57b7a3ecd215dbad472fab1f657", "fusion_lat": 0.0, "rental_uris": {"ios": "https://dc.lft.to/lastmile_qr_scan", "android": "https://dc.lft.to/lastmile_qr_scan"}, "lon": -77.02704733333333, "type": "electric_scooter"}, {"bike_id": "fbdd610c871c695d3eb317336d388c56", "is_reserved": 0, "fusion_lon": 0.0, "lat": 38.923409, "is_disabled": 0, "name": "fbdd610c871c695d3eb317336d388c56", "fusion_lat": 0.0, "rental_uris": {"ios": "https://dc.lft.to/lastmile_qr_scan", "android": "https://dc.lft.to/lastmile_qr_scan"}, "lon": -77.03503283333333, "type": "electric_scooter"}, {"bike_id": "e12cd45b5e223f5c11042a43e610ea92", "is_reserved": 0, "fusion_lon": 0.0, "lat": 38.9222305, "is_disabled": 0, "name": "e12cd45b5e223f5c11042a43e610ea92", "fusion_lat": 0.0, "rental_uris": {"ios": "https://dc.lft.to/lastmile_qr_scan", "android": "https://dc.lft.to/lastmile_qr_scan"}, "lon": -77.039058, "type": "electric_scooter"}, {"bike_id": "5e26262c3d73d6f8150a13c83c05c45e", "is_reserved": 0, "fusion_lon": 0.0, "lat": 38.866223833333336, "is_disabled": 0, "name": "5e26262c3d73d6f8150a13c83c05c45e", "fusion_lat": 0.0, "rental_uris": {"ios": "https://dc.lft.to/lastmile_qr_scan", "android": "https://dc.lft.to/lastmile_qr_scan"}, "lon": -76.98703166666667, "type": "electric_scooter"}, {"bike_id": "a87d5766c58e3d68b9f9fa50c6127151", "is_reserved": 0, "fusion_lon": 0.0, "lat": 38.905055, "is_disabled": 0, "name": "a87d5766c58e3d68b9f9fa50c6127151", "fusion_lat": 0.0, "rental_uris": {"ios": "https://dc.lft.to/lastmile_qr_scan", "android": "https://dc.lft.to/lastmile_qr_scan"}, "lon": -77.02949766666667, "type": "electric_scooter"}, {"bike_id": "f109625095a42490b95e1fc25be46818", "is_reserved": 0, "fusion_lon": 0.0, "lat": 38.919952, "is_disabled": 0, "name": "f109625095a42490b95e1fc25be46818", "fusion_lat": 0.0, "rental_uris": {"ios": "https://dc.lft.to/lastmile_qr_scan", "android": "https://dc.lft.to/lastmile_qr_scan"}, "lon": -77.0323145, "type": "electric_scooter"}, {"bike_id": "bea3fa62fbf74030815b0611c3b94264", "is_reserved": 0, "fusion_lon": 0.0, "lat": 38.920311833333336, "is_disabled": 0, "name": "bea3fa62fbf74030815b0611c3b94264", "fusion_lat": 0.0, "rental_uris": {"ios": "https://dc.lft.to/lastmile_qr_scan", "android": "https://dc.lft.to/lastmile_qr_scan"}, "lon": -77.01119566666667, "type": "electric_scooter"}, {"bike_id": "6a806835dd35de5dd185b97e6b0e8534", "is_reserved": 0, "fusion_lon": 0.0, "lat": 38.8770415, "is_disabled": 0, "name": "6a806835dd35de5dd185b97e6b0e8534", "fusion_lat": 0.0, "rental_uris": {"ios": "https://dc.lft.to/lastmile_qr_scan", "android": "https://dc.lft.to/lastmile_qr_scan"}, "lon": -77.01766983333333, "type": "electric_scooter"}, {"bike_id": "88b0fe1ba3a8686620bdf311316b9fa0", "is_reserved": 0, "fusion_lon": 0.0, "lat": 38.842921, "is_disabled": 0, "name": "88b0fe1ba3a8686620bdf311316b9fa0", "fusion_lat": 0.0, "rental_uris": {"ios": "https://dc.lft.to/lastmile_qr_scan", "android": "https://dc.lft.to/lastmile_qr_scan"}, "lon": -76.99946766666666, "type": "electric_scooter"}, {"bike_id": "4d3a3456e97683c154ff2beb10d55a22", "is_reserved": 0, "fusion_lon": 0.0, "lat": 38.93538433333333, "is_disabled": 0, "name": "4d3a3456e97683c154ff2beb10d55a22", "fusion_lat": 0.0, "rental_uris": {"ios": "https://dc.lft.to/lastmile_qr_scan", "android": "https://dc.lft.to/lastmile_qr_scan"}, "lon": -77.03282616666667, "type": "electric_scooter"}, {"bike_id": "2a58c7aca2ba111cdda895e683b9f80e", "is_reserved": 0, "fusion_lon": 0.0, "lat": 38.91053683333333, "is_disabled": 0, "name": "2a58c7aca2ba111cdda895e683b9f80e", "fusion_lat": 0.0, "rental_uris": {"ios": "https://dc.lft.to/lastmile_qr_scan", "android": "https://dc.lft.to/lastmile_qr_scan"}, "lon": -77.01689816666666, "type": "electric_scooter"}, {"bike_id": "225337e4ee68bef55d49e71d162a9ebe", "is_reserved": 0, "fusion_lon": 0.0, "lat": 38.901645333333335, "is_disabled": 0, "name": "225337e4ee68bef55d49e71d162a9ebe", "fusion_lat": 0.0, "rental_uris": {"ios": "https://dc.lft.to/lastmile_qr_scan", "android": "https://dc.lft.to/lastmile_qr_scan"}, "lon": -77.0228985, "type": "electric_scooter"}, {"bike_id": "c062590ef123f5f3e4a0b780a8abbd77", "is_reserved": 0, "fusion_lon": 0.0, "lat": 39.094615, "is_disabled": 0, "name": "c062590ef123f5f3e4a0b780a8abbd77", "fusion_lat": 0.0, "rental_uris": {"ios": "https://dc.lft.to/lastmile_qr_scan", "android": "https://dc.lft.to/lastmile_qr_scan"}, "lon": -77.14995, "type": "electric_bike"}, {"bike_id": "5bfc994e3a66293e4b176fcbafe04a65", "is_reserved": 0, "fusion_lon": 0.0, "lat": 38.921509, "is_disabled": 0, "name": "5bfc994e3a66293e4b176fcbafe04a65", "fusion_lat": 0.0, "rental_uris": {"ios": "https://dc.lft.to/lastmile_qr_scan", "android": "https://dc.lft.to/lastmile_qr_scan"}, "lon": -77.03532566666667, "type": "electric_scooter"}, {"bike_id": "3c68a8bbbd6cb18eca1251edb6ca4536", "is_reserved": 0, "fusion_lon": 0.0, "lat": 38.900144, "is_disabled": 0, "name": "3c68a8bbbd6cb18eca1251edb6ca4536", "fusion_lat": 0.0, "rental_uris": {"ios": "https://dc.lft.to/lastmile_qr_scan", "android": "https://dc.lft.to/lastmile_qr_scan"}, "lon": -76.997918, "type": "electric_scooter"}, {"bike_id": "7b7376d9decc2202996059aef104c0ad", "is_reserved": 0, "fusion_lon": 0.0, "lat": 38.82788433333333, "is_disabled": 0, "name": "7b7376d9decc2202996059aef104c0ad", "fusion_lat": 0.0, "rental_uris": {"ios": "https://dc.lft.to/lastmile_qr_scan", "android": "https://dc.lft.to/lastmile_qr_scan"}, "lon": -77.00907616666667, "type": "electric_bike"}, {"bike_id": "50a030338f711efa79b1ce301d444cbf", "is_reserved": 0, "fusion_lon": 0.0, "lat": 38.87258833333333, "is_disabled": 0, "name": "50a030338f711efa79b1ce301d444cbf", "fusion_lat": 0.0, "rental_uris": {"ios": "https://dc.lft.to/lastmile_qr_scan", "android": "https://dc.lft.to/lastmile_qr_scan"}, "lon": -76.97911883333333, "type": "electric_bike"}, {"bike_id": "c4e14b1730dd9ff0af87b6b7def8fca9", "is_reserved": 0, "fusion_lon": 0.0, "lat": 38.898449, "is_disabled": 0, "name": "c4e14b1730dd9ff0af87b6b7def8fca9", "fusion_lat": 0.0, "rental_uris": {"ios": "https://dc.lft.to/lastmile_qr_scan", "android": "https://dc.lft.to/lastmile_qr_scan"}, "lon": -76.9447795, "type": "electric_scooter"}, {"bike_id": "46c7a12d054042eef2cecd35f28e3dd2", "is_reserved": 0, "fusion_lon": 0.0, "lat": 38.90372516666667, "is_disabled": 0, "name": "46c7a12d054042eef2cecd35f28e3dd2", "fusion_lat": 0.0, "rental_uris": {"ios": "https://dc.lft.to/lastmile_qr_scan", "android": "https://dc.lft.to/lastmile_qr_scan"}, "lon": -77.0454125, "type": "electric_scooter"}, {"bike_id": "9a0863d9698fba5c9821feec011cd9ce", "is_reserved": 0, "fusion_lon": 0.0, "lat": 38.86287516666667, "is_disabled": 0, "name": "9a0863d9698fba5c9821feec011cd9ce", "fusion_lat": 0.0, "rental_uris": {"ios": "https://dc.lft.to/lastmile_qr_scan", "android": "https://dc.lft.to/lastmile_qr_scan"}, "lon": -76.99236166666667, "type": "electric_scooter"}, {"bike_id": "5942dc5fca0eb42cc8dc322ba8bbc2b4", "is_reserved": 0, "fusion_lon": 0.0, "lat": 38.840619, "is_disabled": 0, "name": "5942dc5fca0eb42cc8dc322ba8bbc2b4", "fusion_lat": 0.0, "rental_uris": {"ios": "https://dc.lft.to/lastmile_qr_scan", "android": "https://dc.lft.to/lastmile_qr_scan"}, "lon": -77.064073, "type": "electric_bike"}, {"bike_id": "e34071539e558e11c60b6711ace99dbe", "is_reserved": 0, "fusion_lon": 0.0, "lat": 38.883113333333334, "is_disabled": 0, "name": "e34071539e558e11c60b6711ace99dbe", "fusion_lat": 0.0, "rental_uris": {"ios": "https://dc.lft.to/lastmile_qr_scan", "android": "https://dc.lft.to/lastmile_qr_scan"}, "lon": -77.0093455, "type": "electric_scooter"}, {"bike_id": "9fb51eaa418e65e2136c07a99cd8ede4", "is_reserved": 0, "fusion_lon": 0.0, "lat": 38.957756833333335, "is_disabled": 0, "name": "9fb51eaa418e65e2136c07a99cd8ede4", "fusion_lat": 0.0, "rental_uris": {"ios": "https://dc.lft.to/lastmile_qr_scan", "android": "https://dc.lft.to/lastmile_qr_scan"}, "lon": -77.0115335, "type": "electric_bike"}, {"bike_id": "0d3056dffd2dc6843e2f47bab8f89c8b", "is_reserved": 0, "fusion_lon": 0.0, "lat": 38.89252616666667, "is_disabled": 0, "name": "0d3056dffd2dc6843e2f47bab8f89c8b", "fusion_lat": 0.0, "rental_uris": {"ios": "https://dc.lft.to/lastmile_qr_scan", "android": "https://dc.lft.to/lastmile_qr_scan"}, "lon": -76.9432855, "type": "electric_scooter"}, {"bike_id": "d280f1fa0f194a3c2f935432eba57415", "is_reserved": 0, "fusion_lon": 0.0, "lat": 38.91812183333333, "is_disabled": 0, "name": "d280f1fa0f194a3c2f935432eba57415", "fusion_lat": 0.0, "rental_uris": {"ios": "https://dc.lft.to/lastmile_qr_scan", "android": "https://dc.lft.to/lastmile_qr_scan"}, "lon": -77.01011483333333, "type": "electric_scooter"}, {"bike_id": "00c51ac9adcbb7726f39b9fd9f107f29", "is_reserved": 0, "fusion_lon": 0.0, "lat": 38.900278166666666, "is_disabled": 0, "name": "00c51ac9adcbb7726f39b9fd9f107f29", "fusion_lat": 0.0, "rental_uris": {"ios": "https://dc.lft.to/lastmile_qr_scan", "android": "https://dc.lft.to/lastmile_qr_scan"}, "lon": -76.987938, "type": "electric_scooter"}, {"bike_id": "01d3d746c8bb183581d2112fa6181b90", "is_reserved": 0, "fusion_lon": 0.0, "lat": 38.871467333333335, "is_disabled": 0, "name": "01d3d746c8bb183581d2112fa6181b90", "fusion_lat": 0.0, "rental_uris": {"ios": "https://dc.lft.to/lastmile_qr_scan", "android": "https://dc.lft.to/lastmile_qr_scan"}, "lon": -76.93666216666666, "type": "electric_bike"}, {"bike_id": "e3dc084ed6ec0a21701bdc804dc11bf1", "is_reserved": 0, "fusion_lon": 0.0, "lat": 38.91992666666667, "is_disabled": 0, "name": "e3dc084ed6ec0a21701bdc804dc11bf1", "fusion_lat": 0.0, "rental_uris": {"ios": "https://dc.lft.to/lastmile_qr_scan", "android": "https://dc.lft.to/lastmile_qr_scan"}, "lon": -77.03218666666666, "type": "electric_scooter"}, {"bike_id": "d9e0a1fe9f45cae5961d9b1f117e6c00", "is_reserved": 0, "fusion_lon": 0.0, "lat": 38.8844885, "is_disabled": 0, "name": "d9e0a1fe9f45cae5961d9b1f117e6c00", "fusion_lat": 0.0, "rental_uris": {"ios": "https://dc.lft.to/lastmile_qr_scan", "android": "https://dc.lft.to/lastmile_qr_scan"}, "lon": -77.00576933333333, "type": "electric_scooter"}, {"bike_id": "33db988befdcb334e5ecc0217ef4c1c9", "is_reserved": 0, "fusion_lon": 0.0, "lat": 38.94272816666667, "is_disabled": 0, "name": "33db988befdcb334e5ecc0217ef4c1c9", "fusion_lat": 0.0, "rental_uris": {"ios": "https://dc.lft.to/lastmile_qr_scan", "android": "https://dc.lft.to/lastmile_qr_scan"}, "lon": -76.98073133333334, "type": "electric_bike"}, {"bike_id": "7f6cda4e736c39b783c02afaf079f774", "is_reserved": 0, "fusion_lon": 0.0, "lat": 38.90120783333333, "is_disabled": 0, "name": "7f6cda4e736c39b783c02afaf079f774", "fusion_lat": 0.0, "rental_uris": {"ios": "https://dc.lft.to/lastmile_qr_scan", "android": "https://dc.lft.to/lastmile_qr_scan"}, "lon": -77.0415415, "type": "electric_bike"}, {"bike_id": "f1c9ebdbd5f5e0c3997513159b2fd4f9", "is_reserved": 0, "fusion_lon": 0.0, "lat": 38.893991666666665, "is_disabled": 0, "name": "f1c9ebdbd5f5e0c3997513159b2fd4f9", "fusion_lat": 0.0, "rental_uris": {"ios": "https://dc.lft.to/lastmile_qr_scan", "android": "https://dc.lft.to/lastmile_qr_scan"}, "lon": -76.99365683333333, "type": "electric_scooter"}, {"bike_id": "edd7eb1ad7b7e7b9aedf0c6f100fde2e", "is_reserved": 0, "fusion_lon": 0.0, "lat": 38.876594833333336, "is_disabled": 0, "name": "edd7eb1ad7b7e7b9aedf0c6f100fde2e", "fusion_lat": 0.0, "rental_uris": {"ios": "https://dc.lft.to/lastmile_qr_scan", "android": "https://dc.lft.to/lastmile_qr_scan"}, "lon": -77.000705, "type": "electric_scooter"}, {"bike_id": "434505568fd4c1e67e5a50177ef9c5e7", "is_reserved": 0, "fusion_lon": 0.0, "lat": 38.927570333333335, "is_disabled": 0, "name": "434505568fd4c1e67e5a50177ef9c5e7", "fusion_lat": 0.0, "rental_uris": {"ios": "https://dc.lft.to/lastmile_qr_scan", "android": "https://dc.lft.to/lastmile_qr_scan"}, "lon": -77.024215, "type": "electric_scooter"}, {"bike_id": "64043c46192341a45a9c718223519d77", "is_reserved": 0, "fusion_lon": 0.0, "lat": 38.89616433333333, "is_disabled": 0, "name": "64043c46192341a45a9c718223519d77", "fusion_lat": 0.0, "rental_uris": {"ios": "https://dc.lft.to/lastmile_qr_scan", "android": "https://dc.lft.to/lastmile_qr_scan"}, "lon": -77.044657, "type": "electric_scooter"}, {"bike_id": "9bedcd67859a4853649f295f1bea84be", "is_reserved": 0, "fusion_lon": 0.0, "lat": 38.9661865, "is_disabled": 0, "name": "9bedcd67859a4853649f295f1bea84be", "fusion_lat": 0.0, "rental_uris": {"ios": "https://dc.lft.to/lastmile_qr_scan", "android": "https://dc.lft.to/lastmile_qr_scan"}, "lon": -76.94426316666667, "type": "electric_bike"}, {"bike_id": "22e55c4aa6d698a354a13fc12bc57405", "is_reserved": 0, "fusion_lon": 0.0, "lat": 38.93454216666667, "is_disabled": 0, "name": "22e55c4aa6d698a354a13fc12bc57405", "fusion_lat": 0.0, "rental_uris": {"ios": "https://dc.lft.to/lastmile_qr_scan", "android": "https://dc.lft.to/lastmile_qr_scan"}, "lon": -77.07234533333333, "type": "electric_scooter"}, {"bike_id": "bc1bf1e3526b3eab2143ea2a2b001f2e", "is_reserved": 0, "fusion_lon": 0.0, "lat": 38.906744, "is_disabled": 0, "name": "bc1bf1e3526b3eab2143ea2a2b001f2e", "fusion_lat": 0.0, "rental_uris": {"ios": "https://dc.lft.to/lastmile_qr_scan", "android": "https://dc.lft.to/lastmile_qr_scan"}, "lon": -77.02704566666667, "type": "electric_scooter"}, {"bike_id": "bbd830d157aa96f9d4f2b21df7a6f4f3", "is_reserved": 0, "fusion_lon": 0.0, "lat": 38.919179166666666, "is_disabled": 0, "name": "bbd830d157aa96f9d4f2b21df7a6f4f3", "fusion_lat": 0.0, "rental_uris": {"ios": "https://dc.lft.to/lastmile_qr_scan", "android": "https://dc.lft.to/lastmile_qr_scan"}, "lon": -77.034331, "type": "electric_scooter"}, {"bike_id": "c64d2e9d8bca25501190f06486188413", "is_reserved": 0, "fusion_lon": 0.0, "lat": 38.89833133333333, "is_disabled": 0, "name": "c64d2e9d8bca25501190f06486188413", "fusion_lat": 0.0, "rental_uris": {"ios": "https://dc.lft.to/lastmile_qr_scan", "android": "https://dc.lft.to/lastmile_qr_scan"}, "lon": -77.048214, "type": "electric_scooter"}, {"bike_id": "240924f21630b7b418e608b0c1b61f2a", "is_reserved": 0, "fusion_lon": 0.0, "lat": 38.905662, "is_disabled": 0, "name": "240924f21630b7b418e608b0c1b61f2a", "fusion_lat": 0.0, "rental_uris": {"ios": "https://dc.lft.to/lastmile_qr_scan", "android": "https://dc.lft.to/lastmile_qr_scan"}, "lon": -77.03831416666667, "type": "electric_scooter"}, {"bike_id": "6408ea1438d0d44a16d7dbd6f27d1112", "is_reserved": 0, "fusion_lon": 0.0, "lat": 38.93724516666666, "is_disabled": 0, "name": "6408ea1438d0d44a16d7dbd6f27d1112", "fusion_lat": 0.0, "rental_uris": {"ios": "https://dc.lft.to/lastmile_qr_scan", "android": "https://dc.lft.to/lastmile_qr_scan"}, "lon": -77.032679, "type": "electric_scooter"}, {"bike_id": "670612fa24b83a3de58cc478b6905472", "is_reserved": 0, "fusion_lon": 0.0, "lat": 38.91818933333333, "is_disabled": 0, "name": "670612fa24b83a3de58cc478b6905472", "fusion_lat": 0.0, "rental_uris": {"ios": "https://dc.lft.to/lastmile_qr_scan", "android": "https://dc.lft.to/lastmile_qr_scan"}, "lon": -77.03253833333333, "type": "electric_scooter"}, {"bike_id": "b7537f0f43273e8f973f027a3c923f33", "is_reserved": 0, "fusion_lon": 0.0, "lat": 38.91799433333333, "is_disabled": 0, "name": "b7537f0f43273e8f973f027a3c923f33", "fusion_lat": 0.0, "rental_uris": {"ios": "https://dc.lft.to/lastmile_qr_scan", "android": "https://dc.lft.to/lastmile_qr_scan"}, "lon": -77.03451283333334, "type": "electric_scooter"}, {"bike_id": "0e2564d2182e91f5050d62bca8e8fc82", "is_reserved": 0, "fusion_lon": 0.0, "lat": 38.918347833333335, "is_disabled": 0, "name": "0e2564d2182e91f5050d62bca8e8fc82", "fusion_lat": 0.0, "rental_uris": {"ios": "https://dc.lft.to/lastmile_qr_scan", "android": "https://dc.lft.to/lastmile_qr_scan"}, "lon": -77.03519416666667, "type": "electric_scooter"}, {"bike_id": "669ebb2ee0da8de851f8be41f2cbc8c4", "is_reserved": 0, "fusion_lon": 0.0, "lat": 38.9535455, "is_disabled": 0, "name": "669ebb2ee0da8de851f8be41f2cbc8c4", "fusion_lat": 0.0, "rental_uris": {"ios": "https://dc.lft.to/lastmile_qr_scan", "android": "https://dc.lft.to/lastmile_qr_scan"}, "lon": -76.98090333333333, "type": "electric_bike"}, {"bike_id": "037df60dc4f302cb685d86928316946d", "is_reserved": 0, "fusion_lon": 0.0, "lat": 38.907319333333334, "is_disabled": 0, "name": "037df60dc4f302cb685d86928316946d", "fusion_lat": 0.0, "rental_uris": {"ios": "https://dc.lft.to/lastmile_qr_scan", "android": "https://dc.lft.to/lastmile_qr_scan"}, "lon": -77.04670466666667, "type": "electric_scooter"}, {"bike_id": "06beed2cdf78b9332d54371b7e9f183e", "is_reserved": 0, "fusion_lon": 0.0, "lat": 38.905311833333336, "is_disabled": 0, "name": "06beed2cdf78b9332d54371b7e9f183e", "fusion_lat": 0.0, "rental_uris": {"ios": "https://dc.lft.to/lastmile_qr_scan", "android": "https://dc.lft.to/lastmile_qr_scan"}, "lon": -77.05968533333333, "type": "electric_scooter"}, {"bike_id": "fb8d9d36f2f41e7e21f45ca7a5403adc", "is_reserved": 0, "fusion_lon": 0.0, "lat": 38.909019666666666, "is_disabled": 0, "name": "fb8d9d36f2f41e7e21f45ca7a5403adc", "fusion_lat": 0.0, "rental_uris": {"ios": "https://dc.lft.to/lastmile_qr_scan", "android": "https://dc.lft.to/lastmile_qr_scan"}, "lon": -77.04162433333333, "type": "electric_scooter"}, {"bike_id": "fb4640db18eceb1719e53e30cca63849", "is_reserved": 0, "fusion_lon": 0.0, "lat": 38.93235683333333, "is_disabled": 0, "name": "fb4640db18eceb1719e53e30cca63849", "fusion_lat": 0.0, "rental_uris": {"ios": "https://dc.lft.to/lastmile_qr_scan", "android": "https://dc.lft.to/lastmile_qr_scan"}, "lon": -77.03869933333333, "type": "electric_scooter"}, {"bike_id": "8bf72780b0814a17ddbc85dd8cb1335b", "is_reserved": 0, "fusion_lon": 0.0, "lat": 38.933914333333334, "is_disabled": 0, "name": "8bf72780b0814a17ddbc85dd8cb1335b", "fusion_lat": 0.0, "rental_uris": {"ios": "https://dc.lft.to/lastmile_qr_scan", "android": "https://dc.lft.to/lastmile_qr_scan"}, "lon": -77.0358125, "type": "electric_scooter"}, {"bike_id": "0ca8bf3df90f72b2acce3f8fd22c0f3e", "is_reserved": 0, "fusion_lon": 0.0, "lat": 38.90860383333333, "is_disabled": 0, "name": "0ca8bf3df90f72b2acce3f8fd22c0f3e", "fusion_lat": 0.0, "rental_uris": {"ios": "https://dc.lft.to/lastmile_qr_scan", "android": "https://dc.lft.to/lastmile_qr_scan"}, "lon": -77.02731333333334, "type": "electric_scooter"}, {"bike_id": "cf4ee7dd621193717d5f6295a673c536", "is_reserved": 0, "fusion_lon": 0.0, "lat": 38.90701833333333, "is_disabled": 0, "name": "cf4ee7dd621193717d5f6295a673c536", "fusion_lat": 0.0, "rental_uris": {"ios": "https://dc.lft.to/lastmile_qr_scan", "android": "https://dc.lft.to/lastmile_qr_scan"}, "lon": -77.04484116666667, "type": "electric_scooter"}, {"bike_id": "3a61ed993ae3aeccddf85492ed340058", "is_reserved": 0, "fusion_lon": 0.0, "lat": 38.90502216666667, "is_disabled": 0, "name": "3a61ed993ae3aeccddf85492ed340058", "fusion_lat": 0.0, "rental_uris": {"ios": "https://dc.lft.to/lastmile_qr_scan", "android": "https://dc.lft.to/lastmile_qr_scan"}, "lon": -77.0675055, "type": "electric_scooter"}, {"bike_id": "3b5aa706ba474158f4d49cec38e9ada3", "is_reserved": 0, "fusion_lon": 0.0, "lat": 38.909155, "is_disabled": 0, "name": "3b5aa706ba474158f4d49cec38e9ada3", "fusion_lat": 0.0, "rental_uris": {"ios": "https://dc.lft.to/lastmile_qr_scan", "android": "https://dc.lft.to/lastmile_qr_scan"}, "lon": -77.00922033333333, "type": "electric_scooter"}, {"bike_id": "b9f804b53a0085aa7ca73ded7552de7f", "is_reserved": 0, "fusion_lon": 0.0, "lat": 38.892294666666665, "is_disabled": 0, "name": "b9f804b53a0085aa7ca73ded7552de7f", "fusion_lat": 0.0, "rental_uris": {"ios": "https://dc.lft.to/lastmile_qr_scan", "android": "https://dc.lft.to/lastmile_qr_scan"}, "lon": -77.0221, "type": "electric_scooter"}, {"bike_id": "7f8d0207ec6541377dee6547fa2d659c", "is_reserved": 0, "fusion_lon": 0.0, "lat": 38.92029466666666, "is_disabled": 0, "name": "7f8d0207ec6541377dee6547fa2d659c", "fusion_lat": 0.0, "rental_uris": {"ios": "https://dc.lft.to/lastmile_qr_scan", "android": "https://dc.lft.to/lastmile_qr_scan"}, "lon": -77.0280055, "type": "electric_scooter"}, {"bike_id": "d3417a283135bd12d77fd3e5e8b04e14", "is_reserved": 0, "fusion_lon": 0.0, "lat": 38.91639583333333, "is_disabled": 0, "name": "d3417a283135bd12d77fd3e5e8b04e14", "fusion_lat": 0.0, "rental_uris": {"ios": "https://dc.lft.to/lastmile_qr_scan", "android": "https://dc.lft.to/lastmile_qr_scan"}, "lon": -77.03192533333333, "type": "electric_scooter"}, {"bike_id": "350dc843495fd568bc762e2eea24e9d2", "is_reserved": 0, "fusion_lon": 0.0, "lat": 38.89218016666667, "is_disabled": 0, "name": "350dc843495fd568bc762e2eea24e9d2", "fusion_lat": 0.0, "rental_uris": {"ios": "https://dc.lft.to/lastmile_qr_scan", "android": "https://dc.lft.to/lastmile_qr_scan"}, "lon": -77.10781133333333, "type": "electric_bike"}, {"bike_id": "a1e72529d72f45b9f7ed4c33131e4275", "is_reserved": 0, "fusion_lon": 0.0, "lat": 38.902716, "is_disabled": 0, "name": "a1e72529d72f45b9f7ed4c33131e4275", "fusion_lat": 0.0, "rental_uris": {"ios": "https://dc.lft.to/lastmile_qr_scan", "android": "https://dc.lft.to/lastmile_qr_scan"}, "lon": -77.05317416666666, "type": "electric_scooter"}, {"bike_id": "3261f7a2864c76fab15ba2d75e5c31b8", "is_reserved": 0, "fusion_lon": 0.0, "lat": 38.91268766666666, "is_disabled": 0, "name": "3261f7a2864c76fab15ba2d75e5c31b8", "fusion_lat": 0.0, "rental_uris": {"ios": "https://dc.lft.to/lastmile_qr_scan", "android": "https://dc.lft.to/lastmile_qr_scan"}, "lon": -77.036265, "type": "electric_scooter"}, {"bike_id": "d01c78bd1913d5a0fa637cd5a9218b83", "is_reserved": 0, "fusion_lon": 0.0, "lat": 38.8962785, "is_disabled": 0, "name": "d01c78bd1913d5a0fa637cd5a9218b83", "fusion_lat": 0.0, "rental_uris": {"ios": "https://dc.lft.to/lastmile_qr_scan", "android": "https://dc.lft.to/lastmile_qr_scan"}, "lon": -77.0480205, "type": "electric_scooter"}, {"bike_id": "158bdeace875aace49e7014462b6dc52", "is_reserved": 0, "fusion_lon": 0.0, "lat": 38.932967, "is_disabled": 0, "name": "158bdeace875aace49e7014462b6dc52", "fusion_lat": 0.0, "rental_uris": {"ios": "https://dc.lft.to/lastmile_qr_scan", "android": "https://dc.lft.to/lastmile_qr_scan"}, "lon": -77.02849316666666, "type": "electric_scooter"}, {"bike_id": "15509a9060b7c9a23f53f53824115009", "is_reserved": 0, "fusion_lon": 0.0, "lat": 38.89909816666667, "is_disabled": 0, "name": "15509a9060b7c9a23f53f53824115009", "fusion_lat": 0.0, "rental_uris": {"ios": "https://dc.lft.to/lastmile_qr_scan", "android": "https://dc.lft.to/lastmile_qr_scan"}, "lon": -76.933519, "type": "electric_scooter"}, {"bike_id": "88e60fb662aa9fd2c6c1ff4ec40a9a5d", "is_reserved": 0, "fusion_lon": 0.0, "lat": 38.9020375, "is_disabled": 0, "name": "88e60fb662aa9fd2c6c1ff4ec40a9a5d", "fusion_lat": 0.0, "rental_uris": {"ios": "https://dc.lft.to/lastmile_qr_scan", "android": "https://dc.lft.to/lastmile_qr_scan"}, "lon": -77.02377433333334, "type": "electric_scooter"}, {"bike_id": "23320facff92209f692017c85c3dc7bc", "is_reserved": 0, "fusion_lon": 0.0, "lat": 38.94179783333333, "is_disabled": 0, "name": "23320facff92209f692017c85c3dc7bc", "fusion_lat": 0.0, "rental_uris": {"ios": "https://dc.lft.to/lastmile_qr_scan", "android": "https://dc.lft.to/lastmile_qr_scan"}, "lon": -77.03092266666667, "type": "electric_scooter"}, {"bike_id": "31c2cc47aaaf2a7aac5faa03f4f7fb2c", "is_reserved": 0, "fusion_lon": 0.0, "lat": 38.854364, "is_disabled": 0, "name": "31c2cc47aaaf2a7aac5faa03f4f7fb2c", "fusion_lat": 0.0, "rental_uris": {"ios": "https://dc.lft.to/lastmile_qr_scan", "android": "https://dc.lft.to/lastmile_qr_scan"}, "lon": -77.117053, "type": "electric_bike"}, {"bike_id": "09206c93dafce16e8a032bf109b051dd", "is_reserved": 0, "fusion_lon": 0.0, "lat": 38.9244455, "is_disabled": 0, "name": "09206c93dafce16e8a032bf109b051dd", "fusion_lat": 0.0, "rental_uris": {"ios": "https://dc.lft.to/lastmile_qr_scan", "android": "https://dc.lft.to/lastmile_qr_scan"}, "lon": -77.04115216666666, "type": "electric_scooter"}, {"bike_id": "e4a1bd9033abbea479d442461ab87f2a", "is_reserved": 0, "fusion_lon": 0.0, "lat": 38.85803583333333, "is_disabled": 0, "name": "e4a1bd9033abbea479d442461ab87f2a", "fusion_lat": 0.0, "rental_uris": {"ios": "https://dc.lft.to/lastmile_qr_scan", "android": "https://dc.lft.to/lastmile_qr_scan"}, "lon": -76.9865835, "type": "electric_scooter"}, {"bike_id": "bdd53a50e723bb56b461dbf3645d873d", "is_reserved": 0, "fusion_lon": 0.0, "lat": 38.89962516666667, "is_disabled": 0, "name": "bdd53a50e723bb56b461dbf3645d873d", "fusion_lat": 0.0, "rental_uris": {"ios": "https://dc.lft.to/lastmile_qr_scan", "android": "https://dc.lft.to/lastmile_qr_scan"}, "lon": -77.05054316666667, "type": "electric_scooter"}, {"bike_id": "fbc9930435a4c193f88f7dd422cf05b8", "is_reserved": 0, "fusion_lon": 0.0, "lat": 38.9098305, "is_disabled": 0, "name": "fbc9930435a4c193f88f7dd422cf05b8", "fusion_lat": 0.0, "rental_uris": {"ios": "https://dc.lft.to/lastmile_qr_scan", "android": "https://dc.lft.to/lastmile_qr_scan"}, "lon": -77.0318505, "type": "electric_scooter"}, {"bike_id": "56c0f4b8ee3b80d2497550524fd3c338", "is_reserved": 0, "fusion_lon": 0.0, "lat": 38.908673, "is_disabled": 0, "name": "56c0f4b8ee3b80d2497550524fd3c338", "fusion_lat": 0.0, "rental_uris": {"ios": "https://dc.lft.to/lastmile_qr_scan", "android": "https://dc.lft.to/lastmile_qr_scan"}, "lon": -77.085997, "type": "electric_scooter"}, {"bike_id": "1fcc5f957a953806547feefc2d6529ee", "is_reserved": 0, "fusion_lon": 0.0, "lat": 38.901902166666666, "is_disabled": 0, "name": "1fcc5f957a953806547feefc2d6529ee", "fusion_lat": 0.0, "rental_uris": {"ios": "https://dc.lft.to/lastmile_qr_scan", "android": "https://dc.lft.to/lastmile_qr_scan"}, "lon": -77.02298016666667, "type": "electric_bike"}, {"bike_id": "57e8aa90b97e857184b77114ac26f3d4", "is_reserved": 0, "fusion_lon": 0.0, "lat": 38.901998666666664, "is_disabled": 0, "name": "57e8aa90b97e857184b77114ac26f3d4", "fusion_lat": 0.0, "rental_uris": {"ios": "https://dc.lft.to/lastmile_qr_scan", "android": "https://dc.lft.to/lastmile_qr_scan"}, "lon": -76.94190083333334, "type": "electric_scooter"}, {"bike_id": "100100b682c92bc7907f1c3f1fd91dcc", "is_reserved": 0, "fusion_lon": 0.0, "lat": 38.91550816666667, "is_disabled": 0, "name": "100100b682c92bc7907f1c3f1fd91dcc", "fusion_lat": 0.0, "rental_uris": {"ios": "https://dc.lft.to/lastmile_qr_scan", "android": "https://dc.lft.to/lastmile_qr_scan"}, "lon": -77.038579, "type": "electric_scooter"}, {"bike_id": "59529c351dbaf6c27280fb01f54edf33", "is_reserved": 0, "fusion_lon": 0.0, "lat": 38.871831, "is_disabled": 0, "name": "59529c351dbaf6c27280fb01f54edf33", "fusion_lat": 0.0, "rental_uris": {"ios": "https://dc.lft.to/lastmile_qr_scan", "android": "https://dc.lft.to/lastmile_qr_scan"}, "lon": -77.012209, "type": "electric_scooter"}, {"bike_id": "a8454da5eba05d0f3d0e0771712c4fdd", "is_reserved": 0, "fusion_lon": 0.0, "lat": 38.93254833333334, "is_disabled": 0, "name": "a8454da5eba05d0f3d0e0771712c4fdd", "fusion_lat": 0.0, "rental_uris": {"ios": "https://dc.lft.to/lastmile_qr_scan", "android": "https://dc.lft.to/lastmile_qr_scan"}, "lon": -77.03281866666667, "type": "electric_scooter"}, {"bike_id": "be0027194563638d7ea992aa20bceaeb", "is_reserved": 0, "fusion_lon": 0.0, "lat": 38.911146333333335, "is_disabled": 0, "name": "be0027194563638d7ea992aa20bceaeb", "fusion_lat": 0.0, "rental_uris": {"ios": "https://dc.lft.to/lastmile_qr_scan", "android": "https://dc.lft.to/lastmile_qr_scan"}, "lon": -77.00248233333333, "type": "electric_scooter"}, {"bike_id": "a0033a97f8e65d5023a98a5d8361f4f8", "is_reserved": 0, "fusion_lon": 0.0, "lat": 38.91880783333333, "is_disabled": 0, "name": "a0033a97f8e65d5023a98a5d8361f4f8", "fusion_lat": 0.0, "rental_uris": {"ios": "https://dc.lft.to/lastmile_qr_scan", "android": "https://dc.lft.to/lastmile_qr_scan"}, "lon": -77.02951633333333, "type": "electric_scooter"}, {"bike_id": "12dbee0db4a8fd267c391b71c9a8a781", "is_reserved": 0, "fusion_lon": 0.0, "lat": 38.9232925, "is_disabled": 0, "name": "12dbee0db4a8fd267c391b71c9a8a781", "fusion_lat": 0.0, "rental_uris": {"ios": "https://dc.lft.to/lastmile_qr_scan", "android": "https://dc.lft.to/lastmile_qr_scan"}, "lon": -77.0378265, "type": "electric_scooter"}, {"bike_id": "7f43f17f2840f0f30368294bc35ec9ee", "is_reserved": 0, "fusion_lon": 0.0, "lat": 38.9039825, "is_disabled": 0, "name": "7f43f17f2840f0f30368294bc35ec9ee", "fusion_lat": 0.0, "rental_uris": {"ios": "https://dc.lft.to/lastmile_qr_scan", "android": "https://dc.lft.to/lastmile_qr_scan"}, "lon": -77.06297866666667, "type": "electric_scooter"}, {"bike_id": "9abbf9ac236a816db8e645b8760b5286", "is_reserved": 0, "fusion_lon": 0.0, "lat": 38.91887416666667, "is_disabled": 0, "name": "9abbf9ac236a816db8e645b8760b5286", "fusion_lat": 0.0, "rental_uris": {"ios": "https://dc.lft.to/lastmile_qr_scan", "android": "https://dc.lft.to/lastmile_qr_scan"}, "lon": -77.03907316666667, "type": "electric_scooter"}, {"bike_id": "db6f6956225d269e76ab923e420d9196", "is_reserved": 0, "fusion_lon": 0.0, "lat": 38.903562666666666, "is_disabled": 0, "name": "db6f6956225d269e76ab923e420d9196", "fusion_lat": 0.0, "rental_uris": {"ios": "https://dc.lft.to/lastmile_qr_scan", "android": "https://dc.lft.to/lastmile_qr_scan"}, "lon": -77.04444466666666, "type": "electric_scooter"}, {"bike_id": "99c547728ca344f685f7cfaf8b8dca71", "is_reserved": 0, "fusion_lon": 0.0, "lat": 38.949737, "is_disabled": 0, "name": "99c547728ca344f685f7cfaf8b8dca71", "fusion_lat": 0.0, "rental_uris": {"ios": "https://dc.lft.to/lastmile_qr_scan", "android": "https://dc.lft.to/lastmile_qr_scan"}, "lon": -77.0789945, "type": "electric_scooter"}, {"bike_id": "84117d18291cf29c6fd83b12fe76883e", "is_reserved": 0, "fusion_lon": 0.0, "lat": 38.896115, "is_disabled": 0, "name": "84117d18291cf29c6fd83b12fe76883e", "fusion_lat": 0.0, "rental_uris": {"ios": "https://dc.lft.to/lastmile_qr_scan", "android": "https://dc.lft.to/lastmile_qr_scan"}, "lon": -76.95579516666666, "type": "electric_scooter"}, {"bike_id": "7b0e554629c1284974f82dab6b88f6d6", "is_reserved": 0, "fusion_lon": 0.0, "lat": 38.917727666666664, "is_disabled": 0, "name": "7b0e554629c1284974f82dab6b88f6d6", "fusion_lat": 0.0, "rental_uris": {"ios": "https://dc.lft.to/lastmile_qr_scan", "android": "https://dc.lft.to/lastmile_qr_scan"}, "lon": -77.04060983333333, "type": "electric_scooter"}, {"bike_id": "c6b4f795afe29a0b04554dae468dd405", "is_reserved": 0, "fusion_lon": 0.0, "lat": 38.898996833333335, "is_disabled": 0, "name": "c6b4f795afe29a0b04554dae468dd405", "fusion_lat": 0.0, "rental_uris": {"ios": "https://dc.lft.to/lastmile_qr_scan", "android": "https://dc.lft.to/lastmile_qr_scan"}, "lon": -77.03984416666667, "type": "electric_scooter"}, {"bike_id": "4ff83eb9f464cd7f979f33883066b2c0", "is_reserved": 0, "fusion_lon": 0.0, "lat": 38.92167716666667, "is_disabled": 0, "name": "4ff83eb9f464cd7f979f33883066b2c0", "fusion_lat": 0.0, "rental_uris": {"ios": "https://dc.lft.to/lastmile_qr_scan", "android": "https://dc.lft.to/lastmile_qr_scan"}, "lon": -77.04218966666667, "type": "electric_scooter"}, {"bike_id": "27846a40f17ab95b28018793c3393629", "is_reserved": 0, "fusion_lon": 0.0, "lat": 38.9017095, "is_disabled": 0, "name": "27846a40f17ab95b28018793c3393629", "fusion_lat": 0.0, "rental_uris": {"ios": "https://dc.lft.to/lastmile_qr_scan", "android": "https://dc.lft.to/lastmile_qr_scan"}, "lon": -76.98073266666667, "type": "electric_scooter"}, {"bike_id": "496fbf371fb1462dea00e9d1863fa099", "is_reserved": 0, "fusion_lon": 0.0, "lat": 38.96384616666667, "is_disabled": 0, "name": "496fbf371fb1462dea00e9d1863fa099", "fusion_lat": 0.0, "rental_uris": {"ios": "https://dc.lft.to/lastmile_qr_scan", "android": "https://dc.lft.to/lastmile_qr_scan"}, "lon": -77.03502366666666, "type": "electric_scooter"}, {"bike_id": "0f17a4f9171830b3046c1128d6500a5c", "is_reserved": 0, "fusion_lon": 0.0, "lat": 38.899071, "is_disabled": 0, "name": "0f17a4f9171830b3046c1128d6500a5c", "fusion_lat": 0.0, "rental_uris": {"ios": "https://dc.lft.to/lastmile_qr_scan", "android": "https://dc.lft.to/lastmile_qr_scan"}, "lon": -77.03916916666667, "type": "electric_scooter"}, {"bike_id": "41688185d6b4ea55b5bc980b4cc49cc4", "is_reserved": 0, "fusion_lon": 0.0, "lat": 38.911174833333334, "is_disabled": 0, "name": "41688185d6b4ea55b5bc980b4cc49cc4", "fusion_lat": 0.0, "rental_uris": {"ios": "https://dc.lft.to/lastmile_qr_scan", "android": "https://dc.lft.to/lastmile_qr_scan"}, "lon": -77.03835183333334, "type": "electric_scooter"}, {"bike_id": "f7440210259e7b10972f9830ecaad680", "is_reserved": 0, "fusion_lon": 0.0, "lat": 38.897363166666665, "is_disabled": 0, "name": "f7440210259e7b10972f9830ecaad680", "fusion_lat": 0.0, "rental_uris": {"ios": "https://dc.lft.to/lastmile_qr_scan", "android": "https://dc.lft.to/lastmile_qr_scan"}, "lon": -77.04383166666666, "type": "electric_scooter"}, {"bike_id": "f2afe02d6407d065391450b76fd6eb2e", "is_reserved": 0, "fusion_lon": 0.0, "lat": 38.93353616666667, "is_disabled": 0, "name": "f2afe02d6407d065391450b76fd6eb2e", "fusion_lat": 0.0, "rental_uris": {"ios": "https://dc.lft.to/lastmile_qr_scan", "android": "https://dc.lft.to/lastmile_qr_scan"}, "lon": -77.06939066666666, "type": "electric_scooter"}, {"bike_id": "50ff8a2366f9d945b004ce9adca241dc", "is_reserved": 0, "fusion_lon": 0.0, "lat": 38.91123183333333, "is_disabled": 0, "name": "50ff8a2366f9d945b004ce9adca241dc", "fusion_lat": 0.0, "rental_uris": {"ios": "https://dc.lft.to/lastmile_qr_scan", "android": "https://dc.lft.to/lastmile_qr_scan"}, "lon": -77.02185866666666, "type": "electric_scooter"}, {"bike_id": "17d515c990050811ca07927b64c9b258", "is_reserved": 0, "fusion_lon": 0.0, "lat": 38.909768, "is_disabled": 0, "name": "17d515c990050811ca07927b64c9b258", "fusion_lat": 0.0, "rental_uris": {"ios": "https://dc.lft.to/lastmile_qr_scan", "android": "https://dc.lft.to/lastmile_qr_scan"}, "lon": -77.048748, "type": "electric_scooter"}, {"bike_id": "b365b986b4d47ec90f52fe3c14e41d45", "is_reserved": 0, "fusion_lon": 0.0, "lat": 38.90285033333333, "is_disabled": 0, "name": "b365b986b4d47ec90f52fe3c14e41d45", "fusion_lat": 0.0, "rental_uris": {"ios": "https://dc.lft.to/lastmile_qr_scan", "android": "https://dc.lft.to/lastmile_qr_scan"}, "lon": -77.03858566666666, "type": "electric_scooter"}, {"bike_id": "ba57c364a5b013b5712dbc2df7bf7081", "is_reserved": 0, "fusion_lon": 0.0, "lat": 38.8852925, "is_disabled": 0, "name": "ba57c364a5b013b5712dbc2df7bf7081", "fusion_lat": 0.0, "rental_uris": {"ios": "https://dc.lft.to/lastmile_qr_scan", "android": "https://dc.lft.to/lastmile_qr_scan"}, "lon": -77.00576616666666, "type": "electric_scooter"}, {"bike_id": "fc4aad5a8375cc6f934994072049f7f8", "is_reserved": 0, "fusion_lon": 0.0, "lat": 38.9236345, "is_disabled": 0, "name": "fc4aad5a8375cc6f934994072049f7f8", "fusion_lat": 0.0, "rental_uris": {"ios": "https://dc.lft.to/lastmile_qr_scan", "android": "https://dc.lft.to/lastmile_qr_scan"}, "lon": -77.05033816666666, "type": "electric_scooter"}, {"bike_id": "37c91a698c4c3d907c6a7892ab50977f", "is_reserved": 0, "fusion_lon": 0.0, "lat": 38.86664966666667, "is_disabled": 0, "name": "37c91a698c4c3d907c6a7892ab50977f", "fusion_lat": 0.0, "rental_uris": {"ios": "https://dc.lft.to/lastmile_qr_scan", "android": "https://dc.lft.to/lastmile_qr_scan"}, "lon": -76.9890795, "type": "electric_scooter"}, {"bike_id": "0ae9257630b1117c855986b4f8140899", "is_reserved": 0, "fusion_lon": 0.0, "lat": 38.90571166666667, "is_disabled": 0, "name": "0ae9257630b1117c855986b4f8140899", "fusion_lat": 0.0, "rental_uris": {"ios": "https://dc.lft.to/lastmile_qr_scan", "android": "https://dc.lft.to/lastmile_qr_scan"}, "lon": -77.03436983333333, "type": "electric_scooter"}, {"bike_id": "aa38fe441ed0dc07a13d2bf27baa7344", "is_reserved": 0, "fusion_lon": 0.0, "lat": 38.924699833333335, "is_disabled": 0, "name": "aa38fe441ed0dc07a13d2bf27baa7344", "fusion_lat": 0.0, "rental_uris": {"ios": "https://dc.lft.to/lastmile_qr_scan", "android": "https://dc.lft.to/lastmile_qr_scan"}, "lon": -77.037671, "type": "electric_scooter"}, {"bike_id": "240086c03f5e690d3ebebdfdd2c199ec", "is_reserved": 0, "fusion_lon": 0.0, "lat": 38.9052885, "is_disabled": 0, "name": "240086c03f5e690d3ebebdfdd2c199ec", "fusion_lat": 0.0, "rental_uris": {"ios": "https://dc.lft.to/lastmile_qr_scan", "android": "https://dc.lft.to/lastmile_qr_scan"}, "lon": -77.05034966666666, "type": "electric_scooter"}, {"bike_id": "0e2ba89ef7015cc3a4261fe9c3bd15a4", "is_reserved": 0, "fusion_lon": 0.0, "lat": 38.930938166666664, "is_disabled": 0, "name": "0e2ba89ef7015cc3a4261fe9c3bd15a4", "fusion_lat": 0.0, "rental_uris": {"ios": "https://dc.lft.to/lastmile_qr_scan", "android": "https://dc.lft.to/lastmile_qr_scan"}, "lon": -77.025168, "type": "electric_scooter"}, {"bike_id": "7adb72aba269a3cc8a6d61ceca171af7", "is_reserved": 0, "fusion_lon": 0.0, "lat": 38.8980995, "is_disabled": 0, "name": "7adb72aba269a3cc8a6d61ceca171af7", "fusion_lat": 0.0, "rental_uris": {"ios": "https://dc.lft.to/lastmile_qr_scan", "android": "https://dc.lft.to/lastmile_qr_scan"}, "lon": -77.00604666666666, "type": "electric_bike"}, {"bike_id": "b83f4759288c10c44bdca331b2d60721", "is_reserved": 0, "fusion_lon": 0.0, "lat": 38.907311, "is_disabled": 0, "name": "b83f4759288c10c44bdca331b2d60721", "fusion_lat": 0.0, "rental_uris": {"ios": "https://dc.lft.to/lastmile_qr_scan", "android": "https://dc.lft.to/lastmile_qr_scan"}, "lon": -77.04238766666667, "type": "electric_scooter"}, {"bike_id": "7327c9e3c395d9fa697e0d1c4b9371c3", "is_reserved": 0, "fusion_lon": 0.0, "lat": 38.90374766666667, "is_disabled": 0, "name": "7327c9e3c395d9fa697e0d1c4b9371c3", "fusion_lat": 0.0, "rental_uris": {"ios": "https://dc.lft.to/lastmile_qr_scan", "android": "https://dc.lft.to/lastmile_qr_scan"}, "lon": -77.04016516666667, "type": "electric_scooter"}, {"bike_id": "dcf00f23bfc12d8828765b2d86e4cf3f", "is_reserved": 0, "fusion_lon": 0.0, "lat": 38.850631, "is_disabled": 0, "name": "dcf00f23bfc12d8828765b2d86e4cf3f", "fusion_lat": 0.0, "rental_uris": {"ios": "https://dc.lft.to/lastmile_qr_scan", "android": "https://dc.lft.to/lastmile_qr_scan"}, "lon": -76.973276, "type": "electric_bike"}, {"bike_id": "78b3176fd05351fb32205f6813024895", "is_reserved": 0, "fusion_lon": 0.0, "lat": 38.90377616666667, "is_disabled": 0, "name": "78b3176fd05351fb32205f6813024895", "fusion_lat": 0.0, "rental_uris": {"ios": "https://dc.lft.to/lastmile_qr_scan", "android": "https://dc.lft.to/lastmile_qr_scan"}, "lon": -77.04502733333334, "type": "electric_scooter"}, {"bike_id": "9bb5b599f59bf8f97a7a34fa79c151a9", "is_reserved": 0, "fusion_lon": 0.0, "lat": 38.940138833333336, "is_disabled": 0, "name": "9bb5b599f59bf8f97a7a34fa79c151a9", "fusion_lat": 0.0, "rental_uris": {"ios": "https://dc.lft.to/lastmile_qr_scan", "android": "https://dc.lft.to/lastmile_qr_scan"}, "lon": -77.07173866666666, "type": "electric_scooter"}, {"bike_id": "b7b35de5c9b03734423eec06574f7a06", "is_reserved": 0, "fusion_lon": 0.0, "lat": 38.915619166666666, "is_disabled": 0, "name": "b7b35de5c9b03734423eec06574f7a06", "fusion_lat": 0.0, "rental_uris": {"ios": "https://dc.lft.to/lastmile_qr_scan", "android": "https://dc.lft.to/lastmile_qr_scan"}, "lon": -77.037641, "type": "electric_scooter"}, {"bike_id": "21dfc44cf9a54898313e55af2feab015", "is_reserved": 0, "fusion_lon": 0.0, "lat": 38.906116833333336, "is_disabled": 0, "name": "21dfc44cf9a54898313e55af2feab015", "fusion_lat": 0.0, "rental_uris": {"ios": "https://dc.lft.to/lastmile_qr_scan", "android": "https://dc.lft.to/lastmile_qr_scan"}, "lon": -77.04144183333334, "type": "electric_scooter"}, {"bike_id": "1fae00ec719b6a5566f4cf6baf53c7af", "is_reserved": 0, "fusion_lon": 0.0, "lat": 38.90782216666667, "is_disabled": 0, "name": "1fae00ec719b6a5566f4cf6baf53c7af", "fusion_lat": 0.0, "rental_uris": {"ios": "https://dc.lft.to/lastmile_qr_scan", "android": "https://dc.lft.to/lastmile_qr_scan"}, "lon": -77.03861416666666, "type": "electric_scooter"}, {"bike_id": "84583b92f614f18be659f2eb2b4e27c3", "is_reserved": 0, "fusion_lon": 0.0, "lat": 38.895217, "is_disabled": 0, "name": "84583b92f614f18be659f2eb2b4e27c3", "fusion_lat": 0.0, "rental_uris": {"ios": "https://dc.lft.to/lastmile_qr_scan", "android": "https://dc.lft.to/lastmile_qr_scan"}, "lon": -77.02931283333334, "type": "electric_scooter"}, {"bike_id": "c0e79e076cd8cad6d456e3594d405bc6", "is_reserved": 0, "fusion_lon": 0.0, "lat": 38.91002116666667, "is_disabled": 0, "name": "c0e79e076cd8cad6d456e3594d405bc6", "fusion_lat": 0.0, "rental_uris": {"ios": "https://dc.lft.to/lastmile_qr_scan", "android": "https://dc.lft.to/lastmile_qr_scan"}, "lon": -77.02101183333333, "type": "electric_scooter"}, {"bike_id": "c3b1fbf60d3888531728053ce72e948e", "is_reserved": 0, "fusion_lon": 0.0, "lat": 38.915451833333336, "is_disabled": 0, "name": "c3b1fbf60d3888531728053ce72e948e", "fusion_lat": 0.0, "rental_uris": {"ios": "https://dc.lft.to/lastmile_qr_scan", "android": "https://dc.lft.to/lastmile_qr_scan"}, "lon": -77.02348416666666, "type": "electric_scooter"}, {"bike_id": "d4cd6874108d86a9068ec086db1ef8b8", "is_reserved": 0, "fusion_lon": 0.0, "lat": 38.91692783333333, "is_disabled": 0, "name": "d4cd6874108d86a9068ec086db1ef8b8", "fusion_lat": 0.0, "rental_uris": {"ios": "https://dc.lft.to/lastmile_qr_scan", "android": "https://dc.lft.to/lastmile_qr_scan"}, "lon": -77.0289535, "type": "electric_scooter"}, {"bike_id": "cd976929e7df7c88c2620629117c4d2c", "is_reserved": 0, "fusion_lon": 0.0, "lat": 38.90211516666667, "is_disabled": 0, "name": "cd976929e7df7c88c2620629117c4d2c", "fusion_lat": 0.0, "rental_uris": {"ios": "https://dc.lft.to/lastmile_qr_scan", "android": "https://dc.lft.to/lastmile_qr_scan"}, "lon": -77.01981466666666, "type": "electric_scooter"}, {"bike_id": "f5cfdb046a905a7226f7cc22e147bba6", "is_reserved": 0, "fusion_lon": 0.0, "lat": 38.924403833333336, "is_disabled": 0, "name": "f5cfdb046a905a7226f7cc22e147bba6", "fusion_lat": 0.0, "rental_uris": {"ios": "https://dc.lft.to/lastmile_qr_scan", "android": "https://dc.lft.to/lastmile_qr_scan"}, "lon": -77.03379133333334, "type": "electric_scooter"},