{"data": {"bikes": [{"is_reserved": 0, "lat": 38.90258516666667, "is_disabled": 0, "type": "electric_scooter", "fusion_lat": 0.0, "bike_id": "f0fb625163c8c177114fc7194a0ab222", "rental_uris": {"ios": "https://dc.lft.to/lastmile_qr_scan", "android": "https://dc.lft.to/lastmile_qr_scan"}, "fusion_lon": 0.0, "name": "f0fb625163c8c177114fc7194a0ab222", "lon": -77.0335535}, {"is_reserved": 0, "lat": 38.95651866666667, "is_disabled": 0, "type": "electric_scooter", "fusion_lat": 0.0, "bike_id": "ccf8b256ff86e1eba4b6e7b8ac81ae1a", "rental_uris": {"ios": "https://dc.lft.to/lastmile_qr_scan", "android": "https://dc.lft.to/lastmile_qr_scan"}, "fusion_lon": 0.0, "name": "ccf8b256ff86e1eba4b6e7b8ac81ae1a", "lon": -77.01965983333334}, {"is_reserved": 0, "lat": 38.89299583333333, "is_disabled": 0, "type": "electric_scooter", "fusion_lat": 0.0, "bike_id": "9e31fa3702920aec3cfdf48d9448146a", "rental_uris": {"ios": "https://dc.lft.to/lastmile_qr_scan", "android": "https://dc.lft.to/lastmile_qr_scan"}, "fusion_lon": 0.0, "name": "9e31fa3702920aec3cfdf48d9448146a", "lon": -77.041843}, {"is_reserved": 0, "lat": 38.99330616666667, "is_disabled": 0, "type": "electric_bike", "fusion_lat": 0.0, "bike_id": "8ff2c8b41c7acc344427828eb5506b5e", "rental_uris": {"ios": "https://dc.lft.to/lastmile_qr_scan", "android": "https://dc.lft.to/lastmile_qr_scan"}, "fusion_lon": 0.0, "name": "8ff2c8b41c7acc344427828eb5506b5e", "lon": -77.11564283333334}, {"is_reserved": 0, "lat": 38.9112315, "is_disabled": 0, "type": "electric_scooter", "fusion_lat": 0.0, "bike_id": "ebf1a22672fcf6a158941773ea4be4de", "rental_uris": {"ios": "https://dc.lft.to/lastmile_qr_scan", "android": "https://dc.lft.to/lastmile_qr_scan"}, "fusion_lon": 0.0, "name": "ebf1a22672fcf6a158941773ea4be4de", "lon": -77.02694183333334}, {"is_reserved": 0, "lat": 38.896362833333335, "is_disabled": 0, "type": "electric_scooter", "fusion_lat": 0.0, "bike_id": "78c133cec33fc0dedbee686a68eca429", "rental_uris": {"ios": "https://dc.lft.to/lastmile_qr_scan", "android": "https://dc.lft.to/lastmile_qr_scan"}, "fusion_lon": 0.0, "name": "78c133cec33fc0dedbee686a68eca429", "lon": -77.02611266666666}, {"is_reserved": 0, "lat": 38.91551166666667, "is_disabled": 0, "type": "electric_scooter", "fusion_lat": 0.0, "bike_id": "5e54ec62ee45dded33b21c250e0bbbbc", "rental_uris": {"ios": "https://dc.lft.to/lastmile_qr_scan", "android": "https://dc.lft.to/lastmile_qr_scan"}, "fusion_lon": 0.0, "name": "5e54ec62ee45dded33b21c250e0bbbbc", "lon": -77.04144283333333}, {"is_reserved": 0, "lat": 38.9111655, "is_disabled": 0, "type": "electric_scooter", "fusion_lat": 0.0, "bike_id": "7d1a83e209aa1b8f8bdf7f4fc9bd8105", "rental_uris": {"ios": "https://dc.lft.to/lastmile_qr_scan", "android": "https://dc.lft.to/lastmile_qr_scan"}, "fusion_lon": 0.0, "name": "7d1a83e209aa1b8f8bdf7f4fc9bd8105", "lon": -77.03828416666667}, {"is_reserved": 0, "lat": 38.866506666666666, "is_disabled": 0, "type": "electric_scooter", "fusion_lat": 0.0, "bike_id": "3805d0e79f561f737d8f925fca82b275", "rental_uris": {"ios": "https://dc.lft.to/lastmile_qr_scan", "android": "https://dc.lft.to/lastmile_qr_scan"}, "fusion_lon": 0.0, "name": "3805d0e79f561f737d8f925fca82b275", "lon": -76.98880833333334}, {"is_reserved": 0, "lat": 38.92986783333333, "is_disabled": 0, "type": "electric_scooter", "fusion_lat": 0.0, "bike_id": "42a90b91d753a4a8dfb206a066d827cd", "rental_uris": {"ios": "https://dc.lft.to/lastmile_qr_scan", "android": "https://dc.lft.to/lastmile_qr_scan"}, "fusion_lon": 0.0, "name": "42a90b91d753a4a8dfb206a066d827cd", "lon": -77.05506033333333}, {"is_reserved": 0, "lat": 38.90548233333333, "is_disabled": 0, "type": "electric_scooter", "fusion_lat": 0.0, "bike_id": "18eb3e6c336774bb8b7e2160023ac8c7", "rental_uris": {"ios": "https://dc.lft.to/lastmile_qr_scan", "android": "https://dc.lft.to/lastmile_qr_scan"}, "fusion_lon": 0.0, "name": "18eb3e6c336774bb8b7e2160023ac8c7", "lon": -77.04743283333333}, {"is_reserved": 0, "lat": 38.905167166666665, "is_disabled": 0, "type": "electric_scooter", "fusion_lat": 0.0, "bike_id": "20f2a6c5769da255458942c105f49abf", "rental_uris": {"ios": "https://dc.lft.to/lastmile_qr_scan", "android": "https://dc.lft.to/lastmile_qr_scan"}, "fusion_lon": 0.0, "name": "20f2a6c5769da255458942c105f49abf", "lon": -77.04762633333333}, {"is_reserved": 0, "lat": 38.903766833333336, "is_disabled": 0, "type": "electric_scooter", "fusion_lat": 0.0, "bike_id": "b35c0860ce67f4475ec3388bced4727d", "rental_uris": {"ios": "https://dc.lft.to/lastmile_qr_scan", "android": "https://dc.lft.to/lastmile_qr_scan"}, "fusion_lon": 0.0, "name": "b35c0860ce67f4475ec3388bced4727d", "lon": -77.04521816666667}, {"is_reserved": 0, "lat": 38.881428166666666, "is_disabled": 0, "type": "electric_bike", "fusion_lat": 0.0, "bike_id": "0f33d04c9d5e09bf8a44ff39825ae496", "rental_uris": {"ios": "https://dc.lft.to/lastmile_qr_scan", "android": "https://dc.lft.to/lastmile_qr_scan"}, "fusion_lon": 0.0, "name": "0f33d04c9d5e09bf8a44ff39825ae496", "lon": -77.1146085}, {"is_reserved": 0, "lat": 38.903874, "is_disabled": 0, "type": "electric_scooter", "fusion_lat": 0.0, "bike_id": "89e9796fef29e2e3f50f17de65094cb6", "rental_uris": {"ios": "https://dc.lft.to/lastmile_qr_scan", "android": "https://dc.lft.to/lastmile_qr_scan"}, "fusion_lon": 0.0, "name": "89e9796fef29e2e3f50f17de65094cb6", "lon": -77.03472083333334}, {"is_reserved": 0, "lat": 38.911576333333336, "is_disabled": 0, "type": "electric_scooter", "fusion_lat": 0.0, "bike_id": "dc2935428b08b7c1db4c7d5e18f4ec62", "rental_uris": {"ios": "https://dc.lft.to/lastmile_qr_scan", "android": "https://dc.lft.to/lastmile_qr_scan"}, "fusion_lon": 0.0, "name": "dc2935428b08b7c1db4c7d5e18f4ec62", "lon": -77.04483033333334}, {"is_reserved": 0, "lat": 38.89561483333333, "is_disabled": 0, "type": "electric_bike", "fusion_lat": 0.0, "bike_id": "d03d19019310ca22ba014eba7870f6a3", "rental_uris": {"ios": "https://dc.lft.to/lastmile_qr_scan", "android": "https://dc.lft.to/lastmile_qr_scan"}, "fusion_lon": 0.0, "name": "d03d19019310ca22ba014eba7870f6a3", "lon": -77.127301}, {"is_reserved": 0, "lat": 38.92473116666667, "is_disabled": 0, "type": "electric_scooter", "fusion_lat": 0.0, "bike_id": "36b704a3c360909da6f35e063d6e269b", "rental_uris": {"ios": "https://dc.lft.to/lastmile_qr_scan", "android": "https://dc.lft.to/lastmile_qr_scan"}, "fusion_lon": 0.0, "name": "36b704a3c360909da6f35e063d6e269b", "lon": -77.02331783333334}, {"is_reserved": 0, "lat": 38.9003125, "is_disabled": 0, "type": "electric_scooter", "fusion_lat": 0.0, "bike_id": "bfbf222cdae3a07702ebf8dd70ec921b", "rental_uris": {"ios": "https://dc.lft.to/lastmile_qr_scan", "android": "https://dc.lft.to/lastmile_qr_scan"}, "fusion_lon": 0.0, "name": "bfbf222cdae3a07702ebf8dd70ec921b", "lon": -76.98820583333334}, {"is_reserved": 0, "lat": 38.903912166666665, "is_disabled": 0, "type": "electric_scooter", "fusion_lat": 0.0, "bike_id": "c0d87f66338433de82f993ba425d9d4c", "rental_uris": {"ios": "https://dc.lft.to/lastmile_qr_scan", "android": "https://dc.lft.to/lastmile_qr_scan"}, "fusion_lon": 0.0, "name": "c0d87f66338433de82f993ba425d9d4c", "lon": -77.03836116666666}, {"is_reserved": 0, "lat": 38.902150666666664, "is_disabled": 0, "type": "electric_scooter", "fusion_lat": 0.0, "bike_id": "e121d0dc11c9d0237e3432f0fa899c35", "rental_uris": {"ios": "https://dc.lft.to/lastmile_qr_scan", "android": "https://dc.lft.to/lastmile_qr_scan"}, "fusion_lon": 0.0, "name": "e121d0dc11c9d0237e3432f0fa899c35", "lon": -77.04675866666666}, {"is_reserved": 0, "lat": 38.9044775, "is_disabled": 0, "type": "electric_scooter", "fusion_lat": 0.0, "bike_id": "04910992ee71cc9d895b88915b46a2c6", "rental_uris": {"ios": "https://dc.lft.to/lastmile_qr_scan", "android": "https://dc.lft.to/lastmile_qr_scan"}, "fusion_lon": 0.0, "name": "04910992ee71cc9d895b88915b46a2c6", "lon": -76.9741985}, {"is_reserved": 0, "lat": 39.03048066666667, "is_disabled": 0, "type": "electric_bike", "fusion_lat": 0.0, "bike_id": "91477e78ec685895c0a9d92a1f6e6c46", "rental_uris": {"ios": "https://dc.lft.to/lastmile_qr_scan", "android": "https://dc.lft.to/lastmile_qr_scan"}, "fusion_lon": 0.0, "name": "91477e78ec685895c0a9d92a1f6e6c46", "lon": -77.09483033333333}, {"is_reserved": 0, "lat": 38.875803833333336, "is_disabled": 0, "type": "electric_scooter", "fusion_lat": 0.0, "bike_id": "aa356dd06909edfbb78eb8cdca1fcf00", "rental_uris": {"ios": "https://dc.lft.to/lastmile_qr_scan", "android": "https://dc.lft.to/lastmile_qr_scan"}, "fusion_lon": 0.0, "name": "aa356dd06909edfbb78eb8cdca1fcf00", "lon": -77.02084266666667}, {"is_reserved": 0, "lat": 38.90499066666667, "is_disabled": 0, "type": "electric_scooter", "fusion_lat": 0.0, "bike_id": "f81f6c4883903327cd0aa56f50d903b5", "rental_uris": {"ios": "https://dc.lft.to/lastmile_qr_scan", "android": "https://dc.lft.to/lastmile_qr_scan"}, "fusion_lon": 0.0, "name": "f81f6c4883903327cd0aa56f50d903b5", "lon": -77.02943333333333}, {"is_reserved": 0, "lat": 38.90993983333333, "is_disabled": 0, "type": "electric_scooter", "fusion_lat": 0.0, "bike_id": "4e7d4f5112f661fd5eea2deb78ab759c", "rental_uris": {"ios": "https://dc.lft.to/lastmile_qr_scan", "android": "https://dc.lft.to/lastmile_qr_scan"}, "fusion_lon": 0.0, "name": "4e7d4f5112f661fd5eea2deb78ab759c", "lon": -77.03656216666667}, {"is_reserved": 0, "lat": 38.91484783333333, "is_disabled": 0, "type": "electric_scooter", "fusion_lat": 0.0, "bike_id": "a92b5fe109744ff35ef6639132f422c1", "rental_uris": {"ios": "https://dc.lft.to/lastmile_qr_scan", "android": "https://dc.lft.to/lastmile_qr_scan"}, "fusion_lon": 0.0, "name": "a92b5fe109744ff35ef6639132f422c1", "lon": -77.0321}, {"is_reserved": 0, "lat": 38.884833666666665, "is_disabled": 0, "type": "electric_scooter", "fusion_lat": 0.0, "bike_id": "61f697bc1ac05fe192b1cb0d7855376f", "rental_uris": {"ios": "https://dc.lft.to/lastmile_qr_scan", "android": "https://dc.lft.to/lastmile_qr_scan"}, "fusion_lon": 0.0, "name": "61f697bc1ac05fe192b1cb0d7855376f", "lon": -77.01987383333334}, {"is_reserved": 0, "lat": 38.9087225, "is_disabled": 0, "type": "electric_scooter", "fusion_lat": 0.0, "bike_id": "52b9e8da05a9cdcc8ff958a03144ff5b", "rental_uris": {"ios": "https://dc.lft.to/lastmile_qr_scan", "android": "https://dc.lft.to/lastmile_qr_scan"}, "fusion_lon": 0.0, "name": "52b9e8da05a9cdcc8ff958a03144ff5b", "lon": -77.02694133333334}, {"is_reserved": 0, "lat": 38.906969, "is_disabled": 0, "type": "electric_scooter", "fusion_lat": 0.0, "bike_id": "a9dccd7b387be0fed88e868322dbd294", "rental_uris": {"ios": "https://dc.lft.to/lastmile_qr_scan", "android": "https://dc.lft.to/lastmile_qr_scan"}, "fusion_lon": 0.0, "name": "a9dccd7b387be0fed88e868322dbd294", "lon": -77.03665416666666}, {"is_reserved": 0, "lat": 38.9397715, "is_disabled": 0, "type": "electric_scooter", "fusion_lat": 0.0, "bike_id": "e2f8b7998b285d37d4618f59715f0dcb", "rental_uris": {"ios": "https://dc.lft.to/lastmile_qr_scan", "android": "https://dc.lft.to/lastmile_qr_scan"}, "fusion_lon": 0.0, "name": "e2f8b7998b285d37d4618f59715f0dcb", "lon": -77.0289495}, {"is_reserved": 0, "lat": 38.88837733333333, "is_disabled": 0, "type": "electric_scooter", "fusion_lat": 0.0, "bike_id": "ebcc93959d16e6738f148454bf2edcd4", "rental_uris": {"ios": "https://dc.lft.to/lastmile_qr_scan", "android": "https://dc.lft.to/lastmile_qr_scan"}, "fusion_lon": 0.0, "name": "ebcc93959d16e6738f148454bf2edcd4", "lon": -77.04901733333334}, {"is_reserved": 0, "lat": 38.873913, "is_disabled": 0, "type": "electric_scooter", "fusion_lat": 0.0, "bike_id": "8a492f977680c9f4f13c900f10ad061d", "rental_uris": {"ios": "https://dc.lft.to/lastmile_qr_scan", "android": "https://dc.lft.to/lastmile_qr_scan"}, "fusion_lon": 0.0, "name": "8a492f977680c9f4f13c900f10ad061d", "lon": -77.000277}, {"is_reserved": 0, "lat": 38.92198233333333, "is_disabled": 0, "type": "electric_scooter", "fusion_lat": 0.0, "bike_id": "464e0f5981afbaf0c6b3ce349d4e817e", "rental_uris": {"ios": "https://dc.lft.to/lastmile_qr_scan", "android": "https://dc.lft.to/lastmile_qr_scan"}, "fusion_lon": 0.0, "name": "464e0f5981afbaf0c6b3ce349d4e817e", "lon": -77.02084983333333}, {"is_reserved": 0, "lat": 38.8811845, "is_disabled": 0, "type": "electric_scooter", "fusion_lat": 0.0, "bike_id": "cf9e1cd6dee02b6f4555f0ce5f72e16f", "rental_uris": {"ios": "https://dc.lft.to/lastmile_qr_scan", "android": "https://dc.lft.to/lastmile_qr_scan"}, "fusion_lon": 0.0, "name": "cf9e1cd6dee02b6f4555f0ce5f72e16f", "lon": -77.01404983333333}, {"is_reserved": 0, "lat": 38.909557166666666, "is_disabled": 0, "type": "electric_scooter", "fusion_lat": 0.0, "bike_id": "083f0021ad2161509be194c03d806c76", "rental_uris": {"ios": "https://dc.lft.to/lastmile_qr_scan", "android": "https://dc.lft.to/lastmile_qr_scan"}, "fusion_lon": 0.0, "name": "083f0021ad2161509be194c03d806c76", "lon": -77.0412095}, {"is_reserved": 0, "lat": 38.90974033333333, "is_disabled": 0, "type": "electric_scooter", "fusion_lat": 0.0, "bike_id": "4fb2d05e3cec436dd2e9d32b0d5ddd11", "rental_uris": {"ios": "https://dc.lft.to/lastmile_qr_scan", "android": "https://dc.lft.to/lastmile_qr_scan"}, "fusion_lon": 0.0, "name": "4fb2d05e3cec436dd2e9d32b0d5ddd11", "lon": -77.03333466666666}, {"is_reserved": 0, "lat": 38.91960683333333, "is_disabled": 0, "type": "electric_scooter", "fusion_lat": 0.0, "bike_id": "494edb1dc408f22950f7a5a79a0dc800", "rental_uris": {"ios": "https://dc.lft.to/lastmile_qr_scan", "android": "https://dc.lft.to/lastmile_qr_scan"}, "fusion_lon": 0.0, "name": "494edb1dc408f22950f7a5a79a0dc800", "lon": -77.01434}, {"is_reserved": 0, "lat": 38.886336666666665, "is_disabled": 0, "type": "electric_scooter", "fusion_lat": 0.0, "bike_id": "9fc60b1f3cf0b4a858fa0cb248ea3e0f", "rental_uris": {"ios": "https://dc.lft.to/lastmile_qr_scan", "android": "https://dc.lft.to/lastmile_qr_scan"}, "fusion_lon": 0.0, "name": "9fc60b1f3cf0b4a858fa0cb248ea3e0f", "lon": -76.99618266666667}, {"is_reserved": 0, "lat": 38.892209, "is_disabled": 0, "type": "electric_scooter", "fusion_lat": 0.0, "bike_id": "fe201aad65d1ad2be2e9e3b35914128a", "rental_uris": {"ios": "https://dc.lft.to/lastmile_qr_scan", "android": "https://dc.lft.to/lastmile_qr_scan"}, "fusion_lon": 0.0, "name": "fe201aad65d1ad2be2e9e3b35914128a", "lon": -77.04645816666667}, {"is_reserved": 0, "lat": 38.95636616666667, "is_disabled": 0, "type": "electric_bike", "fusion_lat": 0.0, "bike_id": "32670ef5b02c2218ef5ea35201cb38cb", "rental_uris": {"ios": "https://dc.lft.to/lastmile_qr_scan", "android": "https://dc.lft.to/lastmile_qr_scan"}, "fusion_lon": 0.0, "name": "32670ef5b02c2218ef5ea35201cb38cb", "lon": -76.93888266666667}, {"is_reserved": 0, "lat": 38.919296833333334, "is_disabled": 0, "type": "electric_scooter", "fusion_lat": 0.0, "bike_id": "e88c565473839e14447bca6364ba32d2", "rental_uris": {"ios": "https://dc.lft.to/lastmile_qr_scan", "android": "https://dc.lft.to/lastmile_qr_scan"}, "fusion_lon": 0.0, "name": "e88c565473839e14447bca6364ba32d2", "lon": -77.04637933333333}, {"is_reserved": 0, "lat": 38.901331666666664, "is_disabled": 0, "type": "electric_scooter", "fusion_lat": 0.0, "bike_id": "7b14255464bfd6cac7f9e3bad82a3357", "rental_uris": {"ios": "https://dc.lft.to/lastmile_qr_scan", "android": "https://dc.lft.to/lastmile_qr_scan"}, "fusion_lon": 0.0, "name": "7b14255464bfd6cac7f9e3bad82a3357", "lon": -77.043939}, {"is_reserved": 0, "lat": 38.83607083333333, "is_disabled": 0, "type": "electric_bike", "fusion_lat": 0.0, "bike_id": "8c5a4785d6b4f621d39849be226a61c0", "rental_uris": {"ios": "https://dc.lft.to/lastmile_qr_scan", "android": "https://dc.lft.to/lastmile_qr_scan"}, "fusion_lon": 0.0, "name": "8c5a4785d6b4f621d39849be226a61c0", "lon": -77.00380616666666}, {"is_reserved": 0, "lat": 38.9183895, "is_disabled": 0, "type": "electric_scooter", "fusion_lat": 0.0, "bike_id": "6264f0f5e5ace25519d136b6bd5366ec", "rental_uris": {"ios": "https://dc.lft.to/lastmile_qr_scan", "android": "https://dc.lft.to/lastmile_qr_scan"}, "fusion_lon": 0.0, "name": "6264f0f5e5ace25519d136b6bd5366ec", "lon": -77.034397}, {"is_reserved": 0, "lat": 38.89949583333333, "is_disabled": 0, "type": "electric_scooter", "fusion_lat": 0.0, "bike_id": "c006b10027dc6dcd8a50345dd4951d41", "rental_uris": {"ios": "https://dc.lft.to/lastmile_qr_scan", "android": "https://dc.lft.to/lastmile_qr_scan"}, "fusion_lon": 0.0, "name": "c006b10027dc6dcd8a50345dd4951d41", "lon": -77.00355016666667}, {"is_reserved": 0, "lat": 38.905122, "is_disabled": 0, "type": "electric_scooter", "fusion_lat": 0.0, "bike_id": "e09b8db8a9f7bbb89e3c877763473673", "rental_uris": {"ios": "https://dc.lft.to/lastmile_qr_scan", "android": "https://dc.lft.to/lastmile_qr_scan"}, "fusion_lon": 0.0, "name": "e09b8db8a9f7bbb89e3c877763473673", "lon": -77.00210683333333}, {"is_reserved": 0, "lat": 38.926273333333334, "is_disabled": 0, "type": "electric_scooter", "fusion_lat": 0.0, "bike_id": "e2b92b8c34608f8e935e3119d0f3c09b", "rental_uris": {"ios": "https://dc.lft.to/lastmile_qr_scan", "android": "https://dc.lft.to/lastmile_qr_scan"}, "fusion_lon": 0.0, "name": "e2b92b8c34608f8e935e3119d0f3c09b", "lon": -77.03502966666667}, {"is_reserved": 0, "lat": 38.90820083333333, "is_disabled": 0, "type": "electric_scooter", "fusion_lat": 0.0, "bike_id": "ca57393b6d9654281f4a3592725e0956", "rental_uris": {"ios": "https://dc.lft.to/lastmile_qr_scan", "android": "https://dc.lft.to/lastmile_qr_scan"}, "fusion_lon": 0.0, "name": "ca57393b6d9654281f4a3592725e0956", "lon": -77.01796933333334}, {"is_reserved": 0, "lat": 38.91588866666667, "is_disabled": 0, "type": "electric_scooter", "fusion_lat": 0.0, "bike_id": "4ca429ff9d16b221630d4758c9ceeb06", "rental_uris": {"ios": "https://dc.lft.to/lastmile_qr_scan", "android": "https://dc.lft.to/lastmile_qr_scan"}, "fusion_lon": 0.0, "name": "4ca429ff9d16b221630d4758c9ceeb06", "lon": -77.016505}, {"is_reserved": 0, "lat": 38.92640466666667, "is_disabled": 0, "type": "electric_scooter", "fusion_lat": 0.0, "bike_id": "8d1a14ada8cf996f64ee21e2522b928f", "rental_uris": {"ios": "https://dc.lft.to/lastmile_qr_scan", "android": "https://dc.lft.to/lastmile_qr_scan"}, "fusion_lon": 0.0, "name": "8d1a14ada8cf996f64ee21e2522b928f", "lon": -77.037015}, {"is_reserved": 0, "lat": 38.88365616666667, "is_disabled": 0, "type": "electric_scooter", "fusion_lat": 0.0, "bike_id": "bd22afb29b595d91227283fdb8441fb9", "rental_uris": {"ios": "https://dc.lft.to/lastmile_qr_scan", "android": "https://dc.lft.to/lastmile_qr_scan"}, "fusion_lon": 0.0, "name": "bd22afb29b595d91227283fdb8441fb9", "lon": -77.0257795}, {"is_reserved": 0, "lat": 38.927139333333336, "is_disabled": 0, "type": "electric_scooter", "fusion_lat": 0.0, "bike_id": "754b2f0a862fa887fcc59d772ac93534", "rental_uris": {"ios": "https://dc.lft.to/lastmile_qr_scan", "android": "https://dc.lft.to/lastmile_qr_scan"}, "fusion_lon": 0.0, "name": "754b2f0a862fa887fcc59d772ac93534", "lon": -77.0233325}, {"is_reserved": 0, "lat": 38.925688666666666, "is_disabled": 0, "type": "electric_scooter", "fusion_lat": 0.0, "bike_id": "26f65d70d5a98dee668074b165b69bce", "rental_uris": {"ios": "https://dc.lft.to/lastmile_qr_scan", "android": "https://dc.lft.to/lastmile_qr_scan"}, "fusion_lon": 0.0, "name": "26f65d70d5a98dee668074b165b69bce", "lon": -76.9964105}, {"is_reserved": 0, "lat": 38.90756666666667, "is_disabled": 0, "type": "electric_scooter", "fusion_lat": 0.0, "bike_id": "e1e64283e006ccffde316b89d50913e6", "rental_uris": {"ios": "https://dc.lft.to/lastmile_qr_scan", "android": "https://dc.lft.to/lastmile_qr_scan"}, "fusion_lon": 0.0, "name": "e1e64283e006ccffde316b89d50913e6", "lon": -77.0344835}, {"is_reserved": 0, "lat": 38.90620166666667, "is_disabled": 0, "type": "electric_scooter", "fusion_lat": 0.0, "bike_id": "1d02c8a30e1e5612b9209aad136a1e57", "rental_uris": {"ios": "https://dc.lft.to/lastmile_qr_scan", "android": "https://dc.lft.to/lastmile_qr_scan"}, "fusion_lon": 0.0, "name": "1d02c8a30e1e5612b9209aad136a1e57", "lon": -77.03963683333333}, {"is_reserved": 0, "lat": 38.897307833333336, "is_disabled": 0, "type": "electric_scooter", "fusion_lat": 0.0, "bike_id": "539397ea49c263a2c779d554518d3d98", "rental_uris": {"ios": "https://dc.lft.to/lastmile_qr_scan", "android": "https://dc.lft.to/lastmile_qr_scan"}, "fusion_lon": 0.0, "name": "539397ea49c263a2c779d554518d3d98", "lon": -77.0232785}, {"is_reserved": 0, "lat": 38.87967866666666, "is_disabled": 0, "type": "electric_bike", "fusion_lat": 0.0, "bike_id": "7957fe8e185100a35491f8a4e705ff3f", "rental_uris": {"ios": "https://dc.lft.to/lastmile_qr_scan", "android": "https://dc.lft.to/lastmile_qr_scan"}, "fusion_lon": 0.0, "name": "7957fe8e185100a35491f8a4e705ff3f", "lon": -76.94281733333334}, {"is_reserved": 0, "lat": 38.89492716666667, "is_disabled": 0, "type": "electric_scooter", "fusion_lat": 0.0, "bike_id": "9bd080e3e2fd38133adb34d4b7937f4a", "rental_uris": {"ios": "https://dc.lft.to/lastmile_qr_scan", "android": "https://dc.lft.to/lastmile_qr_scan"}, "fusion_lon": 0.0, "name": "9bd080e3e2fd38133adb34d4b7937f4a", "lon": -76.94944633333333}, {"is_reserved": 0, "lat": 38.906442166666665, "is_disabled": 0, "type": "electric_scooter", "fusion_lat": 0.0, "bike_id": "1260b7021c71d03f690bbf36a78b2859", "rental_uris": {"ios": "https://dc.lft.to/lastmile_qr_scan", "android": "https://dc.lft.to/lastmile_qr_scan"}, "fusion_lon": 0.0, "name": "1260b7021c71d03f690bbf36a78b2859", "lon": -77.01690683333334}, {"is_reserved": 0, "lat": 38.88627533333333, "is_disabled": 0, "type": "electric_scooter", "fusion_lat": 0.0, "bike_id": "b590a7bb93eb4ed758153b1a84ab9bab", "rental_uris": {"ios": "https://dc.lft.to/lastmile_qr_scan", "android": "https://dc.lft.to/lastmile_qr_scan"}, "fusion_lon": 0.0, "name": "b590a7bb93eb4ed758153b1a84ab9bab", "lon": -76.946819}, {"is_reserved": 0, "lat": 38.9638165, "is_disabled": 0, "type": "electric_scooter", "fusion_lat": 0.0, "bike_id": "bb6694acc4cc9a00feec7751dd7fdbf0", "rental_uris": {"ios": "https://dc.lft.to/lastmile_qr_scan", "android": "https://dc.lft.to/lastmile_qr_scan"}, "fusion_lon": 0.0, "name": "bb6694acc4cc9a00feec7751dd7fdbf0", "lon": -77.03499483333333}, {"is_reserved": 0, "lat": 38.87703966666667, "is_disabled": 0, "type": "electric_bike", "fusion_lat": 0.0, "bike_id": "2a9533ac36c24cf5213b67e52e05fae0", "rental_uris": {"ios": "https://dc.lft.to/lastmile_qr_scan", "android": "https://dc.lft.to/lastmile_qr_scan"}, "fusion_lon": 0.0, "name": "2a9533ac36c24cf5213b67e52e05fae0", "lon": -77.011763}, {"is_reserved": 0, "lat": 38.90569266666667, "is_disabled": 0, "type": "electric_scooter", "fusion_lat": 0.0, "bike_id": "b763129784f93cb4f9fb145df21f3de5", "rental_uris": {"ios": "https://dc.lft.to/lastmile_qr_scan", "android": "https://dc.lft.to/lastmile_qr_scan"}, "fusion_lon": 0.0, "name": "b763129784f93cb4f9fb145df21f3de5", "lon": -77.03067783333333}, {"is_reserved": 0, "lat": 38.8922695, "is_disabled": 0, "type": "electric_scooter", "fusion_lat": 0.0, "bike_id": "668a7f2cce5cb00aa97eb007eddc42d1", "rental_uris": {"ios": "https://dc.lft.to/lastmile_qr_scan", "android": "https://dc.lft.to/lastmile_qr_scan"}, "fusion_lon": 0.0, "name": "668a7f2cce5cb00aa97eb007eddc42d1", "lon": -77.0499585}, {"is_reserved": 0, "lat": 38.982685833333335, "is_disabled": 0, "type": "electric_bike", "fusion_lat": 0.0, "bike_id": "adead98acb543616c6e2aa57f92ae361", "rental_uris": {"ios": "https://dc.lft.to/lastmile_qr_scan", "android": "https://dc.lft.to/lastmile_qr_scan"}, "fusion_lon": 0.0, "name": "adead98acb543616c6e2aa57f92ae361", "lon": -77.01761166666667}, {"is_reserved": 0, "lat": 38.93707366666667, "is_disabled": 0, "type": "electric_scooter", "fusion_lat": 0.0, "bike_id": "5ca8f3018855ff53fff8ac15e5b808dc", "rental_uris": {"ios": "https://dc.lft.to/lastmile_qr_scan", "android": "https://dc.lft.to/lastmile_qr_scan"}, "fusion_lon": 0.0, "name": "5ca8f3018855ff53fff8ac15e5b808dc", "lon": -77.023979}, {"is_reserved": 0, "lat": 38.917905833333336, "is_disabled": 0, "type": "electric_scooter", "fusion_lat": 0.0, "bike_id": "ed7692d4f18ec7685840755a818eae57", "rental_uris": {"ios": "https://dc.lft.to/lastmile_qr_scan", "android": "https://dc.lft.to/lastmile_qr_scan"}, "fusion_lon": 0.0, "name": "ed7692d4f18ec7685840755a818eae57", "lon": -77.04093233333333}, {"is_reserved": 0, "lat": 38.887668, "is_disabled": 0, "type": "electric_scooter", "fusion_lat": 0.0, "bike_id": "27b2214be12252a965b3bbd0175bb3c9", "rental_uris": {"ios": "https://dc.lft.to/lastmile_qr_scan", "android": "https://dc.lft.to/lastmile_qr_scan"}, "fusion_lon": 0.0, "name": "27b2214be12252a965b3bbd0175bb3c9", "lon": -76.99758}, {"is_reserved": 0, "lat": 38.8945405, "is_disabled": 0, "type": "electric_scooter", "fusion_lat": 0.0, "bike_id": "c1ee5cc5c362ffe188d4f323c3943bce", "rental_uris": {"ios": "https://dc.lft.to/lastmile_qr_scan", "android": "https://dc.lft.to/lastmile_qr_scan"}, "fusion_lon": 0.0, "name": "c1ee5cc5c362ffe188d4f323c3943bce", "lon": -76.97806666666666}, {"is_reserved": 0, "lat": 38.984998, "is_disabled": 0, "type": "electric_bike", "fusion_lat": 0.0, "bike_id": "70db7acc6704c0c709d469da65084d07", "rental_uris": {"ios": "https://dc.lft.to/lastmile_qr_scan", "android": "https://dc.lft.to/lastmile_qr_scan"}, "fusion_lon": 0.0, "name": "70db7acc6704c0c709d469da65084d07", "lon": -76.98186883333334}, {"is_reserved": 0, "lat": 38.92335516666667, "is_disabled": 0, "type": "electric_scooter", "fusion_lat": 0.0, "bike_id": "9924505a0ba2d051b6783866701ceeb2", "rental_uris": {"ios": "https://dc.lft.to/lastmile_qr_scan", "android": "https://dc.lft.to/lastmile_qr_scan"}, "fusion_lon": 0.0, "name": "9924505a0ba2d051b6783866701ceeb2", "lon": -77.01898816666667}, {"is_reserved": 0, "lat": 38.941113, "is_disabled": 0, "type": "electric_scooter", "fusion_lat": 0.0, "bike_id": "6a0f11069c35960b57682242ae449447", "rental_uris": {"ios": "https://dc.lft.to/lastmile_qr_scan", "android": "https://dc.lft.to/lastmile_qr_scan"}, "fusion_lon": 0.0, "name": "6a0f11069c35960b57682242ae449447", "lon": -77.02088466666666}, {"is_reserved": 0, "lat": 38.9111185, "is_disabled": 0, "type": "electric_scooter", "fusion_lat": 0.0, "bike_id": "cc455473702b60254d5fa39902e959b2", "rental_uris": {"ios": "https://dc.lft.to/lastmile_qr_scan", "android": "https://dc.lft.to/lastmile_qr_scan"}, "fusion_lon": 0.0, "name": "cc455473702b60254d5fa39902e959b2", "lon": -77.00708633333333}, {"is_reserved": 0, "lat": 38.903850166666665, "is_disabled": 0, "type": "electric_scooter", "fusion_lat": 0.0, "bike_id": "4da6be3907e30816291c96b6bab0303b", "rental_uris": {"ios": "https://dc.lft.to/lastmile_qr_scan", "android": "https://dc.lft.to/lastmile_qr_scan"}, "fusion_lon": 0.0, "name": "4da6be3907e30816291c96b6bab0303b", "lon": -77.00879283333333}, {"is_reserved": 0, "lat": 38.8984265, "is_disabled": 0, "type": "electric_scooter", "fusion_lat": 0.0, "bike_id": "68d52743b43ca21199bb89cb86c215d5", "rental_uris": {"ios": "https://dc.lft.to/lastmile_qr_scan", "android": "https://dc.lft.to/lastmile_qr_scan"}, "fusion_lon": 0.0, "name": "68d52743b43ca21199bb89cb86c215d5", "lon": -77.04365683333333}, {"is_reserved": 0, "lat": 38.930773333333335, "is_disabled": 0, "type": "electric_scooter", "fusion_lat": 0.0, "bike_id": "07c45b28b8521cdb0223c54848bda0bc", "rental_uris": {"ios": "https://dc.lft.to/lastmile_qr_scan", "android": "https://dc.lft.to/lastmile_qr_scan"}, "fusion_lon": 0.0, "name": "07c45b28b8521cdb0223c54848bda0bc", "lon": -77.02790733333333}, {"is_reserved": 0, "lat": 38.90271116666667, "is_disabled": 0, "type": "electric_scooter", "fusion_lat": 0.0, "bike_id": "3303d94b02a948729e460737e4a7c8bb", "rental_uris": {"ios": "https://dc.lft.to/lastmile_qr_scan", "android": "https://dc.lft.to/lastmile_qr_scan"}, "fusion_lon": 0.0, "name": "3303d94b02a948729e460737e4a7c8bb", "lon": -77.02489116666666}, {"is_reserved": 0, "lat": 38.90123583333333, "is_disabled": 0, "type": "electric_scooter", "fusion_lat": 0.0, "bike_id": "bbd52190bb84a5291e1ada2c95bf7598", "rental_uris": {"ios": "https://dc.lft.to/lastmile_qr_scan", "android": "https://dc.lft.to/lastmile_qr_scan"}, "fusion_lon": 0.0, "name": "bbd52190bb84a5291e1ada2c95bf7598", "lon": -77.0589455}, {"is_reserved": 0, "lat": 38.8986775, "is_disabled": 0, "type": "electric_scooter", "fusion_lat": 0.0, "bike_id": "f2be2aab6edf8602f5d127d4e843ed3d", "rental_uris": {"ios": "https://dc.lft.to/lastmile_qr_scan", "android": "https://dc.lft.to/lastmile_qr_scan"}, "fusion_lon": 0.0, "name": "f2be2aab6edf8602f5d127d4e843ed3d", "lon": -77.027243}, {"is_reserved": 0, "lat": 38.8651865, "is_disabled": 0, "type": "electric_scooter", "fusion_lat": 0.0, "bike_id": "cfcef7ae5632c33148ed5520525761ee", "rental_uris": {"ios": "https://dc.lft.to/lastmile_qr_scan", "android": "https://dc.lft.to/lastmile_qr_scan"}, "fusion_lon": 0.0, "name": "cfcef7ae5632c33148ed5520525761ee", "lon": -76.990302}, {"is_reserved": 0, "lat": 38.90016416666667, "is_disabled": 0, "type": "electric_scooter", "fusion_lat": 0.0, "bike_id": "47e2c0d55e5dfc141349a00871581df5", "rental_uris": {"ios": "https://dc.lft.to/lastmile_qr_scan", "android": "https://dc.lft.to/lastmile_qr_scan"}, "fusion_lon": 0.0, "name": "47e2c0d55e5dfc141349a00871581df5", "lon": -77.03965666666667}, {"is_reserved": 0, "lat": 38.9053245, "is_disabled": 0, "type": "electric_scooter", "fusion_lat": 0.0, "bike_id": "c631ab676cb871a1589c9e6834ec26c9", "rental_uris": {"ios": "https://dc.lft.to/lastmile_qr_scan", "android": "https://dc.lft.to/lastmile_qr_scan"}, "fusion_lon": 0.0, "name": "c631ab676cb871a1589c9e6834ec26c9", "lon": -77.0502425}, {"is_reserved": 0, "lat": 38.92772183333334, "is_disabled": 0, "type": "electric_scooter", "fusion_lat": 0.0, "bike_id": "8194a5900f3369bb7530520f29e60d79", "rental_uris": {"ios": "https://dc.lft.to/lastmile_qr_scan", "android": "https://dc.lft.to/lastmile_qr_scan"}, "fusion_lon": 0.0, "name": "8194a5900f3369bb7530520f29e60d79", "lon": -77.027459}, {"is_reserved": 0, "lat": 38.897253666666664, "is_disabled": 0, "type": "electric_scooter", "fusion_lat": 0.0, "bike_id": "48dafdd83579bdeb4ef328c6e21e8617", "rental_uris": {"ios": "https://dc.lft.to/lastmile_qr_scan", "android": "https://dc.lft.to/lastmile_qr_scan"}, "fusion_lon": 0.0, "name": "48dafdd83579bdeb4ef328c6e21e8617", "lon": -77.0552105}, {"is_reserved": 0, "lat": 38.852169833333335, "is_disabled": 0, "type": "electric_bike", "fusion_lat": 0.0, "bike_id": "27c421b9c7f01bcfa587987d1613d825", "rental_uris": {"ios": "https://dc.lft.to/lastmile_qr_scan", "android": "https://dc.lft.to/lastmile_qr_scan"}, "fusion_lon": 0.0, "name": "27c421b9c7f01bcfa587987d1613d825", "lon": -77.129577}, {"is_reserved": 0, "lat": 38.872088166666664, "is_disabled": 0, "type": "electric_scooter", "fusion_lat": 0.0, "bike_id": "cfc7b0b7301fd23773fb1ac9c710417a", "rental_uris": {"ios": "https://dc.lft.to/lastmile_qr_scan", "android": "https://dc.lft.to/lastmile_qr_scan"}, "fusion_lon": 0.0, "name": "cfc7b0b7301fd23773fb1ac9c710417a", "lon": -77.00920816666667}, {"is_reserved": 0, "lat": 38.86513466666667, "is_disabled": 0, "type": "electric_bike", "fusion_lat": 0.0, "bike_id": "237d0e43dec8f619c5b374195604f544", "rental_uris": {"ios": "https://dc.lft.to/lastmile_qr_scan", "android": "https://dc.lft.to/lastmile_qr_scan"}, "fusion_lon": 0.0, "name": "237d0e43dec8f619c5b374195604f544", "lon": -76.97329016666667}, {"is_reserved": 0, "lat": 38.86658033333333, "is_disabled": 0, "type": "electric_scooter", "fusion_lat": 0.0, "bike_id": "aa4ec310b9150bab31e6c5789f860876", "rental_uris": {"ios": "https://dc.lft.to/lastmile_qr_scan", "android": "https://dc.lft.to/lastmile_qr_scan"}, "fusion_lon": 0.0, "name": "aa4ec310b9150bab31e6c5789f860876", "lon": -76.98525066666667}, {"is_reserved": 0, "lat": 38.904956166666665, "is_disabled": 0, "type": "electric_scooter", "fusion_lat": 0.0, "bike_id": "34647f3e01af1bd6a852b771f197c075", "rental_uris": {"ios": "https://dc.lft.to/lastmile_qr_scan", "android": "https://dc.lft.to/lastmile_qr_scan"}, "fusion_lon": 0.0, "name": "34647f3e01af1bd6a852b771f197c075", "lon": -77.02939333333333}, {"is_reserved": 0, "lat": 38.903686, "is_disabled": 0, "type": "electric_scooter", "fusion_lat": 0.0, "bike_id": "fd07603e0cf33b149fff2290f0d8c933", "rental_uris": {"ios": "https://dc.lft.to/lastmile_qr_scan", "android": "https://dc.lft.to/lastmile_qr_scan"}, "fusion_lon": 0.0, "name": "fd07603e0cf33b149fff2290f0d8c933", "lon": -77.038227}, {"is_reserved": 0, "lat": 38.90258166666667, "is_disabled": 0, "type": "electric_scooter", "fusion_lat": 0.0, "bike_id": "0ad756ccdaf5cf5639e274e2acdf20a3", "rental_uris": {"ios": "https://dc.lft.to/lastmile_qr_scan", "android": "https://dc.lft.to/lastmile_qr_scan"}, "fusion_lon": 0.0, "name": "0ad756ccdaf5cf5639e274e2acdf20a3", "lon": -77.01751883333333}, {"is_reserved": 0, "lat": 38.89624533333333, "is_disabled": 0, "type": "electric_scooter", "fusion_lat": 0.0, "bike_id": "f0fec1e238a68de373a51a4ec9753b59", "rental_uris": {"ios": "https://dc.lft.to/lastmile_qr_scan", "android": "https://dc.lft.to/lastmile_qr_scan"}, "fusion_lon": 0.0, "name": "f0fec1e238a68de373a51a4ec9753b59", "lon": -77.03017433333333}, {"is_reserved": 0, "lat": 38.89305616666667, "is_disabled": 0, "type": "electric_scooter", "fusion_lat": 0.0, "bike_id": "9019f0bf229652194f9333d85eb1fec3", "rental_uris": {"ios": "https://dc.lft.to/lastmile_qr_scan", "android": "https://dc.lft.to/lastmile_qr_scan"}, "fusion_lon": 0.0, "name": "9019f0bf229652194f9333d85eb1fec3", "lon": -77.01517533333333}, {"is_reserved": 0, "lat": 38.896218, "is_disabled": 0, "type": "electric_scooter", "fusion_lat": 0.0, "bike_id": "9247fa4dfd611146bf71e21ea130fc3b", "rental_uris": {"ios": "https://dc.lft.to/lastmile_qr_scan", "android": "https://dc.lft.to/lastmile_qr_scan"}, "fusion_lon": 0.0, "name": "9247fa4dfd611146bf71e21ea130fc3b", "lon": -77.02402066666667}, {"is_reserved": 0, "lat": 38.927942333333334, "is_disabled": 0, "type": "electric_scooter", "fusion_lat": 0.0, "bike_id": "a32a1acd1aed5dfbc0eea2d678fe9ac5", "rental_uris": {"ios": "https://dc.lft.to/lastmile_qr_scan", "android": "https://dc.lft.to/lastmile_qr_scan"}, "fusion_lon": 0.0, "name": "a32a1acd1aed5dfbc0eea2d678fe9ac5", "lon": -77.05331083333333}, {"is_reserved": 0, "lat": 38.91688083333333, "is_disabled": 0, "type": "electric_scooter", "fusion_lat": 0.0, "bike_id": "6a8528b05f269d5d7fff93fb293bdbdf", "rental_uris": {"ios": "https://dc.lft.to/lastmile_qr_scan", "android": "https://dc.lft.to/lastmile_qr_scan"}, "fusion_lon": 0.0, "name": "6a8528b05f269d5d7fff93fb293bdbdf", "lon": -77.03857516666666}, {"is_reserved": 0, "lat": 38.88110566666667, "is_disabled": 0, "type": "electric_scooter", "fusion_lat": 0.0, "bike_id": "cf772de7ae5fc4336d089554596f8d8f", "rental_uris": {"ios": "https://dc.lft.to/lastmile_qr_scan", "android": "https://dc.lft.to/lastmile_qr_scan"}, "fusion_lon": 0.0, "name": "cf772de7ae5fc4336d089554596f8d8f", "lon": -77.01677116666667}, {"is_reserved": 0, "lat": 38.8659395, "is_disabled": 0, "type": "electric_bike", "fusion_lat": 0.0, "bike_id": "e5126cd051fc4a3d9d16c4cb9fda65d6", "rental_uris": {"ios": "https://dc.lft.to/lastmile_qr_scan", "android": "https://dc.lft.to/lastmile_qr_scan"}, "fusion_lon": 0.0, "name": "e5126cd051fc4a3d9d16c4cb9fda65d6", "lon": -76.98770933333333}, {"is_reserved": 0, "lat": 38.870832666666665, "is_disabled": 0, "type": "electric_scooter", "fusion_lat": 0.0, "bike_id": "0f1f92f7dd4e43a486fcc902c9b3be5c", "rental_uris": {"ios": "https://dc.lft.to/lastmile_qr_scan", "android": "https://dc.lft.to/lastmile_qr_scan"}, "fusion_lon": 0.0, "name": "0f1f92f7dd4e43a486fcc902c9b3be5c", "lon": -77.01211533333333}, {"is_reserved": 0, "lat": 38.92485933333333, "is_disabled": 0, "type": "electric_scooter", "fusion_lat": 0.0, "bike_id": "163a5f1f4211d4f8c00e7cb6ca89d7c6", "rental_uris": {"ios": "https://dc.lft.to/lastmile_qr_scan", "android": "https://dc.lft.to/lastmile_qr_scan"}, "fusion_lon": 0.0, "name": "163a5f1f4211d4f8c00e7cb6ca89d7c6", "lon": -77.00887716666666}, {"is_reserved": 0, "lat": 38.9216375, "is_disabled": 0, "type": "electric_scooter", "fusion_lat": 0.0, "bike_id": "6e3aaf24f7e13d0c30638fe793b9a653", "rental_uris": {"ios": "https://dc.lft.to/lastmile_qr_scan", "android": "https://dc.lft.to/lastmile_qr_scan"}, "fusion_lon": 0.0, "name": "6e3aaf24f7e13d0c30638fe793b9a653", "lon": -76.994015}, {"is_reserved": 0, "lat": 38.90382316666667, "is_disabled": 0, "type": "electric_scooter", "fusion_lat": 0.0, "bike_id": "ad902e399aa80c40c1c367c7cdd4547c", "rental_uris": {"ios": "https://dc.lft.to/lastmile_qr_scan", "android": "https://dc.lft.to/lastmile_qr_scan"}, "fusion_lon": 0.0, "name": "ad902e399aa80c40c1c367c7cdd4547c", "lon": -77.045035}, {"is_reserved": 0, "lat": 38.895132, "is_disabled": 0, "type": "electric_scooter", "fusion_lat": 0.0, "bike_id": "0500d98a6afe494054e63fe8136b1ca6", "rental_uris": {"ios": "https://dc.lft.to/lastmile_qr_scan", "android": "https://dc.lft.to/lastmile_qr_scan"}, "fusion_lon": 0.0, "name": "0500d98a6afe494054e63fe8136b1ca6", "lon": -76.93039416666667}, {"is_reserved": 0, "lat": 38.91813583333333, "is_disabled": 0, "type": "electric_scooter", "fusion_lat": 0.0, "bike_id": "c23a7ad8cc0513eedc15f3ffd97c8bc7", "rental_uris": {"ios": "https://dc.lft.to/lastmile_qr_scan", "android": "https://dc.lft.to/lastmile_qr_scan"}, "fusion_lon": 0.0, "name": "c23a7ad8cc0513eedc15f3ffd97c8bc7", "lon": -77.02475033333333}, {"is_reserved": 0, "lat": 38.90071783333333, "is_disabled": 0, "type": "electric_scooter", "fusion_lat": 0.0, "bike_id": "1c84b49cbcf62838527389e96fcc94ac", "rental_uris": {"ios": "https://dc.lft.to/lastmile_qr_scan", "android": "https://dc.lft.to/lastmile_qr_scan"}, "fusion_lon": 0.0, "name": "1c84b49cbcf62838527389e96fcc94ac", "lon": -77.04904816666667}, {"is_reserved": 0, "lat": 38.94152183333333, "is_disabled": 0, "type": "electric_scooter", "fusion_lat": 0.0, "bike_id": "902b4e5e41c8469f368bdd69c23fc428", "rental_uris": {"ios": "https://dc.lft.to/lastmile_qr_scan", "android": "https://dc.lft.to/lastmile_qr_scan"}, "fusion_lon": 0.0, "name": "902b4e5e41c8469f368bdd69c23fc428", "lon": -77.09253583333333}, {"is_reserved": 0, "lat": 38.903514666666666, "is_disabled": 0, "type": "electric_scooter", "fusion_lat": 0.0, "bike_id": "d7682710706ebbe48d053e253e489618", "rental_uris": {"ios": "https://dc.lft.to/lastmile_qr_scan", "android": "https://dc.lft.to/lastmile_qr_scan"}, "fusion_lon": 0.0, "name": "d7682710706ebbe48d053e253e489618", "lon": -77.01113383333333}, {"is_reserved": 0, "lat": 38.90032866666667, "is_disabled": 0, "type": "electric_scooter", "fusion_lat": 0.0, "bike_id": "47858324e995bc3b48aa490a3aef888f", "rental_uris": {"ios": "https://dc.lft.to/lastmile_qr_scan", "android": "https://dc.lft.to/lastmile_qr_scan"}, "fusion_lon": 0.0, "name": "47858324e995bc3b48aa490a3aef888f", "lon": -76.98824533333334}, {"is_reserved": 0, "lat": 38.9162215, "is_disabled": 0, "type": "electric_scooter", "fusion_lat": 0.0, "bike_id": "997d5c8f1744511a12510c3aea0794c8", "rental_uris": {"ios": "https://dc.lft.to/lastmile_qr_scan", "android": "https://dc.lft.to/lastmile_qr_scan"}, "fusion_lon": 0.0, "name": "997d5c8f1744511a12510c3aea0794c8", "lon": -77.03278016666667}, {"is_reserved": 0, "lat": 38.903916333333335, "is_disabled": 0, "type": "electric_scooter", "fusion_lat": 0.0, "bike_id": "20e259ea6a3545244fab6d333073be0c", "rental_uris": {"ios": "https://dc.lft.to/lastmile_qr_scan", "android": "https://dc.lft.to/lastmile_qr_scan"}, "fusion_lon": 0.0, "name": "20e259ea6a3545244fab6d333073be0c", "lon": -77.04467416666667}, {"is_reserved": 0, "lat": 38.932114166666665, "is_disabled": 0, "type": "electric_scooter", "fusion_lat": 0.0, "bike_id": "54ece7cc70c70853f67458b98c0e11a8", "rental_uris": {"ios": "https://dc.lft.to/lastmile_qr_scan", "android": "https://dc.lft.to/lastmile_qr_scan"}, "fusion_lon": 0.0, "name": "54ece7cc70c70853f67458b98c0e11a8", "lon": -77.03856316666666}, {"is_reserved": 0, "lat": 38.924308833333335, "is_disabled": 0, "type": "electric_scooter", "fusion_lat": 0.0, "bike_id": "1985ed27936dc779c032521752cea1e9", "rental_uris": {"ios": "https://dc.lft.to/lastmile_qr_scan", "android": "https://dc.lft.to/lastmile_qr_scan"}, "fusion_lon": 0.0, "name": "1985ed27936dc779c032521752cea1e9", "lon": -77.04009816666667}, {"is_reserved": 0, "lat": 38.9156175, "is_disabled": 0, "type": "electric_scooter", "fusion_lat": 0.0, "bike_id": "170d854511c2e4eaaa1f2d142b0ade34", "rental_uris": {"ios": "https://dc.lft.to/lastmile_qr_scan", "android": "https://dc.lft.to/lastmile_qr_scan"}, "fusion_lon": 0.0, "name": "170d854511c2e4eaaa1f2d142b0ade34", "lon": -77.031195}, {"is_reserved": 0, "lat": 38.89198416666667, "is_disabled": 0, "type": "electric_scooter", "fusion_lat": 0.0, "bike_id": "de126067227b2a63b08551f7e001cc8e", "rental_uris": {"ios": "https://dc.lft.to/lastmile_qr_scan", "android": "https://dc.lft.to/lastmile_qr_scan"}, "fusion_lon": 0.0, "name": "de126067227b2a63b08551f7e001cc8e", "lon": -77.00298533333333}, {"is_reserved": 0, "lat": 38.93558266666667, "is_disabled": 0, "type": "electric_scooter", "fusion_lat": 0.0, "bike_id": "974efec7a8ff16976fbb32c73f127f43", "rental_uris": {"ios": "https://dc.lft.to/lastmile_qr_scan", "android": "https://dc.lft.to/lastmile_qr_scan"}, "fusion_lon": 0.0, "name": "974efec7a8ff16976fbb32c73f127f43", "lon": -77.03257066666667}, {"is_reserved": 0, "lat": 38.8402765, "is_disabled": 0, "type": "electric_bike", "fusion_lat": 0.0, "bike_id": "d2fa00522d63584c3c29baa027c89b77", "rental_uris": {"ios": "https://dc.lft.to/lastmile_qr_scan", "android": "https://dc.lft.to/lastmile_qr_scan"}, "fusion_lon": 0.0, "name": "d2fa00522d63584c3c29baa027c89b77", "lon": -76.97585816666667}, {"is_reserved": 0, "lat": 38.92340433333333, "is_disabled": 0, "type": "electric_scooter", "fusion_lat": 0.0, "bike_id": "0432d6619adb42e5f750bb0e0e68234e", "rental_uris": {"ios": "https://dc.lft.to/lastmile_qr_scan", "android": "https://dc.lft.to/lastmile_qr_scan"}, "fusion_lon": 0.0, "name": "0432d6619adb42e5f750bb0e0e68234e", "lon": -77.0506075}, {"is_reserved": 0, "lat": 38.91649616666667, "is_disabled": 0, "type": "electric_scooter", "fusion_lat": 0.0, "bike_id": "78f6195f66d6d1b3c2df1fd8eb9f2c23", "rental_uris": {"ios": "https://dc.lft.to/lastmile_qr_scan", "android": "https://dc.lft.to/lastmile_qr_scan"}, "fusion_lon": 0.0, "name": "78f6195f66d6d1b3c2df1fd8eb9f2c23", "lon": -77.04159416666667}, {"is_reserved": 0, "lat": 38.92710666666667, "is_disabled": 0, "type": "electric_scooter", "fusion_lat": 0.0, "bike_id": "345738aa4578c9999d7a4381b216c9a7", "rental_uris": {"ios": "https://dc.lft.to/lastmile_qr_scan", "android": "https://dc.lft.to/lastmile_qr_scan"}, "fusion_lon": 0.0, "name": "345738aa4578c9999d7a4381b216c9a7", "lon": -77.02096716666667}, {"is_reserved": 0, "lat": 38.89725933333333, "is_disabled": 0, "type": "electric_scooter", "fusion_lat": 0.0, "bike_id": "56e02aef7e73bbaeb2380ab0540cf5fb", "rental_uris": {"ios": "https://dc.lft.to/lastmile_qr_scan", "android": "https://dc.lft.to/lastmile_qr_scan"}, "fusion_lon": 0.0, "name": "56e02aef7e73bbaeb2380ab0540cf5fb", "lon": -76.9938515}, {"is_reserved": 0, "lat": 38.921653, "is_disabled": 0, "type": "electric_scooter", "fusion_lat": 0.0, "bike_id": "9b84df6993a16b6a4b7bf9d1bd000b23", "rental_uris": {"ios": "https://dc.lft.to/lastmile_qr_scan", "android": "https://dc.lft.to/lastmile_qr_scan"}, "fusion_lon": 0.0, "name": "9b84df6993a16b6a4b7bf9d1bd000b23", "lon": -77.0422985}, {"is_reserved": 0, "lat": 38.94957333333333, "is_disabled": 0, "type": "electric_scooter", "fusion_lat": 0.0, "bike_id": "d81581b40a330bbc36ad896f1e9e127a", "rental_uris": {"ios": "https://dc.lft.to/lastmile_qr_scan", "android": "https://dc.lft.to/lastmile_qr_scan"}, "fusion_lon": 0.0, "name": "d81581b40a330bbc36ad896f1e9e127a", "lon": -77.027201}, {"is_reserved": 0, "lat": 38.901367, "is_disabled": 0, "type": "electric_scooter", "fusion_lat": 0.0, "bike_id": "c64ab52d49d119d05520c433d3202ee5", "rental_uris": {"ios": "https://dc.lft.to/lastmile_qr_scan", "android": "https://dc.lft.to/lastmile_qr_scan"}, "fusion_lon": 0.0, "name": "c64ab52d49d119d05520c433d3202ee5", "lon": -77.0607735}, {"is_reserved": 0, "lat": 38.89686066666667, "is_disabled": 0, "type": "electric_scooter", "fusion_lat": 0.0, "bike_id": "6c53780fe48a58d0c10d4ff318a78380", "rental_uris": {"ios": "https://dc.lft.to/lastmile_qr_scan", "android": "https://dc.lft.to/lastmile_qr_scan"}, "fusion_lon": 0.0, "name": "6c53780fe48a58d0c10d4ff318a78380", "lon": -77.00495433333333}, {"is_reserved": 0, "lat": 38.90737633333333, "is_disabled": 0, "type": "electric_scooter", "fusion_lat": 0.0, "bike_id": "dc6fc5070577f74e8fb13a2ca69edd91", "rental_uris": {"ios": "https://dc.lft.to/lastmile_qr_scan", "android": "https://dc.lft.to/lastmile_qr_scan"}, "fusion_lon": 0.0, "name": "dc6fc5070577f74e8fb13a2ca69edd91", "lon": -77.04193733333334}, {"is_reserved": 0, "lat": 38.842922, "is_disabled": 0, "type": "electric_scooter", "fusion_lat": 0.0, "bike_id": "e55eaaf2df8fc5e68e6675252cbd276f", "rental_uris": {"ios": "https://dc.lft.to/lastmile_qr_scan", "android": "https://dc.lft.to/lastmile_qr_scan"}, "fusion_lon": 0.0, "name": "e55eaaf2df8fc5e68e6675252cbd276f", "lon": -76.99945716666667}, {"is_reserved": 0, "lat": 38.895058, "is_disabled": 0, "type": "electric_scooter", "fusion_lat": 0.0, "bike_id": "347bd62b3e8cea603f9b27f5178a9e9d", "rental_uris": {"ios": "https://dc.lft.to/lastmile_qr_scan", "android": "https://dc.lft.to/lastmile_qr_scan"}, "fusion_lon": 0.0, "name": "347bd62b3e8cea603f9b27f5178a9e9d", "lon": -77.016154}, {"is_reserved": 0, "lat": 38.88744033333333, "is_disabled": 0, "type": "electric_scooter", "fusion_lat": 0.0, "bike_id": "2b45df338dbcc3537e5222dda78d05d1", "rental_uris": {"ios": "https://dc.lft.to/lastmile_qr_scan", "android": "https://dc.lft.to/lastmile_qr_scan"}, "fusion_lon": 0.0, "name": "2b45df338dbcc3537e5222dda78d05d1", "lon": -77.022128}, {"is_reserved": 0, "lat": 38.93824216666667, "is_disabled": 0, "type": "electric_scooter", "fusion_lat": 0.0, "bike_id": "6f48acf858264b3e7f6ce334faef2756", "rental_uris": {"ios": "https://dc.lft.to/lastmile_qr_scan", "android": "https://dc.lft.to/lastmile_qr_scan"}, "fusion_lon": 0.0, "name": "6f48acf858264b3e7f6ce334faef2756", "lon": -76.9861335}, {"is_reserved": 0, "lat": 38.9032235, "is_disabled": 0, "type": "electric_scooter", "fusion_lat": 0.0, "bike_id": "cbef4199a633feb018f1617549ff7cd6", "rental_uris": {"ios": "https://dc.lft.to/lastmile_qr_scan", "android": "https://dc.lft.to/lastmile_qr_scan"}, "fusion_lon": 0.0, "name": "cbef4199a633feb018f1617549ff7cd6", "lon": -77.024553}, {"is_reserved": 0, "lat": 38.917514833333335, "is_disabled": 0, "type": "electric_scooter", "fusion_lat": 0.0, "bike_id": "9f23ed32d86ff6e23e3ee5c12ff1d9bb", "rental_uris": {"ios": "https://dc.lft.to/lastmile_qr_scan", "android": "https://dc.lft.to/lastmile_qr_scan"}, "fusion_lon": 0.0, "name": "9f23ed32d86ff6e23e3ee5c12ff1d9bb", "lon": -77.03071983333334}, {"is_reserved": 0, "lat": 38.923314, "is_disabled": 0, "type": "electric_scooter", "fusion_lat": 0.0, "bike_id": "0d130f5c59a2bce3d25c622f4130689b", "rental_uris": {"ios": "https://dc.lft.to/lastmile_qr_scan", "android": "https://dc.lft.to/lastmile_qr_scan"}, "fusion_lon": 0.0, "name": "0d130f5c59a2bce3d25c622f4130689b", "lon": -77.02968116666666}, {"is_reserved": 0, "lat": 38.91553183333333, "is_disabled": 0, "type": "electric_scooter", "fusion_lat": 0.0, "bike_id": "5a5ea5c010a096b2c873a3ac177b2854", "rental_uris": {"ios": "https://dc.lft.to/lastmile_qr_scan", "android": "https://dc.lft.to/lastmile_qr_scan"}, "fusion_lon": 0.0, "name": "5a5ea5c010a096b2c873a3ac177b2854", "lon": -77.0395435}, {"is_reserved": 0, "lat": 38.8579115, "is_disabled": 0, "type": "electric_bike", "fusion_lat": 0.0, "bike_id": "c896e4578a37914f8184d06fa610ecc3", "rental_uris": {"ios": "https://dc.lft.to/lastmile_qr_scan", "android": "https://dc.lft.to/lastmile_qr_scan"}, "fusion_lon": 0.0, "name": "c896e4578a37914f8184d06fa610ecc3", "lon": -77.09959233333333}, {"is_reserved": 0, "lat": 38.951940666666665, "is_disabled": 0, "type": "electric_scooter", "fusion_lat": 0.0, "bike_id": "3a1e1d3b808dba0004b44e7443d84a6e", "rental_uris": {"ios": "https://dc.lft.to/lastmile_qr_scan", "android": "https://dc.lft.to/lastmile_qr_scan"}, "fusion_lon": 0.0, "name": "3a1e1d3b808dba0004b44e7443d84a6e", "lon": -77.06661016666666}, {"is_reserved": 0, "lat": 38.903572, "is_disabled": 0, "type": "electric_scooter", "fusion_lat": 0.0, "bike_id": "ffc65159de2f090713f9f127416998c4", "rental_uris": {"ios": "https://dc.lft.to/lastmile_qr_scan", "android": "https://dc.lft.to/lastmile_qr_scan"}, "fusion_lon": 0.0, "name": "ffc65159de2f090713f9f127416998c4", "lon": -77.03157066666667}, {"is_reserved": 0, "lat": 38.92253, "is_disabled": 0, "type": "electric_scooter", "fusion_lat": 0.0, "bike_id": "b0a67afb5581103a55a6a4dc7051ca9d", "rental_uris": {"ios": "https://dc.lft.to/lastmile_qr_scan", "android": "https://dc.lft.to/lastmile_qr_scan"}, "fusion_lon": 0.0, "name": "b0a67afb5581103a55a6a4dc7051ca9d", "lon": -77.0346575}, {"is_reserved": 0, "lat": 38.927911333333334, "is_disabled": 0, "type": "electric_scooter", "fusion_lat": 0.0, "bike_id": "dee9a6fbe65a1e87fca608733b79e209", "rental_uris": {"ios": "https://dc.lft.to/lastmile_qr_scan", "android": "https://dc.lft.to/lastmile_qr_scan"}, "fusion_lon": 0.0, "name": "dee9a6fbe65a1e87fca608733b79e209", "lon": -77.05287383333334}, {"is_reserved": 0, "lat": 38.914106833333335, "is_disabled": 0, "type": "electric_scooter", "fusion_lat": 0.0, "bike_id": "d95b6773487f6205cbb53b25f58cecb8", "rental_uris": {"ios": "https://dc.lft.to/lastmile_qr_scan", "android": "https://dc.lft.to/lastmile_qr_scan"}, "fusion_lon": 0.0, "name": "d95b6773487f6205cbb53b25f58cecb8", "lon": -77.00967433333334}, {"is_reserved": 0, "lat": 38.89042516666667, "is_disabled": 0, "type": "electric_scooter", "fusion_lat": 0.0, "bike_id": "991b1a3bdb81f2827ab2930b02cf5ebc", "rental_uris": {"ios": "https://dc.lft.to/lastmile_qr_scan", "android": "https://dc.lft.to/lastmile_qr_scan"}, "fusion_lon": 0.0, "name": "991b1a3bdb81f2827ab2930b02cf5ebc", "lon": -76.93755633333333}, {"is_reserved": 0, "lat": 38.887517833333334, "is_disabled": 0, "type": "electric_scooter", "fusion_lat": 0.0, "bike_id": "558db87c140350b40d3f9bc8c6416c20", "rental_uris": {"ios": "https://dc.lft.to/lastmile_qr_scan", "android": "https://dc.lft.to/lastmile_qr_scan"}, "fusion_lon": 0.0, "name": "558db87c140350b40d3f9bc8c6416c20", "lon": -76.99850583333334}, {"is_reserved": 0, "lat": 38.909316, "is_disabled": 0, "type": "electric_scooter", "fusion_lat": 0.0, "bike_id": "5258404076eefcd7ac082421f5c5ad81", "rental_uris": {"ios": "https://dc.lft.to/lastmile_qr_scan", "android": "https://dc.lft.to/lastmile_qr_scan"}, "fusion_lon": 0.0, "name": "5258404076eefcd7ac082421f5c5ad81", "lon": -77.05516166666666}, {"is_reserved": 0, "lat": 38.90855633333334, "is_disabled": 0, "type": "electric_scooter", "fusion_lat": 0.0, "bike_id": "6202f1977636acc675053bbdd96eea51", "rental_uris": {"ios": "https://dc.lft.to/lastmile_qr_scan", "android": "https://dc.lft.to/lastmile_qr_scan"}, "fusion_lon": 0.0, "name": "6202f1977636acc675053bbdd96eea51", "lon": -77.03257116666667}, {"is_reserved": 0, "lat": 38.960275, "is_disabled": 0, "type": "electric_bike", "fusion_lat": 0.0, "bike_id": "2635f5065c4e61ac5d1754fe314d560e", "rental_uris": {"ios": "https://dc.lft.to/lastmile_qr_scan", "android": "https://dc.lft.to/lastmile_qr_scan"}, "fusion_lon": 0.0, "name": "2635f5065c4e61ac5d1754fe314d560e", "lon": -77.03323533333334}, {"is_reserved": 0, "lat": 38.92276366666667, "is_disabled": 0, "type": "electric_bike", "fusion_lat": 0.0, "bike_id": "89543e0a85f5cf78faf475cd92c9982b", "rental_uris": {"ios": "https://dc.lft.to/lastmile_qr_scan", "android": "https://dc.lft.to/lastmile_qr_scan"}, "fusion_lon": 0.0, "name": "89543e0a85f5cf78faf475cd92c9982b", "lon": -77.01988416666667}, {"is_reserved": 0, "lat": 38.908821333333336, "is_disabled": 0, "type": "electric_scooter", "fusion_lat": 0.0, "bike_id": "134f71eb40d7243b617a0df99c966e1e", "rental_uris": {"ios": "https://dc.lft.to/lastmile_qr_scan", "android": "https://dc.lft.to/lastmile_qr_scan"}, "fusion_lon": 0.0, "name": "134f71eb40d7243b617a0df99c966e1e", "lon": -77.0434305}, {"is_reserved": 0, "lat": 38.912622166666665, "is_disabled": 0, "type": "electric_scooter", "fusion_lat": 0.0, "bike_id": "ad410ee99d215baf80d0eb380456ccaf", "rental_uris": {"ios": "https://dc.lft.to/lastmile_qr_scan", "android": "https://dc.lft.to/lastmile_qr_scan"}, "fusion_lon": 0.0, "name": "ad410ee99d215baf80d0eb380456ccaf", "lon": -77.03871666666667}, {"is_reserved": 0, "lat": 38.85805583333333, "is_disabled": 0, "type": "electric_scooter", "fusion_lat": 0.0, "bike_id": "01d16cf52873c56011b10e3be7762788", "rental_uris": {"ios": "https://dc.lft.to/lastmile_qr_scan", "android": "https://dc.lft.to/lastmile_qr_scan"}, "fusion_lon": 0.0, "name": "01d16cf52873c56011b10e3be7762788", "lon": -76.98649933333333}, {"is_reserved": 0, "lat": 38.858115166666664, "is_disabled": 0, "type": "electric_scooter", "fusion_lat": 0.0, "bike_id": "3844090ecd22d206db6f0ab1a34694aa", "rental_uris": {"ios": "https://dc.lft.to/lastmile_qr_scan", "android": "https://dc.lft.to/lastmile_qr_scan"}, "fusion_lon": 0.0, "name": "3844090ecd22d206db6f0ab1a34694aa", "lon": -76.98927333333333}, {"is_reserved": 0, "lat": 38.92697033333334, "is_disabled": 0, "type": "electric_scooter", "fusion_lat": 0.0, "bike_id": "26a02f595ff11addc169b30fae00a9ff", "rental_uris": {"ios": "https://dc.lft.to/lastmile_qr_scan", "android": "https://dc.lft.to/lastmile_qr_scan"}, "fusion_lon": 0.0, "name": "26a02f595ff11addc169b30fae00a9ff", "lon": -77.0523185}, {"is_reserved": 0, "lat": 38.874962833333335, "is_disabled": 0, "type": "electric_scooter", "fusion_lat": 0.0, "bike_id": "b2e43733e63a6da64251bb3153fa9138", "rental_uris": {"ios": "https://dc.lft.to/lastmile_qr_scan", "android": "https://dc.lft.to/lastmile_qr_scan"}, "fusion_lon": 0.0, "name": "b2e43733e63a6da64251bb3153fa9138", "lon": -77.002369}, {"is_reserved": 0, "lat": 38.91405266666666, "is_disabled": 0, "type": "electric_scooter", "fusion_lat": 0.0, "bike_id": "910e9b4c13d124f5b7d7bb92fa65e4d3", "rental_uris": {"ios": "https://dc.lft.to/lastmile_qr_scan", "android": "https://dc.lft.to/lastmile_qr_scan"}, "fusion_lon": 0.0, "name": "910e9b4c13d124f5b7d7bb92fa65e4d3", "lon": -77.0290035}, {"is_reserved": 0, "lat": 38.89880466666666, "is_disabled": 0, "type": "electric_scooter", "fusion_lat": 0.0, "bike_id": "4ba23192355e1b0e861ca920d22dd335", "rental_uris": {"ios": "https://dc.lft.to/lastmile_qr_scan", "android": "https://dc.lft.to/lastmile_qr_scan"}, "fusion_lon": 0.0, "name": "4ba23192355e1b0e861ca920d22dd335", "lon": -77.04019316666667}, {"is_reserved": 0, "lat": 38.907620666666666, "is_disabled": 0, "type": "electric_scooter", "fusion_lat": 0.0, "bike_id": "a5e516d90eacb1c298d1f31674d4558e", "rental_uris": {"ios": "https://dc.lft.to/lastmile_qr_scan", "android": "https://dc.lft.to/lastmile_qr_scan"}, "fusion_lon": 0.0, "name": "a5e516d90eacb1c298d1f31674d4558e", "lon": -77.00337733333333}, {"is_reserved": 0, "lat": 38.84429433333333, "is_disabled": 0, "type": "electric_scooter", "fusion_lat": 0.0, "bike_id": "b576ef1d33c9f91e6634d2f5130c1815", "rental_uris": {"ios": "https://dc.lft.to/lastmile_qr_scan", "android": "https://dc.lft.to/lastmile_qr_scan"}, "fusion_lon": 0.0, "name": "b576ef1d33c9f91e6634d2f5130c1815", "lon": -76.99815083333333}, {"is_reserved": 0, "lat": 38.897360166666665, "is_disabled": 0, "type": "electric_bike", "fusion_lat": 0.0, "bike_id": "3e51529e39521ad275c8127f54547336", "rental_uris": {"ios": "https://dc.lft.to/lastmile_qr_scan", "android": "https://dc.lft.to/lastmile_qr_scan"}, "fusion_lon": 0.0, "name": "3e51529e39521ad275c8127f54547336", "lon": -77.00937433333333}, {"is_reserved": 0, "lat": 38.93589583333333, "is_disabled": 0, "type": "electric_scooter", "fusion_lat": 0.0, "bike_id": "2b14edac68f393b249181059e940fe61", "rental_uris": {"ios": "https://dc.lft.to/lastmile_qr_scan", "android": "https://dc.lft.to/lastmile_qr_scan"}, "fusion_lon": 0.0, "name": "2b14edac68f393b249181059e940fe61", "lon": -77.05851683333333}, {"is_reserved": 0, "lat": 38.91124033333333, "is_disabled": 0, "type": "electric_scooter", "fusion_lat": 0.0, "bike_id": "1fca50162323110501416361c21fa534", "rental_uris": {"ios": "https://dc.lft.to/lastmile_qr_scan", "android": "https://dc.lft.to/lastmile_qr_scan"}, "fusion_lon": 0.0, "name": "1fca50162323110501416361c21fa534", "lon": -77.0269415}, {"is_reserved": 0, "lat": 38.914061333333336, "is_disabled": 0, "type": "electric_scooter", "fusion_lat": 0.0, "bike_id": "3a3cabe2ffa735cd51773bcb192eec20", "rental_uris": {"ios": "https://dc.lft.to/lastmile_qr_scan", "android": "https://dc.lft.to/lastmile_qr_scan"}, "fusion_lon": 0.0, "name": "3a3cabe2ffa735cd51773bcb192eec20", "lon": -77.03225066666667}, {"is_reserved": 0, "lat": 38.872678, "is_disabled": 0, "type": "electric_scooter", "fusion_lat": 0.0, "bike_id": "93be383cca366e173e7068453b6453bf", "rental_uris": {"ios": "https://dc.lft.to/lastmile_qr_scan", "android": "https://dc.lft.to/lastmile_qr_scan"}, "fusion_lon": 0.0, "name": "93be383cca366e173e7068453b6453bf", "lon": -77.017438}, {"is_reserved": 0, "lat": 38.89909466666667, "is_disabled": 0, "type": "electric_scooter", "fusion_lat": 0.0, "bike_id": "ab8a38c58feeb5f06c1b2d6c8a47e13f", "rental_uris": {"ios": "https://dc.lft.to/lastmile_qr_scan", "android": "https://dc.lft.to/lastmile_qr_scan"}, "fusion_lon": 0.0, "name": "ab8a38c58feeb5f06c1b2d6c8a47e13f", "lon": -76.933539}, {"is_reserved": 0, "lat": 38.91261733333333, "is_disabled": 0, "type": "electric_scooter", "fusion_lat": 0.0, "bike_id": "25e698134c0b04c8210e68e39df81d6f", "rental_uris": {"ios": "https://dc.lft.to/lastmile_qr_scan", "android": "https://dc.lft.to/lastmile_qr_scan"}, "fusion_lon": 0.0, "name": "25e698134c0b04c8210e68e39df81d6f", "lon": -77.04397983333334}, {"is_reserved": 0, "lat": 38.91689483333333, "is_disabled": 0, "type": "electric_scooter", "fusion_lat": 0.0, "bike_id": "ea109705d5651bee6fe5ab1f765a0dda", "rental_uris": {"ios": "https://dc.lft.to/lastmile_qr_scan", "android": "https://dc.lft.to/lastmile_qr_scan"}, "fusion_lon": 0.0, "name": "ea109705d5651bee6fe5ab1f765a0dda", "lon": -77.03494733333333}, {"is_reserved": 0, "lat": 38.8806275, "is_disabled": 0, "type": "electric_scooter", "fusion_lat": 0.0, "bike_id": "bf3807f5157ab074f727a5584116719b", "rental_uris": {"ios": "https://dc.lft.to/lastmile_qr_scan", "android": "https://dc.lft.to/lastmile_qr_scan"}, "fusion_lon": 0.0, "name": "bf3807f5157ab074f727a5584116719b", "lon": -77.02555966666667}, {"is_reserved": 0, "lat": 38.924165, "is_disabled": 0, "type": "electric_bike", "fusion_lat": 0.0, "bike_id": "5fd64bb8baa6be168b9f0831a74c915f", "rental_uris": {"ios": "https://dc.lft.to/lastmile_qr_scan", "android": "https://dc.lft.to/lastmile_qr_scan"}, "fusion_lon": 0.0, "name": "5fd64bb8baa6be168b9f0831a74c915f", "lon": -77.04572666666667}, {"is_reserved": 0, "lat": 38.90253083333333, "is_disabled": 0, "type": "electric_scooter", "fusion_lat": 0.0, "bike_id": "c720f3f9b81b76a743724756f1318512", "rental_uris": {"ios": "https://dc.lft.to/lastmile_qr_scan", "android": "https://dc.lft.to/lastmile_qr_scan"}, "fusion_lon": 0.0, "name": "c720f3f9b81b76a743724756f1318512", "lon": -77.0434185}, {"is_reserved": 0, "lat": 38.8749795, "is_disabled": 0, "type": "electric_scooter", "fusion_lat": 0.0, "bike_id": "030e69416fd6eb837c0e3e3695ce19d2", "rental_uris": {"ios": "https://dc.lft.to/lastmile_qr_scan", "android": "https://dc.lft.to/lastmile_qr_scan"}, "fusion_lon": 0.0, "name": "030e69416fd6eb837c0e3e3695ce19d2", "lon": -77.01762}, {"is_reserved": 0, "lat": 38.90015983333333, "is_disabled": 0, "type": "electric_scooter", "fusion_lat": 0.0, "bike_id": "98da3998177bc44d43212784c4d472de", "rental_uris": {"ios": "https://dc.lft.to/lastmile_qr_scan", "android": "https://dc.lft.to/lastmile_qr_scan"}, "fusion_lon": 0.0, "name": "98da3998177bc44d43212784c4d472de", "lon": -77.011938}, {"is_reserved": 0, "lat": 38.91688766666667, "is_disabled": 0, "type": "electric_scooter", "fusion_lat": 0.0, "bike_id": "c53331d664a2b85d10658b229a46b39a", "rental_uris": {"ios": "https://dc.lft.to/lastmile_qr_scan", "android": "https://dc.lft.to/lastmile_qr_scan"}, "fusion_lon": 0.0, "name": "c53331d664a2b85d10658b229a46b39a", "lon": -77.02812766666666}, {"is_reserved": 0, "lat": 38.916624166666665, "is_disabled": 0, "type": "electric_scooter", "fusion_lat": 0.0, "bike_id": "b91bfaf35014449ab943e98b4e9fc976", "rental_uris": {"ios": "https://dc.lft.to/lastmile_qr_scan", "android": "https://dc.lft.to/lastmile_qr_scan"}, "fusion_lon": 0.0, "name": "b91bfaf35014449ab943e98b4e9fc976", "lon": -77.04747933333333}, {"is_reserved": 0, "lat": 38.9198315, "is_disabled": 0, "type": "electric_scooter", "fusion_lat": 0.0, "bike_id": "00c087874c7d2a5e856747d6d0755432", "rental_uris": {"ios": "https://dc.lft.to/lastmile_qr_scan", "android": "https://dc.lft.to/lastmile_qr_scan"}, "fusion_lon": 0.0, "name": "00c087874c7d2a5e856747d6d0755432", "lon": -77.0218295}, {"is_reserved": 0, "lat": 38.962016, "is_disabled": 0, "type": "electric_bike", "fusion_lat": 0.0, "bike_id": "b40d43ff4fb770a735839009931617f9", "rental_uris": {"ios": "https://dc.lft.to/lastmile_qr_scan", "android": "https://dc.lft.to/lastmile_qr_scan"}, "fusion_lon": 0.0, "name": "b40d43ff4fb770a735839009931617f9", "lon": -77.03516083333334}, {"is_reserved": 0, "lat": 38.930823333333336, "is_disabled": 0, "type": "electric_scooter", "fusion_lat": 0.0, "bike_id": "368e22dc730dbf0c9bc129d3879cbd79", "rental_uris": {"ios": "https://dc.lft.to/lastmile_qr_scan", "android": "https://dc.lft.to/lastmile_qr_scan"}, "fusion_lon": 0.0, "name": "368e22dc730dbf0c9bc129d3879cbd79", "lon": -77.02806516666666}, {"is_reserved": 0, "lat": 38.887382, "is_disabled": 0, "type": "electric_scooter", "fusion_lat": 0.0, "bike_id": "9d7f10fb14670bad13bf223a15420a14", "rental_uris": {"ios": "https://dc.lft.to/lastmile_qr_scan", "android": "https://dc.lft.to/lastmile_qr_scan"}, "fusion_lon": 0.0, "name": "9d7f10fb14670bad13bf223a15420a14", "lon": -77.01529366666666}, {"is_reserved": 0, "lat": 38.91742516666667, "is_disabled": 0, "type": "electric_scooter", "fusion_lat": 0.0, "bike_id": "9fbe6dc818e136c40b26373e5b2df35f", "rental_uris": {"ios": "https://dc.lft.to/lastmile_qr_scan", "android": "https://dc.lft.to/lastmile_qr_scan"}, "fusion_lon": 0.0, "name": "9fbe6dc818e136c40b26373e5b2df35f", "lon": -77.02380416666666}, {"is_reserved": 0, "lat": 38.934014166666664, "is_disabled": 0, "type": "electric_scooter", "fusion_lat": 0.0, "bike_id": "cfd6795ab414df796c84e04a7c58a55b", "rental_uris": {"ios": "https://dc.lft.to/lastmile_qr_scan", "android": "https://dc.lft.to/lastmile_qr_scan"}, "fusion_lon": 0.0, "name": "cfd6795ab414df796c84e04a7c58a55b", "lon": -77.0454035}, {"is_reserved": 0, "lat": 38.91402166666666, "is_disabled": 0, "type": "electric_scooter", "fusion_lat": 0.0, "bike_id": "fb67df15364b7830bc794ed12e7f3d34", "rental_uris": {"ios": "https://dc.lft.to/lastmile_qr_scan", "android": "https://dc.lft.to/lastmile_qr_scan"}, "fusion_lon": 0.0, "name": "fb67df15364b7830bc794ed12e7f3d34", "lon": -77.04570383333333}, {"is_reserved": 0, "lat": 38.93603916666667, "is_disabled": 0, "type": "electric_scooter", "fusion_lat": 0.0, "bike_id": "1b328f44fc93f30a9d110680559a3b16", "rental_uris": {"ios": "https://dc.lft.to/lastmile_qr_scan", "android": "https://dc.lft.to/lastmile_qr_scan"}, "fusion_lon": 0.0, "name": "1b328f44fc93f30a9d110680559a3b16", "lon": -77.05853783333333}, {"is_reserved": 0, "lat": 38.905637, "is_disabled": 0, "type": "electric_scooter", "fusion_lat": 0.0, "bike_id": "d5166d9e478b4331ae0947544acb939c", "rental_uris": {"ios": "https://dc.lft.to/lastmile_qr_scan", "android": "https://dc.lft.to/lastmile_qr_scan"}, "fusion_lon": 0.0, "name": "d5166d9e478b4331ae0947544acb939c", "lon": -77.04169916666666}, {"is_reserved": 0, "lat": 38.89812516666667, "is_disabled": 0, "type": "electric_scooter", "fusion_lat": 0.0, "bike_id": "48bb93d55ceb3cee5235c93c2a2ed9c9", "rental_uris": {"ios": "https://dc.lft.to/lastmile_qr_scan", "android": "https://dc.lft.to/lastmile_qr_scan"}, "fusion_lon": 0.0, "name": "48bb93d55ceb3cee5235c93c2a2ed9c9", "lon": -77.02948433333333}, {"is_reserved": 0, "lat": 38.91814433333333, "is_disabled": 0, "type": "electric_scooter", "fusion_lat": 0.0, "bike_id": "74369c903d73fa9853e6ea9e00ec1a23", "rental_uris": {"ios": "https://dc.lft.to/lastmile_qr_scan", "android": "https://dc.lft.to/lastmile_qr_scan"}, "fusion_lon": 0.0, "name": "74369c903d73fa9853e6ea9e00ec1a23", "lon": -77.0386435}, {"is_reserved": 0, "lat": 38.913982833333336, "is_disabled": 0, "type": "electric_scooter", "fusion_lat": 0.0, "bike_id": "8d01faf48d6c6e8424d607f958f05cc8", "rental_uris": {"ios": "https://dc.lft.to/lastmile_qr_scan", "android": "https://dc.lft.to/lastmile_qr_scan"}, "fusion_lon": 0.0, "name": "8d01faf48d6c6e8424d607f958f05cc8", "lon": -77.01292466666666}, {"is_reserved": 0, "lat": 38.911907166666666, "is_disabled": 0, "type": "electric_scooter", "fusion_lat": 0.0, "bike_id": "35a4c8e40e3dcc2b0bccf8ef783bfb92", "rental_uris": {"ios": "https://dc.lft.to/lastmile_qr_scan", "android": "https://dc.lft.to/lastmile_qr_scan"}, "fusion_lon": 0.0, "name": "35a4c8e40e3dcc2b0bccf8ef783bfb92", "lon": -77.00715633333333}, {"is_reserved": 0, "lat": 38.91049133333333, "is_disabled": 0, "type": "electric_scooter", "fusion_lat": 0.0, "bike_id": "76315d6c1c94ca1bcd77b4a36bdef849", "rental_uris": {"ios": "https://dc.lft.to/lastmile_qr_scan", "android": "https://dc.lft.to/lastmile_qr_scan"}, "fusion_lon": 0.0, "name": "76315d6c1c94ca1bcd77b4a36bdef849", "lon": -77.02178366666666}, {"is_reserved": 0, "lat": 38.900073, "is_disabled": 0, "type": "electric_scooter", "fusion_lat": 0.0, "bike_id": "ecd0469f6f1a54c4570e2bcf72551399", "rental_uris": {"ios": "https://dc.lft.to/lastmile_qr_scan", "android": "https://dc.lft.to/lastmile_qr_scan"}, "fusion_lon": 0.0, "name": "ecd0469f6f1a54c4570e2bcf72551399", "lon": -77.00682566666667}, {"is_reserved": 0, "lat": 38.901091666666666, "is_disabled": 0, "type": "electric_scooter", "fusion_lat": 0.0, "bike_id": "05be9c4d5a9b545539bfc9b24d87811b", "rental_uris": {"ios": "https://dc.lft.to/lastmile_qr_scan", "android": "https://dc.lft.to/lastmile_qr_scan"}, "fusion_lon": 0.0, "name": "05be9c4d5a9b545539bfc9b24d87811b", "lon": -77.03529366666666}, {"is_reserved": 0, "lat": 38.923407, "is_disabled": 0, "type": "electric_scooter", "fusion_lat": 0.0, "bike_id": "c5ced8808f9f7a91bc903b26a614a3b7", "rental_uris": {"ios": "https://dc.lft.to/lastmile_qr_scan", "android": "https://dc.lft.to/lastmile_qr_scan"}, "fusion_lon": 0.0, "name": "c5ced8808f9f7a91bc903b26a614a3b7", "lon": -77.050859}, {"is_reserved": 0, "lat": 38.923685666666664, "is_disabled": 0, "type": "electric_scooter", "fusion_lat": 0.0, "bike_id": "c632e5cfcdf85454044cf2f61e9f16b2", "rental_uris": {"ios": "https://dc.lft.to/lastmile_qr_scan", "android": "https://dc.lft.to/lastmile_qr_scan"}, "fusion_lon": 0.0, "name": "c632e5cfcdf85454044cf2f61e9f16b2", "lon": -77.01816866666667}, {"is_reserved": 0, "lat": 38.9079295, "is_disabled": 0, "type": "electric_scooter", "fusion_lat": 0.0, "bike_id": "6d715ac7bd954cabca1cb865b3f3c64d", "rental_uris": {"ios": "https://dc.lft.to/lastmile_qr_scan", "android": "https://dc.lft.to/lastmile_qr_scan"}, "fusion_lon": 0.0, "name": "6d715ac7bd954cabca1cb865b3f3c64d", "lon": -76.997286}, {"is_reserved": 0, "lat": 38.963913, "is_disabled": 0, "type": "electric_scooter", "fusion_lat": 0.0, "bike_id": "48e885d8d60cb21f6becabbb1eef17fe", "rental_uris": {"ios": "https://dc.lft.to/lastmile_qr_scan", "android": "https://dc.lft.to/lastmile_qr_scan"}, "fusion_lon": 0.0, "name": "48e885d8d60cb21f6becabbb1eef17fe", "lon": -77.02590466666666}, {"is_reserved": 0, "lat": 38.927121166666666, "is_disabled": 0, "type": "electric_scooter", "fusion_lat": 0.0, "bike_id": "6c59dbf28df8013d37bdccf584ace3f1", "rental_uris": {"ios": "https://dc.lft.to/lastmile_qr_scan", "android": "https://dc.lft.to/lastmile_qr_scan"}, "fusion_lon": 0.0, "name": "6c59dbf28df8013d37bdccf584ace3f1", "lon": -77.02091483333334}, {"is_reserved": 0, "lat": 38.900347333333336, "is_disabled": 0, "type": "electric_bike", "fusion_lat": 0.0, "bike_id": "3b1138743d2ae938dc3704bc40de0ce7", "rental_uris": {"ios": "https://dc.lft.to/lastmile_qr_scan", "android": "https://dc.lft.to/lastmile_qr_scan"}, "fusion_lon": 0.0, "name": "3b1138743d2ae938dc3704bc40de0ce7", "lon": -77.04080583333334}, {"is_reserved": 0, "lat": 39.0563265, "is_disabled": 0, "type": "electric_bike", "fusion_lat": 0.0, "bike_id": "02df4b78a8ae5ca5b0f3c8a2116203e5", "rental_uris": {"ios": "https://dc.lft.to/lastmile_qr_scan", "android": "https://dc.lft.to/lastmile_qr_scan"}, "fusion_lon": 0.0, "name": "02df4b78a8ae5ca5b0f3c8a2116203e5", "lon": -77.12522816666667}, {"is_reserved": 0, "lat": 38.86527066666667, "is_disabled": 0, "type": "electric_scooter", "fusion_lat": 0.0, "bike_id": "525213396be8641b6f785e7e5cda3cc7", "rental_uris": {"ios": "https://dc.lft.to/lastmile_qr_scan", "android": "https://dc.lft.to/lastmile_qr_scan"}, "fusion_lon": 0.0, "name": "525213396be8641b6f785e7e5cda3cc7", "lon": -76.98611716666667}, {"is_reserved": 0, "lat": 38.89842316666667, "is_disabled": 0, "type": "electric_scooter", "fusion_lat": 0.0, "bike_id": "e0c762fbe2b388ab5f0355f78180399e", "rental_uris": {"ios": "https://dc.lft.to/lastmile_qr_scan", "android": "https://dc.lft.to/lastmile_qr_scan"}, "fusion_lon": 0.0, "name": "e0c762fbe2b388ab5f0355f78180399e", "lon": -76.94637416666667}, {"is_reserved": 0, "lat": 38.90822266666667, "is_disabled": 0, "type": "electric_scooter", "fusion_lat": 0.0, "bike_id": "c444f6cb12233c94bee11e2af3e50d26", "rental_uris": {"ios": "https://dc.lft.to/lastmile_qr_scan", "android": "https://dc.lft.to/lastmile_qr_scan"}, "fusion_lon": 0.0, "name": "c444f6cb12233c94bee11e2af3e50d26", "lon": -77.03952566666666}, {"is_reserved": 0, "lat": 38.89904466666667, "is_disabled": 0, "type": "electric_scooter", "fusion_lat": 0.0, "bike_id": "e84d87f3b2e645eb2274c4c6c3ee1532", "rental_uris": {"ios": "https://dc.lft.to/lastmile_qr_scan", "android": "https://dc.lft.to/lastmile_qr_scan"}, "fusion_lon": 0.0, "name": "e84d87f3b2e645eb2274c4c6c3ee1532", "lon": -76.99503816666666}, {"is_reserved": 0, "lat": 38.90268416666667, "is_disabled": 0, "type": "electric_scooter", "fusion_lat": 0.0, "bike_id": "0e0e471cb788e943a256d7af8313a2cf", "rental_uris": {"ios": "https://dc.lft.to/lastmile_qr_scan", "android": "https://dc.lft.to/lastmile_qr_scan"}, "fusion_lon": 0.0, "name": "0e0e471cb788e943a256d7af8313a2cf", "lon": -77.03461866666666}, {"is_reserved": 0, "lat": 38.926466, "is_disabled": 0, "type": "electric_scooter", "fusion_lat": 0.0, "bike_id": "e910c518e05a3dc9484c70b45752864c", "rental_uris": {"ios": "https://dc.lft.to/lastmile_qr_scan", "android": "https://dc.lft.to/lastmile_qr_scan"}, "fusion_lon": 0.0, "name": "e910c518e05a3dc9484c70b45752864c", "lon": -77.03699583333334}, {"is_reserved": 0, "lat": 38.89467366666667, "is_disabled": 0, "type": "electric_scooter", "fusion_lat": 0.0, "bike_id": "867908e943ef9a72d29d98a3fefa5b88", "rental_uris": {"ios": "https://dc.lft.to/lastmile_qr_scan", "android": "https://dc.lft.to/lastmile_qr_scan"}, "fusion_lon": 0.0, "name": "867908e943ef9a72d29d98a3fefa5b88", "lon": -77.00139233333333}, {"is_reserved": 0, "lat": 38.90960783333333, "is_disabled": 0, "type": "electric_scooter", "fusion_lat": 0.0, "bike_id": "9351f134da30f25e6f901cc2001cc248", "rental_uris": {"ios": "https://dc.lft.to/lastmile_qr_scan", "android": "https://dc.lft.to/lastmile_qr_scan"}, "fusion_lon": 0.0, "name": "9351f134da30f25e6f901cc2001cc248", "lon": -77.032609}, {"is_reserved": 0, "lat": 38.902586, "is_disabled": 0, "type": "electric_scooter", "fusion_lat": 0.0, "bike_id": "155285c6f9bc355be22159028fb9131c", "rental_uris": {"ios": "https://dc.lft.to/lastmile_qr_scan", "android": "https://dc.lft.to/lastmile_qr_scan"}, "fusion_lon": 0.0, "name": "155285c6f9bc355be22159028fb9131c", "lon": -77.03452716666666}, {"is_reserved": 0, "lat": 38.923264, "is_disabled": 0, "type": "electric_scooter", "fusion_lat": 0.0, "bike_id": "66d7d2dc61d57c7df69a96966b72d3f5", "rental_uris": {"ios": "https://dc.lft.to/lastmile_qr_scan", "android": "https://dc.lft.to/lastmile_qr_scan"}, "fusion_lon": 0.0, "name": "66d7d2dc61d57c7df69a96966b72d3f5", "lon": -77.03566516666666}, {"is_reserved": 0, "lat": 38.92027316666667, "is_disabled": 0, "type": "electric_bike", "fusion_lat": 0.0, "bike_id": "8dd4b30f227d76d0151e85c79bba6c8e", "rental_uris": {"ios": "https://dc.lft.to/lastmile_qr_scan", "android": "https://dc.lft.to/lastmile_qr_scan"}, "fusion_lon": 0.0, "name": "8dd4b30f227d76d0151e85c79bba6c8e", "lon": -77.06215433333334}, {"is_reserved": 0, "lat": 38.923416, "is_disabled": 0, "type": "electric_scooter", "fusion_lat": 0.0, "bike_id": "2a3e99c20f4e4ffcc1189b898c3c02f0", "rental_uris": {"ios": "https://dc.lft.to/lastmile_qr_scan", "android": "https://dc.lft.to/lastmile_qr_scan"}, "fusion_lon": 0.0, "name": "2a3e99c20f4e4ffcc1189b898c3c02f0", "lon": -77.05051383333333}, {"is_reserved": 0, "lat": 38.908206666666665, "is_disabled": 0, "type": "electric_scooter", "fusion_lat": 0.0, "bike_id": "6ee5ba6f4fdf8cd9717022b4e012a3c4", "rental_uris": {"ios": "https://dc.lft.to/lastmile_qr_scan", "android": "https://dc.lft.to/lastmile_qr_scan"}, "fusion_lon": 0.0, "name": "6ee5ba6f4fdf8cd9717022b4e012a3c4", "lon": -77.039444}, {"is_reserved": 0, "lat": 38.8765985, "is_disabled": 0, "type": "electric_scooter", "fusion_lat": 0.0, "bike_id": "ac8da3aaf78561c8e41cd8f45d3bbcd9", "rental_uris": {"ios": "https://dc.lft.to/lastmile_qr_scan", "android": "https://dc.lft.to/lastmile_qr_scan"}, "fusion_lon": 0.0, "name": "ac8da3aaf78561c8e41cd8f45d3bbcd9", "lon": -77.00385233333333}, {"is_reserved": 0, "lat": 38.86833716666667, "is_disabled": 0, "type": "electric_scooter", "fusion_lat": 0.0, "bike_id": "3b73f4a7e5369198422569694339c556", "rental_uris": {"ios": "https://dc.lft.to/lastmile_qr_scan", "android": "https://dc.lft.to/lastmile_qr_scan"}, "fusion_lon": 0.0, "name": "3b73f4a7e5369198422569694339c556", "lon": -76.9774055}, {"is_reserved": 0, "lat": 38.909556333333335, "is_disabled": 0, "type": "electric_scooter", "fusion_lat": 0.0, "bike_id": "fe763bbac8ded7cdce3414c484443b0f", "rental_uris": {"ios": "https://dc.lft.to/lastmile_qr_scan", "android": "https://dc.lft.to/lastmile_qr_scan"}, "fusion_lon": 0.0, "name": "fe763bbac8ded7cdce3414c484443b0f", "lon": -77.02714283333333}, {"is_reserved": 0, "lat": 38.91129866666667, "is_disabled": 0, "type": "electric_scooter", "fusion_lat": 0.0, "bike_id": "70e3f7d8c9d13aa4c02455eddc2fc0b7", "rental_uris": {"ios": "https://dc.lft.to/lastmile_qr_scan", "android": "https://dc.lft.to/lastmile_qr_scan"}, "fusion_lon": 0.0, "name": "70e3f7d8c9d13aa4c02455eddc2fc0b7", "lon": -77.026932}, {"is_reserved": 0, "lat": 38.951937666666666, "is_disabled": 0, "type": "electric_scooter", "fusion_lat": 0.0, "bike_id": "391f5411da6ca4722b34405146ed81ad", "rental_uris": {"ios": "https://dc.lft.to/lastmile_qr_scan", "android": "https://dc.lft.to/lastmile_qr_scan"}, "fusion_lon": 0.0, "name": "391f5411da6ca4722b34405146ed81ad", "lon": -77.02975216666667}, {"is_reserved": 0, "lat": 38.88079533333333, "is_disabled": 0, "type": "electric_bike", "fusion_lat": 0.0, "bike_id": "7a62e48395c9d930eed7ebcbfdad1436", "rental_uris": {"ios": "https://dc.lft.to/lastmile_qr_scan", "android": "https://dc.lft.to/lastmile_qr_scan"}, "fusion_lon": 0.0, "name": "7a62e48395c9d930eed7ebcbfdad1436", "lon": -76.985104}, {"is_reserved": 0, "lat": 38.91692966666667, "is_disabled": 0, "type": "electric_scooter", "fusion_lat": 0.0, "bike_id": "dfa367319660ba6c384f4499921fd83e", "rental_uris": {"ios": "https://dc.lft.to/lastmile_qr_scan", "android": "https://dc.lft.to/lastmile_qr_scan"}, "fusion_lon": 0.0, "name": "dfa367319660ba6c384f4499921fd83e", "lon": -77.03772316666667}, {"is_reserved": 0, "lat": 38.895449166666666, "is_disabled": 0, "type": "electric_scooter", "fusion_lat": 0.0, "bike_id": "e49b37029ff5c7fa9d2dc9387121b66a", "rental_uris": {"ios": "https://dc.lft.to/lastmile_qr_scan", "android": "https://dc.lft.to/lastmile_qr_scan"}, "fusion_lon": 0.0, "name": "e49b37029ff5c7fa9d2dc9387121b66a", "lon": -77.02188466666666}, {"is_reserved": 0, "lat": 38.91754266666667, "is_disabled": 0, "type": "electric_scooter", "fusion_lat": 0.0, "bike_id": "18ae2f9cc439c2b241ac6795341c7087", "rental_uris": {"ios": "https://dc.lft.to/lastmile_qr_scan", "android": "https://dc.lft.to/lastmile_qr_scan"}, "fusion_lon": 0.0, "name": "18ae2f9cc439c2b241ac6795341c7087", "lon": -77.01603833333333}, {"is_reserved": 0, "lat": 38.90784433333334, "is_disabled": 0, "type": "electric_scooter", "fusion_lat": 0.0, "bike_id": "3f9d8d9bf1fe5092086cfa664a038397", "rental_uris": {"ios": "https://dc.lft.to/lastmile_qr_scan", "android": "https://dc.lft.to/lastmile_qr_scan"}, "fusion_lon": 0.0, "name": "3f9d8d9bf1fe5092086cfa664a038397", "lon": -77.03858233333334}, {"is_reserved": 0, "lat": 38.90729916666667, "is_disabled": 0, "type": "electric_scooter", "fusion_lat": 0.0, "bike_id": "349899969f7747adbdb4bf2741b157c7", "rental_uris": {"ios": "https://dc.lft.to/lastmile_qr_scan", "android": "https://dc.lft.to/lastmile_qr_scan"}, "fusion_lon": 0.0, "name": "349899969f7747adbdb4bf2741b157c7", "lon": -77.02752216666667}, {"is_reserved": 0, "lat": 38.906230666666666, "is_disabled": 0, "type": "electric_scooter", "fusion_lat": 0.0, "bike_id": "6875dc81d3166ce5f3fd708a62f4f4fd", "rental_uris": {"ios": "https://dc.lft.to/lastmile_qr_scan", "android": "https://dc.lft.to/lastmile_qr_scan"}, "fusion_lon": 0.0, "name": "6875dc81d3166ce5f3fd708a62f4f4fd", "lon": -77.03975516666667}, {"is_reserved": 0, "lat": 38.87732783333333, "is_disabled": 0, "type": "electric_bike", "fusion_lat": 0.0, "bike_id": "0083a2e12020deb9b7295472c5cfbf66", "rental_uris": {"ios": "https://dc.lft.to/lastmile_qr_scan", "android": "https://dc.lft.to/lastmile_qr_scan"}, "fusion_lon": 0.0, "name": "0083a2e12020deb9b7295472c5cfbf66", "lon": -77.11847833333333}, {"is_reserved": 0, "lat": 38.9057685, "is_disabled": 0, "type": "electric_scooter", "fusion_lat": 0.0, "bike_id": "d33af53a7765bcae2db5f4c58b4fda8a", "rental_uris": {"ios": "https://dc.lft.to/lastmile_qr_scan", "android": "https://dc.lft.to/lastmile_qr_scan"}, "fusion_lon": 0.0, "name": "d33af53a7765bcae2db5f4c58b4fda8a", "lon": -77.00590416666667}, {"is_reserved": 0, "lat": 38.8876925, "is_disabled": 0, "type": "electric_scooter", "fusion_lat": 0.0, "bike_id": "1545ef4488ef0ec4df0fb894f4cf3595", "rental_uris": {"ios": "https://dc.lft.to/lastmile_qr_scan", "android": "https://dc.lft.to/lastmile_qr_scan"}, "fusion_lon": 0.0, "name": "1545ef4488ef0ec4df0fb894f4cf3595", "lon": -76.99759466666667}, {"is_reserved": 0, "lat": 38.88505383333333, "is_disabled": 0, "type": "electric_scooter", "fusion_lat": 0.0, "bike_id": "9d5d09c81df110dd01851533b8bc546f", "rental_uris": {"ios": "https://dc.lft.to/lastmile_qr_scan", "android": "https://dc.lft.to/lastmile_qr_scan"}, "fusion_lon": 0.0, "name": "9d5d09c81df110dd01851533b8bc546f", "lon": -77.02086783333333}, {"is_reserved": 0, "lat": 38.951844333333334, "is_disabled": 0, "type": "electric_bike", "fusion_lat": 0.0, "bike_id": "cc61f8fde89a9420554ccd7eece752c2", "rental_uris": {"ios": "https://dc.lft.to/lastmile_qr_scan", "android": "https://dc.lft.to/lastmile_qr_scan"}, "fusion_lon": 0.0, "name": "cc61f8fde89a9420554ccd7eece752c2", "lon": -76.93547233333334}, {"is_reserved": 0, "lat": 38.900213, "is_disabled": 0, "type": "electric_scooter", "fusion_lat": 0.0, "bike_id": "e69ca7625259c8f35680022cf4b2d49b", "rental_uris": {"ios": "https://dc.lft.to/lastmile_qr_scan", "android": "https://dc.lft.to/lastmile_qr_scan"}, "fusion_lon": 0.0, "name": "e69ca7625259c8f35680022cf4b2d49b", "lon": -76.998594}, {"is_reserved": 0, "lat": 38.923487333333334, "is_disabled": 0, "type": "electric_scooter", "fusion_lat": 0.0, "bike_id": "3ca7309c6d003e7592f1b271af264a54", "rental_uris": {"ios": "https://dc.lft.to/lastmile_qr_scan", "android": "https://dc.lft.to/lastmile_qr_scan"}, "fusion_lon": 0.0, "name": "3ca7309c6d003e7592f1b271af264a54", "lon": -77.03247416666666}, {"is_reserved": 0, "lat": 38.906506666666665, "is_disabled": 0, "type": "electric_scooter", "fusion_lat": 0.0, "bike_id": "8905917f9d15e73d57ccd8c2d94be01d", "rental_uris": {"ios": "https://dc.lft.to/lastmile_qr_scan", "android": "https://dc.lft.to/lastmile_qr_scan"}, "fusion_lon": 0.0, "name": "8905917f9d15e73d57ccd8c2d94be01d", "lon": -77.0058155}, {"is_reserved": 0, "lat": 38.87195216666667, "is_disabled": 0, "type": "electric_scooter", "fusion_lat": 0.0, "bike_id": "ad263ede1ebd9155c36a007c3fbbad69", "rental_uris": {"ios": "https://dc.lft.to/lastmile_qr_scan", "android": "https://dc.lft.to/lastmile_qr_scan"}, "fusion_lon": 0.0, "name": "ad263ede1ebd9155c36a007c3fbbad69", "lon": -77.006193}, {"is_reserved": 0, "lat": 38.90976883333333, "is_disabled": 0, "type": "electric_scooter", "fusion_lat": 0.0, "bike_id": "5e278feff1fef40e7315de42b02d027e", "rental_uris": {"ios": "https://dc.lft.to/lastmile_qr_scan", "android": "https://dc.lft.to/lastmile_qr_scan"}, "fusion_lon": 0.0, "name": "5e278feff1fef40e7315de42b02d027e", "lon": -77.0320855}, {"is_reserved": 0, "lat": 38.891614833333335, "is_disabled": 0, "type": "electric_scooter", "fusion_lat": 0.0, "bike_id": "705d7450124452ad6e6e7125c82f60c0", "rental_uris": {"ios": "https://dc.lft.to/lastmile_qr_scan", "android": "https://dc.lft.to/lastmile_qr_scan"}, "fusion_lon": 0.0, "name": "705d7450124452ad6e6e7125c82f60c0", "lon": -76.99501533333333}, {"is_reserved": 0, "lat": 38.92483383333333, "is_disabled": 0, "type": "electric_scooter", "fusion_lat": 0.0, "bike_id": "884345a21d6b39b948b7186e6ac807b7", "rental_uris": {"ios": "https://dc.lft.to/lastmile_qr_scan", "android": "https://dc.lft.to/lastmile_qr_scan"}, "fusion_lon": 0.0, "name": "884345a21d6b39b948b7186e6ac807b7", "lon": -77.03183716666666}, {"is_reserved": 0, "lat": 38.92814283333333, "is_disabled": 0, "type": "electric_scooter", "fusion_lat": 0.0, "bike_id": "f2f73311219f5d1da261f25cf16e272a", "rental_uris": {"ios": "https://dc.lft.to/lastmile_qr_scan", "android": "https://dc.lft.to/lastmile_qr_scan"}, "fusion_lon": 0.0, "name": "f2f73311219f5d1da261f25cf16e272a", "lon": -77.029015}, {"is_reserved": 0, "lat": 38.827828, "is_disabled": 0, "type": "electric_scooter", "fusion_lat": 0.0, "bike_id": "c970ce5315d91f8dc640fc907c838973", "rental_uris": {"ios": "https://dc.lft.to/lastmile_qr_scan", "android": "https://dc.lft.to/lastmile_qr_scan"}, "fusion_lon": 0.0, "name": "c970ce5315d91f8dc640fc907c838973", "lon": -77.00915916666666}, {"is_reserved": 0, "lat": 38.907952, "is_disabled": 0, "type": "electric_scooter", "fusion_lat": 0.0, "bike_id": "6e08acdbd878df7e7c29ec5ec8629f44", "rental_uris": {"ios": "https://dc.lft.to/lastmile_qr_scan", "android": "https://dc.lft.to/lastmile_qr_scan"}, "fusion_lon": 0.0, "name": "6e08acdbd878df7e7c29ec5ec8629f44", "lon": -77.0423905}, {"is_reserved": 0, "lat": 38.910242, "is_disabled": 0, "type": "electric_bike", "fusion_lat": 0.0, "bike_id": "661abb799ee436335d935407052d70b2", "rental_uris": {"ios": "https://dc.lft.to/lastmile_qr_scan", "android": "https://dc.lft.to/lastmile_qr_scan"}, "fusion_lon": 0.0, "name": "661abb799ee436335d935407052d70b2", "lon": -76.99808816666666}, {"is_reserved": 0, "lat": 38.906339833333334, "is_disabled": 0, "type": "electric_scooter", "fusion_lat": 0.0, "bike_id": "3237114e9e3dbe3476d19be141919e8c", "rental_uris": {"ios": "https://dc.lft.to/lastmile_qr_scan", "android": "https://dc.lft.to/lastmile_qr_scan"}, "fusion_lon": 0.0, "name": "3237114e9e3dbe3476d19be141919e8c", "lon": -77.050011}, {"is_reserved": 0, "lat": 38.944632, "is_disabled": 0, "type": "electric_scooter", "fusion_lat": 0.0, "bike_id": "b1f2cbbed5c0a424a34384e5c78576dc", "rental_uris": {"ios": "https://dc.lft.to/lastmile_qr_scan", "android": "https://dc.lft.to/lastmile_qr_scan"}, "fusion_lon": 0.0, "name": "b1f2cbbed5c0a424a34384e5c78576dc", "lon": -77.00655233333333}, {"is_reserved": 0, "lat": 38.90387833333333, "is_disabled": 0, "type": "electric_scooter", "fusion_lat": 0.0, "bike_id": "51cf796d3811830dc9bc517c8232d29a", "rental_uris": {"ios": "https://dc.lft.to/lastmile_qr_scan", "android": "https://dc.lft.to/lastmile_qr_scan"}, "fusion_lon": 0.0, "name": "51cf796d3811830dc9bc517c8232d29a", "lon": -77.0363375}, {"is_reserved": 0, "lat": 38.867422833333336, "is_disabled": 0, "type": "electric_bike", "fusion_lat": 0.0, "bike_id": "9d10d7fb368a8c4d5d0399dab54993e7", "rental_uris": {"ios": "https://dc.lft.to/lastmile_qr_scan", "android": "https://dc.lft.to/lastmile_qr_scan"}, "fusion_lon": 0.0, "name": "9d10d7fb368a8c4d5d0399dab54993e7", "lon": -77.11707183333333}, {"is_reserved": 0, "lat": 38.8921465, "is_disabled": 0, "type": "electric_scooter", "fusion_lat": 0.0, "bike_id": "6d5574544bd0e111ffac47903cb5c5dc", "rental_uris": {"ios": "https://dc.lft.to/lastmile_qr_scan", "android": "https://dc.lft.to/lastmile_qr_scan"}, "fusion_lon": 0.0, "name": "6d5574544bd0e111ffac47903cb5c5dc", "lon": -77.03158366666666}, {"is_reserved": 0, "lat": 38.94644533333334, "is_disabled": 0, "type": "electric_scooter", "fusion_lat": 0.0, "bike_id": "bbe4fdc426d4623a1d83d274d0eb70ae", "rental_uris": {"ios": "https://dc.lft.to/lastmile_qr_scan", "android": "https://dc.lft.to/lastmile_qr_scan"}, "fusion_lon": 0.0, "name": "bbe4fdc426d4623a1d83d274d0eb70ae", "lon": -77.0310525}, {"is_reserved": 0, "lat": 38.88266816666667, "is_disabled": 0, "type": "electric_scooter", "fusion_lat": 0.0, "bike_id": "de08a630830ba8e35c050f7a711c8d82", "rental_uris": {"ios": "https://dc.lft.to/lastmile_qr_scan", "android": "https://dc.lft.to/lastmile_qr_scan"}, "fusion_lon": 0.0, "name": "de08a630830ba8e35c050f7a711c8d82", "lon": -77.00368483333334}, {"is_reserved": 0, "lat": 38.90979333333333, "is_disabled": 0, "type": "electric_scooter", "fusion_lat": 0.0, "bike_id": "1e0427083ec74c40b1c19fd0cdcbc634", "rental_uris": {"ios": "https://dc.lft.to/lastmile_qr_scan", "android": "https://dc.lft.to/lastmile_qr_scan"}, "fusion_lon": 0.0, "name": "1e0427083ec74c40b1c19fd0cdcbc634", "lon": -76.9951915}, {"is_reserved": 0, "lat": 38.81938566666667, "is_disabled": 0, "type": "electric_bike", "fusion_lat": 0.0, "bike_id": "5aa860888fcdb76fab1cea7139736508", "rental_uris": {"ios": "https://dc.lft.to/lastmile_qr_scan", "android": "https://dc.lft.to/lastmile_qr_scan"}, "fusion_lon": 0.0, "name": "5aa860888fcdb76fab1cea7139736508", "lon": -77.0020355}, {"is_reserved": 0, "lat": 38.88042016666667, "is_disabled": 0, "type": "electric_bike", "fusion_lat": 0.0, "bike_id": "0a3aa45ae275e2ad079df014a4b7ced3", "rental_uris": {"ios": "https://dc.lft.to/lastmile_qr_scan", "android": "https://dc.lft.to/lastmile_qr_scan"}, "fusion_lon": 0.0, "name": "0a3aa45ae275e2ad079df014a4b7ced3", "lon": -76.98632316666666}, {"is_reserved": 0, "lat": 38.91941966666667, "is_disabled": 0, "type": "electric_scooter", "fusion_lat": 0.0, "bike_id": "b84e88e5b7635a4d456ef7dae4fe663a", "rental_uris": {"ios": "https://dc.lft.to/lastmile_qr_scan", "android": "https://dc.lft.to/lastmile_qr_scan"}, "fusion_lon": 0.0, "name": "b84e88e5b7635a4d456ef7dae4fe663a", "lon": -77.03166316666666}, {"is_reserved": 0, "lat": 38.903622666666664, "is_disabled": 0, "type": "electric_scooter", "fusion_lat": 0.0, "bike_id": "9ee97c5ee7e510be7dbf2a47d70cd872", "rental_uris": {"ios": "https://dc.lft.to/lastmile_qr_scan", "android": "https://dc.lft.to/lastmile_qr_scan"}, "fusion_lon": 0.0, "name": "9ee97c5ee7e510be7dbf2a47d70cd872", "lon": -77.037171}, {"is_reserved": 0, "lat": 38.902873666666665, "is_disabled": 0, "type": "electric_scooter", "fusion_lat": 0.0, "bike_id": "07d16e7bd769034c1c6c747d267ea8c1", "rental_uris": {"ios": "https://dc.lft.to/lastmile_qr_scan", "android": "https://dc.lft.to/lastmile_qr_scan"}, "fusion_lon": 0.0, "name": "07d16e7bd769034c1c6c747d267ea8c1", "lon": -77.04592716666667}, {"is_reserved": 0, "lat": 38.908114833333336, "is_disabled": 0, "type": "electric_scooter", "fusion_lat": 0.0, "bike_id": "78bbc2440815096fde01778f66befd2b", "rental_uris": {"ios": "https://dc.lft.to/lastmile_qr_scan", "android": "https://dc.lft.to/lastmile_qr_scan"}, "fusion_lon": 0.0, "name": "78bbc2440815096fde01778f66befd2b", "lon": -77.03838183333333}, {"is_reserved": 0, "lat": 38.927990333333334, "is_disabled": 0, "type": "electric_scooter", "fusion_lat": 0.0, "bike_id": "dc1341d2f0955de35e263c70acc8ec78", "rental_uris": {"ios": "https://dc.lft.to/lastmile_qr_scan", "android": "https://dc.lft.to/lastmile_qr_scan"}, "fusion_lon": 0.0, "name": "dc1341d2f0955de35e263c70acc8ec78", "lon": -77.02613983333333}, {"is_reserved": 0, "lat": 38.900545, "is_disabled": 0, "type": "electric_scooter", "fusion_lat": 0.0, "bike_id": "a06c64e6a4aff5b90d17284ddde4bfef", "rental_uris": {"ios": "https://dc.lft.to/lastmile_qr_scan", "android": "https://dc.lft.to/lastmile_qr_scan"}, "fusion_lon": 0.0, "name": "a06c64e6a4aff5b90d17284ddde4bfef", "lon": -77.01290866666666}, {"is_reserved": 0, "lat": 38.94956766666667, "is_disabled": 0, "type": "electric_scooter", "fusion_lat": 0.0, "bike_id": "ded681eddc5fe8d4ca710d358b421b03", "rental_uris": {"ios": "https://dc.lft.to/lastmile_qr_scan", "android": "https://dc.lft.to/lastmile_qr_scan"}, "fusion_lon": 0.0, "name": "ded681eddc5fe8d4ca710d358b421b03", "lon": -77.02717533333333}, {"is_reserved": 0, "lat": 38.903650666666664, "is_disabled": 0, "type": "electric_scooter", "fusion_lat": 0.0, "bike_id": "3ee0e1e3e6b0fbb77ce44a3a14bf7e7a", "rental_uris": {"ios": "https://dc.lft.to/lastmile_qr_scan", "android": "https://dc.lft.to/lastmile_qr_scan"}, "fusion_lon": 0.0, "name": "3ee0e1e3e6b0fbb77ce44a3a14bf7e7a", "lon": -77.01740966666667}, {"is_reserved": 0, "lat": 38.893413, "is_disabled": 0, "type": "electric_scooter", "fusion_lat": 0.0, "bike_id": "af264a12fadb6b04cccbb516cfa94e74", "rental_uris": {"ios": "https://dc.lft.to/lastmile_qr_scan", "android": "https://dc.lft.to/lastmile_qr_scan"}, "fusion_lon": 0.0, "name": "af264a12fadb6b04cccbb516cfa94e74", "lon": -77.0136765}, {"is_reserved": 0, "lat": 38.921451833333336, "is_disabled": 0, "type": "electric_scooter", "fusion_lat": 0.0, "bike_id": "730b27f753fcea46be9ee4f17becde0d", "rental_uris": {"ios": "https://dc.lft.to/lastmile_qr_scan", "android": "https://dc.lft.to/lastmile_qr_scan"}, "fusion_lon": 0.0, "name": "730b27f753fcea46be9ee4f17becde0d", "lon": -77.0349775}, {"is_reserved": 0, "lat": 38.83811633333333, "is_disabled": 0, "type": "electric_bike", "fusion_lat": 0.0, "bike_id": "f36a14824763c1578b8db13d4b1fc2de", "rental_uris": {"ios": "https://dc.lft.to/lastmile_qr_scan", "android": "https://dc.lft.to/lastmile_qr_scan"}, "fusion_lon": 0.0, "name": "f36a14824763c1578b8db13d4b1fc2de", "lon": -77.09526483333333}, {"is_reserved": 0, "lat": 38.9104845, "is_disabled": 0, "type": "electric_scooter", "fusion_lat": 0.0, "bike_id": "07e9c32866aa95f2cc10d7e8951e583c", "rental_uris": {"ios": "https://dc.lft.to/lastmile_qr_scan", "android": "https://dc.lft.to/lastmile_qr_scan"}, "fusion_lon": 0.0, "name": "07e9c32866aa95f2cc10d7e8951e583c", "lon": -77.04103183333334}, {"is_reserved": 0, "lat": 38.9014385, "is_disabled": 0, "type": "electric_scooter", "fusion_lat": 0.0, "bike_id": "1f796682b8d221aacf33c7f2343e24d3", "rental_uris": {"ios": "https://dc.lft.to/lastmile_qr_scan", "android": "https://dc.lft.to/lastmile_qr_scan"}, "fusion_lon": 0.0, "name": "1f796682b8d221aacf33c7f2343e24d3", "lon": -77.02697333333333}, {"is_reserved": 0, "lat": 38.923656666666666, "is_disabled": 0, "type": "electric_scooter", "fusion_lat": 0.0, "bike_id": "07a17f4e93d7b2b0670d5c4b8a4e25cb", "rental_uris": {"ios": "https://dc.lft.to/lastmile_qr_scan", "android": "https://dc.lft.to/lastmile_qr_scan"}, "fusion_lon": 0.0, "name": "07a17f4e93d7b2b0670d5c4b8a4e25cb", "lon": -77.03126166666667}, {"is_reserved": 0, "lat": 38.9314115, "is_disabled": 0, "type": "electric_bike", "fusion_lat": 0.0, "bike_id": "cbc62d60ebef2e473cd604af01645b79", "rental_uris": {"ios": "https://dc.lft.to/lastmile_qr_scan", "android": "https://dc.lft.to/lastmile_qr_scan"}, "fusion_lon": 0.0, "name": "cbc62d60ebef2e473cd604af01645b79", "lon": -77.078413}, {"is_reserved": 0, "lat": 38.911090333333334, "is_disabled": 0, "type": "electric_scooter", "fusion_lat": 0.0, "bike_id": "e91be4258caaa9bae6cbf77b619a9f6c", "rental_uris": {"ios": "https://dc.lft.to/lastmile_qr_scan", "android": "https://dc.lft.to/lastmile_qr_scan"}, "fusion_lon": 0.0, "name": "e91be4258caaa9bae6cbf77b619a9f6c", "lon": -77.04830533333333}, {"is_reserved": 0, "lat": 38.89220316666667, "is_disabled": 0, "type": "electric_scooter", "fusion_lat": 0.0, "bike_id": "d7c4ce5edc180f2924cb7bf145272e45", "rental_uris": {"ios": "https://dc.lft.to/lastmile_qr_scan", "android": "https://dc.lft.to/lastmile_qr_scan"}, "fusion_lon": 0.0, "name": "d7c4ce5edc180f2924cb7bf145272e45", "lon": -77.02778816666667}, {"is_reserved": 0, "lat": 38.91802166666667, "is_disabled": 0, "type": "electric_bike", "fusion_lat": 0.0, "bike_id": "2fee305c91b6a1a844760bf1788e72b3", "rental_uris": {"ios": "https://dc.lft.to/lastmile_qr_scan", "android": "https://dc.lft.to/lastmile_qr_scan"}, "fusion_lon": 0.0, "name": "2fee305c91b6a1a844760bf1788e72b3", "lon": -77.223368}, {"is_reserved": 0, "lat": 38.902751333333335, "is_disabled": 0, "type": "electric_scooter", "fusion_lat": 0.0, "bike_id": "cd4c376ebbc2fcfe5aa58d23f9f5a1a9", "rental_uris": {"ios": "https://dc.lft.to/lastmile_qr_scan", "android": "https://dc.lft.to/lastmile_qr_scan"}, "fusion_lon": 0.0, "name": "cd4c376ebbc2fcfe5aa58d23f9f5a1a9", "lon": -77.05314633333333}, {"is_reserved": 0, "lat": 38.935317, "is_disabled": 0, "type": "electric_scooter", "fusion_lat": 0.0, "bike_id": "c777b2d8e9540f712ddb41e9cfad4c3f", "rental_uris": {"ios": "https://dc.lft.to/lastmile_qr_scan", "android": "https://dc.lft.to/lastmile_qr_scan"}, "fusion_lon": 0.0, "name": "c777b2d8e9540f712ddb41e9cfad4c3f", "lon": -77.023485}, {"is_reserved": 0, "lat": 38.913939166666665, "is_disabled": 0, "type": "electric_scooter", "fusion_lat": 0.0, "bike_id": "4e24c8d622271d3b70c8ab905030fb87", "rental_uris": {"ios": "https://dc.lft.to/lastmile_qr_scan", "android": "https://dc.lft.to/lastmile_qr_scan"}, "fusion_lon": 0.0, "name": "4e24c8d622271d3b70c8ab905030fb87", "lon": -77.04575416666667}, {"is_reserved": 0, "lat": 38.903074333333336, "is_disabled": 0, "type": "electric_scooter", "fusion_lat": 0.0, "bike_id": "72df130fa12dc12955b980f2d6a0c101", "rental_uris": {"ios": "https://dc.lft.to/lastmile_qr_scan", "android": "https://dc.lft.to/lastmile_qr_scan"}, "fusion_lon": 0.0, "name": "72df130fa12dc12955b980f2d6a0c101", "lon": -77.03868266666667}, {"is_reserved": 0, "lat": 38.9036665, "is_disabled": 0, "type": "electric_scooter", "fusion_lat": 0.0, "bike_id": "5e50f87459ec5f0aa0ae52f6f5eb8bde", "rental_uris": {"ios": "https://dc.lft.to/lastmile_qr_scan", "android": "https://dc.lft.to/lastmile_qr_scan"}, "fusion_lon": 0.0, "name": "5e50f87459ec5f0aa0ae52f6f5eb8bde", "lon": -76.998569}, {"is_reserved": 0, "lat": 38.892202, "is_disabled": 0, "type": "electric_scooter", "fusion_lat": 0.0, "bike_id": "1427ba93f563261291018d6663aeb2ed", "rental_uris": {"ios": "https://dc.lft.to/lastmile_qr_scan", "android": "https://dc.lft.to/lastmile_qr_scan"}, "fusion_lon": 0.0, "name": "1427ba93f563261291018d6663aeb2ed", "lon": -77.02216766666666}, {"is_reserved": 0, "lat": 38.930054, "is_disabled": 0, "type": "electric_scooter", "fusion_lat": 0.0, "bike_id": "9833ec59e861a9acaf49e8f0022ca6b8", "rental_uris": {"ios": "https://dc.lft.to/lastmile_qr_scan", "android": "https://dc.lft.to/lastmile_qr_scan"}, "fusion_lon": 0.0, "name": "9833ec59e861a9acaf49e8f0022ca6b8", "lon": -77.05536533333333}, {"is_reserved": 0, "lat": 38.90067416666667, "is_disabled": 0, "type": "electric_scooter", "fusion_lat": 0.0, "bike_id": "afa4225a1b5d2629ebf5756ed4d90706", "rental_uris": {"ios": "https://dc.lft.to/lastmile_qr_scan", "android": "https://dc.lft.to/lastmile_qr_scan"}, "fusion_lon": 0.0, "name": "afa4225a1b5d2629ebf5756ed4d90706", "lon": -76.98714716666667}, {"is_reserved": 0, "lat": 38.8949515, "is_disabled": 0, "type": "electric_scooter", "fusion_lat": 0.0, "bike_id": "38111c2d530907b5af9570ec5ebae3de", "rental_uris": {"ios": "https://dc.lft.to/lastmile_qr_scan", "android": "https://dc.lft.to/lastmile_qr_scan"}, "fusion_lon": 0.0, "name": "38111c2d530907b5af9570ec5ebae3de", "lon": -76.94944266666667}, {"is_reserved": 0, "lat": 38.903741833333335, "is_disabled": 0, "type": "electric_scooter", "fusion_lat": 0.0, "bike_id": "e1a939abd0f21e291ab1984e38d0b480", "rental_uris": {"ios": "https://dc.lft.to/lastmile_qr_scan", "android": "https://dc.lft.to/lastmile_qr_scan"}, "fusion_lon": 0.0, "name": "e1a939abd0f21e291ab1984e38d0b480", "lon": -77.04017066666667}, {"is_reserved": 0, "lat": 38.94312516666667, "is_disabled": 0, "type": "electric_scooter", "fusion_lat": 0.0, "bike_id": "31e1c535c59bb4a063eb40bb0d4c01eb", "rental_uris": {"ios": "https://dc.lft.to/lastmile_qr_scan", "android": "https://dc.lft.to/lastmile_qr_scan"}, "fusion_lon": 0.0, "name": "31e1c535c59bb4a063eb40bb0d4c01eb", "lon": -77.02488316666667}, {"is_reserved": 0, "lat": 38.92720883333333, "is_disabled": 0, "type": "electric_scooter", "fusion_lat": 0.0, "bike_id": "f099efa261f14caedd4b7d74adce1ce0", "rental_uris": {"ios": "https://dc.lft.to/lastmile_qr_scan", "android": "https://dc.lft.to/lastmile_qr_scan"}, "fusion_lon": 0.0, "name": "f099efa261f14caedd4b7d74adce1ce0", "lon": -77.03669333333333}, {"is_reserved": 0, "lat": 38.905185, "is_disabled": 0, "type": "electric_scooter", "fusion_lat": 0.0, "bike_id": "243c27d09cc851e2846beff031d4e917", "rental_uris": {"ios": "https://dc.lft.to/lastmile_qr_scan", "android": "https://dc.lft.to/lastmile_qr_scan"}, "fusion_lon": 0.0, "name": "243c27d09cc851e2846beff031d4e917", "lon": -77.05100933333334}, {"is_reserved": 0, "lat": 38.94823216666666, "is_disabled": 0, "type": "electric_scooter", "fusion_lat": 0.0, "bike_id": "9f64c2eb8a042dff2807e99a7bcf9b14", "rental_uris": {"ios": "https://dc.lft.to/lastmile_qr_scan", "android": "https://dc.lft.to/lastmile_qr_scan"}, "fusion_lon": 0.0, "name": "9f64c2eb8a042dff2807e99a7bcf9b14", "lon": -76.99904683333334}, {"is_reserved": 0, "lat": 38.900876333333336, "is_disabled": 0, "type": "electric_scooter", "fusion_lat": 0.0, "bike_id": "5962f1c2944da18394531ff04d404a7a", "rental_uris": {"ios": "https://dc.lft.to/lastmile_qr_scan", "android": "https://dc.lft.to/lastmile_qr_scan"}, "fusion_lon": 0.0, "name": "5962f1c2944da18394531ff04d404a7a", "lon": -77.020856}, {"is_reserved": 0, "lat": 38.901782, "is_disabled": 0, "type": "electric_scooter", "fusion_lat": 0.0, "bike_id": "87c6ed6e93596dd54b8a4967e0ccb4e9", "rental_uris": {"ios": "https://dc.lft.to/lastmile_qr_scan", "android": "https://dc.lft.to/lastmile_qr_scan"}, "fusion_lon": 0.0, "name": "87c6ed6e93596dd54b8a4967e0ccb4e9", "lon": -77.06005066666667}, {"is_reserved": 0, "lat": 38.92858833333333, "is_disabled": 0, "type": "electric_scooter", "fusion_lat": 0.0, "bike_id": "ae87bfa024ed9d00b9dc1b9a4ec17d55", "rental_uris": {"ios": "https://dc.lft.to/lastmile_qr_scan", "android": "https://dc.lft.to/lastmile_qr_scan"}, "fusion_lon": 0.0, "name": "ae87bfa024ed9d00b9dc1b9a4ec17d55", "lon": -77.01407633333334}, {"is_reserved": 0, "lat": 38.94471883333333, "is_disabled": 0, "type": "electric_bike", "fusion_lat": 0.0, "bike_id": "edfc92f661d9ce6120b6844fca132a9e", "rental_uris": {"ios": "https://dc.lft.to/lastmile_qr_scan", "android": "https://dc.lft.to/lastmile_qr_scan"}, "fusion_lon": 0.0, "name": "edfc92f661d9ce6120b6844fca132a9e", "lon": -76.98690166666667}, {"is_reserved": 0, "lat": 38.869886, "is_disabled": 0, "type": "electric_bike", "fusion_lat": 0.0, "bike_id": "a26f3701c875dd5220bbc229bda4ffd9", "rental_uris": {"ios": "https://dc.lft.to/lastmile_qr_scan", "android": "https://dc.lft.to/lastmile_qr_scan"}, "fusion_lon": 0.0, "name": "a26f3701c875dd5220bbc229bda4ffd9", "lon": -76.95982666666667},