{"data": {"bikes": [{"lon": -77.04346666666666, "bike_id": "f11c33b8903cdac9862f82d61e48f8e1", "lat": 38.933356833333335, "fusion_lon": 0.0, "fusion_lat": 0.0, "type": "electric_scooter", "name": "f11c33b8903cdac9862f82d61e48f8e1", "is_disabled": 0, "rental_uris": {"ios": "https://dc.lft.to/lastmile_qr_scan", "android": "https://dc.lft.to/lastmile_qr_scan"}, "is_reserved": 0}, {"lon": -77.03079883333334, "bike_id": "b463d91d2efb02fd650e2f58b9883fb3", "lat": 38.88037533333333, "fusion_lon": 0.0, "fusion_lat": 0.0, "type": "electric_scooter", "name": "b463d91d2efb02fd650e2f58b9883fb3", "is_disabled": 0, "rental_uris": {"ios": "https://dc.lft.to/lastmile_qr_scan", "android": "https://dc.lft.to/lastmile_qr_scan"}, "is_reserved": 0}, {"lon": -77.0328255, "bike_id": "0dcbb674ce7bb560a659a85291914d01", "lat": 38.92006583333333, "fusion_lon": 0.0, "fusion_lat": 0.0, "type": "electric_scooter", "name": "0dcbb674ce7bb560a659a85291914d01", "is_disabled": 0, "rental_uris": {"ios": "https://dc.lft.to/lastmile_qr_scan", "android": "https://dc.lft.to/lastmile_qr_scan"}, "is_reserved": 0}, {"lon": -77.02735683333333, "bike_id": "a49bbfd7ee95531b5e19fc34697f4133", "lat": 38.943834333333335, "fusion_lon": 0.0, "fusion_lat": 0.0, "type": "electric_scooter", "name": "a49bbfd7ee95531b5e19fc34697f4133", "is_disabled": 0, "rental_uris": {"ios": "https://dc.lft.to/lastmile_qr_scan", "android": "https://dc.lft.to/lastmile_qr_scan"}, "is_reserved": 0}, {"lon": -77.04484133333334, "bike_id": "7afad3f80ad113c786fc124688a86ad1", "lat": 38.90863316666667, "fusion_lon": 0.0, "fusion_lat": 0.0, "type": "electric_scooter", "name": "7afad3f80ad113c786fc124688a86ad1", "is_disabled": 0, "rental_uris": {"ios": "https://dc.lft.to/lastmile_qr_scan", "android": "https://dc.lft.to/lastmile_qr_scan"}, "is_reserved": 0}, {"lon": -77.04132433333334, "bike_id": "5e5466ce62102d0568d9bdc772f3a3e0", "lat": 38.899365833333334, "fusion_lon": 0.0, "fusion_lat": 0.0, "type": "electric_scooter", "name": "5e5466ce62102d0568d9bdc772f3a3e0", "is_disabled": 0, "rental_uris": {"ios": "https://dc.lft.to/lastmile_qr_scan", "android": "https://dc.lft.to/lastmile_qr_scan"}, "is_reserved": 0}, {"lon": -77.00035983333333, "bike_id": "774ae2b96365ae1f270cd9bbfb4516bc", "lat": 38.90801783333333, "fusion_lon": 0.0, "fusion_lat": 0.0, "type": "electric_scooter", "name": "774ae2b96365ae1f270cd9bbfb4516bc", "is_disabled": 0, "rental_uris": {"ios": "https://dc.lft.to/lastmile_qr_scan", "android": "https://dc.lft.to/lastmile_qr_scan"}, "is_reserved": 0}, {"lon": -77.01790766666667, "bike_id": "14e98ce40bcf915c682fb9296b0bc19f", "lat": 38.92047483333333, "fusion_lon": 0.0, "fusion_lat": 0.0, "type": "electric_scooter", "name": "14e98ce40bcf915c682fb9296b0bc19f", "is_disabled": 0, "rental_uris": {"ios": "https://dc.lft.to/lastmile_qr_scan", "android": "https://dc.lft.to/lastmile_qr_scan"}, "is_reserved": 0}, {"lon": -77.026938, "bike_id": "3ee706ab77a9ec384369bbeb0c547bb3", "lat": 38.9123365, "fusion_lon": 0.0, "fusion_lat": 0.0, "type": "electric_scooter", "name": "3ee706ab77a9ec384369bbeb0c547bb3", "is_disabled": 0, "rental_uris": {"ios": "https://dc.lft.to/lastmile_qr_scan", "android": "https://dc.lft.to/lastmile_qr_scan"}, "is_reserved": 0}, {"lon": -77.0383615, "bike_id": "e0688c3eb756f098dbd06c7bfeaa3ee8", "lat": 38.908777, "fusion_lon": 0.0, "fusion_lat": 0.0, "type": "electric_scooter", "name": "e0688c3eb756f098dbd06c7bfeaa3ee8", "is_disabled": 0, "rental_uris": {"ios": "https://dc.lft.to/lastmile_qr_scan", "android": "https://dc.lft.to/lastmile_qr_scan"}, "is_reserved": 0}, {"lon": -77.03277516666667, "bike_id": "fac582dd0bc653c230e1e926f91330f3", "lat": 38.901697, "fusion_lon": 0.0, "fusion_lat": 0.0, "type": "electric_scooter", "name": "fac582dd0bc653c230e1e926f91330f3", "is_disabled": 0, "rental_uris": {"ios": "https://dc.lft.to/lastmile_qr_scan", "android": "https://dc.lft.to/lastmile_qr_scan"}, "is_reserved": 0}, {"lon": -77.03112833333333, "bike_id": "4172d56cc5e176437f0cc41131cf1050", "lat": 38.88756433333333, "fusion_lon": 0.0, "fusion_lat": 0.0, "type": "electric_scooter", "name": "4172d56cc5e176437f0cc41131cf1050", "is_disabled": 0, "rental_uris": {"ios": "https://dc.lft.to/lastmile_qr_scan", "android": "https://dc.lft.to/lastmile_qr_scan"}, "is_reserved": 0}, {"lon": -77.01585966666667, "bike_id": "2a15530059171cdb74d3b08f709234ab", "lat": 38.87641383333333, "fusion_lon": 0.0, "fusion_lat": 0.0, "type": "electric_scooter", "name": "2a15530059171cdb74d3b08f709234ab", "is_disabled": 0, "rental_uris": {"ios": "https://dc.lft.to/lastmile_qr_scan", "android": "https://dc.lft.to/lastmile_qr_scan"}, "is_reserved": 0}, {"lon": -76.97534933333333, "bike_id": "134155eb1dde48ab42c288e4fdf86803", "lat": 38.922329500000004, "fusion_lon": 0.0, "fusion_lat": 0.0, "type": "electric_scooter", "name": "134155eb1dde48ab42c288e4fdf86803", "is_disabled": 0, "rental_uris": {"ios": "https://dc.lft.to/lastmile_qr_scan", "android": "https://dc.lft.to/lastmile_qr_scan"}, "is_reserved": 0}, {"lon": -77.01207766666667, "bike_id": "94878434554e986b4bf1e2f08c93bedc", "lat": 38.885539, "fusion_lon": 0.0, "fusion_lat": 0.0, "type": "electric_scooter", "name": "94878434554e986b4bf1e2f08c93bedc", "is_disabled": 0, "rental_uris": {"ios": "https://dc.lft.to/lastmile_qr_scan", "android": "https://dc.lft.to/lastmile_qr_scan"}, "is_reserved": 0}, {"lon": -77.03110683333334, "bike_id": "931af85668f80093c2211f400dd47654", "lat": 38.9191055, "fusion_lon": 0.0, "fusion_lat": 0.0, "type": "electric_scooter", "name": "931af85668f80093c2211f400dd47654", "is_disabled": 0, "rental_uris": {"ios": "https://dc.lft.to/lastmile_qr_scan", "android": "https://dc.lft.to/lastmile_qr_scan"}, "is_reserved": 0}, {"lon": -77.0113595, "bike_id": "b15aca6b550b0b2a2c662e313e89bbed", "lat": 38.90016716666667, "fusion_lon": 0.0, "fusion_lat": 0.0, "type": "electric_scooter", "name": "b15aca6b550b0b2a2c662e313e89bbed", "is_disabled": 0, "rental_uris": {"ios": "https://dc.lft.to/lastmile_qr_scan", "android": "https://dc.lft.to/lastmile_qr_scan"}, "is_reserved": 0}, {"lon": -76.98944766666666, "bike_id": "b9798b28ab9f75de828ad68d05d36bae", "lat": 38.865540333333335, "fusion_lon": 0.0, "fusion_lat": 0.0, "type": "electric_scooter", "name": "b9798b28ab9f75de828ad68d05d36bae", "is_disabled": 0, "rental_uris": {"ios": "https://dc.lft.to/lastmile_qr_scan", "android": "https://dc.lft.to/lastmile_qr_scan"}, "is_reserved": 0}, {"lon": -77.05001583333333, "bike_id": "3348f5ac3f3f52083a8c50b185aab140", "lat": 38.901162166666666, "fusion_lon": 0.0, "fusion_lat": 0.0, "type": "electric_scooter", "name": "3348f5ac3f3f52083a8c50b185aab140", "is_disabled": 0, "rental_uris": {"ios": "https://dc.lft.to/lastmile_qr_scan", "android": "https://dc.lft.to/lastmile_qr_scan"}, "is_reserved": 0}, {"lon": -77.04974633333333, "bike_id": "eff3bdc78c01a4c04d414d74af66752a", "lat": 39.0355215, "fusion_lon": 0.0, "fusion_lat": 0.0, "type": "electric_bike", "name": "eff3bdc78c01a4c04d414d74af66752a", "is_disabled": 0, "rental_uris": {"ios": "https://dc.lft.to/lastmile_qr_scan", "android": "https://dc.lft.to/lastmile_qr_scan"}, "is_reserved": 0}, {"lon": -77.03141183333334, "bike_id": "32650f00d05b6e34c5f1ef5e0468d8b6", "lat": 38.92965866666667, "fusion_lon": 0.0, "fusion_lat": 0.0, "type": "electric_scooter", "name": "32650f00d05b6e34c5f1ef5e0468d8b6", "is_disabled": 0, "rental_uris": {"ios": "https://dc.lft.to/lastmile_qr_scan", "android": "https://dc.lft.to/lastmile_qr_scan"}, "is_reserved": 0}, {"lon": -77.0320065, "bike_id": "4468a87c136b954b177b9a30e94941c4", "lat": 38.90357816666667, "fusion_lon": 0.0, "fusion_lat": 0.0, "type": "electric_scooter", "name": "4468a87c136b954b177b9a30e94941c4", "is_disabled": 0, "rental_uris": {"ios": "https://dc.lft.to/lastmile_qr_scan", "android": "https://dc.lft.to/lastmile_qr_scan"}, "is_reserved": 0}, {"lon": -76.99854266666667, "bike_id": "b716e865d32e4946583e39d359cde8b9", "lat": 38.841636333333334, "fusion_lon": 0.0, "fusion_lat": 0.0, "type": "electric_scooter", "name": "b716e865d32e4946583e39d359cde8b9", "is_disabled": 0, "rental_uris": {"ios": "https://dc.lft.to/lastmile_qr_scan", "android": "https://dc.lft.to/lastmile_qr_scan"}, "is_reserved": 0}, {"lon": -77.04650916666667, "bike_id": "5f10f938dc3f19ffb8afafb04ef55a92", "lat": 38.900188666666665, "fusion_lon": 0.0, "fusion_lat": 0.0, "type": "electric_scooter", "name": "5f10f938dc3f19ffb8afafb04ef55a92", "is_disabled": 0, "rental_uris": {"ios": "https://dc.lft.to/lastmile_qr_scan", "android": "https://dc.lft.to/lastmile_qr_scan"}, "is_reserved": 0}, {"lon": -77.033079, "bike_id": "e803fc567f07894568607eda177003e0", "lat": 38.89816783333333, "fusion_lon": 0.0, "fusion_lat": 0.0, "type": "electric_scooter", "name": "e803fc567f07894568607eda177003e0", "is_disabled": 0, "rental_uris": {"ios": "https://dc.lft.to/lastmile_qr_scan", "android": "https://dc.lft.to/lastmile_qr_scan"}, "is_reserved": 0}, {"lon": -77.02709066666667, "bike_id": "5ad9ec76c8ee976dfe379bc5eacb2021", "lat": 38.93482016666667, "fusion_lon": 0.0, "fusion_lat": 0.0, "type": "electric_scooter", "name": "5ad9ec76c8ee976dfe379bc5eacb2021", "is_disabled": 0, "rental_uris": {"ios": "https://dc.lft.to/lastmile_qr_scan", "android": "https://dc.lft.to/lastmile_qr_scan"}, "is_reserved": 0}, {"lon": -77.0028365, "bike_id": "6410ea7b9ab843a84dc057e5e5a33b71", "lat": 38.957115333333334, "fusion_lon": 0.0, "fusion_lat": 0.0, "type": "electric_bike", "name": "6410ea7b9ab843a84dc057e5e5a33b71", "is_disabled": 0, "rental_uris": {"ios": "https://dc.lft.to/lastmile_qr_scan", "android": "https://dc.lft.to/lastmile_qr_scan"}, "is_reserved": 0}, {"lon": -76.98561233333334, "bike_id": "bdb33b63504b354dc0c2bef8296db363", "lat": 38.89957916666667, "fusion_lon": 0.0, "fusion_lat": 0.0, "type": "electric_scooter", "name": "bdb33b63504b354dc0c2bef8296db363", "is_disabled": 0, "rental_uris": {"ios": "https://dc.lft.to/lastmile_qr_scan", "android": "https://dc.lft.to/lastmile_qr_scan"}, "is_reserved": 0}, {"lon": -77.0482795, "bike_id": "461255974afe7a19e585a77d7544d0a5", "lat": 38.90964533333333, "fusion_lon": 0.0, "fusion_lat": 0.0, "type": "electric_scooter", "name": "461255974afe7a19e585a77d7544d0a5", "is_disabled": 0, "rental_uris": {"ios": "https://dc.lft.to/lastmile_qr_scan", "android": "https://dc.lft.to/lastmile_qr_scan"}, "is_reserved": 0}, {"lon": -77.07596166666667, "bike_id": "07f8fd4cca9764d6859067de7c9fd683", "lat": 38.912183, "fusion_lon": 0.0, "fusion_lat": 0.0, "type": "electric_scooter", "name": "07f8fd4cca9764d6859067de7c9fd683", "is_disabled": 0, "rental_uris": {"ios": "https://dc.lft.to/lastmile_qr_scan", "android": "https://dc.lft.to/lastmile_qr_scan"}, "is_reserved": 0}, {"lon": -77.10647383333334, "bike_id": "066acd2072f223396a4686a66fb63daf", "lat": 38.9360975, "fusion_lon": 0.0, "fusion_lat": 0.0, "type": "electric_bike", "name": "066acd2072f223396a4686a66fb63daf", "is_disabled": 0, "rental_uris": {"ios": "https://dc.lft.to/lastmile_qr_scan", "android": "https://dc.lft.to/lastmile_qr_scan"}, "is_reserved": 0}, {"lon": -77.00577066666666, "bike_id": "d38c87b4efec040a6ba417e080c44d37", "lat": 38.902086, "fusion_lon": 0.0, "fusion_lat": 0.0, "type": "electric_scooter", "name": "d38c87b4efec040a6ba417e080c44d37", "is_disabled": 0, "rental_uris": {"ios": "https://dc.lft.to/lastmile_qr_scan", "android": "https://dc.lft.to/lastmile_qr_scan"}, "is_reserved": 0}, {"lon": -77.0298275, "bike_id": "fb4a6ea3a3bd37bfe882d48ac725a620", "lat": 38.930665, "fusion_lon": 0.0, "fusion_lat": 0.0, "type": "electric_scooter", "name": "fb4a6ea3a3bd37bfe882d48ac725a620", "is_disabled": 0, "rental_uris": {"ios": "https://dc.lft.to/lastmile_qr_scan", "android": "https://dc.lft.to/lastmile_qr_scan"}, "is_reserved": 0}, {"lon": -77.043672, "bike_id": "fc9acc60b55c24d485fadacacf6fff5d", "lat": 38.921517, "fusion_lon": 0.0, "fusion_lat": 0.0, "type": "electric_scooter", "name": "fc9acc60b55c24d485fadacacf6fff5d", "is_disabled": 0, "rental_uris": {"ios": "https://dc.lft.to/lastmile_qr_scan", "android": "https://dc.lft.to/lastmile_qr_scan"}, "is_reserved": 0}, {"lon": -77.124951, "bike_id": "11f829e939c8e3a3db7a28c4bffeac70", "lat": 38.827880666666665, "fusion_lon": 0.0, "fusion_lat": 0.0, "type": "electric_bike", "name": "11f829e939c8e3a3db7a28c4bffeac70", "is_disabled": 0, "rental_uris": {"ios": "https://dc.lft.to/lastmile_qr_scan", "android": "https://dc.lft.to/lastmile_qr_scan"}, "is_reserved": 0}, {"lon": -77.02183266666667, "bike_id": "dc024201d4501a38fc26648421a20774", "lat": 38.909798333333335, "fusion_lon": 0.0, "fusion_lat": 0.0, "type": "electric_scooter", "name": "dc024201d4501a38fc26648421a20774", "is_disabled": 0, "rental_uris": {"ios": "https://dc.lft.to/lastmile_qr_scan", "android": "https://dc.lft.to/lastmile_qr_scan"}, "is_reserved": 0}, {"lon": -77.02722516666667, "bike_id": "4b4af6c86a7efb9041af2c3990dfa533", "lat": 38.924835333333334, "fusion_lon": 0.0, "fusion_lat": 0.0, "type": "electric_scooter", "name": "4b4af6c86a7efb9041af2c3990dfa533", "is_disabled": 0, "rental_uris": {"ios": "https://dc.lft.to/lastmile_qr_scan", "android": "https://dc.lft.to/lastmile_qr_scan"}, "is_reserved": 0}, {"lon": -77.01783133333333, "bike_id": "529369e3c05bcee648c9485a55ffde99", "lat": 38.8861895, "fusion_lon": 0.0, "fusion_lat": 0.0, "type": "electric_scooter", "name": "529369e3c05bcee648c9485a55ffde99", "is_disabled": 0, "rental_uris": {"ios": "https://dc.lft.to/lastmile_qr_scan", "android": "https://dc.lft.to/lastmile_qr_scan"}, "is_reserved": 0}, {"lon": -77.028414, "bike_id": "a4116052f5be722ce6b4fc19ea0bef21", "lat": 38.887452333333336, "fusion_lon": 0.0, "fusion_lat": 0.0, "type": "electric_scooter", "name": "a4116052f5be722ce6b4fc19ea0bef21", "is_disabled": 0, "rental_uris": {"ios": "https://dc.lft.to/lastmile_qr_scan", "android": "https://dc.lft.to/lastmile_qr_scan"}, "is_reserved": 0}, {"lon": -76.9995845, "bike_id": "8463687c4303779abe3cf2e608714f49", "lat": 38.904117666666664, "fusion_lon": 0.0, "fusion_lat": 0.0, "type": "electric_scooter", "name": "8463687c4303779abe3cf2e608714f49", "is_disabled": 0, "rental_uris": {"ios": "https://dc.lft.to/lastmile_qr_scan", "android": "https://dc.lft.to/lastmile_qr_scan"}, "is_reserved": 0}, {"lon": -77.00217166666667, "bike_id": "70c048a97936ebda26a569619752fd79", "lat": 38.9001505, "fusion_lon": 0.0, "fusion_lat": 0.0, "type": "electric_scooter", "name": "70c048a97936ebda26a569619752fd79", "is_disabled": 0, "rental_uris": {"ios": "https://dc.lft.to/lastmile_qr_scan", "android": "https://dc.lft.to/lastmile_qr_scan"}, "is_reserved": 0}, {"lon": -76.98088383333334, "bike_id": "aeb40e4201ec55fe103c498492ae8aaa", "lat": 38.90682833333334, "fusion_lon": 0.0, "fusion_lat": 0.0, "type": "electric_scooter", "name": "aeb40e4201ec55fe103c498492ae8aaa", "is_disabled": 0, "rental_uris": {"ios": "https://dc.lft.to/lastmile_qr_scan", "android": "https://dc.lft.to/lastmile_qr_scan"}, "is_reserved": 0}, {"lon": -77.0760735, "bike_id": "e5e8839929424e3d699fb10fa3cf54a1", "lat": 38.92061866666667, "fusion_lon": 0.0, "fusion_lat": 0.0, "type": "electric_scooter", "name": "e5e8839929424e3d699fb10fa3cf54a1", "is_disabled": 0, "rental_uris": {"ios": "https://dc.lft.to/lastmile_qr_scan", "android": "https://dc.lft.to/lastmile_qr_scan"}, "is_reserved": 0}, {"lon": -76.97743016666666, "bike_id": "2756ec5e21c190d7a734986a737c7a81", "lat": 38.86480016666667, "fusion_lon": 0.0, "fusion_lat": 0.0, "type": "electric_scooter", "name": "2756ec5e21c190d7a734986a737c7a81", "is_disabled": 0, "rental_uris": {"ios": "https://dc.lft.to/lastmile_qr_scan", "android": "https://dc.lft.to/lastmile_qr_scan"}, "is_reserved": 0}, {"lon": -77.0473045, "bike_id": "3544e8e2b3a6a4cb67942502be270545", "lat": 38.897466, "fusion_lon": 0.0, "fusion_lat": 0.0, "type": "electric_scooter", "name": "3544e8e2b3a6a4cb67942502be270545", "is_disabled": 0, "rental_uris": {"ios": "https://dc.lft.to/lastmile_qr_scan", "android": "https://dc.lft.to/lastmile_qr_scan"}, "is_reserved": 0}, {"lon": -77.04504133333333, "bike_id": "b350181ad010599530b4efe5b880e3f4", "lat": 38.911169, "fusion_lon": 0.0, "fusion_lat": 0.0, "type": "electric_scooter", "name": "b350181ad010599530b4efe5b880e3f4", "is_disabled": 0, "rental_uris": {"ios": "https://dc.lft.to/lastmile_qr_scan", "android": "https://dc.lft.to/lastmile_qr_scan"}, "is_reserved": 0}, {"lon": -77.0221535, "bike_id": "b4a02103deb0cd56e1b8c6999b43668b", "lat": 38.89506733333333, "fusion_lon": 0.0, "fusion_lat": 0.0, "type": "electric_scooter", "name": "b4a02103deb0cd56e1b8c6999b43668b", "is_disabled": 0, "rental_uris": {"ios": "https://dc.lft.to/lastmile_qr_scan", "android": "https://dc.lft.to/lastmile_qr_scan"}, "is_reserved": 0}, {"lon": -77.0280825, "bike_id": "a8c15091838ef2a478a66c0ebd441dc2", "lat": 38.9308315, "fusion_lon": 0.0, "fusion_lat": 0.0, "type": "electric_scooter", "name": "a8c15091838ef2a478a66c0ebd441dc2", "is_disabled": 0, "rental_uris": {"ios": "https://dc.lft.to/lastmile_qr_scan", "android": "https://dc.lft.to/lastmile_qr_scan"}, "is_reserved": 0}, {"lon": -77.02509966666666, "bike_id": "a00f0189f8fbe1aac177f5297aeb002a", "lat": 38.920527166666666, "fusion_lon": 0.0, "fusion_lat": 0.0, "type": "electric_scooter", "name": "a00f0189f8fbe1aac177f5297aeb002a", "is_disabled": 0, "rental_uris": {"ios": "https://dc.lft.to/lastmile_qr_scan", "android": "https://dc.lft.to/lastmile_qr_scan"}, "is_reserved": 0}, {"lon": -77.041844, "bike_id": "6276d99caca6b0f9760e9ff59d8fd28e", "lat": 38.892544666666666, "fusion_lon": 0.0, "fusion_lat": 0.0, "type": "electric_scooter", "name": "6276d99caca6b0f9760e9ff59d8fd28e", "is_disabled": 0, "rental_uris": {"ios": "https://dc.lft.to/lastmile_qr_scan", "android": "https://dc.lft.to/lastmile_qr_scan"}, "is_reserved": 0}, {"lon": -77.03204533333333, "bike_id": "5b52ccd759cbb878bbe4faf5cdeada3f", "lat": 38.91736016666667, "fusion_lon": 0.0, "fusion_lat": 0.0, "type": "electric_scooter", "name": "5b52ccd759cbb878bbe4faf5cdeada3f", "is_disabled": 0, "rental_uris": {"ios": "https://dc.lft.to/lastmile_qr_scan", "android": "https://dc.lft.to/lastmile_qr_scan"}, "is_reserved": 0}, {"lon": -77.04389383333333, "bike_id": "6cd73e95fc370e744f60698727b6b807", "lat": 38.921139833333335, "fusion_lon": 0.0, "fusion_lat": 0.0, "type": "electric_scooter", "name": "6cd73e95fc370e744f60698727b6b807", "is_disabled": 0, "rental_uris": {"ios": "https://dc.lft.to/lastmile_qr_scan", "android": "https://dc.lft.to/lastmile_qr_scan"}, "is_reserved": 0}, {"lon": -77.02514083333334, "bike_id": "304fc7ca0ae8b3046e327dd7a20eb658", "lat": 38.926459666666666, "fusion_lon": 0.0, "fusion_lat": 0.0, "type": "electric_scooter", "name": "304fc7ca0ae8b3046e327dd7a20eb658", "is_disabled": 0, "rental_uris": {"ios": "https://dc.lft.to/lastmile_qr_scan", "android": "https://dc.lft.to/lastmile_qr_scan"}, "is_reserved": 0}, {"lon": -76.99159116666667, "bike_id": "6ef4fb736e59a23c46a82c690bc6e6ed", "lat": 38.9003905, "fusion_lon": 0.0, "fusion_lat": 0.0, "type": "electric_scooter", "name": "6ef4fb736e59a23c46a82c690bc6e6ed", "is_disabled": 0, "rental_uris": {"ios": "https://dc.lft.to/lastmile_qr_scan", "android": "https://dc.lft.to/lastmile_qr_scan"}, "is_reserved": 0}, {"lon": -77.00598183333334, "bike_id": "488705b2813617552b39af61f9851691", "lat": 38.87186883333333, "fusion_lon": 0.0, "fusion_lat": 0.0, "type": "electric_scooter", "name": "488705b2813617552b39af61f9851691", "is_disabled": 0, "rental_uris": {"ios": "https://dc.lft.to/lastmile_qr_scan", "android": "https://dc.lft.to/lastmile_qr_scan"}, "is_reserved": 0}, {"lon": -76.89537183333333, "bike_id": "f4057045fad691b30ef06f3c0d6b36b2", "lat": 38.94549133333334, "fusion_lon": 0.0, "fusion_lat": 0.0, "type": "electric_bike", "name": "f4057045fad691b30ef06f3c0d6b36b2", "is_disabled": 0, "rental_uris": {"ios": "https://dc.lft.to/lastmile_qr_scan", "android": "https://dc.lft.to/lastmile_qr_scan"}, "is_reserved": 0}, {"lon": -77.04002216666666, "bike_id": "55e09ee80fdbf512e93850403a903fb8", "lat": 38.9058505, "fusion_lon": 0.0, "fusion_lat": 0.0, "type": "electric_scooter", "name": "55e09ee80fdbf512e93850403a903fb8", "is_disabled": 0, "rental_uris": {"ios": "https://dc.lft.to/lastmile_qr_scan", "android": "https://dc.lft.to/lastmile_qr_scan"}, "is_reserved": 0}, {"lon": -77.048714, "bike_id": "bb0f095636bd1fed34ec9d5592f8b87c", "lat": 38.90087466666667, "fusion_lon": 0.0, "fusion_lat": 0.0, "type": "electric_scooter", "name": "bb0f095636bd1fed34ec9d5592f8b87c", "is_disabled": 0, "rental_uris": {"ios": "https://dc.lft.to/lastmile_qr_scan", "android": "https://dc.lft.to/lastmile_qr_scan"}, "is_reserved": 0}, {"lon": -77.032781, "bike_id": "cbc4cdc9e7a9ea679dd67cd5a17deeec", "lat": 38.90159233333333, "fusion_lon": 0.0, "fusion_lat": 0.0, "type": "electric_scooter", "name": "cbc4cdc9e7a9ea679dd67cd5a17deeec", "is_disabled": 0, "rental_uris": {"ios": "https://dc.lft.to/lastmile_qr_scan", "android": "https://dc.lft.to/lastmile_qr_scan"}, "is_reserved": 0}, {"lon": -77.04211566666666, "bike_id": "7f40e1146401ab888e526b0867019c66", "lat": 38.92307616666667, "fusion_lon": 0.0, "fusion_lat": 0.0, "type": "electric_scooter", "name": "7f40e1146401ab888e526b0867019c66", "is_disabled": 0, "rental_uris": {"ios": "https://dc.lft.to/lastmile_qr_scan", "android": "https://dc.lft.to/lastmile_qr_scan"}, "is_reserved": 0}, {"lon": -76.97811933333334, "bike_id": "3e10c7f5dac6500bbab2177b464df10f", "lat": 38.90669033333333, "fusion_lon": 0.0, "fusion_lat": 0.0, "type": "electric_scooter", "name": "3e10c7f5dac6500bbab2177b464df10f", "is_disabled": 0, "rental_uris": {"ios": "https://dc.lft.to/lastmile_qr_scan", "android": "https://dc.lft.to/lastmile_qr_scan"}, "is_reserved": 0}, {"lon": -77.02698433333333, "bike_id": "fd9e1ba5013857782647c53c27cba2e0", "lat": 38.90667333333333, "fusion_lon": 0.0, "fusion_lat": 0.0, "type": "electric_scooter", "name": "fd9e1ba5013857782647c53c27cba2e0", "is_disabled": 0, "rental_uris": {"ios": "https://dc.lft.to/lastmile_qr_scan", "android": "https://dc.lft.to/lastmile_qr_scan"}, "is_reserved": 0}, {"lon": -77.02566583333333, "bike_id": "221e58a18eae610a54f6435274146bf9", "lat": 38.914827, "fusion_lon": 0.0, "fusion_lat": 0.0, "type": "electric_scooter", "name": "221e58a18eae610a54f6435274146bf9", "is_disabled": 0, "rental_uris": {"ios": "https://dc.lft.to/lastmile_qr_scan", "android": "https://dc.lft.to/lastmile_qr_scan"}, "is_reserved": 0}, {"lon": -77.04264933333333, "bike_id": "b0c9daebe66ff73e4393410f97d2c223", "lat": 38.922905166666666, "fusion_lon": 0.0, "fusion_lat": 0.0, "type": "electric_scooter", "name": "b0c9daebe66ff73e4393410f97d2c223", "is_disabled": 0, "rental_uris": {"ios": "https://dc.lft.to/lastmile_qr_scan", "android": "https://dc.lft.to/lastmile_qr_scan"}, "is_reserved": 0}, {"lon": -77.0524285, "bike_id": "b1d16b9628a82ee75cfab58dfbd5b2f6", "lat": 38.9254995, "fusion_lon": 0.0, "fusion_lat": 0.0, "type": "electric_scooter", "name": "b1d16b9628a82ee75cfab58dfbd5b2f6", "is_disabled": 0, "rental_uris": {"ios": "https://dc.lft.to/lastmile_qr_scan", "android": "https://dc.lft.to/lastmile_qr_scan"}, "is_reserved": 0}, {"lon": -77.04750716666666, "bike_id": "169c40f17eabca66dfcdc600f42b1f7e", "lat": 38.905468166666665, "fusion_lon": 0.0, "fusion_lat": 0.0, "type": "electric_scooter", "name": "169c40f17eabca66dfcdc600f42b1f7e", "is_disabled": 0, "rental_uris": {"ios": "https://dc.lft.to/lastmile_qr_scan", "android": "https://dc.lft.to/lastmile_qr_scan"}, "is_reserved": 0}, {"lon": -77.07093183333333, "bike_id": "c3543221789c42f06352d85fc64ca0be", "lat": 38.91966266666667, "fusion_lon": 0.0, "fusion_lat": 0.0, "type": "electric_scooter", "name": "c3543221789c42f06352d85fc64ca0be", "is_disabled": 0, "rental_uris": {"ios": "https://dc.lft.to/lastmile_qr_scan", "android": "https://dc.lft.to/lastmile_qr_scan"}, "is_reserved": 0}, {"lon": -77.03180633333334, "bike_id": "234650352fbafd1b4d8e60c1312445b5", "lat": 38.918296, "fusion_lon": 0.0, "fusion_lat": 0.0, "type": "electric_scooter", "name": "234650352fbafd1b4d8e60c1312445b5", "is_disabled": 0, "rental_uris": {"ios": "https://dc.lft.to/lastmile_qr_scan", "android": "https://dc.lft.to/lastmile_qr_scan"}, "is_reserved": 0}, {"lon": -77.00686066666667, "bike_id": "e069554d0b00e6732525677340d66280", "lat": 38.944958166666666, "fusion_lon": 0.0, "fusion_lat": 0.0, "type": "electric_bike", "name": "e069554d0b00e6732525677340d66280", "is_disabled": 0, "rental_uris": {"ios": "https://dc.lft.to/lastmile_qr_scan", "android": "https://dc.lft.to/lastmile_qr_scan"}, "is_reserved": 0}, {"lon": -76.99892716666666, "bike_id": "144f52a9c83e6b1adcba48987917dc4b", "lat": 38.90728433333334, "fusion_lon": 0.0, "fusion_lat": 0.0, "type": "electric_scooter", "name": "144f52a9c83e6b1adcba48987917dc4b", "is_disabled": 0, "rental_uris": {"ios": "https://dc.lft.to/lastmile_qr_scan", "android": "https://dc.lft.to/lastmile_qr_scan"}, "is_reserved": 0}, {"lon": -77.04677416666667, "bike_id": "6af5b06bce8c4a41eaa5ecd4e7aab5ef", "lat": 38.89231566666667, "fusion_lon": 0.0, "fusion_lat": 0.0, "type": "electric_scooter", "name": "6af5b06bce8c4a41eaa5ecd4e7aab5ef", "is_disabled": 0, "rental_uris": {"ios": "https://dc.lft.to/lastmile_qr_scan", "android": "https://dc.lft.to/lastmile_qr_scan"}, "is_reserved": 0}, {"lon": -77.025603, "bike_id": "c0c692cfc107195b9b7af47bab48b8b0", "lat": 38.94171933333333, "fusion_lon": 0.0, "fusion_lat": 0.0, "type": "electric_scooter", "name": "c0c692cfc107195b9b7af47bab48b8b0", "is_disabled": 0, "rental_uris": {"ios": "https://dc.lft.to/lastmile_qr_scan", "android": "https://dc.lft.to/lastmile_qr_scan"}, "is_reserved": 0}, {"lon": -76.9994775, "bike_id": "cf48fa853b52299000a8c0b78cb1bca8", "lat": 38.923419333333335, "fusion_lon": 0.0, "fusion_lat": 0.0, "type": "electric_scooter", "name": "cf48fa853b52299000a8c0b78cb1bca8", "is_disabled": 0, "rental_uris": {"ios": "https://dc.lft.to/lastmile_qr_scan", "android": "https://dc.lft.to/lastmile_qr_scan"}, "is_reserved": 0}, {"lon": -76.96550133333334, "bike_id": "eb27e9a367c4ef117702a82f6b3cb192", "lat": 38.918672, "fusion_lon": 0.0, "fusion_lat": 0.0, "type": "electric_scooter", "name": "eb27e9a367c4ef117702a82f6b3cb192", "is_disabled": 0, "rental_uris": {"ios": "https://dc.lft.to/lastmile_qr_scan", "android": "https://dc.lft.to/lastmile_qr_scan"}, "is_reserved": 0}, {"lon": -77.01307116666666, "bike_id": "c668634ff6c8b895a07601224f3fceac", "lat": 38.943289, "fusion_lon": 0.0, "fusion_lat": 0.0, "type": "electric_scooter", "name": "c668634ff6c8b895a07601224f3fceac", "is_disabled": 0, "rental_uris": {"ios": "https://dc.lft.to/lastmile_qr_scan", "android": "https://dc.lft.to/lastmile_qr_scan"}, "is_reserved": 0}, {"lon": -77.04876316666666, "bike_id": "dd704f0dd0c38e1bf1fd33b71b264b3e", "lat": 38.892332333333336, "fusion_lon": 0.0, "fusion_lat": 0.0, "type": "electric_scooter", "name": "dd704f0dd0c38e1bf1fd33b71b264b3e", "is_disabled": 0, "rental_uris": {"ios": "https://dc.lft.to/lastmile_qr_scan", "android": "https://dc.lft.to/lastmile_qr_scan"}, "is_reserved": 0}, {"lon": -76.96091816666667, "bike_id": "16f0117fe5f2df6746cdbefaa30c7c01", "lat": 38.91863433333333, "fusion_lon": 0.0, "fusion_lat": 0.0, "type": "electric_bike", "name": "16f0117fe5f2df6746cdbefaa30c7c01", "is_disabled": 0, "rental_uris": {"ios": "https://dc.lft.to/lastmile_qr_scan", "android": "https://dc.lft.to/lastmile_qr_scan"}, "is_reserved": 0}, {"lon": -77.04577133333333, "bike_id": "337c58121267ef206b40b4ecfaa90373", "lat": 38.92128966666667, "fusion_lon": 0.0, "fusion_lat": 0.0, "type": "electric_scooter", "name": "337c58121267ef206b40b4ecfaa90373", "is_disabled": 0, "rental_uris": {"ios": "https://dc.lft.to/lastmile_qr_scan", "android": "https://dc.lft.to/lastmile_qr_scan"}, "is_reserved": 0}, {"lon": -76.99380183333334, "bike_id": "d9941626400c3cfa3a5ff859da0bdc49", "lat": 38.971856, "fusion_lon": 0.0, "fusion_lat": 0.0, "type": "electric_bike", "name": "d9941626400c3cfa3a5ff859da0bdc49", "is_disabled": 0, "rental_uris": {"ios": "https://dc.lft.to/lastmile_qr_scan", "android": "https://dc.lft.to/lastmile_qr_scan"}, "is_reserved": 0}, {"lon": -77.03518733333334, "bike_id": "5a34bb6e2c765f49285064ed27fcaffc", "lat": 38.90736016666666, "fusion_lon": 0.0, "fusion_lat": 0.0, "type": "electric_scooter", "name": "5a34bb6e2c765f49285064ed27fcaffc", "is_disabled": 0, "rental_uris": {"ios": "https://dc.lft.to/lastmile_qr_scan", "android": "https://dc.lft.to/lastmile_qr_scan"}, "is_reserved": 0}, {"lon": -77.07231866666666, "bike_id": "c55e74888c36985538323cee025a39e4", "lat": 38.968175, "fusion_lon": 0.0, "fusion_lat": 0.0, "type": "electric_bike", "name": "c55e74888c36985538323cee025a39e4", "is_disabled": 0, "rental_uris": {"ios": "https://dc.lft.to/lastmile_qr_scan", "android": "https://dc.lft.to/lastmile_qr_scan"}, "is_reserved": 0}, {"lon": -77.01067716666667, "bike_id": "b079a64d3517a140c3ef53e1b52db778", "lat": 38.8981785, "fusion_lon": 0.0, "fusion_lat": 0.0, "type": "electric_scooter", "name": "b079a64d3517a140c3ef53e1b52db778", "is_disabled": 0, "rental_uris": {"ios": "https://dc.lft.to/lastmile_qr_scan", "android": "https://dc.lft.to/lastmile_qr_scan"}, "is_reserved": 0}, {"lon": -77.01818183333333, "bike_id": "4788e572a2082dc17d71f8a6db410684", "lat": 38.92226133333333, "fusion_lon": 0.0, "fusion_lat": 0.0, "type": "electric_scooter", "name": "4788e572a2082dc17d71f8a6db410684", "is_disabled": 0, "rental_uris": {"ios": "https://dc.lft.to/lastmile_qr_scan", "android": "https://dc.lft.to/lastmile_qr_scan"}, "is_reserved": 0}, {"lon": -77.01765766666666, "bike_id": "6e09bc8d7a054a8b62a3908e06aeda0f", "lat": 38.8873065, "fusion_lon": 0.0, "fusion_lat": 0.0, "type": "electric_scooter", "name": "6e09bc8d7a054a8b62a3908e06aeda0f", "is_disabled": 0, "rental_uris": {"ios": "https://dc.lft.to/lastmile_qr_scan", "android": "https://dc.lft.to/lastmile_qr_scan"}, "is_reserved": 0}, {"lon": -77.033829, "bike_id": "642b61f03bfdbecb0fbf99411ec6b582", "lat": 38.9216245, "fusion_lon": 0.0, "fusion_lat": 0.0, "type": "electric_scooter", "name": "642b61f03bfdbecb0fbf99411ec6b582", "is_disabled": 0, "rental_uris": {"ios": "https://dc.lft.to/lastmile_qr_scan", "android": "https://dc.lft.to/lastmile_qr_scan"}, "is_reserved": 0}, {"lon": -77.02386, "bike_id": "c4ae6b7cd4f70e26b4594613d97d50c9", "lat": 38.8923665, "fusion_lon": 0.0, "fusion_lat": 0.0, "type": "electric_scooter", "name": "c4ae6b7cd4f70e26b4594613d97d50c9", "is_disabled": 0, "rental_uris": {"ios": "https://dc.lft.to/lastmile_qr_scan", "android": "https://dc.lft.to/lastmile_qr_scan"}, "is_reserved": 0}, {"lon": -77.0344595, "bike_id": "e7df62dd01d5bdb1359d42196d9e8b20", "lat": 38.909495, "fusion_lon": 0.0, "fusion_lat": 0.0, "type": "electric_scooter", "name": "e7df62dd01d5bdb1359d42196d9e8b20", "is_disabled": 0, "rental_uris": {"ios": "https://dc.lft.to/lastmile_qr_scan", "android": "https://dc.lft.to/lastmile_qr_scan"}, "is_reserved": 0}, {"lon": -77.060985, "bike_id": "bcddefe3d2e45be612f990cf60beb97b", "lat": 38.90527016666667, "fusion_lon": 0.0, "fusion_lat": 0.0, "type": "electric_scooter", "name": "bcddefe3d2e45be612f990cf60beb97b", "is_disabled": 0, "rental_uris": {"ios": "https://dc.lft.to/lastmile_qr_scan", "android": "https://dc.lft.to/lastmile_qr_scan"}, "is_reserved": 0}, {"lon": -77.0237845, "bike_id": "058e96c95f64fef5e8eeec30fb8eda7c", "lat": 38.909606333333336, "fusion_lon": 0.0, "fusion_lat": 0.0, "type": "electric_scooter", "name": "058e96c95f64fef5e8eeec30fb8eda7c", "is_disabled": 0, "rental_uris": {"ios": "https://dc.lft.to/lastmile_qr_scan", "android": "https://dc.lft.to/lastmile_qr_scan"}, "is_reserved": 0}, {"lon": -77.02210366666667, "bike_id": "590cd86a983a008d05704916e517ad2a", "lat": 38.8871545, "fusion_lon": 0.0, "fusion_lat": 0.0, "type": "electric_scooter", "name": "590cd86a983a008d05704916e517ad2a", "is_disabled": 0, "rental_uris": {"ios": "https://dc.lft.to/lastmile_qr_scan", "android": "https://dc.lft.to/lastmile_qr_scan"}, "is_reserved": 0}, {"lon": -77.04875933333334, "bike_id": "fbe12ae6e90433a6e5d86f5467a67327", "lat": 38.8923425, "fusion_lon": 0.0, "fusion_lat": 0.0, "type": "electric_scooter", "name": "fbe12ae6e90433a6e5d86f5467a67327", "is_disabled": 0, "rental_uris": {"ios": "https://dc.lft.to/lastmile_qr_scan", "android": "https://dc.lft.to/lastmile_qr_scan"}, "is_reserved": 0}, {"lon": -77.03231983333333, "bike_id": "1cc7745e8909e3a64846746deced60f2", "lat": 38.914078833333335, "fusion_lon": 0.0, "fusion_lat": 0.0, "type": "electric_scooter", "name": "1cc7745e8909e3a64846746deced60f2", "is_disabled": 0, "rental_uris": {"ios": "https://dc.lft.to/lastmile_qr_scan", "android": "https://dc.lft.to/lastmile_qr_scan"}, "is_reserved": 0}, {"lon": -77.225715, "bike_id": "520e4a482da2b7e8eaa901903df35653", "lat": 38.929548833333335, "fusion_lon": 0.0, "fusion_lat": 0.0, "type": "electric_bike", "name": "520e4a482da2b7e8eaa901903df35653", "is_disabled": 0, "rental_uris": {"ios": "https://dc.lft.to/lastmile_qr_scan", "android": "https://dc.lft.to/lastmile_qr_scan"}, "is_reserved": 0}, {"lon": -77.05660783333333, "bike_id": "bd05e3f92ea1aba1b945ade843810ad5", "lat": 38.89546, "fusion_lon": 0.0, "fusion_lat": 0.0, "type": "electric_scooter", "name": "bd05e3f92ea1aba1b945ade843810ad5", "is_disabled": 0, "rental_uris": {"ios": "https://dc.lft.to/lastmile_qr_scan", "android": "https://dc.lft.to/lastmile_qr_scan"}, "is_reserved": 0}, {"lon": -77.05766883333334, "bike_id": "457eafdae1cd1206a69318c0a37d7a9c", "lat": 38.93385416666667, "fusion_lon": 0.0, "fusion_lat": 0.0, "type": "electric_scooter", "name": "457eafdae1cd1206a69318c0a37d7a9c", "is_disabled": 0, "rental_uris": {"ios": "https://dc.lft.to/lastmile_qr_scan", "android": "https://dc.lft.to/lastmile_qr_scan"}, "is_reserved": 0}, {"lon": -77.02579916666667, "bike_id": "21f8a78b3caa68cb60bcae493c844500", "lat": 38.887384833333336, "fusion_lon": 0.0, "fusion_lat": 0.0, "type": "electric_scooter", "name": "21f8a78b3caa68cb60bcae493c844500", "is_disabled": 0, "rental_uris": {"ios": "https://dc.lft.to/lastmile_qr_scan", "android": "https://dc.lft.to/lastmile_qr_scan"}, "is_reserved": 0}, {"lon": -77.01779533333334, "bike_id": "770b43634e8287d4586636df8cd18fe4", "lat": 38.883881833333334, "fusion_lon": 0.0, "fusion_lat": 0.0, "type": "electric_scooter", "name": "770b43634e8287d4586636df8cd18fe4", "is_disabled": 0, "rental_uris": {"ios": "https://dc.lft.to/lastmile_qr_scan", "android": "https://dc.lft.to/lastmile_qr_scan"}, "is_reserved": 0}, {"lon": -76.99485416666667, "bike_id": "d97007f8b2cdc94892046414b13c5827", "lat": 38.88605616666667, "fusion_lon": 0.0, "fusion_lat": 0.0, "type": "electric_scooter", "name": "d97007f8b2cdc94892046414b13c5827", "is_disabled": 0, "rental_uris": {"ios": "https://dc.lft.to/lastmile_qr_scan", "android": "https://dc.lft.to/lastmile_qr_scan"}, "is_reserved": 0}, {"lon": -77.04185833333334, "bike_id": "bc448ff4ea496fca3238ad8eb5fa1501", "lat": 38.892552, "fusion_lon": 0.0, "fusion_lat": 0.0, "type": "electric_scooter", "name": "bc448ff4ea496fca3238ad8eb5fa1501", "is_disabled": 0, "rental_uris": {"ios": "https://dc.lft.to/lastmile_qr_scan", "android": "https://dc.lft.to/lastmile_qr_scan"}, "is_reserved": 0}, {"lon": -77.06617, "bike_id": "f207de7d38415e9477d622a3733fcbd4", "lat": 38.912179333333334, "fusion_lon": 0.0, "fusion_lat": 0.0, "type": "electric_scooter", "name": "f207de7d38415e9477d622a3733fcbd4", "is_disabled": 0, "rental_uris": {"ios": "https://dc.lft.to/lastmile_qr_scan", "android": "https://dc.lft.to/lastmile_qr_scan"}, "is_reserved": 0}, {"lon": -77.0289805, "bike_id": "0121ae8f3e71a3b9b51bbf5db3ac0de9", "lat": 38.91692716666667, "fusion_lon": 0.0, "fusion_lat": 0.0, "type": "electric_scooter", "name": "0121ae8f3e71a3b9b51bbf5db3ac0de9", "is_disabled": 0, "rental_uris": {"ios": "https://dc.lft.to/lastmile_qr_scan", "android": "https://dc.lft.to/lastmile_qr_scan"}, "is_reserved": 0}, {"lon": -77.030693, "bike_id": "d22e9348d03e2c7334c0f5c4a3054111", "lat": 38.9224825, "fusion_lon": 0.0, "fusion_lat": 0.0, "type": "electric_scooter", "name": "d22e9348d03e2c7334c0f5c4a3054111", "is_disabled": 0, "rental_uris": {"ios": "https://dc.lft.to/lastmile_qr_scan", "android": "https://dc.lft.to/lastmile_qr_scan"}, "is_reserved": 0}, {"lon": -76.97672333333334, "bike_id": "571f9e2f4aaff17903636d89a7a29134", "lat": 38.952464166666665, "fusion_lon": 0.0, "fusion_lat": 0.0, "type": "electric_bike", "name": "571f9e2f4aaff17903636d89a7a29134", "is_disabled": 0, "rental_uris": {"ios": "https://dc.lft.to/lastmile_qr_scan", "android": "https://dc.lft.to/lastmile_qr_scan"}, "is_reserved": 0}, {"lon": -77.02956133333333, "bike_id": "70fd318c2563b7e1761727f58c00abb2", "lat": 38.91675216666667, "fusion_lon": 0.0, "fusion_lat": 0.0, "type": "electric_scooter", "name": "70fd318c2563b7e1761727f58c00abb2", "is_disabled": 0, "rental_uris": {"ios": "https://dc.lft.to/lastmile_qr_scan", "android": "https://dc.lft.to/lastmile_qr_scan"}, "is_reserved": 0}, {"lon": -77.02834, "bike_id": "a3367c6e4508b830c3853aa06ee57d81", "lat": 38.9327765, "fusion_lon": 0.0, "fusion_lat": 0.0, "type": "electric_scooter", "name": "a3367c6e4508b830c3853aa06ee57d81", "is_disabled": 0, "rental_uris": {"ios": "https://dc.lft.to/lastmile_qr_scan", "android": "https://dc.lft.to/lastmile_qr_scan"}, "is_reserved": 0}, {"lon": -77.0310815, "bike_id": "88533872a39902abb9aa5819bc8ceec6", "lat": 38.915636166666665, "fusion_lon": 0.0, "fusion_lat": 0.0, "type": "electric_scooter", "name": "88533872a39902abb9aa5819bc8ceec6", "is_disabled": 0, "rental_uris": {"ios": "https://dc.lft.to/lastmile_qr_scan", "android": "https://dc.lft.to/lastmile_qr_scan"}, "is_reserved": 0}, {"lon": -77.02923533333333, "bike_id": "d9638c4631e694b77a759ff414b8ad9e", "lat": 38.93460866666667, "fusion_lon": 0.0, "fusion_lat": 0.0, "type": "electric_scooter", "name": "d9638c4631e694b77a759ff414b8ad9e", "is_disabled": 0, "rental_uris": {"ios": "https://dc.lft.to/lastmile_qr_scan", "android": "https://dc.lft.to/lastmile_qr_scan"}, "is_reserved": 0}, {"lon": -77.0270015, "bike_id": "e3a86162567520b286a6a40625f47e49", "lat": 38.9066505, "fusion_lon": 0.0, "fusion_lat": 0.0, "type": "electric_scooter", "name": "e3a86162567520b286a6a40625f47e49", "is_disabled": 0, "rental_uris": {"ios": "https://dc.lft.to/lastmile_qr_scan", "android": "https://dc.lft.to/lastmile_qr_scan"}, "is_reserved": 0}, {"lon": -76.98785416666666, "bike_id": "988e3d14950a0e89528bd4ef38943c85", "lat": 38.867308666666666, "fusion_lon": 0.0, "fusion_lat": 0.0, "type": "electric_scooter", "name": "988e3d14950a0e89528bd4ef38943c85", "is_disabled": 0, "rental_uris": {"ios": "https://dc.lft.to/lastmile_qr_scan", "android": "https://dc.lft.to/lastmile_qr_scan"}, "is_reserved": 0}, {"lon": -77.03835666666667, "bike_id": "34d43ba1e887b13b830f19464600b1de", "lat": 38.906789333333336, "fusion_lon": 0.0, "fusion_lat": 0.0, "type": "electric_scooter", "name": "34d43ba1e887b13b830f19464600b1de", "is_disabled": 0, "rental_uris": {"ios": "https://dc.lft.to/lastmile_qr_scan", "android": "https://dc.lft.to/lastmile_qr_scan"}, "is_reserved": 0}, {"lon": -77.05241516666666, "bike_id": "c2ec9a3fb7834c5c754c1a6891cff7d6", "lat": 38.925455666666664, "fusion_lon": 0.0, "fusion_lat": 0.0, "type": "electric_scooter", "name": "c2ec9a3fb7834c5c754c1a6891cff7d6", "is_disabled": 0, "rental_uris": {"ios": "https://dc.lft.to/lastmile_qr_scan", "android": "https://dc.lft.to/lastmile_qr_scan"}, "is_reserved": 0}, {"lon": -77.03923283333333, "bike_id": "43e1dc7294095b0b23f7089d491d2ac7", "lat": 38.898968833333335, "fusion_lon": 0.0, "fusion_lat": 0.0, "type": "electric_scooter", "name": "43e1dc7294095b0b23f7089d491d2ac7", "is_disabled": 0, "rental_uris": {"ios": "https://dc.lft.to/lastmile_qr_scan", "android": "https://dc.lft.to/lastmile_qr_scan"}, "is_reserved": 0}, {"lon": -77.046639, "bike_id": "de967bb654f37250e83f5a3cd22ab364", "lat": 38.899547, "fusion_lon": 0.0, "fusion_lat": 0.0, "type": "electric_scooter", "name": "de967bb654f37250e83f5a3cd22ab364", "is_disabled": 0, "rental_uris": {"ios": "https://dc.lft.to/lastmile_qr_scan", "android": "https://dc.lft.to/lastmile_qr_scan"}, "is_reserved": 0}, {"lon": -77.00987633333334, "bike_id": "dac3443fbeaedb08f1fcc405fb681f34", "lat": 38.8729275, "fusion_lon": 0.0, "fusion_lat": 0.0, "type": "electric_scooter", "name": "dac3443fbeaedb08f1fcc405fb681f34", "is_disabled": 0, "rental_uris": {"ios": "https://dc.lft.to/lastmile_qr_scan", "android": "https://dc.lft.to/lastmile_qr_scan"}, "is_reserved": 0}, {"lon": -76.93759066666667, "bike_id": "51d3717d5b428c7dff742370f9ecef38", "lat": 38.890350166666664, "fusion_lon": 0.0, "fusion_lat": 0.0, "type": "electric_scooter", "name": "51d3717d5b428c7dff742370f9ecef38", "is_disabled": 0, "rental_uris": {"ios": "https://dc.lft.to/lastmile_qr_scan", "android": "https://dc.lft.to/lastmile_qr_scan"}, "is_reserved": 0}, {"lon": -77.03993083333333, "bike_id": "c9c0016d8d0a33d28d7c4ed3aa1e8856", "lat": 38.93333583333333, "fusion_lon": 0.0, "fusion_lat": 0.0, "type": "electric_scooter", "name": "c9c0016d8d0a33d28d7c4ed3aa1e8856", "is_disabled": 0, "rental_uris": {"ios": "https://dc.lft.to/lastmile_qr_scan", "android": "https://dc.lft.to/lastmile_qr_scan"}, "is_reserved": 0}, {"lon": -77.01615116666666, "bike_id": "fd98e75906630e4c44e039e02952daa2", "lat": 38.89964466666667, "fusion_lon": 0.0, "fusion_lat": 0.0, "type": "electric_scooter", "name": "fd98e75906630e4c44e039e02952daa2", "is_disabled": 0, "rental_uris": {"ios": "https://dc.lft.to/lastmile_qr_scan", "android": "https://dc.lft.to/lastmile_qr_scan"}, "is_reserved": 0}, {"lon": -77.0118945, "bike_id": "a35f72d45c39de29a80a6f755acb7e69", "lat": 38.9002105, "fusion_lon": 0.0, "fusion_lat": 0.0, "type": "electric_scooter", "name": "a35f72d45c39de29a80a6f755acb7e69", "is_disabled": 0, "rental_uris": {"ios": "https://dc.lft.to/lastmile_qr_scan", "android": "https://dc.lft.to/lastmile_qr_scan"}, "is_reserved": 0}, {"lon": -77.023992, "bike_id": "5e7e8b346943d08fcd2aead4a4ded143", "lat": 38.881297333333336, "fusion_lon": 0.0, "fusion_lat": 0.0, "type": "electric_scooter", "name": "5e7e8b346943d08fcd2aead4a4ded143", "is_disabled": 0, "rental_uris": {"ios": "https://dc.lft.to/lastmile_qr_scan", "android": "https://dc.lft.to/lastmile_qr_scan"}, "is_reserved": 0}, {"lon": -76.97325066666667, "bike_id": "780dfd4bc705130e7d9c173f24bd8d03", "lat": 38.90480083333333, "fusion_lon": 0.0, "fusion_lat": 0.0, "type": "electric_bike", "name": "780dfd4bc705130e7d9c173f24bd8d03", "is_disabled": 0, "rental_uris": {"ios": "https://dc.lft.to/lastmile_qr_scan", "android": "https://dc.lft.to/lastmile_qr_scan"}, "is_reserved": 0}, {"lon": -77.048521, "bike_id": "c9f4c3b828a326866d3fc12ee3366f1b", "lat": 38.915204833333334, "fusion_lon": 0.0, "fusion_lat": 0.0, "type": "electric_scooter", "name": "c9f4c3b828a326866d3fc12ee3366f1b", "is_disabled": 0, "rental_uris": {"ios": "https://dc.lft.to/lastmile_qr_scan", "android": "https://dc.lft.to/lastmile_qr_scan"}, "is_reserved": 0}, {"lon": -77.041783, "bike_id": "9ad896f18456206d98dc5c49cfa65310", "lat": 38.91981333333333, "fusion_lon": 0.0, "fusion_lat": 0.0, "type": "electric_scooter", "name": "9ad896f18456206d98dc5c49cfa65310", "is_disabled": 0, "rental_uris": {"ios": "https://dc.lft.to/lastmile_qr_scan", "android": "https://dc.lft.to/lastmile_qr_scan"}, "is_reserved": 0}, {"lon": -77.04336916666666, "bike_id": "40d872a314ae3a949f943305ba835ea8", "lat": 38.900475666666665, "fusion_lon": 0.0, "fusion_lat": 0.0, "type": "electric_scooter", "name": "40d872a314ae3a949f943305ba835ea8", "is_disabled": 0, "rental_uris": {"ios": "https://dc.lft.to/lastmile_qr_scan", "android": "https://dc.lft.to/lastmile_qr_scan"}, "is_reserved": 0}, {"lon": -77.02574066666666, "bike_id": "832536a39f4deb1094ab80255482913d", "lat": 38.88298733333333, "fusion_lon": 0.0, "fusion_lat": 0.0, "type": "electric_scooter", "name": "832536a39f4deb1094ab80255482913d", "is_disabled": 0, "rental_uris": {"ios": "https://dc.lft.to/lastmile_qr_scan", "android": "https://dc.lft.to/lastmile_qr_scan"}, "is_reserved": 0}, {"lon": -76.99793266666667, "bike_id": "cf96dd5e75849d78ca9bbbcee695d616", "lat": 38.95645116666667, "fusion_lon": 0.0, "fusion_lat": 0.0, "type": "electric_bike", "name": "cf96dd5e75849d78ca9bbbcee695d616", "is_disabled": 0, "rental_uris": {"ios": "https://dc.lft.to/lastmile_qr_scan", "android": "https://dc.lft.to/lastmile_qr_scan"}, "is_reserved": 0}, {"lon": -77.041846, "bike_id": "3d60a66876373e5ed813a632ddf62fc8", "lat": 38.89978216666667, "fusion_lon": 0.0, "fusion_lat": 0.0, "type": "electric_scooter", "name": "3d60a66876373e5ed813a632ddf62fc8", "is_disabled": 0, "rental_uris": {"ios": "https://dc.lft.to/lastmile_qr_scan", "android": "https://dc.lft.to/lastmile_qr_scan"}, "is_reserved": 0}, {"lon": -77.0500265, "bike_id": "a32e5d0e7842035cf419af510da213ee", "lat": 38.90522516666667, "fusion_lon": 0.0, "fusion_lat": 0.0, "type": "electric_scooter", "name": "a32e5d0e7842035cf419af510da213ee", "is_disabled": 0, "rental_uris": {"ios": "https://dc.lft.to/lastmile_qr_scan", "android": "https://dc.lft.to/lastmile_qr_scan"}, "is_reserved": 0}, {"lon": -77.03212983333333, "bike_id": "41d5bb54993525d3d5baacdb77d32888", "lat": 38.915701166666665, "fusion_lon": 0.0, "fusion_lat": 0.0, "type": "electric_scooter", "name": "41d5bb54993525d3d5baacdb77d32888", "is_disabled": 0, "rental_uris": {"ios": "https://dc.lft.to/lastmile_qr_scan", "android": "https://dc.lft.to/lastmile_qr_scan"}, "is_reserved": 0}, {"lon": -77.022124, "bike_id": "75c618359a1032a095ed2bd3a483ddbd", "lat": 38.887285, "fusion_lon": 0.0, "fusion_lat": 0.0, "type": "electric_scooter", "name": "75c618359a1032a095ed2bd3a483ddbd", "is_disabled": 0, "rental_uris": {"ios": "https://dc.lft.to/lastmile_qr_scan", "android": "https://dc.lft.to/lastmile_qr_scan"}, "is_reserved": 0}, {"lon": -77.045022, "bike_id": "470f87dd93cb78a7488edcd86ffab6d4", "lat": 38.903792, "fusion_lon": 0.0, "fusion_lat": 0.0, "type": "electric_scooter", "name": "470f87dd93cb78a7488edcd86ffab6d4", "is_disabled": 0, "rental_uris": {"ios": "https://dc.lft.to/lastmile_qr_scan", "android": "https://dc.lft.to/lastmile_qr_scan"}, "is_reserved": 0}, {"lon": -77.03292533333334, "bike_id": "3ca2242f9e23d513787070f22db7b7a7", "lat": 38.9565405, "fusion_lon": 0.0, "fusion_lat": 0.0, "type": "electric_scooter", "name": "3ca2242f9e23d513787070f22db7b7a7", "is_disabled": 0, "rental_uris": {"ios": "https://dc.lft.to/lastmile_qr_scan", "android": "https://dc.lft.to/lastmile_qr_scan"}, "is_reserved": 0}, {"lon": -77.032187, "bike_id": "5bb5b7ed543e8e8ce231afe462c7d6d3", "lat": 38.916354166666665, "fusion_lon": 0.0, "fusion_lat": 0.0, "type": "electric_scooter", "name": "5bb5b7ed543e8e8ce231afe462c7d6d3", "is_disabled": 0, "rental_uris": {"ios": "https://dc.lft.to/lastmile_qr_scan", "android": "https://dc.lft.to/lastmile_qr_scan"}, "is_reserved": 0}, {"lon": -77.02780816666667, "bike_id": "3f27cc0eb594ceb5fae169a26cbb2752", "lat": 38.8922045, "fusion_lon": 0.0, "fusion_lat": 0.0, "type": "electric_scooter", "name": "3f27cc0eb594ceb5fae169a26cbb2752", "is_disabled": 0, "rental_uris": {"ios": "https://dc.lft.to/lastmile_qr_scan", "android": "https://dc.lft.to/lastmile_qr_scan"}, "is_reserved": 0}, {"lon": -77.01700333333334, "bike_id": "a42b775a3abc9be9d72ebc6a61589daf", "lat": 38.920562, "fusion_lon": 0.0, "fusion_lat": 0.0, "type": "electric_scooter", "name": "a42b775a3abc9be9d72ebc6a61589daf", "is_disabled": 0, "rental_uris": {"ios": "https://dc.lft.to/lastmile_qr_scan", "android": "https://dc.lft.to/lastmile_qr_scan"}, "is_reserved": 0}, {"lon": -77.05161633333333, "bike_id": "62c794658fde38cb8a0172dfa91579f0", "lat": 39.043063333333336, "fusion_lon": 0.0, "fusion_lat": 0.0, "type": "electric_bike", "name": "62c794658fde38cb8a0172dfa91579f0", "is_disabled": 0, "rental_uris": {"ios": "https://dc.lft.to/lastmile_qr_scan", "android": "https://dc.lft.to/lastmile_qr_scan"}, "is_reserved": 0}, {"lon": -77.042752, "bike_id": "692541d19a56ad3f22377302a00c0e38", "lat": 38.907235166666666, "fusion_lon": 0.0, "fusion_lat": 0.0, "type": "electric_scooter", "name": "692541d19a56ad3f22377302a00c0e38", "is_disabled": 0, "rental_uris": {"ios": "https://dc.lft.to/lastmile_qr_scan", "android": "https://dc.lft.to/lastmile_qr_scan"}, "is_reserved": 0}, {"lon": -77.02586316666667, "bike_id": "83746d1d78163d82ddf2738177f63dc3", "lat": 38.92033683333333, "fusion_lon": 0.0, "fusion_lat": 0.0, "type": "electric_scooter", "name": "83746d1d78163d82ddf2738177f63dc3", "is_disabled": 0, "rental_uris": {"ios": "https://dc.lft.to/lastmile_qr_scan", "android": "https://dc.lft.to/lastmile_qr_scan"}, "is_reserved": 0}, {"lon": -77.01513316666667, "bike_id": "c5b7f0947f24681ae208ecc6961c15c5", "lat": 38.9100825, "fusion_lon": 0.0, "fusion_lat": 0.0, "type": "electric_scooter", "name": "c5b7f0947f24681ae208ecc6961c15c5", "is_disabled": 0, "rental_uris": {"ios": "https://dc.lft.to/lastmile_qr_scan", "android": "https://dc.lft.to/lastmile_qr_scan"}, "is_reserved": 0}, {"lon": -76.93753, "bike_id": "517ceccdb2fc0859c53a9d24a54476a2", "lat": 38.89037016666666, "fusion_lon": 0.0, "fusion_lat": 0.0, "type": "electric_scooter", "name": "517ceccdb2fc0859c53a9d24a54476a2", "is_disabled": 0, "rental_uris": {"ios": "https://dc.lft.to/lastmile_qr_scan", "android": "https://dc.lft.to/lastmile_qr_scan"}, "is_reserved": 0}, {"lon": -77.04336316666667, "bike_id": "89beac3c3607761bd5594a47bc1b44a4", "lat": 38.92220716666667, "fusion_lon": 0.0, "fusion_lat": 0.0, "type": "electric_scooter", "name": "89beac3c3607761bd5594a47bc1b44a4", "is_disabled": 0, "rental_uris": {"ios": "https://dc.lft.to/lastmile_qr_scan", "android": "https://dc.lft.to/lastmile_qr_scan"}, "is_reserved": 0}, {"lon": -77.02403966666667, "bike_id": "97ff83eb057606ce6c8370408bfc1f83", "lat": 38.891898166666664, "fusion_lon": 0.0, "fusion_lat": 0.0, "type": "electric_scooter", "name": "97ff83eb057606ce6c8370408bfc1f83", "is_disabled": 0, "rental_uris": {"ios": "https://dc.lft.to/lastmile_qr_scan", "android": "https://dc.lft.to/lastmile_qr_scan"}, "is_reserved": 0}, {"lon": -77.04942266666667, "bike_id": "4d2d48d8104c0b98a4ca4aae89846f2e", "lat": 38.90944433333333, "fusion_lon": 0.0, "fusion_lat": 0.0, "type": "electric_scooter", "name": "4d2d48d8104c0b98a4ca4aae89846f2e", "is_disabled": 0, "rental_uris": {"ios": "https://dc.lft.to/lastmile_qr_scan", "android": "https://dc.lft.to/lastmile_qr_scan"}, "is_reserved": 0}, {"lon": -77.06385466666667, "bike_id": "334f7320761b76a2587faba6431d18c5", "lat": 38.90522383333333, "fusion_lon": 0.0, "fusion_lat": 0.0, "type": "electric_scooter", "name": "334f7320761b76a2587faba6431d18c5", "is_disabled": 0, "rental_uris": {"ios": "https://dc.lft.to/lastmile_qr_scan", "android": "https://dc.lft.to/lastmile_qr_scan"}, "is_reserved": 0}, {"lon": -77.104897, "bike_id": "6025617cb9873970e367ee8c8e78e44e", "lat": 38.85608516666667, "fusion_lon": 0.0, "fusion_lat": 0.0, "type": "electric_bike", "name": "6025617cb9873970e367ee8c8e78e44e", "is_disabled": 0, "rental_uris": {"ios": "https://dc.lft.to/lastmile_qr_scan", "android": "https://dc.lft.to/lastmile_qr_scan"}, "is_reserved": 0}, {"lon": -77.04905933333333, "bike_id": "3b87e85af4a84c2545f7f9f82d1061b8", "lat": 38.9054615, "fusion_lon": 0.0, "fusion_lat": 0.0, "type": "electric_scooter", "name": "3b87e85af4a84c2545f7f9f82d1061b8", "is_disabled": 0, "rental_uris": {"ios": "https://dc.lft.to/lastmile_qr_scan", "android": "https://dc.lft.to/lastmile_qr_scan"}, "is_reserved": 0}, {"lon": -77.11146933333333, "bike_id": "dbf3e44cd879f9461964ffcf1a69d9a5", "lat": 38.85507616666666, "fusion_lon": 0.0, "fusion_lat": 0.0, "type": "electric_bike", "name": "dbf3e44cd879f9461964ffcf1a69d9a5", "is_disabled": 0, "rental_uris": {"ios": "https://dc.lft.to/lastmile_qr_scan", "android": "https://dc.lft.to/lastmile_qr_scan"}, "is_reserved": 0}, {"lon": -77.04184366666667, "bike_id": "9f6cb8ec1754931d22088f5598017c08", "lat": 38.89226333333333, "fusion_lon": 0.0, "fusion_lat": 0.0, "type": "electric_scooter", "name": "9f6cb8ec1754931d22088f5598017c08", "is_disabled": 0, "rental_uris": {"ios": "https://dc.lft.to/lastmile_qr_scan", "android": "https://dc.lft.to/lastmile_qr_scan"}, "is_reserved": 0}, {"lon": -76.98227533333333, "bike_id": "ea767311a0186518e0493eb53d4b3e19", "lat": 38.86655233333333, "fusion_lon": 0.0, "fusion_lat": 0.0, "type": "electric_scooter", "name": "ea767311a0186518e0493eb53d4b3e19", "is_disabled": 0, "rental_uris": {"ios": "https://dc.lft.to/lastmile_qr_scan", "android": "https://dc.lft.to/lastmile_qr_scan"}, "is_reserved": 0}, {"lon": -77.00054583333333, "bike_id": "04a533776795602f0b656a993331a080", "lat": 38.894991, "fusion_lon": 0.0, "fusion_lat": 0.0, "type": "electric_scooter", "name": "04a533776795602f0b656a993331a080", "is_disabled": 0, "rental_uris": {"ios": "https://dc.lft.to/lastmile_qr_scan", "android": "https://dc.lft.to/lastmile_qr_scan"}, "is_reserved": 0}, {"lon": -77.0434215, "bike_id": "7b362158d52e42327fa0e9764e318d53", "lat": 38.901359666666664, "fusion_lon": 0.0, "fusion_lat": 0.0, "type": "electric_scooter", "name": "7b362158d52e42327fa0e9764e318d53", "is_disabled": 0, "rental_uris": {"ios": "https://dc.lft.to/lastmile_qr_scan", "android": "https://dc.lft.to/lastmile_qr_scan"}, "is_reserved": 0}, {"lon": -76.99363116666666, "bike_id": "8293225f74b7699dc7404cc482575b6e", "lat": 38.900322333333335, "fusion_lon": 0.0, "fusion_lat": 0.0, "type": "electric_scooter", "name": "8293225f74b7699dc7404cc482575b6e", "is_disabled": 0, "rental_uris": {"ios": "https://dc.lft.to/lastmile_qr_scan", "android": "https://dc.lft.to/lastmile_qr_scan"}, "is_reserved": 0}, {"lon": -77.04157433333333, "bike_id": "6d0936418eaa0b661a47725843c58277", "lat": 38.914231666666666, "fusion_lon": 0.0, "fusion_lat": 0.0, "type": "electric_scooter", "name": "6d0936418eaa0b661a47725843c58277", "is_disabled": 0, "rental_uris": {"ios": "https://dc.lft.to/lastmile_qr_scan", "android": "https://dc.lft.to/lastmile_qr_scan"}, "is_reserved": 0}, {"lon": -76.93303166666666, "bike_id": "f174d28ddecb57dc9a4d8df60b6a658f", "lat": 38.8919445, "fusion_lon": 0.0, "fusion_lat": 0.0, "type": "electric_scooter", "name": "f174d28ddecb57dc9a4d8df60b6a658f", "is_disabled": 0, "rental_uris": {"ios": "https://dc.lft.to/lastmile_qr_scan", "android": "https://dc.lft.to/lastmile_qr_scan"}, "is_reserved": 0}, {"lon": -77.05695716666666, "bike_id": "0f02b10efa59d5cc2a8c3e459167e215", "lat": 38.93717483333333, "fusion_lon": 0.0, "fusion_lat": 0.0, "type": "electric_scooter", "name": "0f02b10efa59d5cc2a8c3e459167e215", "is_disabled": 0, "rental_uris": {"ios": "https://dc.lft.to/lastmile_qr_scan", "android": "https://dc.lft.to/lastmile_qr_scan"}, "is_reserved": 0}, {"lon": -77.027802, "bike_id": "2ea307e430a92ce0f2d0fd31240bb025", "lat": 38.89221, "fusion_lon": 0.0, "fusion_lat": 0.0, "type": "electric_scooter", "name": "2ea307e430a92ce0f2d0fd31240bb025", "is_disabled": 0, "rental_uris": {"ios": "https://dc.lft.to/lastmile_qr_scan", "android": "https://dc.lft.to/lastmile_qr_scan"}, "is_reserved": 0}, {"lon": -76.9823045, "bike_id": "0d744fbe9e8859387a818fca23971b36", "lat": 38.886479333333334, "fusion_lon": 0.0, "fusion_lat": 0.0, "type": "electric_scooter", "name": "0d744fbe9e8859387a818fca23971b36", "is_disabled": 0, "rental_uris": {"ios": "https://dc.lft.to/lastmile_qr_scan", "android": "https://dc.lft.to/lastmile_qr_scan"}, "is_reserved": 0}, {"lon": -77.03442566666666, "bike_id": "40adb4d36d390a56feb3d65f2cc74897", "lat": 38.909495666666665, "fusion_lon": 0.0, "fusion_lat": 0.0, "type": "electric_scooter", "name": "40adb4d36d390a56feb3d65f2cc74897", "is_disabled": 0, "rental_uris": {"ios": "https://dc.lft.to/lastmile_qr_scan", "android": "https://dc.lft.to/lastmile_qr_scan"}, "is_reserved": 0}, {"lon": -76.995851, "bike_id": "2f85daf6f76b25242a8764c1cabe8cf4", "lat": 38.85175516666666, "fusion_lon": 0.0, "fusion_lat": 0.0, "type": "electric_scooter", "name": "2f85daf6f76b25242a8764c1cabe8cf4", "is_disabled": 0, "rental_uris": {"ios": "https://dc.lft.to/lastmile_qr_scan", "android": "https://dc.lft.to/lastmile_qr_scan"}, "is_reserved": 0}, {"lon": -77.03964683333334, "bike_id": "905b97f05e1d33b08795e8ba1236f8b3", "lat": 38.90239916666667, "fusion_lon": 0.0, "fusion_lat": 0.0, "type": "electric_scooter", "name": "905b97f05e1d33b08795e8ba1236f8b3", "is_disabled": 0, "rental_uris": {"ios": "https://dc.lft.to/lastmile_qr_scan", "android": "https://dc.lft.to/lastmile_qr_scan"}, "is_reserved": 0}, {"lon": -76.99868333333333, "bike_id": "e923f3bcdf044fecd3444b9158ab1764", "lat": 38.90031116666667, "fusion_lon": 0.0, "fusion_lat": 0.0, "type": "electric_scooter", "name": "e923f3bcdf044fecd3444b9158ab1764", "is_disabled": 0, "rental_uris": {"ios": "https://dc.lft.to/lastmile_qr_scan", "android": "https://dc.lft.to/lastmile_qr_scan"}, "is_reserved": 0}, {"lon": -77.00657766666667, "bike_id": "7e62976a09654466b2fae77d06c4d06e", "lat": 38.901102, "fusion_lon": 0.0, "fusion_lat": 0.0, "type": "electric_scooter", "name": "7e62976a09654466b2fae77d06c4d06e", "is_disabled": 0, "rental_uris": {"ios": "https://dc.lft.to/lastmile_qr_scan", "android": "https://dc.lft.to/lastmile_qr_scan"}, "is_reserved": 0}, {"lon": -77.01906916666667, "bike_id": "700f40fc684185860416ad51b713c4be", "lat": 38.91510983333333, "fusion_lon": 0.0, "fusion_lat": 0.0, "type": "electric_scooter", "name": "700f40fc684185860416ad51b713c4be", "is_disabled": 0, "rental_uris": {"ios": "https://dc.lft.to/lastmile_qr_scan", "android": "https://dc.lft.to/lastmile_qr_scan"}, "is_reserved": 0}, {"lon": -76.97837416666667, "bike_id": "18325655b4f37117f854a3e7a913d2d7", "lat": 38.8991455, "fusion_lon": 0.0, "fusion_lat": 0.0, "type": "electric_scooter", "name": "18325655b4f37117f854a3e7a913d2d7", "is_disabled": 0, "rental_uris": {"ios": "https://dc.lft.to/lastmile_qr_scan", "android": "https://dc.lft.to/lastmile_qr_scan"}, "is_reserved": 0}, {"lon": -77.03327116666667, "bike_id": "76b45c58287c65ccec66ab033a6477a0", "lat": 38.94712966666667, "fusion_lon": 0.0, "fusion_lat": 0.0, "type": "electric_scooter", "name": "76b45c58287c65ccec66ab033a6477a0", "is_disabled": 0, "rental_uris": {"ios": "https://dc.lft.to/lastmile_qr_scan", "android": "https://dc.lft.to/lastmile_qr_scan"}, "is_reserved": 0}, {"lon": -77.048088, "bike_id": "0af47759b13dddeaf35b13a3adbf86b1", "lat": 38.90503916666667, "fusion_lon": 0.0, "fusion_lat": 0.0, "type": "electric_scooter", "name": "0af47759b13dddeaf35b13a3adbf86b1", "is_disabled": 0, "rental_uris": {"ios": "https://dc.lft.to/lastmile_qr_scan", "android": "https://dc.lft.to/lastmile_qr_scan"}, "is_reserved": 0}, {"lon": -77.04489016666666, "bike_id": "12e79be5d9d4d6d3eba273c5091c6a35", "lat": 38.89225783333333, "fusion_lon": 0.0, "fusion_lat": 0.0, "type": "electric_scooter", "name": "12e79be5d9d4d6d3eba273c5091c6a35", "is_disabled": 0, "rental_uris": {"ios": "https://dc.lft.to/lastmile_qr_scan", "android": "https://dc.lft.to/lastmile_qr_scan"}, "is_reserved": 0}, {"lon": -77.0334845, "bike_id": "2eba4d09968bcd1142757b347d14c245", "lat": 38.92880683333333, "fusion_lon": 0.0, "fusion_lat": 0.0, "type": "electric_scooter", "name": "2eba4d09968bcd1142757b347d14c245", "is_disabled": 0, "rental_uris": {"ios": "https://dc.lft.to/lastmile_qr_scan", "android": "https://dc.lft.to/lastmile_qr_scan"}, "is_reserved": 0}, {"lon": -77.02628083333333, "bike_id": "283f5635913c9a072767408701b4308b", "lat": 38.962329833333335, "fusion_lon": 0.0, "fusion_lat": 0.0, "type": "electric_bike", "name": "283f5635913c9a072767408701b4308b", "is_disabled": 0, "rental_uris": {"ios": "https://dc.lft.to/lastmile_qr_scan", "android": "https://dc.lft.to/lastmile_qr_scan"}, "is_reserved": 0}, {"lon": -77.04179133333334, "bike_id": "22e86acad5b9034cf68392fbf6d27b97", "lat": 38.9014715, "fusion_lon": 0.0, "fusion_lat": 0.0, "type": "electric_scooter", "name": "22e86acad5b9034cf68392fbf6d27b97", "is_disabled": 0, "rental_uris": {"ios": "https://dc.lft.to/lastmile_qr_scan", "android": "https://dc.lft.to/lastmile_qr_scan"}, "is_reserved": 0}, {"lon": -76.99544483333334, "bike_id": "4f133f0f8687643d2cdb7d238edacd81", "lat": 38.831615666666664, "fusion_lon": 0.0, "fusion_lat": 0.0, "type": "electric_bike", "name": "4f133f0f8687643d2cdb7d238edacd81", "is_disabled": 0, "rental_uris": {"ios": "https://dc.lft.to/lastmile_qr_scan", "android": "https://dc.lft.to/lastmile_qr_scan"}, "is_reserved": 0}, {"lon": -77.10090216666667, "bike_id": "91958ba9cea0f4aa75be0cc24cf0f5fe", "lat": 38.95959366666666, "fusion_lon": 0.0, "fusion_lat": 0.0, "type": "electric_bike", "name": "91958ba9cea0f4aa75be0cc24cf0f5fe", "is_disabled": 0, "rental_uris": {"ios": "https://dc.lft.to/lastmile_qr_scan", "android": "https://dc.lft.to/lastmile_qr_scan"}, "is_reserved": 0}, {"lon": -77.0026535, "bike_id": "8ede832e8bacd189a3f7f2be8cc462fd", "lat": 38.911903333333335, "fusion_lon": 0.0, "fusion_lat": 0.0, "type": "electric_scooter", "name": "8ede832e8bacd189a3f7f2be8cc462fd", "is_disabled": 0, "rental_uris": {"ios": "https://dc.lft.to/lastmile_qr_scan", "android": "https://dc.lft.to/lastmile_qr_scan"}, "is_reserved": 0}, {"lon": -76.94293233333333, "bike_id": "cf7effb6834811c2bbe17cfc57153b9b", "lat": 38.9386965, "fusion_lon": 0.0, "fusion_lat": 0.0, "type": "electric_bike", "name": "cf7effb6834811c2bbe17cfc57153b9b", "is_disabled": 0, "rental_uris": {"ios": "https://dc.lft.to/lastmile_qr_scan", "android": "https://dc.lft.to/lastmile_qr_scan"}, "is_reserved": 0}, {"lon": -76.95527216666666, "bike_id": "86bc914b27ed8c51f7f12cf0048fa47f", "lat": 38.884662, "fusion_lon": 0.0, "fusion_lat": 0.0, "type": "electric_scooter", "name": "86bc914b27ed8c51f7f12cf0048fa47f", "is_disabled": 0, "rental_uris": {"ios": "https://dc.lft.to/lastmile_qr_scan", "android": "https://dc.lft.to/lastmile_qr_scan"}, "is_reserved": 0}, {"lon": -77.02294216666667, "bike_id": "e6bcf3bd7f09d4a5984908847336bce7", "lat": 38.91072783333333, "fusion_lon": 0.0, "fusion_lat": 0.0, "type": "electric_scooter", "name": "e6bcf3bd7f09d4a5984908847336bce7", "is_disabled": 0, "rental_uris": {"ios": "https://dc.lft.to/lastmile_qr_scan", "android": "https://dc.lft.to/lastmile_qr_scan"}, "is_reserved": 0}, {"lon": -77.02384183333334, "bike_id": "d4dcaaf47856901c8488a596227adaf6", "lat": 38.909553833333334, "fusion_lon": 0.0, "fusion_lat": 0.0, "type": "electric_scooter", "name": "d4dcaaf47856901c8488a596227adaf6", "is_disabled": 0, "rental_uris": {"ios": "https://dc.lft.to/lastmile_qr_scan", "android": "https://dc.lft.to/lastmile_qr_scan"}, "is_reserved": 0}, {"lon": -77.02871983333333, "bike_id": "28faf97eaab493e76d02b07e5e1c340b", "lat": 38.932767166666665, "fusion_lon": 0.0, "fusion_lat": 0.0, "type": "electric_scooter", "name": "28faf97eaab493e76d02b07e5e1c340b", "is_disabled": 0, "rental_uris": {"ios": "https://dc.lft.to/lastmile_qr_scan", "android": "https://dc.lft.to/lastmile_qr_scan"}, "is_reserved": 0}, {"lon": -77.0625375, "bike_id": "f9fbafe388e9b093bf2528588a8366bc", "lat": 38.944152, "fusion_lon": 0.0, "fusion_lat": 0.0, "type": "electric_scooter", "name": "f9fbafe388e9b093bf2528588a8366bc", "is_disabled": 0, "rental_uris": {"ios": "https://dc.lft.to/lastmile_qr_scan", "android": "https://dc.lft.to/lastmile_qr_scan"}, "is_reserved": 0}, {"lon": -77.0353405, "bike_id": "905f50dce354569ba49356124683f400", "lat": 38.92634783333333, "fusion_lon": 0.0, "fusion_lat": 0.0, "type": "electric_scooter", "name": "905f50dce354569ba49356124683f400", "is_disabled": 0, "rental_uris": {"ios": "https://dc.lft.to/lastmile_qr_scan", "android": "https://dc.lft.to/lastmile_qr_scan"}, "is_reserved": 0}, {"lon": -76.98264466666667, "bike_id": "16982012db50996728c11982bd141bc2", "lat": 38.90856333333333, "fusion_lon": 0.0, "fusion_lat": 0.0, "type": "electric_scooter", "name": "16982012db50996728c11982bd141bc2", "is_disabled": 0, "rental_uris": {"ios": "https://dc.lft.to/lastmile_qr_scan", "android": "https://dc.lft.to/lastmile_qr_scan"}, "is_reserved": 0}, {"lon": -76.98897133333334, "bike_id": "93fe8b833e7911f90eadfe2cc1b8b3b0", "lat": 38.9134295, "fusion_lon": 0.0, "fusion_lat": 0.0, "type": "electric_scooter", "name": "93fe8b833e7911f90eadfe2cc1b8b3b0", "is_disabled": 0, "rental_uris": {"ios": "https://dc.lft.to/lastmile_qr_scan", "android": "https://dc.lft.to/lastmile_qr_scan"}, "is_reserved": 0}, {"lon": -76.99029966666667, "bike_id": "a1285e5ce5d02c65b5e1d9d4f5ea721f", "lat": 38.89176066666667, "fusion_lon": 0.0, "fusion_lat": 0.0, "type": "electric_scooter", "name": "a1285e5ce5d02c65b5e1d9d4f5ea721f", "is_disabled": 0, "rental_uris": {"ios": "https://dc.lft.to/lastmile_qr_scan", "android": "https://dc.lft.to/lastmile_qr_scan"}, "is_reserved": 0}, {"lon": -77.041907, "bike_id": "20b844f9af3c44b4f9d6da144310062e", "lat": 38.89981616666667, "fusion_lon": 0.0, "fusion_lat": 0.0, "type": "electric_scooter", "name": "20b844f9af3c44b4f9d6da144310062e", "is_disabled": 0, "rental_uris": {"ios": "https://dc.lft.to/lastmile_qr_scan", "android": "https://dc.lft.to/lastmile_qr_scan"}, "is_reserved": 0}, {"lon": -77.02186166666667, "bike_id": "ab871729823be370e6db7ed077e8950f", "lat": 38.8872975, "fusion_lon": 0.0, "fusion_lat": 0.0, "type": "electric_scooter", "name": "ab871729823be370e6db7ed077e8950f", "is_disabled": 0, "rental_uris": {"ios": "https://dc.lft.to/lastmile_qr_scan", "android": "https://dc.lft.to/lastmile_qr_scan"}, "is_reserved": 0}, {"lon": -76.98933766666667, "bike_id": "9cd419ba1febe72e30d1204454671a17", "lat": 38.865711, "fusion_lon": 0.0, "fusion_lat": 0.0, "type": "electric_scooter", "name": "9cd419ba1febe72e30d1204454671a17", "is_disabled": 0, "rental_uris": {"ios": "https://dc.lft.to/lastmile_qr_scan", "android": "https://dc.lft.to/lastmile_qr_scan"}, "is_reserved": 0}, {"lon": -77.01740916666667, "bike_id": "488511bcaf3746f8bbbc4bd1bfe68230", "lat": 38.88744066666667, "fusion_lon": 0.0, "fusion_lat": 0.0, "type": "electric_scooter", "name": "488511bcaf3746f8bbbc4bd1bfe68230", "is_disabled": 0, "rental_uris": {"ios": "https://dc.lft.to/lastmile_qr_scan", "android": "https://dc.lft.to/lastmile_qr_scan"}, "is_reserved": 0}, {"lon": -77.0396745, "bike_id": "ae4515084c6cc4c02f860941f8596fed", "lat": 38.8922245, "fusion_lon": 0.0, "fusion_lat": 0.0, "type": "electric_scooter", "name": "ae4515084c6cc4c02f860941f8596fed", "is_disabled": 0, "rental_uris": {"ios": "https://dc.lft.to/lastmile_qr_scan", "android": "https://dc.lft.to/lastmile_qr_scan"}, "is_reserved": 0}, {"lon": -77.0374555, "bike_id": "71419ddbaf2a530c0b40dbe65b22c6f0", "lat": 38.91806966666667, "fusion_lon": 0.0, "fusion_lat": 0.0, "type": "electric_scooter", "name": "71419ddbaf2a530c0b40dbe65b22c6f0", "is_disabled": 0, "rental_uris": {"ios": "https://dc.lft.to/lastmile_qr_scan", "android": "https://dc.lft.to/lastmile_qr_scan"}, "is_reserved": 0}, {"lon": -77.043359, "bike_id": "383cea0aa1ad648d00ad770c9259f816", "lat": 38.892246666666665, "fusion_lon": 0.0, "fusion_lat": 0.0, "type": "electric_scooter", "name": "383cea0aa1ad648d00ad770c9259f816", "is_disabled": 0, "rental_uris": {"ios": "https://dc.lft.to/lastmile_qr_scan", "android": "https://dc.lft.to/lastmile_qr_scan"}, "is_reserved": 0}, {"lon": -77.033125, "bike_id": "453d460324301ab075c4bce7b0cb4808", "lat": 38.898218166666666, "fusion_lon": 0.0, "fusion_lat": 0.0, "type": "electric_scooter", "name": "453d460324301ab075c4bce7b0cb4808", "is_disabled": 0, "rental_uris": {"ios": "https://dc.lft.to/lastmile_qr_scan", "android": "https://dc.lft.to/lastmile_qr_scan"}, "is_reserved": 0}, {"lon": -77.05004266666667, "bike_id": "6febf0ce7485e6b7ddeb4fad4c95a67d", "lat": 38.892303166666665, "fusion_lon": 0.0, "fusion_lat": 0.0, "type": "electric_scooter", "name": "6febf0ce7485e6b7ddeb4fad4c95a67d", "is_disabled": 0, "rental_uris": {"ios": "https://dc.lft.to/lastmile_qr_scan", "android": "https://dc.lft.to/lastmile_qr_scan"}, "is_reserved": 0}, {"lon": -77.03071283333334, "bike_id": "43de365b123fc1ebc1acdab5f72fbb65", "lat": 38.9330755, "fusion_lon": 0.0, "fusion_lat": 0.0, "type": "electric_scooter", "name": "43de365b123fc1ebc1acdab5f72fbb65", "is_disabled": 0, "rental_uris": {"ios": "https://dc.lft.to/lastmile_qr_scan", "android": "https://dc.lft.to/lastmile_qr_scan"}, "is_reserved": 0}, {"lon": -77.01959616666667, "bike_id": "84ef149a011de2da127807c659db6875", "lat": 38.88368216666667, "fusion_lon": 0.0, "fusion_lat": 0.0, "type": "electric_scooter", "name": "84ef149a011de2da127807c659db6875", "is_disabled": 0, "rental_uris": {"ios": "https://dc.lft.to/lastmile_qr_scan", "android": "https://dc.lft.to/lastmile_qr_scan"}, "is_reserved": 0}, {"lon": -76.99371566666667, "bike_id": "bc065cd1563623f63bbb8fb73d0a55c8", "lat": 38.87977433333333, "fusion_lon": 0.0, "fusion_lat": 0.0, "type": "electric_scooter", "name": "bc065cd1563623f63bbb8fb73d0a55c8", "is_disabled": 0, "rental_uris": {"ios": "https://dc.lft.to/lastmile_qr_scan", "android": "https://dc.lft.to/lastmile_qr_scan"}, "is_reserved": 0}, {"lon": -77.03115016666666, "bike_id": "34d4980955dfe771f28f12d1105e9bd1", "lat": 38.9238695, "fusion_lon": 0.0, "fusion_lat": 0.0, "type": "electric_scooter", "name": "34d4980955dfe771f28f12d1105e9bd1", "is_disabled": 0, "rental_uris": {"ios": "https://dc.lft.to/lastmile_qr_scan", "android": "https://dc.lft.to/lastmile_qr_scan"}, "is_reserved": 0}, {"lon": -77.03819016666667, "bike_id": "90bb275ee22f4b34a9e5a3b21d012f75", "lat": 38.906741833333335, "fusion_lon": 0.0, "fusion_lat": 0.0, "type": "electric_scooter", "name": "90bb275ee22f4b34a9e5a3b21d012f75", "is_disabled": 0, "rental_uris": {"ios": "https://dc.lft.to/lastmile_qr_scan", "android": "https://dc.lft.to/lastmile_qr_scan"}, "is_reserved": 0}, {"lon": -76.9900445, "bike_id": "0087ecd1690f3dfdaf4c18d2fda1a5df", "lat": 38.865089833333336, "fusion_lon": 0.0, "fusion_lat": 0.0, "type": "electric_scooter", "name": "0087ecd1690f3dfdaf4c18d2fda1a5df", "is_disabled": 0, "rental_uris": {"ios": "https://dc.lft.to/lastmile_qr_scan", "android": "https://dc.lft.to/lastmile_qr_scan"}, "is_reserved": 0}, {"lon": -76.98853183333334, "bike_id": "d05880763668083b590f61f0b652e72f", "lat": 38.867326, "fusion_lon": 0.0, "fusion_lat": 0.0, "type": "electric_scooter", "name": "d05880763668083b590f61f0b652e72f", "is_disabled": 0, "rental_uris": {"ios": "https://dc.lft.to/lastmile_qr_scan", "android": "https://dc.lft.to/lastmile_qr_scan"}, "is_reserved": 0}, {"lon": -77.0318925, "bike_id": "d4e6cde62c6b2f1baf9392466341ab82", "lat": 38.917391, "fusion_lon": 0.0, "fusion_lat": 0.0, "type": "electric_scooter", "name": "d4e6cde62c6b2f1baf9392466341ab82", "is_disabled": 0, "rental_uris": {"ios": "https://dc.lft.to/lastmile_qr_scan", "android": "https://dc.lft.to/lastmile_qr_scan"}, "is_reserved": 0}, {"lon": -77.02739516666666, "bike_id": "189f45d22333d6b6dfc3ccf57cca2362", "lat": 38.897327, "fusion_lon": 0.0, "fusion_lat": 0.0, "type": "electric_scooter", "name": "189f45d22333d6b6dfc3ccf57cca2362", "is_disabled": 0, "rental_uris": {"ios": "https://dc.lft.to/lastmile_qr_scan", "android": "https://dc.lft.to/lastmile_qr_scan"}, "is_reserved": 0}, {"lon": -77.02211033333333, "bike_id": "714fcff5701de0fc7cf9d9c0fd1af2f7", "lat": 38.878949666666664, "fusion_lon": 0.0, "fusion_lat": 0.0, "type": "electric_scooter", "name": "714fcff5701de0fc7cf9d9c0fd1af2f7", "is_disabled": 0, "rental_uris": {"ios": "https://dc.lft.to/lastmile_qr_scan", "android": "https://dc.lft.to/lastmile_qr_scan"}, "is_reserved": 0}, {"lon": -77.00196116666666, "bike_id": "b5051c72bd2925669fd1e4f418693aa3", "lat": 38.9004995, "fusion_lon": 0.0, "fusion_lat": 0.0, "type": "electric_scooter", "name": "b5051c72bd2925669fd1e4f418693aa3", "is_disabled": 0, "rental_uris": {"ios": "https://dc.lft.to/lastmile_qr_scan", "android": "https://dc.lft.to/lastmile_qr_scan"}, "is_reserved": 0}, {"lon": -77.00205966666667, "bike_id": "13d78d2d784303ed49c174bb9ad4e035", "lat": 38.98847133333334, "fusion_lon": 0.0, "fusion_lat": 0.0, "type": "electric_bike", "name": "13d78d2d784303ed49c174bb9ad4e035", "is_disabled": 0, "rental_uris": {"ios": "https://dc.lft.to/lastmile_qr_scan", "android": "https://dc.lft.to/lastmile_qr_scan"}, "is_reserved": 0}, {"lon": -77.0371665, "bike_id": "7263231abedfaa984ecc7e35ec06c6d5", "lat": 38.9318835, "fusion_lon": 0.0, "fusion_lat": 0.0, "type": "electric_scooter", "name": "7263231abedfaa984ecc7e35ec06c6d5", "is_disabled": 0, "rental_uris": {"ios": "https://dc.lft.to/lastmile_qr_scan", "android": "https://dc.lft.to/lastmile_qr_scan"}, "is_reserved": 0}, {"lon": -77.030622, "bike_id": "2ff0c36a69a307f4ff589947269b6be2", "lat": 38.887718166666666, "fusion_lon": 0.0, "fusion_lat": 0.0, "type": "electric_scooter", "name": "2ff0c36a69a307f4ff589947269b6be2", "is_disabled": 0, "rental_uris": {"ios": "https://dc.lft.to/lastmile_qr_scan", "android": "https://dc.lft.to/lastmile_qr_scan"}, "is_reserved": 0}, {"lon": -76.98711166666666, "bike_id": "37a38baab7393c9d9f229fe6ad241256", "lat": 38.86701883333333, "fusion_lon": 0.0, "fusion_lat": 0.0, "type": "electric_scooter", "name": "37a38baab7393c9d9f229fe6ad241256", "is_disabled": 0, "rental_uris": {"ios": "https://dc.lft.to/lastmile_qr_scan", "android": "https://dc.lft.to/lastmile_qr_scan"}, "is_reserved": 0}, {"lon": -77.02488083333333, "bike_id": "625992948a8ce6501849fe2da21214d5", "lat": 38.916953666666664, "fusion_lon": 0.0, "fusion_lat": 0.0, "type": "electric_scooter", "name": "625992948a8ce6501849fe2da21214d5", "is_disabled": 0, "rental_uris": {"ios": "https://dc.lft.to/lastmile_qr_scan", "android": "https://dc.lft.to/lastmile_qr_scan"}, "is_reserved": 0}, {"lon": -77.04603816666666, "bike_id": "9be454a24af49d9d07c1bf98d9e169bc", "lat": 38.915101, "fusion_lon": 0.0, "fusion_lat": 0.0, "type": "electric_scooter", "name": "9be454a24af49d9d07c1bf98d9e169bc", "is_disabled": 0, "rental_uris": {"ios": "https://dc.lft.to/lastmile_qr_scan", "android": "https://dc.lft.to/lastmile_qr_scan"}, "is_reserved": 0}, {"lon": -77.01467016666666, "bike_id": "e7baf9eb380422512c3a00ef991f7126", "lat": 38.9267095, "fusion_lon": 0.0, "fusion_lat": 0.0, "type": "electric_scooter", "name": "e7baf9eb380422512c3a00ef991f7126", "is_disabled": 0, "rental_uris": {"ios": "https://dc.lft.to/lastmile_qr_scan", "android": "https://dc.lft.to/lastmile_qr_scan"}, "is_reserved": 0}, {"lon": -77.04322133333334, "bike_id": "0da7ce2308a3ee648c5c455bbf244a89", "lat": 38.90885083333333, "fusion_lon": 0.0, "fusion_lat": 0.0, "type": "electric_scooter", "name": "0da7ce2308a3ee648c5c455bbf244a89", "is_disabled": 0, "rental_uris": {"ios": "https://dc.lft.to/lastmile_qr_scan", "android": "https://dc.lft.to/lastmile_qr_scan"}, "is_reserved": 0}, {"lon": -76.92771516666667, "bike_id": "dc7f916d9f270429747ee190ca1c32a4", "lat": 38.900901, "fusion_lon": 0.0, "fusion_lat": 0.0, "type": "electric_scooter", "name": "dc7f916d9f270429747ee190ca1c32a4", "is_disabled": 0, "rental_uris": {"ios": "https://dc.lft.to/lastmile_qr_scan", "android": "https://dc.lft.to/lastmile_qr_scan"}, "is_reserved": 0}, {"lon": -76.92771166666667, "bike_id": "e568342bb3f7d552e5a4ef1d25d0e823", "lat": 38.969243, "fusion_lon": 0.0, "fusion_lat": 0.0, "type": "electric_bike", "name": "e568342bb3f7d552e5a4ef1d25d0e823", "is_disabled": 0, "rental_uris": {"ios": "https://dc.lft.to/lastmile_qr_scan", "android": "https://dc.lft.to/lastmile_qr_scan"}, "is_reserved": 0}, {"lon": -77.0416095, "bike_id": "40f78d71dbdde080eb466ccc77449499", "lat": 38.8994705, "fusion_lon": 0.0, "fusion_lat": 0.0, "type": "electric_bike", "name": "40f78d71dbdde080eb466ccc77449499", "is_disabled": 0, "rental_uris": {"ios": "https://dc.lft.to/lastmile_qr_scan", "android": "https://dc.lft.to/lastmile_qr_scan"}, "is_reserved": 0}, {"lon": -76.98884866666667, "bike_id": "efc2f1fb30884ee999e76000335c5cae", "lat": 38.8666005, "fusion_lon": 0.0, "fusion_lat": 0.0, "type": "electric_scooter", "name": "efc2f1fb30884ee999e76000335c5cae", "is_disabled": 0, "rental_uris": {"ios": "https://dc.lft.to/lastmile_qr_scan", "android": "https://dc.lft.to/lastmile_qr_scan"}, "is_reserved": 0}, {"lon": -77.005797, "bike_id": "91cdd53defbcc6648e447014b03b5095", "lat": 38.87306266666667, "fusion_lon": 0.0, "fusion_lat": 0.0, "type": "electric_scooter", "name": "91cdd53defbcc6648e447014b03b5095", "is_disabled": 0, "rental_uris": {"ios": "https://dc.lft.to/lastmile_qr_scan", "android": "https://dc.lft.to/lastmile_qr_scan"}, "is_reserved": 0}, {"lon": -77.03210033333333, "bike_id": "6a5c54b79123b14bea4628c8c3bcf193", "lat": 38.89952916666667, "fusion_lon": 0.0, "fusion_lat": 0.0, "type": "electric_scooter", "name": "6a5c54b79123b14bea4628c8c3bcf193", "is_disabled": 0, "rental_uris": {"ios": "https://dc.lft.to/lastmile_qr_scan", "android": "https://dc.lft.to/lastmile_qr_scan"}, "is_reserved": 0}, {"lon": -77.03868016666667, "bike_id": "62556c12f4723af7003ea92c5638b39c", "lat": 38.906384, "fusion_lon": 0.0, "fusion_lat": 0.0, "type": "electric_scooter", "name": "62556c12f4723af7003ea92c5638b39c", "is_disabled": 0, "rental_uris": {"ios": "https://dc.lft.to/lastmile_qr_scan", "android": "https://dc.lft.to/lastmile_qr_scan"}, "is_reserved": 0}, {"lon": -77.09496683333333, "bike_id": "df762995b2d60d2909e33b2d9bf3b05e", "lat": 38.80765866666667, "fusion_lon": 0.0, "fusion_lat": 0.0, "type": "electric_bike", "name": "df762995b2d60d2909e33b2d9bf3b05e", "is_disabled": 0, "rental_uris": {"ios": "https://dc.lft.to/lastmile_qr_scan", "android": "https://dc.lft.to/lastmile_qr_scan"}, "is_reserved": 0}, {"lon": -76.98843383333333, "bike_id": "d7003525511110a45d0f1028d8495e59", "lat": 38.90129783333333, "fusion_lon": 0.0, "fusion_lat": 0.0, "type": "electric_scooter", "name": "d7003525511110a45d0f1028d8495e59", "is_disabled": 0, "rental_uris": {"ios": "https://dc.lft.to/lastmile_qr_scan", "android": "https://dc.lft.to/lastmile_qr_scan"}, "is_reserved": 0}, {"lon": -77.04676783333333, "bike_id": "66795f354f977817295ab023c6767362", "lat": 38.895560833333334, "fusion_lon": 0.0, "fusion_lat": 0.0, "type": "electric_scooter", "name": "66795f354f977817295ab023c6767362", "is_disabled": 0, "rental_uris": {"ios": "https://dc.lft.to/lastmile_qr_scan", "android": "https://dc.lft.to/lastmile_qr_scan"}, "is_reserved": 0}, {"lon": -77.02095733333333, "bike_id": "9f9c94211ad1663616dc135e0153e5f5", "lat": 38.927209500000004, "fusion_lon": 0.0, "fusion_lat": 0.0, "type": "electric_scooter", "name": "9f9c94211ad1663616dc135e0153e5f5", "is_disabled": 0, "rental_uris": {"ios": "https://dc.lft.to/lastmile_qr_scan", "android": "https://dc.lft.to/lastmile_qr_scan"}, "is_reserved": 0}, {"lon": -77.01654483333333, "bike_id": "6edced791950116253b3b43cda47938c", "lat": 38.92896616666667, "fusion_lon": 0.0, "fusion_lat": 0.0, "type": "electric_scooter", "name": "6edced791950116253b3b43cda47938c", "is_disabled": 0, "rental_uris": {"ios": "https://dc.lft.to/lastmile_qr_scan", "android": "https://dc.lft.to/lastmile_qr_scan"}, "is_reserved": 0}, {"lon": -77.044718, "bike_id": "abf59a5ece95f3535089b9a1b733d59c", "lat": 38.8922535, "fusion_lon": 0.0, "fusion_lat": 0.0, "type": "electric_scooter", "name": "abf59a5ece95f3535089b9a1b733d59c", "is_disabled": 0, "rental_uris": {"ios": "https://dc.lft.to/lastmile_qr_scan", "android": "https://dc.lft.to/lastmile_qr_scan"}, "is_reserved": 0}, {"lon": -77.036452, "bike_id": "747262d721b309f25d327dbe00da7be0", "lat": 38.924596333333334, "fusion_lon": 0.0, "fusion_lat": 0.0, "type": "electric_scooter", "name": "747262d721b309f25d327dbe00da7be0", "is_disabled": 0, "rental_uris": {"ios": "https://dc.lft.to/lastmile_qr_scan", "android": "https://dc.lft.to/lastmile_qr_scan"}, "is_reserved": 0}, {"lon": -77.023894, "bike_id": "bea366c1c51014a20e384b1a77ce6250", "lat": 38.90693066666667, "fusion_lon": 0.0, "fusion_lat": 0.0, "type": "electric_scooter", "name": "bea366c1c51014a20e384b1a77ce6250", "is_disabled": 0, "rental_uris": {"ios": "https://dc.lft.to/lastmile_qr_scan", "android": "https://dc.lft.to/lastmile_qr_scan"}, "is_reserved": 0}, {"lon": -77.03841383333334, "bike_id": "0e65436d8abd72dc6cb46ebca390af13", "lat": 38.90420433333333, "fusion_lon": 0.0, "fusion_lat": 0.0, "type": "electric_scooter", "name": "0e65436d8abd72dc6cb46ebca390af13", "is_disabled": 0, "rental_uris": {"ios": "https://dc.lft.to/lastmile_qr_scan", "android": "https://dc.lft.to/lastmile_qr_scan"}, "is_reserved": 0}, {"lon": -77.032039, "bike_id": "fc0ca06cbc0b76389d8a748caed72978", "lat": 38.913032, "fusion_lon": 0.0, "fusion_lat": 0.0, "type": "electric_scooter", "name": "fc0ca06cbc0b76389d8a748caed72978", "is_disabled": 0, "rental_uris": {"ios": "https://dc.lft.to/lastmile_qr_scan", "android": "https://dc.lft.to/lastmile_qr_scan"}, "is_reserved": 0}, {"lon": -77.05181483333334, "bike_id": "06d90a903b7b739ec558b1321e03c015", "lat": 38.923854166666665, "fusion_lon": 0.0, "fusion_lat": 0.0, "type": "electric_scooter", "name": "06d90a903b7b739ec558b1321e03c015", "is_disabled": 0, "rental_uris": {"ios": "https://dc.lft.to/lastmile_qr_scan", "android": "https://dc.lft.to/lastmile_qr_scan"}, "is_reserved": 0}, {"lon": -77.022227, "bike_id": "fb0cf7e1f398133a518fc077f2912906", "lat": 38.89219633333333, "fusion_lon": 0.0, "fusion_lat": 0.0, "type": "electric_scooter", "name": "fb0cf7e1f398133a518fc077f2912906", "is_disabled": 0, "rental_uris": {"ios": "https://dc.lft.to/lastmile_qr_scan", "android": "https://dc.lft.to/lastmile_qr_scan"}, "is_reserved": 0}, {"lon": -77.036562, "bike_id": "e44d354d7d78ad37af3d7c33c375ce7e", "lat": 38.9313505, "fusion_lon": 0.0, "fusion_lat": 0.0, "type": "electric_scooter", "name": "e44d354d7d78ad37af3d7c33c375ce7e", "is_disabled": 0, "rental_uris": {"ios": "https://dc.lft.to/lastmile_qr_scan", "android": "https://dc.lft.to/lastmile_qr_scan"}, "is_reserved": 0}, {"lon": -76.99482233333333, "bike_id": "4309027785cfae47e6fac0dff07d3f74", "lat": 38.8861095, "fusion_lon": 0.0, "fusion_lat": 0.0, "type": "electric_scooter", "name": "4309027785cfae47e6fac0dff07d3f74", "is_disabled": 0, "rental_uris": {"ios": "https://dc.lft.to/lastmile_qr_scan", "android": "https://dc.lft.to/lastmile_qr_scan"}, "is_reserved": 0}, {"lon": -77.0229805, "bike_id": "c2384419b39aafe4a48fffe5cdbba21a", "lat": 38.91706966666667, "fusion_lon": 0.0, "fusion_lat": 0.0, "type": "electric_scooter", "name": "c2384419b39aafe4a48fffe5cdbba21a", "is_disabled": 0, "rental_uris": {"ios": "https://dc.lft.to/lastmile_qr_scan", "android": "https://dc.lft.to/lastmile_qr_scan"}, "is_reserved": 0}, {"lon": -77.047223, "bike_id": "f06bb8cdfe3ae61164a175320106c012", "lat": 38.92313333333333, "fusion_lon": 0.0, "fusion_lat": 0.0, "type": "electric_scooter", "name": "f06bb8cdfe3ae61164a175320106c012", "is_disabled": 0, "rental_uris": {"ios": "https://dc.lft.to/lastmile_qr_scan", "android": "https://dc.lft.to/lastmile_qr_scan"}, "is_reserved": 0}, {"lon": -76.9852785, "bike_id": "9d30d4c419807bff8627ee1468392e8b", "lat": 38.8668375, "fusion_lon": 0.0, "fusion_lat": 0.0, "type": "electric_scooter", "name": "9d30d4c419807bff8627ee1468392e8b", "is_disabled": 0, "rental_uris": {"ios": "https://dc.lft.to/lastmile_qr_scan", "android": "https://dc.lft.to/lastmile_qr_scan"}, "is_reserved": 0}, {"lon": -77.046772, "bike_id": "e7d9beb9543e5c7a6610e552051a2319", "lat": 38.89557583333333, "fusion_lon": 0.0, "fusion_lat": 0.0, "type": "electric_scooter", "name": "e7d9beb9543e5c7a6610e552051a2319", "is_disabled": 0, "rental_uris": {"ios": "https://dc.lft.to/lastmile_qr_scan", "android": "https://dc.lft.to/lastmile_qr_scan"}, "is_reserved": 0}, {"lon": -77.01504766666666, "bike_id": "f35f12f559403de6650575110ae48bb1", "lat": 38.926673666666666, "fusion_lon": 0.0, "fusion_lat": 0.0, "type": "electric_scooter", "name": "f35f12f559403de6650575110ae48bb1", "is_disabled": 0, "rental_uris": {"ios": "https://dc.lft.to/lastmile_qr_scan", "android": "https://dc.lft.to/lastmile_qr_scan"}, "is_reserved": 0}, {"lon": -77.04471066666666, "bike_id": "2530442ecfa313166fa162506dfeb3f2", "lat": 38.92389883333333, "fusion_lon": 0.0, "fusion_lat": 0.0, "type": "electric_scooter", "name": "2530442ecfa313166fa162506dfeb3f2", "is_disabled": 0, "rental_uris": {"ios": "https://dc.lft.to/lastmile_qr_scan", "android": "https://dc.lft.to/lastmile_qr_scan"}, "is_reserved": 0}, {"lon": -77.01736966666667, "bike_id": "483e43afb3426b8be15cbcb2490a6f29", "lat": 38.887452, "fusion_lon": 0.0, "fusion_lat": 0.0, "type": "electric_scooter", "name": "483e43afb3426b8be15cbcb2490a6f29", "is_disabled": 0, "rental_uris": {"ios": "https://dc.lft.to/lastmile_qr_scan", "android": "https://dc.lft.to/lastmile_qr_scan"}, "is_reserved": 0}, {"lon": -76.99804333333333, "bike_id": "6de82b16e7b910b78924ed80f2426644", "lat": 38.90853233333333, "fusion_lon": 0.0, "fusion_lat": 0.0, "type": "electric_scooter", "name": "6de82b16e7b910b78924ed80f2426644", "is_disabled": 0, "rental_uris": {"ios": "https://dc.lft.to/lastmile_qr_scan", "android": "https://dc.lft.to/lastmile_qr_scan"}, "is_reserved": 0}, {"lon": -76.97931633333333, "bike_id": "29cd8083cae524ec49e92d1587bc876a", "lat": 38.90244583333333, "fusion_lon": 0.0, "fusion_lat": 0.0, "type": "electric_scooter", "name": "29cd8083cae524ec49e92d1587bc876a", "is_disabled": 0, "rental_uris": {"ios": "https://dc.lft.to/lastmile_qr_scan", "android": "https://dc.lft.to/lastmile_qr_scan"}, "is_reserved": 0}, {"lon": -76.90745816666667, "bike_id": "cce7e6b6bba1496b846f0a3c7d2ca2e7", "lat": 38.896169666666665, "fusion_lon": 0.0, "fusion_lat": 0.0, "type": "electric_bike", "name": "cce7e6b6bba1496b846f0a3c7d2ca2e7", "is_disabled": 0, "rental_uris": {"ios": "https://dc.lft.to/lastmile_qr_scan", "android": "https://dc.lft.to/lastmile_qr_scan"}, "is_reserved": 0}, {"lon": -77.0216025, "bike_id": "242036e58be34d62f58cab5761956b6b", "lat": 38.926878, "fusion_lon": 0.0, "fusion_lat": 0.0, "type": "electric_scooter", "name": "242036e58be34d62f58cab5761956b6b", "is_disabled": 0, "rental_uris": {"ios": "https://dc.lft.to/lastmile_qr_scan", "android": "https://dc.lft.to/lastmile_qr_scan"}, "is_reserved": 0}, {"lon": -77.03184766666666, "bike_id": "8bbb087de01447e96e14d2d9faf1f291", "lat": 38.8922455, "fusion_lon": 0.0, "fusion_lat": 0.0, "type": "electric_scooter", "name": "8bbb087de01447e96e14d2d9faf1f291", "is_disabled": 0, "rental_uris": {"ios": "https://dc.lft.to/lastmile_qr_scan", "android": "https://dc.lft.to/lastmile_qr_scan"}, "is_reserved": 0}, {"lon": -77.0333235, "bike_id": "40829db904e097eac4052a724952ef22", "lat": 38.909685, "fusion_lon": 0.0, "fusion_lat": 0.0, "type": "electric_scooter", "name": "40829db904e097eac4052a724952ef22", "is_disabled": 0, "rental_uris": {"ios": "https://dc.lft.to/lastmile_qr_scan", "android": "https://dc.lft.to/lastmile_qr_scan"}, "is_reserved": 0}, {"lon": -77.02585383333333, "bike_id": "e2d5f2e4dab2604e5dafa0cb8d4b8769", "lat": 38.92035633333333, "fusion_lon": 0.0, "fusion_lat": 0.0, "type": "electric_scooter", "name": "e2d5f2e4dab2604e5dafa0cb8d4b8769", "is_disabled": 0, "rental_uris": {"ios": "https://dc.lft.to/lastmile_qr_scan", "android": "https://dc.lft.to/lastmile_qr_scan"}, "is_reserved": 0}, {"lon": -77.02585083333334, "bike_id": "c042bba2db0ee325dce45a80f46fb22f", "lat": 38.9318955, "fusion_lon": 0.0, "fusion_lat": 0.0, "type": "electric_scooter", "name": "c042bba2db0ee325dce45a80f46fb22f", "is_disabled": 0, "rental_uris": {"ios": "https://dc.lft.to/lastmile_qr_scan", "android": "https://dc.lft.to/lastmile_qr_scan"}, "is_reserved": 0}, {"lon": -77.0327365, "bike_id": "4a958ec15689abb44aa730e65de7e5ca", "lat": 38.928449, "fusion_lon": 0.0, "fusion_lat": 0.0, "type": "electric_scooter", "name": "4a958ec15689abb44aa730e65de7e5ca", "is_disabled": 0, "rental_uris": {"ios": "https://dc.lft.to/lastmile_qr_scan", "android": "https://dc.lft.to/lastmile_qr_scan"}, "is_reserved": 0}, {"lon": -77.031937, "bike_id": "e43f2a72be1cbba9fa7b580a997820d2", "lat": 38.930678, "fusion_lon": 0.0, "fusion_lat": 0.0, "type": "electric_scooter", "name": "e43f2a72be1cbba9fa7b580a997820d2", "is_disabled": 0, "rental_uris": {"ios": "https://dc.lft.to/lastmile_qr_scan", "android": "https://dc.lft.to/lastmile_qr_scan"}, "is_reserved": 0}, {"lon": -77.01957766666666, "bike_id": "8efed61c7593cf87e7655854216f6d57", "lat": 38.88365116666667, "fusion_lon": 0.0, "fusion_lat": 0.0, "type": "electric_scooter", "name": "8efed61c7593cf87e7655854216f6d57", "is_disabled": 0, "rental_uris": {"ios": "https://dc.lft.to/lastmile_qr_scan", "android": "https://dc.lft.to/lastmile_qr_scan"}, "is_reserved": 0}, {"lon": -77.0035, "bike_id": "e6c780ac0e4e39c7399024e16599b504", "lat": 38.896559833333335, "fusion_lon": 0.0, "fusion_lat": 0.0, "type": "electric_scooter", "name": "e6c780ac0e4e39c7399024e16599b504", "is_disabled": 0, "rental_uris": {"ios": "https://dc.lft.to/lastmile_qr_scan", "android": "https://dc.lft.to/lastmile_qr_scan"}, "is_reserved": 0}, {"lon": -77.05763816666666, "bike_id": "35e28600974416db361d3b4c52ba3479", "lat": 38.933849333333335, "fusion_lon": 0.0, "fusion_lat": 0.0, "type": "electric_scooter", "name": "35e28600974416db361d3b4c52ba3479", "is_disabled": 0, "rental_uris": {"ios": "https://dc.lft.to/lastmile_qr_scan", "android": "https://dc.lft.to/lastmile_qr_scan"}, "is_reserved": 0}, {"lon": -77.02137216666667, "bike_id": "bb5ca5d69af5eedbcccda32c1dc5d0c6", "lat": 38.89709233333333, "fusion_lon": 0.0, "fusion_lat": 0.0, "type": "electric_scooter", "name": "bb5ca5d69af5eedbcccda32c1dc5d0c6", "is_disabled": 0, "rental_uris": {"ios": "https://dc.lft.to/lastmile_qr_scan", "android": "https://dc.lft.to/lastmile_qr_scan"}, "is_reserved": 0}, {"lon": -77.02639883333333, "bike_id": "52fbb064156a0d99ec108f277ec1e93c", "lat": 38.9171085, "fusion_lon": 0.0, "fusion_lat": 0.0, "type": "electric_scooter", "name": "52fbb064156a0d99ec108f277ec1e93c", "is_disabled": 0, "rental_uris": {"ios": "https://dc.lft.to/lastmile_qr_scan", "android": "https://dc.lft.to/lastmile_qr_scan"}, "is_reserved": 0}, {"lon": -77.02805283333333, "bike_id": "a1a8800a615ec4625729264525f02e00", "lat": 38.899235166666664, "fusion_lon": 0.0, "fusion_lat": 0.0, "type": "electric_scooter", "name": "a1a8800a615ec4625729264525f02e00", "is_disabled": 0, "rental_uris": {"ios": "https://dc.lft.to/lastmile_qr_scan", "android": "https://dc.lft.to/lastmile_qr_scan"}, "is_reserved": 0}, {"lon": -77.027314, "bike_id": "ed87f190ef2497214d864aaef4e1d6b4", "lat": 38.93209016666667, "fusion_lon": 0.0, "fusion_lat": 0.0, "type": "electric_scooter", "name": "ed87f190ef2497214d864aaef4e1d6b4", "is_disabled": 0, "rental_uris": {"ios": "https://dc.lft.to/lastmile_qr_scan", "android": "https://dc.lft.to/lastmile_qr_scan"}, "is_reserved": 0}, {"lon": -77.02830716666666, "bike_id": "69d817b51b5839560de9b10c5d566ea0", "lat": 38.9142085, "fusion_lon": 0.0, "fusion_lat": 0.0, "type": "electric_scooter", "name": "69d817b51b5839560de9b10c5d566ea0", "is_disabled": 0, "rental_uris": {"ios": "https://dc.lft.to/lastmile_qr_scan", "android": "https://dc.lft.to/lastmile_qr_scan"}, "is_reserved": 0}, {"lon": -77.0270745, "bike_id": "c6876ac2798b0559205a765d54b7adfd", "lat": 38.94989983333333, "fusion_lon": 0.0, "fusion_lat": 0.0, "type": "electric_scooter", "name": "c6876ac2798b0559205a765d54b7adfd", "is_disabled": 0, "rental_uris": {"ios": "https://dc.lft.to/lastmile_qr_scan", "android": "https://dc.lft.to/lastmile_qr_scan"}, "is_reserved": 0}, {"lon": -77.13930366666666, "bike_id": "9051a78e54a71465006e0b7ced3f14d6", "lat": 38.8729885, "fusion_lon": 0.0, "fusion_lat": 0.0, "type": "electric_bike", "name": "9051a78e54a71465006e0b7ced3f14d6", "is_disabled": 0, "rental_uris": {"ios": "https://dc.lft.to/lastmile_qr_scan", "android": "https://dc.lft.to/lastmile_qr_scan"}, "is_reserved": 0}, {"lon": -76.98832783333333, "bike_id": "66fd2f66c955b8b5b9012add302cd639", "lat": 38.89667933333333, "fusion_lon": 0.0, "fusion_lat": 0.0, "type": "electric_scooter", "name": "66fd2f66c955b8b5b9012add302cd639", "is_disabled": 0, "rental_uris": {"ios": "https://dc.lft.to/lastmile_qr_scan", "android": "https://dc.lft.to/lastmile_qr_scan"}, "is_reserved": 0}, {"lon": -77.02208466666667, "bike_id": "ae2345f19a86bf8f663942010a3f3420", "lat": 38.893544, "fusion_lon": 0.0, "fusion_lat": 0.0, "type": "electric_scooter", "name": "ae2345f19a86bf8f663942010a3f3420", "is_disabled": 0, "rental_uris": {"ios": "https://dc.lft.to/lastmile_qr_scan", "android": "https://dc.lft.to/lastmile_qr_scan"}, "is_reserved": 0}, {"lon": -77.041994, "bike_id": "40361d5c8193d08c4b83b4577f48922d", "lat": 38.90560216666667, "fusion_lon": 0.0, "fusion_lat": 0.0, "type": "electric_scooter", "name": "40361d5c8193d08c4b83b4577f48922d", "is_disabled": 0, "rental_uris": {"ios": "https://dc.lft.to/lastmile_qr_scan", "android": "https://dc.lft.to/lastmile_qr_scan"}, "is_reserved": 0}, {"lon": -77.0557235, "bike_id": "8dccceda1f4c7fd0bdba663f1debd8a1", "lat": 38.930588666666665, "fusion_lon": 0.0, "fusion_lat": 0.0, "type": "electric_scooter", "name": "8dccceda1f4c7fd0bdba663f1debd8a1", "is_disabled": 0, "rental_uris": {"ios": "https://dc.lft.to/lastmile_qr_scan", "android": "https://dc.lft.to/lastmile_qr_scan"}, "is_reserved": 0}, {"lon": -76.99273083333334, "bike_id": "b4898db55d6fc0e777ce9e1d1ee18946", "lat": 38.86031916666666, "fusion_lon": 0.0, "fusion_lat": 0.0, "type": "electric_scooter", "name": "b4898db55d6fc0e777ce9e1d1ee18946", "is_disabled": 0, "rental_uris": {"ios": "https://dc.lft.to/lastmile_qr_scan", "android": "https://dc.lft.to/lastmile_qr_scan"}, "is_reserved": 0}, {"lon": -77.03210733333333, "bike_id": "0cf4afe36756c62a1608239c9b14e943", "lat": 38.91503083333333, "fusion_lon": 0.0, "fusion_lat": 0.0, "type": "electric_scooter", "name": "0cf4afe36756c62a1608239c9b14e943", "is_disabled": 0, "rental_uris": {"ios": "https://dc.lft.to/lastmile_qr_scan", "android": "https://dc.lft.to/lastmile_qr_scan"}, "is_reserved": 0}, {"lon": -77.03816633333334, "bike_id": "ec1ac7af6a128aec9e66c2efea7c1358", "lat": 38.93099083333333, "fusion_lon": 0.0, "fusion_lat": 0.0, "type": "electric_scooter", "name": "ec1ac7af6a128aec9e66c2efea7c1358", "is_disabled": 0, "rental_uris": {"ios": "https://dc.lft.to/lastmile_qr_scan", "android": "https://dc.lft.to/lastmile_qr_scan"}, "is_reserved": 0}, {"lon": -77.049948, "bike_id": "681fc12770361d8a8da43091c56620b9", "lat": 38.90511866666667, "fusion_lon": 0.0, "fusion_lat": 0.0, "type": "electric_scooter", "name": "681fc12770361d8a8da43091c56620b9", "is_disabled": 0, "rental_uris": {"ios": "https://dc.lft.to/lastmile_qr_scan", "android": "https://dc.lft.to/lastmile_qr_scan"}, "is_reserved": 0}, {"lon": -77.12465916666666, "bike_id": "f9b0981ee517b93d18cf9862f0d1eaaa", "lat": 38.853751, "fusion_lon": 0.0, "fusion_lat": 0.0, "type": "electric_bike", "name": "f9b0981ee517b93d18cf9862f0d1eaaa", "is_disabled": 0, "rental_uris": {"ios": "https://dc.lft.to/lastmile_qr_scan", "android": "https://dc.lft.to/lastmile_qr_scan"}, "is_reserved": 0}, {"lon": -77.041825, "bike_id": "2cb05c84d269c378d79910fe9a4ca2f6", "lat": 38.915543666666665, "fusion_lon": 0.0, "fusion_lat": 0.0, "type": "electric_scooter", "name": "2cb05c84d269c378d79910fe9a4ca2f6", "is_disabled": 0, "rental_uris": {"ios": "https://dc.lft.to/lastmile_qr_scan", "android": "https://dc.lft.to/lastmile_qr_scan"}, "is_reserved": 0}, {"lon": -76.977102, "bike_id": "7e3640a37bafca7dcde4adbb78d12c57", "lat": 38.88522433333333, "fusion_lon": 0.0, "fusion_lat": 0.0, "type": "electric_scooter", "name": "7e3640a37bafca7dcde4adbb78d12c57", "is_disabled": 0, "rental_uris": {"ios": "https://dc.lft.to/lastmile_qr_scan", "android": "https://dc.lft.to/lastmile_qr_scan"}, "is_reserved": 0}, {"lon": -77.0366145, "bike_id": "1b802d5b4f23c80aec18d9702ffbf19d", "lat": 38.92261533333333, "fusion_lon": 0.0, "fusion_lat": 0.0, "type": "electric_scooter", "name": "1b802d5b4f23c80aec18d9702ffbf19d", "is_disabled": 0, "rental_uris": {"ios": "https://dc.lft.to/lastmile_qr_scan", "android": "https://dc.lft.to/lastmile_qr_scan"}, "is_reserved": 0}, {"lon": -76.97205316666667, "bike_id": "3b79d6c4ee4e480a9ed6bbea302d426f", "lat": 38.892894, "fusion_lon": 0.0, "fusion_lat": 0.0, "type": "electric_bike", "name": "3b79d6c4ee4e480a9ed6bbea302d426f", "is_disabled": 0, "rental_uris": {"ios": "https://dc.lft.to/lastmile_qr_scan", "android": "https://dc.lft.to/lastmile_qr_scan"}, "is_reserved": 0}, {"lon": -77.04485833333334, "bike_id": "b4601f56eaa6ecfca96603e906ff234f", "lat": 38.913314, "fusion_lon": 0.0, "fusion_lat": 0.0, "type": "electric_scooter", "name": "b4601f56eaa6ecfca96603e906ff234f", "is_disabled": 0, "rental_uris": {"ios": "https://dc.lft.to/lastmile_qr_scan", "android": "https://dc.lft.to/lastmile_qr_scan"}, "is_reserved": 0}, {"lon": -77.06979966666667, "bike_id": "2436b26dc1cad35a1a4b25709ac439e4", "lat": 38.918406166666664, "fusion_lon": 0.0, "fusion_lat": 0.0, "type": "electric_bike", "name": "2436b26dc1cad35a1a4b25709ac439e4", "is_disabled": 0, "rental_uris": {"ios": "https://dc.lft.to/lastmile_qr_scan", "android": "https://dc.lft.to/lastmile_qr_scan"}, "is_reserved": 0}, {"lon": -77.02403983333333, "bike_id": "5502c4ed68064297407f37d81697cb77", "lat": 38.891917, "fusion_lon": 0.0, "fusion_lat": 0.0, "type": "electric_scooter", "name": "5502c4ed68064297407f37d81697cb77", "is_disabled": 0, "rental_uris": {"ios": "https://dc.lft.to/lastmile_qr_scan", "android": "https://dc.lft.to/lastmile_qr_scan"}, "is_reserved": 0}, {"lon": -77.03209216666667, "bike_id": "b1c33ef7061e6949e164b9a0762bf108", "lat": 38.905248666666665, "fusion_lon": 0.0, "fusion_lat": 0.0, "type": "electric_scooter", "name": "b1c33ef7061e6949e164b9a0762bf108", "is_disabled": 0, "rental_uris": {"ios": "https://dc.lft.to/lastmile_qr_scan", "android": "https://dc.lft.to/lastmile_qr_scan"}, "is_reserved": 0}, {"lon": -77.03576416666667, "bike_id": "2ff1afadc86167aec25a7a021b13e59f", "lat": 38.91767766666667, "fusion_lon": 0.0, "fusion_lat": 0.0, "type": "electric_scooter", "name": "2ff1afadc86167aec25a7a021b13e59f", "is_disabled": 0, "rental_uris": {"ios": "https://dc.lft.to/lastmile_qr_scan", "android": "https://dc.lft.to/lastmile_qr_scan"}, "is_reserved": 0}, {"lon": -77.028446, "bike_id": "4b1ebf2f4742c58831a4418c6b9e2215", "lat": 38.92964583333333, "fusion_lon": 0.0, "fusion_lat": 0.0, "type": "electric_scooter", "name": "4b1ebf2f4742c58831a4418c6b9e2215", "is_disabled": 0, "rental_uris": {"ios": "https://dc.lft.to/lastmile_qr_scan", "android": "https://dc.lft.to/lastmile_qr_scan"}, "is_reserved": 0}, {"lon": -77.00196683333333, "bike_id": "6ad2044482bbd42f8a265e9e39672dc0", "lat": 38.90034716666667, "fusion_lon": 0.0, "fusion_lat": 0.0, "type": "electric_scooter", "name": "6ad2044482bbd42f8a265e9e39672dc0", "is_disabled": 0, "rental_uris": {"ios": "https://dc.lft.to/lastmile_qr_scan", "android": "https://dc.lft.to/lastmile_qr_scan"}, "is_reserved": 0}, {"lon": -77.07855783333333, "bike_id": "dea112e07d1b005fdec7a03210d3451c", "lat": 38.91957033333333, "fusion_lon": 0.0, "fusion_lat": 0.0, "type": "electric_bike", "name": "dea112e07d1b005fdec7a03210d3451c", "is_disabled": 0, "rental_uris": {"ios": "https://dc.lft.to/lastmile_qr_scan", "android": "https://dc.lft.to/lastmile_qr_scan"}, "is_reserved": 0}, {"lon": -77.0399585, "bike_id": "22ac252eb6aa59dd7035d73341cbd63e", "lat": 38.916388166666664, "fusion_lon": 0.0, "fusion_lat": 0.0, "type": "electric_scooter", "name": "22ac252eb6aa59dd7035d73341cbd63e", "is_disabled": 0, "rental_uris": {"ios": "https://dc.lft.to/lastmile_qr_scan", "android": "https://dc.lft.to/lastmile_qr_scan"}, "is_reserved": 0}, {"lon": -77.044635, "bike_id": "a682dc5f31245f0d424cf2e53bd5fadc", "lat": 38.896219333333335, "fusion_lon": 0.0, "fusion_lat": 0.0, "type": "electric_scooter", "name": "a682dc5f31245f0d424cf2e53bd5fadc", "is_disabled": 0, "rental_uris": {"ios": "https://dc.lft.to/lastmile_qr_scan", "android": "https://dc.lft.to/lastmile_qr_scan"}, "is_reserved": 0}, {"lon": -77.01054066666667, "bike_id": "4968e7ab6c2b6d60c16404a1eba92c4f", "lat": 38.963412, "fusion_lon": 0.0, "fusion_lat": 0.0, "type": "electric_scooter", "name": "4968e7ab6c2b6d60c16404a1eba92c4f", "is_disabled": 0, "rental_uris": {"ios": "https://dc.lft.to/lastmile_qr_scan", "android": "https://dc.lft.to/lastmile_qr_scan"}, "is_reserved": 0},