{"data": {"bikes": [{"bike_id": "0cebb57d4728c6e08a9d74e95e72ba47", "name": "0cebb57d4728c6e08a9d74e95e72ba47", "is_disabled": 0, "fusion_lon": 0.0, "rental_uris": {"android": "https://dc.lft.to/lastmile_qr_scan", "ios": "https://dc.lft.to/lastmile_qr_scan"}, "type": "electric_scooter", "fusion_lat": 0.0, "lat": 38.932044833333336, "lon": -77.03270716666667, "is_reserved": 0}, {"bike_id": "3c92e0818fd40951ea995d05c65a9cc3", "name": "3c92e0818fd40951ea995d05c65a9cc3", "is_disabled": 0, "fusion_lon": 0.0, "rental_uris": {"android": "https://dc.lft.to/lastmile_qr_scan", "ios": "https://dc.lft.to/lastmile_qr_scan"}, "type": "electric_scooter", "fusion_lat": 0.0, "lat": 38.92365616666667, "lon": -77.0195195, "is_reserved": 0}, {"bike_id": "652bad013ca380d1d21fcd2dec3d6813", "name": "652bad013ca380d1d21fcd2dec3d6813", "is_disabled": 0, "fusion_lon": 0.0, "rental_uris": {"android": "https://dc.lft.to/lastmile_qr_scan", "ios": "https://dc.lft.to/lastmile_qr_scan"}, "type": "electric_bike", "fusion_lat": 0.0, "lat": 38.92642216666667, "lon": -77.0284065, "is_reserved": 0}, {"bike_id": "6d53011702eb030a8abf9ad14e718b01", "name": "6d53011702eb030a8abf9ad14e718b01", "is_disabled": 0, "fusion_lon": 0.0, "rental_uris": {"android": "https://dc.lft.to/lastmile_qr_scan", "ios": "https://dc.lft.to/lastmile_qr_scan"}, "type": "electric_scooter", "fusion_lat": 0.0, "lat": 38.92290533333333, "lon": -77.03197166666666, "is_reserved": 0}, {"bike_id": "dbbca15c95ea2b5034685fb98c6df550", "name": "dbbca15c95ea2b5034685fb98c6df550", "is_disabled": 0, "fusion_lon": 0.0, "rental_uris": {"android": "https://dc.lft.to/lastmile_qr_scan", "ios": "https://dc.lft.to/lastmile_qr_scan"}, "type": "electric_scooter", "fusion_lat": 0.0, "lat": 38.9131075, "lon": -77.06216716666667, "is_reserved": 0}, {"bike_id": "bda0a6d52b8038914c30a0217e22726f", "name": "bda0a6d52b8038914c30a0217e22726f", "is_disabled": 0, "fusion_lon": 0.0, "rental_uris": {"android": "https://dc.lft.to/lastmile_qr_scan", "ios": "https://dc.lft.to/lastmile_qr_scan"}, "type": "electric_scooter", "fusion_lat": 0.0, "lat": 38.92156933333333, "lon": -77.03462533333334, "is_reserved": 0}, {"bike_id": "73968794c7b40ebbb0e28c865735b082", "name": "73968794c7b40ebbb0e28c865735b082", "is_disabled": 0, "fusion_lon": 0.0, "rental_uris": {"android": "https://dc.lft.to/lastmile_qr_scan", "ios": "https://dc.lft.to/lastmile_qr_scan"}, "type": "electric_scooter", "fusion_lat": 0.0, "lat": 38.923275833333335, "lon": -77.03667316666667, "is_reserved": 0}, {"bike_id": "1660f54fca9ee80a9d0ef82153677b85", "name": "1660f54fca9ee80a9d0ef82153677b85", "is_disabled": 0, "fusion_lon": 0.0, "rental_uris": {"android": "https://dc.lft.to/lastmile_qr_scan", "ios": "https://dc.lft.to/lastmile_qr_scan"}, "type": "electric_scooter", "fusion_lat": 0.0, "lat": 38.90842966666666, "lon": -77.0258935, "is_reserved": 0}, {"bike_id": "a440406a53b2fdc83797f8b44df087bc", "name": "a440406a53b2fdc83797f8b44df087bc", "is_disabled": 0, "fusion_lon": 0.0, "rental_uris": {"android": "https://dc.lft.to/lastmile_qr_scan", "ios": "https://dc.lft.to/lastmile_qr_scan"}, "type": "electric_scooter", "fusion_lat": 0.0, "lat": 38.9353405, "lon": -77.08793933333334, "is_reserved": 0}, {"bike_id": "55cec7d4e590bd935929d92394b2dc21", "name": "55cec7d4e590bd935929d92394b2dc21", "is_disabled": 0, "fusion_lon": 0.0, "rental_uris": {"android": "https://dc.lft.to/lastmile_qr_scan", "ios": "https://dc.lft.to/lastmile_qr_scan"}, "type": "electric_scooter", "fusion_lat": 0.0, "lat": 38.892093333333335, "lon": -77.00333833333333, "is_reserved": 0}, {"bike_id": "3e8830ea0d5095d94637bed74e7207a0", "name": "3e8830ea0d5095d94637bed74e7207a0", "is_disabled": 0, "fusion_lon": 0.0, "rental_uris": {"android": "https://dc.lft.to/lastmile_qr_scan", "ios": "https://dc.lft.to/lastmile_qr_scan"}, "type": "electric_scooter", "fusion_lat": 0.0, "lat": 38.93538616666667, "lon": -77.03081866666666, "is_reserved": 0}, {"bike_id": "ec2ddee5679bf06386febb0bc0a1ba1a", "name": "ec2ddee5679bf06386febb0bc0a1ba1a", "is_disabled": 0, "fusion_lon": 0.0, "rental_uris": {"android": "https://dc.lft.to/lastmile_qr_scan", "ios": "https://dc.lft.to/lastmile_qr_scan"}, "type": "electric_bike", "fusion_lat": 0.0, "lat": 38.92829183333333, "lon": -77.0383315, "is_reserved": 0}, {"bike_id": "6833cbaaa147e0ee38b6286c57106b6c", "name": "6833cbaaa147e0ee38b6286c57106b6c", "is_disabled": 0, "fusion_lon": 0.0, "rental_uris": {"android": "https://dc.lft.to/lastmile_qr_scan", "ios": "https://dc.lft.to/lastmile_qr_scan"}, "type": "electric_scooter", "fusion_lat": 0.0, "lat": 38.92713233333333, "lon": -77.05985133333333, "is_reserved": 0}, {"bike_id": "45c282827c52efedffc9ec8810c1a054", "name": "45c282827c52efedffc9ec8810c1a054", "is_disabled": 0, "fusion_lon": 0.0, "rental_uris": {"android": "https://dc.lft.to/lastmile_qr_scan", "ios": "https://dc.lft.to/lastmile_qr_scan"}, "type": "electric_scooter", "fusion_lat": 0.0, "lat": 38.907712333333336, "lon": -77.07149783333334, "is_reserved": 0}, {"bike_id": "ace0301f6a274b3ab8d4b64d35008e40", "name": "ace0301f6a274b3ab8d4b64d35008e40", "is_disabled": 0, "fusion_lon": 0.0, "rental_uris": {"android": "https://dc.lft.to/lastmile_qr_scan", "ios": "https://dc.lft.to/lastmile_qr_scan"}, "type": "electric_bike", "fusion_lat": 0.0, "lat": 38.96926783333333, "lon": -77.02608883333333, "is_reserved": 0}, {"bike_id": "7f1ba79b6c8bf8948327295cc41abdbd", "name": "7f1ba79b6c8bf8948327295cc41abdbd", "is_disabled": 0, "fusion_lon": 0.0, "rental_uris": {"android": "https://dc.lft.to/lastmile_qr_scan", "ios": "https://dc.lft.to/lastmile_qr_scan"}, "type": "electric_scooter", "fusion_lat": 0.0, "lat": 38.92419866666667, "lon": -77.019466, "is_reserved": 0}, {"bike_id": "e850b899928c9c452d8ce7e019396539", "name": "e850b899928c9c452d8ce7e019396539", "is_disabled": 0, "fusion_lon": 0.0, "rental_uris": {"android": "https://dc.lft.to/lastmile_qr_scan", "ios": "https://dc.lft.to/lastmile_qr_scan"}, "type": "electric_scooter", "fusion_lat": 0.0, "lat": 38.92411583333333, "lon": -77.01951333333334, "is_reserved": 0}, {"bike_id": "6cda79306c1c94a211ba1d45eb21eb78", "name": "6cda79306c1c94a211ba1d45eb21eb78", "is_disabled": 0, "fusion_lon": 0.0, "rental_uris": {"android": "https://dc.lft.to/lastmile_qr_scan", "ios": "https://dc.lft.to/lastmile_qr_scan"}, "type": "electric_scooter", "fusion_lat": 0.0, "lat": 38.8923285, "lon": -77.0500025, "is_reserved": 0}, {"bike_id": "45726015116f298cc195a1aeb5881749", "name": "45726015116f298cc195a1aeb5881749", "is_disabled": 0, "fusion_lon": 0.0, "rental_uris": {"android": "https://dc.lft.to/lastmile_qr_scan", "ios": "https://dc.lft.to/lastmile_qr_scan"}, "type": "electric_scooter", "fusion_lat": 0.0, "lat": 38.927576333333334, "lon": -77.032694, "is_reserved": 0}, {"bike_id": "400101ab6c876707fbd9259fa4b9d629", "name": "400101ab6c876707fbd9259fa4b9d629", "is_disabled": 0, "fusion_lon": 0.0, "rental_uris": {"android": "https://dc.lft.to/lastmile_qr_scan", "ios": "https://dc.lft.to/lastmile_qr_scan"}, "type": "electric_scooter", "fusion_lat": 0.0, "lat": 38.90362283333333, "lon": -77.0293485, "is_reserved": 0}, {"bike_id": "423c075cf64f91e961138b3c8d3b6288", "name": "423c075cf64f91e961138b3c8d3b6288", "is_disabled": 0, "fusion_lon": 0.0, "rental_uris": {"android": "https://dc.lft.to/lastmile_qr_scan", "ios": "https://dc.lft.to/lastmile_qr_scan"}, "type": "electric_scooter", "fusion_lat": 0.0, "lat": 38.91366883333333, "lon": -77.01702866666666, "is_reserved": 0}, {"bike_id": "a29e6e49320422da5000a1b78be51b68", "name": "a29e6e49320422da5000a1b78be51b68", "is_disabled": 0, "fusion_lon": 0.0, "rental_uris": {"android": "https://dc.lft.to/lastmile_qr_scan", "ios": "https://dc.lft.to/lastmile_qr_scan"}, "type": "electric_scooter", "fusion_lat": 0.0, "lat": 38.88864183333333, "lon": -77.00183066666666, "is_reserved": 0}, {"bike_id": "c32716ee864e038ee8b97238389d1ad9", "name": "c32716ee864e038ee8b97238389d1ad9", "is_disabled": 0, "fusion_lon": 0.0, "rental_uris": {"android": "https://dc.lft.to/lastmile_qr_scan", "ios": "https://dc.lft.to/lastmile_qr_scan"}, "type": "electric_scooter", "fusion_lat": 0.0, "lat": 38.88269966666667, "lon": -76.99015316666667, "is_reserved": 0}, {"bike_id": "bd3e1a5d004dae49108258cb7cecb8ab", "name": "bd3e1a5d004dae49108258cb7cecb8ab", "is_disabled": 0, "fusion_lon": 0.0, "rental_uris": {"android": "https://dc.lft.to/lastmile_qr_scan", "ios": "https://dc.lft.to/lastmile_qr_scan"}, "type": "electric_scooter", "fusion_lat": 0.0, "lat": 38.89739483333334, "lon": -77.01838416666666, "is_reserved": 0}, {"bike_id": "869ad42980ebd6f19278234cd41e540b", "name": "869ad42980ebd6f19278234cd41e540b", "is_disabled": 0, "fusion_lon": 0.0, "rental_uris": {"android": "https://dc.lft.to/lastmile_qr_scan", "ios": "https://dc.lft.to/lastmile_qr_scan"}, "type": "electric_scooter", "fusion_lat": 0.0, "lat": 38.9198245, "lon": -77.02497916666667, "is_reserved": 0}, {"bike_id": "7d23fe9d49b968e745b2d06e5f7fc01c", "name": "7d23fe9d49b968e745b2d06e5f7fc01c", "is_disabled": 0, "fusion_lon": 0.0, "rental_uris": {"android": "https://dc.lft.to/lastmile_qr_scan", "ios": "https://dc.lft.to/lastmile_qr_scan"}, "type": "electric_scooter", "fusion_lat": 0.0, "lat": 38.892277, "lon": -77.003046, "is_reserved": 0}, {"bike_id": "57b6ca485234fef6915913d633ac38f8", "name": "57b6ca485234fef6915913d633ac38f8", "is_disabled": 0, "fusion_lon": 0.0, "rental_uris": {"android": "https://dc.lft.to/lastmile_qr_scan", "ios": "https://dc.lft.to/lastmile_qr_scan"}, "type": "electric_scooter", "fusion_lat": 0.0, "lat": 38.9215895, "lon": -77.02518716666667, "is_reserved": 0}, {"bike_id": "b188f8b3ee4186e4d8c6f0603c402acd", "name": "b188f8b3ee4186e4d8c6f0603c402acd", "is_disabled": 0, "fusion_lon": 0.0, "rental_uris": {"android": "https://dc.lft.to/lastmile_qr_scan", "ios": "https://dc.lft.to/lastmile_qr_scan"}, "type": "electric_scooter", "fusion_lat": 0.0, "lat": 38.892198666666665, "lon": -77.04866466666667, "is_reserved": 0}, {"bike_id": "d256f11d28af087003344402d07313a9", "name": "d256f11d28af087003344402d07313a9", "is_disabled": 0, "fusion_lon": 0.0, "rental_uris": {"android": "https://dc.lft.to/lastmile_qr_scan", "ios": "https://dc.lft.to/lastmile_qr_scan"}, "type": "electric_scooter", "fusion_lat": 0.0, "lat": 38.90136783333333, "lon": -77.04322433333333, "is_reserved": 0}, {"bike_id": "6d35768ec6b45d4eac22709fd1f92e58", "name": "6d35768ec6b45d4eac22709fd1f92e58", "is_disabled": 0, "fusion_lon": 0.0, "rental_uris": {"android": "https://dc.lft.to/lastmile_qr_scan", "ios": "https://dc.lft.to/lastmile_qr_scan"}, "type": "electric_scooter", "fusion_lat": 0.0, "lat": 38.90137416666666, "lon": -77.05951566666667, "is_reserved": 0}, {"bike_id": "b1fa269089644b2dcd7bfb1a60314a34", "name": "b1fa269089644b2dcd7bfb1a60314a34", "is_disabled": 0, "fusion_lon": 0.0, "rental_uris": {"android": "https://dc.lft.to/lastmile_qr_scan", "ios": "https://dc.lft.to/lastmile_qr_scan"}, "type": "electric_scooter", "fusion_lat": 0.0, "lat": 38.921576, "lon": -77.03384916666667, "is_reserved": 0}, {"bike_id": "292e263d5909b0fdd15e8371a1c1ecb5", "name": "292e263d5909b0fdd15e8371a1c1ecb5", "is_disabled": 0, "fusion_lon": 0.0, "rental_uris": {"android": "https://dc.lft.to/lastmile_qr_scan", "ios": "https://dc.lft.to/lastmile_qr_scan"}, "type": "electric_scooter", "fusion_lat": 0.0, "lat": 38.924125333333336, "lon": -77.020337, "is_reserved": 0}, {"bike_id": "78b24595f440c9ad45958ad0a3b92645", "name": "78b24595f440c9ad45958ad0a3b92645", "is_disabled": 0, "fusion_lon": 0.0, "rental_uris": {"android": "https://dc.lft.to/lastmile_qr_scan", "ios": "https://dc.lft.to/lastmile_qr_scan"}, "type": "electric_scooter", "fusion_lat": 0.0, "lat": 38.919962166666664, "lon": -77.03191216666667, "is_reserved": 0}, {"bike_id": "87a95f80b85659ecac66464e5c6d34a9", "name": "87a95f80b85659ecac66464e5c6d34a9", "is_disabled": 0, "fusion_lon": 0.0, "rental_uris": {"android": "https://dc.lft.to/lastmile_qr_scan", "ios": "https://dc.lft.to/lastmile_qr_scan"}, "type": "electric_scooter", "fusion_lat": 0.0, "lat": 38.95409266666667, "lon": -77.02497483333333, "is_reserved": 0}, {"bike_id": "4d29ce784f8090552ab7291d81d34cff", "name": "4d29ce784f8090552ab7291d81d34cff", "is_disabled": 0, "fusion_lon": 0.0, "rental_uris": {"android": "https://dc.lft.to/lastmile_qr_scan", "ios": "https://dc.lft.to/lastmile_qr_scan"}, "type": "electric_scooter", "fusion_lat": 0.0, "lat": 38.89770683333333, "lon": -77.0120675, "is_reserved": 0}, {"bike_id": "4823517b017bd45521d21c1eb4e49993", "name": "4823517b017bd45521d21c1eb4e49993", "is_disabled": 0, "fusion_lon": 0.0, "rental_uris": {"android": "https://dc.lft.to/lastmile_qr_scan", "ios": "https://dc.lft.to/lastmile_qr_scan"}, "type": "electric_scooter", "fusion_lat": 0.0, "lat": 38.924772833333336, "lon": -77.02212316666666, "is_reserved": 0}, {"bike_id": "e4d72d9b232fda34ea9354c6f766caa3", "name": "e4d72d9b232fda34ea9354c6f766caa3", "is_disabled": 0, "fusion_lon": 0.0, "rental_uris": {"android": "https://dc.lft.to/lastmile_qr_scan", "ios": "https://dc.lft.to/lastmile_qr_scan"}, "type": "electric_scooter", "fusion_lat": 0.0, "lat": 38.9070825, "lon": -76.98564333333333, "is_reserved": 0}, {"bike_id": "9f3322c946990db166a3540882174afa", "name": "9f3322c946990db166a3540882174afa", "is_disabled": 0, "fusion_lon": 0.0, "rental_uris": {"android": "https://dc.lft.to/lastmile_qr_scan", "ios": "https://dc.lft.to/lastmile_qr_scan"}, "type": "electric_scooter", "fusion_lat": 0.0, "lat": 38.905634, "lon": -77.06278483333334, "is_reserved": 0}, {"bike_id": "bbd0e4f2b8ea653d2d74ac1af64ece6e", "name": "bbd0e4f2b8ea653d2d74ac1af64ece6e", "is_disabled": 0, "fusion_lon": 0.0, "rental_uris": {"android": "https://dc.lft.to/lastmile_qr_scan", "ios": "https://dc.lft.to/lastmile_qr_scan"}, "type": "electric_scooter", "fusion_lat": 0.0, "lat": 38.952717166666666, "lon": -77.02378283333333, "is_reserved": 0}, {"bike_id": "c02c7c470db570409928f86d9de6319b", "name": "c02c7c470db570409928f86d9de6319b", "is_disabled": 0, "fusion_lon": 0.0, "rental_uris": {"android": "https://dc.lft.to/lastmile_qr_scan", "ios": "https://dc.lft.to/lastmile_qr_scan"}, "type": "electric_scooter", "fusion_lat": 0.0, "lat": 38.9225125, "lon": -77.01948816666666, "is_reserved": 0}, {"bike_id": "b2e224eea9e67d0433dbb5110e47c4b1", "name": "b2e224eea9e67d0433dbb5110e47c4b1", "is_disabled": 0, "fusion_lon": 0.0, "rental_uris": {"android": "https://dc.lft.to/lastmile_qr_scan", "ios": "https://dc.lft.to/lastmile_qr_scan"}, "type": "electric_scooter", "fusion_lat": 0.0, "lat": 38.92461183333333, "lon": -77.0523095, "is_reserved": 0}, {"bike_id": "8d3bd8183f31e3669e1fe69a324fdf54", "name": "8d3bd8183f31e3669e1fe69a324fdf54", "is_disabled": 0, "fusion_lon": 0.0, "rental_uris": {"android": "https://dc.lft.to/lastmile_qr_scan", "ios": "https://dc.lft.to/lastmile_qr_scan"}, "type": "electric_scooter", "fusion_lat": 0.0, "lat": 38.907833833333335, "lon": -77.0450245, "is_reserved": 0}, {"bike_id": "e42fe6dc011a06bdc5477e77975e0d75", "name": "e42fe6dc011a06bdc5477e77975e0d75", "is_disabled": 0, "fusion_lon": 0.0, "rental_uris": {"android": "https://dc.lft.to/lastmile_qr_scan", "ios": "https://dc.lft.to/lastmile_qr_scan"}, "type": "electric_scooter", "fusion_lat": 0.0, "lat": 38.892304833333334, "lon": -77.04998166666667, "is_reserved": 0}, {"bike_id": "1b87c8d09fd58dfcf112b3692f3bf1d0", "name": "1b87c8d09fd58dfcf112b3692f3bf1d0", "is_disabled": 0, "fusion_lon": 0.0, "rental_uris": {"android": "https://dc.lft.to/lastmile_qr_scan", "ios": "https://dc.lft.to/lastmile_qr_scan"}, "type": "electric_scooter", "fusion_lat": 0.0, "lat": 38.8953325, "lon": -77.02204366666666, "is_reserved": 0}, {"bike_id": "abbd13bd278b59dd27e8ae881e6800a1", "name": "abbd13bd278b59dd27e8ae881e6800a1", "is_disabled": 0, "fusion_lon": 0.0, "rental_uris": {"android": "https://dc.lft.to/lastmile_qr_scan", "ios": "https://dc.lft.to/lastmile_qr_scan"}, "type": "electric_scooter", "fusion_lat": 0.0, "lat": 38.898909, "lon": -77.02031483333333, "is_reserved": 0}, {"bike_id": "c08b7437fef9db66823e3244619dc9ed", "name": "c08b7437fef9db66823e3244619dc9ed", "is_disabled": 0, "fusion_lon": 0.0, "rental_uris": {"android": "https://dc.lft.to/lastmile_qr_scan", "ios": "https://dc.lft.to/lastmile_qr_scan"}, "type": "electric_scooter", "fusion_lat": 0.0, "lat": 38.89230166666667, "lon": -76.98452466666667, "is_reserved": 0}, {"bike_id": "4ef24defc3ac32402c10ac4e6d665593", "name": "4ef24defc3ac32402c10ac4e6d665593", "is_disabled": 0, "fusion_lon": 0.0, "rental_uris": {"android": "https://dc.lft.to/lastmile_qr_scan", "ios": "https://dc.lft.to/lastmile_qr_scan"}, "type": "electric_scooter", "fusion_lat": 0.0, "lat": 38.89590716666667, "lon": -77.02566733333333, "is_reserved": 0}, {"bike_id": "b6add10843382904a214a3d55758d779", "name": "b6add10843382904a214a3d55758d779", "is_disabled": 0, "fusion_lon": 0.0, "rental_uris": {"android": "https://dc.lft.to/lastmile_qr_scan", "ios": "https://dc.lft.to/lastmile_qr_scan"}, "type": "electric_scooter", "fusion_lat": 0.0, "lat": 38.876585166666665, "lon": -77.003057, "is_reserved": 0}, {"bike_id": "d6c9c04c7637d56508efcd7a4abb1bdf", "name": "d6c9c04c7637d56508efcd7a4abb1bdf", "is_disabled": 0, "fusion_lon": 0.0, "rental_uris": {"android": "https://dc.lft.to/lastmile_qr_scan", "ios": "https://dc.lft.to/lastmile_qr_scan"}, "type": "electric_scooter", "fusion_lat": 0.0, "lat": 38.914349, "lon": -77.02168366666666, "is_reserved": 0}, {"bike_id": "85070cf95930b342a642e5c1a31794f9", "name": "85070cf95930b342a642e5c1a31794f9", "is_disabled": 0, "fusion_lon": 0.0, "rental_uris": {"android": "https://dc.lft.to/lastmile_qr_scan", "ios": "https://dc.lft.to/lastmile_qr_scan"}, "type": "electric_scooter", "fusion_lat": 0.0, "lat": 38.89944, "lon": -77.044823, "is_reserved": 0}, {"bike_id": "37a69c6533ea62f32029e221d11f07df", "name": "37a69c6533ea62f32029e221d11f07df", "is_disabled": 0, "fusion_lon": 0.0, "rental_uris": {"android": "https://dc.lft.to/lastmile_qr_scan", "ios": "https://dc.lft.to/lastmile_qr_scan"}, "type": "electric_scooter", "fusion_lat": 0.0, "lat": 38.9206315, "lon": -77.04360033333333, "is_reserved": 0}, {"bike_id": "f55885222920649f684b70339887b6f1", "name": "f55885222920649f684b70339887b6f1", "is_disabled": 0, "fusion_lon": 0.0, "rental_uris": {"android": "https://dc.lft.to/lastmile_qr_scan", "ios": "https://dc.lft.to/lastmile_qr_scan"}, "type": "electric_scooter", "fusion_lat": 0.0, "lat": 38.91968216666667, "lon": -77.02711716666667, "is_reserved": 0}, {"bike_id": "dde4e0e2a65436ba1458b53cd603de5c", "name": "dde4e0e2a65436ba1458b53cd603de5c", "is_disabled": 0, "fusion_lon": 0.0, "rental_uris": {"android": "https://dc.lft.to/lastmile_qr_scan", "ios": "https://dc.lft.to/lastmile_qr_scan"}, "type": "electric_scooter", "fusion_lat": 0.0, "lat": 38.92470683333333, "lon": -77.02216483333333, "is_reserved": 0}, {"bike_id": "e261140cd7eab9675cd625d427e65853", "name": "e261140cd7eab9675cd625d427e65853", "is_disabled": 0, "fusion_lon": 0.0, "rental_uris": {"android": "https://dc.lft.to/lastmile_qr_scan", "ios": "https://dc.lft.to/lastmile_qr_scan"}, "type": "electric_scooter", "fusion_lat": 0.0, "lat": 38.90607883333333, "lon": -76.99816516666667, "is_reserved": 0}, {"bike_id": "da22fb78c6daa1402aaa46e20b110476", "name": "da22fb78c6daa1402aaa46e20b110476", "is_disabled": 0, "fusion_lon": 0.0, "rental_uris": {"android": "https://dc.lft.to/lastmile_qr_scan", "ios": "https://dc.lft.to/lastmile_qr_scan"}, "type": "electric_scooter", "fusion_lat": 0.0, "lat": 38.86005466666667, "lon": -76.985164, "is_reserved": 0}, {"bike_id": "71026dcbc155cfcbc466e42026c3a92e", "name": "71026dcbc155cfcbc466e42026c3a92e", "is_disabled": 0, "fusion_lon": 0.0, "rental_uris": {"android": "https://dc.lft.to/lastmile_qr_scan", "ios": "https://dc.lft.to/lastmile_qr_scan"}, "type": "electric_scooter", "fusion_lat": 0.0, "lat": 38.916219, "lon": -77.031955, "is_reserved": 0}, {"bike_id": "16f6534aebca00fac1893699b5df9815", "name": "16f6534aebca00fac1893699b5df9815", "is_disabled": 0, "fusion_lon": 0.0, "rental_uris": {"android": "https://dc.lft.to/lastmile_qr_scan", "ios": "https://dc.lft.to/lastmile_qr_scan"}, "type": "electric_scooter", "fusion_lat": 0.0, "lat": 38.952835666666665, "lon": -77.0365435, "is_reserved": 0}, {"bike_id": "f096eeb9a1a6283d549f652ae7fcbd4e", "name": "f096eeb9a1a6283d549f652ae7fcbd4e", "is_disabled": 0, "fusion_lon": 0.0, "rental_uris": {"android": "https://dc.lft.to/lastmile_qr_scan", "ios": "https://dc.lft.to/lastmile_qr_scan"}, "type": "electric_scooter", "fusion_lat": 0.0, "lat": 38.903766833333336, "lon": -77.039588, "is_reserved": 0}, {"bike_id": "9a437a8617eb991e9f572cb998359ac5", "name": "9a437a8617eb991e9f572cb998359ac5", "is_disabled": 0, "fusion_lon": 0.0, "rental_uris": {"android": "https://dc.lft.to/lastmile_qr_scan", "ios": "https://dc.lft.to/lastmile_qr_scan"}, "type": "electric_scooter", "fusion_lat": 0.0, "lat": 38.89549683333333, "lon": -77.00914383333334, "is_reserved": 0}, {"bike_id": "c2ddcd4b66e8fe3888ed95b6b0264eca", "name": "c2ddcd4b66e8fe3888ed95b6b0264eca", "is_disabled": 0, "fusion_lon": 0.0, "rental_uris": {"android": "https://dc.lft.to/lastmile_qr_scan", "ios": "https://dc.lft.to/lastmile_qr_scan"}, "type": "electric_bike", "fusion_lat": 0.0, "lat": 38.906001333333336, "lon": -77.12888533333333, "is_reserved": 0}, {"bike_id": "06886ebdca0ecf16d6a97db0096fe51a", "name": "06886ebdca0ecf16d6a97db0096fe51a", "is_disabled": 0, "fusion_lon": 0.0, "rental_uris": {"android": "https://dc.lft.to/lastmile_qr_scan", "ios": "https://dc.lft.to/lastmile_qr_scan"}, "type": "electric_scooter", "fusion_lat": 0.0, "lat": 38.921054833333336, "lon": -77.03242066666667, "is_reserved": 0}, {"bike_id": "2892232ea3db1f9ff064d1abd1bf2471", "name": "2892232ea3db1f9ff064d1abd1bf2471", "is_disabled": 0, "fusion_lon": 0.0, "rental_uris": {"android": "https://dc.lft.to/lastmile_qr_scan", "ios": "https://dc.lft.to/lastmile_qr_scan"}, "type": "electric_scooter", "fusion_lat": 0.0, "lat": 38.92981433333333, "lon": -77.03464983333333, "is_reserved": 0}, {"bike_id": "07d13e7ee041198ef71c95874484ec7b", "name": "07d13e7ee041198ef71c95874484ec7b", "is_disabled": 0, "fusion_lon": 0.0, "rental_uris": {"android": "https://dc.lft.to/lastmile_qr_scan", "ios": "https://dc.lft.to/lastmile_qr_scan"}, "type": "electric_scooter", "fusion_lat": 0.0, "lat": 38.916196666666664, "lon": -77.0217155, "is_reserved": 0}, {"bike_id": "46ba26b94a2d1ab5d5885a9fab8d5e91", "name": "46ba26b94a2d1ab5d5885a9fab8d5e91", "is_disabled": 0, "fusion_lon": 0.0, "rental_uris": {"android": "https://dc.lft.to/lastmile_qr_scan", "ios": "https://dc.lft.to/lastmile_qr_scan"}, "type": "electric_scooter", "fusion_lat": 0.0, "lat": 38.873826666666666, "lon": -77.00132166666667, "is_reserved": 0}, {"bike_id": "c272829b125b72619d5d67a762387c35", "name": "c272829b125b72619d5d67a762387c35", "is_disabled": 0, "fusion_lon": 0.0, "rental_uris": {"android": "https://dc.lft.to/lastmile_qr_scan", "ios": "https://dc.lft.to/lastmile_qr_scan"}, "type": "electric_scooter", "fusion_lat": 0.0, "lat": 38.906728, "lon": -77.00581616666666, "is_reserved": 0}, {"bike_id": "bd0859728003d0a42f4cd0f5723a5872", "name": "bd0859728003d0a42f4cd0f5723a5872", "is_disabled": 0, "fusion_lon": 0.0, "rental_uris": {"android": "https://dc.lft.to/lastmile_qr_scan", "ios": "https://dc.lft.to/lastmile_qr_scan"}, "type": "electric_bike", "fusion_lat": 0.0, "lat": 38.9206365, "lon": -76.97064416666667, "is_reserved": 0}, {"bike_id": "3e54d22993bad62e4ee923316dc2c1c7", "name": "3e54d22993bad62e4ee923316dc2c1c7", "is_disabled": 0, "fusion_lon": 0.0, "rental_uris": {"android": "https://dc.lft.to/lastmile_qr_scan", "ios": "https://dc.lft.to/lastmile_qr_scan"}, "type": "electric_scooter", "fusion_lat": 0.0, "lat": 38.9170895, "lon": -77.037622, "is_reserved": 0}, {"bike_id": "c0ee10825e7323c940174e67c927b92a", "name": "c0ee10825e7323c940174e67c927b92a", "is_disabled": 0, "fusion_lon": 0.0, "rental_uris": {"android": "https://dc.lft.to/lastmile_qr_scan", "ios": "https://dc.lft.to/lastmile_qr_scan"}, "type": "electric_scooter", "fusion_lat": 0.0, "lat": 38.900921, "lon": -76.97680733333334, "is_reserved": 0}, {"bike_id": "1c6f165a04be81b586e8c40323557162", "name": "1c6f165a04be81b586e8c40323557162", "is_disabled": 0, "fusion_lon": 0.0, "rental_uris": {"android": "https://dc.lft.to/lastmile_qr_scan", "ios": "https://dc.lft.to/lastmile_qr_scan"}, "type": "electric_scooter", "fusion_lat": 0.0, "lat": 38.92102766666667, "lon": -77.04675383333333, "is_reserved": 0}, {"bike_id": "6b61d3a40523f5725cbefd2e8574489a", "name": "6b61d3a40523f5725cbefd2e8574489a", "is_disabled": 0, "fusion_lon": 0.0, "rental_uris": {"android": "https://dc.lft.to/lastmile_qr_scan", "ios": "https://dc.lft.to/lastmile_qr_scan"}, "type": "electric_scooter", "fusion_lat": 0.0, "lat": 38.87544533333333, "lon": -77.0057645, "is_reserved": 0}, {"bike_id": "eb2cca9b80cf8454d8fbf901f894e9ec", "name": "eb2cca9b80cf8454d8fbf901f894e9ec", "is_disabled": 0, "fusion_lon": 0.0, "rental_uris": {"android": "https://dc.lft.to/lastmile_qr_scan", "ios": "https://dc.lft.to/lastmile_qr_scan"}, "type": "electric_scooter", "fusion_lat": 0.0, "lat": 38.911127666666665, "lon": -77.04504183333333, "is_reserved": 0}, {"bike_id": "2427099cd9a06c6cb5faf5b5b653231c", "name": "2427099cd9a06c6cb5faf5b5b653231c", "is_disabled": 0, "fusion_lon": 0.0, "rental_uris": {"android": "https://dc.lft.to/lastmile_qr_scan", "ios": "https://dc.lft.to/lastmile_qr_scan"}, "type": "electric_scooter", "fusion_lat": 0.0, "lat": 38.878448666666664, "lon": -76.98792283333333, "is_reserved": 0}, {"bike_id": "df5b6c32c12081b07f019e9d870cfe2c", "name": "df5b6c32c12081b07f019e9d870cfe2c", "is_disabled": 0, "fusion_lon": 0.0, "rental_uris": {"android": "https://dc.lft.to/lastmile_qr_scan", "ios": "https://dc.lft.to/lastmile_qr_scan"}, "type": "electric_bike", "fusion_lat": 0.0, "lat": 38.83811683333333, "lon": -77.09521583333333, "is_reserved": 0}, {"bike_id": "66b01bba74589bbcf33bd5b120daad4d", "name": "66b01bba74589bbcf33bd5b120daad4d", "is_disabled": 0, "fusion_lon": 0.0, "rental_uris": {"android": "https://dc.lft.to/lastmile_qr_scan", "ios": "https://dc.lft.to/lastmile_qr_scan"}, "type": "electric_bike", "fusion_lat": 0.0, "lat": 38.865509833333334, "lon": -76.973537, "is_reserved": 0}, {"bike_id": "eb8c78565ee273ffa150c7378a44384c", "name": "eb8c78565ee273ffa150c7378a44384c", "is_disabled": 0, "fusion_lon": 0.0, "rental_uris": {"android": "https://dc.lft.to/lastmile_qr_scan", "ios": "https://dc.lft.to/lastmile_qr_scan"}, "type": "electric_scooter", "fusion_lat": 0.0, "lat": 38.900278166666666, "lon": -76.99863316666666, "is_reserved": 0}, {"bike_id": "631d153902f6ddfc008cf55d6169d8cf", "name": "631d153902f6ddfc008cf55d6169d8cf", "is_disabled": 0, "fusion_lon": 0.0, "rental_uris": {"android": "https://dc.lft.to/lastmile_qr_scan", "ios": "https://dc.lft.to/lastmile_qr_scan"}, "type": "electric_scooter", "fusion_lat": 0.0, "lat": 38.89736416666667, "lon": -77.04181366666667, "is_reserved": 0}, {"bike_id": "fae45b2e83715bdbdd034e0b081540c3", "name": "fae45b2e83715bdbdd034e0b081540c3", "is_disabled": 0, "fusion_lon": 0.0, "rental_uris": {"android": "https://dc.lft.to/lastmile_qr_scan", "ios": "https://dc.lft.to/lastmile_qr_scan"}, "type": "electric_scooter", "fusion_lat": 0.0, "lat": 38.917168, "lon": -77.09200016666666, "is_reserved": 0}, {"bike_id": "17d0cab4e03101f865b04b55ac307041", "name": "17d0cab4e03101f865b04b55ac307041", "is_disabled": 0, "fusion_lon": 0.0, "rental_uris": {"android": "https://dc.lft.to/lastmile_qr_scan", "ios": "https://dc.lft.to/lastmile_qr_scan"}, "type": "electric_scooter", "fusion_lat": 0.0, "lat": 38.898488666666665, "lon": -77.03927183333333, "is_reserved": 0}, {"bike_id": "b4375b213eb62badc88eebe3970f632a", "name": "b4375b213eb62badc88eebe3970f632a", "is_disabled": 0, "fusion_lon": 0.0, "rental_uris": {"android": "https://dc.lft.to/lastmile_qr_scan", "ios": "https://dc.lft.to/lastmile_qr_scan"}, "type": "electric_bike", "fusion_lat": 0.0, "lat": 38.898373666666664, "lon": -77.04309483333333, "is_reserved": 0}, {"bike_id": "80f5b11984ed6605a793a112d21c8b74", "name": "80f5b11984ed6605a793a112d21c8b74", "is_disabled": 0, "fusion_lon": 0.0, "rental_uris": {"android": "https://dc.lft.to/lastmile_qr_scan", "ios": "https://dc.lft.to/lastmile_qr_scan"}, "type": "electric_scooter", "fusion_lat": 0.0, "lat": 38.90245433333333, "lon": -77.03330166666667, "is_reserved": 0}, {"bike_id": "72b916f1ff6e3f91f5b90a38dbb83045", "name": "72b916f1ff6e3f91f5b90a38dbb83045", "is_disabled": 0, "fusion_lon": 0.0, "rental_uris": {"android": "https://dc.lft.to/lastmile_qr_scan", "ios": "https://dc.lft.to/lastmile_qr_scan"}, "type": "electric_scooter", "fusion_lat": 0.0, "lat": 38.912705833333334, "lon": -77.0382235, "is_reserved": 0}, {"bike_id": "0d0b39f0c5c825a5556a128b97af90a3", "name": "0d0b39f0c5c825a5556a128b97af90a3", "is_disabled": 0, "fusion_lon": 0.0, "rental_uris": {"android": "https://dc.lft.to/lastmile_qr_scan", "ios": "https://dc.lft.to/lastmile_qr_scan"}, "type": "electric_bike", "fusion_lat": 0.0, "lat": 38.9535735, "lon": -76.980886, "is_reserved": 0}, {"bike_id": "344a03d0e5d34d93aaf748fec61ec06a", "name": "344a03d0e5d34d93aaf748fec61ec06a", "is_disabled": 0, "fusion_lon": 0.0, "rental_uris": {"android": "https://dc.lft.to/lastmile_qr_scan", "ios": "https://dc.lft.to/lastmile_qr_scan"}, "type": "electric_scooter", "fusion_lat": 0.0, "lat": 38.88433466666667, "lon": -77.00138516666667, "is_reserved": 0}, {"bike_id": "c9fd0b810460fc46eb045667f8867c76", "name": "c9fd0b810460fc46eb045667f8867c76", "is_disabled": 0, "fusion_lon": 0.0, "rental_uris": {"android": "https://dc.lft.to/lastmile_qr_scan", "ios": "https://dc.lft.to/lastmile_qr_scan"}, "type": "electric_scooter", "fusion_lat": 0.0, "lat": 38.9224665, "lon": -77.00828233333333, "is_reserved": 0}, {"bike_id": "4be2a0abedffd137643bd9489eaa8254", "name": "4be2a0abedffd137643bd9489eaa8254", "is_disabled": 0, "fusion_lon": 0.0, "rental_uris": {"android": "https://dc.lft.to/lastmile_qr_scan", "ios": "https://dc.lft.to/lastmile_qr_scan"}, "type": "electric_scooter", "fusion_lat": 0.0, "lat": 38.9086235, "lon": -77.01835833333334, "is_reserved": 0}, {"bike_id": "1e514f47b4701bd0e007533a0f82f074", "name": "1e514f47b4701bd0e007533a0f82f074", "is_disabled": 0, "fusion_lon": 0.0, "rental_uris": {"android": "https://dc.lft.to/lastmile_qr_scan", "ios": "https://dc.lft.to/lastmile_qr_scan"}, "type": "electric_bike", "fusion_lat": 0.0, "lat": 38.886759833333336, "lon": -77.00208783333333, "is_reserved": 0}, {"bike_id": "4cbb5150f4693e66a270dbf1fa9b9191", "name": "4cbb5150f4693e66a270dbf1fa9b9191", "is_disabled": 0, "fusion_lon": 0.0, "rental_uris": {"android": "https://dc.lft.to/lastmile_qr_scan", "ios": "https://dc.lft.to/lastmile_qr_scan"}, "type": "electric_scooter", "fusion_lat": 0.0, "lat": 38.892362166666665, "lon": -77.03179833333333, "is_reserved": 0}, {"bike_id": "d641245b664efbcc4201983f32cb2a98", "name": "d641245b664efbcc4201983f32cb2a98", "is_disabled": 0, "fusion_lon": 0.0, "rental_uris": {"android": "https://dc.lft.to/lastmile_qr_scan", "ios": "https://dc.lft.to/lastmile_qr_scan"}, "type": "electric_scooter", "fusion_lat": 0.0, "lat": 38.89162266666666, "lon": -76.991487, "is_reserved": 0}, {"bike_id": "64444a531b2a7d4f2db5df03770753fd", "name": "64444a531b2a7d4f2db5df03770753fd", "is_disabled": 0, "fusion_lon": 0.0, "rental_uris": {"android": "https://dc.lft.to/lastmile_qr_scan", "ios": "https://dc.lft.to/lastmile_qr_scan"}, "type": "electric_scooter", "fusion_lat": 0.0, "lat": 38.89608033333333, "lon": -77.02213483333334, "is_reserved": 0}, {"bike_id": "446b1acc5988770ffc317fcfa9b053f1", "name": "446b1acc5988770ffc317fcfa9b053f1", "is_disabled": 0, "fusion_lon": 0.0, "rental_uris": {"android": "https://dc.lft.to/lastmile_qr_scan", "ios": "https://dc.lft.to/lastmile_qr_scan"}, "type": "electric_scooter", "fusion_lat": 0.0, "lat": 38.93269183333334, "lon": -77.0387885, "is_reserved": 0}, {"bike_id": "e1d6a4c2e7c3363dbdf47a14cea66382", "name": "e1d6a4c2e7c3363dbdf47a14cea66382", "is_disabled": 0, "fusion_lon": 0.0, "rental_uris": {"android": "https://dc.lft.to/lastmile_qr_scan", "ios": "https://dc.lft.to/lastmile_qr_scan"}, "type": "electric_scooter", "fusion_lat": 0.0, "lat": 38.914038, "lon": -77.02171983333334, "is_reserved": 0}, {"bike_id": "50ee18588d1052680f6eb3de79b68be7", "name": "50ee18588d1052680f6eb3de79b68be7", "is_disabled": 0, "fusion_lon": 0.0, "rental_uris": {"android": "https://dc.lft.to/lastmile_qr_scan", "ios": "https://dc.lft.to/lastmile_qr_scan"}, "type": "electric_scooter", "fusion_lat": 0.0, "lat": 38.896903, "lon": -77.04337666666666, "is_reserved": 0}, {"bike_id": "e4cdd9abea2b5a111b04b7d0f1374dca", "name": "e4cdd9abea2b5a111b04b7d0f1374dca", "is_disabled": 0, "fusion_lon": 0.0, "rental_uris": {"android": "https://dc.lft.to/lastmile_qr_scan", "ios": "https://dc.lft.to/lastmile_qr_scan"}, "type": "electric_scooter", "fusion_lat": 0.0, "lat": 38.93768566666667, "lon": -76.99298433333334, "is_reserved": 0}, {"bike_id": "c27f7e271b5ede60908ead405f3edce2", "name": "c27f7e271b5ede60908ead405f3edce2", "is_disabled": 0, "fusion_lon": 0.0, "rental_uris": {"android": "https://dc.lft.to/lastmile_qr_scan", "ios": "https://dc.lft.to/lastmile_qr_scan"}, "type": "electric_scooter", "fusion_lat": 0.0, "lat": 38.923836, "lon": -77.02662633333334, "is_reserved": 0}, {"bike_id": "497f152e87a136f7226c3f207b85fbeb", "name": "497f152e87a136f7226c3f207b85fbeb", "is_disabled": 0, "fusion_lon": 0.0, "rental_uris": {"android": "https://dc.lft.to/lastmile_qr_scan", "ios": "https://dc.lft.to/lastmile_qr_scan"}, "type": "electric_scooter", "fusion_lat": 0.0, "lat": 38.949830166666665, "lon": -77.08022833333334, "is_reserved": 0}, {"bike_id": "1b8d63db747a193762104a52ed3be387", "name": "1b8d63db747a193762104a52ed3be387", "is_disabled": 0, "fusion_lon": 0.0, "rental_uris": {"android": "https://dc.lft.to/lastmile_qr_scan", "ios": "https://dc.lft.to/lastmile_qr_scan"}, "type": "electric_bike", "fusion_lat": 0.0, "lat": 38.94513116666667, "lon": -77.006727, "is_reserved": 0}, {"bike_id": "e15fc839c99bbeada91cfc5cefe74550", "name": "e15fc839c99bbeada91cfc5cefe74550", "is_disabled": 0, "fusion_lon": 0.0, "rental_uris": {"android": "https://dc.lft.to/lastmile_qr_scan", "ios": "https://dc.lft.to/lastmile_qr_scan"}, "type": "electric_bike", "fusion_lat": 0.0, "lat": 38.91272633333333, "lon": -76.98470466666667, "is_reserved": 0}, {"bike_id": "a0485508632f0ca309d126f6b768e231", "name": "a0485508632f0ca309d126f6b768e231", "is_disabled": 0, "fusion_lon": 0.0, "rental_uris": {"android": "https://dc.lft.to/lastmile_qr_scan", "ios": "https://dc.lft.to/lastmile_qr_scan"}, "type": "electric_scooter", "fusion_lat": 0.0, "lat": 38.899119666666664, "lon": -76.93388083333333, "is_reserved": 0}, {"bike_id": "f2d927ea8d1cad4558797e811a590613", "name": "f2d927ea8d1cad4558797e811a590613", "is_disabled": 0, "fusion_lon": 0.0, "rental_uris": {"android": "https://dc.lft.to/lastmile_qr_scan", "ios": "https://dc.lft.to/lastmile_qr_scan"}, "type": "electric_scooter", "fusion_lat": 0.0, "lat": 38.907465, "lon": -77.04153383333333, "is_reserved": 0}, {"bike_id": "e3ecc89a4469d8dda9260dd2cfdda030", "name": "e3ecc89a4469d8dda9260dd2cfdda030", "is_disabled": 0, "fusion_lon": 0.0, "rental_uris": {"android": "https://dc.lft.to/lastmile_qr_scan", "ios": "https://dc.lft.to/lastmile_qr_scan"}, "type": "electric_scooter", "fusion_lat": 0.0, "lat": 38.92151716666667, "lon": -77.04233316666667, "is_reserved": 0}, {"bike_id": "9e7a94ffd10192459c360309c28bdfc8", "name": "9e7a94ffd10192459c360309c28bdfc8", "is_disabled": 0, "fusion_lon": 0.0, "rental_uris": {"android": "https://dc.lft.to/lastmile_qr_scan", "ios": "https://dc.lft.to/lastmile_qr_scan"}, "type": "electric_bike", "fusion_lat": 0.0, "lat": 38.83935116666667, "lon": -77.078989, "is_reserved": 0}, {"bike_id": "8c0c2870b74d97e7ffc90de63e8c3a7d", "name": "8c0c2870b74d97e7ffc90de63e8c3a7d", "is_disabled": 0, "fusion_lon": 0.0, "rental_uris": {"android": "https://dc.lft.to/lastmile_qr_scan", "ios": "https://dc.lft.to/lastmile_qr_scan"}, "type": "electric_scooter", "fusion_lat": 0.0, "lat": 38.915366, "lon": -77.03200183333334, "is_reserved": 0}, {"bike_id": "4bd021153b47eea9bb4b553557ce7078", "name": "4bd021153b47eea9bb4b553557ce7078", "is_disabled": 0, "fusion_lon": 0.0, "rental_uris": {"android": "https://dc.lft.to/lastmile_qr_scan", "ios": "https://dc.lft.to/lastmile_qr_scan"}, "type": "electric_scooter", "fusion_lat": 0.0, "lat": 38.89926833333333, "lon": -77.04158933333333, "is_reserved": 0}, {"bike_id": "f6f9d3a19e3634041a940a39c165d313", "name": "f6f9d3a19e3634041a940a39c165d313", "is_disabled": 0, "fusion_lon": 0.0, "rental_uris": {"android": "https://dc.lft.to/lastmile_qr_scan", "ios": "https://dc.lft.to/lastmile_qr_scan"}, "type": "electric_scooter", "fusion_lat": 0.0, "lat": 38.89357016666666, "lon": -77.04473433333334, "is_reserved": 0}, {"bike_id": "f6ad310dea599f8bb9f15e78f60d2a9e", "name": "f6ad310dea599f8bb9f15e78f60d2a9e", "is_disabled": 0, "fusion_lon": 0.0, "rental_uris": {"android": "https://dc.lft.to/lastmile_qr_scan", "ios": "https://dc.lft.to/lastmile_qr_scan"}, "type": "electric_scooter", "fusion_lat": 0.0, "lat": 38.9190805, "lon": -77.02048983333333, "is_reserved": 0}, {"bike_id": "b55b7557dd287ee7ac8f9da1f2edb9b6", "name": "b55b7557dd287ee7ac8f9da1f2edb9b6", "is_disabled": 0, "fusion_lon": 0.0, "rental_uris": {"android": "https://dc.lft.to/lastmile_qr_scan", "ios": "https://dc.lft.to/lastmile_qr_scan"}, "type": "electric_bike", "fusion_lat": 0.0, "lat": 38.856101333333335, "lon": -76.97263316666667, "is_reserved": 0}, {"bike_id": "dde5af0d422aab422c4feadf3f472c2b", "name": "dde5af0d422aab422c4feadf3f472c2b", "is_disabled": 0, "fusion_lon": 0.0, "rental_uris": {"android": "https://dc.lft.to/lastmile_qr_scan", "ios": "https://dc.lft.to/lastmile_qr_scan"}, "type": "electric_scooter", "fusion_lat": 0.0, "lat": 38.90784333333333, "lon": -77.04508983333334, "is_reserved": 0}, {"bike_id": "fc8261987a84609d26795b108671d44f", "name": "fc8261987a84609d26795b108671d44f", "is_disabled": 0, "fusion_lon": 0.0, "rental_uris": {"android": "https://dc.lft.to/lastmile_qr_scan", "ios": "https://dc.lft.to/lastmile_qr_scan"}, "type": "electric_scooter", "fusion_lat": 0.0, "lat": 38.90234866666667, "lon": -77.01461433333333, "is_reserved": 0}, {"bike_id": "73961422ea7d51038027e5a34d4fed20", "name": "73961422ea7d51038027e5a34d4fed20", "is_disabled": 0, "fusion_lon": 0.0, "rental_uris": {"android": "https://dc.lft.to/lastmile_qr_scan", "ios": "https://dc.lft.to/lastmile_qr_scan"}, "type": "electric_scooter", "fusion_lat": 0.0, "lat": 38.8990595, "lon": -77.0390865, "is_reserved": 0}, {"bike_id": "8ac44690200989bd1fe8e8076e6e8369", "name": "8ac44690200989bd1fe8e8076e6e8369", "is_disabled": 0, "fusion_lon": 0.0, "rental_uris": {"android": "https://dc.lft.to/lastmile_qr_scan", "ios": "https://dc.lft.to/lastmile_qr_scan"}, "type": "electric_scooter", "fusion_lat": 0.0, "lat": 38.881246166666664, "lon": -77.01870883333333, "is_reserved": 0}, {"bike_id": "1a722b079f4a69b27629ebf945be621b", "name": "1a722b079f4a69b27629ebf945be621b", "is_disabled": 0, "fusion_lon": 0.0, "rental_uris": {"android": "https://dc.lft.to/lastmile_qr_scan", "ios": "https://dc.lft.to/lastmile_qr_scan"}, "type": "electric_scooter", "fusion_lat": 0.0, "lat": 38.907331, "lon": -77.01838783333334, "is_reserved": 0}, {"bike_id": "fd025cb91ab4392c3bb9a4016ffa509e", "name": "fd025cb91ab4392c3bb9a4016ffa509e", "is_disabled": 0, "fusion_lon": 0.0, "rental_uris": {"android": "https://dc.lft.to/lastmile_qr_scan", "ios": "https://dc.lft.to/lastmile_qr_scan"}, "type": "electric_scooter", "fusion_lat": 0.0, "lat": 38.892296, "lon": -77.0499595, "is_reserved": 0}, {"bike_id": "0b47f6de4a75dcb71bff6a83de4cacdc", "name": "0b47f6de4a75dcb71bff6a83de4cacdc", "is_disabled": 0, "fusion_lon": 0.0, "rental_uris": {"android": "https://dc.lft.to/lastmile_qr_scan", "ios": "https://dc.lft.to/lastmile_qr_scan"}, "type": "electric_scooter", "fusion_lat": 0.0, "lat": 38.8765685, "lon": -77.00310683333333, "is_reserved": 0}, {"bike_id": "255de96ed1bff3497de3b75d619aa729", "name": "255de96ed1bff3497de3b75d619aa729", "is_disabled": 0, "fusion_lon": 0.0, "rental_uris": {"android": "https://dc.lft.to/lastmile_qr_scan", "ios": "https://dc.lft.to/lastmile_qr_scan"}, "type": "electric_scooter", "fusion_lat": 0.0, "lat": 38.89970866666667, "lon": -77.00866583333334, "is_reserved": 0}, {"bike_id": "e3591de36f55571a7de96fb71a326084", "name": "e3591de36f55571a7de96fb71a326084", "is_disabled": 0, "fusion_lon": 0.0, "rental_uris": {"android": "https://dc.lft.to/lastmile_qr_scan", "ios": "https://dc.lft.to/lastmile_qr_scan"}, "type": "electric_scooter", "fusion_lat": 0.0, "lat": 38.9027015, "lon": -77.03030766666667, "is_reserved": 0}, {"bike_id": "dd74b699eeb0e62381d781aeec634921", "name": "dd74b699eeb0e62381d781aeec634921", "is_disabled": 0, "fusion_lon": 0.0, "rental_uris": {"android": "https://dc.lft.to/lastmile_qr_scan", "ios": "https://dc.lft.to/lastmile_qr_scan"}, "type": "electric_scooter", "fusion_lat": 0.0, "lat": 38.91992533333333, "lon": -77.020625, "is_reserved": 0}, {"bike_id": "c8abd7d51efdedd480f90f9f971c5f6b", "name": "c8abd7d51efdedd480f90f9f971c5f6b", "is_disabled": 0, "fusion_lon": 0.0, "rental_uris": {"android": "https://dc.lft.to/lastmile_qr_scan", "ios": "https://dc.lft.to/lastmile_qr_scan"}, "type": "electric_scooter", "fusion_lat": 0.0, "lat": 38.872163, "lon": -77.00578166666666, "is_reserved": 0}, {"bike_id": "ae778eadbd13bb13bc4bbb653e7f93a6", "name": "ae778eadbd13bb13bc4bbb653e7f93a6", "is_disabled": 0, "fusion_lon": 0.0, "rental_uris": {"android": "https://dc.lft.to/lastmile_qr_scan", "ios": "https://dc.lft.to/lastmile_qr_scan"}, "type": "electric_scooter", "fusion_lat": 0.0, "lat": 38.937377166666664, "lon": -77.08501233333334, "is_reserved": 0}, {"bike_id": "65a743f2e19f20c0b5a46fce8183abd1", "name": "65a743f2e19f20c0b5a46fce8183abd1", "is_disabled": 0, "fusion_lon": 0.0, "rental_uris": {"android": "https://dc.lft.to/lastmile_qr_scan", "ios": "https://dc.lft.to/lastmile_qr_scan"}, "type": "electric_scooter", "fusion_lat": 0.0, "lat": 38.914278833333334, "lon": -77.046338, "is_reserved": 0}, {"bike_id": "89c52973fad946ceecbe83ba0f1d37ee", "name": "89c52973fad946ceecbe83ba0f1d37ee", "is_disabled": 0, "fusion_lon": 0.0, "rental_uris": {"android": "https://dc.lft.to/lastmile_qr_scan", "ios": "https://dc.lft.to/lastmile_qr_scan"}, "type": "electric_scooter", "fusion_lat": 0.0, "lat": 38.900631833333335, "lon": -77.04748316666667, "is_reserved": 0}, {"bike_id": "af0825171340ecc04d81e0e0372e8adb", "name": "af0825171340ecc04d81e0e0372e8adb", "is_disabled": 0, "fusion_lon": 0.0, "rental_uris": {"android": "https://dc.lft.to/lastmile_qr_scan", "ios": "https://dc.lft.to/lastmile_qr_scan"}, "type": "electric_scooter", "fusion_lat": 0.0, "lat": 38.904124333333336, "lon": -76.99283416666667, "is_reserved": 0}, {"bike_id": "8e4368a3f3c5a0dc97c6f949079d8da9", "name": "8e4368a3f3c5a0dc97c6f949079d8da9", "is_disabled": 0, "fusion_lon": 0.0, "rental_uris": {"android": "https://dc.lft.to/lastmile_qr_scan", "ios": "https://dc.lft.to/lastmile_qr_scan"}, "type": "electric_scooter", "fusion_lat": 0.0, "lat": 38.92164283333334, "lon": -77.033812, "is_reserved": 0}, {"bike_id": "c18598cf0cdbb12500f934fc92d5927e", "name": "c18598cf0cdbb12500f934fc92d5927e", "is_disabled": 0, "fusion_lon": 0.0, "rental_uris": {"android": "https://dc.lft.to/lastmile_qr_scan", "ios": "https://dc.lft.to/lastmile_qr_scan"}, "type": "electric_scooter", "fusion_lat": 0.0, "lat": 38.904065333333335, "lon": -77.03824566666667, "is_reserved": 0}, {"bike_id": "8353a6a283a2069d8d569ab1e4bb3fc3", "name": "8353a6a283a2069d8d569ab1e4bb3fc3", "is_disabled": 0, "fusion_lon": 0.0, "rental_uris": {"android": "https://dc.lft.to/lastmile_qr_scan", "ios": "https://dc.lft.to/lastmile_qr_scan"}, "type": "electric_scooter", "fusion_lat": 0.0, "lat": 38.91543983333333, "lon": -77.01270166666667, "is_reserved": 0}, {"bike_id": "20f61db43e000d947356ae1616622b81", "name": "20f61db43e000d947356ae1616622b81", "is_disabled": 0, "fusion_lon": 0.0, "rental_uris": {"android": "https://dc.lft.to/lastmile_qr_scan", "ios": "https://dc.lft.to/lastmile_qr_scan"}, "type": "electric_scooter", "fusion_lat": 0.0, "lat": 38.92250666666666, "lon": -77.01942916666667, "is_reserved": 0}, {"bike_id": "f7b71efd8b6ead48cbcd9acb94f93740", "name": "f7b71efd8b6ead48cbcd9acb94f93740", "is_disabled": 0, "fusion_lon": 0.0, "rental_uris": {"android": "https://dc.lft.to/lastmile_qr_scan", "ios": "https://dc.lft.to/lastmile_qr_scan"}, "type": "electric_scooter", "fusion_lat": 0.0, "lat": 38.903964, "lon": -77.06510283333333, "is_reserved": 0}, {"bike_id": "6c993e6a395eb5dc0db6879b010efd1c", "name": "6c993e6a395eb5dc0db6879b010efd1c", "is_disabled": 0, "fusion_lon": 0.0, "rental_uris": {"android": "https://dc.lft.to/lastmile_qr_scan", "ios": "https://dc.lft.to/lastmile_qr_scan"}, "type": "electric_scooter", "fusion_lat": 0.0, "lat": 38.944922166666665, "lon": -77.02339283333333, "is_reserved": 0}, {"bike_id": "a821ac06ff8bfad1232533d8bad39ad9", "name": "a821ac06ff8bfad1232533d8bad39ad9", "is_disabled": 0, "fusion_lon": 0.0, "rental_uris": {"android": "https://dc.lft.to/lastmile_qr_scan", "ios": "https://dc.lft.to/lastmile_qr_scan"}, "type": "electric_scooter", "fusion_lat": 0.0, "lat": 38.8952555, "lon": -77.00203, "is_reserved": 0}, {"bike_id": "dbe3c10fe731102403cc080e12323a11", "name": "dbe3c10fe731102403cc080e12323a11", "is_disabled": 0, "fusion_lon": 0.0, "rental_uris": {"android": "https://dc.lft.to/lastmile_qr_scan", "ios": "https://dc.lft.to/lastmile_qr_scan"}, "type": "electric_scooter", "fusion_lat": 0.0, "lat": 38.884791, "lon": -77.03345516666667, "is_reserved": 0}, {"bike_id": "643ffe93e3fb510e58550433fddad6ac", "name": "643ffe93e3fb510e58550433fddad6ac", "is_disabled": 0, "fusion_lon": 0.0, "rental_uris": {"android": "https://dc.lft.to/lastmile_qr_scan", "ios": "https://dc.lft.to/lastmile_qr_scan"}, "type": "electric_scooter", "fusion_lat": 0.0, "lat": 38.88889866666667, "lon": -77.03319, "is_reserved": 0}, {"bike_id": "96779d172c8b0ae4c0b25aea36ecde8a", "name": "96779d172c8b0ae4c0b25aea36ecde8a", "is_disabled": 0, "fusion_lon": 0.0, "rental_uris": {"android": "https://dc.lft.to/lastmile_qr_scan", "ios": "https://dc.lft.to/lastmile_qr_scan"}, "type": "electric_scooter", "fusion_lat": 0.0, "lat": 38.9235055, "lon": -77.03288416666666, "is_reserved": 0}, {"bike_id": "0687e16734a9331833efa0ff1c027a21", "name": "0687e16734a9331833efa0ff1c027a21", "is_disabled": 0, "fusion_lon": 0.0, "rental_uris": {"android": "https://dc.lft.to/lastmile_qr_scan", "ios": "https://dc.lft.to/lastmile_qr_scan"}, "type": "electric_scooter", "fusion_lat": 0.0, "lat": 38.92394183333333, "lon": -77.02126333333334, "is_reserved": 0}, {"bike_id": "8e50309e25d89b1c986bf20833b2c32f", "name": "8e50309e25d89b1c986bf20833b2c32f", "is_disabled": 0, "fusion_lon": 0.0, "rental_uris": {"android": "https://dc.lft.to/lastmile_qr_scan", "ios": "https://dc.lft.to/lastmile_qr_scan"}, "type": "electric_scooter", "fusion_lat": 0.0, "lat": 38.903801333333334, "lon": -77.03200916666667, "is_reserved": 0}, {"bike_id": "cbe5caa0bef4c692fe75806899ca4f18", "name": "cbe5caa0bef4c692fe75806899ca4f18", "is_disabled": 0, "fusion_lon": 0.0, "rental_uris": {"android": "https://dc.lft.to/lastmile_qr_scan", "ios": "https://dc.lft.to/lastmile_qr_scan"}, "type": "electric_scooter", "fusion_lat": 0.0, "lat": 38.92034566666667, "lon": -76.97803566666667, "is_reserved": 0}, {"bike_id": "f84170101a62d3032e4f6f78114ec3cf", "name": "f84170101a62d3032e4f6f78114ec3cf", "is_disabled": 0, "fusion_lon": 0.0, "rental_uris": {"android": "https://dc.lft.to/lastmile_qr_scan", "ios": "https://dc.lft.to/lastmile_qr_scan"}, "type": "electric_scooter", "fusion_lat": 0.0, "lat": 38.9001, "lon": -77.012293, "is_reserved": 0}, {"bike_id": "3a01a58a897ac69cc38c47db0a89f15c", "name": "3a01a58a897ac69cc38c47db0a89f15c", "is_disabled": 0, "fusion_lon": 0.0, "rental_uris": {"android": "https://dc.lft.to/lastmile_qr_scan", "ios": "https://dc.lft.to/lastmile_qr_scan"}, "type": "electric_bike", "fusion_lat": 0.0, "lat": 38.985056, "lon": -76.98201266666666, "is_reserved": 0}, {"bike_id": "1b4a52a70ad7cb33c9f93a4cef7dffc4", "name": "1b4a52a70ad7cb33c9f93a4cef7dffc4", "is_disabled": 0, "fusion_lon": 0.0, "rental_uris": {"android": "https://dc.lft.to/lastmile_qr_scan", "ios": "https://dc.lft.to/lastmile_qr_scan"}, "type": "electric_scooter", "fusion_lat": 0.0, "lat": 38.9261325, "lon": -77.02157766666667, "is_reserved": 0}, {"bike_id": "c018a866015d3727d93c104990e200bb", "name": "c018a866015d3727d93c104990e200bb", "is_disabled": 0, "fusion_lon": 0.0, "rental_uris": {"android": "https://dc.lft.to/lastmile_qr_scan", "ios": "https://dc.lft.to/lastmile_qr_scan"}, "type": "electric_scooter", "fusion_lat": 0.0, "lat": 38.940743499999996, "lon": -77.0017335, "is_reserved": 0}, {"bike_id": "f3e50e1bc6d66814d488574c174006ba", "name": "f3e50e1bc6d66814d488574c174006ba", "is_disabled": 0, "fusion_lon": 0.0, "rental_uris": {"android": "https://dc.lft.to/lastmile_qr_scan", "ios": "https://dc.lft.to/lastmile_qr_scan"}, "type": "electric_scooter", "fusion_lat": 0.0, "lat": 38.902281333333335, "lon": -77.01495366666667, "is_reserved": 0}, {"bike_id": "7ab631d20fc1155fc01b6d983889ca83", "name": "7ab631d20fc1155fc01b6d983889ca83", "is_disabled": 0, "fusion_lon": 0.0, "rental_uris": {"android": "https://dc.lft.to/lastmile_qr_scan", "ios": "https://dc.lft.to/lastmile_qr_scan"}, "type": "electric_scooter", "fusion_lat": 0.0, "lat": 38.937357166666665, "lon": -77.0327465, "is_reserved": 0}, {"bike_id": "fc986fb8e46586ebc2c1d75306fcb7a6", "name": "fc986fb8e46586ebc2c1d75306fcb7a6", "is_disabled": 0, "fusion_lon": 0.0, "rental_uris": {"android": "https://dc.lft.to/lastmile_qr_scan", "ios": "https://dc.lft.to/lastmile_qr_scan"}, "type": "electric_bike", "fusion_lat": 0.0, "lat": 38.909975833333334, "lon": -76.984176, "is_reserved": 0}, {"bike_id": "ae10056d67a2d4501ab5d9708ace57b2", "name": "ae10056d67a2d4501ab5d9708ace57b2", "is_disabled": 0, "fusion_lon": 0.0, "rental_uris": {"android": "https://dc.lft.to/lastmile_qr_scan", "ios": "https://dc.lft.to/lastmile_qr_scan"}, "type": "electric_scooter", "fusion_lat": 0.0, "lat": 38.8792835, "lon": -77.01555483333334, "is_reserved": 0}, {"bike_id": "0c5fe5085f3a0a79b439c744bac16f72", "name": "0c5fe5085f3a0a79b439c744bac16f72", "is_disabled": 0, "fusion_lon": 0.0, "rental_uris": {"android": "https://dc.lft.to/lastmile_qr_scan", "ios": "https://dc.lft.to/lastmile_qr_scan"}, "type": "electric_bike", "fusion_lat": 0.0, "lat": 38.882461166666666, "lon": -76.9625715, "is_reserved": 0}, {"bike_id": "48ac69dce581d24e4ea14ae768a90c52", "name": "48ac69dce581d24e4ea14ae768a90c52", "is_disabled": 0, "fusion_lon": 0.0, "rental_uris": {"android": "https://dc.lft.to/lastmile_qr_scan", "ios": "https://dc.lft.to/lastmile_qr_scan"}, "type": "electric_bike", "fusion_lat": 0.0, "lat": 38.9949675, "lon": -77.00133016666666, "is_reserved": 0}, {"bike_id": "f92bfe99e8c1882dac6d9c156cbd7a89", "name": "f92bfe99e8c1882dac6d9c156cbd7a89", "is_disabled": 0, "fusion_lon": 0.0, "rental_uris": {"android": "https://dc.lft.to/lastmile_qr_scan", "ios": "https://dc.lft.to/lastmile_qr_scan"}, "type": "electric_scooter", "fusion_lat": 0.0, "lat": 38.92200183333333, "lon": -77.01846866666666, "is_reserved": 0}, {"bike_id": "2f374698acad95f5a6d3fbc8f72c02c8", "name": "2f374698acad95f5a6d3fbc8f72c02c8", "is_disabled": 0, "fusion_lon": 0.0, "rental_uris": {"android": "https://dc.lft.to/lastmile_qr_scan", "ios": "https://dc.lft.to/lastmile_qr_scan"}, "type": "electric_scooter", "fusion_lat": 0.0, "lat": 38.89739466666666, "lon": -77.0465135, "is_reserved": 0}, {"bike_id": "0c0809eec30eab1f370b850491c2d750", "name": "0c0809eec30eab1f370b850491c2d750", "is_disabled": 0, "fusion_lon": 0.0, "rental_uris": {"android": "https://dc.lft.to/lastmile_qr_scan", "ios": "https://dc.lft.to/lastmile_qr_scan"}, "type": "electric_scooter", "fusion_lat": 0.0, "lat": 38.9171425, "lon": -77.03345683333333, "is_reserved": 0}, {"bike_id": "40c290f002f51d5cc6b69fc099aacfae", "name": "40c290f002f51d5cc6b69fc099aacfae", "is_disabled": 0, "fusion_lon": 0.0, "rental_uris": {"android": "https://dc.lft.to/lastmile_qr_scan", "ios": "https://dc.lft.to/lastmile_qr_scan"}, "type": "electric_scooter", "fusion_lat": 0.0, "lat": 38.87544666666667, "lon": -77.005298, "is_reserved": 0}, {"bike_id": "e86be191014ee3892c42b1d0ee4d3b25", "name": "e86be191014ee3892c42b1d0ee4d3b25", "is_disabled": 0, "fusion_lon": 0.0, "rental_uris": {"android": "https://dc.lft.to/lastmile_qr_scan", "ios": "https://dc.lft.to/lastmile_qr_scan"}, "type": "electric_scooter", "fusion_lat": 0.0, "lat": 38.90011283333333, "lon": -76.98930166666666, "is_reserved": 0}, {"bike_id": "0db1c58c175fe88a683346e8592219ad", "name": "0db1c58c175fe88a683346e8592219ad", "is_disabled": 0, "fusion_lon": 0.0, "rental_uris": {"android": "https://dc.lft.to/lastmile_qr_scan", "ios": "https://dc.lft.to/lastmile_qr_scan"}, "type": "electric_scooter", "fusion_lat": 0.0, "lat": 38.9025045, "lon": -77.03340166666666, "is_reserved": 0}, {"bike_id": "fb586309347c697c6d1206d1b3b4ce31", "name": "fb586309347c697c6d1206d1b3b4ce31", "is_disabled": 0, "fusion_lon": 0.0, "rental_uris": {"android": "https://dc.lft.to/lastmile_qr_scan", "ios": "https://dc.lft.to/lastmile_qr_scan"}, "type": "electric_scooter", "fusion_lat": 0.0, "lat": 38.916282, "lon": -77.0216035, "is_reserved": 0}, {"bike_id": "2d6fa5085e0c6a8d8c56c6924be5cbf5", "name": "2d6fa5085e0c6a8d8c56c6924be5cbf5", "is_disabled": 0, "fusion_lon": 0.0, "rental_uris": {"android": "https://dc.lft.to/lastmile_qr_scan", "ios": "https://dc.lft.to/lastmile_qr_scan"}, "type": "electric_scooter", "fusion_lat": 0.0, "lat": 38.900291333333335, "lon": -76.98856133333334, "is_reserved": 0}, {"bike_id": "95decf8c1f3c005b9ca187169e65e70f", "name": "95decf8c1f3c005b9ca187169e65e70f", "is_disabled": 0, "fusion_lon": 0.0, "rental_uris": {"android": "https://dc.lft.to/lastmile_qr_scan", "ios": "https://dc.lft.to/lastmile_qr_scan"}, "type": "electric_scooter", "fusion_lat": 0.0, "lat": 38.92426316666667, "lon": -77.02139583333333, "is_reserved": 0}, {"bike_id": "a02d8c57b9b4ff9a246c24f6fe90c358", "name": "a02d8c57b9b4ff9a246c24f6fe90c358", "is_disabled": 0, "fusion_lon": 0.0, "rental_uris": {"android": "https://dc.lft.to/lastmile_qr_scan", "ios": "https://dc.lft.to/lastmile_qr_scan"}, "type": "electric_scooter", "fusion_lat": 0.0, "lat": 38.924549666666664, "lon": -77.021582, "is_reserved": 0}, {"bike_id": "a9455f5f1fdd5cde13c6dce6d147a336", "name": "a9455f5f1fdd5cde13c6dce6d147a336", "is_disabled": 0, "fusion_lon": 0.0, "rental_uris": {"android": "https://dc.lft.to/lastmile_qr_scan", "ios": "https://dc.lft.to/lastmile_qr_scan"}, "type": "electric_scooter", "fusion_lat": 0.0, "lat": 38.8633155, "lon": -76.99113, "is_reserved": 0}, {"bike_id": "31a1a8a94946160db979405c6ac05aaf", "name": "31a1a8a94946160db979405c6ac05aaf", "is_disabled": 0, "fusion_lon": 0.0, "rental_uris": {"android": "https://dc.lft.to/lastmile_qr_scan", "ios": "https://dc.lft.to/lastmile_qr_scan"}, "type": "electric_bike", "fusion_lat": 0.0, "lat": 38.92978816666667, "lon": -76.98604666666667, "is_reserved": 0}, {"bike_id": "e4faac8b8f9f3ee538a9150627d09a12", "name": "e4faac8b8f9f3ee538a9150627d09a12", "is_disabled": 0, "fusion_lon": 0.0, "rental_uris": {"android": "https://dc.lft.to/lastmile_qr_scan", "ios": "https://dc.lft.to/lastmile_qr_scan"}, "type": "electric_scooter", "fusion_lat": 0.0, "lat": 38.90061583333333, "lon": -76.99612216666667, "is_reserved": 0}, {"bike_id": "93a86129053b10bb876ed711be973ea2", "name": "93a86129053b10bb876ed711be973ea2", "is_disabled": 0, "fusion_lon": 0.0, "rental_uris": {"android": "https://dc.lft.to/lastmile_qr_scan", "ios": "https://dc.lft.to/lastmile_qr_scan"}, "type": "electric_scooter", "fusion_lat": 0.0, "lat": 38.9263925, "lon": -77.021709, "is_reserved": 0}, {"bike_id": "ff5e2e9f7a07923c6dce7defd3d7bbbf", "name": "ff5e2e9f7a07923c6dce7defd3d7bbbf", "is_disabled": 0, "fusion_lon": 0.0, "rental_uris": {"android": "https://dc.lft.to/lastmile_qr_scan", "ios": "https://dc.lft.to/lastmile_qr_scan"}, "type": "electric_scooter", "fusion_lat": 0.0, "lat": 38.905771, "lon": -77.02177933333333, "is_reserved": 0}, {"bike_id": "9026275edaa2900c51b347672a770654", "name": "9026275edaa2900c51b347672a770654", "is_disabled": 0, "fusion_lon": 0.0, "rental_uris": {"android": "https://dc.lft.to/lastmile_qr_scan", "ios": "https://dc.lft.to/lastmile_qr_scan"}, "type": "electric_scooter", "fusion_lat": 0.0, "lat": 38.892512833333335, "lon": -77.04651633333333, "is_reserved": 0}, {"bike_id": "5aafdda18c38e48cad6d7b5550b434d4", "name": "5aafdda18c38e48cad6d7b5550b434d4", "is_disabled": 0, "fusion_lon": 0.0, "rental_uris": {"android": "https://dc.lft.to/lastmile_qr_scan", "ios": "https://dc.lft.to/lastmile_qr_scan"}, "type": "electric_scooter", "fusion_lat": 0.0, "lat": 38.91114266666666, "lon": -77.00606316666666, "is_reserved": 0}, {"bike_id": "349a2544b060e8cd86a8eef7de507ed7", "name": "349a2544b060e8cd86a8eef7de507ed7", "is_disabled": 0, "fusion_lon": 0.0, "rental_uris": {"android": "https://dc.lft.to/lastmile_qr_scan", "ios": "https://dc.lft.to/lastmile_qr_scan"}, "type": "electric_scooter", "fusion_lat": 0.0, "lat": 38.910331, "lon": -76.99341666666666, "is_reserved": 0}, {"bike_id": "0b67b6111e7ce4c633b75e8dc1591cdf", "name": "0b67b6111e7ce4c633b75e8dc1591cdf", "is_disabled": 0, "fusion_lon": 0.0, "rental_uris": {"android": "https://dc.lft.to/lastmile_qr_scan", "ios": "https://dc.lft.to/lastmile_qr_scan"}, "type": "electric_scooter", "fusion_lat": 0.0, "lat": 38.88855916666667, "lon": -76.93708166666667, "is_reserved": 0}, {"bike_id": "51a7c289c8298a271b80b4698cfea471", "name": "51a7c289c8298a271b80b4698cfea471", "is_disabled": 0, "fusion_lon": 0.0, "rental_uris": {"android": "https://dc.lft.to/lastmile_qr_scan", "ios": "https://dc.lft.to/lastmile_qr_scan"}, "type": "electric_scooter", "fusion_lat": 0.0, "lat": 38.89964833333333, "lon": -77.0472135, "is_reserved": 0}, {"bike_id": "3990607a74b84f79c2bd00d0a94c513a", "name": "3990607a74b84f79c2bd00d0a94c513a", "is_disabled": 0, "fusion_lon": 0.0, "rental_uris": {"android": "https://dc.lft.to/lastmile_qr_scan", "ios": "https://dc.lft.to/lastmile_qr_scan"}, "type": "electric_scooter", "fusion_lat": 0.0, "lat": 38.923686000000004, "lon": -77.019446, "is_reserved": 0}, {"bike_id": "d99af42509a2b3308be6d85a3214f1a9", "name": "d99af42509a2b3308be6d85a3214f1a9", "is_disabled": 0, "fusion_lon": 0.0, "rental_uris": {"android": "https://dc.lft.to/lastmile_qr_scan", "ios": "https://dc.lft.to/lastmile_qr_scan"}, "type": "electric_scooter", "fusion_lat": 0.0, "lat": 38.91016466666667, "lon": -77.044464, "is_reserved": 0}, {"bike_id": "2357f04532b64a567b650a37cc752975", "name": "2357f04532b64a567b650a37cc752975", "is_disabled": 0, "fusion_lon": 0.0, "rental_uris": {"android": "https://dc.lft.to/lastmile_qr_scan", "ios": "https://dc.lft.to/lastmile_qr_scan"}, "type": "electric_bike", "fusion_lat": 0.0, "lat": 39.010782666666664, "lon": -76.910618, "is_reserved": 0}, {"bike_id": "281081ac5647a18f2f77401130eb87c6", "name": "281081ac5647a18f2f77401130eb87c6", "is_disabled": 0, "fusion_lon": 0.0, "rental_uris": {"android": "https://dc.lft.to/lastmile_qr_scan", "ios": "https://dc.lft.to/lastmile_qr_scan"}, "type": "electric_scooter", "fusion_lat": 0.0, "lat": 38.910474, "lon": -77.04354316666667, "is_reserved": 0}, {"bike_id": "3efc32de5b8ebf26a9826c242b5eea1a", "name": "3efc32de5b8ebf26a9826c242b5eea1a", "is_disabled": 0, "fusion_lon": 0.0, "rental_uris": {"android": "https://dc.lft.to/lastmile_qr_scan", "ios": "https://dc.lft.to/lastmile_qr_scan"}, "type": "electric_scooter", "fusion_lat": 0.0, "lat": 38.87546116666667, "lon": -77.00532516666667, "is_reserved": 0}, {"bike_id": "674a6c6d4d5709943f8d15643cc50021", "name": "674a6c6d4d5709943f8d15643cc50021", "is_disabled": 0, "fusion_lon": 0.0, "rental_uris": {"android": "https://dc.lft.to/lastmile_qr_scan", "ios": "https://dc.lft.to/lastmile_qr_scan"}, "type": "electric_scooter", "fusion_lat": 0.0, "lat": 38.921086333333335, "lon": -77.02043266666666, "is_reserved": 0}, {"bike_id": "4ef25b4e6d46b2ae336f10e9257101d8", "name": "4ef25b4e6d46b2ae336f10e9257101d8", "is_disabled": 0, "fusion_lon": 0.0, "rental_uris": {"android": "https://dc.lft.to/lastmile_qr_scan", "ios": "https://dc.lft.to/lastmile_qr_scan"}, "type": "electric_scooter", "fusion_lat": 0.0, "lat": 38.89762283333334, "lon": -77.02076883333334, "is_reserved": 0}, {"bike_id": "fce39983a854323b8c87700d1eacbf5f", "name": "fce39983a854323b8c87700d1eacbf5f", "is_disabled": 0, "fusion_lon": 0.0, "rental_uris": {"android": "https://dc.lft.to/lastmile_qr_scan", "ios": "https://dc.lft.to/lastmile_qr_scan"}, "type": "electric_scooter", "fusion_lat": 0.0, "lat": 38.923500833333335, "lon": -77.0348025, "is_reserved": 0}, {"bike_id": "39c871daf5855d17ab3867f3b7ede0c5", "name": "39c871daf5855d17ab3867f3b7ede0c5", "is_disabled": 0, "fusion_lon": 0.0, "rental_uris": {"android": "https://dc.lft.to/lastmile_qr_scan", "ios": "https://dc.lft.to/lastmile_qr_scan"}, "type": "electric_scooter", "fusion_lat": 0.0, "lat": 38.935741666666665, "lon": -77.03286633333333, "is_reserved": 0}, {"bike_id": "5fe3993679f7e7a4db07c6e7b6962310", "name": "5fe3993679f7e7a4db07c6e7b6962310", "is_disabled": 0, "fusion_lon": 0.0, "rental_uris": {"android": "https://dc.lft.to/lastmile_qr_scan", "ios": "https://dc.lft.to/lastmile_qr_scan"}, "type": "electric_scooter", "fusion_lat": 0.0, "lat": 38.9573965, "lon": -77.0021995, "is_reserved": 0}, {"bike_id": "50e2a4e735aab3edd5fdf99b80d69cc0", "name": "50e2a4e735aab3edd5fdf99b80d69cc0", "is_disabled": 0, "fusion_lon": 0.0, "rental_uris": {"android": "https://dc.lft.to/lastmile_qr_scan", "ios": "https://dc.lft.to/lastmile_qr_scan"}, "type": "electric_scooter", "fusion_lat": 0.0, "lat": 38.925109, "lon": -77.01222616666666, "is_reserved": 0}, {"bike_id": "d4e3ea8093e801623672d4ed164f3dca", "name": "d4e3ea8093e801623672d4ed164f3dca", "is_disabled": 0, "fusion_lon": 0.0, "rental_uris": {"android": "https://dc.lft.to/lastmile_qr_scan", "ios": "https://dc.lft.to/lastmile_qr_scan"}, "type": "electric_scooter", "fusion_lat": 0.0, "lat": 38.943040833333335, "lon": -77.059254, "is_reserved": 0}, {"bike_id": "85daaa7fcfd5161ea029c361d8ffb880", "name": "85daaa7fcfd5161ea029c361d8ffb880", "is_disabled": 0, "fusion_lon": 0.0, "rental_uris": {"android": "https://dc.lft.to/lastmile_qr_scan", "ios": "https://dc.lft.to/lastmile_qr_scan"}, "type": "electric_scooter", "fusion_lat": 0.0, "lat": 38.878856166666665, "lon": -76.96542633333334, "is_reserved": 0}, {"bike_id": "4be71ccd4fe01da7753faa540edbc905", "name": "4be71ccd4fe01da7753faa540edbc905", "is_disabled": 0, "fusion_lon": 0.0, "rental_uris": {"android": "https://dc.lft.to/lastmile_qr_scan", "ios": "https://dc.lft.to/lastmile_qr_scan"}, "type": "electric_scooter", "fusion_lat": 0.0, "lat": 38.922411333333336, "lon": -77.02813533333334, "is_reserved": 0}, {"bike_id": "4900087d00c15544fb46a600f01ef41b", "name": "4900087d00c15544fb46a600f01ef41b", "is_disabled": 0, "fusion_lon": 0.0, "rental_uris": {"android": "https://dc.lft.to/lastmile_qr_scan", "ios": "https://dc.lft.to/lastmile_qr_scan"}, "type": "electric_scooter", "fusion_lat": 0.0, "lat": 38.879656833333335, "lon": -76.98544333333334, "is_reserved": 0}, {"bike_id": "9e20dbe780db93bc2fd18169c14cadef", "name": "9e20dbe780db93bc2fd18169c14cadef", "is_disabled": 0, "fusion_lon": 0.0, "rental_uris": {"android": "https://dc.lft.to/lastmile_qr_scan", "ios": "https://dc.lft.to/lastmile_qr_scan"}, "type": "electric_scooter", "fusion_lat": 0.0, "lat": 38.90846033333333, "lon": -77.0638805, "is_reserved": 0}, {"bike_id": "4918bb3a2f0d402f5928db926f65bbad", "name": "4918bb3a2f0d402f5928db926f65bbad", "is_disabled": 0, "fusion_lon": 0.0, "rental_uris": {"android": "https://dc.lft.to/lastmile_qr_scan", "ios": "https://dc.lft.to/lastmile_qr_scan"}, "type": "electric_scooter", "fusion_lat": 0.0, "lat": 38.92116333333333, "lon": -77.04111616666667, "is_reserved": 0}, {"bike_id": "5afed9338b695050a15c85a99186ee80", "name": "5afed9338b695050a15c85a99186ee80", "is_disabled": 0, "fusion_lon": 0.0, "rental_uris": {"android": "https://dc.lft.to/lastmile_qr_scan", "ios": "https://dc.lft.to/lastmile_qr_scan"}, "type": "electric_scooter", "fusion_lat": 0.0, "lat": 38.9232975, "lon": -77.03666566666666, "is_reserved": 0}, {"bike_id": "2b9d17f6d613f0f00f940c83a60d204a", "name": "2b9d17f6d613f0f00f940c83a60d204a", "is_disabled": 0, "fusion_lon": 0.0, "rental_uris": {"android": "https://dc.lft.to/lastmile_qr_scan", "ios": "https://dc.lft.to/lastmile_qr_scan"}, "type": "electric_scooter", "fusion_lat": 0.0, "lat": 38.884819, "lon": -77.02496866666667, "is_reserved": 0}, {"bike_id": "e8681527b1d55d3d5be23f49353bfce4", "name": "e8681527b1d55d3d5be23f49353bfce4", "is_disabled": 0, "fusion_lon": 0.0, "rental_uris": {"android": "https://dc.lft.to/lastmile_qr_scan", "ios": "https://dc.lft.to/lastmile_qr_scan"}, "type": "electric_scooter", "fusion_lat": 0.0, "lat": 38.92797133333333, "lon": -77.01560816666667, "is_reserved": 0}, {"bike_id": "cc660d59405f917bffb5cb64ebba5b93", "name": "cc660d59405f917bffb5cb64ebba5b93", "is_disabled": 0, "fusion_lon": 0.0, "rental_uris": {"android": "https://dc.lft.to/lastmile_qr_scan", "ios": "https://dc.lft.to/lastmile_qr_scan"}, "type": "electric_scooter", "fusion_lat": 0.0, "lat": 38.90014566666667, "lon": -77.0119105, "is_reserved": 0}, {"bike_id": "ec43e9590e7e8f176cb9ccc2f53c3867", "name": "ec43e9590e7e8f176cb9ccc2f53c3867", "is_disabled": 0, "fusion_lon": 0.0, "rental_uris": {"android": "https://dc.lft.to/lastmile_qr_scan", "ios": "https://dc.lft.to/lastmile_qr_scan"}, "type": "electric_scooter", "fusion_lat": 0.0, "lat": 38.9294585, "lon": -77.01915216666667, "is_reserved": 0}, {"bike_id": "f4b0573e4250bc3fd17176adf3001ee9", "name": "f4b0573e4250bc3fd17176adf3001ee9", "is_disabled": 0, "fusion_lon": 0.0, "rental_uris": {"android": "https://dc.lft.to/lastmile_qr_scan", "ios": "https://dc.lft.to/lastmile_qr_scan"}, "type": "electric_scooter", "fusion_lat": 0.0, "lat": 38.91618116666667, "lon": -77.04618966666666, "is_reserved": 0}, {"bike_id": "36cfc7d501f710b496b626ce4695eff4", "name": "36cfc7d501f710b496b626ce4695eff4", "is_disabled": 0, "fusion_lon": 0.0, "rental_uris": {"android": "https://dc.lft.to/lastmile_qr_scan", "ios": "https://dc.lft.to/lastmile_qr_scan"}, "type": "electric_scooter", "fusion_lat": 0.0, "lat": 38.92355333333333, "lon": -77.02231416666666, "is_reserved": 0}, {"bike_id": "0876e26d6115abcaead9264d32c53b95", "name": "0876e26d6115abcaead9264d32c53b95", "is_disabled": 0, "fusion_lon": 0.0, "rental_uris": {"android": "https://dc.lft.to/lastmile_qr_scan", "ios": "https://dc.lft.to/lastmile_qr_scan"}, "type": "electric_scooter", "fusion_lat": 0.0, "lat": 38.92347483333333, "lon": -77.054244, "is_reserved": 0}, {"bike_id": "0425e753f82b2141811afb3117f58ce2", "name": "0425e753f82b2141811afb3117f58ce2", "is_disabled": 0, "fusion_lon": 0.0, "rental_uris": {"android": "https://dc.lft.to/lastmile_qr_scan", "ios": "https://dc.lft.to/lastmile_qr_scan"}, "type": "electric_scooter", "fusion_lat": 0.0, "lat": 38.89620433333333, "lon": -76.98566083333333, "is_reserved": 0}, {"bike_id": "42758541e86e475bc5aefa82b0ade042", "name": "42758541e86e475bc5aefa82b0ade042", "is_disabled": 0, "fusion_lon": 0.0, "rental_uris": {"android": "https://dc.lft.to/lastmile_qr_scan", "ios": "https://dc.lft.to/lastmile_qr_scan"}, "type": "electric_scooter", "fusion_lat": 0.0, "lat": 38.8916255, "lon": -76.98367916666666, "is_reserved": 0}, {"bike_id": "aa5241b25404b9d9eb942d0f9c2c803f", "name": "aa5241b25404b9d9eb942d0f9c2c803f", "is_disabled": 0, "fusion_lon": 0.0, "rental_uris": {"android": "https://dc.lft.to/lastmile_qr_scan", "ios": "https://dc.lft.to/lastmile_qr_scan"}, "type": "electric_scooter", "fusion_lat": 0.0, "lat": 38.8848805, "lon": -77.00706033333333, "is_reserved": 0}, {"bike_id": "cdc946cde4754ab67389c56bdb59e331", "name": "cdc946cde4754ab67389c56bdb59e331", "is_disabled": 0, "fusion_lon": 0.0, "rental_uris": {"android": "https://dc.lft.to/lastmile_qr_scan", "ios": "https://dc.lft.to/lastmile_qr_scan"}, "type": "electric_scooter", "fusion_lat": 0.0, "lat": 38.9492035, "lon": -77.01853716666666, "is_reserved": 0}, {"bike_id": "8ada0631b52607cf47713038113c9654", "name": "8ada0631b52607cf47713038113c9654", "is_disabled": 0, "fusion_lon": 0.0, "rental_uris": {"android": "https://dc.lft.to/lastmile_qr_scan", "ios": "https://dc.lft.to/lastmile_qr_scan"}, "type": "electric_scooter", "fusion_lat": 0.0, "lat": 38.900265833333336, "lon": -76.9985735, "is_reserved": 0}, {"bike_id": "49b103349175b2649aa300ed528e27ea", "name": "49b103349175b2649aa300ed528e27ea", "is_disabled": 0, "fusion_lon": 0.0, "rental_uris": {"android": "https://dc.lft.to/lastmile_qr_scan", "ios": "https://dc.lft.to/lastmile_qr_scan"}, "type": "electric_scooter", "fusion_lat": 0.0, "lat": 38.89967816666667, "lon": -77.0258165, "is_reserved": 0}, {"bike_id": "30836153707648e14d55f71a026fe610", "name": "30836153707648e14d55f71a026fe610", "is_disabled": 0, "fusion_lon": 0.0, "rental_uris": {"android": "https://dc.lft.to/lastmile_qr_scan", "ios": "https://dc.lft.to/lastmile_qr_scan"}, "type": "electric_scooter", "fusion_lat": 0.0, "lat": 38.905262, "lon": -77.04084066666667, "is_reserved": 0}, {"bike_id": "e68339031d94aaf2c200f39876deede6", "name": "e68339031d94aaf2c200f39876deede6", "is_disabled": 0, "fusion_lon": 0.0, "rental_uris": {"android": "https://dc.lft.to/lastmile_qr_scan", "ios": "https://dc.lft.to/lastmile_qr_scan"}, "type": "electric_scooter", "fusion_lat": 0.0, "lat": 38.90523116666667, "lon": -77.06425266666666, "is_reserved": 0}, {"bike_id": "778189df6c089d6be865440fad462f5c", "name": "778189df6c089d6be865440fad462f5c", "is_disabled": 0, "fusion_lon": 0.0, "rental_uris": {"android": "https://dc.lft.to/lastmile_qr_scan", "ios": "https://dc.lft.to/lastmile_qr_scan"}, "type": "electric_scooter", "fusion_lat": 0.0, "lat": 38.9241375, "lon": -77.02125383333333, "is_reserved": 0}, {"bike_id": "6f6af4ae806f92f12c97c2e963895479", "name": "6f6af4ae806f92f12c97c2e963895479", "is_disabled": 0, "fusion_lon": 0.0, "rental_uris": {"android": "https://dc.lft.to/lastmile_qr_scan", "ios": "https://dc.lft.to/lastmile_qr_scan"}, "type": "electric_bike", "fusion_lat": 0.0, "lat": 38.90039066666667, "lon": -77.03201316666667, "is_reserved": 0}, {"bike_id": "3a54316b94f6062b5a362990cd9869eb", "name": "3a54316b94f6062b5a362990cd9869eb", "is_disabled": 0, "fusion_lon": 0.0, "rental_uris": {"android": "https://dc.lft.to/lastmile_qr_scan", "ios": "https://dc.lft.to/lastmile_qr_scan"}, "type": "electric_scooter", "fusion_lat": 0.0, "lat": 38.92329216666667, "lon": -77.0366835, "is_reserved": 0}, {"bike_id": "c0ba11826577eb0c9ed6b796dd472dc6", "name": "c0ba11826577eb0c9ed6b796dd472dc6", "is_disabled": 0, "fusion_lon": 0.0, "rental_uris": {"android": "https://dc.lft.to/lastmile_qr_scan", "ios": "https://dc.lft.to/lastmile_qr_scan"}, "type": "electric_scooter", "fusion_lat": 0.0, "lat": 38.8934555, "lon": -77.0316155, "is_reserved": 0}, {"bike_id": "99e3b92c1d71e79eca9fe1a81ed1d18b", "name": "99e3b92c1d71e79eca9fe1a81ed1d18b", "is_disabled": 0, "fusion_lon": 0.0, "rental_uris": {"android": "https://dc.lft.to/lastmile_qr_scan", "ios": "https://dc.lft.to/lastmile_qr_scan"}, "type": "electric_scooter", "fusion_lat": 0.0, "lat": 38.893547, "lon": -77.0280235, "is_reserved": 0}, {"bike_id": "f9a46b5fdb202a527eb6d3dcab563109", "name": "f9a46b5fdb202a527eb6d3dcab563109", "is_disabled": 0, "fusion_lon": 0.0, "rental_uris": {"android": "https://dc.lft.to/lastmile_qr_scan", "ios": "https://dc.lft.to/lastmile_qr_scan"}, "type": "electric_scooter", "fusion_lat": 0.0, "lat": 38.9267985, "lon": -77.03111683333333, "is_reserved": 0}, {"bike_id": "84a94d610cb115b8b0ff445246444729", "name": "84a94d610cb115b8b0ff445246444729", "is_disabled": 0, "fusion_lon": 0.0, "rental_uris": {"android": "https://dc.lft.to/lastmile_qr_scan", "ios": "https://dc.lft.to/lastmile_qr_scan"}, "type": "electric_scooter", "fusion_lat": 0.0, "lat": 38.89561116666667, "lon": -77.04670633333333, "is_reserved": 0}, {"bike_id": "52dc0c3bdaa00968a08b34d69a6a2ea5", "name": "52dc0c3bdaa00968a08b34d69a6a2ea5", "is_disabled": 0, "fusion_lon": 0.0, "rental_uris": {"android": "https://dc.lft.to/lastmile_qr_scan", "ios": "https://dc.lft.to/lastmile_qr_scan"}, "type": "electric_scooter", "fusion_lat": 0.0, "lat": 38.886624, "lon": -76.937182, "is_reserved": 0}, {"bike_id": "8fc45bbd268b2676c3c29d73ac96d14e", "name": "8fc45bbd268b2676c3c29d73ac96d14e", "is_disabled": 0, "fusion_lon": 0.0, "rental_uris": {"android": "https://dc.lft.to/lastmile_qr_scan", "ios": "https://dc.lft.to/lastmile_qr_scan"}, "type": "electric_scooter", "fusion_lat": 0.0, "lat": 38.91567366666666, "lon": -77.019958, "is_reserved": 0}, {"bike_id": "a02e1c2d8927e9d1594291011ae5ddaf", "name": "a02e1c2d8927e9d1594291011ae5ddaf", "is_disabled": 0, "fusion_lon": 0.0, "rental_uris": {"android": "https://dc.lft.to/lastmile_qr_scan", "ios": "https://dc.lft.to/lastmile_qr_scan"}, "type": "electric_scooter", "fusion_lat": 0.0, "lat": 38.89558616666667, "lon": -77.009142, "is_reserved": 0}, {"bike_id": "bafb9346f98fa48c6aeb0bfd11ee6153", "name": "bafb9346f98fa48c6aeb0bfd11ee6153", "is_disabled": 0, "fusion_lon": 0.0, "rental_uris": {"android": "https://dc.lft.to/lastmile_qr_scan", "ios": "https://dc.lft.to/lastmile_qr_scan"}, "type": "electric_scooter", "fusion_lat": 0.0, "lat": 38.92043, "lon": -77.03882466666667, "is_reserved": 0}, {"bike_id": "226d10910f355613ef1285600410bca8", "name": "226d10910f355613ef1285600410bca8", "is_disabled": 0, "fusion_lon": 0.0, "rental_uris": {"android": "https://dc.lft.to/lastmile_qr_scan", "ios": "https://dc.lft.to/lastmile_qr_scan"}, "type": "electric_scooter", "fusion_lat": 0.0, "lat": 38.92245616666666, "lon": -77.021286, "is_reserved": 0}, {"bike_id": "6dbd38ab6d6766da31460aa601ad98ce", "name": "6dbd38ab6d6766da31460aa601ad98ce", "is_disabled": 0, "fusion_lon": 0.0, "rental_uris": {"android": "https://dc.lft.to/lastmile_qr_scan", "ios": "https://dc.lft.to/lastmile_qr_scan"}, "type": "electric_scooter", "fusion_lat": 0.0, "lat": 38.967991833333336, "lon": -77.02432383333333, "is_reserved": 0}, {"bike_id": "d97433c311b8844386bc132eaea9540a", "name": "d97433c311b8844386bc132eaea9540a", "is_disabled": 0, "fusion_lon": 0.0, "rental_uris": {"android": "https://dc.lft.to/lastmile_qr_scan", "ios": "https://dc.lft.to/lastmile_qr_scan"}, "type": "electric_scooter", "fusion_lat": 0.0, "lat": 38.89235683333333, "lon": -77.0435965, "is_reserved": 0}, {"bike_id": "ddddbe156686495027d312445db9f4bc", "name": "ddddbe156686495027d312445db9f4bc", "is_disabled": 0, "fusion_lon": 0.0, "rental_uris": {"android": "https://dc.lft.to/lastmile_qr_scan", "ios": "https://dc.lft.to/lastmile_qr_scan"}, "type": "electric_bike", "fusion_lat": 0.0, "lat": 38.94570266666667, "lon": -76.98111466666667, "is_reserved": 0}, {"bike_id": "22f2ad7d4dc8e5d39526ccf6b2e72d78", "name": "22f2ad7d4dc8e5d39526ccf6b2e72d78", "is_disabled": 0, "fusion_lon": 0.0, "rental_uris": {"android": "https://dc.lft.to/lastmile_qr_scan", "ios": "https://dc.lft.to/lastmile_qr_scan"}, "type": "electric_scooter", "fusion_lat": 0.0, "lat": 38.922472, "lon": -77.01947233333334, "is_reserved": 0}, {"bike_id": "5ed9d9876b18585f51dc465c4b0b43b9", "name": "5ed9d9876b18585f51dc465c4b0b43b9", "is_disabled": 0, "fusion_lon": 0.0, "rental_uris": {"android": "https://dc.lft.to/lastmile_qr_scan", "ios": "https://dc.lft.to/lastmile_qr_scan"}, "type": "electric_scooter", "fusion_lat": 0.0, "lat": 38.9180115, "lon": -77.03184666666667, "is_reserved": 0}, {"bike_id": "12ff627554d790e574859db236d96696", "name": "12ff627554d790e574859db236d96696", "is_disabled": 0, "fusion_lon": 0.0, "rental_uris": {"android": "https://dc.lft.to/lastmile_qr_scan", "ios": "https://dc.lft.to/lastmile_qr_scan"}, "type": "electric_scooter", "fusion_lat": 0.0, "lat": 38.89535, "lon": -77.03092966666667, "is_reserved": 0}, {"bike_id": "7854960616d882552bae7aef91d0a0b0", "name": "7854960616d882552bae7aef91d0a0b0", "is_disabled": 0, "fusion_lon": 0.0, "rental_uris": {"android": "https://dc.lft.to/lastmile_qr_scan", "ios": "https://dc.lft.to/lastmile_qr_scan"}, "type": "electric_scooter", "fusion_lat": 0.0, "lat": 38.92417733333333, "lon": -77.0194725, "is_reserved": 0}, {"bike_id": "fe0d2ed7b421b8274bd5dd7fed33a2b1", "name": "fe0d2ed7b421b8274bd5dd7fed33a2b1", "is_disabled": 0, "fusion_lon": 0.0, "rental_uris": {"android": "https://dc.lft.to/lastmile_qr_scan", "ios": "https://dc.lft.to/lastmile_qr_scan"}, "type": "electric_scooter", "fusion_lat": 0.0, "lat": 38.944963333333334, "lon": -77.028425, "is_reserved": 0}, {"bike_id": "fa52b92c802edfb97891de525020de2f", "name": "fa52b92c802edfb97891de525020de2f", "is_disabled": 0, "fusion_lon": 0.0, "rental_uris": {"android": "https://dc.lft.to/lastmile_qr_scan", "ios": "https://dc.lft.to/lastmile_qr_scan"}, "type": "electric_scooter", "fusion_lat": 0.0, "lat": 38.92025566666667, "lon": -77.03969783333334, "is_reserved": 0}, {"bike_id": "b538d6cfccfb3884d557b56401bba1a0", "name": "b538d6cfccfb3884d557b56401bba1a0", "is_disabled": 0, "fusion_lon": 0.0, "rental_uris": {"android": "https://dc.lft.to/lastmile_qr_scan", "ios": "https://dc.lft.to/lastmile_qr_scan"}, "type": "electric_scooter", "fusion_lat": 0.0, "lat": 38.876577166666664, "lon": -77.00309983333334, "is_reserved": 0}, {"bike_id": "f8972877a3e17cd278d308ca1aa0f034", "name": "f8972877a3e17cd278d308ca1aa0f034", "is_disabled": 0, "fusion_lon": 0.0, "rental_uris": {"android": "https://dc.lft.to/lastmile_qr_scan", "ios": "https://dc.lft.to/lastmile_qr_scan"}, "type": "electric_scooter", "fusion_lat": 0.0, "lat": 38.917092333333336, "lon": -77.03330333333334, "is_reserved": 0}, {"bike_id": "2dfaf566bdafb7f4e95be683e21e0255", "name": "2dfaf566bdafb7f4e95be683e21e0255", "is_disabled": 0, "fusion_lon": 0.0, "rental_uris": {"android": "https://dc.lft.to/lastmile_qr_scan", "ios": "https://dc.lft.to/lastmile_qr_scan"}, "type": "electric_scooter", "fusion_lat": 0.0, "lat": 38.921604333333335, "lon": -77.0337975, "is_reserved": 0}, {"bike_id": "d22ede20b748e222e1db34c6032e9ce6", "name": "d22ede20b748e222e1db34c6032e9ce6", "is_disabled": 0, "fusion_lon": 0.0, "rental_uris": {"android": "https://dc.lft.to/lastmile_qr_scan", "ios": "https://dc.lft.to/lastmile_qr_scan"}, "type": "electric_scooter", "fusion_lat": 0.0, "lat": 38.9204965, "lon": -77.041873, "is_reserved": 0}, {"bike_id": "fac03cab9150cc1ffe3ebf1f4e2b72d3", "name": "fac03cab9150cc1ffe3ebf1f4e2b72d3", "is_disabled": 0, "fusion_lon": 0.0, "rental_uris": {"android": "https://dc.lft.to/lastmile_qr_scan", "ios": "https://dc.lft.to/lastmile_qr_scan"}, "type": "electric_scooter", "fusion_lat": 0.0, "lat": 38.91352766666667, "lon": -76.97137016666667, "is_reserved": 0}, {"bike_id": "3c02efa9b8f8534d7295daaa4b9de39e", "name": "3c02efa9b8f8534d7295daaa4b9de39e", "is_disabled": 0, "fusion_lon": 0.0, "rental_uris": {"android": "https://dc.lft.to/lastmile_qr_scan", "ios": "https://dc.lft.to/lastmile_qr_scan"}, "type": "electric_scooter", "fusion_lat": 0.0, "lat": 38.9235345, "lon": -77.053924, "is_reserved": 0}, {"bike_id": "78d462a0f332b60c474ab1fd6b26321e", "name": "78d462a0f332b60c474ab1fd6b26321e", "is_disabled": 0, "fusion_lon": 0.0, "rental_uris": {"android": "https://dc.lft.to/lastmile_qr_scan", "ios": "https://dc.lft.to/lastmile_qr_scan"}, "type": "electric_scooter", "fusion_lat": 0.0, "lat": 38.86564216666667, "lon": -76.97410066666667, "is_reserved": 0}, {"bike_id": "762f2afcff695586283e148a651fff60", "name": "762f2afcff695586283e148a651fff60", "is_disabled": 0, "fusion_lon": 0.0, "rental_uris": {"android": "https://dc.lft.to/lastmile_qr_scan", "ios": "https://dc.lft.to/lastmile_qr_scan"}, "type": "electric_scooter", "fusion_lat": 0.0, "lat": 38.92363733333333, "lon": -77.03536516666667, "is_reserved": 0}, {"bike_id": "f056fa5ed514b09b0d3784bf52422d7e", "name": "f056fa5ed514b09b0d3784bf52422d7e", "is_disabled": 0, "fusion_lon": 0.0, "rental_uris": {"android": "https://dc.lft.to/lastmile_qr_scan", "ios": "https://dc.lft.to/lastmile_qr_scan"}, "type": "electric_scooter", "fusion_lat": 0.0, "lat": 38.897205, "lon": -77.02692366666666, "is_reserved": 0}, {"bike_id": "3c6928414b0462e575f281c9fd3e6d3c", "name": "3c6928414b0462e575f281c9fd3e6d3c", "is_disabled": 0, "fusion_lon": 0.0, "rental_uris": {"android": "https://dc.lft.to/lastmile_qr_scan", "ios": "https://dc.lft.to/lastmile_qr_scan"}, "type": "electric_scooter", "fusion_lat": 0.0, "lat": 38.871975166666665, "lon": -77.00609966666667, "is_reserved": 0}, {"bike_id": "759e83c6d346241a014f3e2afa41e35d", "name": "759e83c6d346241a014f3e2afa41e35d", "is_disabled": 0, "fusion_lon": 0.0, "rental_uris": {"android": "https://dc.lft.to/lastmile_qr_scan", "ios": "https://dc.lft.to/lastmile_qr_scan"}, "type": "electric_bike", "fusion_lat": 0.0, "lat": 38.896181166666665, "lon": -76.90749516666666, "is_reserved": 0}, {"bike_id": "0054ec2504e6d28342f2aba316ac99ba", "name": "0054ec2504e6d28342f2aba316ac99ba", "is_disabled": 0, "fusion_lon": 0.0, "rental_uris": {"android": "https://dc.lft.to/lastmile_qr_scan", "ios": "https://dc.lft.to/lastmile_qr_scan"}, "type": "electric_scooter", "fusion_lat": 0.0, "lat": 38.9081385, "lon": -77.039444, "is_reserved": 0}, {"bike_id": "9b9ea46dca7876fb8cb3f426de8eb135", "name": "9b9ea46dca7876fb8cb3f426de8eb135", "is_disabled": 0, "fusion_lon": 0.0, "rental_uris": {"android": "https://dc.lft.to/lastmile_qr_scan", "ios": "https://dc.lft.to/lastmile_qr_scan"}, "type": "electric_scooter", "fusion_lat": 0.0, "lat": 38.91993866666667, "lon": -77.01776183333334, "is_reserved": 0}, {"bike_id": "fa8ae826c72e225c1b2f93995d73a04d", "name": "fa8ae826c72e225c1b2f93995d73a04d", "is_disabled": 0, "fusion_lon": 0.0, "rental_uris": {"android": "https://dc.lft.to/lastmile_qr_scan", "ios": "https://dc.lft.to/lastmile_qr_scan"}, "type": "electric_scooter", "fusion_lat": 0.0, "lat": 38.90259866666667, "lon": -77.0436225, "is_reserved": 0}, {"bike_id": "d85c5b002ff5ea9e0fda580883a6fcc0", "name": "d85c5b002ff5ea9e0fda580883a6fcc0", "is_disabled": 0, "fusion_lon": 0.0, "rental_uris": {"android": "https://dc.lft.to/lastmile_qr_scan", "ios": "https://dc.lft.to/lastmile_qr_scan"}, "type": "electric_scooter", "fusion_lat": 0.0, "lat": 38.91677083333333, "lon": -77.01577633333333, "is_reserved": 0}, {"bike_id": "c2580cc3a8b932b146d3d7cf5cc138e2", "name": "c2580cc3a8b932b146d3d7cf5cc138e2", "is_disabled": 0, "fusion_lon": 0.0, "rental_uris": {"android": "https://dc.lft.to/lastmile_qr_scan", "ios": "https://dc.lft.to/lastmile_qr_scan"}, "type": "electric_scooter", "fusion_lat": 0.0, "lat": 38.920656, "lon": -77.041829, "is_reserved": 0}, {"bike_id": "076457aad480aece9a03346fcc9dcfa0", "name": "076457aad480aece9a03346fcc9dcfa0", "is_disabled": 0, "fusion_lon": 0.0, "rental_uris": {"android": "https://dc.lft.to/lastmile_qr_scan", "ios": "https://dc.lft.to/lastmile_qr_scan"}, "type": "electric_scooter", "fusion_lat": 0.0, "lat": 38.91923716666667, "lon": -77.0251, "is_reserved": 0}, {"bike_id": "3a58d7ffd4af55a9844dbc13365b6e5c", "name": "3a58d7ffd4af55a9844dbc13365b6e5c", "is_disabled": 0, "fusion_lon": 0.0, "rental_uris": {"android": "https://dc.lft.to/lastmile_qr_scan", "ios": "https://dc.lft.to/lastmile_qr_scan"}, "type": "electric_scooter", "fusion_lat": 0.0, "lat": 38.90584883333333, "lon": -77.04114666666666, "is_reserved": 0}, {"bike_id": "5763b2412233bf4e4fcdc95fa10765d0", "name": "5763b2412233bf4e4fcdc95fa10765d0", "is_disabled": 0, "fusion_lon": 0.0, "rental_uris": {"android": "https://dc.lft.to/lastmile_qr_scan", "ios": "https://dc.lft.to/lastmile_qr_scan"}, "type": "electric_bike", "fusion_lat": 0.0, "lat": 38.909040833333336, "lon": -77.08991933333333, "is_reserved": 0}, {"bike_id": "782c9aefa02bf56c4a00944ef4fb6e2d", "name": "782c9aefa02bf56c4a00944ef4fb6e2d", "is_disabled": 0, "fusion_lon": 0.0, "rental_uris": {"android": "https://dc.lft.to/lastmile_qr_scan", "ios": "https://dc.lft.to/lastmile_qr_scan"}, "type": "electric_scooter", "fusion_lat": 0.0, "lat": 38.936993666666666, "lon": -77.05941, "is_reserved": 0}, {"bike_id": "b24700bc6f539fc1bafb819e2c05133d", "name": "b24700bc6f539fc1bafb819e2c05133d", "is_disabled": 0, "fusion_lon": 0.0, "rental_uris": {"android": "https://dc.lft.to/lastmile_qr_scan", "ios": "https://dc.lft.to/lastmile_qr_scan"}, "type": "electric_scooter", "fusion_lat": 0.0, "lat": 38.920200666666666, "lon": -77.071344, "is_reserved": 0}, {"bike_id": "70817844664c8c1d63e295c4d08ac2a6", "name": "70817844664c8c1d63e295c4d08ac2a6", "is_disabled": 0, "fusion_lon": 0.0, "rental_uris": {"android": "https://dc.lft.to/lastmile_qr_scan", "ios": "https://dc.lft.to/lastmile_qr_scan"}, "type": "electric_bike", "fusion_lat": 0.0, "lat": 38.88372616666667, "lon": -77.02551383333333, "is_reserved": 0}, {"bike_id": "49f8dd8e17cb3dd2702cd16857845db2", "name": "49f8dd8e17cb3dd2702cd16857845db2", "is_disabled": 0, "fusion_lon": 0.0, "rental_uris": {"android": "https://dc.lft.to/lastmile_qr_scan", "ios": "https://dc.lft.to/lastmile_qr_scan"}, "type": "electric_scooter", "fusion_lat": 0.0, "lat": 38.892271, "lon": -77.03216616666667, "is_reserved": 0}, {"bike_id": "2c8dcc81010ee86b9f5e0989377a289b", "name": "2c8dcc81010ee86b9f5e0989377a289b", "is_disabled": 0, "fusion_lon": 0.0, "rental_uris": {"android": "https://dc.lft.to/lastmile_qr_scan", "ios": "https://dc.lft.to/lastmile_qr_scan"}, "type": "electric_bike", "fusion_lat": 0.0, "lat": 38.99182283333333, "lon": -77.09567533333333, "is_reserved": 0}, {"bike_id": "ed579a9ffe72e023bd8a49fc4356f3e1", "name": "ed579a9ffe72e023bd8a49fc4356f3e1", "is_disabled": 0, "fusion_lon": 0.0, "rental_uris": {"android": "https://dc.lft.to/lastmile_qr_scan", "ios": "https://dc.lft.to/lastmile_qr_scan"}, "type": "electric_scooter", "fusion_lat": 0.0, "lat": 38.924330499999996, "lon": -77.02242283333334, "is_reserved": 0}, {"bike_id": "195635ea96b7767d8c32d7dac80df557", "name": "195635ea96b7767d8c32d7dac80df557", "is_disabled": 0, "fusion_lon": 0.0, "rental_uris": {"android": "https://dc.lft.to/lastmile_qr_scan", "ios": "https://dc.lft.to/lastmile_qr_scan"}, "type": "electric_scooter", "fusion_lat": 0.0, "lat": 38.9159865, "lon": -77.02395516666667, "is_reserved": 0}, {"bike_id": "342fc4174a7160537bf4c392386ee416", "name": "342fc4174a7160537bf4c392386ee416", "is_disabled": 0, "fusion_lon": 0.0, "rental_uris": {"android": "https://dc.lft.to/lastmile_qr_scan", "ios": "https://dc.lft.to/lastmile_qr_scan"}, "type": "electric_bike", "fusion_lat": 0.0, "lat": 38.95186833333333, "lon": -76.95124516666667, "is_reserved": 0}, {"bike_id": "45e2fab00454e02b732b5492c9544166", "name": "45e2fab00454e02b732b5492c9544166", "is_disabled": 0, "fusion_lon": 0.0, "rental_uris": {"android": "https://dc.lft.to/lastmile_qr_scan", "ios": "https://dc.lft.to/lastmile_qr_scan"}, "type": "electric_scooter", "fusion_lat": 0.0, "lat": 38.89836116666667, "lon": -77.02940816666667, "is_reserved": 0}, {"bike_id": "7b6d879df44ef316cbd1a8808413d4ef", "name": "7b6d879df44ef316cbd1a8808413d4ef", "is_disabled": 0, "fusion_lon": 0.0, "rental_uris": {"android": "https://dc.lft.to/lastmile_qr_scan", "ios": "https://dc.lft.to/lastmile_qr_scan"}, "type": "electric_scooter", "fusion_lat": 0.0, "lat": 38.91678616666667, "lon": -77.036861, "is_reserved": 0}, {"bike_id": "1050e6347ca5a6c915326898a0e683bb", "name": "1050e6347ca5a6c915326898a0e683bb", "is_disabled": 0, "fusion_lon": 0.0, "rental_uris": {"android": "https://dc.lft.to/lastmile_qr_scan", "ios": "https://dc.lft.to/lastmile_qr_scan"}, "type": "electric_bike", "fusion_lat": 0.0, "lat": 38.838649, "lon": -76.99697533333334, "is_reserved": 0}, {"bike_id": "95ac72bf8e2c2832db0775181b12df64", "name": "95ac72bf8e2c2832db0775181b12df64", "is_disabled": 0, "fusion_lon": 0.0, "rental_uris": {"android": "https://dc.lft.to/lastmile_qr_scan", "ios": "https://dc.lft.to/lastmile_qr_scan"}, "type": "electric_scooter", "fusion_lat": 0.0, "lat": 38.90741283333333, "lon": -77.027958, "is_reserved": 0}, {"bike_id": "8bb4eb16f7fec122bbd0ad5fbf2941c5", "name": "8bb4eb16f7fec122bbd0ad5fbf2941c5", "is_disabled": 0, "fusion_lon": 0.0, "rental_uris": {"android": "https://dc.lft.to/lastmile_qr_scan", "ios": "https://dc.lft.to/lastmile_qr_scan"}, "type": "electric_scooter", "fusion_lat": 0.0, "lat": 38.920627, "lon": -77.04259733333333, "is_reserved": 0}, {"bike_id": "084f214fc4b7dd66e5772df38c5df2f2", "name": "084f214fc4b7dd66e5772df38c5df2f2", "is_disabled": 0, "fusion_lon": 0.0, "rental_uris": {"android": "https://dc.lft.to/lastmile_qr_scan", "ios": "https://dc.lft.to/lastmile_qr_scan"}, "type": "electric_scooter", "fusion_lat": 0.0, "lat": 38.891988166666664, "lon": -77.00294683333334, "is_reserved": 0}, {"bike_id": "1b0cca923cf0deb4812aa99452cbe525", "name": "1b0cca923cf0deb4812aa99452cbe525", "is_disabled": 0, "fusion_lon": 0.0, "rental_uris": {"android": "https://dc.lft.to/lastmile_qr_scan", "ios": "https://dc.lft.to/lastmile_qr_scan"}, "type": "electric_scooter", "fusion_lat": 0.0, "lat": 38.892337833333336, "lon": -77.0176885, "is_reserved": 0}, {"bike_id": "a5d29b8af643aca203f0988875d639e0", "name": "a5d29b8af643aca203f0988875d639e0", "is_disabled": 0, "fusion_lon": 0.0, "rental_uris": {"android": "https://dc.lft.to/lastmile_qr_scan", "ios": "https://dc.lft.to/lastmile_qr_scan"}, "type": "electric_scooter", "fusion_lat": 0.0, "lat": 38.899628, "lon": -77.05034083333334, "is_reserved": 0}, {"bike_id": "88bc40409eb7023ebde0a204cc2baf2c", "name": "88bc40409eb7023ebde0a204cc2baf2c", "is_disabled": 0, "fusion_lon": 0.0, "rental_uris": {"android": "https://dc.lft.to/lastmile_qr_scan", "ios": "https://dc.lft.to/lastmile_qr_scan"}, "type": "electric_scooter", "fusion_lat": 0.0, "lat": 38.927907833333336, "lon": -77.03149316666666, "is_reserved": 0}, {"bike_id": "bce7d9fee307c8656533413aec7f8f17", "name": "bce7d9fee307c8656533413aec7f8f17", "is_disabled": 0, "fusion_lon": 0.0, "rental_uris": {"android": "https://dc.lft.to/lastmile_qr_scan", "ios": "https://dc.lft.to/lastmile_qr_scan"}, "type": "electric_scooter", "fusion_lat": 0.0, "lat": 38.902852, "lon": -77.04468466666667, "is_reserved": 0}, {"bike_id": "ae5d1bb6531e4fcbcd02f0bb9b8a43f9", "name": "ae5d1bb6531e4fcbcd02f0bb9b8a43f9", "is_disabled": 0, "fusion_lon": 0.0, "rental_uris": {"android": "https://dc.lft.to/lastmile_qr_scan", "ios": "https://dc.lft.to/lastmile_qr_scan"}, "type": "electric_scooter", "fusion_lat": 0.0, "lat": 38.9419495, "lon": -77.028465, "is_reserved": 0}, {"bike_id": "b52eadeff9d51d45899e6669feef9189", "name": "b52eadeff9d51d45899e6669feef9189", "is_disabled": 0, "fusion_lon": 0.0, "rental_uris": {"android": "https://dc.lft.to/lastmile_qr_scan", "ios": "https://dc.lft.to/lastmile_qr_scan"}, "type": "electric_scooter", "fusion_lat": 0.0, "lat": 38.88125633333333, "lon": -76.99340966666666, "is_reserved": 0}, {"bike_id": "e2616d630c33ca95bd12dddb30a71ed8", "name": "e2616d630c33ca95bd12dddb30a71ed8", "is_disabled": 0, "fusion_lon": 0.0, "rental_uris": {"android": "https://dc.lft.to/lastmile_qr_scan", "ios": "https://dc.lft.to/lastmile_qr_scan"}, "type": "electric_scooter", "fusion_lat": 0.0, "lat": 38.865148, "lon": -76.99017733333334, "is_reserved": 0}, {"bike_id": "35ba94c46508d07ef219cfc76378bc24", "name": "35ba94c46508d07ef219cfc76378bc24", "is_disabled": 0, "fusion_lon": 0.0, "rental_uris": {"android": "https://dc.lft.to/lastmile_qr_scan", "ios": "https://dc.lft.to/lastmile_qr_scan"}, "type": "electric_scooter", "fusion_lat": 0.0, "lat": 38.924689, "lon": -77.052307, "is_reserved": 0}, {"bike_id": "1dc8fc7868c90952a9879ecac8151dff", "name": "1dc8fc7868c90952a9879ecac8151dff", "is_disabled": 0, "fusion_lon": 0.0, "rental_uris": {"android": "https://dc.lft.to/lastmile_qr_scan", "ios": "https://dc.lft.to/lastmile_qr_scan"}, "type": "electric_scooter", "fusion_lat": 0.0, "lat": 38.90731866666667, "lon": -77.01719316666667, "is_reserved": 0}, {"bike_id": "4d8d35434064955c6271278340316b30", "name": "4d8d35434064955c6271278340316b30", "is_disabled": 0, "fusion_lon": 0.0, "rental_uris": {"android": "https://dc.lft.to/lastmile_qr_scan", "ios": "https://dc.lft.to/lastmile_qr_scan"}, "type": "electric_scooter", "fusion_lat": 0.0, "lat": 38.9489095, "lon": -77.01850666666667, "is_reserved": 0}, {"bike_id": "bc1050d6e7050200502e6013fa3260e7", "name": "bc1050d6e7050200502e6013fa3260e7", "is_disabled": 0, "fusion_lon": 0.0, "rental_uris": {"android": "https://dc.lft.to/lastmile_qr_scan", "ios": "https://dc.lft.to/lastmile_qr_scan"}, "type": "electric_scooter", "fusion_lat": 0.0, "lat": 38.91637083333333, "lon": -77.032021, "is_reserved": 0}, {"bike_id": "9cb289e8eb8a60eac217f529588b2efd", "name": "9cb289e8eb8a60eac217f529588b2efd", "is_disabled": 0, "fusion_lon": 0.0, "rental_uris": {"android": "https://dc.lft.to/lastmile_qr_scan", "ios": "https://dc.lft.to/lastmile_qr_scan"}, "type": "electric_bike", "fusion_lat": 0.0, "lat": 38.87267416666667, "lon": -76.97559833333334, "is_reserved": 0}, {"bike_id": "540d907731bc18bf4b3c75acf7d779f2", "name": "540d907731bc18bf4b3c75acf7d779f2", "is_disabled": 0, "fusion_lon": 0.0, "rental_uris": {"android": "https://dc.lft.to/lastmile_qr_scan", "ios": "https://dc.lft.to/lastmile_qr_scan"}, "type": "electric_bike", "fusion_lat": 0.0, "lat": 38.804811, "lon": -76.99095016666666, "is_reserved": 0}, {"bike_id": "61ed4ae3df8f028290fd5a9733d03c8c", "name": "61ed4ae3df8f028290fd5a9733d03c8c", "is_disabled": 0, "fusion_lon": 0.0, "rental_uris": {"android": "https://dc.lft.to/lastmile_qr_scan", "ios": "https://dc.lft.to/lastmile_qr_scan"}, "type": "electric_scooter", "fusion_lat": 0.0, "lat": 38.86461883333333, "lon": -77.0126255, "is_reserved": 0}, {"bike_id": "7666b1f45c616e805bc736f1443301cc", "name": "7666b1f45c616e805bc736f1443301cc", "is_disabled": 0, "fusion_lon": 0.0, "rental_uris": {"android": "https://dc.lft.to/lastmile_qr_scan", "ios": "https://dc.lft.to/lastmile_qr_scan"}, "type": "electric_scooter", "fusion_lat": 0.0, "lat": 38.91763783333333, "lon": -77.00356733333334, "is_reserved": 0}, {"bike_id": "5e87902b2e6546206aae75a186c25019", "name": "5e87902b2e6546206aae75a186c25019", "is_disabled": 0, "fusion_lon": 0.0, "rental_uris": {"android": "https://dc.lft.to/lastmile_qr_scan", "ios": "https://dc.lft.to/lastmile_qr_scan"}, "type": "electric_bike", "fusion_lat": 0.0, "lat": 38.863287166666666, "lon": -76.98715066666666, "is_reserved": 0}, {"bike_id": "a887541604ea52dbb41df58adcc8762d", "name": "a887541604ea52dbb41df58adcc8762d", "is_disabled": 0, "fusion_lon": 0.0, "rental_uris": {"android": "https://dc.lft.to/lastmile_qr_scan", "ios": "https://dc.lft.to/lastmile_qr_scan"}, "type": "electric_scooter", "fusion_lat": 0.0, "lat": 38.89341916666667, "lon": -76.99385366666667, "is_reserved": 0}, {"bike_id": "fd85c9e53a6ebda1075ea89b3a601fd7", "name": "fd85c9e53a6ebda1075ea89b3a601fd7", "is_disabled": 0, "fusion_lon": 0.0, "rental_uris": {"android": "https://dc.lft.to/lastmile_qr_scan", "ios": "https://dc.lft.to/lastmile_qr_scan"}, "type": "electric_bike", "fusion_lat": 0.0, "lat": 39.026235666666665, "lon": -77.0387715, "is_reserved": 0}, {"bike_id": "a9893dac1e4ed00f6bb3ef597447d4c3", "name": "a9893dac1e4ed00f6bb3ef597447d4c3", "is_disabled": 0, "fusion_lon": 0.0, "rental_uris": {"android": "https://dc.lft.to/lastmile_qr_scan", "ios": "https://dc.lft.to/lastmile_qr_scan"}, "type": "electric_scooter", "fusion_lat": 0.0, "lat": 38.90545766666666, "lon": -77.04338383333334, "is_reserved": 0}, {"bike_id": "d8a00467b60b71c68e01a1ccfe192596", "name": "d8a00467b60b71c68e01a1ccfe192596", "is_disabled": 0, "fusion_lon": 0.0, "rental_uris": {"android": "https://dc.lft.to/lastmile_qr_scan", "ios": "https://dc.lft.to/lastmile_qr_scan"}, "type": "electric_scooter", "fusion_lat": 0.0, "lat": 38.917627, "lon": -77.0239705, "is_reserved": 0}, {"bike_id": "6b3ccb63317b89d7529dc0fb29784aad", "name": "6b3ccb63317b89d7529dc0fb29784aad", "is_disabled": 0, "fusion_lon": 0.0, "rental_uris": {"android": "https://dc.lft.to/lastmile_qr_scan", "ios": "https://dc.lft.to/lastmile_qr_scan"}, "type": "electric_bike", "fusion_lat": 0.0, "lat": 38.99672983333333, "lon": -77.02547616666666, "is_reserved": 0}, {"bike_id": "2770c6a781f2fb20ec5af7569c989910", "name": "2770c6a781f2fb20ec5af7569c989910", "is_disabled": 0, "fusion_lon": 0.0, "rental_uris": {"android": "https://dc.lft.to/lastmile_qr_scan", "ios": "https://dc.lft.to/lastmile_qr_scan"}, "type": "electric_bike", "fusion_lat": 0.0, "lat": 38.89567, "lon": -77.1273635, "is_reserved": 0}, {"bike_id": "71500714c5a0ca2a37812e985008f543", "name": "71500714c5a0ca2a37812e985008f543", "is_disabled": 0, "fusion_lon": 0.0, "rental_uris": {"android": "https://dc.lft.to/lastmile_qr_scan", "ios": "https://dc.lft.to/lastmile_qr_scan"}, "type": "electric_scooter", "fusion_lat": 0.0, "lat": 38.90069183333333, "lon": -77.01310133333334, "is_reserved": 0}, {"bike_id": "2c8522def900b2224aba48418c7391b7", "name": "2c8522def900b2224aba48418c7391b7", "is_disabled": 0, "fusion_lon": 0.0, "rental_uris": {"android": "https://dc.lft.to/lastmile_qr_scan", "ios": "https://dc.lft.to/lastmile_qr_scan"}, "type": "electric_bike", "fusion_lat": 0.0, "lat": 38.95637033333333, "lon": -76.93876066666667, "is_reserved": 0}, {"bike_id": "033220b60ab4d8ab69ba7f4278e294b5", "name": "033220b60ab4d8ab69ba7f4278e294b5", "is_disabled": 0, "fusion_lon": 0.0, "rental_uris": {"android": "https://dc.lft.to/lastmile_qr_scan", "ios": "https://dc.lft.to/lastmile_qr_scan"}, "type": "electric_scooter", "fusion_lat": 0.0, "lat": 38.897293833333336, "lon": -77.01913416666666, "is_reserved": 0}, {"bike_id": "3faf16660d6e61adae701d3f346c4d75", "name": "3faf16660d6e61adae701d3f346c4d75", "is_disabled": 0, "fusion_lon": 0.0, "rental_uris": {"android": "https://dc.lft.to/lastmile_qr_scan", "ios": "https://dc.lft.to/lastmile_qr_scan"}, "type": "electric_bike", "fusion_lat": 0.0, "lat": 38.9038625, "lon": -77.0504805, "is_reserved": 0}, {"bike_id": "1675346e5eadaa3ae49a7aeef1600d4c", "name": "1675346e5eadaa3ae49a7aeef1600d4c", "is_disabled": 0, "fusion_lon": 0.0, "rental_uris": {"android": "https://dc.lft.to/lastmile_qr_scan", "ios": "https://dc.lft.to/lastmile_qr_scan"}, "type": "electric_scooter", "fusion_lat": 0.0, "lat": 38.920632833333336, "lon": -77.03156233333333, "is_reserved": 0}, {"bike_id": "6721d8d261cebfcbe69f1440dfe1b7b1", "name": "6721d8d261cebfcbe69f1440dfe1b7b1", "is_disabled": 0, "fusion_lon": 0.0, "rental_uris": {"android": "https://dc.lft.to/lastmile_qr_scan", "ios": "https://dc.lft.to/lastmile_qr_scan"}, "type": "electric_scooter", "fusion_lat": 0.0, "lat": 38.901177833333335, "lon": -77.03355133333334, "is_reserved": 0}, {"bike_id": "e4959e132b9e092888dcd85aeaba0307", "name": "e4959e132b9e092888dcd85aeaba0307", "is_disabled": 0, "fusion_lon": 0.0, "rental_uris": {"android": "https://dc.lft.to/lastmile_qr_scan", "ios": "https://dc.lft.to/lastmile_qr_scan"}, "type": "electric_scooter", "fusion_lat": 0.0, "lat": 38.9037175, "lon": -77.03770233333333, "is_reserved": 0}, {"bike_id": "0fb85b7c5dcd47f32c56eec1421a0e8f", "name": "0fb85b7c5dcd47f32c56eec1421a0e8f", "is_disabled": 0, "fusion_lon": 0.0, "rental_uris": {"android": "https://dc.lft.to/lastmile_qr_scan", "ios": "https://dc.lft.to/lastmile_qr_scan"}, "type": "electric_scooter", "fusion_lat": 0.0, "lat": 38.8992345, "lon": -76.94577633333333, "is_reserved": 0}, {"bike_id": "8609f071418922ba3dbc608c5761fcca", "name": "8609f071418922ba3dbc608c5761fcca", "is_disabled": 0, "fusion_lon": 0.0, "rental_uris": {"android": "https://dc.lft.to/lastmile_qr_scan", "ios": "https://dc.lft.to/lastmile_qr_scan"}, "type": "electric_bike", "fusion_lat": 0.0, "lat": 38.859998166666664, "lon": -76.9898, "is_reserved": 0},