{"data": {"bikes": [{"is_reserved": 0, "fusion_lon": 0.0, "fusion_lat": 0.0, "name": "1cde4280e9b74f6871c9e8341895c688", "type": "electric_scooter", "is_disabled": 0, "lat": 38.87734116666667, "rental_uris": {"android": "https://dc.lft.to/lastmile_qr_scan", "ios": "https://dc.lft.to/lastmile_qr_scan"}, "bike_id": "1cde4280e9b74f6871c9e8341895c688", "lon": -77.005971}, {"is_reserved": 0, "fusion_lon": 0.0, "fusion_lat": 0.0, "name": "7a77b6efccebaca2a8daccc52eac4606", "type": "electric_scooter", "is_disabled": 0, "lat": 38.89238366666667, "rental_uris": {"android": "https://dc.lft.to/lastmile_qr_scan", "ios": "https://dc.lft.to/lastmile_qr_scan"}, "bike_id": "7a77b6efccebaca2a8daccc52eac4606", "lon": -77.03211816666666}, {"is_reserved": 0, "fusion_lon": 0.0, "fusion_lat": 0.0, "name": "1dd5b4d43db9ce7fc653be9dae8b204d", "type": "electric_scooter", "is_disabled": 0, "lat": 38.921349166666666, "rental_uris": {"android": "https://dc.lft.to/lastmile_qr_scan", "ios": "https://dc.lft.to/lastmile_qr_scan"}, "bike_id": "1dd5b4d43db9ce7fc653be9dae8b204d", "lon": -77.00400816666667}, {"is_reserved": 0, "fusion_lon": 0.0, "fusion_lat": 0.0, "name": "204cc9e575b6dfbcd01d1220bf7b9a22", "type": "electric_scooter", "is_disabled": 0, "lat": 38.90052, "rental_uris": {"android": "https://dc.lft.to/lastmile_qr_scan", "ios": "https://dc.lft.to/lastmile_qr_scan"}, "bike_id": "204cc9e575b6dfbcd01d1220bf7b9a22", "lon": -77.04324583333333}, {"is_reserved": 0, "fusion_lon": 0.0, "fusion_lat": 0.0, "name": "247fcb4c920a79a918a0925ea9981734", "type": "electric_scooter", "is_disabled": 0, "lat": 38.97380533333333, "rental_uris": {"android": "https://dc.lft.to/lastmile_qr_scan", "ios": "https://dc.lft.to/lastmile_qr_scan"}, "bike_id": "247fcb4c920a79a918a0925ea9981734", "lon": -77.01813216666666}, {"is_reserved": 0, "fusion_lon": 0.0, "fusion_lat": 0.0, "name": "56ab9c1dea0d2f15e68c10bf31a823ce", "type": "electric_scooter", "is_disabled": 0, "lat": 38.9030345, "rental_uris": {"android": "https://dc.lft.to/lastmile_qr_scan", "ios": "https://dc.lft.to/lastmile_qr_scan"}, "bike_id": "56ab9c1dea0d2f15e68c10bf31a823ce", "lon": -77.03860933333333}, {"is_reserved": 0, "fusion_lon": 0.0, "fusion_lat": 0.0, "name": "5ff5a89cbf8f9e9ae0219359f70e78ab", "type": "electric_scooter", "is_disabled": 0, "lat": 38.870104, "rental_uris": {"android": "https://dc.lft.to/lastmile_qr_scan", "ios": "https://dc.lft.to/lastmile_qr_scan"}, "bike_id": "5ff5a89cbf8f9e9ae0219359f70e78ab", "lon": -76.98082916666667}, {"is_reserved": 0, "fusion_lon": 0.0, "fusion_lat": 0.0, "name": "c2bb57c53e914963a838c77a515f72f6", "type": "electric_scooter", "is_disabled": 0, "lat": 38.914169, "rental_uris": {"android": "https://dc.lft.to/lastmile_qr_scan", "ios": "https://dc.lft.to/lastmile_qr_scan"}, "bike_id": "c2bb57c53e914963a838c77a515f72f6", "lon": -77.031508}, {"is_reserved": 0, "fusion_lon": 0.0, "fusion_lat": 0.0, "name": "c33581536ef8283e113709f82a634816", "type": "electric_scooter", "is_disabled": 0, "lat": 38.91394716666667, "rental_uris": {"android": "https://dc.lft.to/lastmile_qr_scan", "ios": "https://dc.lft.to/lastmile_qr_scan"}, "bike_id": "c33581536ef8283e113709f82a634816", "lon": -77.04613666666667}, {"is_reserved": 0, "fusion_lon": 0.0, "fusion_lat": 0.0, "name": "0e2fb6db6bc812347bdbd190b31297e9", "type": "electric_bike", "is_disabled": 0, "lat": 38.81909866666667, "rental_uris": {"android": "https://dc.lft.to/lastmile_qr_scan", "ios": "https://dc.lft.to/lastmile_qr_scan"}, "bike_id": "0e2fb6db6bc812347bdbd190b31297e9", "lon": -76.99907216666666}, {"is_reserved": 0, "fusion_lon": 0.0, "fusion_lat": 0.0, "name": "83027265199bfcc2bbfb39184f35c03d", "type": "electric_scooter", "is_disabled": 0, "lat": 38.909900666666665, "rental_uris": {"android": "https://dc.lft.to/lastmile_qr_scan", "ios": "https://dc.lft.to/lastmile_qr_scan"}, "bike_id": "83027265199bfcc2bbfb39184f35c03d", "lon": -77.04881733333333}, {"is_reserved": 0, "fusion_lon": 0.0, "fusion_lat": 0.0, "name": "65c304bc6c3753cf4faf07675ba48e0b", "type": "electric_scooter", "is_disabled": 0, "lat": 38.892204166666666, "rental_uris": {"android": "https://dc.lft.to/lastmile_qr_scan", "ios": "https://dc.lft.to/lastmile_qr_scan"}, "bike_id": "65c304bc6c3753cf4faf07675ba48e0b", "lon": -77.02227733333334}, {"is_reserved": 0, "fusion_lon": 0.0, "fusion_lat": 0.0, "name": "ce77e14fdb1b46ab3f80ffc8af49c123", "type": "electric_scooter", "is_disabled": 0, "lat": 38.903811, "rental_uris": {"android": "https://dc.lft.to/lastmile_qr_scan", "ios": "https://dc.lft.to/lastmile_qr_scan"}, "bike_id": "ce77e14fdb1b46ab3f80ffc8af49c123", "lon": -77.03189483333334}, {"is_reserved": 0, "fusion_lon": 0.0, "fusion_lat": 0.0, "name": "1a49b87f9a649082df789b9284b7c370", "type": "electric_scooter", "is_disabled": 0, "lat": 38.9027285, "rental_uris": {"android": "https://dc.lft.to/lastmile_qr_scan", "ios": "https://dc.lft.to/lastmile_qr_scan"}, "bike_id": "1a49b87f9a649082df789b9284b7c370", "lon": -77.031466}, {"is_reserved": 0, "fusion_lon": 0.0, "fusion_lat": 0.0, "name": "68ebd5164cd9526642b48d04ba75f5d1", "type": "electric_scooter", "is_disabled": 0, "lat": 38.899234, "rental_uris": {"android": "https://dc.lft.to/lastmile_qr_scan", "ios": "https://dc.lft.to/lastmile_qr_scan"}, "bike_id": "68ebd5164cd9526642b48d04ba75f5d1", "lon": -77.00364}, {"is_reserved": 0, "fusion_lon": 0.0, "fusion_lat": 0.0, "name": "5d0a1562a4ff4f33363807e661e466a5", "type": "electric_scooter", "is_disabled": 0, "lat": 38.86635116666667, "rental_uris": {"android": "https://dc.lft.to/lastmile_qr_scan", "ios": "https://dc.lft.to/lastmile_qr_scan"}, "bike_id": "5d0a1562a4ff4f33363807e661e466a5", "lon": -76.98910016666666}, {"is_reserved": 0, "fusion_lon": 0.0, "fusion_lat": 0.0, "name": "16775c755fe7825c9d21e84d2cf2092f", "type": "electric_scooter", "is_disabled": 0, "lat": 38.9026395, "rental_uris": {"android": "https://dc.lft.to/lastmile_qr_scan", "ios": "https://dc.lft.to/lastmile_qr_scan"}, "bike_id": "16775c755fe7825c9d21e84d2cf2092f", "lon": -77.046072}, {"is_reserved": 0, "fusion_lon": 0.0, "fusion_lat": 0.0, "name": "7373b52f060b91832ca79d870375afc8", "type": "electric_scooter", "is_disabled": 0, "lat": 38.89019033333334, "rental_uris": {"android": "https://dc.lft.to/lastmile_qr_scan", "ios": "https://dc.lft.to/lastmile_qr_scan"}, "bike_id": "7373b52f060b91832ca79d870375afc8", "lon": -76.9373805}, {"is_reserved": 0, "fusion_lon": 0.0, "fusion_lat": 0.0, "name": "4fbf3b373fd24fad018cad03446cf993", "type": "electric_scooter", "is_disabled": 0, "lat": 38.934572333333335, "rental_uris": {"android": "https://dc.lft.to/lastmile_qr_scan", "ios": "https://dc.lft.to/lastmile_qr_scan"}, "bike_id": "4fbf3b373fd24fad018cad03446cf993", "lon": -77.0375455}, {"is_reserved": 0, "fusion_lon": 0.0, "fusion_lat": 0.0, "name": "09e2fb7f71de07c62f2d7faa166565f6", "type": "electric_scooter", "is_disabled": 0, "lat": 38.9074285, "rental_uris": {"android": "https://dc.lft.to/lastmile_qr_scan", "ios": "https://dc.lft.to/lastmile_qr_scan"}, "bike_id": "09e2fb7f71de07c62f2d7faa166565f6", "lon": -77.041558}, {"is_reserved": 0, "fusion_lon": 0.0, "fusion_lat": 0.0, "name": "26b4e5fc59ff62a2f5fa5cd016f9c393", "type": "electric_scooter", "is_disabled": 0, "lat": 38.905136, "rental_uris": {"android": "https://dc.lft.to/lastmile_qr_scan", "ios": "https://dc.lft.to/lastmile_qr_scan"}, "bike_id": "26b4e5fc59ff62a2f5fa5cd016f9c393", "lon": -77.041521}, {"is_reserved": 0, "fusion_lon": 0.0, "fusion_lat": 0.0, "name": "d7bcdf0ef39c05c5016165590eaee621", "type": "electric_scooter", "is_disabled": 0, "lat": 38.904312, "rental_uris": {"android": "https://dc.lft.to/lastmile_qr_scan", "ios": "https://dc.lft.to/lastmile_qr_scan"}, "bike_id": "d7bcdf0ef39c05c5016165590eaee621", "lon": -77.04356133333333}, {"is_reserved": 0, "fusion_lon": 0.0, "fusion_lat": 0.0, "name": "88efe0d5cd9cb2b658277104f50df020", "type": "electric_scooter", "is_disabled": 0, "lat": 38.9362485, "rental_uris": {"android": "https://dc.lft.to/lastmile_qr_scan", "ios": "https://dc.lft.to/lastmile_qr_scan"}, "bike_id": "88efe0d5cd9cb2b658277104f50df020", "lon": -77.05889966666666}, {"is_reserved": 0, "fusion_lon": 0.0, "fusion_lat": 0.0, "name": "0c6e72d9d032e8f0ca96df8875ea121d", "type": "electric_bike", "is_disabled": 0, "lat": 38.906002, "rental_uris": {"android": "https://dc.lft.to/lastmile_qr_scan", "ios": "https://dc.lft.to/lastmile_qr_scan"}, "bike_id": "0c6e72d9d032e8f0ca96df8875ea121d", "lon": -77.04155766666666}, {"is_reserved": 0, "fusion_lon": 0.0, "fusion_lat": 0.0, "name": "581e8a34c3212ea9d008eed2e7c152a3", "type": "electric_scooter", "is_disabled": 0, "lat": 38.90200383333333, "rental_uris": {"android": "https://dc.lft.to/lastmile_qr_scan", "ios": "https://dc.lft.to/lastmile_qr_scan"}, "bike_id": "581e8a34c3212ea9d008eed2e7c152a3", "lon": -77.04817683333333}, {"is_reserved": 0, "fusion_lon": 0.0, "fusion_lat": 0.0, "name": "4a097e3541e3028de26c2ee6dfb3fc69", "type": "electric_scooter", "is_disabled": 0, "lat": 38.934081166666665, "rental_uris": {"android": "https://dc.lft.to/lastmile_qr_scan", "ios": "https://dc.lft.to/lastmile_qr_scan"}, "bike_id": "4a097e3541e3028de26c2ee6dfb3fc69", "lon": -77.03265816666666}, {"is_reserved": 0, "fusion_lon": 0.0, "fusion_lat": 0.0, "name": "8755d4cac11fd7244f4a0e8f56f335c8", "type": "electric_scooter", "is_disabled": 0, "lat": 38.90642116666667, "rental_uris": {"android": "https://dc.lft.to/lastmile_qr_scan", "ios": "https://dc.lft.to/lastmile_qr_scan"}, "bike_id": "8755d4cac11fd7244f4a0e8f56f335c8", "lon": -77.03860116666667}, {"is_reserved": 0, "fusion_lon": 0.0, "fusion_lat": 0.0, "name": "bad86ed1a2879352de9195cbb175596e", "type": "electric_scooter", "is_disabled": 0, "lat": 38.877841333333336, "rental_uris": {"android": "https://dc.lft.to/lastmile_qr_scan", "ios": "https://dc.lft.to/lastmile_qr_scan"}, "bike_id": "bad86ed1a2879352de9195cbb175596e", "lon": -76.99410633333333}, {"is_reserved": 0, "fusion_lon": 0.0, "fusion_lat": 0.0, "name": "03ef497ab3c5f8b42eeb4941a6a2b4c7", "type": "electric_scooter", "is_disabled": 0, "lat": 38.9037155, "rental_uris": {"android": "https://dc.lft.to/lastmile_qr_scan", "ios": "https://dc.lft.to/lastmile_qr_scan"}, "bike_id": "03ef497ab3c5f8b42eeb4941a6a2b4c7", "lon": -77.0449815}, {"is_reserved": 0, "fusion_lon": 0.0, "fusion_lat": 0.0, "name": "c41e876ade00cb4cf603fa007bbbc592", "type": "electric_scooter", "is_disabled": 0, "lat": 38.917071, "rental_uris": {"android": "https://dc.lft.to/lastmile_qr_scan", "ios": "https://dc.lft.to/lastmile_qr_scan"}, "bike_id": "c41e876ade00cb4cf603fa007bbbc592", "lon": -77.04125966666666}, {"is_reserved": 0, "fusion_lon": 0.0, "fusion_lat": 0.0, "name": "83ba53d55ed426896c10aabbf1f9fb03", "type": "electric_bike", "is_disabled": 0, "lat": 38.83237033333333, "rental_uris": {"android": "https://dc.lft.to/lastmile_qr_scan", "ios": "https://dc.lft.to/lastmile_qr_scan"}, "bike_id": "83ba53d55ed426896c10aabbf1f9fb03", "lon": -76.94619883333333}, {"is_reserved": 0, "fusion_lon": 0.0, "fusion_lat": 0.0, "name": "7ffb3bc33e636e94386fe9d3ba41831a", "type": "electric_scooter", "is_disabled": 0, "lat": 38.8982925, "rental_uris": {"android": "https://dc.lft.to/lastmile_qr_scan", "ios": "https://dc.lft.to/lastmile_qr_scan"}, "bike_id": "7ffb3bc33e636e94386fe9d3ba41831a", "lon": -77.0390875}, {"is_reserved": 0, "fusion_lon": 0.0, "fusion_lat": 0.0, "name": "cee432ac33cab01083eb90f0aeeaf59a", "type": "electric_scooter", "is_disabled": 0, "lat": 38.90411233333333, "rental_uris": {"android": "https://dc.lft.to/lastmile_qr_scan", "ios": "https://dc.lft.to/lastmile_qr_scan"}, "bike_id": "cee432ac33cab01083eb90f0aeeaf59a", "lon": -76.97331583333333}, {"is_reserved": 0, "fusion_lon": 0.0, "fusion_lat": 0.0, "name": "a823028203a53b00ebc7fd8a5657ebab", "type": "electric_bike", "is_disabled": 0, "lat": 39.050516333333334, "rental_uris": {"android": "https://dc.lft.to/lastmile_qr_scan", "ios": "https://dc.lft.to/lastmile_qr_scan"}, "bike_id": "a823028203a53b00ebc7fd8a5657ebab", "lon": -77.05151}, {"is_reserved": 0, "fusion_lon": 0.0, "fusion_lat": 0.0, "name": "d042e51fdead3c62f907eef5e7cd595e", "type": "electric_scooter", "is_disabled": 0, "lat": 38.930259166666666, "rental_uris": {"android": "https://dc.lft.to/lastmile_qr_scan", "ios": "https://dc.lft.to/lastmile_qr_scan"}, "bike_id": "d042e51fdead3c62f907eef5e7cd595e", "lon": -77.06310016666667}, {"is_reserved": 0, "fusion_lon": 0.0, "fusion_lat": 0.0, "name": "9e7082ddd6d48eb25b32da316f1ecae3", "type": "electric_scooter", "is_disabled": 0, "lat": 38.902504, "rental_uris": {"android": "https://dc.lft.to/lastmile_qr_scan", "ios": "https://dc.lft.to/lastmile_qr_scan"}, "bike_id": "9e7082ddd6d48eb25b32da316f1ecae3", "lon": -77.03347666666667}, {"is_reserved": 0, "fusion_lon": 0.0, "fusion_lat": 0.0, "name": "1eb04f11efc71b098232584cd67a5d04", "type": "electric_scooter", "is_disabled": 0, "lat": 38.92187116666667, "rental_uris": {"android": "https://dc.lft.to/lastmile_qr_scan", "ios": "https://dc.lft.to/lastmile_qr_scan"}, "bike_id": "1eb04f11efc71b098232584cd67a5d04", "lon": -77.043557}, {"is_reserved": 0, "fusion_lon": 0.0, "fusion_lat": 0.0, "name": "ad317f7a9b18b537b29d8526dff9f11b", "type": "electric_scooter", "is_disabled": 0, "lat": 38.9063635, "rental_uris": {"android": "https://dc.lft.to/lastmile_qr_scan", "ios": "https://dc.lft.to/lastmile_qr_scan"}, "bike_id": "ad317f7a9b18b537b29d8526dff9f11b", "lon": -77.04642783333334}, {"is_reserved": 0, "fusion_lon": 0.0, "fusion_lat": 0.0, "name": "4228f5de9d9276777dcd248d03ad851f", "type": "electric_scooter", "is_disabled": 0, "lat": 38.89367166666667, "rental_uris": {"android": "https://dc.lft.to/lastmile_qr_scan", "ios": "https://dc.lft.to/lastmile_qr_scan"}, "bike_id": "4228f5de9d9276777dcd248d03ad851f", "lon": -77.032126}, {"is_reserved": 0, "fusion_lon": 0.0, "fusion_lat": 0.0, "name": "f69dd04777ed1b049ed86e812ce5d15d", "type": "electric_scooter", "is_disabled": 0, "lat": 38.900083, "rental_uris": {"android": "https://dc.lft.to/lastmile_qr_scan", "ios": "https://dc.lft.to/lastmile_qr_scan"}, "bike_id": "f69dd04777ed1b049ed86e812ce5d15d", "lon": -76.99622366666667}, {"is_reserved": 0, "fusion_lon": 0.0, "fusion_lat": 0.0, "name": "694d945f8713cb88c28a1fd1247af71d", "type": "electric_bike", "is_disabled": 0, "lat": 38.886926333333335, "rental_uris": {"android": "https://dc.lft.to/lastmile_qr_scan", "ios": "https://dc.lft.to/lastmile_qr_scan"}, "bike_id": "694d945f8713cb88c28a1fd1247af71d", "lon": -76.976367}, {"is_reserved": 0, "fusion_lon": 0.0, "fusion_lat": 0.0, "name": "ce06c9db732e3a22127984aeffddd4ab", "type": "electric_scooter", "is_disabled": 0, "lat": 38.9231775, "rental_uris": {"android": "https://dc.lft.to/lastmile_qr_scan", "ios": "https://dc.lft.to/lastmile_qr_scan"}, "bike_id": "ce06c9db732e3a22127984aeffddd4ab", "lon": -77.04391616666666}, {"is_reserved": 0, "fusion_lon": 0.0, "fusion_lat": 0.0, "name": "0bda8fe235ca9b63c0674e2df0dfa7b5", "type": "electric_scooter", "is_disabled": 0, "lat": 38.874482666666665, "rental_uris": {"android": "https://dc.lft.to/lastmile_qr_scan", "ios": "https://dc.lft.to/lastmile_qr_scan"}, "bike_id": "0bda8fe235ca9b63c0674e2df0dfa7b5", "lon": -77.00569883333333}, {"is_reserved": 0, "fusion_lon": 0.0, "fusion_lat": 0.0, "name": "f2b76c71364397f049f0532c997a686f", "type": "electric_scooter", "is_disabled": 0, "lat": 38.90914016666667, "rental_uris": {"android": "https://dc.lft.to/lastmile_qr_scan", "ios": "https://dc.lft.to/lastmile_qr_scan"}, "bike_id": "f2b76c71364397f049f0532c997a686f", "lon": -77.0726155}, {"is_reserved": 0, "fusion_lon": 0.0, "fusion_lat": 0.0, "name": "7d2eddb9356b40de923b459620746df9", "type": "electric_scooter", "is_disabled": 0, "lat": 38.900109666666665, "rental_uris": {"android": "https://dc.lft.to/lastmile_qr_scan", "ios": "https://dc.lft.to/lastmile_qr_scan"}, "bike_id": "7d2eddb9356b40de923b459620746df9", "lon": -77.0402735}, {"is_reserved": 0, "fusion_lon": 0.0, "fusion_lat": 0.0, "name": "1f6bf44f413bdcf29fc48426ead7d099", "type": "electric_scooter", "is_disabled": 0, "lat": 38.86734, "rental_uris": {"android": "https://dc.lft.to/lastmile_qr_scan", "ios": "https://dc.lft.to/lastmile_qr_scan"}, "bike_id": "1f6bf44f413bdcf29fc48426ead7d099", "lon": -76.98782733333333}, {"is_reserved": 0, "fusion_lon": 0.0, "fusion_lat": 0.0, "name": "f939fdad980743ce8baabd76c1217255", "type": "electric_scooter", "is_disabled": 0, "lat": 38.899398, "rental_uris": {"android": "https://dc.lft.to/lastmile_qr_scan", "ios": "https://dc.lft.to/lastmile_qr_scan"}, "bike_id": "f939fdad980743ce8baabd76c1217255", "lon": -77.02374083333333}, {"is_reserved": 0, "fusion_lon": 0.0, "fusion_lat": 0.0, "name": "f03655754214178ee6559df9dc0639de", "type": "electric_bike", "is_disabled": 0, "lat": 38.88047666666667, "rental_uris": {"android": "https://dc.lft.to/lastmile_qr_scan", "ios": "https://dc.lft.to/lastmile_qr_scan"}, "bike_id": "f03655754214178ee6559df9dc0639de", "lon": -77.01130216666667}, {"is_reserved": 0, "fusion_lon": 0.0, "fusion_lat": 0.0, "name": "d45bd05799b8044e4488eb0a8acff77c", "type": "electric_scooter", "is_disabled": 0, "lat": 38.9284425, "rental_uris": {"android": "https://dc.lft.to/lastmile_qr_scan", "ios": "https://dc.lft.to/lastmile_qr_scan"}, "bike_id": "d45bd05799b8044e4488eb0a8acff77c", "lon": -77.03263916666667}, {"is_reserved": 0, "fusion_lon": 0.0, "fusion_lat": 0.0, "name": "18ca0856e7934db70a7f487306524238", "type": "electric_scooter", "is_disabled": 0, "lat": 38.9000535, "rental_uris": {"android": "https://dc.lft.to/lastmile_qr_scan", "ios": "https://dc.lft.to/lastmile_qr_scan"}, "bike_id": "18ca0856e7934db70a7f487306524238", "lon": -77.03363266666666}, {"is_reserved": 0, "fusion_lon": 0.0, "fusion_lat": 0.0, "name": "456c0507c2b0f76f48624f30330bf432", "type": "electric_scooter", "is_disabled": 0, "lat": 38.89223233333333, "rental_uris": {"android": "https://dc.lft.to/lastmile_qr_scan", "ios": "https://dc.lft.to/lastmile_qr_scan"}, "bike_id": "456c0507c2b0f76f48624f30330bf432", "lon": -77.022288}, {"is_reserved": 0, "fusion_lon": 0.0, "fusion_lat": 0.0, "name": "4a8ac85c9a3a1699b7c6cb204371f0d1", "type": "electric_scooter", "is_disabled": 0, "lat": 38.8961305, "rental_uris": {"android": "https://dc.lft.to/lastmile_qr_scan", "ios": "https://dc.lft.to/lastmile_qr_scan"}, "bike_id": "4a8ac85c9a3a1699b7c6cb204371f0d1", "lon": -77.02155083333334}, {"is_reserved": 0, "fusion_lon": 0.0, "fusion_lat": 0.0, "name": "39d8c3111291d57bc976bda3f9eec8ee", "type": "electric_scooter", "is_disabled": 0, "lat": 38.9053845, "rental_uris": {"android": "https://dc.lft.to/lastmile_qr_scan", "ios": "https://dc.lft.to/lastmile_qr_scan"}, "bike_id": "39d8c3111291d57bc976bda3f9eec8ee", "lon": -77.02972533333333}, {"is_reserved": 0, "fusion_lon": 0.0, "fusion_lat": 0.0, "name": "8a9c4d4dda38942a7e15bc7e6f705f73", "type": "electric_scooter", "is_disabled": 0, "lat": 38.917094166666665, "rental_uris": {"android": "https://dc.lft.to/lastmile_qr_scan", "ios": "https://dc.lft.to/lastmile_qr_scan"}, "bike_id": "8a9c4d4dda38942a7e15bc7e6f705f73", "lon": -77.0386405}, {"is_reserved": 0, "fusion_lon": 0.0, "fusion_lat": 0.0, "name": "55bb916134f51bcda7824873b1b13bae", "type": "electric_scooter", "is_disabled": 0, "lat": 38.91683333333334, "rental_uris": {"android": "https://dc.lft.to/lastmile_qr_scan", "ios": "https://dc.lft.to/lastmile_qr_scan"}, "bike_id": "55bb916134f51bcda7824873b1b13bae", "lon": -77.02977133333333}, {"is_reserved": 0, "fusion_lon": 0.0, "fusion_lat": 0.0, "name": "ad2db925e363654c83d4fd7d12940d84", "type": "electric_scooter", "is_disabled": 0, "lat": 38.89741933333333, "rental_uris": {"android": "https://dc.lft.to/lastmile_qr_scan", "ios": "https://dc.lft.to/lastmile_qr_scan"}, "bike_id": "ad2db925e363654c83d4fd7d12940d84", "lon": -77.0200185}, {"is_reserved": 0, "fusion_lon": 0.0, "fusion_lat": 0.0, "name": "ea0099576f30af73fa5e994adee104ae", "type": "electric_scooter", "is_disabled": 0, "lat": 38.92415183333333, "rental_uris": {"android": "https://dc.lft.to/lastmile_qr_scan", "ios": "https://dc.lft.to/lastmile_qr_scan"}, "bike_id": "ea0099576f30af73fa5e994adee104ae", "lon": -77.020079}, {"is_reserved": 0, "fusion_lon": 0.0, "fusion_lat": 0.0, "name": "4a6a301285ac56647c9386ec0878d3dd", "type": "electric_scooter", "is_disabled": 0, "lat": 38.909827, "rental_uris": {"android": "https://dc.lft.to/lastmile_qr_scan", "ios": "https://dc.lft.to/lastmile_qr_scan"}, "bike_id": "4a6a301285ac56647c9386ec0878d3dd", "lon": -77.03414483333333}, {"is_reserved": 0, "fusion_lon": 0.0, "fusion_lat": 0.0, "name": "e5165fedc056389b7a3f46c7fb769bbf", "type": "electric_scooter", "is_disabled": 0, "lat": 38.91283416666667, "rental_uris": {"android": "https://dc.lft.to/lastmile_qr_scan", "ios": "https://dc.lft.to/lastmile_qr_scan"}, "bike_id": "e5165fedc056389b7a3f46c7fb769bbf", "lon": -77.04510183333333}, {"is_reserved": 0, "fusion_lon": 0.0, "fusion_lat": 0.0, "name": "edbd87f1009aad2b879706209f057a23", "type": "electric_scooter", "is_disabled": 0, "lat": 38.91722766666667, "rental_uris": {"android": "https://dc.lft.to/lastmile_qr_scan", "ios": "https://dc.lft.to/lastmile_qr_scan"}, "bike_id": "edbd87f1009aad2b879706209f057a23", "lon": -77.03660483333333}, {"is_reserved": 0, "fusion_lon": 0.0, "fusion_lat": 0.0, "name": "254350cd54f823826d703d2006facf35", "type": "electric_scooter", "is_disabled": 0, "lat": 38.89182916666667, "rental_uris": {"android": "https://dc.lft.to/lastmile_qr_scan", "ios": "https://dc.lft.to/lastmile_qr_scan"}, "bike_id": "254350cd54f823826d703d2006facf35", "lon": -76.91194416666667}, {"is_reserved": 0, "fusion_lon": 0.0, "fusion_lat": 0.0, "name": "6cea8b8917b386b4abeae9b8a565c902", "type": "electric_scooter", "is_disabled": 0, "lat": 38.890033833333334, "rental_uris": {"android": "https://dc.lft.to/lastmile_qr_scan", "ios": "https://dc.lft.to/lastmile_qr_scan"}, "bike_id": "6cea8b8917b386b4abeae9b8a565c902", "lon": -77.048879}, {"is_reserved": 0, "fusion_lon": 0.0, "fusion_lat": 0.0, "name": "c3e3984fc4d37a3c888efc6aee0eacef", "type": "electric_scooter", "is_disabled": 0, "lat": 38.911293666666666, "rental_uris": {"android": "https://dc.lft.to/lastmile_qr_scan", "ios": "https://dc.lft.to/lastmile_qr_scan"}, "bike_id": "c3e3984fc4d37a3c888efc6aee0eacef", "lon": -77.0435605}, {"is_reserved": 0, "fusion_lon": 0.0, "fusion_lat": 0.0, "name": "c3f4f510676d565ed69e210c93aad19a", "type": "electric_scooter", "is_disabled": 0, "lat": 38.91469, "rental_uris": {"android": "https://dc.lft.to/lastmile_qr_scan", "ios": "https://dc.lft.to/lastmile_qr_scan"}, "bike_id": "c3f4f510676d565ed69e210c93aad19a", "lon": -77.020882}, {"is_reserved": 0, "fusion_lon": 0.0, "fusion_lat": 0.0, "name": "64be54999c07bfdf733cf822f26ba1ee", "type": "electric_scooter", "is_disabled": 0, "lat": 38.87495366666667, "rental_uris": {"android": "https://dc.lft.to/lastmile_qr_scan", "ios": "https://dc.lft.to/lastmile_qr_scan"}, "bike_id": "64be54999c07bfdf733cf822f26ba1ee", "lon": -77.00178183333334}, {"is_reserved": 0, "fusion_lon": 0.0, "fusion_lat": 0.0, "name": "905ce9a6c1839538900d9684ea685164", "type": "electric_scooter", "is_disabled": 0, "lat": 38.871685, "rental_uris": {"android": "https://dc.lft.to/lastmile_qr_scan", "ios": "https://dc.lft.to/lastmile_qr_scan"}, "bike_id": "905ce9a6c1839538900d9684ea685164", "lon": -76.9774605}, {"is_reserved": 0, "fusion_lon": 0.0, "fusion_lat": 0.0, "name": "162414fcf614cad23dac7990a33b70aa", "type": "electric_scooter", "is_disabled": 0, "lat": 38.900816666666664, "rental_uris": {"android": "https://dc.lft.to/lastmile_qr_scan", "ios": "https://dc.lft.to/lastmile_qr_scan"}, "bike_id": "162414fcf614cad23dac7990a33b70aa", "lon": -77.04883083333333}, {"is_reserved": 0, "fusion_lon": 0.0, "fusion_lat": 0.0, "name": "d4d733cccbe15f30f4661b6927dc5477", "type": "electric_scooter", "is_disabled": 0, "lat": 38.91807883333333, "rental_uris": {"android": "https://dc.lft.to/lastmile_qr_scan", "ios": "https://dc.lft.to/lastmile_qr_scan"}, "bike_id": "d4d733cccbe15f30f4661b6927dc5477", "lon": -77.02491366666666}, {"is_reserved": 0, "fusion_lon": 0.0, "fusion_lat": 0.0, "name": "3a439d76bb72bb4e9d35a5694084bd86", "type": "electric_scooter", "is_disabled": 0, "lat": 38.8805655, "rental_uris": {"android": "https://dc.lft.to/lastmile_qr_scan", "ios": "https://dc.lft.to/lastmile_qr_scan"}, "bike_id": "3a439d76bb72bb4e9d35a5694084bd86", "lon": -77.02491583333334}, {"is_reserved": 0, "fusion_lon": 0.0, "fusion_lat": 0.0, "name": "1e993e114331aa11f264093850b921d2", "type": "electric_bike", "is_disabled": 0, "lat": 38.827856, "rental_uris": {"android": "https://dc.lft.to/lastmile_qr_scan", "ios": "https://dc.lft.to/lastmile_qr_scan"}, "bike_id": "1e993e114331aa11f264093850b921d2", "lon": -77.00916366666667}, {"is_reserved": 0, "fusion_lon": 0.0, "fusion_lat": 0.0, "name": "86047f70abd8032a9650d7cc588faf8d", "type": "electric_scooter", "is_disabled": 0, "lat": 38.90741383333334, "rental_uris": {"android": "https://dc.lft.to/lastmile_qr_scan", "ios": "https://dc.lft.to/lastmile_qr_scan"}, "bike_id": "86047f70abd8032a9650d7cc588faf8d", "lon": -77.04214283333333}, {"is_reserved": 0, "fusion_lon": 0.0, "fusion_lat": 0.0, "name": "b9283a391a91a9946b97aa20348d57db", "type": "electric_scooter", "is_disabled": 0, "lat": 38.91105816666666, "rental_uris": {"android": "https://dc.lft.to/lastmile_qr_scan", "ios": "https://dc.lft.to/lastmile_qr_scan"}, "bike_id": "b9283a391a91a9946b97aa20348d57db", "lon": -77.02507}, {"is_reserved": 0, "fusion_lon": 0.0, "fusion_lat": 0.0, "name": "65c08f161434ee81c9cbbb474d137317", "type": "electric_scooter", "is_disabled": 0, "lat": 38.93177383333333, "rental_uris": {"android": "https://dc.lft.to/lastmile_qr_scan", "ios": "https://dc.lft.to/lastmile_qr_scan"}, "bike_id": "65c08f161434ee81c9cbbb474d137317", "lon": -77.038587}, {"is_reserved": 0, "fusion_lon": 0.0, "fusion_lat": 0.0, "name": "18d5f2d6a81f9bd0a399cf158887ceb0", "type": "electric_scooter", "is_disabled": 0, "lat": 38.90371833333333, "rental_uris": {"android": "https://dc.lft.to/lastmile_qr_scan", "ios": "https://dc.lft.to/lastmile_qr_scan"}, "bike_id": "18d5f2d6a81f9bd0a399cf158887ceb0", "lon": -77.00986933333333}, {"is_reserved": 0, "fusion_lon": 0.0, "fusion_lat": 0.0, "name": "dffc0506d9a73dd5d9a8e5bbaad180d4", "type": "electric_scooter", "is_disabled": 0, "lat": 38.8826945, "rental_uris": {"android": "https://dc.lft.to/lastmile_qr_scan", "ios": "https://dc.lft.to/lastmile_qr_scan"}, "bike_id": "dffc0506d9a73dd5d9a8e5bbaad180d4", "lon": -76.992546}, {"is_reserved": 0, "fusion_lon": 0.0, "fusion_lat": 0.0, "name": "0bd7ceb4cc4c830317b98e5ec0c03e89", "type": "electric_scooter", "is_disabled": 0, "lat": 38.90036833333333, "rental_uris": {"android": "https://dc.lft.to/lastmile_qr_scan", "ios": "https://dc.lft.to/lastmile_qr_scan"}, "bike_id": "0bd7ceb4cc4c830317b98e5ec0c03e89", "lon": -76.99625616666667}, {"is_reserved": 0, "fusion_lon": 0.0, "fusion_lat": 0.0, "name": "21143c5eb71f1c712883514b8ba4235f", "type": "electric_scooter", "is_disabled": 0, "lat": 38.90876083333333, "rental_uris": {"android": "https://dc.lft.to/lastmile_qr_scan", "ios": "https://dc.lft.to/lastmile_qr_scan"}, "bike_id": "21143c5eb71f1c712883514b8ba4235f", "lon": -77.07163083333333}, {"is_reserved": 0, "fusion_lon": 0.0, "fusion_lat": 0.0, "name": "b973cdaf91c101c7f14bc111ad08a883", "type": "electric_scooter", "is_disabled": 0, "lat": 38.910397, "rental_uris": {"android": "https://dc.lft.to/lastmile_qr_scan", "ios": "https://dc.lft.to/lastmile_qr_scan"}, "bike_id": "b973cdaf91c101c7f14bc111ad08a883", "lon": -77.03123133333334}, {"is_reserved": 0, "fusion_lon": 0.0, "fusion_lat": 0.0, "name": "eae84ec84b2b595051c80f501b4f3bc7", "type": "electric_scooter", "is_disabled": 0, "lat": 38.92082166666667, "rental_uris": {"android": "https://dc.lft.to/lastmile_qr_scan", "ios": "https://dc.lft.to/lastmile_qr_scan"}, "bike_id": "eae84ec84b2b595051c80f501b4f3bc7", "lon": -77.04119716666666}, {"is_reserved": 0, "fusion_lon": 0.0, "fusion_lat": 0.0, "name": "8d486aeead1f3818b44624d09d2c18f4", "type": "electric_scooter", "is_disabled": 0, "lat": 38.90951666666667, "rental_uris": {"android": "https://dc.lft.to/lastmile_qr_scan", "ios": "https://dc.lft.to/lastmile_qr_scan"}, "bike_id": "8d486aeead1f3818b44624d09d2c18f4", "lon": -77.045838}, {"is_reserved": 0, "fusion_lon": 0.0, "fusion_lat": 0.0, "name": "70e989c6b263c8529d9607a1acf8d442", "type": "electric_scooter", "is_disabled": 0, "lat": 38.905089, "rental_uris": {"android": "https://dc.lft.to/lastmile_qr_scan", "ios": "https://dc.lft.to/lastmile_qr_scan"}, "bike_id": "70e989c6b263c8529d9607a1acf8d442", "lon": -76.98487583333333}, {"is_reserved": 0, "fusion_lon": 0.0, "fusion_lat": 0.0, "name": "58e224bfddd0975e262f32d983e18233", "type": "electric_scooter", "is_disabled": 0, "lat": 38.90331533333333, "rental_uris": {"android": "https://dc.lft.to/lastmile_qr_scan", "ios": "https://dc.lft.to/lastmile_qr_scan"}, "bike_id": "58e224bfddd0975e262f32d983e18233", "lon": -77.046647}, {"is_reserved": 0, "fusion_lon": 0.0, "fusion_lat": 0.0, "name": "71ca628487ff2bd78160c44fe40e7af7", "type": "electric_scooter", "is_disabled": 0, "lat": 38.90227616666667, "rental_uris": {"android": "https://dc.lft.to/lastmile_qr_scan", "ios": "https://dc.lft.to/lastmile_qr_scan"}, "bike_id": "71ca628487ff2bd78160c44fe40e7af7", "lon": -77.03938866666667}, {"is_reserved": 0, "fusion_lon": 0.0, "fusion_lat": 0.0, "name": "aa90b03bee8568bb923751a2b432f984", "type": "electric_scooter", "is_disabled": 0, "lat": 38.90237466666667, "rental_uris": {"android": "https://dc.lft.to/lastmile_qr_scan", "ios": "https://dc.lft.to/lastmile_qr_scan"}, "bike_id": "aa90b03bee8568bb923751a2b432f984", "lon": -77.0435365}, {"is_reserved": 0, "fusion_lon": 0.0, "fusion_lat": 0.0, "name": "2fc9d42a7dfa3c0c67c36fd139d04355", "type": "electric_scooter", "is_disabled": 0, "lat": 38.903731, "rental_uris": {"android": "https://dc.lft.to/lastmile_qr_scan", "ios": "https://dc.lft.to/lastmile_qr_scan"}, "bike_id": "2fc9d42a7dfa3c0c67c36fd139d04355", "lon": -77.03434166666666}, {"is_reserved": 0, "fusion_lon": 0.0, "fusion_lat": 0.0, "name": "6c87114634235bf6e24d0ff9150e718d", "type": "electric_scooter", "is_disabled": 0, "lat": 38.90784566666667, "rental_uris": {"android": "https://dc.lft.to/lastmile_qr_scan", "ios": "https://dc.lft.to/lastmile_qr_scan"}, "bike_id": "6c87114634235bf6e24d0ff9150e718d", "lon": -77.07252466666667}, {"is_reserved": 0, "fusion_lon": 0.0, "fusion_lat": 0.0, "name": "bbcbcebd9e8614a4ef125329858ce703", "type": "electric_bike", "is_disabled": 0, "lat": 39.05789383333333, "rental_uris": {"android": "https://dc.lft.to/lastmile_qr_scan", "ios": "https://dc.lft.to/lastmile_qr_scan"}, "bike_id": "bbcbcebd9e8614a4ef125329858ce703", "lon": -77.15019883333333}, {"is_reserved": 0, "fusion_lon": 0.0, "fusion_lat": 0.0, "name": "bc26d5ace36c7a7ca71250245a51570d", "type": "electric_scooter", "is_disabled": 0, "lat": 38.924577166666666, "rental_uris": {"android": "https://dc.lft.to/lastmile_qr_scan", "ios": "https://dc.lft.to/lastmile_qr_scan"}, "bike_id": "bc26d5ace36c7a7ca71250245a51570d", "lon": -77.05758933333334}, {"is_reserved": 0, "fusion_lon": 0.0, "fusion_lat": 0.0, "name": "3e43dffadd1f8a689730bb97cb360ad9", "type": "electric_scooter", "is_disabled": 0, "lat": 38.930509, "rental_uris": {"android": "https://dc.lft.to/lastmile_qr_scan", "ios": "https://dc.lft.to/lastmile_qr_scan"}, "bike_id": "3e43dffadd1f8a689730bb97cb360ad9", "lon": -77.03806366666667}, {"is_reserved": 0, "fusion_lon": 0.0, "fusion_lat": 0.0, "name": "1701e7457fca017d2128a2591812a5b8", "type": "electric_scooter", "is_disabled": 0, "lat": 38.910564666666666, "rental_uris": {"android": "https://dc.lft.to/lastmile_qr_scan", "ios": "https://dc.lft.to/lastmile_qr_scan"}, "bike_id": "1701e7457fca017d2128a2591812a5b8", "lon": -77.040912}, {"is_reserved": 0, "fusion_lon": 0.0, "fusion_lat": 0.0, "name": "93beac12d642f0cec1829ef251b3042b", "type": "electric_scooter", "is_disabled": 0, "lat": 38.902748, "rental_uris": {"android": "https://dc.lft.to/lastmile_qr_scan", "ios": "https://dc.lft.to/lastmile_qr_scan"}, "bike_id": "93beac12d642f0cec1829ef251b3042b", "lon": -77.05812066666667}, {"is_reserved": 0, "fusion_lon": 0.0, "fusion_lat": 0.0, "name": "7602099f27e7276b4fffb89a4f86fe3a", "type": "electric_scooter", "is_disabled": 0, "lat": 38.953281, "rental_uris": {"android": "https://dc.lft.to/lastmile_qr_scan", "ios": "https://dc.lft.to/lastmile_qr_scan"}, "bike_id": "7602099f27e7276b4fffb89a4f86fe3a", "lon": -77.07071066666667}, {"is_reserved": 0, "fusion_lon": 0.0, "fusion_lat": 0.0, "name": "9019df73bc13659cb12e6506aed14a9d", "type": "electric_scooter", "is_disabled": 0, "lat": 38.92166533333334, "rental_uris": {"android": "https://dc.lft.to/lastmile_qr_scan", "ios": "https://dc.lft.to/lastmile_qr_scan"}, "bike_id": "9019df73bc13659cb12e6506aed14a9d", "lon": -77.03310916666666}, {"is_reserved": 0, "fusion_lon": 0.0, "fusion_lat": 0.0, "name": "290db9fe5ea75cfaa8cdb562a9bc9718", "type": "electric_scooter", "is_disabled": 0, "lat": 38.895162666666664, "rental_uris": {"android": "https://dc.lft.to/lastmile_qr_scan", "ios": "https://dc.lft.to/lastmile_qr_scan"}, "bike_id": "290db9fe5ea75cfaa8cdb562a9bc9718", "lon": -77.03958816666666}, {"is_reserved": 0, "fusion_lon": 0.0, "fusion_lat": 0.0, "name": "1a4761a78cb0c2a797d7582d279ce152", "type": "electric_scooter", "is_disabled": 0, "lat": 38.9484185, "rental_uris": {"android": "https://dc.lft.to/lastmile_qr_scan", "ios": "https://dc.lft.to/lastmile_qr_scan"}, "bike_id": "1a4761a78cb0c2a797d7582d279ce152", "lon": -77.025439}, {"is_reserved": 0, "fusion_lon": 0.0, "fusion_lat": 0.0, "name": "6e250fd4e60d681a211abce946146cb4", "type": "electric_scooter", "is_disabled": 0, "lat": 38.949576666666665, "rental_uris": {"android": "https://dc.lft.to/lastmile_qr_scan", "ios": "https://dc.lft.to/lastmile_qr_scan"}, "bike_id": "6e250fd4e60d681a211abce946146cb4", "lon": -77.027254}, {"is_reserved": 0, "fusion_lon": 0.0, "fusion_lat": 0.0, "name": "6f150db2b4e477cefd92cd8ea40be55b", "type": "electric_scooter", "is_disabled": 0, "lat": 38.844334, "rental_uris": {"android": "https://dc.lft.to/lastmile_qr_scan", "ios": "https://dc.lft.to/lastmile_qr_scan"}, "bike_id": "6f150db2b4e477cefd92cd8ea40be55b", "lon": -76.9981685}, {"is_reserved": 0, "fusion_lon": 0.0, "fusion_lat": 0.0, "name": "453bdcca347e3e9e4ad20b2e93942da6", "type": "electric_scooter", "is_disabled": 0, "lat": 38.938890666666666, "rental_uris": {"android": "https://dc.lft.to/lastmile_qr_scan", "ios": "https://dc.lft.to/lastmile_qr_scan"}, "bike_id": "453bdcca347e3e9e4ad20b2e93942da6", "lon": -77.03337816666667}, {"is_reserved": 0, "fusion_lon": 0.0, "fusion_lat": 0.0, "name": "ebba7f8b3c500d446dfd064b19372b2c", "type": "electric_scooter", "is_disabled": 0, "lat": 38.9082085, "rental_uris": {"android": "https://dc.lft.to/lastmile_qr_scan", "ios": "https://dc.lft.to/lastmile_qr_scan"}, "bike_id": "ebba7f8b3c500d446dfd064b19372b2c", "lon": -77.04336416666666}, {"is_reserved": 0, "fusion_lon": 0.0, "fusion_lat": 0.0, "name": "72354fbb716fd8dbc563e2502a3a5db8", "type": "electric_scooter", "is_disabled": 0, "lat": 38.900891, "rental_uris": {"android": "https://dc.lft.to/lastmile_qr_scan", "ios": "https://dc.lft.to/lastmile_qr_scan"}, "bike_id": "72354fbb716fd8dbc563e2502a3a5db8", "lon": -77.04756466666667}, {"is_reserved": 0, "fusion_lon": 0.0, "fusion_lat": 0.0, "name": "bea544c8969fe652a9156b43cb7d9294", "type": "electric_scooter", "is_disabled": 0, "lat": 38.928618, "rental_uris": {"android": "https://dc.lft.to/lastmile_qr_scan", "ios": "https://dc.lft.to/lastmile_qr_scan"}, "bike_id": "bea544c8969fe652a9156b43cb7d9294", "lon": -77.0139355}, {"is_reserved": 0, "fusion_lon": 0.0, "fusion_lat": 0.0, "name": "f6f29522a3c9b86d4c1d44008385168a", "type": "electric_bike", "is_disabled": 0, "lat": 38.834317, "rental_uris": {"android": "https://dc.lft.to/lastmile_qr_scan", "ios": "https://dc.lft.to/lastmile_qr_scan"}, "bike_id": "f6f29522a3c9b86d4c1d44008385168a", "lon": -77.10357}, {"is_reserved": 0, "fusion_lon": 0.0, "fusion_lat": 0.0, "name": "863b14ebf8213d4def79bdd9ea858e45", "type": "electric_scooter", "is_disabled": 0, "lat": 38.90879916666667, "rental_uris": {"android": "https://dc.lft.to/lastmile_qr_scan", "ios": "https://dc.lft.to/lastmile_qr_scan"}, "bike_id": "863b14ebf8213d4def79bdd9ea858e45", "lon": -77.07170283333333}, {"is_reserved": 0, "fusion_lon": 0.0, "fusion_lat": 0.0, "name": "8d4eb234a89cdb19556034aa7da7a16b", "type": "electric_scooter", "is_disabled": 0, "lat": 38.95666033333333, "rental_uris": {"android": "https://dc.lft.to/lastmile_qr_scan", "ios": "https://dc.lft.to/lastmile_qr_scan"}, "bike_id": "8d4eb234a89cdb19556034aa7da7a16b", "lon": -77.01041166666667}, {"is_reserved": 0, "fusion_lon": 0.0, "fusion_lat": 0.0, "name": "bca44d73ea8fbd03010bab7715172b79", "type": "electric_scooter", "is_disabled": 0, "lat": 38.923821833333335, "rental_uris": {"android": "https://dc.lft.to/lastmile_qr_scan", "ios": "https://dc.lft.to/lastmile_qr_scan"}, "bike_id": "bca44d73ea8fbd03010bab7715172b79", "lon": -77.0313415}, {"is_reserved": 0, "fusion_lon": 0.0, "fusion_lat": 0.0, "name": "2cc74962c0def27e58e4e318661da3fd", "type": "electric_bike", "is_disabled": 0, "lat": 38.913825833333334, "rental_uris": {"android": "https://dc.lft.to/lastmile_qr_scan", "ios": "https://dc.lft.to/lastmile_qr_scan"}, "bike_id": "2cc74962c0def27e58e4e318661da3fd", "lon": -77.08924066666667}, {"is_reserved": 0, "fusion_lon": 0.0, "fusion_lat": 0.0, "name": "09fe742a994a6ca5335e9430d3050158", "type": "electric_scooter", "is_disabled": 0, "lat": 38.91358533333333, "rental_uris": {"android": "https://dc.lft.to/lastmile_qr_scan", "ios": "https://dc.lft.to/lastmile_qr_scan"}, "bike_id": "09fe742a994a6ca5335e9430d3050158", "lon": -77.02950566666667}, {"is_reserved": 0, "fusion_lon": 0.0, "fusion_lat": 0.0, "name": "80bd5c1e9a04cdc4b3deeaf205bef363", "type": "electric_scooter", "is_disabled": 0, "lat": 38.901575666666666, "rental_uris": {"android": "https://dc.lft.to/lastmile_qr_scan", "ios": "https://dc.lft.to/lastmile_qr_scan"}, "bike_id": "80bd5c1e9a04cdc4b3deeaf205bef363", "lon": -76.97631316666667}, {"is_reserved": 0, "fusion_lon": 0.0, "fusion_lat": 0.0, "name": "8a9c50c9b9a4256a4323628acf8c9b71", "type": "electric_scooter", "is_disabled": 0, "lat": 38.895262, "rental_uris": {"android": "https://dc.lft.to/lastmile_qr_scan", "ios": "https://dc.lft.to/lastmile_qr_scan"}, "bike_id": "8a9c50c9b9a4256a4323628acf8c9b71", "lon": -77.00337833333333}, {"is_reserved": 0, "fusion_lon": 0.0, "fusion_lat": 0.0, "name": "751da6108df4f05007a7191c1721c306", "type": "electric_scooter", "is_disabled": 0, "lat": 38.90645133333334, "rental_uris": {"android": "https://dc.lft.to/lastmile_qr_scan", "ios": "https://dc.lft.to/lastmile_qr_scan"}, "bike_id": "751da6108df4f05007a7191c1721c306", "lon": -77.00605666666667}, {"is_reserved": 0, "fusion_lon": 0.0, "fusion_lat": 0.0, "name": "6029245e074cec47985c7a200aec0038", "type": "electric_scooter", "is_disabled": 0, "lat": 38.92403816666667, "rental_uris": {"android": "https://dc.lft.to/lastmile_qr_scan", "ios": "https://dc.lft.to/lastmile_qr_scan"}, "bike_id": "6029245e074cec47985c7a200aec0038", "lon": -77.027014}, {"is_reserved": 0, "fusion_lon": 0.0, "fusion_lat": 0.0, "name": "2e1d12e18e08ac50c026a8c8d4dd6433", "type": "electric_scooter", "is_disabled": 0, "lat": 38.91570883333333, "rental_uris": {"android": "https://dc.lft.to/lastmile_qr_scan", "ios": "https://dc.lft.to/lastmile_qr_scan"}, "bike_id": "2e1d12e18e08ac50c026a8c8d4dd6433", "lon": -77.02386383333334}, {"is_reserved": 0, "fusion_lon": 0.0, "fusion_lat": 0.0, "name": "2d888949facb6403817ea525adab6257", "type": "electric_scooter", "is_disabled": 0, "lat": 38.9014345, "rental_uris": {"android": "https://dc.lft.to/lastmile_qr_scan", "ios": "https://dc.lft.to/lastmile_qr_scan"}, "bike_id": "2d888949facb6403817ea525adab6257", "lon": -77.00007983333333}, {"is_reserved": 0, "fusion_lon": 0.0, "fusion_lat": 0.0, "name": "32dbb1a1cce1c67e405f826ca82b568d", "type": "electric_scooter", "is_disabled": 0, "lat": 38.89915516666667, "rental_uris": {"android": "https://dc.lft.to/lastmile_qr_scan", "ios": "https://dc.lft.to/lastmile_qr_scan"}, "bike_id": "32dbb1a1cce1c67e405f826ca82b568d", "lon": -76.93362783333333}, {"is_reserved": 0, "fusion_lon": 0.0, "fusion_lat": 0.0, "name": "5cdd7711b1fe550ba3b0dd29da35e603", "type": "electric_scooter", "is_disabled": 0, "lat": 38.905626166666664, "rental_uris": {"android": "https://dc.lft.to/lastmile_qr_scan", "ios": "https://dc.lft.to/lastmile_qr_scan"}, "bike_id": "5cdd7711b1fe550ba3b0dd29da35e603", "lon": -77.02216283333334}, {"is_reserved": 0, "fusion_lon": 0.0, "fusion_lat": 0.0, "name": "cc9b41a7952e15b835fd86d509086a90", "type": "electric_scooter", "is_disabled": 0, "lat": 38.91443983333333, "rental_uris": {"android": "https://dc.lft.to/lastmile_qr_scan", "ios": "https://dc.lft.to/lastmile_qr_scan"}, "bike_id": "cc9b41a7952e15b835fd86d509086a90", "lon": -77.02044466666666}, {"is_reserved": 0, "fusion_lon": 0.0, "fusion_lat": 0.0, "name": "4856993e25b1476c2c0d3f2d5c13f146", "type": "electric_scooter", "is_disabled": 0, "lat": 38.87649066666667, "rental_uris": {"android": "https://dc.lft.to/lastmile_qr_scan", "ios": "https://dc.lft.to/lastmile_qr_scan"}, "bike_id": "4856993e25b1476c2c0d3f2d5c13f146", "lon": -76.9650645}, {"is_reserved": 0, "fusion_lon": 0.0, "fusion_lat": 0.0, "name": "c9672ff267e5328a680f32a6506758eb", "type": "electric_scooter", "is_disabled": 0, "lat": 38.869793333333334, "rental_uris": {"android": "https://dc.lft.to/lastmile_qr_scan", "ios": "https://dc.lft.to/lastmile_qr_scan"}, "bike_id": "c9672ff267e5328a680f32a6506758eb", "lon": -77.01220316666667}, {"is_reserved": 0, "fusion_lon": 0.0, "fusion_lat": 0.0, "name": "12e802093d6b13fc866bc2815d2fcfb9", "type": "electric_scooter", "is_disabled": 0, "lat": 38.91950166666667, "rental_uris": {"android": "https://dc.lft.to/lastmile_qr_scan", "ios": "https://dc.lft.to/lastmile_qr_scan"}, "bike_id": "12e802093d6b13fc866bc2815d2fcfb9", "lon": -77.02887533333333}, {"is_reserved": 0, "fusion_lon": 0.0, "fusion_lat": 0.0, "name": "06f1af0f185542538ab61a0deaae7793", "type": "electric_scooter", "is_disabled": 0, "lat": 38.94207466666667, "rental_uris": {"android": "https://dc.lft.to/lastmile_qr_scan", "ios": "https://dc.lft.to/lastmile_qr_scan"}, "bike_id": "06f1af0f185542538ab61a0deaae7793", "lon": -77.0251615}, {"is_reserved": 0, "fusion_lon": 0.0, "fusion_lat": 0.0, "name": "8550685066ca1e5282ae23370d53a6c9", "type": "electric_bike", "is_disabled": 0, "lat": 38.95503216666667, "rental_uris": {"android": "https://dc.lft.to/lastmile_qr_scan", "ios": "https://dc.lft.to/lastmile_qr_scan"}, "bike_id": "8550685066ca1e5282ae23370d53a6c9", "lon": -76.99356516666667}, {"is_reserved": 0, "fusion_lon": 0.0, "fusion_lat": 0.0, "name": "25e4133b64bd1069a19164e5f4a0a64f", "type": "electric_scooter", "is_disabled": 0, "lat": 38.93266116666667, "rental_uris": {"android": "https://dc.lft.to/lastmile_qr_scan", "ios": "https://dc.lft.to/lastmile_qr_scan"}, "bike_id": "25e4133b64bd1069a19164e5f4a0a64f", "lon": -77.021013}, {"is_reserved": 0, "fusion_lon": 0.0, "fusion_lat": 0.0, "name": "6c3d4bb8b6faa1c148ac69fc552fe052", "type": "electric_scooter", "is_disabled": 0, "lat": 38.92938566666667, "rental_uris": {"android": "https://dc.lft.to/lastmile_qr_scan", "ios": "https://dc.lft.to/lastmile_qr_scan"}, "bike_id": "6c3d4bb8b6faa1c148ac69fc552fe052", "lon": -77.03655883333333}, {"is_reserved": 0, "fusion_lon": 0.0, "fusion_lat": 0.0, "name": "6aa5745616bef0f0a3cf211e38c15868", "type": "electric_bike", "is_disabled": 0, "lat": 38.932398666666664, "rental_uris": {"android": "https://dc.lft.to/lastmile_qr_scan", "ios": "https://dc.lft.to/lastmile_qr_scan"}, "bike_id": "6aa5745616bef0f0a3cf211e38c15868", "lon": -76.974204}, {"is_reserved": 0, "fusion_lon": 0.0, "fusion_lat": 0.0, "name": "b59b705d97ce5ee0d3feb73ab2c7dd3a", "type": "electric_scooter", "is_disabled": 0, "lat": 38.913531, "rental_uris": {"android": "https://dc.lft.to/lastmile_qr_scan", "ios": "https://dc.lft.to/lastmile_qr_scan"}, "bike_id": "b59b705d97ce5ee0d3feb73ab2c7dd3a", "lon": -77.02055216666666}, {"is_reserved": 0, "fusion_lon": 0.0, "fusion_lat": 0.0, "name": "8296301b2ff444ec50085d7160cf0b02", "type": "electric_scooter", "is_disabled": 0, "lat": 38.89221166666667, "rental_uris": {"android": "https://dc.lft.to/lastmile_qr_scan", "ios": "https://dc.lft.to/lastmile_qr_scan"}, "bike_id": "8296301b2ff444ec50085d7160cf0b02", "lon": -77.0430735}, {"is_reserved": 0, "fusion_lon": 0.0, "fusion_lat": 0.0, "name": "120117d16560997bb3c3f0259fba6a42", "type": "electric_scooter", "is_disabled": 0, "lat": 38.930998, "rental_uris": {"android": "https://dc.lft.to/lastmile_qr_scan", "ios": "https://dc.lft.to/lastmile_qr_scan"}, "bike_id": "120117d16560997bb3c3f0259fba6a42", "lon": -77.02796883333333}, {"is_reserved": 0, "fusion_lon": 0.0, "fusion_lat": 0.0, "name": "7ce30c9ea22bfae4738d8fabcb699c59", "type": "electric_scooter", "is_disabled": 0, "lat": 38.95837216666666, "rental_uris": {"android": "https://dc.lft.to/lastmile_qr_scan", "ios": "https://dc.lft.to/lastmile_qr_scan"}, "bike_id": "7ce30c9ea22bfae4738d8fabcb699c59", "lon": -77.01512533333333}, {"is_reserved": 0, "fusion_lon": 0.0, "fusion_lat": 0.0, "name": "67aabfbd2258fd59d4234a0623a109d0", "type": "electric_scooter", "is_disabled": 0, "lat": 38.908174333333335, "rental_uris": {"android": "https://dc.lft.to/lastmile_qr_scan", "ios": "https://dc.lft.to/lastmile_qr_scan"}, "bike_id": "67aabfbd2258fd59d4234a0623a109d0", "lon": -77.03549983333333}, {"is_reserved": 0, "fusion_lon": 0.0, "fusion_lat": 0.0, "name": "f213f3b5c0974574ae103475c402ea74", "type": "electric_bike", "is_disabled": 0, "lat": 39.04237466666667, "rental_uris": {"android": "https://dc.lft.to/lastmile_qr_scan", "ios": "https://dc.lft.to/lastmile_qr_scan"}, "bike_id": "f213f3b5c0974574ae103475c402ea74", "lon": -77.03079433333333}, {"is_reserved": 0, "fusion_lon": 0.0, "fusion_lat": 0.0, "name": "9651e0274a58ebbeaee982c7026ad99e", "type": "electric_scooter", "is_disabled": 0, "lat": 38.908729666666666, "rental_uris": {"android": "https://dc.lft.to/lastmile_qr_scan", "ios": "https://dc.lft.to/lastmile_qr_scan"}, "bike_id": "9651e0274a58ebbeaee982c7026ad99e", "lon": -77.071635}, {"is_reserved": 0, "fusion_lon": 0.0, "fusion_lat": 0.0, "name": "50eb3cee37e7f0b020a16fd99d47f06c", "type": "electric_scooter", "is_disabled": 0, "lat": 38.916965, "rental_uris": {"android": "https://dc.lft.to/lastmile_qr_scan", "ios": "https://dc.lft.to/lastmile_qr_scan"}, "bike_id": "50eb3cee37e7f0b020a16fd99d47f06c", "lon": -77.04604233333333}, {"is_reserved": 0, "fusion_lon": 0.0, "fusion_lat": 0.0, "name": "21344ece0ec335240d3477603b551bfd", "type": "electric_scooter", "is_disabled": 0, "lat": 38.918218, "rental_uris": {"android": "https://dc.lft.to/lastmile_qr_scan", "ios": "https://dc.lft.to/lastmile_qr_scan"}, "bike_id": "21344ece0ec335240d3477603b551bfd", "lon": -77.03458266666667}, {"is_reserved": 0, "fusion_lon": 0.0, "fusion_lat": 0.0, "name": "3776158a23a6781c017f006721aace11", "type": "electric_scooter", "is_disabled": 0, "lat": 38.85179983333333, "rental_uris": {"android": "https://dc.lft.to/lastmile_qr_scan", "ios": "https://dc.lft.to/lastmile_qr_scan"}, "bike_id": "3776158a23a6781c017f006721aace11", "lon": -76.99581533333334}, {"is_reserved": 0, "fusion_lon": 0.0, "fusion_lat": 0.0, "name": "79d2ec9ca6e48bc145b94f53fa631dee", "type": "electric_scooter", "is_disabled": 0, "lat": 38.9010045, "rental_uris": {"android": "https://dc.lft.to/lastmile_qr_scan", "ios": "https://dc.lft.to/lastmile_qr_scan"}, "bike_id": "79d2ec9ca6e48bc145b94f53fa631dee", "lon": -77.02091916666667}, {"is_reserved": 0, "fusion_lon": 0.0, "fusion_lat": 0.0, "name": "8b89e7bd1a999ec3f1d33e8754839dc8", "type": "electric_scooter", "is_disabled": 0, "lat": 38.9169555, "rental_uris": {"android": "https://dc.lft.to/lastmile_qr_scan", "ios": "https://dc.lft.to/lastmile_qr_scan"}, "bike_id": "8b89e7bd1a999ec3f1d33e8754839dc8", "lon": -77.03213816666667}, {"is_reserved": 0, "fusion_lon": 0.0, "fusion_lat": 0.0, "name": "ac75064ecd0099899b0514b69baeb853", "type": "electric_scooter", "is_disabled": 0, "lat": 38.93616433333333, "rental_uris": {"android": "https://dc.lft.to/lastmile_qr_scan", "ios": "https://dc.lft.to/lastmile_qr_scan"}, "bike_id": "ac75064ecd0099899b0514b69baeb853", "lon": -77.0381425}, {"is_reserved": 0, "fusion_lon": 0.0, "fusion_lat": 0.0, "name": "b04a67e69787a74ff2a9b88205923234", "type": "electric_bike", "is_disabled": 0, "lat": 38.829541666666664, "rental_uris": {"android": "https://dc.lft.to/lastmile_qr_scan", "ios": "https://dc.lft.to/lastmile_qr_scan"}, "bike_id": "b04a67e69787a74ff2a9b88205923234", "lon": -77.12358016666667}, {"is_reserved": 0, "fusion_lon": 0.0, "fusion_lat": 0.0, "name": "5afd66ea4f25d9911878baf539ea3cfd", "type": "electric_scooter", "is_disabled": 0, "lat": 38.92702333333333, "rental_uris": {"android": "https://dc.lft.to/lastmile_qr_scan", "ios": "https://dc.lft.to/lastmile_qr_scan"}, "bike_id": "5afd66ea4f25d9911878baf539ea3cfd", "lon": -77.015046}, {"is_reserved": 0, "fusion_lon": 0.0, "fusion_lat": 0.0, "name": "994195824c9a4acfd9be700f55d9e4d3", "type": "electric_scooter", "is_disabled": 0, "lat": 38.920461, "rental_uris": {"android": "https://dc.lft.to/lastmile_qr_scan", "ios": "https://dc.lft.to/lastmile_qr_scan"}, "bike_id": "994195824c9a4acfd9be700f55d9e4d3", "lon": -76.9894785}, {"is_reserved": 0, "fusion_lon": 0.0, "fusion_lat": 0.0, "name": "bcebd49044d9f2415516d28a398776ab", "type": "electric_scooter", "is_disabled": 0, "lat": 38.90056833333333, "rental_uris": {"android": "https://dc.lft.to/lastmile_qr_scan", "ios": "https://dc.lft.to/lastmile_qr_scan"}, "bike_id": "bcebd49044d9f2415516d28a398776ab", "lon": -77.03958166666666}, {"is_reserved": 0, "fusion_lon": 0.0, "fusion_lat": 0.0, "name": "7d31877b9ebd148f44ffab9921b1b9aa", "type": "electric_scooter", "is_disabled": 0, "lat": 38.902683, "rental_uris": {"android": "https://dc.lft.to/lastmile_qr_scan", "ios": "https://dc.lft.to/lastmile_qr_scan"}, "bike_id": "7d31877b9ebd148f44ffab9921b1b9aa", "lon": -77.05915783333333}, {"is_reserved": 0, "fusion_lon": 0.0, "fusion_lat": 0.0, "name": "af833deb8377b773053fbfd03b7b8edb", "type": "electric_scooter", "is_disabled": 0, "lat": 38.924434833333336, "rental_uris": {"android": "https://dc.lft.to/lastmile_qr_scan", "ios": "https://dc.lft.to/lastmile_qr_scan"}, "bike_id": "af833deb8377b773053fbfd03b7b8edb", "lon": -77.02146416666666}, {"is_reserved": 0, "fusion_lon": 0.0, "fusion_lat": 0.0, "name": "253ce65099081e7fd130c6891acb9cb5", "type": "electric_scooter", "is_disabled": 0, "lat": 38.921556833333334, "rental_uris": {"android": "https://dc.lft.to/lastmile_qr_scan", "ios": "https://dc.lft.to/lastmile_qr_scan"}, "bike_id": "253ce65099081e7fd130c6891acb9cb5", "lon": -77.02104716666666}, {"is_reserved": 0, "fusion_lon": 0.0, "fusion_lat": 0.0, "name": "2080fefcf535cdaedbc6aad3942c94a7", "type": "electric_scooter", "is_disabled": 0, "lat": 38.927470666666665, "rental_uris": {"android": "https://dc.lft.to/lastmile_qr_scan", "ios": "https://dc.lft.to/lastmile_qr_scan"}, "bike_id": "2080fefcf535cdaedbc6aad3942c94a7", "lon": -77.02143583333333}, {"is_reserved": 0, "fusion_lon": 0.0, "fusion_lat": 0.0, "name": "e4967bae078818651b78e0888219f3f9", "type": "electric_scooter", "is_disabled": 0, "lat": 38.95525633333333, "rental_uris": {"android": "https://dc.lft.to/lastmile_qr_scan", "ios": "https://dc.lft.to/lastmile_qr_scan"}, "bike_id": "e4967bae078818651b78e0888219f3f9", "lon": -77.02217383333333}, {"is_reserved": 0, "fusion_lon": 0.0, "fusion_lat": 0.0, "name": "e1cdde7e7a6f22551d6721128e813e17", "type": "electric_scooter", "is_disabled": 0, "lat": 38.934261666666664, "rental_uris": {"android": "https://dc.lft.to/lastmile_qr_scan", "ios": "https://dc.lft.to/lastmile_qr_scan"}, "bike_id": "e1cdde7e7a6f22551d6721128e813e17", "lon": -77.03998083333333}, {"is_reserved": 0, "fusion_lon": 0.0, "fusion_lat": 0.0, "name": "e8547dffbefac1497287bce685902006", "type": "electric_scooter", "is_disabled": 0, "lat": 38.89857283333333, "rental_uris": {"android": "https://dc.lft.to/lastmile_qr_scan", "ios": "https://dc.lft.to/lastmile_qr_scan"}, "bike_id": "e8547dffbefac1497287bce685902006", "lon": -76.990196}, {"is_reserved": 0, "fusion_lon": 0.0, "fusion_lat": 0.0, "name": "47c0de267966804e976bf74d0e7a0894", "type": "electric_scooter", "is_disabled": 0, "lat": 38.892233166666664, "rental_uris": {"android": "https://dc.lft.to/lastmile_qr_scan", "ios": "https://dc.lft.to/lastmile_qr_scan"}, "bike_id": "47c0de267966804e976bf74d0e7a0894", "lon": -77.04517916666667}, {"is_reserved": 0, "fusion_lon": 0.0, "fusion_lat": 0.0, "name": "9e281aa76c80ac844b325b92c9bfc29b", "type": "electric_scooter", "is_disabled": 0, "lat": 38.89222933333333, "rental_uris": {"android": "https://dc.lft.to/lastmile_qr_scan", "ios": "https://dc.lft.to/lastmile_qr_scan"}, "bike_id": "9e281aa76c80ac844b325b92c9bfc29b", "lon": -77.04309516666666}, {"is_reserved": 0, "fusion_lon": 0.0, "fusion_lat": 0.0, "name": "d6a0a1eeead44af811f4764af622f291", "type": "electric_scooter", "is_disabled": 0, "lat": 38.88490616666667, "rental_uris": {"android": "https://dc.lft.to/lastmile_qr_scan", "ios": "https://dc.lft.to/lastmile_qr_scan"}, "bike_id": "d6a0a1eeead44af811f4764af622f291", "lon": -77.007117}, {"is_reserved": 0, "fusion_lon": 0.0, "fusion_lat": 0.0, "name": "12307c42318d9c199fc73d77cd5b59f4", "type": "electric_scooter", "is_disabled": 0, "lat": 38.90238433333333, "rental_uris": {"android": "https://dc.lft.to/lastmile_qr_scan", "ios": "https://dc.lft.to/lastmile_qr_scan"}, "bike_id": "12307c42318d9c199fc73d77cd5b59f4", "lon": -76.98932966666666}, {"is_reserved": 0, "fusion_lon": 0.0, "fusion_lat": 0.0, "name": "10205e62f608827ced0ba4fe7b8570e2", "type": "electric_scooter", "is_disabled": 0, "lat": 38.90754233333333, "rental_uris": {"android": "https://dc.lft.to/lastmile_qr_scan", "ios": "https://dc.lft.to/lastmile_qr_scan"}, "bike_id": "10205e62f608827ced0ba4fe7b8570e2", "lon": -77.04559366666666}, {"is_reserved": 0, "fusion_lon": 0.0, "fusion_lat": 0.0, "name": "05b0da9f32862c938dcaa8eb124fcc83", "type": "electric_scooter", "is_disabled": 0, "lat": 38.904797333333335, "rental_uris": {"android": "https://dc.lft.to/lastmile_qr_scan", "ios": "https://dc.lft.to/lastmile_qr_scan"}, "bike_id": "05b0da9f32862c938dcaa8eb124fcc83", "lon": -77.03552483333333}, {"is_reserved": 0, "fusion_lon": 0.0, "fusion_lat": 0.0, "name": "4885b7e2ec213bb168f12f40f01a0a4b", "type": "electric_scooter", "is_disabled": 0, "lat": 38.915816166666666, "rental_uris": {"android": "https://dc.lft.to/lastmile_qr_scan", "ios": "https://dc.lft.to/lastmile_qr_scan"}, "bike_id": "4885b7e2ec213bb168f12f40f01a0a4b", "lon": -77.0364025}, {"is_reserved": 0, "fusion_lon": 0.0, "fusion_lat": 0.0, "name": "8514037bfa2c64ffef57fca0f268fe45", "type": "electric_scooter", "is_disabled": 0, "lat": 38.91257516666667, "rental_uris": {"android": "https://dc.lft.to/lastmile_qr_scan", "ios": "https://dc.lft.to/lastmile_qr_scan"}, "bike_id": "8514037bfa2c64ffef57fca0f268fe45", "lon": -77.03074716666667}, {"is_reserved": 0, "fusion_lon": 0.0, "fusion_lat": 0.0, "name": "e4202fc0a07fb0027772efa3d71848d3", "type": "electric_scooter", "is_disabled": 0, "lat": 38.90373483333333, "rental_uris": {"android": "https://dc.lft.to/lastmile_qr_scan", "ios": "https://dc.lft.to/lastmile_qr_scan"}, "bike_id": "e4202fc0a07fb0027772efa3d71848d3", "lon": -77.03836933333334}, {"is_reserved": 0, "fusion_lon": 0.0, "fusion_lat": 0.0, "name": "d91f35001c3bd6a15bb9db567774027b", "type": "electric_scooter", "is_disabled": 0, "lat": 38.90006483333333, "rental_uris": {"android": "https://dc.lft.to/lastmile_qr_scan", "ios": "https://dc.lft.to/lastmile_qr_scan"}, "bike_id": "d91f35001c3bd6a15bb9db567774027b", "lon": -77.00306516666667}, {"is_reserved": 0, "fusion_lon": 0.0, "fusion_lat": 0.0, "name": "fc455e7c103216c5e145ad7a27e4d105", "type": "electric_scooter", "is_disabled": 0, "lat": 38.902733833333336, "rental_uris": {"android": "https://dc.lft.to/lastmile_qr_scan", "ios": "https://dc.lft.to/lastmile_qr_scan"}, "bike_id": "fc455e7c103216c5e145ad7a27e4d105", "lon": -77.0388135}, {"is_reserved": 0, "fusion_lon": 0.0, "fusion_lat": 0.0, "name": "109e1ee25f9d42980461ab810fc275c6", "type": "electric_scooter", "is_disabled": 0, "lat": 38.917089, "rental_uris": {"android": "https://dc.lft.to/lastmile_qr_scan", "ios": "https://dc.lft.to/lastmile_qr_scan"}, "bike_id": "109e1ee25f9d42980461ab810fc275c6", "lon": -77.03502016666667}, {"is_reserved": 0, "fusion_lon": 0.0, "fusion_lat": 0.0, "name": "81777ed1688221793fc6aa94cb09c3e8", "type": "electric_scooter", "is_disabled": 0, "lat": 38.914457166666665, "rental_uris": {"android": "https://dc.lft.to/lastmile_qr_scan", "ios": "https://dc.lft.to/lastmile_qr_scan"}, "bike_id": "81777ed1688221793fc6aa94cb09c3e8", "lon": -77.0219285}, {"is_reserved": 0, "fusion_lon": 0.0, "fusion_lat": 0.0, "name": "38fe30a20a53a657bdb8b51caa820299", "type": "electric_scooter", "is_disabled": 0, "lat": 38.967828, "rental_uris": {"android": "https://dc.lft.to/lastmile_qr_scan", "ios": "https://dc.lft.to/lastmile_qr_scan"}, "bike_id": "38fe30a20a53a657bdb8b51caa820299", "lon": -77.015142}, {"is_reserved": 0, "fusion_lon": 0.0, "fusion_lat": 0.0, "name": "46ed2bae7e9b04fae4077c9abd2dbd58", "type": "electric_scooter", "is_disabled": 0, "lat": 38.89998816666667, "rental_uris": {"android": "https://dc.lft.to/lastmile_qr_scan", "ios": "https://dc.lft.to/lastmile_qr_scan"}, "bike_id": "46ed2bae7e9b04fae4077c9abd2dbd58", "lon": -76.9994475}, {"is_reserved": 0, "fusion_lon": 0.0, "fusion_lat": 0.0, "name": "8ec025d32c92ee56f9410f6e656108cc", "type": "electric_scooter", "is_disabled": 0, "lat": 38.894973, "rental_uris": {"android": "https://dc.lft.to/lastmile_qr_scan", "ios": "https://dc.lft.to/lastmile_qr_scan"}, "bike_id": "8ec025d32c92ee56f9410f6e656108cc", "lon": -77.02743516666666}, {"is_reserved": 0, "fusion_lon": 0.0, "fusion_lat": 0.0, "name": "96824a0013252a7095d6217caca9cf48", "type": "electric_scooter", "is_disabled": 0, "lat": 38.892376, "rental_uris": {"android": "https://dc.lft.to/lastmile_qr_scan", "ios": "https://dc.lft.to/lastmile_qr_scan"}, "bike_id": "96824a0013252a7095d6217caca9cf48", "lon": -77.03209033333333}, {"is_reserved": 0, "fusion_lon": 0.0, "fusion_lat": 0.0, "name": "086f6a1a5de7c57780cf9db04b99aa32", "type": "electric_scooter", "is_disabled": 0, "lat": 38.918881666666664, "rental_uris": {"android": "https://dc.lft.to/lastmile_qr_scan", "ios": "https://dc.lft.to/lastmile_qr_scan"}, "bike_id": "086f6a1a5de7c57780cf9db04b99aa32", "lon": -77.04829633333334}, {"is_reserved": 0, "fusion_lon": 0.0, "fusion_lat": 0.0, "name": "45c1dfae94785ed816912c912502a16f", "type": "electric_scooter", "is_disabled": 0, "lat": 38.9203735, "rental_uris": {"android": "https://dc.lft.to/lastmile_qr_scan", "ios": "https://dc.lft.to/lastmile_qr_scan"}, "bike_id": "45c1dfae94785ed816912c912502a16f", "lon": -77.022033}, {"is_reserved": 0, "fusion_lon": 0.0, "fusion_lat": 0.0, "name": "0869d4a26719a9c389a1f0148bf7e6e7", "type": "electric_scooter", "is_disabled": 0, "lat": 38.89356683333333, "rental_uris": {"android": "https://dc.lft.to/lastmile_qr_scan", "ios": "https://dc.lft.to/lastmile_qr_scan"}, "bike_id": "0869d4a26719a9c389a1f0148bf7e6e7", "lon": -77.00333916666666}, {"is_reserved": 0, "fusion_lon": 0.0, "fusion_lat": 0.0, "name": "6230cfce40a9349b4a0b748f15992cf9", "type": "electric_scooter", "is_disabled": 0, "lat": 38.88282816666667, "rental_uris": {"android": "https://dc.lft.to/lastmile_qr_scan", "ios": "https://dc.lft.to/lastmile_qr_scan"}, "bike_id": "6230cfce40a9349b4a0b748f15992cf9", "lon": -76.98780466666666}, {"is_reserved": 0, "fusion_lon": 0.0, "fusion_lat": 0.0, "name": "c0ce488720a2da1f953203a1fee33b19", "type": "electric_scooter", "is_disabled": 0, "lat": 38.92148983333333, "rental_uris": {"android": "https://dc.lft.to/lastmile_qr_scan", "ios": "https://dc.lft.to/lastmile_qr_scan"}, "bike_id": "c0ce488720a2da1f953203a1fee33b19", "lon": -77.03451983333333}, {"is_reserved": 0, "fusion_lon": 0.0, "fusion_lat": 0.0, "name": "686f0c37f9a5ebf5df872805706965b1", "type": "electric_scooter", "is_disabled": 0, "lat": 38.9055305, "rental_uris": {"android": "https://dc.lft.to/lastmile_qr_scan", "ios": "https://dc.lft.to/lastmile_qr_scan"}, "bike_id": "686f0c37f9a5ebf5df872805706965b1", "lon": -77.0466345}, {"is_reserved": 0, "fusion_lon": 0.0, "fusion_lat": 0.0, "name": "7ca26afc345d38fcc42aff29544ce11d", "type": "electric_bike", "is_disabled": 0, "lat": 38.945522833333335, "rental_uris": {"android": "https://dc.lft.to/lastmile_qr_scan", "ios": "https://dc.lft.to/lastmile_qr_scan"}, "bike_id": "7ca26afc345d38fcc42aff29544ce11d", "lon": -76.89541433333333}, {"is_reserved": 0, "fusion_lon": 0.0, "fusion_lat": 0.0, "name": "a1220f1493d904f9d71546e9b1fa19fd", "type": "electric_scooter", "is_disabled": 0, "lat": 38.93536016666667, "rental_uris": {"android": "https://dc.lft.to/lastmile_qr_scan", "ios": "https://dc.lft.to/lastmile_qr_scan"}, "bike_id": "a1220f1493d904f9d71546e9b1fa19fd", "lon": -77.02349933333333}, {"is_reserved": 0, "fusion_lon": 0.0, "fusion_lat": 0.0, "name": "61f74d7cfaf33851917479a424047b51", "type": "electric_scooter", "is_disabled": 0, "lat": 38.924388, "rental_uris": {"android": "https://dc.lft.to/lastmile_qr_scan", "ios": "https://dc.lft.to/lastmile_qr_scan"}, "bike_id": "61f74d7cfaf33851917479a424047b51", "lon": -77.02156333333333}, {"is_reserved": 0, "fusion_lon": 0.0, "fusion_lat": 0.0, "name": "2ce7e38d94d5d76625a323451329e64e", "type": "electric_scooter", "is_disabled": 0, "lat": 38.905551333333335, "rental_uris": {"android": "https://dc.lft.to/lastmile_qr_scan", "ios": "https://dc.lft.to/lastmile_qr_scan"}, "bike_id": "2ce7e38d94d5d76625a323451329e64e", "lon": -77.03470933333334}, {"is_reserved": 0, "fusion_lon": 0.0, "fusion_lat": 0.0, "name": "c6c8a52e0b299de1ba91a80b604f07b1", "type": "electric_scooter", "is_disabled": 0, "lat": 38.90398366666667, "rental_uris": {"android": "https://dc.lft.to/lastmile_qr_scan", "ios": "https://dc.lft.to/lastmile_qr_scan"}, "bike_id": "c6c8a52e0b299de1ba91a80b604f07b1", "lon": -77.06296916666666}, {"is_reserved": 0, "fusion_lon": 0.0, "fusion_lat": 0.0, "name": "f8645dbc80e2f4a0c7c15736c8009a0b", "type": "electric_scooter", "is_disabled": 0, "lat": 38.94263333333333, "rental_uris": {"android": "https://dc.lft.to/lastmile_qr_scan", "ios": "https://dc.lft.to/lastmile_qr_scan"}, "bike_id": "f8645dbc80e2f4a0c7c15736c8009a0b", "lon": -77.0284455}, {"is_reserved": 0, "fusion_lon": 0.0, "fusion_lat": 0.0, "name": "5463e0685a63ca7675dad5ee21d8c6e2", "type": "electric_scooter", "is_disabled": 0, "lat": 38.95152483333333, "rental_uris": {"android": "https://dc.lft.to/lastmile_qr_scan", "ios": "https://dc.lft.to/lastmile_qr_scan"}, "bike_id": "5463e0685a63ca7675dad5ee21d8c6e2", "lon": -77.018688}, {"is_reserved": 0, "fusion_lon": 0.0, "fusion_lat": 0.0, "name": "6cffb45ee6a388243e222fbdd182a444", "type": "electric_bike", "is_disabled": 0, "lat": 38.90560283333333, "rental_uris": {"android": "https://dc.lft.to/lastmile_qr_scan", "ios": "https://dc.lft.to/lastmile_qr_scan"}, "bike_id": "6cffb45ee6a388243e222fbdd182a444", "lon": -77.06288683333334}, {"is_reserved": 0, "fusion_lon": 0.0, "fusion_lat": 0.0, "name": "35170536e059ae3ee0a505a61369f119", "type": "electric_scooter", "is_disabled": 0, "lat": 38.907259, "rental_uris": {"android": "https://dc.lft.to/lastmile_qr_scan", "ios": "https://dc.lft.to/lastmile_qr_scan"}, "bike_id": "35170536e059ae3ee0a505a61369f119", "lon": -77.00381533333334}, {"is_reserved": 0, "fusion_lon": 0.0, "fusion_lat": 0.0, "name": "9483ebe135f4fbed5f59b743c6d59f3b", "type": "electric_bike", "is_disabled": 0, "lat": 38.90406, "rental_uris": {"android": "https://dc.lft.to/lastmile_qr_scan", "ios": "https://dc.lft.to/lastmile_qr_scan"}, "bike_id": "9483ebe135f4fbed5f59b743c6d59f3b", "lon": -77.04494216666667}, {"is_reserved": 0, "fusion_lon": 0.0, "fusion_lat": 0.0, "name": "99f26a9f264fa0255d097a51ce9734af", "type": "electric_scooter", "is_disabled": 0, "lat": 38.90542966666667, "rental_uris": {"android": "https://dc.lft.to/lastmile_qr_scan", "ios": "https://dc.lft.to/lastmile_qr_scan"}, "bike_id": "99f26a9f264fa0255d097a51ce9734af", "lon": -77.0296595}, {"is_reserved": 0, "fusion_lon": 0.0, "fusion_lat": 0.0, "name": "3f3ea5716d1a92aff8950d0daffb939d", "type": "electric_scooter", "is_disabled": 0, "lat": 38.92250816666667, "rental_uris": {"android": "https://dc.lft.to/lastmile_qr_scan", "ios": "https://dc.lft.to/lastmile_qr_scan"}, "bike_id": "3f3ea5716d1a92aff8950d0daffb939d", "lon": -77.01953416666667}, {"is_reserved": 0, "fusion_lon": 0.0, "fusion_lat": 0.0, "name": "238f1a23bcc466299cb968cd6c49e4b7", "type": "electric_scooter", "is_disabled": 0, "lat": 38.918619, "rental_uris": {"android": "https://dc.lft.to/lastmile_qr_scan", "ios": "https://dc.lft.to/lastmile_qr_scan"}, "bike_id": "238f1a23bcc466299cb968cd6c49e4b7", "lon": -77.02549083333334}, {"is_reserved": 0, "fusion_lon": 0.0, "fusion_lat": 0.0, "name": "524c6381c903f7e72b4a470ddb0a3f7c", "type": "electric_scooter", "is_disabled": 0, "lat": 38.93491233333334, "rental_uris": {"android": "https://dc.lft.to/lastmile_qr_scan", "ios": "https://dc.lft.to/lastmile_qr_scan"}, "bike_id": "524c6381c903f7e72b4a470ddb0a3f7c", "lon": -77.03656383333333}, {"is_reserved": 0, "fusion_lon": 0.0, "fusion_lat": 0.0, "name": "e6a912faf5fa92fb6fe74ef1c170f4d0", "type": "electric_scooter", "is_disabled": 0, "lat": 38.92318383333333, "rental_uris": {"android": "https://dc.lft.to/lastmile_qr_scan", "ios": "https://dc.lft.to/lastmile_qr_scan"}, "bike_id": "e6a912faf5fa92fb6fe74ef1c170f4d0", "lon": -77.04344516666667}, {"is_reserved": 0, "fusion_lon": 0.0, "fusion_lat": 0.0, "name": "a15859e4fa5e7203db8910beb849af8e", "type": "electric_scooter", "is_disabled": 0, "lat": 38.9214485, "rental_uris": {"android": "https://dc.lft.to/lastmile_qr_scan", "ios": "https://dc.lft.to/lastmile_qr_scan"}, "bike_id": "a15859e4fa5e7203db8910beb849af8e", "lon": -77.02076666666666}, {"is_reserved": 0, "fusion_lon": 0.0, "fusion_lat": 0.0, "name": "966c3f8ca8916e9e61aefaf3cca7212a", "type": "electric_bike", "is_disabled": 0, "lat": 38.995232666666666, "rental_uris": {"android": "https://dc.lft.to/lastmile_qr_scan", "ios": "https://dc.lft.to/lastmile_qr_scan"}, "bike_id": "966c3f8ca8916e9e61aefaf3cca7212a", "lon": -77.069343}, {"is_reserved": 0, "fusion_lon": 0.0, "fusion_lat": 0.0, "name": "ccfbbc1995984ce6d8605b871bc61656", "type": "electric_bike", "is_disabled": 0, "lat": 38.837801166666665, "rental_uris": {"android": "https://dc.lft.to/lastmile_qr_scan", "ios": "https://dc.lft.to/lastmile_qr_scan"}, "bike_id": "ccfbbc1995984ce6d8605b871bc61656", "lon": -76.99756766666667}, {"is_reserved": 0, "fusion_lon": 0.0, "fusion_lat": 0.0, "name": "8750f959be12ff8407999525c636116a", "type": "electric_scooter", "is_disabled": 0, "lat": 38.90045666666666, "rental_uris": {"android": "https://dc.lft.to/lastmile_qr_scan", "ios": "https://dc.lft.to/lastmile_qr_scan"}, "bike_id": "8750f959be12ff8407999525c636116a", "lon": -77.04333816666667}, {"is_reserved": 0, "fusion_lon": 0.0, "fusion_lat": 0.0, "name": "1268f41c5001a1625c63f2917f5992a6", "type": "electric_scooter", "is_disabled": 0, "lat": 38.9262875, "rental_uris": {"android": "https://dc.lft.to/lastmile_qr_scan", "ios": "https://dc.lft.to/lastmile_qr_scan"}, "bike_id": "1268f41c5001a1625c63f2917f5992a6", "lon": -77.04327716666667}, {"is_reserved": 0, "fusion_lon": 0.0, "fusion_lat": 0.0, "name": "bfec037337321fe972333346ee0bfb10", "type": "electric_scooter", "is_disabled": 0, "lat": 38.891995666666666, "rental_uris": {"android": "https://dc.lft.to/lastmile_qr_scan", "ios": "https://dc.lft.to/lastmile_qr_scan"}, "bike_id": "bfec037337321fe972333346ee0bfb10", "lon": -77.03722483333334}, {"is_reserved": 0, "fusion_lon": 0.0, "fusion_lat": 0.0, "name": "48365dd4570659aa95df6ec8db39c570", "type": "electric_scooter", "is_disabled": 0, "lat": 38.909775333333336, "rental_uris": {"android": "https://dc.lft.to/lastmile_qr_scan", "ios": "https://dc.lft.to/lastmile_qr_scan"}, "bike_id": "48365dd4570659aa95df6ec8db39c570", "lon": -77.038639}, {"is_reserved": 0, "fusion_lon": 0.0, "fusion_lat": 0.0, "name": "8518329d1ef6770647a50c78efb31c3f", "type": "electric_scooter", "is_disabled": 0, "lat": 38.89506383333333, "rental_uris": {"android": "https://dc.lft.to/lastmile_qr_scan", "ios": "https://dc.lft.to/lastmile_qr_scan"}, "bike_id": "8518329d1ef6770647a50c78efb31c3f", "lon": -76.93475583333333}, {"is_reserved": 0, "fusion_lon": 0.0, "fusion_lat": 0.0, "name": "9398765a9d7021b3e35b81afce31f1d0", "type": "electric_scooter", "is_disabled": 0, "lat": 38.900537, "rental_uris": {"android": "https://dc.lft.to/lastmile_qr_scan", "ios": "https://dc.lft.to/lastmile_qr_scan"}, "bike_id": "9398765a9d7021b3e35b81afce31f1d0", "lon": -77.04823033333334}, {"is_reserved": 0, "fusion_lon": 0.0, "fusion_lat": 0.0, "name": "1b842307de98755b13d0d2257cc5227e", "type": "electric_scooter", "is_disabled": 0, "lat": 38.90366216666666, "rental_uris": {"android": "https://dc.lft.to/lastmile_qr_scan", "ios": "https://dc.lft.to/lastmile_qr_scan"}, "bike_id": "1b842307de98755b13d0d2257cc5227e", "lon": -77.04177283333334}, {"is_reserved": 0, "fusion_lon": 0.0, "fusion_lat": 0.0, "name": "24e2cf959f88f6b4f8864e7a11d04976", "type": "electric_scooter", "is_disabled": 0, "lat": 38.9611355, "rental_uris": {"android": "https://dc.lft.to/lastmile_qr_scan", "ios": "https://dc.lft.to/lastmile_qr_scan"}, "bike_id": "24e2cf959f88f6b4f8864e7a11d04976", "lon": -77.00947516666666}, {"is_reserved": 0, "fusion_lon": 0.0, "fusion_lat": 0.0, "name": "d29700ad7c6bfed49b7676b5f78d865a", "type": "electric_scooter", "is_disabled": 0, "lat": 38.9050945, "rental_uris": {"android": "https://dc.lft.to/lastmile_qr_scan", "ios": "https://dc.lft.to/lastmile_qr_scan"}, "bike_id": "d29700ad7c6bfed49b7676b5f78d865a", "lon": -77.06375633333333}, {"is_reserved": 0, "fusion_lon": 0.0, "fusion_lat": 0.0, "name": "37154a402fa075afb8e96b738fc60b75", "type": "electric_scooter", "is_disabled": 0, "lat": 38.90393, "rental_uris": {"android": "https://dc.lft.to/lastmile_qr_scan", "ios": "https://dc.lft.to/lastmile_qr_scan"}, "bike_id": "37154a402fa075afb8e96b738fc60b75", "lon": -77.04012716666666}, {"is_reserved": 0, "fusion_lon": 0.0, "fusion_lat": 0.0, "name": "855d2d1be862a3834d59a38bf1c2702c", "type": "electric_scooter", "is_disabled": 0, "lat": 38.910635166666665, "rental_uris": {"android": "https://dc.lft.to/lastmile_qr_scan", "ios": "https://dc.lft.to/lastmile_qr_scan"}, "bike_id": "855d2d1be862a3834d59a38bf1c2702c", "lon": -77.02187116666667}, {"is_reserved": 0, "fusion_lon": 0.0, "fusion_lat": 0.0, "name": "89e2db88877d8422e361772968fbe5e9", "type": "electric_scooter", "is_disabled": 0, "lat": 38.91193033333333, "rental_uris": {"android": "https://dc.lft.to/lastmile_qr_scan", "ios": "https://dc.lft.to/lastmile_qr_scan"}, "bike_id": "89e2db88877d8422e361772968fbe5e9", "lon": -77.03833583333333}, {"is_reserved": 0, "fusion_lon": 0.0, "fusion_lat": 0.0, "name": "bb43d8817270159c11b846e5cb5f287e", "type": "electric_scooter", "is_disabled": 0, "lat": 38.90087116666667, "rental_uris": {"android": "https://dc.lft.to/lastmile_qr_scan", "ios": "https://dc.lft.to/lastmile_qr_scan"}, "bike_id": "bb43d8817270159c11b846e5cb5f287e", "lon": -77.05073333333333}, {"is_reserved": 0, "fusion_lon": 0.0, "fusion_lat": 0.0, "name": "6f995139ccf0def6e8217a742f453842", "type": "electric_scooter", "is_disabled": 0, "lat": 38.916945166666665, "rental_uris": {"android": "https://dc.lft.to/lastmile_qr_scan", "ios": "https://dc.lft.to/lastmile_qr_scan"}, "bike_id": "6f995139ccf0def6e8217a742f453842", "lon": -77.02599033333334}, {"is_reserved": 0, "fusion_lon": 0.0, "fusion_lat": 0.0, "name": "b895ea50127f66fe529f11dd621024f0", "type": "electric_scooter", "is_disabled": 0, "lat": 38.906832333333334, "rental_uris": {"android": "https://dc.lft.to/lastmile_qr_scan", "ios": "https://dc.lft.to/lastmile_qr_scan"}, "bike_id": "b895ea50127f66fe529f11dd621024f0", "lon": -77.04328816666667}, {"is_reserved": 0, "fusion_lon": 0.0, "fusion_lat": 0.0, "name": "c0e220bd3e50d17b72237ea53415270b", "type": "electric_scooter", "is_disabled": 0, "lat": 38.923260166666665, "rental_uris": {"android": "https://dc.lft.to/lastmile_qr_scan", "ios": "https://dc.lft.to/lastmile_qr_scan"}, "bike_id": "c0e220bd3e50d17b72237ea53415270b", "lon": -76.99902683333333}, {"is_reserved": 0, "fusion_lon": 0.0, "fusion_lat": 0.0, "name": "299b64ee2c08fbc9c4adbdfb33788210", "type": "electric_scooter", "is_disabled": 0, "lat": 38.880291, "rental_uris": {"android": "https://dc.lft.to/lastmile_qr_scan", "ios": "https://dc.lft.to/lastmile_qr_scan"}, "bike_id": "299b64ee2c08fbc9c4adbdfb33788210", "lon": -76.984905}, {"is_reserved": 0, "fusion_lon": 0.0, "fusion_lat": 0.0, "name": "241f6abc6b782acca2f86c99fa09d30f", "type": "electric_scooter", "is_disabled": 0, "lat": 38.9191985, "rental_uris": {"android": "https://dc.lft.to/lastmile_qr_scan", "ios": "https://dc.lft.to/lastmile_qr_scan"}, "bike_id": "241f6abc6b782acca2f86c99fa09d30f", "lon": -77.04809116666667}, {"is_reserved": 0, "fusion_lon": 0.0, "fusion_lat": 0.0, "name": "56290cf5ae2d0af14e08c73e986596ef", "type": "electric_scooter", "is_disabled": 0, "lat": 38.880612, "rental_uris": {"android": "https://dc.lft.to/lastmile_qr_scan", "ios": "https://dc.lft.to/lastmile_qr_scan"}, "bike_id": "56290cf5ae2d0af14e08c73e986596ef", "lon": -77.0059735}, {"is_reserved": 0, "fusion_lon": 0.0, "fusion_lat": 0.0, "name": "c7321144f79198276d51ca544e52d630", "type": "electric_scooter", "is_disabled": 0, "lat": 38.90578766666667, "rental_uris": {"android": "https://dc.lft.to/lastmile_qr_scan", "ios": "https://dc.lft.to/lastmile_qr_scan"}, "bike_id": "c7321144f79198276d51ca544e52d630", "lon": -77.00886383333334}, {"is_reserved": 0, "fusion_lon": 0.0, "fusion_lat": 0.0, "name": "71e9040447b3f1a6e8b432eafead9ae3", "type": "electric_bike", "is_disabled": 0, "lat": 38.882470166666664, "rental_uris": {"android": "https://dc.lft.to/lastmile_qr_scan", "ios": "https://dc.lft.to/lastmile_qr_scan"}, "bike_id": "71e9040447b3f1a6e8b432eafead9ae3", "lon": -76.9625385}, {"is_reserved": 0, "fusion_lon": 0.0, "fusion_lat": 0.0, "name": "105e03e8b72a8da17440bd846442f258", "type": "electric_scooter", "is_disabled": 0, "lat": 38.919026, "rental_uris": {"android": "https://dc.lft.to/lastmile_qr_scan", "ios": "https://dc.lft.to/lastmile_qr_scan"}, "bike_id": "105e03e8b72a8da17440bd846442f258", "lon": -77.02396133333333}, {"is_reserved": 0, "fusion_lon": 0.0, "fusion_lat": 0.0, "name": "96a323964fd9ea778c511a9381ceded9", "type": "electric_scooter", "is_disabled": 0, "lat": 38.90855833333333, "rental_uris": {"android": "https://dc.lft.to/lastmile_qr_scan", "ios": "https://dc.lft.to/lastmile_qr_scan"}, "bike_id": "96a323964fd9ea778c511a9381ceded9", "lon": -77.04049933333333}, {"is_reserved": 0, "fusion_lon": 0.0, "fusion_lat": 0.0, "name": "b7fc086b0611f561242979395657195f", "type": "electric_bike", "is_disabled": 0, "lat": 38.95960183333333, "rental_uris": {"android": "https://dc.lft.to/lastmile_qr_scan", "ios": "https://dc.lft.to/lastmile_qr_scan"}, "bike_id": "b7fc086b0611f561242979395657195f", "lon": -77.03056766666667}, {"is_reserved": 0, "fusion_lon": 0.0, "fusion_lat": 0.0, "name": "dc4942543389966e45ece055f3b232c2", "type": "electric_scooter", "is_disabled": 0, "lat": 38.88398633333333, "rental_uris": {"android": "https://dc.lft.to/lastmile_qr_scan", "ios": "https://dc.lft.to/lastmile_qr_scan"}, "bike_id": "dc4942543389966e45ece055f3b232c2", "lon": -77.02583766666666}, {"is_reserved": 0, "fusion_lon": 0.0, "fusion_lat": 0.0, "name": "cd7d5deac59605d2b3338c9b97fd91e5", "type": "electric_scooter", "is_disabled": 0, "lat": 38.905716, "rental_uris": {"android": "https://dc.lft.to/lastmile_qr_scan", "ios": "https://dc.lft.to/lastmile_qr_scan"}, "bike_id": "cd7d5deac59605d2b3338c9b97fd91e5", "lon": -77.04095166666667}, {"is_reserved": 0, "fusion_lon": 0.0, "fusion_lat": 0.0, "name": "2c2ca69dd33cd9fa20707ba8406d3d6c", "type": "electric_scooter", "is_disabled": 0, "lat": 38.904123166666665, "rental_uris": {"android": "https://dc.lft.to/lastmile_qr_scan", "ios": "https://dc.lft.to/lastmile_qr_scan"}, "bike_id": "2c2ca69dd33cd9fa20707ba8406d3d6c", "lon": -76.97330166666667}, {"is_reserved": 0, "fusion_lon": 0.0, "fusion_lat": 0.0, "name": "28a152b9236000bec9fd35625ded836b", "type": "electric_scooter", "is_disabled": 0, "lat": 38.9183755, "rental_uris": {"android": "https://dc.lft.to/lastmile_qr_scan", "ios": "https://dc.lft.to/lastmile_qr_scan"}, "bike_id": "28a152b9236000bec9fd35625ded836b", "lon": -77.05947466666667}, {"is_reserved": 0, "fusion_lon": 0.0, "fusion_lat": 0.0, "name": "eb5e59e9d481650b555ca36f269af834", "type": "electric_scooter", "is_disabled": 0, "lat": 38.97189516666667, "rental_uris": {"android": "https://dc.lft.to/lastmile_qr_scan", "ios": "https://dc.lft.to/lastmile_qr_scan"}, "bike_id": "eb5e59e9d481650b555ca36f269af834", "lon": -77.026821}, {"is_reserved": 0, "fusion_lon": 0.0, "fusion_lat": 0.0, "name": "796bec5ac828a091902d39e40290e77d", "type": "electric_scooter", "is_disabled": 0, "lat": 38.91577616666667, "rental_uris": {"android": "https://dc.lft.to/lastmile_qr_scan", "ios": "https://dc.lft.to/lastmile_qr_scan"}, "bike_id": "796bec5ac828a091902d39e40290e77d", "lon": -77.03197466666667}, {"is_reserved": 0, "fusion_lon": 0.0, "fusion_lat": 0.0, "name": "c63e646d4de04437151af0f7792607d2", "type": "electric_scooter", "is_disabled": 0, "lat": 38.894884833333336, "rental_uris": {"android": "https://dc.lft.to/lastmile_qr_scan", "ios": "https://dc.lft.to/lastmile_qr_scan"}, "bike_id": "c63e646d4de04437151af0f7792607d2", "lon": -77.02299583333334}, {"is_reserved": 0, "fusion_lon": 0.0, "fusion_lat": 0.0, "name": "0c8a9d16c3d7e7c04f7e9c7ce50f350e", "type": "electric_scooter", "is_disabled": 0, "lat": 38.89220533333334, "rental_uris": {"android": "https://dc.lft.to/lastmile_qr_scan", "ios": "https://dc.lft.to/lastmile_qr_scan"}, "bike_id": "0c8a9d16c3d7e7c04f7e9c7ce50f350e", "lon": -77.0316455}, {"is_reserved": 0, "fusion_lon": 0.0, "fusion_lat": 0.0, "name": "2096414dc6cc25d3adea96a96817de98", "type": "electric_scooter", "is_disabled": 0, "lat": 38.889604, "rental_uris": {"android": "https://dc.lft.to/lastmile_qr_scan", "ios": "https://dc.lft.to/lastmile_qr_scan"}, "bike_id": "2096414dc6cc25d3adea96a96817de98", "lon": -76.93705866666667}, {"is_reserved": 0, "fusion_lon": 0.0, "fusion_lat": 0.0, "name": "3d23c63201228ae3ad5413006be4a211", "type": "electric_scooter", "is_disabled": 0, "lat": 38.9232735, "rental_uris": {"android": "https://dc.lft.to/lastmile_qr_scan", "ios": "https://dc.lft.to/lastmile_qr_scan"}, "bike_id": "3d23c63201228ae3ad5413006be4a211", "lon": -77.03548583333334}, {"is_reserved": 0, "fusion_lon": 0.0, "fusion_lat": 0.0, "name": "8e67e8a9a8a67da4efa092c641f86e15", "type": "electric_bike", "is_disabled": 0, "lat": 38.88246133333333, "rental_uris": {"android": "https://dc.lft.to/lastmile_qr_scan", "ios": "https://dc.lft.to/lastmile_qr_scan"}, "bike_id": "8e67e8a9a8a67da4efa092c641f86e15", "lon": -76.96260966666667}, {"is_reserved": 0, "fusion_lon": 0.0, "fusion_lat": 0.0, "name": "42c3ec952ff9c014828cbd4389132ab4", "type": "electric_bike", "is_disabled": 0, "lat": 38.961369166666664, "rental_uris": {"android": "https://dc.lft.to/lastmile_qr_scan", "ios": "https://dc.lft.to/lastmile_qr_scan"}, "bike_id": "42c3ec952ff9c014828cbd4389132ab4", "lon": -77.02374166666667}, {"is_reserved": 0, "fusion_lon": 0.0, "fusion_lat": 0.0, "name": "eba66f3c4f67017303c7b3179ae08232", "type": "electric_scooter", "is_disabled": 0, "lat": 38.915186166666665, "rental_uris": {"android": "https://dc.lft.to/lastmile_qr_scan", "ios": "https://dc.lft.to/lastmile_qr_scan"}, "bike_id": "eba66f3c4f67017303c7b3179ae08232", "lon": -77.04465266666666}, {"is_reserved": 0, "fusion_lon": 0.0, "fusion_lat": 0.0, "name": "69f9078ab63b4c1cc4feb3e855c0e114", "type": "electric_scooter", "is_disabled": 0, "lat": 38.909774166666665, "rental_uris": {"android": "https://dc.lft.to/lastmile_qr_scan", "ios": "https://dc.lft.to/lastmile_qr_scan"}, "bike_id": "69f9078ab63b4c1cc4feb3e855c0e114", "lon": -77.038637}, {"is_reserved": 0, "fusion_lon": 0.0, "fusion_lat": 0.0, "name": "59d2e0ada5efe78c974e91442d840f86", "type": "electric_scooter", "is_disabled": 0, "lat": 38.92265016666666, "rental_uris": {"android": "https://dc.lft.to/lastmile_qr_scan", "ios": "https://dc.lft.to/lastmile_qr_scan"}, "bike_id": "59d2e0ada5efe78c974e91442d840f86", "lon": -77.04251866666667}, {"is_reserved": 0, "fusion_lon": 0.0, "fusion_lat": 0.0, "name": "98115478103ff8bd3817b61ad3a03f6e", "type": "electric_scooter", "is_disabled": 0, "lat": 38.890197, "rental_uris": {"android": "https://dc.lft.to/lastmile_qr_scan", "ios": "https://dc.lft.to/lastmile_qr_scan"}, "bike_id": "98115478103ff8bd3817b61ad3a03f6e", "lon": -76.93733366666666}, {"is_reserved": 0, "fusion_lon": 0.0, "fusion_lat": 0.0, "name": "ac99f6fe7b402967ace965ee977ec9fb", "type": "electric_scooter", "is_disabled": 0, "lat": 38.898066666666665, "rental_uris": {"android": "https://dc.lft.to/lastmile_qr_scan", "ios": "https://dc.lft.to/lastmile_qr_scan"}, "bike_id": "ac99f6fe7b402967ace965ee977ec9fb", "lon": -77.04008816666666}, {"is_reserved": 0, "fusion_lon": 0.0, "fusion_lat": 0.0, "name": "8550765ac19d7564423d8ba76bc07710", "type": "electric_scooter", "is_disabled": 0, "lat": 38.934823333333334, "rental_uris": {"android": "https://dc.lft.to/lastmile_qr_scan", "ios": "https://dc.lft.to/lastmile_qr_scan"}, "bike_id": "8550765ac19d7564423d8ba76bc07710", "lon": -77.06479433333334}, {"is_reserved": 0, "fusion_lon": 0.0, "fusion_lat": 0.0, "name": "81060a885be7053e17dc4c0e7d00bcac", "type": "electric_scooter", "is_disabled": 0, "lat": 38.897663333333334, "rental_uris": {"android": "https://dc.lft.to/lastmile_qr_scan", "ios": "https://dc.lft.to/lastmile_qr_scan"}, "bike_id": "81060a885be7053e17dc4c0e7d00bcac", "lon": -77.02706116666667}, {"is_reserved": 0, "fusion_lon": 0.0, "fusion_lat": 0.0, "name": "543a421546faf6c9754eb809dcdf4a7d", "type": "electric_scooter", "is_disabled": 0, "lat": 38.90531283333333, "rental_uris": {"android": "https://dc.lft.to/lastmile_qr_scan", "ios": "https://dc.lft.to/lastmile_qr_scan"}, "bike_id": "543a421546faf6c9754eb809dcdf4a7d", "lon": -77.04180883333333}, {"is_reserved": 0, "fusion_lon": 0.0, "fusion_lat": 0.0, "name": "ed7fae5b29422d19ceb397e24d47dd1a", "type": "electric_scooter", "is_disabled": 0, "lat": 38.9520365, "rental_uris": {"android": "https://dc.lft.to/lastmile_qr_scan", "ios": "https://dc.lft.to/lastmile_qr_scan"}, "bike_id": "ed7fae5b29422d19ceb397e24d47dd1a", "lon": -77.02732266666666}, {"is_reserved": 0, "fusion_lon": 0.0, "fusion_lat": 0.0, "name": "37ec2dd29a68395b4ed6b86a986ebf7d", "type": "electric_scooter", "is_disabled": 0, "lat": 38.9035355, "rental_uris": {"android": "https://dc.lft.to/lastmile_qr_scan", "ios": "https://dc.lft.to/lastmile_qr_scan"}, "bike_id": "37ec2dd29a68395b4ed6b86a986ebf7d", "lon": -77.00590733333334}, {"is_reserved": 0, "fusion_lon": 0.0, "fusion_lat": 0.0, "name": "1f396ba610b0d3f55a83bf7be570ca0f", "type": "electric_scooter", "is_disabled": 0, "lat": 38.875456166666666, "rental_uris": {"android": "https://dc.lft.to/lastmile_qr_scan", "ios": "https://dc.lft.to/lastmile_qr_scan"}, "bike_id": "1f396ba610b0d3f55a83bf7be570ca0f", "lon": -77.006021}, {"is_reserved": 0, "fusion_lon": 0.0, "fusion_lat": 0.0, "name": "ce16348aa79f8748e648822d593b1663", "type": "electric_scooter", "is_disabled": 0, "lat": 38.907115, "rental_uris": {"android": "https://dc.lft.to/lastmile_qr_scan", "ios": "https://dc.lft.to/lastmile_qr_scan"}, "bike_id": "ce16348aa79f8748e648822d593b1663", "lon": -77.04811433333333}, {"is_reserved": 0, "fusion_lon": 0.0, "fusion_lat": 0.0, "name": "6c49cd64a27ac15627e6c59ab47e834a", "type": "electric_scooter", "is_disabled": 0, "lat": 38.917983, "rental_uris": {"android": "https://dc.lft.to/lastmile_qr_scan", "ios": "https://dc.lft.to/lastmile_qr_scan"}, "bike_id": "6c49cd64a27ac15627e6c59ab47e834a", "lon": -77.032097}, {"is_reserved": 0, "fusion_lon": 0.0, "fusion_lat": 0.0, "name": "b1b939e995628a2714a8f77e430e9134", "type": "electric_scooter", "is_disabled": 0, "lat": 38.90820183333334, "rental_uris": {"android": "https://dc.lft.to/lastmile_qr_scan", "ios": "https://dc.lft.to/lastmile_qr_scan"}, "bike_id": "b1b939e995628a2714a8f77e430e9134", "lon": -77.03838316666666}, {"is_reserved": 0, "fusion_lon": 0.0, "fusion_lat": 0.0, "name": "c664db84c9e64f7fe71de2994a443c84", "type": "electric_scooter", "is_disabled": 0, "lat": 38.955326, "rental_uris": {"android": "https://dc.lft.to/lastmile_qr_scan", "ios": "https://dc.lft.to/lastmile_qr_scan"}, "bike_id": "c664db84c9e64f7fe71de2994a443c84", "lon": -77.02777866666666}, {"is_reserved": 0, "fusion_lon": 0.0, "fusion_lat": 0.0, "name": "39f4145ded92182188a8a4457c867303", "type": "electric_scooter", "is_disabled": 0, "lat": 38.8922245, "rental_uris": {"android": "https://dc.lft.to/lastmile_qr_scan", "ios": "https://dc.lft.to/lastmile_qr_scan"}, "bike_id": "39f4145ded92182188a8a4457c867303", "lon": -77.022303}, {"is_reserved": 0, "fusion_lon": 0.0, "fusion_lat": 0.0, "name": "b2495c7c2aedb65081f7ebf737067cc0", "type": "electric_scooter", "is_disabled": 0, "lat": 38.94988883333333, "rental_uris": {"android": "https://dc.lft.to/lastmile_qr_scan", "ios": "https://dc.lft.to/lastmile_qr_scan"}, "bike_id": "b2495c7c2aedb65081f7ebf737067cc0", "lon": -77.0270835}, {"is_reserved": 0, "fusion_lon": 0.0, "fusion_lat": 0.0, "name": "f24beae70baad87651f7a4f9d175f239", "type": "electric_scooter", "is_disabled": 0, "lat": 38.92114616666667, "rental_uris": {"android": "https://dc.lft.to/lastmile_qr_scan", "ios": "https://dc.lft.to/lastmile_qr_scan"}, "bike_id": "f24beae70baad87651f7a4f9d175f239", "lon": -77.042124}, {"is_reserved": 0, "fusion_lon": 0.0, "fusion_lat": 0.0, "name": "3292a23d3972c2164ed297fd03d7d50d", "type": "electric_scooter", "is_disabled": 0, "lat": 38.97126383333333, "rental_uris": {"android": "https://dc.lft.to/lastmile_qr_scan", "ios": "https://dc.lft.to/lastmile_qr_scan"}, "bike_id": "3292a23d3972c2164ed297fd03d7d50d", "lon": -77.01687283333334}, {"is_reserved": 0, "fusion_lon": 0.0, "fusion_lat": 0.0, "name": "7f434c6b66c258923c0ebef3f61467f0", "type": "electric_bike", "is_disabled": 0, "lat": 38.83813116666666, "rental_uris": {"android": "https://dc.lft.to/lastmile_qr_scan", "ios": "https://dc.lft.to/lastmile_qr_scan"}, "bike_id": "7f434c6b66c258923c0ebef3f61467f0", "lon": -77.09525833333333}, {"is_reserved": 0, "fusion_lon": 0.0, "fusion_lat": 0.0, "name": "1f71b0523930c0faf04b6b77f9ce3003", "type": "electric_scooter", "is_disabled": 0, "lat": 38.93022033333333, "rental_uris": {"android": "https://dc.lft.to/lastmile_qr_scan", "ios": "https://dc.lft.to/lastmile_qr_scan"}, "bike_id": "1f71b0523930c0faf04b6b77f9ce3003", "lon": -77.0609035}, {"is_reserved": 0, "fusion_lon": 0.0, "fusion_lat": 0.0, "name": "9732bf3c2069c22ced7a1244174bf0ea", "type": "electric_scooter", "is_disabled": 0, "lat": 38.898929333333335, "rental_uris": {"android": "https://dc.lft.to/lastmile_qr_scan", "ios": "https://dc.lft.to/lastmile_qr_scan"}, "bike_id": "9732bf3c2069c22ced7a1244174bf0ea", "lon": -76.977199}, {"is_reserved": 0, "fusion_lon": 0.0, "fusion_lat": 0.0, "name": "e64741b2219db99124ea82c4366776ce", "type": "electric_scooter", "is_disabled": 0, "lat": 38.86662, "rental_uris": {"android": "https://dc.lft.to/lastmile_qr_scan", "ios": "https://dc.lft.to/lastmile_qr_scan"}, "bike_id": "e64741b2219db99124ea82c4366776ce", "lon": -76.98504083333333}, {"is_reserved": 0, "fusion_lon": 0.0, "fusion_lat": 0.0, "name": "9fd3af99e03c80b86a736e77aec76b6a", "type": "electric_bike", "is_disabled": 0, "lat": 38.857663, "rental_uris": {"android": "https://dc.lft.to/lastmile_qr_scan", "ios": "https://dc.lft.to/lastmile_qr_scan"}, "bike_id": "9fd3af99e03c80b86a736e77aec76b6a", "lon": -76.987645}, {"is_reserved": 0, "fusion_lon": 0.0, "fusion_lat": 0.0, "name": "db3b0ef8724c51a7164ee0a1bf31e479", "type": "electric_scooter", "is_disabled": 0, "lat": 38.90035816666666, "rental_uris": {"android": "https://dc.lft.to/lastmile_qr_scan", "ios": "https://dc.lft.to/lastmile_qr_scan"}, "bike_id": "db3b0ef8724c51a7164ee0a1bf31e479", "lon": -77.0119155}, {"is_reserved": 0, "fusion_lon": 0.0, "fusion_lat": 0.0, "name": "9806fabb1c9876b19e81c9ea3d55b30c", "type": "electric_scooter", "is_disabled": 0, "lat": 38.903697, "rental_uris": {"android": "https://dc.lft.to/lastmile_qr_scan", "ios": "https://dc.lft.to/lastmile_qr_scan"}, "bike_id": "9806fabb1c9876b19e81c9ea3d55b30c", "lon": -77.0320075}, {"is_reserved": 0, "fusion_lon": 0.0, "fusion_lat": 0.0, "name": "ca49cc521b4929d73044788878e09100", "type": "electric_bike", "is_disabled": 0, "lat": 38.89802383333333, "rental_uris": {"android": "https://dc.lft.to/lastmile_qr_scan", "ios": "https://dc.lft.to/lastmile_qr_scan"}, "bike_id": "ca49cc521b4929d73044788878e09100", "lon": -77.00605983333334}, {"is_reserved": 0, "fusion_lon": 0.0, "fusion_lat": 0.0, "name": "f57593eecf1731b6cc889eb8c04c4af8", "type": "electric_scooter", "is_disabled": 0, "lat": 38.9071945, "rental_uris": {"android": "https://dc.lft.to/lastmile_qr_scan", "ios": "https://dc.lft.to/lastmile_qr_scan"}, "bike_id": "f57593eecf1731b6cc889eb8c04c4af8", "lon": -77.01683483333333}, {"is_reserved": 0, "fusion_lon": 0.0, "fusion_lat": 0.0, "name": "274893e893f593cff6f36fa145b1be63", "type": "electric_scooter", "is_disabled": 0, "lat": 38.8970955, "rental_uris": {"android": "https://dc.lft.to/lastmile_qr_scan", "ios": "https://dc.lft.to/lastmile_qr_scan"}, "bike_id": "274893e893f593cff6f36fa145b1be63", "lon": -77.02133983333333}, {"is_reserved": 0, "fusion_lon": 0.0, "fusion_lat": 0.0, "name": "4b28a881ff127737a5c69c98d17982e9", "type": "electric_scooter", "is_disabled": 0, "lat": 38.8850325, "rental_uris": {"android": "https://dc.lft.to/lastmile_qr_scan", "ios": "https://dc.lft.to/lastmile_qr_scan"}, "bike_id": "4b28a881ff127737a5c69c98d17982e9", "lon": -77.00562633333334}, {"is_reserved": 0, "fusion_lon": 0.0, "fusion_lat": 0.0, "name": "e974c465e60b0b6b580ef7adcd0b058c", "type": "electric_scooter", "is_disabled": 0, "lat": 38.924811166666665, "rental_uris": {"android": "https://dc.lft.to/lastmile_qr_scan", "ios": "https://dc.lft.to/lastmile_qr_scan"}, "bike_id": "e974c465e60b0b6b580ef7adcd0b058c", "lon": -77.03497333333334}, {"is_reserved": 0, "fusion_lon": 0.0, "fusion_lat": 0.0, "name": "1766893cef92455997a1639689461037", "type": "electric_scooter", "is_disabled": 0, "lat": 38.93035416666667, "rental_uris": {"android": "https://dc.lft.to/lastmile_qr_scan", "ios": "https://dc.lft.to/lastmile_qr_scan"}, "bike_id": "1766893cef92455997a1639689461037", "lon": -77.013008}, {"is_reserved": 0, "fusion_lon": 0.0, "fusion_lat": 0.0, "name": "7b77c29ebfd733c89e11fb915f366745", "type": "electric_scooter", "is_disabled": 0, "lat": 38.907114666666665, "rental_uris": {"android": "https://dc.lft.to/lastmile_qr_scan", "ios": "https://dc.lft.to/lastmile_qr_scan"}, "bike_id": "7b77c29ebfd733c89e11fb915f366745", "lon": -77.04377083333334}, {"is_reserved": 0, "fusion_lon": 0.0, "fusion_lat": 0.0, "name": "24196cf31a5208fdf161d73920a82632", "type": "electric_scooter", "is_disabled": 0, "lat": 38.89921366666667, "rental_uris": {"android": "https://dc.lft.to/lastmile_qr_scan", "ios": "https://dc.lft.to/lastmile_qr_scan"}, "bike_id": "24196cf31a5208fdf161d73920a82632", "lon": -77.03293633333334}, {"is_reserved": 0, "fusion_lon": 0.0, "fusion_lat": 0.0, "name": "a7c218e34ac04701ea10eed6387f5777", "type": "electric_scooter", "is_disabled": 0, "lat": 38.87876683333333, "rental_uris": {"android": "https://dc.lft.to/lastmile_qr_scan", "ios": "https://dc.lft.to/lastmile_qr_scan"}, "bike_id": "a7c218e34ac04701ea10eed6387f5777", "lon": -77.02316866666666}, {"is_reserved": 0, "fusion_lon": 0.0, "fusion_lat": 0.0, "name": "de6c7d426f71c6bf2fa363d3c9376d13", "type": "electric_scooter", "is_disabled": 0, "lat": 38.89221283333333, "rental_uris": {"android": "https://dc.lft.to/lastmile_qr_scan", "ios": "https://dc.lft.to/lastmile_qr_scan"}, "bike_id": "de6c7d426f71c6bf2fa363d3c9376d13", "lon": -77.045033}, {"is_reserved": 0, "fusion_lon": 0.0, "fusion_lat": 0.0, "name": "9a28158f26258834b1c6b4a28a35433e", "type": "electric_scooter", "is_disabled": 0, "lat": 38.95231166666667, "rental_uris": {"android": "https://dc.lft.to/lastmile_qr_scan", "ios": "https://dc.lft.to/lastmile_qr_scan"}, "bike_id": "9a28158f26258834b1c6b4a28a35433e", "lon": -77.01430816666667}, {"is_reserved": 0, "fusion_lon": 0.0, "fusion_lat": 0.0, "name": "ce7cb31d1b70622ccbe2d07f97198cc4", "type": "electric_scooter", "is_disabled": 0, "lat": 38.88725216666667, "rental_uris": {"android": "https://dc.lft.to/lastmile_qr_scan", "ios": "https://dc.lft.to/lastmile_qr_scan"}, "bike_id": "ce7cb31d1b70622ccbe2d07f97198cc4", "lon": -77.0217705}, {"is_reserved": 0, "fusion_lon": 0.0, "fusion_lat": 0.0, "name": "f1c295f37f1da3a24f8b6f69fe254989", "type": "electric_scooter", "is_disabled": 0, "lat": 38.92222783333333, "rental_uris": {"android": "https://dc.lft.to/lastmile_qr_scan", "ios": "https://dc.lft.to/lastmile_qr_scan"}, "bike_id": "f1c295f37f1da3a24f8b6f69fe254989", "lon": -77.07305583333333}, {"is_reserved": 0, "fusion_lon": 0.0, "fusion_lat": 0.0, "name": "b1ed974df6628890e9aff4ceca47715d", "type": "electric_scooter", "is_disabled": 0, "lat": 38.912697666666666, "rental_uris": {"android": "https://dc.lft.to/lastmile_qr_scan", "ios": "https://dc.lft.to/lastmile_qr_scan"}, "bike_id": "b1ed974df6628890e9aff4ceca47715d", "lon": -77.02902433333334}, {"is_reserved": 0, "fusion_lon": 0.0, "fusion_lat": 0.0, "name": "464895c135db2aacfb07032da725f16d", "type": "electric_bike", "is_disabled": 0, "lat": 38.9003605, "rental_uris": {"android": "https://dc.lft.to/lastmile_qr_scan", "ios": "https://dc.lft.to/lastmile_qr_scan"}, "bike_id": "464895c135db2aacfb07032da725f16d", "lon": -76.9722685}, {"is_reserved": 0, "fusion_lon": 0.0, "fusion_lat": 0.0, "name": "abb71f7b4c5b634cf5d479738ca399b3", "type": "electric_scooter", "is_disabled": 0, "lat": 38.925743, "rental_uris": {"android": "https://dc.lft.to/lastmile_qr_scan", "ios": "https://dc.lft.to/lastmile_qr_scan"}, "bike_id": "abb71f7b4c5b634cf5d479738ca399b3", "lon": -77.05266233333333}, {"is_reserved": 0, "fusion_lon": 0.0, "fusion_lat": 0.0, "name": "f5296241d29802e5e37771e42f59816c", "type": "electric_scooter", "is_disabled": 0, "lat": 38.900305333333336, "rental_uris": {"android": "https://dc.lft.to/lastmile_qr_scan", "ios": "https://dc.lft.to/lastmile_qr_scan"}, "bike_id": "f5296241d29802e5e37771e42f59816c", "lon": -76.98861716666667}, {"is_reserved": 0, "fusion_lon": 0.0, "fusion_lat": 0.0, "name": "afb6ecf933e47c3910294c64920bccf3", "type": "electric_scooter", "is_disabled": 0, "lat": 38.90450666666667, "rental_uris": {"android": "https://dc.lft.to/lastmile_qr_scan", "ios": "https://dc.lft.to/lastmile_qr_scan"}, "bike_id": "afb6ecf933e47c3910294c64920bccf3", "lon": -76.99625716666667}, {"is_reserved": 0, "fusion_lon": 0.0, "fusion_lat": 0.0, "name": "9df6fa86f8cc1da1e8504296a3369b3c", "type": "electric_scooter", "is_disabled": 0, "lat": 38.901584, "rental_uris": {"android": "https://dc.lft.to/lastmile_qr_scan", "ios": "https://dc.lft.to/lastmile_qr_scan"}, "bike_id": "9df6fa86f8cc1da1e8504296a3369b3c", "lon": -77.0092345}, {"is_reserved": 0, "fusion_lon": 0.0, "fusion_lat": 0.0, "name": "36b8a34c715d3df635f9fd93425cfe25", "type": "electric_scooter", "is_disabled": 0, "lat": 38.9248085, "rental_uris": {"android": "https://dc.lft.to/lastmile_qr_scan", "ios": "https://dc.lft.to/lastmile_qr_scan"}, "bike_id": "36b8a34c715d3df635f9fd93425cfe25", "lon": -77.02209966666666}, {"is_reserved": 0, "fusion_lon": 0.0, "fusion_lat": 0.0, "name": "f51bc54f6a6a57bd81ddc98e1619fddf", "type": "electric_scooter", "is_disabled": 0, "lat": 38.8971785, "rental_uris": {"android": "https://dc.lft.to/lastmile_qr_scan", "ios": "https://dc.lft.to/lastmile_qr_scan"}, "bike_id": "f51bc54f6a6a57bd81ddc98e1619fddf", "lon": -77.02135733333333}, {"is_reserved": 0, "fusion_lon": 0.0, "fusion_lat": 0.0, "name": "3dd4f47dddd281ef687b9e9f4d732bab", "type": "electric_scooter", "is_disabled": 0, "lat": 38.90007416666667, "rental_uris": {"android": "https://dc.lft.to/lastmile_qr_scan", "ios": "https://dc.lft.to/lastmile_qr_scan"}, "bike_id": "3dd4f47dddd281ef687b9e9f4d732bab", "lon": -76.9984065}, {"is_reserved": 0, "fusion_lon": 0.0, "fusion_lat": 0.0, "name": "9ce6a1d85c5fd41aae90cb2c292a4584", "type": "electric_scooter", "is_disabled": 0, "lat": 38.9058375, "rental_uris": {"android": "https://dc.lft.to/lastmile_qr_scan", "ios": "https://dc.lft.to/lastmile_qr_scan"}, "bike_id": "9ce6a1d85c5fd41aae90cb2c292a4584", "lon": -77.02203716666666}, {"is_reserved": 0, "fusion_lon": 0.0, "fusion_lat": 0.0, "name": "c725bcd7586016a8945f6cdfd0d961b3", "type": "electric_scooter", "is_disabled": 0, "lat": 38.910211, "rental_uris": {"android": "https://dc.lft.to/lastmile_qr_scan", "ios": "https://dc.lft.to/lastmile_qr_scan"}, "bike_id": "c725bcd7586016a8945f6cdfd0d961b3", "lon": -77.06492816666666}, {"is_reserved": 0, "fusion_lon": 0.0, "fusion_lat": 0.0, "name": "1263e8d32c07d3ff118c854a65b9445e", "type": "electric_scooter", "is_disabled": 0, "lat": 38.92265316666666, "rental_uris": {"android": "https://dc.lft.to/lastmile_qr_scan", "ios": "https://dc.lft.to/lastmile_qr_scan"}, "bike_id": "1263e8d32c07d3ff118c854a65b9445e", "lon": -77.0424945}, {"is_reserved": 0, "fusion_lon": 0.0, "fusion_lat": 0.0, "name": "e36b8f25ea0db07dc3f9c71c680efe23", "type": "electric_scooter", "is_disabled": 0, "lat": 38.908202, "rental_uris": {"android": "https://dc.lft.to/lastmile_qr_scan", "ios": "https://dc.lft.to/lastmile_qr_scan"}, "bike_id": "e36b8f25ea0db07dc3f9c71c680efe23", "lon": -77.043345}, {"is_reserved": 0, "fusion_lon": 0.0, "fusion_lat": 0.0, "name": "b4de04b7a2aac200809a15c7800f167e", "type": "electric_scooter", "is_disabled": 0, "lat": 38.89223616666666, "rental_uris": {"android": "https://dc.lft.to/lastmile_qr_scan", "ios": "https://dc.lft.to/lastmile_qr_scan"}, "bike_id": "b4de04b7a2aac200809a15c7800f167e", "lon": -77.04261516666666}, {"is_reserved": 0, "fusion_lon": 0.0, "fusion_lat": 0.0, "name": "f6befbf2d2b7ba58a41dfe6b761e641f", "type": "electric_scooter", "is_disabled": 0, "lat": 38.88588766666667, "rental_uris": {"android": "https://dc.lft.to/lastmile_qr_scan", "ios": "https://dc.lft.to/lastmile_qr_scan"}, "bike_id": "f6befbf2d2b7ba58a41dfe6b761e641f", "lon": -76.9962475}, {"is_reserved": 0, "fusion_lon": 0.0, "fusion_lat": 0.0, "name": "268d4abf71dcfc0c77b24c4c5ce29d45", "type": "electric_scooter", "is_disabled": 0, "lat": 38.908427833333334, "rental_uris": {"android": "https://dc.lft.to/lastmile_qr_scan", "ios": "https://dc.lft.to/lastmile_qr_scan"}, "bike_id": "268d4abf71dcfc0c77b24c4c5ce29d45", "lon": -77.03940833333333}, {"is_reserved": 0, "fusion_lon": 0.0, "fusion_lat": 0.0, "name": "53874ef29a2c245bc68217821e00e5f9", "type": "electric_scooter", "is_disabled": 0, "lat": 38.87795933333334, "rental_uris": {"android": "https://dc.lft.to/lastmile_qr_scan", "ios": "https://dc.lft.to/lastmile_qr_scan"}, "bike_id": "53874ef29a2c245bc68217821e00e5f9", "lon": -76.9308775}, {"is_reserved": 0, "fusion_lon": 0.0, "fusion_lat": 0.0, "name": "9a73a1a1a691a03c5bf3e820f2670af1", "type": "electric_scooter", "is_disabled": 0, "lat": 38.91492083333333, "rental_uris": {"android": "https://dc.lft.to/lastmile_qr_scan", "ios": "https://dc.lft.to/lastmile_qr_scan"}, "bike_id": "9a73a1a1a691a03c5bf3e820f2670af1", "lon": -77.018566},