{"data": {"bikes": [{"bike_id": "58dab9c05ef785fa3c62366e86be6fd2", "type": "electric_scooter", "is_disabled": 0, "lat": 38.9071755, "rental_uris": {"ios": "https://dc.lft.to/lastmile_qr_scan", "android": "https://dc.lft.to/lastmile_qr_scan"}, "is_reserved": 0, "fusion_lon": 0.0, "fusion_lat": 0.0, "lon": -77.04504116666666, "name": "58dab9c05ef785fa3c62366e86be6fd2"}, {"bike_id": "0ed412c444300360eff78bbef40386ee", "type": "electric_scooter", "is_disabled": 0, "lat": 38.9155715, "rental_uris": {"ios": "https://dc.lft.to/lastmile_qr_scan", "android": "https://dc.lft.to/lastmile_qr_scan"}, "is_reserved": 0, "fusion_lon": 0.0, "fusion_lat": 0.0, "lon": -77.02069116666667, "name": "0ed412c444300360eff78bbef40386ee"}, {"bike_id": "818158439e082869f38d11d656a28ef5", "type": "electric_bike", "is_disabled": 0, "lat": 38.86255, "rental_uris": {"ios": "https://dc.lft.to/lastmile_qr_scan", "android": "https://dc.lft.to/lastmile_qr_scan"}, "is_reserved": 0, "fusion_lon": 0.0, "fusion_lat": 0.0, "lon": -76.98354483333334, "name": "818158439e082869f38d11d656a28ef5"}, {"bike_id": "66ba9cb0c02216889b8edfa27243ecd9", "type": "electric_scooter", "is_disabled": 0, "lat": 38.91611966666667, "rental_uris": {"ios": "https://dc.lft.to/lastmile_qr_scan", "android": "https://dc.lft.to/lastmile_qr_scan"}, "is_reserved": 0, "fusion_lon": 0.0, "fusion_lat": 0.0, "lon": -77.02167883333334, "name": "66ba9cb0c02216889b8edfa27243ecd9"}, {"bike_id": "b531c1a51ff2e3e9e8036c7dc0da75cb", "type": "electric_scooter", "is_disabled": 0, "lat": 38.91763016666667, "rental_uris": {"ios": "https://dc.lft.to/lastmile_qr_scan", "android": "https://dc.lft.to/lastmile_qr_scan"}, "is_reserved": 0, "fusion_lon": 0.0, "fusion_lat": 0.0, "lon": -77.04766533333333, "name": "b531c1a51ff2e3e9e8036c7dc0da75cb"}, {"bike_id": "1826fb28167b3e84e252d9c80d52c8df", "type": "electric_scooter", "is_disabled": 0, "lat": 38.91351233333334, "rental_uris": {"ios": "https://dc.lft.to/lastmile_qr_scan", "android": "https://dc.lft.to/lastmile_qr_scan"}, "is_reserved": 0, "fusion_lon": 0.0, "fusion_lat": 0.0, "lon": -77.02577183333334, "name": "1826fb28167b3e84e252d9c80d52c8df"}, {"bike_id": "1f893b20098c77e2f2ddd00fcb6c8fb7", "type": "electric_scooter", "is_disabled": 0, "lat": 38.9324815, "rental_uris": {"ios": "https://dc.lft.to/lastmile_qr_scan", "android": "https://dc.lft.to/lastmile_qr_scan"}, "is_reserved": 0, "fusion_lon": 0.0, "fusion_lat": 0.0, "lon": -77.03280316666667, "name": "1f893b20098c77e2f2ddd00fcb6c8fb7"}, {"bike_id": "dccd296a55494daed83ee186a27b98ec", "type": "electric_scooter", "is_disabled": 0, "lat": 38.901546333333336, "rental_uris": {"ios": "https://dc.lft.to/lastmile_qr_scan", "android": "https://dc.lft.to/lastmile_qr_scan"}, "is_reserved": 0, "fusion_lon": 0.0, "fusion_lat": 0.0, "lon": -77.02194016666667, "name": "dccd296a55494daed83ee186a27b98ec"}, {"bike_id": "7af74c1481353441c34891a0ebc29ea9", "type": "electric_scooter", "is_disabled": 0, "lat": 38.914924666666664, "rental_uris": {"ios": "https://dc.lft.to/lastmile_qr_scan", "android": "https://dc.lft.to/lastmile_qr_scan"}, "is_reserved": 0, "fusion_lon": 0.0, "fusion_lat": 0.0, "lon": -77.04572866666666, "name": "7af74c1481353441c34891a0ebc29ea9"}, {"bike_id": "c2afc1cf774c2662921bf402e361eddf", "type": "electric_scooter", "is_disabled": 0, "lat": 38.8923035, "rental_uris": {"ios": "https://dc.lft.to/lastmile_qr_scan", "android": "https://dc.lft.to/lastmile_qr_scan"}, "is_reserved": 0, "fusion_lon": 0.0, "fusion_lat": 0.0, "lon": -77.05003166666667, "name": "c2afc1cf774c2662921bf402e361eddf"}, {"bike_id": "aa59eb45d51e9202cf3d0a66b98ce1c4", "type": "electric_scooter", "is_disabled": 0, "lat": 38.907504333333335, "rental_uris": {"ios": "https://dc.lft.to/lastmile_qr_scan", "android": "https://dc.lft.to/lastmile_qr_scan"}, "is_reserved": 0, "fusion_lon": 0.0, "fusion_lat": 0.0, "lon": -77.00080616666666, "name": "aa59eb45d51e9202cf3d0a66b98ce1c4"}, {"bike_id": "3614d07411e6d9d3351babbccf3c002b", "type": "electric_scooter", "is_disabled": 0, "lat": 38.8668265, "rental_uris": {"ios": "https://dc.lft.to/lastmile_qr_scan", "android": "https://dc.lft.to/lastmile_qr_scan"}, "is_reserved": 0, "fusion_lon": 0.0, "fusion_lat": 0.0, "lon": -76.98580616666666, "name": "3614d07411e6d9d3351babbccf3c002b"}, {"bike_id": "35843357e249b96ad63682e2cf9eb20b", "type": "electric_scooter", "is_disabled": 0, "lat": 38.910685666666666, "rental_uris": {"ios": "https://dc.lft.to/lastmile_qr_scan", "android": "https://dc.lft.to/lastmile_qr_scan"}, "is_reserved": 0, "fusion_lon": 0.0, "fusion_lat": 0.0, "lon": -77.0385455, "name": "35843357e249b96ad63682e2cf9eb20b"}, {"bike_id": "ab17ee08d3c1d80b0ecce8b0f89185aa", "type": "electric_scooter", "is_disabled": 0, "lat": 38.924676833333336, "rental_uris": {"ios": "https://dc.lft.to/lastmile_qr_scan", "android": "https://dc.lft.to/lastmile_qr_scan"}, "is_reserved": 0, "fusion_lon": 0.0, "fusion_lat": 0.0, "lon": -77.052273, "name": "ab17ee08d3c1d80b0ecce8b0f89185aa"}, {"bike_id": "4be8179141c54357a5cef642432b617e", "type": "electric_scooter", "is_disabled": 0, "lat": 38.91694416666667, "rental_uris": {"ios": "https://dc.lft.to/lastmile_qr_scan", "android": "https://dc.lft.to/lastmile_qr_scan"}, "is_reserved": 0, "fusion_lon": 0.0, "fusion_lat": 0.0, "lon": -77.03158233333333, "name": "4be8179141c54357a5cef642432b617e"}, {"bike_id": "848ba83c1dbf74f4f19d63d748dfd9c3", "type": "electric_scooter", "is_disabled": 0, "lat": 38.87384933333333, "rental_uris": {"ios": "https://dc.lft.to/lastmile_qr_scan", "android": "https://dc.lft.to/lastmile_qr_scan"}, "is_reserved": 0, "fusion_lon": 0.0, "fusion_lat": 0.0, "lon": -77.0435305, "name": "848ba83c1dbf74f4f19d63d748dfd9c3"}, {"bike_id": "74500c4f3c479d75fdc3fbbe224ab87a", "type": "electric_scooter", "is_disabled": 0, "lat": 38.9003255, "rental_uris": {"ios": "https://dc.lft.to/lastmile_qr_scan", "android": "https://dc.lft.to/lastmile_qr_scan"}, "is_reserved": 0, "fusion_lon": 0.0, "fusion_lat": 0.0, "lon": -77.036638, "name": "74500c4f3c479d75fdc3fbbe224ab87a"}, {"bike_id": "f659a79b7011b9c0fa9cd9ebb591da75", "type": "electric_scooter", "is_disabled": 0, "lat": 38.907290833333334, "rental_uris": {"ios": "https://dc.lft.to/lastmile_qr_scan", "android": "https://dc.lft.to/lastmile_qr_scan"}, "is_reserved": 0, "fusion_lon": 0.0, "fusion_lat": 0.0, "lon": -77.03192233333333, "name": "f659a79b7011b9c0fa9cd9ebb591da75"}, {"bike_id": "9f33a1455c8ab2b522dee61f652bf6eb", "type": "electric_scooter", "is_disabled": 0, "lat": 38.88492166666666, "rental_uris": {"ios": "https://dc.lft.to/lastmile_qr_scan", "android": "https://dc.lft.to/lastmile_qr_scan"}, "is_reserved": 0, "fusion_lon": 0.0, "fusion_lat": 0.0, "lon": -77.01587333333333, "name": "9f33a1455c8ab2b522dee61f652bf6eb"}, {"bike_id": "e7c2949061efd0cdb55ce7cfc5aa6b65", "type": "electric_scooter", "is_disabled": 0, "lat": 38.904831333333334, "rental_uris": {"ios": "https://dc.lft.to/lastmile_qr_scan", "android": "https://dc.lft.to/lastmile_qr_scan"}, "is_reserved": 0, "fusion_lon": 0.0, "fusion_lat": 0.0, "lon": -77.0566025, "name": "e7c2949061efd0cdb55ce7cfc5aa6b65"}, {"bike_id": "0819e8a0ab0610054954bb25b977ea60", "type": "electric_scooter", "is_disabled": 0, "lat": 38.91294216666667, "rental_uris": {"ios": "https://dc.lft.to/lastmile_qr_scan", "android": "https://dc.lft.to/lastmile_qr_scan"}, "is_reserved": 0, "fusion_lon": 0.0, "fusion_lat": 0.0, "lon": -77.01693266666666, "name": "0819e8a0ab0610054954bb25b977ea60"}, {"bike_id": "f390e800afec346338e9b0e7c6d48e67", "type": "electric_bike", "is_disabled": 0, "lat": 38.88243516666667, "rental_uris": {"ios": "https://dc.lft.to/lastmile_qr_scan", "android": "https://dc.lft.to/lastmile_qr_scan"}, "is_reserved": 0, "fusion_lon": 0.0, "fusion_lat": 0.0, "lon": -76.96257916666667, "name": "f390e800afec346338e9b0e7c6d48e67"}, {"bike_id": "8d34b450c5e00ac199d7fb17e54f877a", "type": "electric_scooter", "is_disabled": 0, "lat": 38.91641766666667, "rental_uris": {"ios": "https://dc.lft.to/lastmile_qr_scan", "android": "https://dc.lft.to/lastmile_qr_scan"}, "is_reserved": 0, "fusion_lon": 0.0, "fusion_lat": 0.0, "lon": -77.0227405, "name": "8d34b450c5e00ac199d7fb17e54f877a"}, {"bike_id": "82a81c2061d84913a6f3a376059384d0", "type": "electric_scooter", "is_disabled": 0, "lat": 38.929459333333334, "rental_uris": {"ios": "https://dc.lft.to/lastmile_qr_scan", "android": "https://dc.lft.to/lastmile_qr_scan"}, "is_reserved": 0, "fusion_lon": 0.0, "fusion_lat": 0.0, "lon": -77.04404583333333, "name": "82a81c2061d84913a6f3a376059384d0"}, {"bike_id": "8e02a487ee0d735a2cafa90f3a4031f1", "type": "electric_scooter", "is_disabled": 0, "lat": 38.920977666666666, "rental_uris": {"ios": "https://dc.lft.to/lastmile_qr_scan", "android": "https://dc.lft.to/lastmile_qr_scan"}, "is_reserved": 0, "fusion_lon": 0.0, "fusion_lat": 0.0, "lon": -77.03164466666666, "name": "8e02a487ee0d735a2cafa90f3a4031f1"}, {"bike_id": "8fd7d7e020fad9907415a5ecf2a18c8a", "type": "electric_scooter", "is_disabled": 0, "lat": 38.934127, "rental_uris": {"ios": "https://dc.lft.to/lastmile_qr_scan", "android": "https://dc.lft.to/lastmile_qr_scan"}, "is_reserved": 0, "fusion_lon": 0.0, "fusion_lat": 0.0, "lon": -77.04153566666666, "name": "8fd7d7e020fad9907415a5ecf2a18c8a"}, {"bike_id": "494b5930e158ecf4e159890d78d48457", "type": "electric_scooter", "is_disabled": 0, "lat": 38.904677166666666, "rental_uris": {"ios": "https://dc.lft.to/lastmile_qr_scan", "android": "https://dc.lft.to/lastmile_qr_scan"}, "is_reserved": 0, "fusion_lon": 0.0, "fusion_lat": 0.0, "lon": -76.97610583333334, "name": "494b5930e158ecf4e159890d78d48457"}, {"bike_id": "3235702e3794820e46868229bfd90c49", "type": "electric_scooter", "is_disabled": 0, "lat": 38.8999395, "rental_uris": {"ios": "https://dc.lft.to/lastmile_qr_scan", "android": "https://dc.lft.to/lastmile_qr_scan"}, "is_reserved": 0, "fusion_lon": 0.0, "fusion_lat": 0.0, "lon": -77.00378483333333, "name": "3235702e3794820e46868229bfd90c49"}, {"bike_id": "76047d0f3d318355d2e0733d5c1fdfa7", "type": "electric_scooter", "is_disabled": 0, "lat": 38.922486, "rental_uris": {"ios": "https://dc.lft.to/lastmile_qr_scan", "android": "https://dc.lft.to/lastmile_qr_scan"}, "is_reserved": 0, "fusion_lon": 0.0, "fusion_lat": 0.0, "lon": -77.04204033333333, "name": "76047d0f3d318355d2e0733d5c1fdfa7"}, {"bike_id": "69737353d1b31e1e61b27b3d5ae78d1c", "type": "electric_scooter", "is_disabled": 0, "lat": 38.862069, "rental_uris": {"ios": "https://dc.lft.to/lastmile_qr_scan", "android": "https://dc.lft.to/lastmile_qr_scan"}, "is_reserved": 0, "fusion_lon": 0.0, "fusion_lat": 0.0, "lon": -76.9947375, "name": "69737353d1b31e1e61b27b3d5ae78d1c"}, {"bike_id": "4f9f4579df5340c877125f96f71906de", "type": "electric_scooter", "is_disabled": 0, "lat": 38.93188716666667, "rental_uris": {"ios": "https://dc.lft.to/lastmile_qr_scan", "android": "https://dc.lft.to/lastmile_qr_scan"}, "is_reserved": 0, "fusion_lon": 0.0, "fusion_lat": 0.0, "lon": -77.02391816666666, "name": "4f9f4579df5340c877125f96f71906de"}, {"bike_id": "365e054b085f3bb9ec648f9e3fbc9da2", "type": "electric_bike", "is_disabled": 0, "lat": 38.932252, "rental_uris": {"ios": "https://dc.lft.to/lastmile_qr_scan", "android": "https://dc.lft.to/lastmile_qr_scan"}, "is_reserved": 0, "fusion_lon": 0.0, "fusion_lat": 0.0, "lon": -77.18123416666667, "name": "365e054b085f3bb9ec648f9e3fbc9da2"}, {"bike_id": "f28f72be5e8a6909dfb6a3f94771fcd5", "type": "electric_scooter", "is_disabled": 0, "lat": 38.9345375, "rental_uris": {"ios": "https://dc.lft.to/lastmile_qr_scan", "android": "https://dc.lft.to/lastmile_qr_scan"}, "is_reserved": 0, "fusion_lon": 0.0, "fusion_lat": 0.0, "lon": -77.02799216666666, "name": "f28f72be5e8a6909dfb6a3f94771fcd5"}, {"bike_id": "90e5e3d29fe0ab5a5e9ecede03036a18", "type": "electric_scooter", "is_disabled": 0, "lat": 38.87173216666667, "rental_uris": {"ios": "https://dc.lft.to/lastmile_qr_scan", "android": "https://dc.lft.to/lastmile_qr_scan"}, "is_reserved": 0, "fusion_lon": 0.0, "fusion_lat": 0.0, "lon": -77.00617083333333, "name": "90e5e3d29fe0ab5a5e9ecede03036a18"}, {"bike_id": "63b0bd68db94f529f00bcd31e3b4f6b2", "type": "electric_bike", "is_disabled": 0, "lat": 38.93440183333333, "rental_uris": {"ios": "https://dc.lft.to/lastmile_qr_scan", "android": "https://dc.lft.to/lastmile_qr_scan"}, "is_reserved": 0, "fusion_lon": 0.0, "fusion_lat": 0.0, "lon": -77.04131666666666, "name": "63b0bd68db94f529f00bcd31e3b4f6b2"}, {"bike_id": "0fe757b7fa558dd7ad95d81954603e44", "type": "electric_scooter", "is_disabled": 0, "lat": 38.914248, "rental_uris": {"ios": "https://dc.lft.to/lastmile_qr_scan", "android": "https://dc.lft.to/lastmile_qr_scan"}, "is_reserved": 0, "fusion_lon": 0.0, "fusion_lat": 0.0, "lon": -77.0319985, "name": "0fe757b7fa558dd7ad95d81954603e44"}, {"bike_id": "f842b27aa8ab8ed798674cb3a0e34c84", "type": "electric_scooter", "is_disabled": 0, "lat": 38.896077, "rental_uris": {"ios": "https://dc.lft.to/lastmile_qr_scan", "android": "https://dc.lft.to/lastmile_qr_scan"}, "is_reserved": 0, "fusion_lon": 0.0, "fusion_lat": 0.0, "lon": -77.0003495, "name": "f842b27aa8ab8ed798674cb3a0e34c84"}, {"bike_id": "c535f0d84e2e4d43667f5f1d91713c70", "type": "electric_scooter", "is_disabled": 0, "lat": 38.907815, "rental_uris": {"ios": "https://dc.lft.to/lastmile_qr_scan", "android": "https://dc.lft.to/lastmile_qr_scan"}, "is_reserved": 0, "fusion_lon": 0.0, "fusion_lat": 0.0, "lon": -77.06426466666667, "name": "c535f0d84e2e4d43667f5f1d91713c70"}, {"bike_id": "63ff0a29f5f650ea0e731a13df40ac2c", "type": "electric_bike", "is_disabled": 0, "lat": 38.83607633333333, "rental_uris": {"ios": "https://dc.lft.to/lastmile_qr_scan", "android": "https://dc.lft.to/lastmile_qr_scan"}, "is_reserved": 0, "fusion_lon": 0.0, "fusion_lat": 0.0, "lon": -77.00387533333334, "name": "63ff0a29f5f650ea0e731a13df40ac2c"}, {"bike_id": "0b5a783e8847fbda7fd67b25346b0403", "type": "electric_scooter", "is_disabled": 0, "lat": 38.90754183333333, "rental_uris": {"ios": "https://dc.lft.to/lastmile_qr_scan", "android": "https://dc.lft.to/lastmile_qr_scan"}, "is_reserved": 0, "fusion_lon": 0.0, "fusion_lat": 0.0, "lon": -77.0360555, "name": "0b5a783e8847fbda7fd67b25346b0403"}, {"bike_id": "dbc4212ddc0c0360726ea93dd81425f8", "type": "electric_bike", "is_disabled": 0, "lat": 38.87130616666666, "rental_uris": {"ios": "https://dc.lft.to/lastmile_qr_scan", "android": "https://dc.lft.to/lastmile_qr_scan"}, "is_reserved": 0, "fusion_lon": 0.0, "fusion_lat": 0.0, "lon": -77.10023766666667, "name": "dbc4212ddc0c0360726ea93dd81425f8"}, {"bike_id": "2d1de48f1a2f7a1873aa3db926ed81d8", "type": "electric_scooter", "is_disabled": 0, "lat": 38.92108283333334, "rental_uris": {"ios": "https://dc.lft.to/lastmile_qr_scan", "android": "https://dc.lft.to/lastmile_qr_scan"}, "is_reserved": 0, "fusion_lon": 0.0, "fusion_lat": 0.0, "lon": -77.02197183333334, "name": "2d1de48f1a2f7a1873aa3db926ed81d8"}, {"bike_id": "9184ba9c15f229c3ffa15b944f28dbb1", "type": "electric_scooter", "is_disabled": 0, "lat": 38.899097833333336, "rental_uris": {"ios": "https://dc.lft.to/lastmile_qr_scan", "android": "https://dc.lft.to/lastmile_qr_scan"}, "is_reserved": 0, "fusion_lon": 0.0, "fusion_lat": 0.0, "lon": -76.933752, "name": "9184ba9c15f229c3ffa15b944f28dbb1"}, {"bike_id": "4e4668480009082a180f7006560b0dca", "type": "electric_scooter", "is_disabled": 0, "lat": 38.92053766666667, "rental_uris": {"ios": "https://dc.lft.to/lastmile_qr_scan", "android": "https://dc.lft.to/lastmile_qr_scan"}, "is_reserved": 0, "fusion_lon": 0.0, "fusion_lat": 0.0, "lon": -77.02404083333333, "name": "4e4668480009082a180f7006560b0dca"}, {"bike_id": "0b27b38a761875ccb6d2e15164412bb2", "type": "electric_scooter", "is_disabled": 0, "lat": 38.91875116666667, "rental_uris": {"ios": "https://dc.lft.to/lastmile_qr_scan", "android": "https://dc.lft.to/lastmile_qr_scan"}, "is_reserved": 0, "fusion_lon": 0.0, "fusion_lat": 0.0, "lon": -77.04455816666666, "name": "0b27b38a761875ccb6d2e15164412bb2"}, {"bike_id": "cccb57163bb896924465830a384ed9cd", "type": "electric_scooter", "is_disabled": 0, "lat": 38.90638583333333, "rental_uris": {"ios": "https://dc.lft.to/lastmile_qr_scan", "android": "https://dc.lft.to/lastmile_qr_scan"}, "is_reserved": 0, "fusion_lon": 0.0, "fusion_lat": 0.0, "lon": -77.04890333333333, "name": "cccb57163bb896924465830a384ed9cd"}, {"bike_id": "94e292b0ec32759becea085e3cf05caa", "type": "electric_scooter", "is_disabled": 0, "lat": 38.930242, "rental_uris": {"ios": "https://dc.lft.to/lastmile_qr_scan", "android": "https://dc.lft.to/lastmile_qr_scan"}, "is_reserved": 0, "fusion_lon": 0.0, "fusion_lat": 0.0, "lon": -77.03806416666667, "name": "94e292b0ec32759becea085e3cf05caa"}, {"bike_id": "5f68f1fdcfdc522909ba58655466a9ef", "type": "electric_scooter", "is_disabled": 0, "lat": 38.9110805, "rental_uris": {"ios": "https://dc.lft.to/lastmile_qr_scan", "android": "https://dc.lft.to/lastmile_qr_scan"}, "is_reserved": 0, "fusion_lon": 0.0, "fusion_lat": 0.0, "lon": -77.02447633333334, "name": "5f68f1fdcfdc522909ba58655466a9ef"}, {"bike_id": "c5fb8e5c964d5ea053334398557404d8", "type": "electric_scooter", "is_disabled": 0, "lat": 38.90374533333333, "rental_uris": {"ios": "https://dc.lft.to/lastmile_qr_scan", "android": "https://dc.lft.to/lastmile_qr_scan"}, "is_reserved": 0, "fusion_lon": 0.0, "fusion_lat": 0.0, "lon": -77.00891616666667, "name": "c5fb8e5c964d5ea053334398557404d8"}, {"bike_id": "09d43b281667f595fbc1a274b8993d35", "type": "electric_scooter", "is_disabled": 0, "lat": 38.92792383333333, "rental_uris": {"ios": "https://dc.lft.to/lastmile_qr_scan", "android": "https://dc.lft.to/lastmile_qr_scan"}, "is_reserved": 0, "fusion_lon": 0.0, "fusion_lat": 0.0, "lon": -77.05260583333333, "name": "09d43b281667f595fbc1a274b8993d35"}, {"bike_id": "7ea020c89e7014d612894e199d7c8a87", "type": "electric_scooter", "is_disabled": 0, "lat": 38.947146333333336, "rental_uris": {"ios": "https://dc.lft.to/lastmile_qr_scan", "android": "https://dc.lft.to/lastmile_qr_scan"}, "is_reserved": 0, "fusion_lon": 0.0, "fusion_lat": 0.0, "lon": -77.02779133333334, "name": "7ea020c89e7014d612894e199d7c8a87"}, {"bike_id": "2c38abc4aaa56528bb28f2ed0cb7b53b", "type": "electric_scooter", "is_disabled": 0, "lat": 38.8620125, "rental_uris": {"ios": "https://dc.lft.to/lastmile_qr_scan", "android": "https://dc.lft.to/lastmile_qr_scan"}, "is_reserved": 0, "fusion_lon": 0.0, "fusion_lat": 0.0, "lon": -76.99470133333334, "name": "2c38abc4aaa56528bb28f2ed0cb7b53b"}, {"bike_id": "aab73a7e450964a2ee193abd43115a4f", "type": "electric_scooter", "is_disabled": 0, "lat": 38.8834675, "rental_uris": {"ios": "https://dc.lft.to/lastmile_qr_scan", "android": "https://dc.lft.to/lastmile_qr_scan"}, "is_reserved": 0, "fusion_lon": 0.0, "fusion_lat": 0.0, "lon": -76.99496966666666, "name": "aab73a7e450964a2ee193abd43115a4f"}, {"bike_id": "549ea54c28c436a42fcba2f1a90b98ba", "type": "electric_scooter", "is_disabled": 0, "lat": 38.86694116666666, "rental_uris": {"ios": "https://dc.lft.to/lastmile_qr_scan", "android": "https://dc.lft.to/lastmile_qr_scan"}, "is_reserved": 0, "fusion_lon": 0.0, "fusion_lat": 0.0, "lon": -76.98713533333333, "name": "549ea54c28c436a42fcba2f1a90b98ba"}, {"bike_id": "efb66f039912c9683315f0791d1d3ef9", "type": "electric_scooter", "is_disabled": 0, "lat": 38.918304666666664, "rental_uris": {"ios": "https://dc.lft.to/lastmile_qr_scan", "android": "https://dc.lft.to/lastmile_qr_scan"}, "is_reserved": 0, "fusion_lon": 0.0, "fusion_lat": 0.0, "lon": -77.04561383333333, "name": "efb66f039912c9683315f0791d1d3ef9"}, {"bike_id": "57b39f31da6b734dac2a3fbd2db22fd1", "type": "electric_scooter", "is_disabled": 0, "lat": 38.91316033333333, "rental_uris": {"ios": "https://dc.lft.to/lastmile_qr_scan", "android": "https://dc.lft.to/lastmile_qr_scan"}, "is_reserved": 0, "fusion_lon": 0.0, "fusion_lat": 0.0, "lon": -77.0317525, "name": "57b39f31da6b734dac2a3fbd2db22fd1"}, {"bike_id": "814fe581fda029b2223ee1875e8faf19", "type": "electric_bike", "is_disabled": 0, "lat": 38.877092166666664, "rental_uris": {"ios": "https://dc.lft.to/lastmile_qr_scan", "android": "https://dc.lft.to/lastmile_qr_scan"}, "is_reserved": 0, "fusion_lon": 0.0, "fusion_lat": 0.0, "lon": -77.017454, "name": "814fe581fda029b2223ee1875e8faf19"}, {"bike_id": "5162b1a01589d2a652a9c3124aa8ed9f", "type": "electric_scooter", "is_disabled": 0, "lat": 38.9381595, "rental_uris": {"ios": "https://dc.lft.to/lastmile_qr_scan", "android": "https://dc.lft.to/lastmile_qr_scan"}, "is_reserved": 0, "fusion_lon": 0.0, "fusion_lat": 0.0, "lon": -77.0271765, "name": "5162b1a01589d2a652a9c3124aa8ed9f"}, {"bike_id": "c00b8ac3fc17853d3f17c81244e22a78", "type": "electric_scooter", "is_disabled": 0, "lat": 38.906806833333334, "rental_uris": {"ios": "https://dc.lft.to/lastmile_qr_scan", "android": "https://dc.lft.to/lastmile_qr_scan"}, "is_reserved": 0, "fusion_lon": 0.0, "fusion_lat": 0.0, "lon": -77.03809583333333, "name": "c00b8ac3fc17853d3f17c81244e22a78"}, {"bike_id": "d40d492d71474b9a2f4af52420f192b7", "type": "electric_scooter", "is_disabled": 0, "lat": 38.9250775, "rental_uris": {"ios": "https://dc.lft.to/lastmile_qr_scan", "android": "https://dc.lft.to/lastmile_qr_scan"}, "is_reserved": 0, "fusion_lon": 0.0, "fusion_lat": 0.0, "lon": -77.008878, "name": "d40d492d71474b9a2f4af52420f192b7"}, {"bike_id": "ab04e6b2cd847da3e9aa166b9340f09a", "type": "electric_scooter", "is_disabled": 0, "lat": 38.908457166666665, "rental_uris": {"ios": "https://dc.lft.to/lastmile_qr_scan", "android": "https://dc.lft.to/lastmile_qr_scan"}, "is_reserved": 0, "fusion_lon": 0.0, "fusion_lat": 0.0, "lon": -76.99960316666667, "name": "ab04e6b2cd847da3e9aa166b9340f09a"}, {"bike_id": "eadda4fe25ba9352e4b4ee090a4d4bc2", "type": "electric_scooter", "is_disabled": 0, "lat": 38.93127883333333, "rental_uris": {"ios": "https://dc.lft.to/lastmile_qr_scan", "android": "https://dc.lft.to/lastmile_qr_scan"}, "is_reserved": 0, "fusion_lon": 0.0, "fusion_lat": 0.0, "lon": -77.057318, "name": "eadda4fe25ba9352e4b4ee090a4d4bc2"}, {"bike_id": "464487703f55419d008f0b60b764be28", "type": "electric_scooter", "is_disabled": 0, "lat": 38.866704, "rental_uris": {"ios": "https://dc.lft.to/lastmile_qr_scan", "android": "https://dc.lft.to/lastmile_qr_scan"}, "is_reserved": 0, "fusion_lon": 0.0, "fusion_lat": 0.0, "lon": -76.9852855, "name": "464487703f55419d008f0b60b764be28"}, {"bike_id": "f117013a6ce264ce654a0adc46074a04", "type": "electric_scooter", "is_disabled": 0, "lat": 38.86206216666667, "rental_uris": {"ios": "https://dc.lft.to/lastmile_qr_scan", "android": "https://dc.lft.to/lastmile_qr_scan"}, "is_reserved": 0, "fusion_lon": 0.0, "fusion_lat": 0.0, "lon": -76.9947225, "name": "f117013a6ce264ce654a0adc46074a04"}, {"bike_id": "616887a491b8cac9d0d88925f1e70c1c", "type": "electric_scooter", "is_disabled": 0, "lat": 38.9240065, "rental_uris": {"ios": "https://dc.lft.to/lastmile_qr_scan", "android": "https://dc.lft.to/lastmile_qr_scan"}, "is_reserved": 0, "fusion_lon": 0.0, "fusion_lat": 0.0, "lon": -77.05053666666667, "name": "616887a491b8cac9d0d88925f1e70c1c"}, {"bike_id": "ddbd67acf490efe0cfc7d69545530b8c", "type": "electric_scooter", "is_disabled": 0, "lat": 38.91729866666667, "rental_uris": {"ios": "https://dc.lft.to/lastmile_qr_scan", "android": "https://dc.lft.to/lastmile_qr_scan"}, "is_reserved": 0, "fusion_lon": 0.0, "fusion_lat": 0.0, "lon": -77.041763, "name": "ddbd67acf490efe0cfc7d69545530b8c"}, {"bike_id": "a0b3e350bb9e6d61d53ca6d093a136c9", "type": "electric_scooter", "is_disabled": 0, "lat": 38.93373616666667, "rental_uris": {"ios": "https://dc.lft.to/lastmile_qr_scan", "android": "https://dc.lft.to/lastmile_qr_scan"}, "is_reserved": 0, "fusion_lon": 0.0, "fusion_lat": 0.0, "lon": -77.0573845, "name": "a0b3e350bb9e6d61d53ca6d093a136c9"}, {"bike_id": "ccc66d63e797261e77968562a1a1c74e", "type": "electric_scooter", "is_disabled": 0, "lat": 38.91373133333333, "rental_uris": {"ios": "https://dc.lft.to/lastmile_qr_scan", "android": "https://dc.lft.to/lastmile_qr_scan"}, "is_reserved": 0, "fusion_lon": 0.0, "fusion_lat": 0.0, "lon": -77.03016666666667, "name": "ccc66d63e797261e77968562a1a1c74e"}, {"bike_id": "c5acfa657ab82b7da09cc0fb12be9017", "type": "electric_scooter", "is_disabled": 0, "lat": 38.90007633333333, "rental_uris": {"ios": "https://dc.lft.to/lastmile_qr_scan", "android": "https://dc.lft.to/lastmile_qr_scan"}, "is_reserved": 0, "fusion_lon": 0.0, "fusion_lat": 0.0, "lon": -77.00672766666666, "name": "c5acfa657ab82b7da09cc0fb12be9017"}, {"bike_id": "17ab524878952de13533c2df3fcbd409", "type": "electric_scooter", "is_disabled": 0, "lat": 38.912553, "rental_uris": {"ios": "https://dc.lft.to/lastmile_qr_scan", "android": "https://dc.lft.to/lastmile_qr_scan"}, "is_reserved": 0, "fusion_lon": 0.0, "fusion_lat": 0.0, "lon": -77.03033433333333, "name": "17ab524878952de13533c2df3fcbd409"}, {"bike_id": "cbf19ec1f922dd8842b218a70308d16a", "type": "electric_scooter", "is_disabled": 0, "lat": 38.844301, "rental_uris": {"ios": "https://dc.lft.to/lastmile_qr_scan", "android": "https://dc.lft.to/lastmile_qr_scan"}, "is_reserved": 0, "fusion_lon": 0.0, "fusion_lat": 0.0, "lon": -76.998752, "name": "cbf19ec1f922dd8842b218a70308d16a"}, {"bike_id": "0cc41e606021b739b33d123d20f66d0b", "type": "electric_scooter", "is_disabled": 0, "lat": 38.93899833333333, "rental_uris": {"ios": "https://dc.lft.to/lastmile_qr_scan", "android": "https://dc.lft.to/lastmile_qr_scan"}, "is_reserved": 0, "fusion_lon": 0.0, "fusion_lat": 0.0, "lon": -77.01680316666666, "name": "0cc41e606021b739b33d123d20f66d0b"}, {"bike_id": "c8a75433380673469eb1fb3ad0d89766", "type": "electric_scooter", "is_disabled": 0, "lat": 38.90630916666667, "rental_uris": {"ios": "https://dc.lft.to/lastmile_qr_scan", "android": "https://dc.lft.to/lastmile_qr_scan"}, "is_reserved": 0, "fusion_lon": 0.0, "fusion_lat": 0.0, "lon": -77.0250315, "name": "c8a75433380673469eb1fb3ad0d89766"}, {"bike_id": "2cf482663e7275ce8750d572f336a2cf", "type": "electric_scooter", "is_disabled": 0, "lat": 38.925255666666665, "rental_uris": {"ios": "https://dc.lft.to/lastmile_qr_scan", "android": "https://dc.lft.to/lastmile_qr_scan"}, "is_reserved": 0, "fusion_lon": 0.0, "fusion_lat": 0.0, "lon": -77.04139466666666, "name": "2cf482663e7275ce8750d572f336a2cf"}, {"bike_id": "6cc89284bd3b8e1e9c03baa0a01cba5b", "type": "electric_scooter", "is_disabled": 0, "lat": 38.91421016666666, "rental_uris": {"ios": "https://dc.lft.to/lastmile_qr_scan", "android": "https://dc.lft.to/lastmile_qr_scan"}, "is_reserved": 0, "fusion_lon": 0.0, "fusion_lat": 0.0, "lon": -77.0211245, "name": "6cc89284bd3b8e1e9c03baa0a01cba5b"}, {"bike_id": "d254aece71d2977d4fe764ccadd7bf58", "type": "electric_scooter", "is_disabled": 0, "lat": 38.896062666666666, "rental_uris": {"ios": "https://dc.lft.to/lastmile_qr_scan", "android": "https://dc.lft.to/lastmile_qr_scan"}, "is_reserved": 0, "fusion_lon": 0.0, "fusion_lat": 0.0, "lon": -77.00333916666666, "name": "d254aece71d2977d4fe764ccadd7bf58"}, {"bike_id": "541d42c9280e46568b6a859e3b926b70", "type": "electric_bike", "is_disabled": 0, "lat": 38.9539955, "rental_uris": {"ios": "https://dc.lft.to/lastmile_qr_scan", "android": "https://dc.lft.to/lastmile_qr_scan"}, "is_reserved": 0, "fusion_lon": 0.0, "fusion_lat": 0.0, "lon": -76.98055233333334, "name": "541d42c9280e46568b6a859e3b926b70"}, {"bike_id": "c833d3550d54d670d59569e93429d9e2", "type": "electric_bike", "is_disabled": 0, "lat": 38.83825733333333, "rental_uris": {"ios": "https://dc.lft.to/lastmile_qr_scan", "android": "https://dc.lft.to/lastmile_qr_scan"}, "is_reserved": 0, "fusion_lon": 0.0, "fusion_lat": 0.0, "lon": -77.00288633333334, "name": "c833d3550d54d670d59569e93429d9e2"}, {"bike_id": "a8cb6b62e7329ea7a01827a24c1cb9ad", "type": "electric_scooter", "is_disabled": 0, "lat": 38.9247025, "rental_uris": {"ios": "https://dc.lft.to/lastmile_qr_scan", "android": "https://dc.lft.to/lastmile_qr_scan"}, "is_reserved": 0, "fusion_lon": 0.0, "fusion_lat": 0.0, "lon": -77.02255283333334, "name": "a8cb6b62e7329ea7a01827a24c1cb9ad"}, {"bike_id": "b096fb3c4314c8ad7952a01d053f7713", "type": "electric_scooter", "is_disabled": 0, "lat": 38.905776333333336, "rental_uris": {"ios": "https://dc.lft.to/lastmile_qr_scan", "android": "https://dc.lft.to/lastmile_qr_scan"}, "is_reserved": 0, "fusion_lon": 0.0, "fusion_lat": 0.0, "lon": -77.04223933333333, "name": "b096fb3c4314c8ad7952a01d053f7713"}, {"bike_id": "cee8b444085958864d2b0573dbb1995f", "type": "electric_scooter", "is_disabled": 0, "lat": 38.917735666666665, "rental_uris": {"ios": "https://dc.lft.to/lastmile_qr_scan", "android": "https://dc.lft.to/lastmile_qr_scan"}, "is_reserved": 0, "fusion_lon": 0.0, "fusion_lat": 0.0, "lon": -77.02307233333333, "name": "cee8b444085958864d2b0573dbb1995f"}, {"bike_id": "1ffe347c82f6e16b07f7e2f4fa0fea6d", "type": "electric_scooter", "is_disabled": 0, "lat": 38.92324466666667, "rental_uris": {"ios": "https://dc.lft.to/lastmile_qr_scan", "android": "https://dc.lft.to/lastmile_qr_scan"}, "is_reserved": 0, "fusion_lon": 0.0, "fusion_lat": 0.0, "lon": -77.04185833333334, "name": "1ffe347c82f6e16b07f7e2f4fa0fea6d"}, {"bike_id": "b5ec20fa1a3eaede446bb370837ab831", "type": "electric_bike", "is_disabled": 0, "lat": 38.9509855, "rental_uris": {"ios": "https://dc.lft.to/lastmile_qr_scan", "android": "https://dc.lft.to/lastmile_qr_scan"}, "is_reserved": 0, "fusion_lon": 0.0, "fusion_lat": 0.0, "lon": -77.05519466666667, "name": "b5ec20fa1a3eaede446bb370837ab831"}, {"bike_id": "3c76d8b337e648d87b7a6d14da557bc0", "type": "electric_bike", "is_disabled": 0, "lat": 38.87832616666667, "rental_uris": {"ios": "https://dc.lft.to/lastmile_qr_scan", "android": "https://dc.lft.to/lastmile_qr_scan"}, "is_reserved": 0, "fusion_lon": 0.0, "fusion_lat": 0.0, "lon": -76.98736, "name": "3c76d8b337e648d87b7a6d14da557bc0"}, {"bike_id": "bbd885b2b401c3c3f57f5c7ea388f5f4", "type": "electric_scooter", "is_disabled": 0, "lat": 38.91252183333334, "rental_uris": {"ios": "https://dc.lft.to/lastmile_qr_scan", "android": "https://dc.lft.to/lastmile_qr_scan"}, "is_reserved": 0, "fusion_lon": 0.0, "fusion_lat": 0.0, "lon": -77.04242983333333, "name": "bbd885b2b401c3c3f57f5c7ea388f5f4"}, {"bike_id": "14e1fdea2a59a646494a7e34305dc663", "type": "electric_scooter", "is_disabled": 0, "lat": 38.9145605, "rental_uris": {"ios": "https://dc.lft.to/lastmile_qr_scan", "android": "https://dc.lft.to/lastmile_qr_scan"}, "is_reserved": 0, "fusion_lon": 0.0, "fusion_lat": 0.0, "lon": -77.07109483333333, "name": "14e1fdea2a59a646494a7e34305dc663"}, {"bike_id": "609cee6556786e72dd9a4e2820ebbb96", "type": "electric_scooter", "is_disabled": 0, "lat": 38.898784666666664, "rental_uris": {"ios": "https://dc.lft.to/lastmile_qr_scan", "android": "https://dc.lft.to/lastmile_qr_scan"}, "is_reserved": 0, "fusion_lon": 0.0, "fusion_lat": 0.0, "lon": -76.97698783333334, "name": "609cee6556786e72dd9a4e2820ebbb96"}, {"bike_id": "e8d82fffdffd1f903bfa04a171698411", "type": "electric_bike", "is_disabled": 0, "lat": 39.013681, "rental_uris": {"ios": "https://dc.lft.to/lastmile_qr_scan", "android": "https://dc.lft.to/lastmile_qr_scan"}, "is_reserved": 0, "fusion_lon": 0.0, "fusion_lat": 0.0, "lon": -76.92135933333333, "name": "e8d82fffdffd1f903bfa04a171698411"}, {"bike_id": "2f5ff07e08683329cc483ad5dcd0e9b2", "type": "electric_scooter", "is_disabled": 0, "lat": 38.915587333333335, "rental_uris": {"ios": "https://dc.lft.to/lastmile_qr_scan", "android": "https://dc.lft.to/lastmile_qr_scan"}, "is_reserved": 0, "fusion_lon": 0.0, "fusion_lat": 0.0, "lon": -77.03171116666667, "name": "2f5ff07e08683329cc483ad5dcd0e9b2"}, {"bike_id": "de378ed60abff40ca24af02b09baf172", "type": "electric_scooter", "is_disabled": 0, "lat": 38.907103666666664, "rental_uris": {"ios": "https://dc.lft.to/lastmile_qr_scan", "android": "https://dc.lft.to/lastmile_qr_scan"}, "is_reserved": 0, "fusion_lon": 0.0, "fusion_lat": 0.0, "lon": -77.00365033333334, "name": "de378ed60abff40ca24af02b09baf172"}, {"bike_id": "5698030cba3899b70761fe19db88bf76", "type": "electric_bike", "is_disabled": 0, "lat": 38.956368499999996, "rental_uris": {"ios": "https://dc.lft.to/lastmile_qr_scan", "android": "https://dc.lft.to/lastmile_qr_scan"}, "is_reserved": 0, "fusion_lon": 0.0, "fusion_lat": 0.0, "lon": -76.99799016666667, "name": "5698030cba3899b70761fe19db88bf76"}, {"bike_id": "f5c3a70815acc93126015aebda450edf", "type": "electric_scooter", "is_disabled": 0, "lat": 38.902541166666666, "rental_uris": {"ios": "https://dc.lft.to/lastmile_qr_scan", "android": "https://dc.lft.to/lastmile_qr_scan"}, "is_reserved": 0, "fusion_lon": 0.0, "fusion_lat": 0.0, "lon": -77.03464783333334, "name": "f5c3a70815acc93126015aebda450edf"}, {"bike_id": "e284a4e930f0ff44aa53dd7b58497644", "type": "electric_scooter", "is_disabled": 0, "lat": 38.913865333333334, "rental_uris": {"ios": "https://dc.lft.to/lastmile_qr_scan", "android": "https://dc.lft.to/lastmile_qr_scan"}, "is_reserved": 0, "fusion_lon": 0.0, "fusion_lat": 0.0, "lon": -77.03465833333334, "name": "e284a4e930f0ff44aa53dd7b58497644"}, {"bike_id": "41e3c2268412d519ad3c6dc9001cc20f", "type": "electric_scooter", "is_disabled": 0, "lat": 38.9234845, "rental_uris": {"ios": "https://dc.lft.to/lastmile_qr_scan", "android": "https://dc.lft.to/lastmile_qr_scan"}, "is_reserved": 0, "fusion_lon": 0.0, "fusion_lat": 0.0, "lon": -77.041419, "name": "41e3c2268412d519ad3c6dc9001cc20f"}, {"bike_id": "7652d6dbd28e890fa6201142624beb47", "type": "electric_scooter", "is_disabled": 0, "lat": 38.93889516666667, "rental_uris": {"ios": "https://dc.lft.to/lastmile_qr_scan", "android": "https://dc.lft.to/lastmile_qr_scan"}, "is_reserved": 0, "fusion_lon": 0.0, "fusion_lat": 0.0, "lon": -77.028234, "name": "7652d6dbd28e890fa6201142624beb47"}, {"bike_id": "a56618512d272c1d7d24d36340ad07fc", "type": "electric_scooter", "is_disabled": 0, "lat": 38.923315333333335, "rental_uris": {"ios": "https://dc.lft.to/lastmile_qr_scan", "android": "https://dc.lft.to/lastmile_qr_scan"}, "is_reserved": 0, "fusion_lon": 0.0, "fusion_lat": 0.0, "lon": -77.023037, "name": "a56618512d272c1d7d24d36340ad07fc"}, {"bike_id": "ad7324b5fafa03ce4aaa8131a3b3a724", "type": "electric_scooter", "is_disabled": 0, "lat": 38.92241166666667, "rental_uris": {"ios": "https://dc.lft.to/lastmile_qr_scan", "android": "https://dc.lft.to/lastmile_qr_scan"}, "is_reserved": 0, "fusion_lon": 0.0, "fusion_lat": 0.0, "lon": -77.03087516666666, "name": "ad7324b5fafa03ce4aaa8131a3b3a724"}, {"bike_id": "e6e3e0ee8840ea39e27458495dfd8da4", "type": "electric_scooter", "is_disabled": 0, "lat": 38.906733333333335, "rental_uris": {"ios": "https://dc.lft.to/lastmile_qr_scan", "android": "https://dc.lft.to/lastmile_qr_scan"}, "is_reserved": 0, "fusion_lon": 0.0, "fusion_lat": 0.0, "lon": -77.0105095, "name": "e6e3e0ee8840ea39e27458495dfd8da4"}, {"bike_id": "e8c40e70981fe89547506578ddd2dbe1", "type": "electric_scooter", "is_disabled": 0, "lat": 38.86371883333333, "rental_uris": {"ios": "https://dc.lft.to/lastmile_qr_scan", "android": "https://dc.lft.to/lastmile_qr_scan"}, "is_reserved": 0, "fusion_lon": 0.0, "fusion_lat": 0.0, "lon": -76.99060116666666, "name": "e8c40e70981fe89547506578ddd2dbe1"}, {"bike_id": "0b4b5cde5ff5bc408f643121fd024e9e", "type": "electric_scooter", "is_disabled": 0, "lat": 38.925616833333336, "rental_uris": {"ios": "https://dc.lft.to/lastmile_qr_scan", "android": "https://dc.lft.to/lastmile_qr_scan"}, "is_reserved": 0, "fusion_lon": 0.0, "fusion_lat": 0.0, "lon": -77.02278116666666, "name": "0b4b5cde5ff5bc408f643121fd024e9e"}, {"bike_id": "c6598f8be279eb895633b98cb510e4fe", "type": "electric_scooter", "is_disabled": 0, "lat": 38.91689733333333, "rental_uris": {"ios": "https://dc.lft.to/lastmile_qr_scan", "android": "https://dc.lft.to/lastmile_qr_scan"}, "is_reserved": 0, "fusion_lon": 0.0, "fusion_lat": 0.0, "lon": -77.02884033333333, "name": "c6598f8be279eb895633b98cb510e4fe"}, {"bike_id": "2938b1ac2068eba088559c6a34ebd49f", "type": "electric_scooter", "is_disabled": 0, "lat": 38.87945916666666, "rental_uris": {"ios": "https://dc.lft.to/lastmile_qr_scan", "android": "https://dc.lft.to/lastmile_qr_scan"}, "is_reserved": 0, "fusion_lon": 0.0, "fusion_lat": 0.0, "lon": -77.003864, "name": "2938b1ac2068eba088559c6a34ebd49f"}, {"bike_id": "425dee86e5998c3d3d580dfdc129e3bb", "type": "electric_scooter", "is_disabled": 0, "lat": 38.90611233333333, "rental_uris": {"ios": "https://dc.lft.to/lastmile_qr_scan", "android": "https://dc.lft.to/lastmile_qr_scan"}, "is_reserved": 0, "fusion_lon": 0.0, "fusion_lat": 0.0, "lon": -77.041743, "name": "425dee86e5998c3d3d580dfdc129e3bb"}, {"bike_id": "66eaa6fdd4fbcbea8e4a3e7b018a52fc", "type": "electric_scooter", "is_disabled": 0, "lat": 38.91289483333333, "rental_uris": {"ios": "https://dc.lft.to/lastmile_qr_scan", "android": "https://dc.lft.to/lastmile_qr_scan"}, "is_reserved": 0, "fusion_lon": 0.0, "fusion_lat": 0.0, "lon": -77.01979166666666, "name": "66eaa6fdd4fbcbea8e4a3e7b018a52fc"}, {"bike_id": "1bc37a0e398ec06ead6f4daea87203da", "type": "electric_scooter", "is_disabled": 0, "lat": 38.90809466666666, "rental_uris": {"ios": "https://dc.lft.to/lastmile_qr_scan", "android": "https://dc.lft.to/lastmile_qr_scan"}, "is_reserved": 0, "fusion_lon": 0.0, "fusion_lat": 0.0, "lon": -77.02034783333333, "name": "1bc37a0e398ec06ead6f4daea87203da"}, {"bike_id": "6d2662dcd11d864eadce9092318555f9", "type": "electric_bike", "is_disabled": 0, "lat": 38.908232166666664, "rental_uris": {"ios": "https://dc.lft.to/lastmile_qr_scan", "android": "https://dc.lft.to/lastmile_qr_scan"}, "is_reserved": 0, "fusion_lon": 0.0, "fusion_lat": 0.0, "lon": -76.94159733333333, "name": "6d2662dcd11d864eadce9092318555f9"}, {"bike_id": "5a0c668a285a46636e9f14fff41b5070", "type": "electric_scooter", "is_disabled": 0, "lat": 38.91697283333333, "rental_uris": {"ios": "https://dc.lft.to/lastmile_qr_scan", "android": "https://dc.lft.to/lastmile_qr_scan"}, "is_reserved": 0, "fusion_lon": 0.0, "fusion_lat": 0.0, "lon": -77.01073266666667, "name": "5a0c668a285a46636e9f14fff41b5070"}, {"bike_id": "6ab2bee83055fe7cb4fee5ac8be3f0cc", "type": "electric_scooter", "is_disabled": 0, "lat": 38.93288733333333, "rental_uris": {"ios": "https://dc.lft.to/lastmile_qr_scan", "android": "https://dc.lft.to/lastmile_qr_scan"}, "is_reserved": 0, "fusion_lon": 0.0, "fusion_lat": 0.0, "lon": -77.04036083333334, "name": "6ab2bee83055fe7cb4fee5ac8be3f0cc"}, {"bike_id": "6f66528762f478f17101d87ed8e2b036", "type": "electric_scooter", "is_disabled": 0, "lat": 38.921267666666665, "rental_uris": {"ios": "https://dc.lft.to/lastmile_qr_scan", "android": "https://dc.lft.to/lastmile_qr_scan"}, "is_reserved": 0, "fusion_lon": 0.0, "fusion_lat": 0.0, "lon": -77.01806116666667, "name": "6f66528762f478f17101d87ed8e2b036"}, {"bike_id": "805fdd964c6175dbc85188a49e3bb1bc", "type": "electric_scooter", "is_disabled": 0, "lat": 38.906817833333335, "rental_uris": {"ios": "https://dc.lft.to/lastmile_qr_scan", "android": "https://dc.lft.to/lastmile_qr_scan"}, "is_reserved": 0, "fusion_lon": 0.0, "fusion_lat": 0.0, "lon": -77.05333066666667, "name": "805fdd964c6175dbc85188a49e3bb1bc"}, {"bike_id": "e2c327a05710b96b360cf006681926c4", "type": "electric_scooter", "is_disabled": 0, "lat": 38.88838783333333, "rental_uris": {"ios": "https://dc.lft.to/lastmile_qr_scan", "android": "https://dc.lft.to/lastmile_qr_scan"}, "is_reserved": 0, "fusion_lon": 0.0, "fusion_lat": 0.0, "lon": -76.98918883333333, "name": "e2c327a05710b96b360cf006681926c4"}, {"bike_id": "fb69bbe891f033aded3c207a5933593e", "type": "electric_bike", "is_disabled": 0, "lat": 38.876978, "rental_uris": {"ios": "https://dc.lft.to/lastmile_qr_scan", "android": "https://dc.lft.to/lastmile_qr_scan"}, "is_reserved": 0, "fusion_lon": 0.0, "fusion_lat": 0.0, "lon": -77.10964666666666, "name": "fb69bbe891f033aded3c207a5933593e"}, {"bike_id": "cb1a3567d5d11aa30db1b8c986592e51", "type": "electric_scooter", "is_disabled": 0, "lat": 38.89484916666667, "rental_uris": {"ios": "https://dc.lft.to/lastmile_qr_scan", "android": "https://dc.lft.to/lastmile_qr_scan"}, "is_reserved": 0, "fusion_lon": 0.0, "fusion_lat": 0.0, "lon": -77.011131, "name": "cb1a3567d5d11aa30db1b8c986592e51"}, {"bike_id": "dafcfd8b05ca0f68c61a42a28d423d67", "type": "electric_bike", "is_disabled": 0, "lat": 38.9930355, "rental_uris": {"ios": "https://dc.lft.to/lastmile_qr_scan", "android": "https://dc.lft.to/lastmile_qr_scan"}, "is_reserved": 0, "fusion_lon": 0.0, "fusion_lat": 0.0, "lon": -77.025143, "name": "dafcfd8b05ca0f68c61a42a28d423d67"}, {"bike_id": "595b0156000691255c6cd01e86b6472b", "type": "electric_scooter", "is_disabled": 0, "lat": 38.862457666666664, "rental_uris": {"ios": "https://dc.lft.to/lastmile_qr_scan", "android": "https://dc.lft.to/lastmile_qr_scan"}, "is_reserved": 0, "fusion_lon": 0.0, "fusion_lat": 0.0, "lon": -76.99502116666666, "name": "595b0156000691255c6cd01e86b6472b"}, {"bike_id": "8c405eb723af701efdff011d6ee22f7a", "type": "electric_scooter", "is_disabled": 0, "lat": 38.92315983333334, "rental_uris": {"ios": "https://dc.lft.to/lastmile_qr_scan", "android": "https://dc.lft.to/lastmile_qr_scan"}, "is_reserved": 0, "fusion_lon": 0.0, "fusion_lat": 0.0, "lon": -77.03909966666667, "name": "8c405eb723af701efdff011d6ee22f7a"}, {"bike_id": "6064ed10ab8a160a75491ef5962d7ef7", "type": "electric_scooter", "is_disabled": 0, "lat": 38.87648216666667, "rental_uris": {"ios": "https://dc.lft.to/lastmile_qr_scan", "android": "https://dc.lft.to/lastmile_qr_scan"}, "is_reserved": 0, "fusion_lon": 0.0, "fusion_lat": 0.0, "lon": -77.00750166666667, "name": "6064ed10ab8a160a75491ef5962d7ef7"}, {"bike_id": "a0be6ae32265aca98b65748020b004bc", "type": "electric_scooter", "is_disabled": 0, "lat": 38.902467666666666, "rental_uris": {"ios": "https://dc.lft.to/lastmile_qr_scan", "android": "https://dc.lft.to/lastmile_qr_scan"}, "is_reserved": 0, "fusion_lon": 0.0, "fusion_lat": 0.0, "lon": -77.04138533333334, "name": "a0be6ae32265aca98b65748020b004bc"}, {"bike_id": "e177980cb87d4a2e160771707342e30a", "type": "electric_scooter", "is_disabled": 0, "lat": 38.91550066666667, "rental_uris": {"ios": "https://dc.lft.to/lastmile_qr_scan", "android": "https://dc.lft.to/lastmile_qr_scan"}, "is_reserved": 0, "fusion_lon": 0.0, "fusion_lat": 0.0, "lon": -77.03172533333333, "name": "e177980cb87d4a2e160771707342e30a"}, {"bike_id": "9db6e2410d0db65538d461b052dcc439", "type": "electric_scooter", "is_disabled": 0, "lat": 38.9500255, "rental_uris": {"ios": "https://dc.lft.to/lastmile_qr_scan", "android": "https://dc.lft.to/lastmile_qr_scan"}, "is_reserved": 0, "fusion_lon": 0.0, "fusion_lat": 0.0, "lon": -77.01559783333333, "name": "9db6e2410d0db65538d461b052dcc439"}, {"bike_id": "a84af39ce258f5cee28be9ecc10cec23", "type": "electric_scooter", "is_disabled": 0, "lat": 38.87175583333333, "rental_uris": {"ios": "https://dc.lft.to/lastmile_qr_scan", "android": "https://dc.lft.to/lastmile_qr_scan"}, "is_reserved": 0, "fusion_lon": 0.0, "fusion_lat": 0.0, "lon": -77.00617533333333, "name": "a84af39ce258f5cee28be9ecc10cec23"}, {"bike_id": "865e1e40436f58f9a311c53beb75fe69", "type": "electric_scooter", "is_disabled": 0, "lat": 38.95655566666667, "rental_uris": {"ios": "https://dc.lft.to/lastmile_qr_scan", "android": "https://dc.lft.to/lastmile_qr_scan"}, "is_reserved": 0, "fusion_lon": 0.0, "fusion_lat": 0.0, "lon": -77.024037, "name": "865e1e40436f58f9a311c53beb75fe69"}, {"bike_id": "c8a58ad91e846ee0d618b9c7e49c6b7f", "type": "electric_scooter", "is_disabled": 0, "lat": 38.903895166666665, "rental_uris": {"ios": "https://dc.lft.to/lastmile_qr_scan", "android": "https://dc.lft.to/lastmile_qr_scan"}, "is_reserved": 0, "fusion_lon": 0.0, "fusion_lat": 0.0, "lon": -77.01794516666666, "name": "c8a58ad91e846ee0d618b9c7e49c6b7f"}, {"bike_id": "24ca3c49719d8811fc70af111634336c", "type": "electric_scooter", "is_disabled": 0, "lat": 38.890032166666664, "rental_uris": {"ios": "https://dc.lft.to/lastmile_qr_scan", "android": "https://dc.lft.to/lastmile_qr_scan"}, "is_reserved": 0, "fusion_lon": 0.0, "fusion_lat": 0.0, "lon": -76.9375105, "name": "24ca3c49719d8811fc70af111634336c"}, {"bike_id": "5ec0fccf959b1ef20c6997c516c45dc4", "type": "electric_scooter", "is_disabled": 0, "lat": 38.911812, "rental_uris": {"ios": "https://dc.lft.to/lastmile_qr_scan", "android": "https://dc.lft.to/lastmile_qr_scan"}, "is_reserved": 0, "fusion_lon": 0.0, "fusion_lat": 0.0, "lon": -77.010082, "name": "5ec0fccf959b1ef20c6997c516c45dc4"}, {"bike_id": "21b58582c4b6f476f01da5f6b6e1a0cb", "type": "electric_scooter", "is_disabled": 0, "lat": 38.928623333333334, "rental_uris": {"ios": "https://dc.lft.to/lastmile_qr_scan", "android": "https://dc.lft.to/lastmile_qr_scan"}, "is_reserved": 0, "fusion_lon": 0.0, "fusion_lat": 0.0, "lon": -77.02177783333333, "name": "21b58582c4b6f476f01da5f6b6e1a0cb"}, {"bike_id": "4136c989bf686d4744d44f5b942bab14", "type": "electric_bike", "is_disabled": 0, "lat": 38.904357, "rental_uris": {"ios": "https://dc.lft.to/lastmile_qr_scan", "android": "https://dc.lft.to/lastmile_qr_scan"}, "is_reserved": 0, "fusion_lon": 0.0, "fusion_lat": 0.0, "lon": -77.066001, "name": "4136c989bf686d4744d44f5b942bab14"}, {"bike_id": "3c56d4adf8a8273ce0a9d16c40f14e69", "type": "electric_scooter", "is_disabled": 0, "lat": 38.952202166666666, "rental_uris": {"ios": "https://dc.lft.to/lastmile_qr_scan", "android": "https://dc.lft.to/lastmile_qr_scan"}, "is_reserved": 0, "fusion_lon": 0.0, "fusion_lat": 0.0, "lon": -77.07070233333333, "name": "3c56d4adf8a8273ce0a9d16c40f14e69"}, {"bike_id": "58788be9393312a10f1ea1526ec7a4ef", "type": "electric_scooter", "is_disabled": 0, "lat": 38.9206185, "rental_uris": {"ios": "https://dc.lft.to/lastmile_qr_scan", "android": "https://dc.lft.to/lastmile_qr_scan"}, "is_reserved": 0, "fusion_lon": 0.0, "fusion_lat": 0.0, "lon": -77.0045195, "name": "58788be9393312a10f1ea1526ec7a4ef"}, {"bike_id": "95ec6563240f9c4524c27c8d696bcbae", "type": "electric_bike", "is_disabled": 0, "lat": 38.85434383333333, "rental_uris": {"ios": "https://dc.lft.to/lastmile_qr_scan", "android": "https://dc.lft.to/lastmile_qr_scan"}, "is_reserved": 0, "fusion_lon": 0.0, "fusion_lat": 0.0, "lon": -77.083115, "name": "95ec6563240f9c4524c27c8d696bcbae"}, {"bike_id": "5317061e814f1dd9f162593fe25c979c", "type": "electric_scooter", "is_disabled": 0, "lat": 38.919488, "rental_uris": {"ios": "https://dc.lft.to/lastmile_qr_scan", "android": "https://dc.lft.to/lastmile_qr_scan"}, "is_reserved": 0, "fusion_lon": 0.0, "fusion_lat": 0.0, "lon": -77.04887116666667, "name": "5317061e814f1dd9f162593fe25c979c"}, {"bike_id": "df546a695d6c17e7f278ffcb203d75a1", "type": "electric_scooter", "is_disabled": 0, "lat": 38.92368183333333, "rental_uris": {"ios": "https://dc.lft.to/lastmile_qr_scan", "android": "https://dc.lft.to/lastmile_qr_scan"}, "is_reserved": 0, "fusion_lon": 0.0, "fusion_lat": 0.0, "lon": -77.02948916666666, "name": "df546a695d6c17e7f278ffcb203d75a1"}, {"bike_id": "a6b96d988f5c8ab1011deb2fe13c7f6f", "type": "electric_scooter", "is_disabled": 0, "lat": 38.9297245, "rental_uris": {"ios": "https://dc.lft.to/lastmile_qr_scan", "android": "https://dc.lft.to/lastmile_qr_scan"}, "is_reserved": 0, "fusion_lon": 0.0, "fusion_lat": 0.0, "lon": -77.03770016666667, "name": "a6b96d988f5c8ab1011deb2fe13c7f6f"}, {"bike_id": "6f8f427c5843b9565a74ac7c0bf861f1", "type": "electric_scooter", "is_disabled": 0, "lat": 38.90960783333333, "rental_uris": {"ios": "https://dc.lft.to/lastmile_qr_scan", "android": "https://dc.lft.to/lastmile_qr_scan"}, "is_reserved": 0, "fusion_lon": 0.0, "fusion_lat": 0.0, "lon": -77.02222483333334, "name": "6f8f427c5843b9565a74ac7c0bf861f1"}, {"bike_id": "9e7c98d6001e2597f591e0c9ce9342c2", "type": "electric_scooter", "is_disabled": 0, "lat": 38.901792, "rental_uris": {"ios": "https://dc.lft.to/lastmile_qr_scan", "android": "https://dc.lft.to/lastmile_qr_scan"}, "is_reserved": 0, "fusion_lon": 0.0, "fusion_lat": 0.0, "lon": -77.03967316666666, "name": "9e7c98d6001e2597f591e0c9ce9342c2"}, {"bike_id": "1391466c9b9921dd1605912476f97c67", "type": "electric_scooter", "is_disabled": 0, "lat": 38.926706333333335, "rental_uris": {"ios": "https://dc.lft.to/lastmile_qr_scan", "android": "https://dc.lft.to/lastmile_qr_scan"}, "is_reserved": 0, "fusion_lon": 0.0, "fusion_lat": 0.0, "lon": -77.01512816666667, "name": "1391466c9b9921dd1605912476f97c67"}, {"bike_id": "fad17cda4cc833b3f54a8500184da392", "type": "electric_bike", "is_disabled": 0, "lat": 38.80900233333333, "rental_uris": {"ios": "https://dc.lft.to/lastmile_qr_scan", "android": "https://dc.lft.to/lastmile_qr_scan"}, "is_reserved": 0, "fusion_lon": 0.0, "fusion_lat": 0.0, "lon": -77.08664483333334, "name": "fad17cda4cc833b3f54a8500184da392"}, {"bike_id": "6d5c0e055e1042daa092687447d9290a", "type": "electric_scooter", "is_disabled": 0, "lat": 38.906793, "rental_uris": {"ios": "https://dc.lft.to/lastmile_qr_scan", "android": "https://dc.lft.to/lastmile_qr_scan"}, "is_reserved": 0, "fusion_lon": 0.0, "fusion_lat": 0.0, "lon": -77.0533705, "name": "6d5c0e055e1042daa092687447d9290a"}, {"bike_id": "a220189501fb0490f4e69eda8d74e88d", "type": "electric_bike", "is_disabled": 0, "lat": 38.91119066666667, "rental_uris": {"ios": "https://dc.lft.to/lastmile_qr_scan", "android": "https://dc.lft.to/lastmile_qr_scan"}, "is_reserved": 0, "fusion_lon": 0.0, "fusion_lat": 0.0, "lon": -77.03256433333334, "name": "a220189501fb0490f4e69eda8d74e88d"}, {"bike_id": "7f07a9d5b423bdae878b38f15fe96b1c", "type": "electric_scooter", "is_disabled": 0, "lat": 38.92072983333333, "rental_uris": {"ios": "https://dc.lft.to/lastmile_qr_scan", "android": "https://dc.lft.to/lastmile_qr_scan"}, "is_reserved": 0, "fusion_lon": 0.0, "fusion_lat": 0.0, "lon": -77.0253825, "name": "7f07a9d5b423bdae878b38f15fe96b1c"}, {"bike_id": "1acf2e219e328f01a474c795bce0d336", "type": "electric_scooter", "is_disabled": 0, "lat": 38.924210333333335, "rental_uris": {"ios": "https://dc.lft.to/lastmile_qr_scan", "android": "https://dc.lft.to/lastmile_qr_scan"}, "is_reserved": 0, "fusion_lon": 0.0, "fusion_lat": 0.0, "lon": -77.02968583333333, "name": "1acf2e219e328f01a474c795bce0d336"}, {"bike_id": "e267034b731c14641d9cb9e305b1d1d0", "type": "electric_scooter", "is_disabled": 0, "lat": 38.904998, "rental_uris": {"ios": "https://dc.lft.to/lastmile_qr_scan", "android": "https://dc.lft.to/lastmile_qr_scan"}, "is_reserved": 0, "fusion_lon": 0.0, "fusion_lat": 0.0, "lon": -77.0282275, "name": "e267034b731c14641d9cb9e305b1d1d0"}, {"bike_id": "b8f3fa9ed872fbbd41d9647a283f63ad", "type": "electric_scooter", "is_disabled": 0, "lat": 38.9167685, "rental_uris": {"ios": "https://dc.lft.to/lastmile_qr_scan", "android": "https://dc.lft.to/lastmile_qr_scan"}, "is_reserved": 0, "fusion_lon": 0.0, "fusion_lat": 0.0, "lon": -77.02976566666666, "name": "b8f3fa9ed872fbbd41d9647a283f63ad"}, {"bike_id": "b769cf49f63c0d0526d5191e4d1a94f2", "type": "electric_scooter", "is_disabled": 0, "lat": 38.90269266666667, "rental_uris": {"ios": "https://dc.lft.to/lastmile_qr_scan", "android": "https://dc.lft.to/lastmile_qr_scan"}, "is_reserved": 0, "fusion_lon": 0.0, "fusion_lat": 0.0, "lon": -77.003505, "name": "b769cf49f63c0d0526d5191e4d1a94f2"}, {"bike_id": "f33a2aabe62313b6a98d5c91bb5ae733", "type": "electric_scooter", "is_disabled": 0, "lat": 38.898833, "rental_uris": {"ios": "https://dc.lft.to/lastmile_qr_scan", "android": "https://dc.lft.to/lastmile_qr_scan"}, "is_reserved": 0, "fusion_lon": 0.0, "fusion_lat": 0.0, "lon": -76.93178566666667, "name": "f33a2aabe62313b6a98d5c91bb5ae733"}, {"bike_id": "4bf8f5fbaaada8fe79aaa5c76103926b", "type": "electric_scooter", "is_disabled": 0, "lat": 38.908125166666665, "rental_uris": {"ios": "https://dc.lft.to/lastmile_qr_scan", "android": "https://dc.lft.to/lastmile_qr_scan"}, "is_reserved": 0, "fusion_lon": 0.0, "fusion_lat": 0.0, "lon": -77.06382533333333, "name": "4bf8f5fbaaada8fe79aaa5c76103926b"}, {"bike_id": "61bf1022dc077896afc1af56d45921ef", "type": "electric_scooter", "is_disabled": 0, "lat": 38.933694, "rental_uris": {"ios": "https://dc.lft.to/lastmile_qr_scan", "android": "https://dc.lft.to/lastmile_qr_scan"}, "is_reserved": 0, "fusion_lon": 0.0, "fusion_lat": 0.0, "lon": -77.05738116666667, "name": "61bf1022dc077896afc1af56d45921ef"}, {"bike_id": "e872b1f02343725eef6320e2f8fefd9a", "type": "electric_scooter", "is_disabled": 0, "lat": 38.925785166666664, "rental_uris": {"ios": "https://dc.lft.to/lastmile_qr_scan", "android": "https://dc.lft.to/lastmile_qr_scan"}, "is_reserved": 0, "fusion_lon": 0.0, "fusion_lat": 0.0, "lon": -77.030574, "name": "e872b1f02343725eef6320e2f8fefd9a"}, {"bike_id": "31ba56932db8b53dfdb8364c0c1dfc0d", "type": "electric_scooter", "is_disabled": 0, "lat": 38.89318816666667, "rental_uris": {"ios": "https://dc.lft.to/lastmile_qr_scan", "android": "https://dc.lft.to/lastmile_qr_scan"}, "is_reserved": 0, "fusion_lon": 0.0, "fusion_lat": 0.0, "lon": -77.0487755, "name": "31ba56932db8b53dfdb8364c0c1dfc0d"}, {"bike_id": "2088a4a560e2d1a1084ad6b48f675576", "type": "electric_scooter", "is_disabled": 0, "lat": 38.908706, "rental_uris": {"ios": "https://dc.lft.to/lastmile_qr_scan", "android": "https://dc.lft.to/lastmile_qr_scan"}, "is_reserved": 0, "fusion_lon": 0.0, "fusion_lat": 0.0, "lon": -77.03190316666667, "name": "2088a4a560e2d1a1084ad6b48f675576"}, {"bike_id": "717e7345c243a7ed07ba04ce7a101724", "type": "electric_scooter", "is_disabled": 0, "lat": 38.895278833333336, "rental_uris": {"ios": "https://dc.lft.to/lastmile_qr_scan", "android": "https://dc.lft.to/lastmile_qr_scan"}, "is_reserved": 0, "fusion_lon": 0.0, "fusion_lat": 0.0, "lon": -76.94888716666667, "name": "717e7345c243a7ed07ba04ce7a101724"}, {"bike_id": "5ebf4979e580b07da24314964cd227b7", "type": "electric_scooter", "is_disabled": 0, "lat": 38.951483, "rental_uris": {"ios": "https://dc.lft.to/lastmile_qr_scan", "android": "https://dc.lft.to/lastmile_qr_scan"}, "is_reserved": 0, "fusion_lon": 0.0, "fusion_lat": 0.0, "lon": -77.01870333333333, "name": "5ebf4979e580b07da24314964cd227b7"}, {"bike_id": "e77f5b20a5540c302f73bf94d4fdad58", "type": "electric_scooter", "is_disabled": 0, "lat": 38.8935475, "rental_uris": {"ios": "https://dc.lft.to/lastmile_qr_scan", "android": "https://dc.lft.to/lastmile_qr_scan"}, "is_reserved": 0, "fusion_lon": 0.0, "fusion_lat": 0.0, "lon": -76.99792316666667, "name": "e77f5b20a5540c302f73bf94d4fdad58"}, {"bike_id": "7dfe98c6a161823f664a62c7bb36a907", "type": "electric_scooter", "is_disabled": 0, "lat": 38.89894233333333, "rental_uris": {"ios": "https://dc.lft.to/lastmile_qr_scan", "android": "https://dc.lft.to/lastmile_qr_scan"}, "is_reserved": 0, "fusion_lon": 0.0, "fusion_lat": 0.0, "lon": -77.01513066666666, "name": "7dfe98c6a161823f664a62c7bb36a907"}, {"bike_id": "21260df51dfbcbb3b45f6ae52ae0d67e", "type": "electric_scooter", "is_disabled": 0, "lat": 38.890102166666665, "rental_uris": {"ios": "https://dc.lft.to/lastmile_qr_scan", "android": "https://dc.lft.to/lastmile_qr_scan"}, "is_reserved": 0, "fusion_lon": 0.0, "fusion_lat": 0.0, "lon": -76.93755983333334, "name": "21260df51dfbcbb3b45f6ae52ae0d67e"}, {"bike_id": "a66b15b6a31e57988fced109257e3ddb", "type": "electric_scooter", "is_disabled": 0, "lat": 38.900239666666664, "rental_uris": {"ios": "https://dc.lft.to/lastmile_qr_scan", "android": "https://dc.lft.to/lastmile_qr_scan"}, "is_reserved": 0, "fusion_lon": 0.0, "fusion_lat": 0.0, "lon": -76.99065483333334, "name": "a66b15b6a31e57988fced109257e3ddb"}, {"bike_id": "fccae7869d2ee9543553e6d780951a69", "type": "electric_scooter", "is_disabled": 0, "lat": 38.9089305, "rental_uris": {"ios": "https://dc.lft.to/lastmile_qr_scan", "android": "https://dc.lft.to/lastmile_qr_scan"}, "is_reserved": 0, "fusion_lon": 0.0, "fusion_lat": 0.0, "lon": -77.0320685, "name": "fccae7869d2ee9543553e6d780951a69"}, {"bike_id": "f7c293b2f4bc3c98769a3c5f57bb6c43", "type": "electric_scooter", "is_disabled": 0, "lat": 38.91725183333333, "rental_uris": {"ios": "https://dc.lft.to/lastmile_qr_scan", "android": "https://dc.lft.to/lastmile_qr_scan"}, "is_reserved": 0, "fusion_lon": 0.0, "fusion_lat": 0.0, "lon": -77.01918133333334, "name": "f7c293b2f4bc3c98769a3c5f57bb6c43"}, {"bike_id": "471e65fbaf6942524d2a64d0a6b90a5c", "type": "electric_scooter", "is_disabled": 0, "lat": 38.922554, "rental_uris": {"ios": "https://dc.lft.to/lastmile_qr_scan", "android": "https://dc.lft.to/lastmile_qr_scan"}, "is_reserved": 0, "fusion_lon": 0.0, "fusion_lat": 0.0, "lon": -77.0426595, "name": "471e65fbaf6942524d2a64d0a6b90a5c"}, {"bike_id": "913d7721f2d32a5fcf68885bfa12978f", "type": "electric_scooter", "is_disabled": 0, "lat": 38.91919466666667, "rental_uris": {"ios": "https://dc.lft.to/lastmile_qr_scan", "android": "https://dc.lft.to/lastmile_qr_scan"}, "is_reserved": 0, "fusion_lon": 0.0, "fusion_lat": 0.0, "lon": -77.04161633333334, "name": "913d7721f2d32a5fcf68885bfa12978f"}, {"bike_id": "c2b22b8b0b06f195593104bcc0b78f8e", "type": "electric_scooter", "is_disabled": 0, "lat": 38.9359515, "rental_uris": {"ios": "https://dc.lft.to/lastmile_qr_scan", "android": "https://dc.lft.to/lastmile_qr_scan"}, "is_reserved": 0, "fusion_lon": 0.0, "fusion_lat": 0.0, "lon": -77.03661866666667, "name": "c2b22b8b0b06f195593104bcc0b78f8e"}, {"bike_id": "1732db37b3bdd2079429856adb336208", "type": "electric_bike", "is_disabled": 0, "lat": 38.85538583333334, "rental_uris": {"ios": "https://dc.lft.to/lastmile_qr_scan", "android": "https://dc.lft.to/lastmile_qr_scan"}, "is_reserved": 0, "fusion_lon": 0.0, "fusion_lat": 0.0, "lon": -77.1203555, "name": "1732db37b3bdd2079429856adb336208"}, {"bike_id": "e72b73f6b538df8630430caf44344a94", "type": "electric_scooter", "is_disabled": 0, "lat": 38.913975, "rental_uris": {"ios": "https://dc.lft.to/lastmile_qr_scan", "android": "https://dc.lft.to/lastmile_qr_scan"}, "is_reserved": 0, "fusion_lon": 0.0, "fusion_lat": 0.0, "lon": -76.981899, "name": "e72b73f6b538df8630430caf44344a94"}, {"bike_id": "5b6592e170b398252996e64d0dc6fcc3", "type": "electric_scooter", "is_disabled": 0, "lat": 38.916772333333334, "rental_uris": {"ios": "https://dc.lft.to/lastmile_qr_scan", "android": "https://dc.lft.to/lastmile_qr_scan"}, "is_reserved": 0, "fusion_lon": 0.0, "fusion_lat": 0.0, "lon": -77.02977316666667, "name": "5b6592e170b398252996e64d0dc6fcc3"}, {"bike_id": "48093eca15fcd30d027492985ae81ccd", "type": "electric_scooter", "is_disabled": 0, "lat": 38.8669985, "rental_uris": {"ios": "https://dc.lft.to/lastmile_qr_scan", "android": "https://dc.lft.to/lastmile_qr_scan"}, "is_reserved": 0, "fusion_lon": 0.0, "fusion_lat": 0.0, "lon": -76.98717116666667, "name": "48093eca15fcd30d027492985ae81ccd"}, {"bike_id": "dace0a55ff858a00ad036b7fbd9025b7", "type": "electric_scooter", "is_disabled": 0, "lat": 38.913106666666664, "rental_uris": {"ios": "https://dc.lft.to/lastmile_qr_scan", "android": "https://dc.lft.to/lastmile_qr_scan"}, "is_reserved": 0, "fusion_lon": 0.0, "fusion_lat": 0.0, "lon": -77.0630525, "name": "dace0a55ff858a00ad036b7fbd9025b7"}, {"bike_id": "8937996bbfd68b8d5829740de4aed23e", "type": "electric_scooter", "is_disabled": 0, "lat": 38.89997183333333, "rental_uris": {"ios": "https://dc.lft.to/lastmile_qr_scan", "android": "https://dc.lft.to/lastmile_qr_scan"}, "is_reserved": 0, "fusion_lon": 0.0, "fusion_lat": 0.0, "lon": -77.04135383333333, "name": "8937996bbfd68b8d5829740de4aed23e"}, {"bike_id": "d078b5a9c0464b9653941d3263b7320a", "type": "electric_scooter", "is_disabled": 0, "lat": 38.93131833333333, "rental_uris": {"ios": "https://dc.lft.to/lastmile_qr_scan", "android": "https://dc.lft.to/lastmile_qr_scan"}, "is_reserved": 0, "fusion_lon": 0.0, "fusion_lat": 0.0, "lon": -76.99577283333333, "name": "d078b5a9c0464b9653941d3263b7320a"}, {"bike_id": "21a5b7a2dbb7723f72f3ea7376308723", "type": "electric_scooter", "is_disabled": 0, "lat": 38.944395, "rental_uris": {"ios": "https://dc.lft.to/lastmile_qr_scan", "android": "https://dc.lft.to/lastmile_qr_scan"}, "is_reserved": 0, "fusion_lon": 0.0, "fusion_lat": 0.0, "lon": -77.01455666666666, "name": "21a5b7a2dbb7723f72f3ea7376308723"}, {"bike_id": "d4f13d694a250a4aeff02a147c491442", "type": "electric_scooter", "is_disabled": 0, "lat": 38.8782625, "rental_uris": {"ios": "https://dc.lft.to/lastmile_qr_scan", "android": "https://dc.lft.to/lastmile_qr_scan"}, "is_reserved": 0, "fusion_lon": 0.0, "fusion_lat": 0.0, "lon": -76.96312183333333, "name": "d4f13d694a250a4aeff02a147c491442"}, {"bike_id": "ff64208e36d35bb1b3ba377cede456a3", "type": "electric_bike", "is_disabled": 0, "lat": 39.0527785, "rental_uris": {"ios": "https://dc.lft.to/lastmile_qr_scan", "android": "https://dc.lft.to/lastmile_qr_scan"}, "is_reserved": 0, "fusion_lon": 0.0, "fusion_lat": 0.0, "lon": -77.08069783333333, "name": "ff64208e36d35bb1b3ba377cede456a3"}, {"bike_id": "52040bb1df99e90eddec6b4b1045b43e", "type": "electric_scooter", "is_disabled": 0, "lat": 38.917050833333334, "rental_uris": {"ios": "https://dc.lft.to/lastmile_qr_scan", "android": "https://dc.lft.to/lastmile_qr_scan"}, "is_reserved": 0, "fusion_lon": 0.0, "fusion_lat": 0.0, "lon": -77.0065495, "name": "52040bb1df99e90eddec6b4b1045b43e"}, {"bike_id": "f512c468fa7770e54b0fd87978afa61f", "type": "electric_scooter", "is_disabled": 0, "lat": 38.912297833333334, "rental_uris": {"ios": "https://dc.lft.to/lastmile_qr_scan", "android": "https://dc.lft.to/lastmile_qr_scan"}, "is_reserved": 0, "fusion_lon": 0.0, "fusion_lat": 0.0, "lon": -77.01213816666667, "name": "f512c468fa7770e54b0fd87978afa61f"}, {"bike_id": "1eebafb7074c2847931b384adbdfb317", "type": "electric_scooter", "is_disabled": 0, "lat": 38.95623366666667, "rental_uris": {"ios": "https://dc.lft.to/lastmile_qr_scan", "android": "https://dc.lft.to/lastmile_qr_scan"}, "is_reserved": 0, "fusion_lon": 0.0, "fusion_lat": 0.0, "lon": -77.011444, "name": "1eebafb7074c2847931b384adbdfb317"}, {"bike_id": "a99a7155b777fd8d608af82f64944ab4", "type": "electric_scooter", "is_disabled": 0, "lat": 38.918267166666666, "rental_uris": {"ios": "https://dc.lft.to/lastmile_qr_scan", "android": "https://dc.lft.to/lastmile_qr_scan"}, "is_reserved": 0, "fusion_lon": 0.0, "fusion_lat": 0.0, "lon": -77.04942116666666, "name": "a99a7155b777fd8d608af82f64944ab4"}, {"bike_id": "4948b1f67537b8bd3979bdc8002815ba", "type": "electric_scooter", "is_disabled": 0, "lat": 38.93527383333333, "rental_uris": {"ios": "https://dc.lft.to/lastmile_qr_scan", "android": "https://dc.lft.to/lastmile_qr_scan"}, "is_reserved": 0, "fusion_lon": 0.0, "fusion_lat": 0.0, "lon": -77.023561, "name": "4948b1f67537b8bd3979bdc8002815ba"}, {"bike_id": "c3f7237bd20afd311e2d10554302700d", "type": "electric_scooter", "is_disabled": 0, "lat": 38.916553, "rental_uris": {"ios": "https://dc.lft.to/lastmile_qr_scan", "android": "https://dc.lft.to/lastmile_qr_scan"}, "is_reserved": 0, "fusion_lon": 0.0, "fusion_lat": 0.0, "lon": -77.02697366666666, "name": "c3f7237bd20afd311e2d10554302700d"}, {"bike_id": "8e659deb77167a5c33ea8d395f37b857", "type": "electric_scooter", "is_disabled": 0, "lat": 38.92077233333333, "rental_uris": {"ios": "https://dc.lft.to/lastmile_qr_scan", "android": "https://dc.lft.to/lastmile_qr_scan"}, "is_reserved": 0, "fusion_lon": 0.0, "fusion_lat": 0.0, "lon": -77.0230955, "name": "8e659deb77167a5c33ea8d395f37b857"}, {"bike_id": "fed73595bf1d56fe66fb299c7b3ed85d", "type": "electric_scooter", "is_disabled": 0, "lat": 38.90663683333333, "rental_uris": {"ios": "https://dc.lft.to/lastmile_qr_scan", "android": "https://dc.lft.to/lastmile_qr_scan"}, "is_reserved": 0, "fusion_lon": 0.0, "fusion_lat": 0.0, "lon": -77.02704466666667, "name": "fed73595bf1d56fe66fb299c7b3ed85d"}, {"bike_id": "52084a5d2dacff61c791b2bfe54a6d26", "type": "electric_scooter", "is_disabled": 0, "lat": 38.903312666666665, "rental_uris": {"ios": "https://dc.lft.to/lastmile_qr_scan", "android": "https://dc.lft.to/lastmile_qr_scan"}, "is_reserved": 0, "fusion_lon": 0.0, "fusion_lat": 0.0, "lon": -77.02880183333333, "name": "52084a5d2dacff61c791b2bfe54a6d26"}, {"bike_id": "2d9c188ceff512bfa721ded6892363cb", "type": "electric_scooter", "is_disabled": 0, "lat": 38.91873116666667, "rental_uris": {"ios": "https://dc.lft.to/lastmile_qr_scan", "android": "https://dc.lft.to/lastmile_qr_scan"}, "is_reserved": 0, "fusion_lon": 0.0, "fusion_lat": 0.0, "lon": -77.04201366666666, "name": "2d9c188ceff512bfa721ded6892363cb"}, {"bike_id": "0170d1866a439475c4848b7277dc6ba4", "type": "electric_scooter", "is_disabled": 0, "lat": 38.8841985, "rental_uris": {"ios": "https://dc.lft.to/lastmile_qr_scan", "android": "https://dc.lft.to/lastmile_qr_scan"}, "is_reserved": 0, "fusion_lon": 0.0, "fusion_lat": 0.0, "lon": -76.95744483333333, "name": "0170d1866a439475c4848b7277dc6ba4"}, {"bike_id": "1cb9185dffc58db4ee8e979dd51d92b7", "type": "electric_scooter", "is_disabled": 0, "lat": 38.91460816666667, "rental_uris": {"ios": "https://dc.lft.to/lastmile_qr_scan", "android": "https://dc.lft.to/lastmile_qr_scan"}, "is_reserved": 0, "fusion_lon": 0.0, "fusion_lat": 0.0, "lon": -77.03203566666667, "name": "1cb9185dffc58db4ee8e979dd51d92b7"}, {"bike_id": "9945ee008f44aba2d824d692c9046fc7", "type": "electric_scooter", "is_disabled": 0, "lat": 38.9071255, "rental_uris": {"ios": "https://dc.lft.to/lastmile_qr_scan", "android": "https://dc.lft.to/lastmile_qr_scan"}, "is_reserved": 0, "fusion_lon": 0.0, "fusion_lat": 0.0, "lon": -77.01471633333334, "name": "9945ee008f44aba2d824d692c9046fc7"}, {"bike_id": "68c7563ea3d2010bb51026389bcb8cb7", "type": "electric_scooter", "is_disabled": 0, "lat": 38.924797, "rental_uris": {"ios": "https://dc.lft.to/lastmile_qr_scan", "android": "https://dc.lft.to/lastmile_qr_scan"}, "is_reserved": 0, "fusion_lon": 0.0, "fusion_lat": 0.0, "lon": -77.05217866666666, "name": "68c7563ea3d2010bb51026389bcb8cb7"}, {"bike_id": "fc1b189076654aac5a59982748442d96", "type": "electric_scooter", "is_disabled": 0, "lat": 38.928211833333336, "rental_uris": {"ios": "https://dc.lft.to/lastmile_qr_scan", "android": "https://dc.lft.to/lastmile_qr_scan"}, "is_reserved": 0, "fusion_lon": 0.0, "fusion_lat": 0.0, "lon": -77.02258883333333, "name": "fc1b189076654aac5a59982748442d96"}, {"bike_id": "162d44505c9b05d47c646f14f412b906", "type": "electric_scooter", "is_disabled": 0, "lat": 38.92860866666667, "rental_uris": {"ios": "https://dc.lft.to/lastmile_qr_scan", "android": "https://dc.lft.to/lastmile_qr_scan"}, "is_reserved": 0, "fusion_lon": 0.0, "fusion_lat": 0.0, "lon": -77.05436833333333, "name": "162d44505c9b05d47c646f14f412b906"}, {"bike_id": "e1021d48344134a6be0ec8be2dfbab23", "type": "electric_scooter", "is_disabled": 0, "lat": 38.88637133333334, "rental_uris": {"ios": "https://dc.lft.to/lastmile_qr_scan", "android": "https://dc.lft.to/lastmile_qr_scan"}, "is_reserved": 0, "fusion_lon": 0.0, "fusion_lat": 0.0, "lon": -77.021425, "name": "e1021d48344134a6be0ec8be2dfbab23"}, {"bike_id": "7cc43bee2ba5900a0596a1d46bcac4c0", "type": "electric_scooter", "is_disabled": 0, "lat": 38.9050895, "rental_uris": {"ios": "https://dc.lft.to/lastmile_qr_scan", "android": "https://dc.lft.to/lastmile_qr_scan"}, "is_reserved": 0, "fusion_lon": 0.0, "fusion_lat": 0.0, "lon": -77.04163516666667, "name": "7cc43bee2ba5900a0596a1d46bcac4c0"}, {"bike_id": "1268279f79578bb9d3e6a42eb98c8470", "type": "electric_scooter", "is_disabled": 0, "lat": 38.911299666666665, "rental_uris": {"ios": "https://dc.lft.to/lastmile_qr_scan", "android": "https://dc.lft.to/lastmile_qr_scan"}, "is_reserved": 0, "fusion_lon": 0.0, "fusion_lat": 0.0, "lon": -77.0441755, "name": "1268279f79578bb9d3e6a42eb98c8470"}, {"bike_id": "a423f05948e01e7c99b8de9451203bc2", "type": "electric_scooter", "is_disabled": 0, "lat": 38.911841833333334, "rental_uris": {"ios": "https://dc.lft.to/lastmile_qr_scan", "android": "https://dc.lft.to/lastmile_qr_scan"}, "is_reserved": 0, "fusion_lon": 0.0, "fusion_lat": 0.0, "lon": -77.00223066666666, "name": "a423f05948e01e7c99b8de9451203bc2"}, {"bike_id": "1ac8c31461595177f57b53dd6d56d47a", "type": "electric_scooter", "is_disabled": 0, "lat": 38.86625033333333, "rental_uris": {"ios": "https://dc.lft.to/lastmile_qr_scan", "android": "https://dc.lft.to/lastmile_qr_scan"}, "is_reserved": 0, "fusion_lon": 0.0, "fusion_lat": 0.0, "lon": -76.987181, "name": "1ac8c31461595177f57b53dd6d56d47a"}, {"bike_id": "29271dad8498a1c3f108775a4c2e7ed7", "type": "electric_scooter", "is_disabled": 0, "lat": 38.90554983333333, "rental_uris": {"ios": "https://dc.lft.to/lastmile_qr_scan", "android": "https://dc.lft.to/lastmile_qr_scan"}, "is_reserved": 0, "fusion_lon": 0.0, "fusion_lat": 0.0, "lon": -77.01638983333333, "name": "29271dad8498a1c3f108775a4c2e7ed7"}, {"bike_id": "e4d0d667fe9f6aaed1d0d829140a8934", "type": "electric_scooter", "is_disabled": 0, "lat": 38.93358633333333, "rental_uris": {"ios": "https://dc.lft.to/lastmile_qr_scan", "android": "https://dc.lft.to/lastmile_qr_scan"}, "is_reserved": 0, "fusion_lon": 0.0, "fusion_lat": 0.0, "lon": -77.08859116666666, "name": "e4d0d667fe9f6aaed1d0d829140a8934"}, {"bike_id": "70ac7759792e767a0711f5fd8027dd98", "type": "electric_scooter", "is_disabled": 0, "lat": 38.93402483333333, "rental_uris": {"ios": "https://dc.lft.to/lastmile_qr_scan", "android": "https://dc.lft.to/lastmile_qr_scan"}, "is_reserved": 0, "fusion_lon": 0.0, "fusion_lat": 0.0, "lon": -77.03890766666666, "name": "70ac7759792e767a0711f5fd8027dd98"}, {"bike_id": "4baecebdec081b364df7f18f5fada93c", "type": "electric_scooter", "is_disabled": 0, "lat": 38.915811166666664, "rental_uris": {"ios": "https://dc.lft.to/lastmile_qr_scan", "android": "https://dc.lft.to/lastmile_qr_scan"}, "is_reserved": 0, "fusion_lon": 0.0, "fusion_lat": 0.0, "lon": -77.04498066666666, "name": "4baecebdec081b364df7f18f5fada93c"}, {"bike_id": "9742897698d154581e2988eccae44463", "type": "electric_scooter", "is_disabled": 0, "lat": 38.901861833333335, "rental_uris": {"ios": "https://dc.lft.to/lastmile_qr_scan", "android": "https://dc.lft.to/lastmile_qr_scan"}, "is_reserved": 0, "fusion_lon": 0.0, "fusion_lat": 0.0, "lon": -77.05060933333333, "name": "9742897698d154581e2988eccae44463"}, {"bike_id": "1f986541719148cc82c9dda1c4d095d8", "type": "electric_scooter", "is_disabled": 0, "lat": 38.9082515, "rental_uris": {"ios": "https://dc.lft.to/lastmile_qr_scan", "android": "https://dc.lft.to/lastmile_qr_scan"}, "is_reserved": 0, "fusion_lon": 0.0, "fusion_lat": 0.0, "lon": -77.01284416666667, "name": "1f986541719148cc82c9dda1c4d095d8"}, {"bike_id": "717fe2c3c1240aad50f26aea3e4b63da", "type": "electric_scooter", "is_disabled": 0, "lat": 38.8668185, "rental_uris": {"ios": "https://dc.lft.to/lastmile_qr_scan", "android": "https://dc.lft.to/lastmile_qr_scan"}, "is_reserved": 0, "fusion_lon": 0.0, "fusion_lat": 0.0, "lon": -76.98581266666666, "name": "717fe2c3c1240aad50f26aea3e4b63da"}, {"bike_id": "bc1e05bac5646cdc0118e81b2725647b", "type": "electric_scooter", "is_disabled": 0, "lat": 38.918102, "rental_uris": {"ios": "https://dc.lft.to/lastmile_qr_scan", "android": "https://dc.lft.to/lastmile_qr_scan"}, "is_reserved": 0, "fusion_lon": 0.0, "fusion_lat": 0.0, "lon": -77.02481183333333, "name": "bc1e05bac5646cdc0118e81b2725647b"}, {"bike_id": "f9b3aa411860bac3aadf734464ddc23e", "type": "electric_scooter", "is_disabled": 0, "lat": 38.909548, "rental_uris": {"ios": "https://dc.lft.to/lastmile_qr_scan", "android": "https://dc.lft.to/lastmile_qr_scan"}, "is_reserved": 0, "fusion_lon": 0.0, "fusion_lat": 0.0, "lon": -77.02313666666667, "name": "f9b3aa411860bac3aadf734464ddc23e"}, {"bike_id": "850dc26a111a0c0caf444ac1671cb9fc", "type": "electric_scooter", "is_disabled": 0, "lat": 38.8990555, "rental_uris": {"ios": "https://dc.lft.to/lastmile_qr_scan", "android": "https://dc.lft.to/lastmile_qr_scan"}, "is_reserved": 0, "fusion_lon": 0.0, "fusion_lat": 0.0, "lon": -76.98178083333333, "name": "850dc26a111a0c0caf444ac1671cb9fc"}, {"bike_id": "f6ce20ffe29b5a6adffcdd6ae394f49b", "type": "electric_scooter", "is_disabled": 0, "lat": 38.91408283333333, "rental_uris": {"ios": "https://dc.lft.to/lastmile_qr_scan", "android": "https://dc.lft.to/lastmile_qr_scan"}, "is_reserved": 0, "fusion_lon": 0.0, "fusion_lat": 0.0, "lon": -77.01369266666667, "name": "f6ce20ffe29b5a6adffcdd6ae394f49b"}, {"bike_id": "6b83d0fc7b4b8f99a95d98ca5ec78e95", "type": "electric_scooter", "is_disabled": 0, "lat": 38.91909016666666, "rental_uris": {"ios": "https://dc.lft.to/lastmile_qr_scan", "android": "https://dc.lft.to/lastmile_qr_scan"}, "is_reserved": 0, "fusion_lon": 0.0, "fusion_lat": 0.0, "lon": -77.032199, "name": "6b83d0fc7b4b8f99a95d98ca5ec78e95"}, {"bike_id": "b865123f9d5fcff64de612a8a8cabf34", "type": "electric_scooter", "is_disabled": 0, "lat": 38.9119015, "rental_uris": {"ios": "https://dc.lft.to/lastmile_qr_scan", "android": "https://dc.lft.to/lastmile_qr_scan"}, "is_reserved": 0, "fusion_lon": 0.0, "fusion_lat": 0.0, "lon": -77.04546883333333, "name": "b865123f9d5fcff64de612a8a8cabf34"}, {"bike_id": "d9e6015c025b844279a6a948a15bff84", "type": "electric_scooter", "is_disabled": 0, "lat": 38.86685633333333, "rental_uris": {"ios": "https://dc.lft.to/lastmile_qr_scan", "android": "https://dc.lft.to/lastmile_qr_scan"}, "is_reserved": 0, "fusion_lon": 0.0, "fusion_lat": 0.0, "lon": -76.9857745, "name": "d9e6015c025b844279a6a948a15bff84"}, {"bike_id": "e5ea977ec61515d409170ede5ac087a7", "type": "electric_scooter", "is_disabled": 0, "lat": 38.9337165, "rental_uris": {"ios": "https://dc.lft.to/lastmile_qr_scan", "android": "https://dc.lft.to/lastmile_qr_scan"}, "is_reserved": 0, "fusion_lon": 0.0, "fusion_lat": 0.0, "lon": -77.05734566666666, "name": "e5ea977ec61515d409170ede5ac087a7"}, {"bike_id": "63d62bef592d5f7e257bdfe2617876ed", "type": "electric_scooter", "is_disabled": 0, "lat": 38.912456666666664, "rental_uris": {"ios": "https://dc.lft.to/lastmile_qr_scan", "android": "https://dc.lft.to/lastmile_qr_scan"}, "is_reserved": 0, "fusion_lon": 0.0, "fusion_lat": 0.0, "lon": -77.04794733333334, "name": "63d62bef592d5f7e257bdfe2617876ed"}, {"bike_id": "4e3b99c9ade19f0ddafde8089a9e0ff4", "type": "electric_scooter", "is_disabled": 0, "lat": 38.9440875, "rental_uris": {"ios": "https://dc.lft.to/lastmile_qr_scan", "android": "https://dc.lft.to/lastmile_qr_scan"}, "is_reserved": 0, "fusion_lon": 0.0, "fusion_lat": 0.0, "lon": -77.063264, "name": "4e3b99c9ade19f0ddafde8089a9e0ff4"}, {"bike_id": "ee947001ec28cfaa0bd98ae1ab3bce65", "type": "electric_scooter", "is_disabled": 0, "lat": 38.905060166666665, "rental_uris": {"ios": "https://dc.lft.to/lastmile_qr_scan", "android": "https://dc.lft.to/lastmile_qr_scan"}, "is_reserved": 0, "fusion_lon": 0.0, "fusion_lat": 0.0, "lon": -77.06388283333334, "name": "ee947001ec28cfaa0bd98ae1ab3bce65"}, {"bike_id": "fd77e137190903e7d951e203dc0f7e01", "type": "electric_scooter", "is_disabled": 0, "lat": 38.9124675, "rental_uris": {"ios": "https://dc.lft.to/lastmile_qr_scan", "android": "https://dc.lft.to/lastmile_qr_scan"}, "is_reserved": 0, "fusion_lon": 0.0, "fusion_lat": 0.0, "lon": -77.00120783333334, "name": "fd77e137190903e7d951e203dc0f7e01"}, {"bike_id": "03c77df3b9d875cc8d42d579b574c3b2", "type": "electric_scooter", "is_disabled": 0, "lat": 38.9055975, "rental_uris": {"ios": "https://dc.lft.to/lastmile_qr_scan", "android": "https://dc.lft.to/lastmile_qr_scan"}, "is_reserved": 0, "fusion_lon": 0.0, "fusion_lat": 0.0, "lon": -77.04556183333334, "name": "03c77df3b9d875cc8d42d579b574c3b2"}, {"bike_id": "b7e1517f347470885eb94dc08d8091bc", "type": "electric_scooter", "is_disabled": 0, "lat": 38.92915583333333, "rental_uris": {"ios": "https://dc.lft.to/lastmile_qr_scan", "android": "https://dc.lft.to/lastmile_qr_scan"}, "is_reserved": 0, "fusion_lon": 0.0, "fusion_lat": 0.0, "lon": -77.020939, "name": "b7e1517f347470885eb94dc08d8091bc"}, {"bike_id": "2b88811cafaa7dea81992ceac9083f9c", "type": "electric_scooter", "is_disabled": 0, "lat": 38.89882033333333, "rental_uris": {"ios": "https://dc.lft.to/lastmile_qr_scan", "android": "https://dc.lft.to/lastmile_qr_scan"}, "is_reserved": 0, "fusion_lon": 0.0, "fusion_lat": 0.0, "lon": -76.93178616666667, "name": "2b88811cafaa7dea81992ceac9083f9c"}, {"bike_id": "4b6e7da0b970612cebbdadf031462098", "type": "electric_bike", "is_disabled": 0, "lat": 38.9057815, "rental_uris": {"ios": "https://dc.lft.to/lastmile_qr_scan", "android": "https://dc.lft.to/lastmile_qr_scan"}, "is_reserved": 0, "fusion_lon": 0.0, "fusion_lat": 0.0, "lon": -77.06527033333333, "name": "4b6e7da0b970612cebbdadf031462098"}, {"bike_id": "f05ea03fc6fbaafa57a47b0e57bf9acb", "type": "electric_scooter", "is_disabled": 0, "lat": 38.92039, "rental_uris": {"ios": "https://dc.lft.to/lastmile_qr_scan", "android": "https://dc.lft.to/lastmile_qr_scan"}, "is_reserved": 0, "fusion_lon": 0.0, "fusion_lat": 0.0, "lon": -77.02191966666666, "name": "f05ea03fc6fbaafa57a47b0e57bf9acb"}, {"bike_id": "d9867aafc92984b68212828fd237f48c", "type": "electric_scooter", "is_disabled": 0, "lat": 38.9124895, "rental_uris": {"ios": "https://dc.lft.to/lastmile_qr_scan", "android": "https://dc.lft.to/lastmile_qr_scan"}, "is_reserved": 0, "fusion_lon": 0.0, "fusion_lat": 0.0, "lon": -77.03207833333333, "name": "d9867aafc92984b68212828fd237f48c"}, {"bike_id": "aa9bb6267cdd2b04ad93614cf2035f6d", "type": "electric_scooter", "is_disabled": 0, "lat": 38.892617, "rental_uris": {"ios": "https://dc.lft.to/lastmile_qr_scan", "android": "https://dc.lft.to/lastmile_qr_scan"}, "is_reserved": 0, "fusion_lon": 0.0, "fusion_lat": 0.0, "lon": -77.02406466666666, "name": "aa9bb6267cdd2b04ad93614cf2035f6d"}, {"bike_id": "a859df006130f392c2bbd29a79216eae", "type": "electric_bike", "is_disabled": 0, "lat": 38.924533, "rental_uris": {"ios": "https://dc.lft.to/lastmile_qr_scan", "android": "https://dc.lft.to/lastmile_qr_scan"}, "is_reserved": 0, "fusion_lon": 0.0, "fusion_lat": 0.0, "lon": -77.22553816666667, "name": "a859df006130f392c2bbd29a79216eae"}, {"bike_id": "a38888e7c1c3d7200eec295e64286026", "type": "electric_scooter", "is_disabled": 0, "lat": 38.906442166666665, "rental_uris": {"ios": "https://dc.lft.to/lastmile_qr_scan", "android": "https://dc.lft.to/lastmile_qr_scan"}, "is_reserved": 0, "fusion_lon": 0.0, "fusion_lat": 0.0, "lon": -77.01023533333333, "name": "a38888e7c1c3d7200eec295e64286026"}, {"bike_id": "5082b60c8d3f1bf9ed3a1bb938a7aaa2", "type": "electric_scooter", "is_disabled": 0, "lat": 38.91113633333333, "rental_uris": {"ios": "https://dc.lft.to/lastmile_qr_scan", "android": "https://dc.lft.to/lastmile_qr_scan"}, "is_reserved": 0, "fusion_lon": 0.0, "fusion_lat": 0.0, "lon": -77.03923533333334, "name": "5082b60c8d3f1bf9ed3a1bb938a7aaa2"}, {"bike_id": "4c1d2c771e31d992c0bf4b55a1a3bfb4", "type": "electric_scooter", "is_disabled": 0, "lat": 38.93525133333333, "rental_uris": {"ios": "https://dc.lft.to/lastmile_qr_scan", "android": "https://dc.lft.to/lastmile_qr_scan"}, "is_reserved": 0, "fusion_lon": 0.0, "fusion_lat": 0.0, "lon": -77.02966816666667, "name": "4c1d2c771e31d992c0bf4b55a1a3bfb4"}, {"bike_id": "f082b13595f4a0e618009cff84e9deea", "type": "electric_scooter", "is_disabled": 0, "lat": 38.923137, "rental_uris": {"ios": "https://dc.lft.to/lastmile_qr_scan", "android": "https://dc.lft.to/lastmile_qr_scan"}, "is_reserved": 0, "fusion_lon": 0.0, "fusion_lat": 0.0, "lon": -77.04213283333333, "name": "f082b13595f4a0e618009cff84e9deea"}, {"bike_id": "b045de7022de807763ac2498dfeedbf3", "type": "electric_scooter", "is_disabled": 0, "lat": 38.97229933333333, "rental_uris": {"ios": "https://dc.lft.to/lastmile_qr_scan", "android": "https://dc.lft.to/lastmile_qr_scan"}, "is_reserved": 0, "fusion_lon": 0.0, "fusion_lat": 0.0, "lon": -77.02695916666667, "name": "b045de7022de807763ac2498dfeedbf3"}, {"bike_id": "862d8bc3f690282f56f6af9d471f03a0", "type": "electric_bike", "is_disabled": 0, "lat": 38.95708416666667, "rental_uris": {"ios": "https://dc.lft.to/lastmile_qr_scan", "android": "https://dc.lft.to/lastmile_qr_scan"}, "is_reserved": 0, "fusion_lon": 0.0, "fusion_lat": 0.0, "lon": -77.00284683333334, "name": "862d8bc3f690282f56f6af9d471f03a0"}, {"bike_id": "cb8ba6f0cf2c4f011d8f8b776e10cffa", "type": "electric_bike", "is_disabled": 0, "lat": 38.9466015, "rental_uris": {"ios": "https://dc.lft.to/lastmile_qr_scan", "android": "https://dc.lft.to/lastmile_qr_scan"}, "is_reserved": 0, "fusion_lon": 0.0, "fusion_lat": 0.0, "lon": -76.95671366666667, "name": "cb8ba6f0cf2c4f011d8f8b776e10cffa"}, {"bike_id": "f0f9f6cc9d86b934952cf962bf3e65f2", "type": "electric_scooter", "is_disabled": 0, "lat": 38.9037545, "rental_uris": {"ios": "https://dc.lft.to/lastmile_qr_scan", "android": "https://dc.lft.to/lastmile_qr_scan"}, "is_reserved": 0, "fusion_lon": 0.0, "fusion_lat": 0.0, "lon": -77.03856366666666, "name": "f0f9f6cc9d86b934952cf962bf3e65f2"}, {"bike_id": "e9746db4cbc4227d5fdb6435c0b7a621", "type": "electric_scooter", "is_disabled": 0, "lat": 38.9003905, "rental_uris": {"ios": "https://dc.lft.to/lastmile_qr_scan", "android": "https://dc.lft.to/lastmile_qr_scan"}, "is_reserved": 0, "fusion_lon": 0.0, "fusion_lat": 0.0, "lon": -77.03320983333333, "name": "e9746db4cbc4227d5fdb6435c0b7a621"}, {"bike_id": "c391081a2d00127c6ded0e90398451e1", "type": "electric_scooter", "is_disabled": 0, "lat": 38.93426266666667, "rental_uris": {"ios": "https://dc.lft.to/lastmile_qr_scan", "android": "https://dc.lft.to/lastmile_qr_scan"}, "is_reserved": 0, "fusion_lon": 0.0, "fusion_lat": 0.0, "lon": -77.040049, "name": "c391081a2d00127c6ded0e90398451e1"}, {"bike_id": "ad6e1a3fd6a897ae8af2e04f4c61e309", "type": "electric_scooter", "is_disabled": 0, "lat": 38.907395666666666, "rental_uris": {"ios": "https://dc.lft.to/lastmile_qr_scan", "android": "https://dc.lft.to/lastmile_qr_scan"}, "is_reserved": 0, "fusion_lon": 0.0, "fusion_lat": 0.0, "lon": -77.029733, "name": "ad6e1a3fd6a897ae8af2e04f4c61e309"}, {"bike_id": "7c198e340f9b6d54ec53b28763661735", "type": "electric_scooter", "is_disabled": 0, "lat": 38.91413633333333, "rental_uris": {"ios": "https://dc.lft.to/lastmile_qr_scan", "android": "https://dc.lft.to/lastmile_qr_scan"}, "is_reserved": 0, "fusion_lon": 0.0, "fusion_lat": 0.0, "lon": -77.03239366666666, "name": "7c198e340f9b6d54ec53b28763661735"}, {"bike_id": "bb8f95efa63099e9fdaf4b59bbbbad43", "type": "electric_scooter", "is_disabled": 0, "lat": 38.96699266666667, "rental_uris": {"ios": "https://dc.lft.to/lastmile_qr_scan", "android": "https://dc.lft.to/lastmile_qr_scan"}, "is_reserved": 0, "fusion_lon": 0.0, "fusion_lat": 0.0, "lon": -77.055706, "name": "bb8f95efa63099e9fdaf4b59bbbbad43"}, {"bike_id": "651e7742b0044a49cdbb45291bc9dc61", "type": "electric_scooter", "is_disabled": 0, "lat": 38.91814983333333, "rental_uris": {"ios": "https://dc.lft.to/lastmile_qr_scan", "android": "https://dc.lft.to/lastmile_qr_scan"}, "is_reserved": 0, "fusion_lon": 0.0, "fusion_lat": 0.0, "lon": -77.031832, "name": "651e7742b0044a49cdbb45291bc9dc61"}, {"bike_id": "cff04c47abed460df117397121302b99", "type": "electric_bike", "is_disabled": 0, "lat": 38.87881983333333, "rental_uris": {"ios": "https://dc.lft.to/lastmile_qr_scan", "android": "https://dc.lft.to/lastmile_qr_scan"}, "is_reserved": 0, "fusion_lon": 0.0, "fusion_lat": 0.0, "lon": -77.09618416666666, "name": "cff04c47abed460df117397121302b99"}, {"bike_id": "0cd0bebf0e17b882edddeea1bef2979c", "type": "electric_scooter", "is_disabled": 0, "lat": 38.9309435, "rental_uris": {"ios": "https://dc.lft.to/lastmile_qr_scan", "android": "https://dc.lft.to/lastmile_qr_scan"}, "is_reserved": 0, "fusion_lon": 0.0, "fusion_lat": 0.0, "lon": -77.03437583333333, "name": "0cd0bebf0e17b882edddeea1bef2979c"}, {"bike_id": "a86193b201fffed1506bfcfbea1165a9", "type": "electric_scooter", "is_disabled": 0, "lat": 38.876535833333335, "rental_uris": {"ios": "https://dc.lft.to/lastmile_qr_scan", "android": "https://dc.lft.to/lastmile_qr_scan"}, "is_reserved": 0, "fusion_lon": 0.0, "fusion_lat": 0.0, "lon": -77.00765783333334, "name": "a86193b201fffed1506bfcfbea1165a9"}, {"bike_id": "a6948e3c4fae6667ec44e7bf6578db45", "type": "electric_scooter", "is_disabled": 0, "lat": 38.919144333333335, "rental_uris": {"ios": "https://dc.lft.to/lastmile_qr_scan", "android": "https://dc.lft.to/lastmile_qr_scan"}, "is_reserved": 0, "fusion_lon": 0.0, "fusion_lat": 0.0, "lon": -77.03222583333333, "name": "a6948e3c4fae6667ec44e7bf6578db45"}, {"bike_id": "201df76e8207e41d4ee78357e30986e5", "type": "electric_scooter", "is_disabled": 0, "lat": 38.90501533333333, "rental_uris": {"ios": "https://dc.lft.to/lastmile_qr_scan", "android": "https://dc.lft.to/lastmile_qr_scan"}, "is_reserved": 0, "fusion_lon": 0.0, "fusion_lat": 0.0, "lon": -76.99961433333333, "name": "201df76e8207e41d4ee78357e30986e5"}, {"bike_id": "8084ac64ea0df56a7b3c13636cac421f", "type": "electric_scooter", "is_disabled": 0, "lat": 38.905012666666664, "rental_uris": {"ios": "https://dc.lft.to/lastmile_qr_scan", "android": "https://dc.lft.to/lastmile_qr_scan"}, "is_reserved": 0, "fusion_lon": 0.0, "fusion_lat": 0.0, "lon": -77.01979016666667, "name": "8084ac64ea0df56a7b3c13636cac421f"}, {"bike_id": "544463b3af6b31ee962810583a9411b5", "type": "electric_scooter", "is_disabled": 0, "lat": 38.91572516666667, "rental_uris": {"ios": "https://dc.lft.to/lastmile_qr_scan", "android": "https://dc.lft.to/lastmile_qr_scan"}, "is_reserved": 0, "fusion_lon": 0.0, "fusion_lat": 0.0, "lon": -77.01998383333333, "name": "544463b3af6b31ee962810583a9411b5"}, {"bike_id": "3bb0c606956b7bad4ac30040049ef9c5", "type": "electric_scooter", "is_disabled": 0, "lat": 38.9287015, "rental_uris": {"ios": "https://dc.lft.to/lastmile_qr_scan", "android": "https://dc.lft.to/lastmile_qr_scan"}, "is_reserved": 0, "fusion_lon": 0.0, "fusion_lat": 0.0, "lon": -77.0137655, "name": "3bb0c606956b7bad4ac30040049ef9c5"}, {"bike_id": "3870e1beac74af854abe9d5db9a62126", "type": "electric_scooter", "is_disabled": 0, "lat": 38.9258, "rental_uris": {"ios": "https://dc.lft.to/lastmile_qr_scan", "android": "https://dc.lft.to/lastmile_qr_scan"}, "is_reserved": 0, "fusion_lon": 0.0, "fusion_lat": 0.0, "lon": -77.03056433333333, "name": "3870e1beac74af854abe9d5db9a62126"}, {"bike_id": "475f06e18daafac3a5bf130e903138fa", "type": "electric_scooter", "is_disabled": 0, "lat": 38.935847833333334, "rental_uris": {"ios": "https://dc.lft.to/lastmile_qr_scan", "android": "https://dc.lft.to/lastmile_qr_scan"}, "is_reserved": 0, "fusion_lon": 0.0, "fusion_lat": 0.0, "lon": -77.03809066666666, "name": "475f06e18daafac3a5bf130e903138fa"}, {"bike_id": "5cfbf2c9d4179910e78670a3474c0f3a", "type": "electric_scooter", "is_disabled": 0, "lat": 38.941135333333335, "rental_uris": {"ios": "https://dc.lft.to/lastmile_qr_scan", "android": "https://dc.lft.to/lastmile_qr_scan"}, "is_reserved": 0, "fusion_lon": 0.0, "fusion_lat": 0.0, "lon": -77.02548333333333, "name": "5cfbf2c9d4179910e78670a3474c0f3a"}, {"bike_id": "b6aa7649d4187ad782c092656f801772", "type": "electric_scooter", "is_disabled": 0, "lat": 38.92485033333333, "rental_uris": {"ios": "https://dc.lft.to/lastmile_qr_scan", "android": "https://dc.lft.to/lastmile_qr_scan"}, "is_reserved": 0, "fusion_lon": 0.0, "fusion_lat": 0.0, "lon": -77.03179916666667, "name": "b6aa7649d4187ad782c092656f801772"}, {"bike_id": "bbb08156a36195dd1ba4ddbbd1dcc70c", "type": "electric_scooter", "is_disabled": 0, "lat": 38.91416866666667, "rental_uris": {"ios": "https://dc.lft.to/lastmile_qr_scan", "android": "https://dc.lft.to/lastmile_qr_scan"}, "is_reserved": 0, "fusion_lon": 0.0, "fusion_lat": 0.0, "lon": -77.01369333333334, "name": "bbb08156a36195dd1ba4ddbbd1dcc70c"}, {"bike_id": "26f6a7a7528dcd50d4210fda303566d2", "type": "electric_scooter", "is_disabled": 0, "lat": 38.904939, "rental_uris": {"ios": "https://dc.lft.to/lastmile_qr_scan", "android": "https://dc.lft.to/lastmile_qr_scan"}, "is_reserved": 0, "fusion_lon": 0.0, "fusion_lat": 0.0, "lon": -76.9497345, "name": "26f6a7a7528dcd50d4210fda303566d2"}, {"bike_id": "0f778b774dbac9faab44129cc3956a4f", "type": "electric_bike", "is_disabled": 0, "lat": 38.95170783333333, "rental_uris": {"ios": "https://dc.lft.to/lastmile_qr_scan", "android": "https://dc.lft.to/lastmile_qr_scan"}, "is_reserved": 0, "fusion_lon": 0.0, "fusion_lat": 0.0, "lon": -76.97732, "name": "0f778b774dbac9faab44129cc3956a4f"}, {"bike_id": "23f4756e0f4fa06938c4275df62a5321", "type": "electric_scooter", "is_disabled": 0, "lat": 38.90060966666667, "rental_uris": {"ios": "https://dc.lft.to/lastmile_qr_scan", "android": "https://dc.lft.to/lastmile_qr_scan"}, "is_reserved": 0, "fusion_lon": 0.0, "fusion_lat": 0.0, "lon": -77.017246, "name": "23f4756e0f4fa06938c4275df62a5321"}, {"bike_id": "316b5d154a5dc9cf74d127d9960c5dd3", "type": "electric_scooter", "is_disabled": 0, "lat": 38.905236333333335, "rental_uris": {"ios": "https://dc.lft.to/lastmile_qr_scan", "android": "https://dc.lft.to/lastmile_qr_scan"}, "is_reserved": 0, "fusion_lon": 0.0, "fusion_lat": 0.0, "lon": -77.0629595, "name": "316b5d154a5dc9cf74d127d9960c5dd3"}, {"bike_id": "0a2ec01b834abc4d9bcec926d8779271", "type": "electric_scooter", "is_disabled": 0, "lat": 38.962073, "rental_uris": {"ios": "https://dc.lft.to/lastmile_qr_scan", "android": "https://dc.lft.to/lastmile_qr_scan"}, "is_reserved": 0, "fusion_lon": 0.0, "fusion_lat": 0.0, "lon": -77.022329, "name": "0a2ec01b834abc4d9bcec926d8779271"}, {"bike_id": "38ff6cdfe6a8dd2ff7b68e6bfe1f8148", "type": "electric_scooter", "is_disabled": 0, "lat": 38.920618, "rental_uris": {"ios": "https://dc.lft.to/lastmile_qr_scan", "android": "https://dc.lft.to/lastmile_qr_scan"}, "is_reserved": 0, "fusion_lon": 0.0, "fusion_lat": 0.0, "lon": -77.02674783333333, "name": "38ff6cdfe6a8dd2ff7b68e6bfe1f8148"}, {"bike_id": "e2c4fb5da17b254b7f9051ddc9ae0cdf", "type": "electric_scooter", "is_disabled": 0, "lat": 38.9274775, "rental_uris": {"ios": "https://dc.lft.to/lastmile_qr_scan", "android": "https://dc.lft.to/lastmile_qr_scan"}, "is_reserved": 0, "fusion_lon": 0.0, "fusion_lat": 0.0, "lon": -77.0253695, "name": "e2c4fb5da17b254b7f9051ddc9ae0cdf"}, {"bike_id": "38695b9f451776312e1ab082c5ec5c4b", "type": "electric_bike", "is_disabled": 0, "lat": 38.9836435, "rental_uris": {"ios": "https://dc.lft.to/lastmile_qr_scan", "android": "https://dc.lft.to/lastmile_qr_scan"}, "is_reserved": 0, "fusion_lon": 0.0, "fusion_lat": 0.0, "lon": -76.97221316666666, "name": "38695b9f451776312e1ab082c5ec5c4b"}, {"bike_id": "a87e8318978319850c16b1b22a003494", "type": "electric_scooter", "is_disabled": 0, "lat": 38.936691, "rental_uris": {"ios": "https://dc.lft.to/lastmile_qr_scan", "android": "https://dc.lft.to/lastmile_qr_scan"}, "is_reserved": 0, "fusion_lon": 0.0, "fusion_lat": 0.0, "lon": -77.035697, "name": "a87e8318978319850c16b1b22a003494"}, {"bike_id": "ccbd48b0fc3d199dc18868d9ef9878f4", "type": "electric_bike", "is_disabled": 0, "lat": 38.934934, "rental_uris": {"ios": "https://dc.lft.to/lastmile_qr_scan", "android": "https://dc.lft.to/lastmile_qr_scan"}, "is_reserved": 0, "fusion_lon": 0.0, "fusion_lat": 0.0, "lon": -76.99129116666667, "name": "ccbd48b0fc3d199dc18868d9ef9878f4"}, {"bike_id": "cf1dd44b4a1162ce648f2428bcdd5bc0", "type": "electric_scooter", "is_disabled": 0, "lat": 38.86246916666666, "rental_uris": {"ios": "https://dc.lft.to/lastmile_qr_scan", "android": "https://dc.lft.to/lastmile_qr_scan"}, "is_reserved": 0, "fusion_lon": 0.0, "fusion_lat": 0.0, "lon": -76.99502833333334, "name": "cf1dd44b4a1162ce648f2428bcdd5bc0"}, {"bike_id": "aab9af103b5c95b77f44aa4f0010de34", "type": "electric_scooter", "is_disabled": 0, "lat": 38.866777666666664, "rental_uris": {"ios": "https://dc.lft.to/lastmile_qr_scan", "android": "https://dc.lft.to/lastmile_qr_scan"}, "is_reserved": 0, "fusion_lon": 0.0, "fusion_lat": 0.0, "lon": -76.98585433333334, "name": "aab9af103b5c95b77f44aa4f0010de34"}, {"bike_id": "b58143453c3be7170554b5c4388e8fab", "type": "electric_scooter", "is_disabled": 0, "lat": 38.850155666666666, "rental_uris": {"ios": "https://dc.lft.to/lastmile_qr_scan", "android": "https://dc.lft.to/lastmile_qr_scan"}, "is_reserved": 0, "fusion_lon": 0.0, "fusion_lat": 0.0, "lon": -76.97533933333334, "name": "b58143453c3be7170554b5c4388e8fab"}, {"bike_id": "02db94864f0cbfeec350ab69c39a3b88", "type": "electric_bike", "is_disabled": 0, "lat": 38.94363033333333, "rental_uris": {"ios": "https://dc.lft.to/lastmile_qr_scan", "android": "https://dc.lft.to/lastmile_qr_scan"}, "is_reserved": 0, "fusion_lon": 0.0, "fusion_lat": 0.0, "lon": -76.96783783333333, "name": "02db94864f0cbfeec350ab69c39a3b88"}, {"bike_id": "850c858e9248bdf4ca52260177ed0d57", "type": "electric_scooter", "is_disabled": 0, "lat": 38.935387166666665, "rental_uris": {"ios": "https://dc.lft.to/lastmile_qr_scan", "android": "https://dc.lft.to/lastmile_qr_scan"}, "is_reserved": 0, "fusion_lon": 0.0, "fusion_lat": 0.0, "lon": -77.058623, "name": "850c858e9248bdf4ca52260177ed0d57"}, {"bike_id": "3302d0591087bfc4c977e335ffb86e82", "type": "electric_scooter", "is_disabled": 0, "lat": 38.92151033333333, "rental_uris": {"ios": "https://dc.lft.to/lastmile_qr_scan", "android": "https://dc.lft.to/lastmile_qr_scan"}, "is_reserved": 0, "fusion_lon": 0.0, "fusion_lat": 0.0, "lon": -77.04241183333333, "name": "3302d0591087bfc4c977e335ffb86e82"}, {"bike_id": "38bec799832a79b26418e616f37c5aa0", "type": "electric_scooter", "is_disabled": 0, "lat": 38.88299333333333, "rental_uris": {"ios": "https://dc.lft.to/lastmile_qr_scan", "android": "https://dc.lft.to/lastmile_qr_scan"}, "is_reserved": 0, "fusion_lon": 0.0, "fusion_lat": 0.0, "lon": -76.94853183333333, "name": "38bec799832a79b26418e616f37c5aa0"}, {"bike_id": "fcd53cef637a5731285f667372534edc", "type": "electric_bike", "is_disabled": 0, "lat": 38.96957666666667, "rental_uris": {"ios": "https://dc.lft.to/lastmile_qr_scan", "android": "https://dc.lft.to/lastmile_qr_scan"}, "is_reserved": 0, "fusion_lon": 0.0, "fusion_lat": 0.0, "lon": -76.9575055, "name": "fcd53cef637a5731285f667372534edc"}, {"bike_id": "35c1316a0d64f10c5c4d6d676e39f137", "type": "electric_scooter", "is_disabled": 0, "lat": 38.92467083333333, "rental_uris": {"ios": "https://dc.lft.to/lastmile_qr_scan", "android": "https://dc.lft.to/lastmile_qr_scan"}, "is_reserved": 0, "fusion_lon": 0.0, "fusion_lat": 0.0, "lon": -77.02837516666666, "name": "35c1316a0d64f10c5c4d6d676e39f137"}, {"bike_id": "73f35629f56a5ff0a97fd18fbffa3bb1", "type": "electric_scooter", "is_disabled": 0, "lat": 38.92341283333333, "rental_uris": {"ios": "https://dc.lft.to/lastmile_qr_scan", "android": "https://dc.lft.to/lastmile_qr_scan"}, "is_reserved": 0, "fusion_lon": 0.0, "fusion_lat": 0.0, "lon": -77.05624633333333, "name": "73f35629f56a5ff0a97fd18fbffa3bb1"}, {"bike_id": "ffe37d49cf1fb5030d9f831c29895a35", "type": "electric_scooter", "is_disabled": 0, "lat": 38.9246845, "rental_uris": {"ios": "https://dc.lft.to/lastmile_qr_scan", "android": "https://dc.lft.to/lastmile_qr_scan"}, "is_reserved": 0, "fusion_lon": 0.0, "fusion_lat": 0.0, "lon": -77.022456, "name": "ffe37d49cf1fb5030d9f831c29895a35"}, {"bike_id": "25f2e8dd95caf042bf044cfea6537c5c", "type": "electric_scooter", "is_disabled": 0, "lat": 38.8647255, "rental_uris": {"ios": "https://dc.lft.to/lastmile_qr_scan", "android": "https://dc.lft.to/lastmile_qr_scan"}, "is_reserved": 0, "fusion_lon": 0.0, "fusion_lat": 0.0, "lon": -76.977501, "name": "25f2e8dd95caf042bf044cfea6537c5c"}, {"bike_id": "a56a989eecd7b17e3487b43b85de79a2", "type": "electric_scooter", "is_disabled": 0, "lat": 38.9164305, "rental_uris": {"ios": "https://dc.lft.to/lastmile_qr_scan", "android": "https://dc.lft.to/lastmile_qr_scan"}, "is_reserved": 0, "fusion_lon": 0.0, "fusion_lat": 0.0, "lon": -77.02279133333333, "name": "a56a989eecd7b17e3487b43b85de79a2"}, {"bike_id": "4056fc33acb597c20438c9d7099011d5", "type": "electric_scooter", "is_disabled": 0, "lat": 38.924808, "rental_uris": {"ios": "https://dc.lft.to/lastmile_qr_scan", "android": "https://dc.lft.to/lastmile_qr_scan"}, "is_reserved": 0, "fusion_lon": 0.0, "fusion_lat": 0.0, "lon": -77.05754333333333, "name": "4056fc33acb597c20438c9d7099011d5"}, {"bike_id": "aaaf25bf5a7b8cf6166b11355bbe1b3b", "type": "electric_scooter", "is_disabled": 0, "lat": 38.90524, "rental_uris": {"ios": "https://dc.lft.to/lastmile_qr_scan", "android": "https://dc.lft.to/lastmile_qr_scan"}, "is_reserved": 0, "fusion_lon": 0.0, "fusion_lat": 0.0, "lon": -77.0645075, "name": "aaaf25bf5a7b8cf6166b11355bbe1b3b"}, {"bike_id": "c0deb06285b56a0bb5593fad9521bf35", "type": "electric_scooter", "is_disabled": 0, "lat": 38.9363495, "rental_uris": {"ios": "https://dc.lft.to/lastmile_qr_scan", "android": "https://dc.lft.to/lastmile_qr_scan"}, "is_reserved": 0, "fusion_lon": 0.0, "fusion_lat": 0.0, "lon": -77.05888233333333, "name": "c0deb06285b56a0bb5593fad9521bf35"}, {"bike_id": "09cd719d0ffae9cdbcd93808fef79566", "type": "electric_scooter", "is_disabled": 0, "lat": 38.91400933333333, "rental_uris": {"ios": "https://dc.lft.to/lastmile_qr_scan", "android": "https://dc.lft.to/lastmile_qr_scan"}, "is_reserved": 0, "fusion_lon": 0.0, "fusion_lat": 0.0, "lon": -77.03267633333333, "name": "09cd719d0ffae9cdbcd93808fef79566"}, {"bike_id": "8330945d2a7958ea6adab066e43b5baf", "type": "electric_scooter", "is_disabled": 0, "lat": 38.942086, "rental_uris": {"ios": "https://dc.lft.to/lastmile_qr_scan", "android": "https://dc.lft.to/lastmile_qr_scan"}, "is_reserved": 0, "fusion_lon": 0.0, "fusion_lat": 0.0, "lon": -77.02584116666667, "name": "8330945d2a7958ea6adab066e43b5baf"}, {"bike_id": "387a11e0770240e6a0da54f97b98d1c8", "type": "electric_scooter", "is_disabled": 0, "lat": 38.9297615, "rental_uris": {"ios": "https://dc.lft.to/lastmile_qr_scan", "android": "https://dc.lft.to/lastmile_qr_scan"}, "is_reserved": 0, "fusion_lon": 0.0, "fusion_lat": 0.0, "lon": -77.0325705, "name": "387a11e0770240e6a0da54f97b98d1c8"}, {"bike_id": "68b3c71945b024e7017abf92725106d7", "type": "electric_scooter", "is_disabled": 0, "lat": 38.9126545, "rental_uris": {"ios": "https://dc.lft.to/lastmile_qr_scan", "android": "https://dc.lft.to/lastmile_qr_scan"}, "is_reserved": 0, "fusion_lon": 0.0, "fusion_lat": 0.0, "lon": -77.01460033333333, "name": "68b3c71945b024e7017abf92725106d7"}, {"bike_id": "e9e38464e06d601f7563d0da6fca89cf", "type": "electric_scooter", "is_disabled": 0, "lat": 38.91172133333333, "rental_uris": {"ios": "https://dc.lft.to/lastmile_qr_scan", "android": "https://dc.lft.to/lastmile_qr_scan"}, "is_reserved": 0, "fusion_lon": 0.0, "fusion_lat": 0.0, "lon": -77.03193766666666, "name": "e9e38464e06d601f7563d0da6fca89cf"}, {"bike_id": "b27cfac4eec6c54986497db14cc8a27b", "type": "electric_scooter", "is_disabled": 0, "lat": 38.924808166666665, "rental_uris": {"ios": "https://dc.lft.to/lastmile_qr_scan", "android": "https://dc.lft.to/lastmile_qr_scan"}, "is_reserved": 0, "fusion_lon": 0.0, "fusion_lat": 0.0, "lon": -77.02721083333333, "name": "b27cfac4eec6c54986497db14cc8a27b"}, {"bike_id": "35bd621033ca826ba9853d9d5efedf88", "type": "electric_scooter", "is_disabled": 0, "lat": 38.9274835, "rental_uris": {"ios": "https://dc.lft.to/lastmile_qr_scan", "android": "https://dc.lft.to/lastmile_qr_scan"}, "is_reserved": 0, "fusion_lon": 0.0, "fusion_lat": 0.0, "lon": -77.02429366666667, "name": "35bd621033ca826ba9853d9d5efedf88"}, {"bike_id": "c8106ebd9cb362d6c22e8ed5374ad9d0", "type": "electric_scooter", "is_disabled": 0, "lat": 38.89483883333333, "rental_uris": {"ios": "https://dc.lft.to/lastmile_qr_scan", "android": "https://dc.lft.to/lastmile_qr_scan"}, "is_reserved": 0, "fusion_lon": 0.0, "fusion_lat": 0.0, "lon": -77.01097833333333, "name": "c8106ebd9cb362d6c22e8ed5374ad9d0"}, {"bike_id": "1d53f8766073a1b6fff9d694fc81ba9d", "type": "electric_scooter", "is_disabled": 0, "lat": 38.93614066666667, "rental_uris": {"ios": "https://dc.lft.to/lastmile_qr_scan", "android": "https://dc.lft.to/lastmile_qr_scan"}, "is_reserved": 0, "fusion_lon": 0.0, "fusion_lat": 0.0, "lon": -77.0675725, "name": "1d53f8766073a1b6fff9d694fc81ba9d"}, {"bike_id": "bede38d013e5ca7f2e1b6f268d98b597", "type": "electric_scooter", "is_disabled": 0, "lat": 38.91536966666666, "rental_uris": {"ios": "https://dc.lft.to/lastmile_qr_scan", "android": "https://dc.lft.to/lastmile_qr_scan"}, "is_reserved": 0, "fusion_lon": 0.0, "fusion_lat": 0.0, "lon": -77.01275033333333, "name": "bede38d013e5ca7f2e1b6f268d98b597"},