{"data": {"bikes": [{"fusion_lat": 0.0, "name": "8a28cea9b21c73862534257358c378f4", "is_disabled": 0, "rental_uris": {"android": "https://dc.lft.to/lastmile_qr_scan", "ios": "https://dc.lft.to/lastmile_qr_scan"}, "fusion_lon": 0.0, "lat": 38.903131333333334, "bike_id": "8a28cea9b21c73862534257358c378f4", "type": "electric_scooter", "is_reserved": 0, "lon": -76.97800866666667}, {"fusion_lat": 0.0, "name": "7c971b5a5584dd3692dc03d3e02cbe11", "is_disabled": 0, "rental_uris": {"android": "https://dc.lft.to/lastmile_qr_scan", "ios": "https://dc.lft.to/lastmile_qr_scan"}, "fusion_lon": 0.0, "lat": 38.90946916666667, "bike_id": "7c971b5a5584dd3692dc03d3e02cbe11", "type": "electric_scooter", "is_reserved": 0, "lon": -77.03854233333334}, {"fusion_lat": 0.0, "name": "f2c2dae0d745619ad819ae45f0be00a2", "is_disabled": 0, "rental_uris": {"android": "https://dc.lft.to/lastmile_qr_scan", "ios": "https://dc.lft.to/lastmile_qr_scan"}, "fusion_lon": 0.0, "lat": 38.9462405, "bike_id": "f2c2dae0d745619ad819ae45f0be00a2", "type": "electric_scooter", "is_reserved": 0, "lon": -77.03282916666667}, {"fusion_lat": 0.0, "name": "686018d5a46d7f64d6401ba112ae1894", "is_disabled": 0, "rental_uris": {"android": "https://dc.lft.to/lastmile_qr_scan", "ios": "https://dc.lft.to/lastmile_qr_scan"}, "fusion_lon": 0.0, "lat": 38.880181666666665, "bike_id": "686018d5a46d7f64d6401ba112ae1894", "type": "electric_scooter", "is_reserved": 0, "lon": -76.93117016666666}, {"fusion_lat": 0.0, "name": "d06d4391487b7d31b189071104162f0c", "is_disabled": 0, "rental_uris": {"android": "https://dc.lft.to/lastmile_qr_scan", "ios": "https://dc.lft.to/lastmile_qr_scan"}, "fusion_lon": 0.0, "lat": 38.88355983333334, "bike_id": "d06d4391487b7d31b189071104162f0c", "type": "electric_scooter", "is_reserved": 0, "lon": -76.9950035}, {"fusion_lat": 0.0, "name": "57a5ce8e763b2b4fdf36436445e64f0a", "is_disabled": 0, "rental_uris": {"android": "https://dc.lft.to/lastmile_qr_scan", "ios": "https://dc.lft.to/lastmile_qr_scan"}, "fusion_lon": 0.0, "lat": 38.901635166666665, "bike_id": "57a5ce8e763b2b4fdf36436445e64f0a", "type": "electric_scooter", "is_reserved": 0, "lon": -77.019025}, {"fusion_lat": 0.0, "name": "77e287dedd2d332373e6dc74fed34353", "is_disabled": 0, "rental_uris": {"android": "https://dc.lft.to/lastmile_qr_scan", "ios": "https://dc.lft.to/lastmile_qr_scan"}, "fusion_lon": 0.0, "lat": 38.88874916666666, "bike_id": "77e287dedd2d332373e6dc74fed34353", "type": "electric_scooter", "is_reserved": 0, "lon": -76.984567}, {"fusion_lat": 0.0, "name": "bfa6b619e98fa64dee50504d01d9e749", "is_disabled": 0, "rental_uris": {"android": "https://dc.lft.to/lastmile_qr_scan", "ios": "https://dc.lft.to/lastmile_qr_scan"}, "fusion_lon": 0.0, "lat": 38.906765, "bike_id": "bfa6b619e98fa64dee50504d01d9e749", "type": "electric_scooter", "is_reserved": 0, "lon": -77.03523016666666}, {"fusion_lat": 0.0, "name": "411737f698028dfd85415eed0afcb0e2", "is_disabled": 0, "rental_uris": {"android": "https://dc.lft.to/lastmile_qr_scan", "ios": "https://dc.lft.to/lastmile_qr_scan"}, "fusion_lon": 0.0, "lat": 38.919722, "bike_id": "411737f698028dfd85415eed0afcb0e2", "type": "electric_scooter", "is_reserved": 0, "lon": -77.001136}, {"fusion_lat": 0.0, "name": "9804e638fb2ca631909dffecb4bd6739", "is_disabled": 0, "rental_uris": {"android": "https://dc.lft.to/lastmile_qr_scan", "ios": "https://dc.lft.to/lastmile_qr_scan"}, "fusion_lon": 0.0, "lat": 38.85509283333333, "bike_id": "9804e638fb2ca631909dffecb4bd6739", "type": "electric_bike", "is_reserved": 0, "lon": -77.10540516666667}, {"fusion_lat": 0.0, "name": "e944c1eca7bbbcca05e0b0c5ce1ce771", "is_disabled": 0, "rental_uris": {"android": "https://dc.lft.to/lastmile_qr_scan", "ios": "https://dc.lft.to/lastmile_qr_scan"}, "fusion_lon": 0.0, "lat": 38.993639333333334, "bike_id": "e944c1eca7bbbcca05e0b0c5ce1ce771", "type": "electric_bike", "is_reserved": 0, "lon": -77.02588766666666}, {"fusion_lat": 0.0, "name": "a777b4a60995029f4f6da3bfc35e20bf", "is_disabled": 0, "rental_uris": {"android": "https://dc.lft.to/lastmile_qr_scan", "ios": "https://dc.lft.to/lastmile_qr_scan"}, "fusion_lon": 0.0, "lat": 38.901870833333334, "bike_id": "a777b4a60995029f4f6da3bfc35e20bf", "type": "electric_scooter", "is_reserved": 0, "lon": -76.92903883333334}, {"fusion_lat": 0.0, "name": "a9a6901451d2c058bf2fd012b5a7a049", "is_disabled": 0, "rental_uris": {"android": "https://dc.lft.to/lastmile_qr_scan", "ios": "https://dc.lft.to/lastmile_qr_scan"}, "fusion_lon": 0.0, "lat": 38.9282945, "bike_id": "a9a6901451d2c058bf2fd012b5a7a049", "type": "electric_scooter", "is_reserved": 0, "lon": -77.05439516666667}, {"fusion_lat": 0.0, "name": "1779e129eafbfb0dcd886268b811871d", "is_disabled": 0, "rental_uris": {"android": "https://dc.lft.to/lastmile_qr_scan", "ios": "https://dc.lft.to/lastmile_qr_scan"}, "fusion_lon": 0.0, "lat": 38.920457999999996, "bike_id": "1779e129eafbfb0dcd886268b811871d", "type": "electric_scooter", "is_reserved": 0, "lon": -77.00211333333333}, {"fusion_lat": 0.0, "name": "5219a7ea86c104e8c91610be0bfe9ddd", "is_disabled": 0, "rental_uris": {"android": "https://dc.lft.to/lastmile_qr_scan", "ios": "https://dc.lft.to/lastmile_qr_scan"}, "fusion_lon": 0.0, "lat": 38.915556, "bike_id": "5219a7ea86c104e8c91610be0bfe9ddd", "type": "electric_scooter", "is_reserved": 0, "lon": -77.01209383333334}, {"fusion_lat": 0.0, "name": "9aff6b25763390e60457f9c67a031d6d", "is_disabled": 0, "rental_uris": {"android": "https://dc.lft.to/lastmile_qr_scan", "ios": "https://dc.lft.to/lastmile_qr_scan"}, "fusion_lon": 0.0, "lat": 38.9302285, "bike_id": "9aff6b25763390e60457f9c67a031d6d", "type": "electric_scooter", "is_reserved": 0, "lon": -77.03786666666667}, {"fusion_lat": 0.0, "name": "b6618d61bf21b7cd8f2816dd0ed470f3", "is_disabled": 0, "rental_uris": {"android": "https://dc.lft.to/lastmile_qr_scan", "ios": "https://dc.lft.to/lastmile_qr_scan"}, "fusion_lon": 0.0, "lat": 38.91223333333333, "bike_id": "b6618d61bf21b7cd8f2816dd0ed470f3", "type": "electric_scooter", "is_reserved": 0, "lon": -77.03809433333333}, {"fusion_lat": 0.0, "name": "c32234e3533377dd38aa293bba57758b", "is_disabled": 0, "rental_uris": {"android": "https://dc.lft.to/lastmile_qr_scan", "ios": "https://dc.lft.to/lastmile_qr_scan"}, "fusion_lon": 0.0, "lat": 38.9165975, "bike_id": "c32234e3533377dd38aa293bba57758b", "type": "electric_scooter", "is_reserved": 0, "lon": -77.03854633333333}, {"fusion_lat": 0.0, "name": "cc4bdcdef6ffb6b78d87185db6a8e26b", "is_disabled": 0, "rental_uris": {"android": "https://dc.lft.to/lastmile_qr_scan", "ios": "https://dc.lft.to/lastmile_qr_scan"}, "fusion_lon": 0.0, "lat": 38.903846333333334, "bike_id": "cc4bdcdef6ffb6b78d87185db6a8e26b", "type": "electric_scooter", "is_reserved": 0, "lon": -77.03536816666667}, {"fusion_lat": 0.0, "name": "f9f4b28ee251c0cd315210144693fdb0", "is_disabled": 0, "rental_uris": {"android": "https://dc.lft.to/lastmile_qr_scan", "ios": "https://dc.lft.to/lastmile_qr_scan"}, "fusion_lon": 0.0, "lat": 38.92831916666667, "bike_id": "f9f4b28ee251c0cd315210144693fdb0", "type": "electric_scooter", "is_reserved": 0, "lon": -77.01422333333333}, {"fusion_lat": 0.0, "name": "1c754cf442c82d338bfb54db7cd193e3", "is_disabled": 0, "rental_uris": {"android": "https://dc.lft.to/lastmile_qr_scan", "ios": "https://dc.lft.to/lastmile_qr_scan"}, "fusion_lon": 0.0, "lat": 38.9118555, "bike_id": "1c754cf442c82d338bfb54db7cd193e3", "type": "electric_scooter", "is_reserved": 0, "lon": -77.03865166666667}, {"fusion_lat": 0.0, "name": "b95190e7d516d52937b33725ed6d53e1", "is_disabled": 0, "rental_uris": {"android": "https://dc.lft.to/lastmile_qr_scan", "ios": "https://dc.lft.to/lastmile_qr_scan"}, "fusion_lon": 0.0, "lat": 38.864604, "bike_id": "b95190e7d516d52937b33725ed6d53e1", "type": "electric_bike", "is_reserved": 0, "lon": -76.945321}, {"fusion_lat": 0.0, "name": "57dec2e2e7634d888834df09ab5950e5", "is_disabled": 0, "rental_uris": {"android": "https://dc.lft.to/lastmile_qr_scan", "ios": "https://dc.lft.to/lastmile_qr_scan"}, "fusion_lon": 0.0, "lat": 38.866231166666665, "bike_id": "57dec2e2e7634d888834df09ab5950e5", "type": "electric_bike", "is_reserved": 0, "lon": -76.945697}, {"fusion_lat": 0.0, "name": "e8f467d62c61c949df70377f9747dcb1", "is_disabled": 0, "rental_uris": {"android": "https://dc.lft.to/lastmile_qr_scan", "ios": "https://dc.lft.to/lastmile_qr_scan"}, "fusion_lon": 0.0, "lat": 38.90497933333333, "bike_id": "e8f467d62c61c949df70377f9747dcb1", "type": "electric_scooter", "is_reserved": 0, "lon": -77.06119183333334}, {"fusion_lat": 0.0, "name": "6c22d4b8d8e95aef7fe4ed73808984c4", "is_disabled": 0, "rental_uris": {"android": "https://dc.lft.to/lastmile_qr_scan", "ios": "https://dc.lft.to/lastmile_qr_scan"}, "fusion_lon": 0.0, "lat": 38.8894625, "bike_id": "6c22d4b8d8e95aef7fe4ed73808984c4", "type": "electric_scooter", "is_reserved": 0, "lon": -76.991643}, {"fusion_lat": 0.0, "name": "5768f804906fb0a74ba21a84889d7fd6", "is_disabled": 0, "rental_uris": {"android": "https://dc.lft.to/lastmile_qr_scan", "ios": "https://dc.lft.to/lastmile_qr_scan"}, "fusion_lon": 0.0, "lat": 38.9182655, "bike_id": "5768f804906fb0a74ba21a84889d7fd6", "type": "electric_scooter", "is_reserved": 0, "lon": -77.02296983333333}, {"fusion_lat": 0.0, "name": "d5b37515f74c5b767541cfe833b3a835", "is_disabled": 0, "rental_uris": {"android": "https://dc.lft.to/lastmile_qr_scan", "ios": "https://dc.lft.to/lastmile_qr_scan"}, "fusion_lon": 0.0, "lat": 38.91119533333333, "bike_id": "d5b37515f74c5b767541cfe833b3a835", "type": "electric_scooter", "is_reserved": 0, "lon": -77.04232566666667}, {"fusion_lat": 0.0, "name": "627c3f61032e8750853ea9a62bd86b9e", "is_disabled": 0, "rental_uris": {"android": "https://dc.lft.to/lastmile_qr_scan", "ios": "https://dc.lft.to/lastmile_qr_scan"}, "fusion_lon": 0.0, "lat": 38.92873933333333, "bike_id": "627c3f61032e8750853ea9a62bd86b9e", "type": "electric_scooter", "is_reserved": 0, "lon": -77.02671733333334}, {"fusion_lat": 0.0, "name": "043ff1ccfc6492c6c221b739686ec350", "is_disabled": 0, "rental_uris": {"android": "https://dc.lft.to/lastmile_qr_scan", "ios": "https://dc.lft.to/lastmile_qr_scan"}, "fusion_lon": 0.0, "lat": 38.93874133333333, "bike_id": "043ff1ccfc6492c6c221b739686ec350", "type": "electric_scooter", "is_reserved": 0, "lon": -77.02919833333333}, {"fusion_lat": 0.0, "name": "3509b3463c7b7537a4f4b894234b7bd5", "is_disabled": 0, "rental_uris": {"android": "https://dc.lft.to/lastmile_qr_scan", "ios": "https://dc.lft.to/lastmile_qr_scan"}, "fusion_lon": 0.0, "lat": 38.9244685, "bike_id": "3509b3463c7b7537a4f4b894234b7bd5", "type": "electric_scooter", "is_reserved": 0, "lon": -77.034059}, {"fusion_lat": 0.0, "name": "99fb843531b30065e3c072a6ee473231", "is_disabled": 0, "rental_uris": {"android": "https://dc.lft.to/lastmile_qr_scan", "ios": "https://dc.lft.to/lastmile_qr_scan"}, "fusion_lon": 0.0, "lat": 38.9057175, "bike_id": "99fb843531b30065e3c072a6ee473231", "type": "electric_scooter", "is_reserved": 0, "lon": -77.02494933333334}, {"fusion_lat": 0.0, "name": "8c9120b9904a8b635f089f24d81409b6", "is_disabled": 0, "rental_uris": {"android": "https://dc.lft.to/lastmile_qr_scan", "ios": "https://dc.lft.to/lastmile_qr_scan"}, "fusion_lon": 0.0, "lat": 38.934268, "bike_id": "8c9120b9904a8b635f089f24d81409b6", "type": "electric_scooter", "is_reserved": 0, "lon": -77.04002483333333}, {"fusion_lat": 0.0, "name": "4c30af8814ba646d20b9a1329d8b9a6c", "is_disabled": 0, "rental_uris": {"android": "https://dc.lft.to/lastmile_qr_scan", "ios": "https://dc.lft.to/lastmile_qr_scan"}, "fusion_lon": 0.0, "lat": 38.931155, "bike_id": "4c30af8814ba646d20b9a1329d8b9a6c", "type": "electric_scooter", "is_reserved": 0, "lon": -77.02137866666666}, {"fusion_lat": 0.0, "name": "dc8661c7437cb851011ba02df456846b", "is_disabled": 0, "rental_uris": {"android": "https://dc.lft.to/lastmile_qr_scan", "ios": "https://dc.lft.to/lastmile_qr_scan"}, "fusion_lon": 0.0, "lat": 38.935809666666664, "bike_id": "dc8661c7437cb851011ba02df456846b", "type": "electric_scooter", "is_reserved": 0, "lon": -77.02126516666667}, {"fusion_lat": 0.0, "name": "4f4c86732e4b00dcf18018a6fe95d3db", "is_disabled": 0, "rental_uris": {"android": "https://dc.lft.to/lastmile_qr_scan", "ios": "https://dc.lft.to/lastmile_qr_scan"}, "fusion_lon": 0.0, "lat": 38.91217983333333, "bike_id": "4f4c86732e4b00dcf18018a6fe95d3db", "type": "electric_scooter", "is_reserved": 0, "lon": -77.01209}, {"fusion_lat": 0.0, "name": "fd3648a58f41b1a83802d35b32b91bca", "is_disabled": 0, "rental_uris": {"android": "https://dc.lft.to/lastmile_qr_scan", "ios": "https://dc.lft.to/lastmile_qr_scan"}, "fusion_lon": 0.0, "lat": 38.9278775, "bike_id": "fd3648a58f41b1a83802d35b32b91bca", "type": "electric_scooter", "is_reserved": 0, "lon": -77.03149733333333}, {"fusion_lat": 0.0, "name": "96724b73b959590459f4544768597d8b", "is_disabled": 0, "rental_uris": {"android": "https://dc.lft.to/lastmile_qr_scan", "ios": "https://dc.lft.to/lastmile_qr_scan"}, "fusion_lon": 0.0, "lat": 38.89001433333333, "bike_id": "96724b73b959590459f4544768597d8b", "type": "electric_scooter", "is_reserved": 0, "lon": -76.93743033333334}, {"fusion_lat": 0.0, "name": "f05e90a0c34f22c24ac79bdef2e4dd85", "is_disabled": 0, "rental_uris": {"android": "https://dc.lft.to/lastmile_qr_scan", "ios": "https://dc.lft.to/lastmile_qr_scan"}, "fusion_lon": 0.0, "lat": 38.88709466666667, "bike_id": "f05e90a0c34f22c24ac79bdef2e4dd85", "type": "electric_scooter", "is_reserved": 0, "lon": -77.002507}, {"fusion_lat": 0.0, "name": "c40b03a3a8333ff4647a8fb11e97ab26", "is_disabled": 0, "rental_uris": {"android": "https://dc.lft.to/lastmile_qr_scan", "ios": "https://dc.lft.to/lastmile_qr_scan"}, "fusion_lon": 0.0, "lat": 38.80447483333333, "bike_id": "c40b03a3a8333ff4647a8fb11e97ab26", "type": "electric_bike", "is_reserved": 0, "lon": -77.05383733333333}, {"fusion_lat": 0.0, "name": "9a817c617d787575b93024bad94a985b", "is_disabled": 0, "rental_uris": {"android": "https://dc.lft.to/lastmile_qr_scan", "ios": "https://dc.lft.to/lastmile_qr_scan"}, "fusion_lon": 0.0, "lat": 38.9011975, "bike_id": "9a817c617d787575b93024bad94a985b", "type": "electric_scooter", "is_reserved": 0, "lon": -77.02194816666666}, {"fusion_lat": 0.0, "name": "fb8e7e43d3170b6737cd87805920aef4", "is_disabled": 0, "rental_uris": {"android": "https://dc.lft.to/lastmile_qr_scan", "ios": "https://dc.lft.to/lastmile_qr_scan"}, "fusion_lon": 0.0, "lat": 38.886510666666666, "bike_id": "fb8e7e43d3170b6737cd87805920aef4", "type": "electric_scooter", "is_reserved": 0, "lon": -77.03358566666667}, {"fusion_lat": 0.0, "name": "82951d03924c0baf66060caae6f648a9", "is_disabled": 0, "rental_uris": {"android": "https://dc.lft.to/lastmile_qr_scan", "ios": "https://dc.lft.to/lastmile_qr_scan"}, "fusion_lon": 0.0, "lat": 38.879582166666665, "bike_id": "82951d03924c0baf66060caae6f648a9", "type": "electric_scooter", "is_reserved": 0, "lon": -76.9901345}, {"fusion_lat": 0.0, "name": "997697db711bc089c447d9bd8ed8b617", "is_disabled": 0, "rental_uris": {"android": "https://dc.lft.to/lastmile_qr_scan", "ios": "https://dc.lft.to/lastmile_qr_scan"}, "fusion_lon": 0.0, "lat": 38.9260225, "bike_id": "997697db711bc089c447d9bd8ed8b617", "type": "electric_scooter", "is_reserved": 0, "lon": -77.021576}, {"fusion_lat": 0.0, "name": "372f9730d2721c81721cacf9788108a3", "is_disabled": 0, "rental_uris": {"android": "https://dc.lft.to/lastmile_qr_scan", "ios": "https://dc.lft.to/lastmile_qr_scan"}, "fusion_lon": 0.0, "lat": 38.899628166666666, "bike_id": "372f9730d2721c81721cacf9788108a3", "type": "electric_scooter", "is_reserved": 0, "lon": -77.046525}, {"fusion_lat": 0.0, "name": "abd6bdfc09ab16dea4eab901bb5b876e", "is_disabled": 0, "rental_uris": {"android": "https://dc.lft.to/lastmile_qr_scan", "ios": "https://dc.lft.to/lastmile_qr_scan"}, "fusion_lon": 0.0, "lat": 38.916578, "bike_id": "abd6bdfc09ab16dea4eab901bb5b876e", "type": "electric_scooter", "is_reserved": 0, "lon": -77.02812866666666}, {"fusion_lat": 0.0, "name": "acd28a7ff1e27002feb7ad94ace4a484", "is_disabled": 0, "rental_uris": {"android": "https://dc.lft.to/lastmile_qr_scan", "ios": "https://dc.lft.to/lastmile_qr_scan"}, "fusion_lon": 0.0, "lat": 38.87684516666667, "bike_id": "acd28a7ff1e27002feb7ad94ace4a484", "type": "electric_scooter", "is_reserved": 0, "lon": -77.0175435}, {"fusion_lat": 0.0, "name": "2d457d3d83bd679a757566e29ed38950", "is_disabled": 0, "rental_uris": {"android": "https://dc.lft.to/lastmile_qr_scan", "ios": "https://dc.lft.to/lastmile_qr_scan"}, "fusion_lon": 0.0, "lat": 38.89541166666667, "bike_id": "2d457d3d83bd679a757566e29ed38950", "type": "electric_scooter", "is_reserved": 0, "lon": -76.9495495}, {"fusion_lat": 0.0, "name": "920b66c156a6b20b5be4edc71f8ea4a3", "is_disabled": 0, "rental_uris": {"android": "https://dc.lft.to/lastmile_qr_scan", "ios": "https://dc.lft.to/lastmile_qr_scan"}, "fusion_lon": 0.0, "lat": 38.896679, "bike_id": "920b66c156a6b20b5be4edc71f8ea4a3", "type": "electric_scooter", "is_reserved": 0, "lon": -77.05138416666667}, {"fusion_lat": 0.0, "name": "b3665502f919390513223f0706391db7", "is_disabled": 0, "rental_uris": {"android": "https://dc.lft.to/lastmile_qr_scan", "ios": "https://dc.lft.to/lastmile_qr_scan"}, "fusion_lon": 0.0, "lat": 38.877477999999996, "bike_id": "b3665502f919390513223f0706391db7", "type": "electric_scooter", "is_reserved": 0, "lon": -77.01429883333333}, {"fusion_lat": 0.0, "name": "1c20b48665b188ed65b633e6555b64f1", "is_disabled": 0, "rental_uris": {"android": "https://dc.lft.to/lastmile_qr_scan", "ios": "https://dc.lft.to/lastmile_qr_scan"}, "fusion_lon": 0.0, "lat": 38.906506666666665, "bike_id": "1c20b48665b188ed65b633e6555b64f1", "type": "electric_scooter", "is_reserved": 0, "lon": -77.05335233333334}, {"fusion_lat": 0.0, "name": "fb510a038d077e004eb870ded7d09913", "is_disabled": 0, "rental_uris": {"android": "https://dc.lft.to/lastmile_qr_scan", "ios": "https://dc.lft.to/lastmile_qr_scan"}, "fusion_lon": 0.0, "lat": 38.9326485, "bike_id": "fb510a038d077e004eb870ded7d09913", "type": "electric_scooter", "is_reserved": 0, "lon": -77.02095616666666}, {"fusion_lat": 0.0, "name": "d9ea74db4c04faebc8085bc1e3220389", "is_disabled": 0, "rental_uris": {"android": "https://dc.lft.to/lastmile_qr_scan", "ios": "https://dc.lft.to/lastmile_qr_scan"}, "fusion_lon": 0.0, "lat": 38.9177065, "bike_id": "d9ea74db4c04faebc8085bc1e3220389", "type": "electric_scooter", "is_reserved": 0, "lon": -77.04054816666667}, {"fusion_lat": 0.0, "name": "1ab5264eddcbaea004babf0306725964", "is_disabled": 0, "rental_uris": {"android": "https://dc.lft.to/lastmile_qr_scan", "ios": "https://dc.lft.to/lastmile_qr_scan"}, "fusion_lon": 0.0, "lat": 38.821793, "bike_id": "1ab5264eddcbaea004babf0306725964", "type": "electric_bike", "is_reserved": 0, "lon": -76.99510033333334}, {"fusion_lat": 0.0, "name": "188ae3c73adaff4fa6d83b5f0d47fecd", "is_disabled": 0, "rental_uris": {"android": "https://dc.lft.to/lastmile_qr_scan", "ios": "https://dc.lft.to/lastmile_qr_scan"}, "fusion_lon": 0.0, "lat": 38.91485733333333, "bike_id": "188ae3c73adaff4fa6d83b5f0d47fecd", "type": "electric_scooter", "is_reserved": 0, "lon": -77.04556116666667}, {"fusion_lat": 0.0, "name": "c3527ce2e9ba078efd69416496a06328", "is_disabled": 0, "rental_uris": {"android": "https://dc.lft.to/lastmile_qr_scan", "ios": "https://dc.lft.to/lastmile_qr_scan"}, "fusion_lon": 0.0, "lat": 38.900317333333334, "bike_id": "c3527ce2e9ba078efd69416496a06328", "type": "electric_scooter", "is_reserved": 0, "lon": -77.00199166666667}, {"fusion_lat": 0.0, "name": "d7014825d4116dc9e6ffe18043f2fc8d", "is_disabled": 0, "rental_uris": {"android": "https://dc.lft.to/lastmile_qr_scan", "ios": "https://dc.lft.to/lastmile_qr_scan"}, "fusion_lon": 0.0, "lat": 38.92418283333333, "bike_id": "d7014825d4116dc9e6ffe18043f2fc8d", "type": "electric_scooter", "is_reserved": 0, "lon": -77.02009816666667}, {"fusion_lat": 0.0, "name": "5b2a31955d176b94d7d1139ee012ef0c", "is_disabled": 0, "rental_uris": {"android": "https://dc.lft.to/lastmile_qr_scan", "ios": "https://dc.lft.to/lastmile_qr_scan"}, "fusion_lon": 0.0, "lat": 38.942939833333334, "bike_id": "5b2a31955d176b94d7d1139ee012ef0c", "type": "electric_scooter", "is_reserved": 0, "lon": -77.02171283333334}, {"fusion_lat": 0.0, "name": "e4098d7ae9ba44b89eedf240a29d6ec4", "is_disabled": 0, "rental_uris": {"android": "https://dc.lft.to/lastmile_qr_scan", "ios": "https://dc.lft.to/lastmile_qr_scan"}, "fusion_lon": 0.0, "lat": 38.90501233333333, "bike_id": "e4098d7ae9ba44b89eedf240a29d6ec4", "type": "electric_scooter", "is_reserved": 0, "lon": -76.979562}, {"fusion_lat": 0.0, "name": "037bb25de241a2ca719d6e435bf6f63b", "is_disabled": 0, "rental_uris": {"android": "https://dc.lft.to/lastmile_qr_scan", "ios": "https://dc.lft.to/lastmile_qr_scan"}, "fusion_lon": 0.0, "lat": 38.900385666666665, "bike_id": "037bb25de241a2ca719d6e435bf6f63b", "type": "electric_scooter", "is_reserved": 0, "lon": -76.99257266666666}, {"fusion_lat": 0.0, "name": "0aba204b4c7de747dc675057eee87226", "is_disabled": 0, "rental_uris": {"android": "https://dc.lft.to/lastmile_qr_scan", "ios": "https://dc.lft.to/lastmile_qr_scan"}, "fusion_lon": 0.0, "lat": 38.91177233333333, "bike_id": "0aba204b4c7de747dc675057eee87226", "type": "electric_scooter", "is_reserved": 0, "lon": -77.06864266666666}, {"fusion_lat": 0.0, "name": "e694f197f2ef6e9616acd596b6c7b703", "is_disabled": 0, "rental_uris": {"android": "https://dc.lft.to/lastmile_qr_scan", "ios": "https://dc.lft.to/lastmile_qr_scan"}, "fusion_lon": 0.0, "lat": 38.926624, "bike_id": "e694f197f2ef6e9616acd596b6c7b703", "type": "electric_scooter", "is_reserved": 0, "lon": -77.024273}, {"fusion_lat": 0.0, "name": "a857948d8843bf37fc60b710218446a4", "is_disabled": 0, "rental_uris": {"android": "https://dc.lft.to/lastmile_qr_scan", "ios": "https://dc.lft.to/lastmile_qr_scan"}, "fusion_lon": 0.0, "lat": 38.908112, "bike_id": "a857948d8843bf37fc60b710218446a4", "type": "electric_scooter", "is_reserved": 0, "lon": -77.03421916666667}, {"fusion_lat": 0.0, "name": "b760d7b0c15c815f3a75a0fbbd0b2979", "is_disabled": 0, "rental_uris": {"android": "https://dc.lft.to/lastmile_qr_scan", "ios": "https://dc.lft.to/lastmile_qr_scan"}, "fusion_lon": 0.0, "lat": 38.898998166666665, "bike_id": "b760d7b0c15c815f3a75a0fbbd0b2979", "type": "electric_scooter", "is_reserved": 0, "lon": -76.97614883333334}, {"fusion_lat": 0.0, "name": "bceed5d9ff138271f67ca1f785067cc1", "is_disabled": 0, "rental_uris": {"android": "https://dc.lft.to/lastmile_qr_scan", "ios": "https://dc.lft.to/lastmile_qr_scan"}, "fusion_lon": 0.0, "lat": 38.93730166666667, "bike_id": "bceed5d9ff138271f67ca1f785067cc1", "type": "electric_scooter", "is_reserved": 0, "lon": -77.01920766666667}, {"fusion_lat": 0.0, "name": "c7f49107b5b722974ea46709fdf011eb", "is_disabled": 0, "rental_uris": {"android": "https://dc.lft.to/lastmile_qr_scan", "ios": "https://dc.lft.to/lastmile_qr_scan"}, "fusion_lon": 0.0, "lat": 38.9352005, "bike_id": "c7f49107b5b722974ea46709fdf011eb", "type": "electric_scooter", "is_reserved": 0, "lon": -77.07292283333334}, {"fusion_lat": 0.0, "name": "a97cceb657129bb81924a2f283911b17", "is_disabled": 0, "rental_uris": {"android": "https://dc.lft.to/lastmile_qr_scan", "ios": "https://dc.lft.to/lastmile_qr_scan"}, "fusion_lon": 0.0, "lat": 38.9225685, "bike_id": "a97cceb657129bb81924a2f283911b17", "type": "electric_scooter", "is_reserved": 0, "lon": -77.01843833333334}, {"fusion_lat": 0.0, "name": "150cbed2873746e5bca88de494a99cb1", "is_disabled": 0, "rental_uris": {"android": "https://dc.lft.to/lastmile_qr_scan", "ios": "https://dc.lft.to/lastmile_qr_scan"}, "fusion_lon": 0.0, "lat": 38.861397, "bike_id": "150cbed2873746e5bca88de494a99cb1", "type": "electric_bike", "is_reserved": 0, "lon": -76.97171783333333}, {"fusion_lat": 0.0, "name": "e3ac9076c0ed1b5bb2929d8ab739763e", "is_disabled": 0, "rental_uris": {"android": "https://dc.lft.to/lastmile_qr_scan", "ios": "https://dc.lft.to/lastmile_qr_scan"}, "fusion_lon": 0.0, "lat": 38.902541666666664, "bike_id": "e3ac9076c0ed1b5bb2929d8ab739763e", "type": "electric_bike", "is_reserved": 0, "lon": -77.037451}, {"fusion_lat": 0.0, "name": "e668decc5843772a04582e286dfbfcac", "is_disabled": 0, "rental_uris": {"android": "https://dc.lft.to/lastmile_qr_scan", "ios": "https://dc.lft.to/lastmile_qr_scan"}, "fusion_lon": 0.0, "lat": 38.892320833333336, "bike_id": "e668decc5843772a04582e286dfbfcac", "type": "electric_scooter", "is_reserved": 0, "lon": -77.01711883333333}, {"fusion_lat": 0.0, "name": "65189d955b0a30cc909fdcb1ec0befff", "is_disabled": 0, "rental_uris": {"android": "https://dc.lft.to/lastmile_qr_scan", "ios": "https://dc.lft.to/lastmile_qr_scan"}, "fusion_lon": 0.0, "lat": 38.89639283333333, "bike_id": "65189d955b0a30cc909fdcb1ec0befff", "type": "electric_scooter", "is_reserved": 0, "lon": -77.00917866666667}, {"fusion_lat": 0.0, "name": "61043873162de17471027cd07858c32d", "is_disabled": 0, "rental_uris": {"android": "https://dc.lft.to/lastmile_qr_scan", "ios": "https://dc.lft.to/lastmile_qr_scan"}, "fusion_lon": 0.0, "lat": 38.8546365, "bike_id": "61043873162de17471027cd07858c32d", "type": "electric_scooter", "is_reserved": 0, "lon": -76.97225533333334}, {"fusion_lat": 0.0, "name": "80f67ff6cbe0ca6fdf78535bd0694dba", "is_disabled": 0, "rental_uris": {"android": "https://dc.lft.to/lastmile_qr_scan", "ios": "https://dc.lft.to/lastmile_qr_scan"}, "fusion_lon": 0.0, "lat": 38.90975183333333, "bike_id": "80f67ff6cbe0ca6fdf78535bd0694dba", "type": "electric_scooter", "is_reserved": 0, "lon": -77.00895433333334}, {"fusion_lat": 0.0, "name": "1bd729ff70b73ba824932b0e225d4a14", "is_disabled": 0, "rental_uris": {"android": "https://dc.lft.to/lastmile_qr_scan", "ios": "https://dc.lft.to/lastmile_qr_scan"}, "fusion_lon": 0.0, "lat": 38.88483866666667, "bike_id": "1bd729ff70b73ba824932b0e225d4a14", "type": "electric_scooter", "is_reserved": 0, "lon": -76.99594733333333}, {"fusion_lat": 0.0, "name": "c9a8096c021edf7ef4cdabeba05f19f8", "is_disabled": 0, "rental_uris": {"android": "https://dc.lft.to/lastmile_qr_scan", "ios": "https://dc.lft.to/lastmile_qr_scan"}, "fusion_lon": 0.0, "lat": 38.9636575, "bike_id": "c9a8096c021edf7ef4cdabeba05f19f8", "type": "electric_scooter", "is_reserved": 0, "lon": -77.02051416666667}, {"fusion_lat": 0.0, "name": "35fca3964122f064a85505cf20401023", "is_disabled": 0, "rental_uris": {"android": "https://dc.lft.to/lastmile_qr_scan", "ios": "https://dc.lft.to/lastmile_qr_scan"}, "fusion_lon": 0.0, "lat": 38.92851233333333, "bike_id": "35fca3964122f064a85505cf20401023", "type": "electric_scooter", "is_reserved": 0, "lon": -77.02440133333333}, {"fusion_lat": 0.0, "name": "c95c6288481015f81e268b3b81158d31", "is_disabled": 0, "rental_uris": {"android": "https://dc.lft.to/lastmile_qr_scan", "ios": "https://dc.lft.to/lastmile_qr_scan"}, "fusion_lon": 0.0, "lat": 38.92131916666666, "bike_id": "c95c6288481015f81e268b3b81158d31", "type": "electric_scooter", "is_reserved": 0, "lon": -77.00958916666667}, {"fusion_lat": 0.0, "name": "1eb1364ae0b58f3a4d31c55283d7374d", "is_disabled": 0, "rental_uris": {"android": "https://dc.lft.to/lastmile_qr_scan", "ios": "https://dc.lft.to/lastmile_qr_scan"}, "fusion_lon": 0.0, "lat": 38.887731, "bike_id": "1eb1364ae0b58f3a4d31c55283d7374d", "type": "electric_scooter", "is_reserved": 0, "lon": -76.9775235}, {"fusion_lat": 0.0, "name": "0a9b9748f8cfd062b146c2a19e073766", "is_disabled": 0, "rental_uris": {"android": "https://dc.lft.to/lastmile_qr_scan", "ios": "https://dc.lft.to/lastmile_qr_scan"}, "fusion_lon": 0.0, "lat": 38.873759666666665, "bike_id": "0a9b9748f8cfd062b146c2a19e073766", "type": "electric_scooter", "is_reserved": 0, "lon": -77.00085983333334}, {"fusion_lat": 0.0, "name": "b7d399ab2aff2c640bcf15c44a7ac529", "is_disabled": 0, "rental_uris": {"android": "https://dc.lft.to/lastmile_qr_scan", "ios": "https://dc.lft.to/lastmile_qr_scan"}, "fusion_lon": 0.0, "lat": 38.87702266666667, "bike_id": "b7d399ab2aff2c640bcf15c44a7ac529", "type": "electric_scooter", "is_reserved": 0, "lon": -77.01776383333333}, {"fusion_lat": 0.0, "name": "a4e12cf61eb2533c2474db552fc1af52", "is_disabled": 0, "rental_uris": {"android": "https://dc.lft.to/lastmile_qr_scan", "ios": "https://dc.lft.to/lastmile_qr_scan"}, "fusion_lon": 0.0, "lat": 38.9171935, "bike_id": "a4e12cf61eb2533c2474db552fc1af52", "type": "electric_scooter", "is_reserved": 0, "lon": -77.03233483333334}, {"fusion_lat": 0.0, "name": "65e549778fa9bf7420c8520a65eab031", "is_disabled": 0, "rental_uris": {"android": "https://dc.lft.to/lastmile_qr_scan", "ios": "https://dc.lft.to/lastmile_qr_scan"}, "fusion_lon": 0.0, "lat": 38.916612, "bike_id": "65e549778fa9bf7420c8520a65eab031", "type": "electric_scooter", "is_reserved": 0, "lon": -77.03856933333333}, {"fusion_lat": 0.0, "name": "51a1afdbacf711ab89b9ce06215a196c", "is_disabled": 0, "rental_uris": {"android": "https://dc.lft.to/lastmile_qr_scan", "ios": "https://dc.lft.to/lastmile_qr_scan"}, "fusion_lon": 0.0, "lat": 38.886132333333336, "bike_id": "51a1afdbacf711ab89b9ce06215a196c", "type": "electric_scooter", "is_reserved": 0, "lon": -77.01556666666667}, {"fusion_lat": 0.0, "name": "f7bd16a27134fe16b4ae550351622923", "is_disabled": 0, "rental_uris": {"android": "https://dc.lft.to/lastmile_qr_scan", "ios": "https://dc.lft.to/lastmile_qr_scan"}, "fusion_lon": 0.0, "lat": 38.91332883333333, "bike_id": "f7bd16a27134fe16b4ae550351622923", "type": "electric_scooter", "is_reserved": 0, "lon": -77.03189216666667}, {"fusion_lat": 0.0, "name": "0455eb81266ff4be05e4aba14dcecb40", "is_disabled": 0, "rental_uris": {"android": "https://dc.lft.to/lastmile_qr_scan", "ios": "https://dc.lft.to/lastmile_qr_scan"}, "fusion_lon": 0.0, "lat": 38.967315166666666, "bike_id": "0455eb81266ff4be05e4aba14dcecb40", "type": "electric_scooter", "is_reserved": 0, "lon": -77.00920166666667}, {"fusion_lat": 0.0, "name": "0ae27d7689df909190a66cdc5338c06f", "is_disabled": 0, "rental_uris": {"android": "https://dc.lft.to/lastmile_qr_scan", "ios": "https://dc.lft.to/lastmile_qr_scan"}, "fusion_lon": 0.0, "lat": 38.95247033333333, "bike_id": "0ae27d7689df909190a66cdc5338c06f", "type": "electric_scooter", "is_reserved": 0, "lon": -77.02377983333334}, {"fusion_lat": 0.0, "name": "5df1bdc0ee44e3874540453e5941b1ff", "is_disabled": 0, "rental_uris": {"android": "https://dc.lft.to/lastmile_qr_scan", "ios": "https://dc.lft.to/lastmile_qr_scan"}, "fusion_lon": 0.0, "lat": 38.919185166666665, "bike_id": "5df1bdc0ee44e3874540453e5941b1ff", "type": "electric_scooter", "is_reserved": 0, "lon": -77.02619783333333}, {"fusion_lat": 0.0, "name": "f55fbfbb3fa2d9b49a71255942ff76dd", "is_disabled": 0, "rental_uris": {"android": "https://dc.lft.to/lastmile_qr_scan", "ios": "https://dc.lft.to/lastmile_qr_scan"}, "fusion_lon": 0.0, "lat": 38.8934835, "bike_id": "f55fbfbb3fa2d9b49a71255942ff76dd", "type": "electric_scooter", "is_reserved": 0, "lon": -77.00072433333334}, {"fusion_lat": 0.0, "name": "8de8aa9d409d59ba6bbd9122545bf13d", "is_disabled": 0, "rental_uris": {"android": "https://dc.lft.to/lastmile_qr_scan", "ios": "https://dc.lft.to/lastmile_qr_scan"}, "fusion_lon": 0.0, "lat": 38.9055835, "bike_id": "8de8aa9d409d59ba6bbd9122545bf13d", "type": "electric_scooter", "is_reserved": 0, "lon": -77.04280066666666}, {"fusion_lat": 0.0, "name": "4ad17d33084f436a8c26b5d41d0212ba", "is_disabled": 0, "rental_uris": {"android": "https://dc.lft.to/lastmile_qr_scan", "ios": "https://dc.lft.to/lastmile_qr_scan"}, "fusion_lon": 0.0, "lat": 38.924570333333335, "bike_id": "4ad17d33084f436a8c26b5d41d0212ba", "type": "electric_scooter", "is_reserved": 0, "lon": -77.08024983333334}, {"fusion_lat": 0.0, "name": "255d0493227a915e67133bb19d0554e3", "is_disabled": 0, "rental_uris": {"android": "https://dc.lft.to/lastmile_qr_scan", "ios": "https://dc.lft.to/lastmile_qr_scan"}, "fusion_lon": 0.0, "lat": 38.89257833333333, "bike_id": "255d0493227a915e67133bb19d0554e3", "type": "electric_bike", "is_reserved": 0, "lon": -76.95119116666666}, {"fusion_lat": 0.0, "name": "e6d500aba5787b53b39304f3cae10ece", "is_disabled": 0, "rental_uris": {"android": "https://dc.lft.to/lastmile_qr_scan", "ios": "https://dc.lft.to/lastmile_qr_scan"}, "fusion_lon": 0.0, "lat": 38.896131, "bike_id": "e6d500aba5787b53b39304f3cae10ece", "type": "electric_scooter", "is_reserved": 0, "lon": -77.026667}, {"fusion_lat": 0.0, "name": "7b6e070b198531a2216c436bd9596c6f", "is_disabled": 0, "rental_uris": {"android": "https://dc.lft.to/lastmile_qr_scan", "ios": "https://dc.lft.to/lastmile_qr_scan"}, "fusion_lon": 0.0, "lat": 38.88326966666666, "bike_id": "7b6e070b198531a2216c436bd9596c6f", "type": "electric_scooter", "is_reserved": 0, "lon": -77.0183115}, {"fusion_lat": 0.0, "name": "b1089191b1a2de8fbab5868e9775554d", "is_disabled": 0, "rental_uris": {"android": "https://dc.lft.to/lastmile_qr_scan", "ios": "https://dc.lft.to/lastmile_qr_scan"}, "fusion_lon": 0.0, "lat": 38.918153833333335, "bike_id": "b1089191b1a2de8fbab5868e9775554d", "type": "electric_scooter", "is_reserved": 0, "lon": -77.024735}, {"fusion_lat": 0.0, "name": "d7f20a48090cac5192a9ca54cf0c34f8", "is_disabled": 0, "rental_uris": {"android": "https://dc.lft.to/lastmile_qr_scan", "ios": "https://dc.lft.to/lastmile_qr_scan"}, "fusion_lon": 0.0, "lat": 38.892292833333336, "bike_id": "d7f20a48090cac5192a9ca54cf0c34f8", "type": "electric_scooter", "is_reserved": 0, "lon": -77.05001733333333}, {"fusion_lat": 0.0, "name": "9267bfae8248ae6d41750712974703c2", "is_disabled": 0, "rental_uris": {"android": "https://dc.lft.to/lastmile_qr_scan", "ios": "https://dc.lft.to/lastmile_qr_scan"}, "fusion_lon": 0.0, "lat": 38.942145333333336, "bike_id": "9267bfae8248ae6d41750712974703c2", "type": "electric_scooter", "is_reserved": 0, "lon": -77.0249815}, {"fusion_lat": 0.0, "name": "658b69ec0673330a84221853e3802bf2", "is_disabled": 0, "rental_uris": {"android": "https://dc.lft.to/lastmile_qr_scan", "ios": "https://dc.lft.to/lastmile_qr_scan"}, "fusion_lon": 0.0, "lat": 38.932886833333335, "bike_id": "658b69ec0673330a84221853e3802bf2", "type": "electric_scooter", "is_reserved": 0, "lon": -77.0235405}, {"fusion_lat": 0.0, "name": "e1e0ceda86da1ef2d13457bb03f71eae", "is_disabled": 0, "rental_uris": {"android": "https://dc.lft.to/lastmile_qr_scan", "ios": "https://dc.lft.to/lastmile_qr_scan"}, "fusion_lon": 0.0, "lat": 38.88656433333333, "bike_id": "e1e0ceda86da1ef2d13457bb03f71eae", "type": "electric_scooter", "is_reserved": 0, "lon": -77.03387633333334}, {"fusion_lat": 0.0, "name": "89354ca041b75a05ed3f677a19659756", "is_disabled": 0, "rental_uris": {"android": "https://dc.lft.to/lastmile_qr_scan", "ios": "https://dc.lft.to/lastmile_qr_scan"}, "fusion_lon": 0.0, "lat": 38.915996666666665, "bike_id": "89354ca041b75a05ed3f677a19659756", "type": "electric_scooter", "is_reserved": 0, "lon": -77.02212233333333}, {"fusion_lat": 0.0, "name": "82be226746d4e764bf52a3dedd0de073", "is_disabled": 0, "rental_uris": {"android": "https://dc.lft.to/lastmile_qr_scan", "ios": "https://dc.lft.to/lastmile_qr_scan"}, "fusion_lon": 0.0, "lat": 38.879407666666665, "bike_id": "82be226746d4e764bf52a3dedd0de073", "type": "electric_scooter", "is_reserved": 0, "lon": -77.00923983333334}, {"fusion_lat": 0.0, "name": "1c0fa67c13cf4d1464dbf9f4111f8d80", "is_disabled": 0, "rental_uris": {"android": "https://dc.lft.to/lastmile_qr_scan", "ios": "https://dc.lft.to/lastmile_qr_scan"}, "fusion_lon": 0.0, "lat": 38.87799366666667, "bike_id": "1c0fa67c13cf4d1464dbf9f4111f8d80", "type": "electric_scooter", "is_reserved": 0, "lon": -77.00127}, {"fusion_lat": 0.0, "name": "e6e2df5af961afd3238821936badcdac", "is_disabled": 0, "rental_uris": {"android": "https://dc.lft.to/lastmile_qr_scan", "ios": "https://dc.lft.to/lastmile_qr_scan"}, "fusion_lon": 0.0, "lat": 38.89749233333333, "bike_id": "e6e2df5af961afd3238821936badcdac", "type": "electric_scooter", "is_reserved": 0, "lon": -77.04431833333334}, {"fusion_lat": 0.0, "name": "0bce5c840ac06612f4afe2ab61a0cbcd", "is_disabled": 0, "rental_uris": {"android": "https://dc.lft.to/lastmile_qr_scan", "ios": "https://dc.lft.to/lastmile_qr_scan"}, "fusion_lon": 0.0, "lat": 38.90126566666667, "bike_id": "0bce5c840ac06612f4afe2ab61a0cbcd", "type": "electric_scooter", "is_reserved": 0, "lon": -77.03925083333333}, {"fusion_lat": 0.0, "name": "ec8a2881e4497960ca216adf593a66d5", "is_disabled": 0, "rental_uris": {"android": "https://dc.lft.to/lastmile_qr_scan", "ios": "https://dc.lft.to/lastmile_qr_scan"}, "fusion_lon": 0.0, "lat": 38.93741983333334, "bike_id": "ec8a2881e4497960ca216adf593a66d5", "type": "electric_bike", "is_reserved": 0, "lon": -76.97228283333334}, {"fusion_lat": 0.0, "name": "10e45d1996e5f2b64c75ae20ca298eb4", "is_disabled": 0, "rental_uris": {"android": "https://dc.lft.to/lastmile_qr_scan", "ios": "https://dc.lft.to/lastmile_qr_scan"}, "fusion_lon": 0.0, "lat": 38.884266333333336, "bike_id": "10e45d1996e5f2b64c75ae20ca298eb4", "type": "electric_bike", "is_reserved": 0, "lon": -76.95409866666667}, {"fusion_lat": 0.0, "name": "b96e1a8f98715d3b860533d0547cc0b5", "is_disabled": 0, "rental_uris": {"android": "https://dc.lft.to/lastmile_qr_scan", "ios": "https://dc.lft.to/lastmile_qr_scan"}, "fusion_lon": 0.0, "lat": 38.8870995, "bike_id": "b96e1a8f98715d3b860533d0547cc0b5", "type": "electric_scooter", "is_reserved": 0, "lon": -76.996738}, {"fusion_lat": 0.0, "name": "cfd7091815110a20a4a82ba3277fdd81", "is_disabled": 0, "rental_uris": {"android": "https://dc.lft.to/lastmile_qr_scan", "ios": "https://dc.lft.to/lastmile_qr_scan"}, "fusion_lon": 0.0, "lat": 38.8922975, "bike_id": "cfd7091815110a20a4a82ba3277fdd81", "type": "electric_scooter", "is_reserved": 0, "lon": -77.028251}, {"fusion_lat": 0.0, "name": "200ad4de961790044cdeeea333365f0d", "is_disabled": 0, "rental_uris": {"android": "https://dc.lft.to/lastmile_qr_scan", "ios": "https://dc.lft.to/lastmile_qr_scan"}, "fusion_lon": 0.0, "lat": 38.9058675, "bike_id": "200ad4de961790044cdeeea333365f0d", "type": "electric_scooter", "is_reserved": 0, "lon": -77.04431416666667}, {"fusion_lat": 0.0, "name": "fcaf2537ec70a3b27548c1066b9df8b0", "is_disabled": 0, "rental_uris": {"android": "https://dc.lft.to/lastmile_qr_scan", "ios": "https://dc.lft.to/lastmile_qr_scan"}, "fusion_lon": 0.0, "lat": 38.9169565, "bike_id": "fcaf2537ec70a3b27548c1066b9df8b0", "type": "electric_scooter", "is_reserved": 0, "lon": -77.037488}, {"fusion_lat": 0.0, "name": "a3fe5c90589def9738b3cc213eb7821a", "is_disabled": 0, "rental_uris": {"android": "https://dc.lft.to/lastmile_qr_scan", "ios": "https://dc.lft.to/lastmile_qr_scan"}, "fusion_lon": 0.0, "lat": 38.97345, "bike_id": "a3fe5c90589def9738b3cc213eb7821a", "type": "electric_bike", "is_reserved": 0, "lon": -77.01800166666666}, {"fusion_lat": 0.0, "name": "d18dfcf1c834dd3502a072614bd2fbe9", "is_disabled": 0, "rental_uris": {"android": "https://dc.lft.to/lastmile_qr_scan", "ios": "https://dc.lft.to/lastmile_qr_scan"}, "fusion_lon": 0.0, "lat": 38.926820166666666, "bike_id": "d18dfcf1c834dd3502a072614bd2fbe9", "type": "electric_scooter", "is_reserved": 0, "lon": -77.02796383333333}, {"fusion_lat": 0.0, "name": "4cab97c12ca0cbd9b04a6afaa238eaed", "is_disabled": 0, "rental_uris": {"android": "https://dc.lft.to/lastmile_qr_scan", "ios": "https://dc.lft.to/lastmile_qr_scan"}, "fusion_lon": 0.0, "lat": 38.90683766666667, "bike_id": "4cab97c12ca0cbd9b04a6afaa238eaed", "type": "electric_bike", "is_reserved": 0, "lon": -76.944942}, {"fusion_lat": 0.0, "name": "6fc20cd9fddce03ab69b5e408c2b96cc", "is_disabled": 0, "rental_uris": {"android": "https://dc.lft.to/lastmile_qr_scan", "ios": "https://dc.lft.to/lastmile_qr_scan"}, "fusion_lon": 0.0, "lat": 38.911183666666666, "bike_id": "6fc20cd9fddce03ab69b5e408c2b96cc", "type": "electric_scooter", "is_reserved": 0, "lon": -77.00436183333333}, {"fusion_lat": 0.0, "name": "cd9e7f27d65f1b86fc669743408776c0", "is_disabled": 0, "rental_uris": {"android": "https://dc.lft.to/lastmile_qr_scan", "ios": "https://dc.lft.to/lastmile_qr_scan"}, "fusion_lon": 0.0, "lat": 38.984622333333334, "bike_id": "cd9e7f27d65f1b86fc669743408776c0", "type": "electric_bike", "is_reserved": 0, "lon": -76.970544}, {"fusion_lat": 0.0, "name": "3531553e92accf7c69c767e35f52b3bb", "is_disabled": 0, "rental_uris": {"android": "https://dc.lft.to/lastmile_qr_scan", "ios": "https://dc.lft.to/lastmile_qr_scan"}, "fusion_lon": 0.0, "lat": 38.887708333333336, "bike_id": "3531553e92accf7c69c767e35f52b3bb", "type": "electric_scooter", "is_reserved": 0, "lon": -76.97747916666667}, {"fusion_lat": 0.0, "name": "87ce01fc2bf617743adcc70bdd4d7430", "is_disabled": 0, "rental_uris": {"android": "https://dc.lft.to/lastmile_qr_scan", "ios": "https://dc.lft.to/lastmile_qr_scan"}, "fusion_lon": 0.0, "lat": 38.901504, "bike_id": "87ce01fc2bf617743adcc70bdd4d7430", "type": "electric_scooter", "is_reserved": 0, "lon": -76.93071116666667}, {"fusion_lat": 0.0, "name": "7be8c517c6ea42b7cacd9870215c243d", "is_disabled": 0, "rental_uris": {"android": "https://dc.lft.to/lastmile_qr_scan", "ios": "https://dc.lft.to/lastmile_qr_scan"}, "fusion_lon": 0.0, "lat": 38.909591166666665, "bike_id": "7be8c517c6ea42b7cacd9870215c243d", "type": "electric_scooter", "is_reserved": 0, "lon": -77.0051135}, {"fusion_lat": 0.0, "name": "bda78a17578bb57a5a82bdf69e4b9f85", "is_disabled": 0, "rental_uris": {"android": "https://dc.lft.to/lastmile_qr_scan", "ios": "https://dc.lft.to/lastmile_qr_scan"}, "fusion_lon": 0.0, "lat": 38.9109745, "bike_id": "bda78a17578bb57a5a82bdf69e4b9f85", "type": "electric_scooter", "is_reserved": 0, "lon": -77.00961883333333}, {"fusion_lat": 0.0, "name": "152733e0b4a8b6ff7103f94c6b339fb1", "is_disabled": 0, "rental_uris": {"android": "https://dc.lft.to/lastmile_qr_scan", "ios": "https://dc.lft.to/lastmile_qr_scan"}, "fusion_lon": 0.0, "lat": 38.926088666666665, "bike_id": "152733e0b4a8b6ff7103f94c6b339fb1", "type": "electric_scooter", "is_reserved": 0, "lon": -77.02166483333333}, {"fusion_lat": 0.0, "name": "5db46fd144fdad9ddc6adddc710b6bbc", "is_disabled": 0, "rental_uris": {"android": "https://dc.lft.to/lastmile_qr_scan", "ios": "https://dc.lft.to/lastmile_qr_scan"}, "fusion_lon": 0.0, "lat": 38.876316, "bike_id": "5db46fd144fdad9ddc6adddc710b6bbc", "type": "electric_scooter", "is_reserved": 0, "lon": -77.00949266666667}, {"fusion_lat": 0.0, "name": "708425b6b77426d156752f41224ff74a", "is_disabled": 0, "rental_uris": {"android": "https://dc.lft.to/lastmile_qr_scan", "ios": "https://dc.lft.to/lastmile_qr_scan"}, "fusion_lon": 0.0, "lat": 38.918101666666665, "bike_id": "708425b6b77426d156752f41224ff74a", "type": "electric_scooter", "is_reserved": 0, "lon": -77.03337683333334}, {"fusion_lat": 0.0, "name": "1f9d49149c75574476a69101a782fdba", "is_disabled": 0, "rental_uris": {"android": "https://dc.lft.to/lastmile_qr_scan", "ios": "https://dc.lft.to/lastmile_qr_scan"}, "fusion_lon": 0.0, "lat": 38.919095166666665, "bike_id": "1f9d49149c75574476a69101a782fdba", "type": "electric_scooter", "is_reserved": 0, "lon": -77.01224566666667}, {"fusion_lat": 0.0, "name": "cd8e8afdd269bcd4aee20f13443a45e8", "is_disabled": 0, "rental_uris": {"android": "https://dc.lft.to/lastmile_qr_scan", "ios": "https://dc.lft.to/lastmile_qr_scan"}, "fusion_lon": 0.0, "lat": 38.92617383333334, "bike_id": "cd8e8afdd269bcd4aee20f13443a45e8", "type": "electric_scooter", "is_reserved": 0, "lon": -77.02217283333333}, {"fusion_lat": 0.0, "name": "3b4cb0ffe887c946efa10cecf9f41700", "is_disabled": 0, "rental_uris": {"android": "https://dc.lft.to/lastmile_qr_scan", "ios": "https://dc.lft.to/lastmile_qr_scan"}, "fusion_lon": 0.0, "lat": 38.94017183333333, "bike_id": "3b4cb0ffe887c946efa10cecf9f41700", "type": "electric_scooter", "is_reserved": 0, "lon": -77.02772683333333}, {"fusion_lat": 0.0, "name": "8254807b1331d827b5c08590941a705d", "is_disabled": 0, "rental_uris": {"android": "https://dc.lft.to/lastmile_qr_scan", "ios": "https://dc.lft.to/lastmile_qr_scan"}, "fusion_lon": 0.0, "lat": 38.91932583333333, "bike_id": "8254807b1331d827b5c08590941a705d", "type": "electric_scooter", "is_reserved": 0, "lon": -77.0249305}, {"fusion_lat": 0.0, "name": "ca304d7ab5b013cc235e80f15380475e", "is_disabled": 0, "rental_uris": {"android": "https://dc.lft.to/lastmile_qr_scan", "ios": "https://dc.lft.to/lastmile_qr_scan"}, "fusion_lon": 0.0, "lat": 38.90029633333333, "bike_id": "ca304d7ab5b013cc235e80f15380475e", "type": "electric_scooter", "is_reserved": 0, "lon": -76.98851766666667}, {"fusion_lat": 0.0, "name": "9bfac4a41bce0ebbf63b11377198373b", "is_disabled": 0, "rental_uris": {"android": "https://dc.lft.to/lastmile_qr_scan", "ios": "https://dc.lft.to/lastmile_qr_scan"}, "fusion_lon": 0.0, "lat": 38.908321666666666, "bike_id": "9bfac4a41bce0ebbf63b11377198373b", "type": "electric_scooter", "is_reserved": 0, "lon": -77.0239835}, {"fusion_lat": 0.0, "name": "f12148f94a4b1833c2c9ee5de93a4c81", "is_disabled": 0, "rental_uris": {"android": "https://dc.lft.to/lastmile_qr_scan", "ios": "https://dc.lft.to/lastmile_qr_scan"}, "fusion_lon": 0.0, "lat": 38.9680155, "bike_id": "f12148f94a4b1833c2c9ee5de93a4c81", "type": "electric_bike", "is_reserved": 0, "lon": -76.95525116666667}, {"fusion_lat": 0.0, "name": "5e5b758509df0f1fa032520f5e4c9f58", "is_disabled": 0, "rental_uris": {"android": "https://dc.lft.to/lastmile_qr_scan", "ios": "https://dc.lft.to/lastmile_qr_scan"}, "fusion_lon": 0.0, "lat": 38.93583366666667, "bike_id": "5e5b758509df0f1fa032520f5e4c9f58", "type": "electric_scooter", "is_reserved": 0, "lon": -77.02444716666666}, {"fusion_lat": 0.0, "name": "c265295449dd720ca864f4e47dcce6df", "is_disabled": 0, "rental_uris": {"android": "https://dc.lft.to/lastmile_qr_scan", "ios": "https://dc.lft.to/lastmile_qr_scan"}, "fusion_lon": 0.0, "lat": 38.90049616666667, "bike_id": "c265295449dd720ca864f4e47dcce6df", "type": "electric_scooter", "is_reserved": 0, "lon": -77.05630083333334}, {"fusion_lat": 0.0, "name": "0a6e17403981c39583cb813b45d9abf0", "is_disabled": 0, "rental_uris": {"android": "https://dc.lft.to/lastmile_qr_scan", "ios": "https://dc.lft.to/lastmile_qr_scan"}, "fusion_lon": 0.0, "lat": 38.907321333333336, "bike_id": "0a6e17403981c39583cb813b45d9abf0", "type": "electric_scooter", "is_reserved": 0, "lon": -77.063273}, {"fusion_lat": 0.0, "name": "36358de5d53d79da7e65307fa6501862", "is_disabled": 0, "rental_uris": {"android": "https://dc.lft.to/lastmile_qr_scan", "ios": "https://dc.lft.to/lastmile_qr_scan"}, "fusion_lon": 0.0, "lat": 38.900347, "bike_id": "36358de5d53d79da7e65307fa6501862", "type": "electric_scooter", "is_reserved": 0, "lon": -77.05823666666667}, {"fusion_lat": 0.0, "name": "7340cec47baf3c6155afb1b2e11dd30f", "is_disabled": 0, "rental_uris": {"android": "https://dc.lft.to/lastmile_qr_scan", "ios": "https://dc.lft.to/lastmile_qr_scan"}, "fusion_lon": 0.0, "lat": 38.9290625, "bike_id": "7340cec47baf3c6155afb1b2e11dd30f", "type": "electric_scooter", "is_reserved": 0, "lon": -77.032795}, {"fusion_lat": 0.0, "name": "3c6e3778e9d0a6f2016198ca944598e6", "is_disabled": 0, "rental_uris": {"android": "https://dc.lft.to/lastmile_qr_scan", "ios": "https://dc.lft.to/lastmile_qr_scan"}, "fusion_lon": 0.0, "lat": 38.91903033333333, "bike_id": "3c6e3778e9d0a6f2016198ca944598e6", "type": "electric_scooter", "is_reserved": 0, "lon": -77.0275655}, {"fusion_lat": 0.0, "name": "f7e32dc5480be91ed07d9c90607cd5df", "is_disabled": 0, "rental_uris": {"android": "https://dc.lft.to/lastmile_qr_scan", "ios": "https://dc.lft.to/lastmile_qr_scan"}, "fusion_lon": 0.0, "lat": 38.9176195, "bike_id": "f7e32dc5480be91ed07d9c90607cd5df", "type": "electric_scooter", "is_reserved": 0, "lon": -77.02704116666666}, {"fusion_lat": 0.0, "name": "1f1e74aa75138b449bd9b1d32b86b0b6", "is_disabled": 0, "rental_uris": {"android": "https://dc.lft.to/lastmile_qr_scan", "ios": "https://dc.lft.to/lastmile_qr_scan"}, "fusion_lon": 0.0, "lat": 38.89840016666667, "bike_id": "1f1e74aa75138b449bd9b1d32b86b0b6", "type": "electric_scooter", "is_reserved": 0, "lon": -77.02221916666667}, {"fusion_lat": 0.0, "name": "21d0d0cbab9c435ac8796ab2064e53b7", "is_disabled": 0, "rental_uris": {"android": "https://dc.lft.to/lastmile_qr_scan", "ios": "https://dc.lft.to/lastmile_qr_scan"}, "fusion_lon": 0.0, "lat": 38.794684833333335, "bike_id": "21d0d0cbab9c435ac8796ab2064e53b7", "type": "electric_bike", "is_reserved": 0, "lon": -76.9924895}, {"fusion_lat": 0.0, "name": "25dfdf410a9649d5ff4d3f4db1cf731b", "is_disabled": 0, "rental_uris": {"android": "https://dc.lft.to/lastmile_qr_scan", "ios": "https://dc.lft.to/lastmile_qr_scan"}, "fusion_lon": 0.0, "lat": 38.89891183333334, "bike_id": "25dfdf410a9649d5ff4d3f4db1cf731b", "type": "electric_scooter", "is_reserved": 0, "lon": -76.93361483333334}, {"fusion_lat": 0.0, "name": "bd3623600e67f12d633f66afb0476ecd", "is_disabled": 0, "rental_uris": {"android": "https://dc.lft.to/lastmile_qr_scan", "ios": "https://dc.lft.to/lastmile_qr_scan"}, "fusion_lon": 0.0, "lat": 38.90634216666667, "bike_id": "bd3623600e67f12d633f66afb0476ecd", "type": "electric_scooter", "is_reserved": 0, "lon": -77.0397415}, {"fusion_lat": 0.0, "name": "6ff2cb84552c7c96618b3e1713092b6d", "is_disabled": 0, "rental_uris": {"android": "https://dc.lft.to/lastmile_qr_scan", "ios": "https://dc.lft.to/lastmile_qr_scan"}, "fusion_lon": 0.0, "lat": 38.932165, "bike_id": "6ff2cb84552c7c96618b3e1713092b6d", "type": "electric_scooter", "is_reserved": 0, "lon": -77.0335015}, {"fusion_lat": 0.0, "name": "0d40461c2de38454c51013074dc7f058", "is_disabled": 0, "rental_uris": {"android": "https://dc.lft.to/lastmile_qr_scan", "ios": "https://dc.lft.to/lastmile_qr_scan"}, "fusion_lon": 0.0, "lat": 38.889895833333334, "bike_id": "0d40461c2de38454c51013074dc7f058", "type": "electric_scooter", "is_reserved": 0, "lon": -76.98414283333334}, {"fusion_lat": 0.0, "name": "a10821744805e7a5f00119d01072776f", "is_disabled": 0, "rental_uris": {"android": "https://dc.lft.to/lastmile_qr_scan", "ios": "https://dc.lft.to/lastmile_qr_scan"}, "fusion_lon": 0.0, "lat": 38.9280045, "bike_id": "a10821744805e7a5f00119d01072776f", "type": "electric_scooter", "is_reserved": 0, "lon": -77.05530033333334}, {"fusion_lat": 0.0, "name": "bad73bc40355ae16138b3b09b4a38fe6", "is_disabled": 0, "rental_uris": {"android": "https://dc.lft.to/lastmile_qr_scan", "ios": "https://dc.lft.to/lastmile_qr_scan"}, "fusion_lon": 0.0, "lat": 38.896399333333335, "bike_id": "bad73bc40355ae16138b3b09b4a38fe6", "type": "electric_scooter", "is_reserved": 0, "lon": -77.00926566666666}, {"fusion_lat": 0.0, "name": "e862785a46661779c05195e7244881f9", "is_disabled": 0, "rental_uris": {"android": "https://dc.lft.to/lastmile_qr_scan", "ios": "https://dc.lft.to/lastmile_qr_scan"}, "fusion_lon": 0.0, "lat": 38.91695083333333, "bike_id": "e862785a46661779c05195e7244881f9", "type": "electric_scooter", "is_reserved": 0, "lon": -77.03768916666667}, {"fusion_lat": 0.0, "name": "24a9a37f35ab1c28ff3205bea04f55e5", "is_disabled": 0, "rental_uris": {"android": "https://dc.lft.to/lastmile_qr_scan", "ios": "https://dc.lft.to/lastmile_qr_scan"}, "fusion_lon": 0.0, "lat": 38.8570095, "bike_id": "24a9a37f35ab1c28ff3205bea04f55e5", "type": "electric_scooter", "is_reserved": 0, "lon": -76.99599383333333}, {"fusion_lat": 0.0, "name": "ad19ef58c4fd7fde49a16e63169e52d9", "is_disabled": 0, "rental_uris": {"android": "https://dc.lft.to/lastmile_qr_scan", "ios": "https://dc.lft.to/lastmile_qr_scan"}, "fusion_lon": 0.0, "lat": 38.936536, "bike_id": "ad19ef58c4fd7fde49a16e63169e52d9", "type": "electric_scooter", "is_reserved": 0, "lon": -77.0365865}, {"fusion_lat": 0.0, "name": "50837e78998d806a5ef1041daa782a85", "is_disabled": 0, "rental_uris": {"android": "https://dc.lft.to/lastmile_qr_scan", "ios": "https://dc.lft.to/lastmile_qr_scan"}, "fusion_lon": 0.0, "lat": 38.916872166666664, "bike_id": "50837e78998d806a5ef1041daa782a85", "type": "electric_scooter", "is_reserved": 0, "lon": -77.03227166666667}, {"fusion_lat": 0.0, "name": "b0470c1f4db3873a09b13c96e15a5c55", "is_disabled": 0, "rental_uris": {"android": "https://dc.lft.to/lastmile_qr_scan", "ios": "https://dc.lft.to/lastmile_qr_scan"}, "fusion_lon": 0.0, "lat": 38.92396866666667, "bike_id": "b0470c1f4db3873a09b13c96e15a5c55", "type": "electric_scooter", "is_reserved": 0, "lon": -77.04290966666667}, {"fusion_lat": 0.0, "name": "7bc6f939cd8ba6327db8e07ea34ebe99", "is_disabled": 0, "rental_uris": {"android": "https://dc.lft.to/lastmile_qr_scan", "ios": "https://dc.lft.to/lastmile_qr_scan"}, "fusion_lon": 0.0, "lat": 38.90008783333333, "bike_id": "7bc6f939cd8ba6327db8e07ea34ebe99", "type": "electric_scooter", "is_reserved": 0, "lon": -77.0067085}, {"fusion_lat": 0.0, "name": "0e851a27206c3ec97928a60571006776", "is_disabled": 0, "rental_uris": {"android": "https://dc.lft.to/lastmile_qr_scan", "ios": "https://dc.lft.to/lastmile_qr_scan"}, "fusion_lon": 0.0, "lat": 38.9286865, "bike_id": "0e851a27206c3ec97928a60571006776", "type": "electric_scooter", "is_reserved": 0, "lon": -77.035213}, {"fusion_lat": 0.0, "name": "465984440be8c5d65d61b223ccbbe8e2", "is_disabled": 0, "rental_uris": {"android": "https://dc.lft.to/lastmile_qr_scan", "ios": "https://dc.lft.to/lastmile_qr_scan"}, "fusion_lon": 0.0, "lat": 38.934511666666666, "bike_id": "465984440be8c5d65d61b223ccbbe8e2", "type": "electric_scooter", "is_reserved": 0, "lon": -77.07259966666666}, {"fusion_lat": 0.0, "name": "28ecfac3ed6408f940b6d96f560e6a9e", "is_disabled": 0, "rental_uris": {"android": "https://dc.lft.to/lastmile_qr_scan", "ios": "https://dc.lft.to/lastmile_qr_scan"}, "fusion_lon": 0.0, "lat": 38.9072275, "bike_id": "28ecfac3ed6408f940b6d96f560e6a9e", "type": "electric_scooter", "is_reserved": 0, "lon": -77.06893333333333}, {"fusion_lat": 0.0, "name": "1db290f62dace06d2bdf85f134af778b", "is_disabled": 0, "rental_uris": {"android": "https://dc.lft.to/lastmile_qr_scan", "ios": "https://dc.lft.to/lastmile_qr_scan"}, "fusion_lon": 0.0, "lat": 38.924097, "bike_id": "1db290f62dace06d2bdf85f134af778b", "type": "electric_scooter", "is_reserved": 0, "lon": -77.05062183333334}, {"fusion_lat": 0.0, "name": "f802b9659cb9e12002f19afd6c08d99f", "is_disabled": 0, "rental_uris": {"android": "https://dc.lft.to/lastmile_qr_scan", "ios": "https://dc.lft.to/lastmile_qr_scan"}, "fusion_lon": 0.0, "lat": 38.90422516666667, "bike_id": "f802b9659cb9e12002f19afd6c08d99f", "type": "electric_scooter", "is_reserved": 0, "lon": -76.94981033333333}, {"fusion_lat": 0.0, "name": "a0cd2e33f043cc9df04a22c5168f9589", "is_disabled": 0, "rental_uris": {"android": "https://dc.lft.to/lastmile_qr_scan", "ios": "https://dc.lft.to/lastmile_qr_scan"}, "fusion_lon": 0.0, "lat": 38.897171666666665, "bike_id": "a0cd2e33f043cc9df04a22c5168f9589", "type": "electric_scooter", "is_reserved": 0, "lon": -77.013194}, {"fusion_lat": 0.0, "name": "da4bc25eb82d3ac878b25de7d2e5a405", "is_disabled": 0, "rental_uris": {"android": "https://dc.lft.to/lastmile_qr_scan", "ios": "https://dc.lft.to/lastmile_qr_scan"}, "fusion_lon": 0.0, "lat": 38.885047666666665, "bike_id": "da4bc25eb82d3ac878b25de7d2e5a405", "type": "electric_scooter", "is_reserved": 0, "lon": -77.01512366666667}, {"fusion_lat": 0.0, "name": "0f1a7d0ecd451b82b919f87d38ee873b", "is_disabled": 0, "rental_uris": {"android": "https://dc.lft.to/lastmile_qr_scan", "ios": "https://dc.lft.to/lastmile_qr_scan"}, "fusion_lon": 0.0, "lat": 38.892262833333334, "bike_id": "0f1a7d0ecd451b82b919f87d38ee873b", "type": "electric_scooter", "is_reserved": 0, "lon": -77.015518}, {"fusion_lat": 0.0, "name": "3e6a9891b625dcbdf3513abcd2c9f0f4", "is_disabled": 0, "rental_uris": {"android": "https://dc.lft.to/lastmile_qr_scan", "ios": "https://dc.lft.to/lastmile_qr_scan"}, "fusion_lon": 0.0, "lat": 38.93523183333333, "bike_id": "3e6a9891b625dcbdf3513abcd2c9f0f4", "type": "electric_scooter", "is_reserved": 0, "lon": -77.08701433333333}, {"fusion_lat": 0.0, "name": "3d3e62f6a6b4a60b2751f70c4502e777", "is_disabled": 0, "rental_uris": {"android": "https://dc.lft.to/lastmile_qr_scan", "ios": "https://dc.lft.to/lastmile_qr_scan"}, "fusion_lon": 0.0, "lat": 38.95730233333333, "bike_id": "3d3e62f6a6b4a60b2751f70c4502e777", "type": "electric_scooter", "is_reserved": 0, "lon": -77.024048}, {"fusion_lat": 0.0, "name": "057f00544eeb3967f6fffb586281f68b", "is_disabled": 0, "rental_uris": {"android": "https://dc.lft.to/lastmile_qr_scan", "ios": "https://dc.lft.to/lastmile_qr_scan"}, "fusion_lon": 0.0, "lat": 38.897442, "bike_id": "057f00544eeb3967f6fffb586281f68b", "type": "electric_scooter", "is_reserved": 0, "lon": -77.00005816666666}, {"fusion_lat": 0.0, "name": "936610e95f74a92cc610c8277209f496", "is_disabled": 0, "rental_uris": {"android": "https://dc.lft.to/lastmile_qr_scan", "ios": "https://dc.lft.to/lastmile_qr_scan"}, "fusion_lon": 0.0, "lat": 38.87626, "bike_id": "936610e95f74a92cc610c8277209f496", "type": "electric_scooter", "is_reserved": 0, "lon": -77.00119533333333}, {"fusion_lat": 0.0, "name": "ea43c082c3c82a0b5d345e96ea06c391", "is_disabled": 0, "rental_uris": {"android": "https://dc.lft.to/lastmile_qr_scan", "ios": "https://dc.lft.to/lastmile_qr_scan"}, "fusion_lon": 0.0, "lat": 38.9183175, "bike_id": "ea43c082c3c82a0b5d345e96ea06c391", "type": "electric_scooter", "is_reserved": 0, "lon": -77.02397333333333}, {"fusion_lat": 0.0, "name": "e7f3c7498756144f637569331d991f70", "is_disabled": 0, "rental_uris": {"android": "https://dc.lft.to/lastmile_qr_scan", "ios": "https://dc.lft.to/lastmile_qr_scan"}, "fusion_lon": 0.0, "lat": 38.9017745, "bike_id": "e7f3c7498756144f637569331d991f70", "type": "electric_scooter", "is_reserved": 0, "lon": -76.94145133333333}, {"fusion_lat": 0.0, "name": "76d73cec05a8f3e066a0a5695f8deac8", "is_disabled": 0, "rental_uris": {"android": "https://dc.lft.to/lastmile_qr_scan", "ios": "https://dc.lft.to/lastmile_qr_scan"}, "fusion_lon": 0.0, "lat": 38.930659, "bike_id": "76d73cec05a8f3e066a0a5695f8deac8", "type": "electric_scooter", "is_reserved": 0, "lon": -77.03945783333333}, {"fusion_lat": 0.0, "name": "2049e63d4642be2f30221e0342ead05b", "is_disabled": 0, "rental_uris": {"android": "https://dc.lft.to/lastmile_qr_scan", "ios": "https://dc.lft.to/lastmile_qr_scan"}, "fusion_lon": 0.0, "lat": 38.881243, "bike_id": "2049e63d4642be2f30221e0342ead05b", "type": "electric_scooter", "is_reserved": 0, "lon": -76.99284466666667}, {"fusion_lat": 0.0, "name": "ebda2c05987b42fb3a43872f24059c08", "is_disabled": 0, "rental_uris": {"android": "https://dc.lft.to/lastmile_qr_scan", "ios": "https://dc.lft.to/lastmile_qr_scan"}, "fusion_lon": 0.0, "lat": 38.900513833333335, "bike_id": "ebda2c05987b42fb3a43872f24059c08", "type": "electric_scooter", "is_reserved": 0, "lon": -77.01177683333333}, {"fusion_lat": 0.0, "name": "d062bfcfd823f221313a88252f6c4e6f", "is_disabled": 0, "rental_uris": {"android": "https://dc.lft.to/lastmile_qr_scan", "ios": "https://dc.lft.to/lastmile_qr_scan"}, "fusion_lon": 0.0, "lat": 38.90517783333333, "bike_id": "d062bfcfd823f221313a88252f6c4e6f", "type": "electric_scooter", "is_reserved": 0, "lon": -77.0347845}, {"fusion_lat": 0.0, "name": "d17977b5e72a96c1ca4be94186720e06", "is_disabled": 0, "rental_uris": {"android": "https://dc.lft.to/lastmile_qr_scan", "ios": "https://dc.lft.to/lastmile_qr_scan"}, "fusion_lon": 0.0, "lat": 38.94512683333333, "bike_id": "d17977b5e72a96c1ca4be94186720e06", "type": "electric_bike", "is_reserved": 0, "lon": -77.0067655}, {"fusion_lat": 0.0, "name": "9e5f7a57db5877eaf73e9ef45a8bd411", "is_disabled": 0, "rental_uris": {"android": "https://dc.lft.to/lastmile_qr_scan", "ios": "https://dc.lft.to/lastmile_qr_scan"}, "fusion_lon": 0.0, "lat": 38.8861465, "bike_id": "9e5f7a57db5877eaf73e9ef45a8bd411", "type": "electric_scooter", "is_reserved": 0, "lon": -77.01559183333333}, {"fusion_lat": 0.0, "name": "070c0a006ad7d30bd2bc4d631091cb2e", "is_disabled": 0, "rental_uris": {"android": "https://dc.lft.to/lastmile_qr_scan", "ios": "https://dc.lft.to/lastmile_qr_scan"}, "fusion_lon": 0.0, "lat": 38.89258816666667, "bike_id": "070c0a006ad7d30bd2bc4d631091cb2e", "type": "electric_scooter", "is_reserved": 0, "lon": -77.04660516666667}, {"fusion_lat": 0.0, "name": "ec83e27ffc69a0362e9e2cb5ff1ac2ef", "is_disabled": 0, "rental_uris": {"android": "https://dc.lft.to/lastmile_qr_scan", "ios": "https://dc.lft.to/lastmile_qr_scan"}, "fusion_lon": 0.0, "lat": 38.898762833333336, "bike_id": "ec83e27ffc69a0362e9e2cb5ff1ac2ef", "type": "electric_scooter", "is_reserved": 0, "lon": -76.93186766666666}, {"fusion_lat": 0.0, "name": "35c1e8f7a659ce855c681f34bd6295b8", "is_disabled": 0, "rental_uris": {"android": "https://dc.lft.to/lastmile_qr_scan", "ios": "https://dc.lft.to/lastmile_qr_scan"}, "fusion_lon": 0.0, "lat": 38.917344166666666, "bike_id": "35c1e8f7a659ce855c681f34bd6295b8", "type": "electric_scooter", "is_reserved": 0, "lon": -77.04155916666667}, {"fusion_lat": 0.0, "name": "acf8eb1edb8567da18f0194a542fa58f", "is_disabled": 0, "rental_uris": {"android": "https://dc.lft.to/lastmile_qr_scan", "ios": "https://dc.lft.to/lastmile_qr_scan"}, "fusion_lon": 0.0, "lat": 38.896084333333334, "bike_id": "acf8eb1edb8567da18f0194a542fa58f", "type": "electric_scooter", "is_reserved": 0, "lon": -77.00930816666667}, {"fusion_lat": 0.0, "name": "b5367e28c157f3e5a5aa5e0d722904f7", "is_disabled": 0, "rental_uris": {"android": "https://dc.lft.to/lastmile_qr_scan", "ios": "https://dc.lft.to/lastmile_qr_scan"}, "fusion_lon": 0.0, "lat": 38.90027116666667, "bike_id": "b5367e28c157f3e5a5aa5e0d722904f7", "type": "electric_scooter", "is_reserved": 0, "lon": -77.03626066666666}, {"fusion_lat": 0.0, "name": "0adeb84a08db51f9850dc4a2c1e9e4d7", "is_disabled": 0, "rental_uris": {"android": "https://dc.lft.to/lastmile_qr_scan", "ios": "https://dc.lft.to/lastmile_qr_scan"}, "fusion_lon": 0.0, "lat": 38.924014666666665, "bike_id": "0adeb84a08db51f9850dc4a2c1e9e4d7", "type": "electric_scooter", "is_reserved": 0, "lon": -77.02489533333333}, {"fusion_lat": 0.0, "name": "b917a413082cb8ed342d984b70c790b7", "is_disabled": 0, "rental_uris": {"android": "https://dc.lft.to/lastmile_qr_scan", "ios": "https://dc.lft.to/lastmile_qr_scan"}, "fusion_lon": 0.0, "lat": 38.92781316666667, "bike_id": "b917a413082cb8ed342d984b70c790b7", "type": "electric_scooter", "is_reserved": 0, "lon": -77.05285533333333}, {"fusion_lat": 0.0, "name": "9c17aaf2baf419f378648abf62061682", "is_disabled": 0, "rental_uris": {"android": "https://dc.lft.to/lastmile_qr_scan", "ios": "https://dc.lft.to/lastmile_qr_scan"}, "fusion_lon": 0.0, "lat": 38.8972885, "bike_id": "9c17aaf2baf419f378648abf62061682", "type": "electric_scooter", "is_reserved": 0, "lon": -77.02929533333334}, {"fusion_lat": 0.0, "name": "9e073f0c9d8b820df29d2af83d7ea3fb", "is_disabled": 0, "rental_uris": {"android": "https://dc.lft.to/lastmile_qr_scan", "ios": "https://dc.lft.to/lastmile_qr_scan"}, "fusion_lon": 0.0, "lat": 38.87706766666667, "bike_id": "9e073f0c9d8b820df29d2af83d7ea3fb", "type": "electric_scooter", "is_reserved": 0, "lon": -76.99385516666666}, {"fusion_lat": 0.0, "name": "af7b507de1618dd6a24f36d01402d4f7", "is_disabled": 0, "rental_uris": {"android": "https://dc.lft.to/lastmile_qr_scan", "ios": "https://dc.lft.to/lastmile_qr_scan"}, "fusion_lon": 0.0, "lat": 38.9238655, "bike_id": "af7b507de1618dd6a24f36d01402d4f7", "type": "electric_scooter", "is_reserved": 0, "lon": -77.03660866666667}, {"fusion_lat": 0.0, "name": "bd303d7f8415e052691e6e78273cdcc5", "is_disabled": 0, "rental_uris": {"android": "https://dc.lft.to/lastmile_qr_scan", "ios": "https://dc.lft.to/lastmile_qr_scan"}, "fusion_lon": 0.0, "lat": 38.91195716666667, "bike_id": "bd303d7f8415e052691e6e78273cdcc5", "type": "electric_scooter", "is_reserved": 0, "lon": -77.04244566666667}, {"fusion_lat": 0.0, "name": "e50e67eddd2ea6f68bc42c8991b11649", "is_disabled": 0, "rental_uris": {"android": "https://dc.lft.to/lastmile_qr_scan", "ios": "https://dc.lft.to/lastmile_qr_scan"}, "fusion_lon": 0.0, "lat": 38.908712666666666, "bike_id": "e50e67eddd2ea6f68bc42c8991b11649", "type": "electric_scooter", "is_reserved": 0, "lon": -77.08590183333334}, {"fusion_lat": 0.0, "name": "fa768a64c389208363c2d5ed69b82752", "is_disabled": 0, "rental_uris": {"android": "https://dc.lft.to/lastmile_qr_scan", "ios": "https://dc.lft.to/lastmile_qr_scan"}, "fusion_lon": 0.0, "lat": 38.913597, "bike_id": "fa768a64c389208363c2d5ed69b82752", "type": "electric_scooter", "is_reserved": 0, "lon": -77.04566533333333}, {"fusion_lat": 0.0, "name": "a4bc870c25c0fef138e82f41b29f6662", "is_disabled": 0, "rental_uris": {"android": "https://dc.lft.to/lastmile_qr_scan", "ios": "https://dc.lft.to/lastmile_qr_scan"}, "fusion_lon": 0.0, "lat": 38.87683533333333, "bike_id": "a4bc870c25c0fef138e82f41b29f6662", "type": "electric_scooter", "is_reserved": 0, "lon": -77.00754283333333}, {"fusion_lat": 0.0, "name": "c48523d77901c79f03806e2749d343a0", "is_disabled": 0, "rental_uris": {"android": "https://dc.lft.to/lastmile_qr_scan", "ios": "https://dc.lft.to/lastmile_qr_scan"}, "fusion_lon": 0.0, "lat": 38.878872666666666, "bike_id": "c48523d77901c79f03806e2749d343a0", "type": "electric_scooter", "is_reserved": 0, "lon": -77.02228633333333}, {"fusion_lat": 0.0, "name": "860657aad55f0578225d28893982842a", "is_disabled": 0, "rental_uris": {"android": "https://dc.lft.to/lastmile_qr_scan", "ios": "https://dc.lft.to/lastmile_qr_scan"}, "fusion_lon": 0.0, "lat": 38.9029365, "bike_id": "860657aad55f0578225d28893982842a", "type": "electric_scooter", "is_reserved": 0, "lon": -77.03923433333334}, {"fusion_lat": 0.0, "name": "3c41408d75e6757c054034572eb0e3c2", "is_disabled": 0, "rental_uris": {"android": "https://dc.lft.to/lastmile_qr_scan", "ios": "https://dc.lft.to/lastmile_qr_scan"}, "fusion_lon": 0.0, "lat": 38.961581833333334, "bike_id": "3c41408d75e6757c054034572eb0e3c2", "type": "electric_scooter", "is_reserved": 0, "lon": -77.0738355}, {"fusion_lat": 0.0, "name": "81f556d8679bd4437f949320a42b86d7", "is_disabled": 0, "rental_uris": {"android": "https://dc.lft.to/lastmile_qr_scan", "ios": "https://dc.lft.to/lastmile_qr_scan"}, "fusion_lon": 0.0, "lat": 38.917019833333335, "bike_id": "81f556d8679bd4437f949320a42b86d7", "type": "electric_scooter", "is_reserved": 0, "lon": -77.0421095}, {"fusion_lat": 0.0, "name": "4f73a663771061a51e494da50d1f662c", "is_disabled": 0, "rental_uris": {"android": "https://dc.lft.to/lastmile_qr_scan", "ios": "https://dc.lft.to/lastmile_qr_scan"}, "fusion_lon": 0.0, "lat": 38.900284166666665, "bike_id": "4f73a663771061a51e494da50d1f662c", "type": "electric_scooter", "is_reserved": 0, "lon": -77.00700616666667}, {"fusion_lat": 0.0, "name": "c99935db27009a373ab2d784925c7a06", "is_disabled": 0, "rental_uris": {"android": "https://dc.lft.to/lastmile_qr_scan", "ios": "https://dc.lft.to/lastmile_qr_scan"}, "fusion_lon": 0.0, "lat": 38.925011833333336, "bike_id": "c99935db27009a373ab2d784925c7a06", "type": "electric_scooter", "is_reserved": 0, "lon": -77.05224483333333}, {"fusion_lat": 0.0, "name": "9efb2022551951b0b5c0188f27b88572", "is_disabled": 0, "rental_uris": {"android": "https://dc.lft.to/lastmile_qr_scan", "ios": "https://dc.lft.to/lastmile_qr_scan"}, "fusion_lon": 0.0, "lat": 38.917704, "bike_id": "9efb2022551951b0b5c0188f27b88572", "type": "electric_scooter", "is_reserved": 0, "lon": -77.02312983333333}, {"fusion_lat": 0.0, "name": "665664d6c676924506027632442a5ccd", "is_disabled": 0, "rental_uris": {"android": "https://dc.lft.to/lastmile_qr_scan", "ios": "https://dc.lft.to/lastmile_qr_scan"}, "fusion_lon": 0.0, "lat": 38.8876705, "bike_id": "665664d6c676924506027632442a5ccd", "type": "electric_scooter", "is_reserved": 0, "lon": -76.97750816666667}, {"fusion_lat": 0.0, "name": "5b5c0d761d08caca69181473cdcc2740", "is_disabled": 0, "rental_uris": {"android": "https://dc.lft.to/lastmile_qr_scan", "ios": "https://dc.lft.to/lastmile_qr_scan"}, "fusion_lon": 0.0, "lat": 38.824579, "bike_id": "5b5c0d761d08caca69181473cdcc2740", "type": "electric_bike", "is_reserved": 0, "lon": -77.00792916666667}, {"fusion_lat": 0.0, "name": "347aa4d2f02dd4b3365bc71d2e0fddce", "is_disabled": 0, "rental_uris": {"android": "https://dc.lft.to/lastmile_qr_scan", "ios": "https://dc.lft.to/lastmile_qr_scan"}, "fusion_lon": 0.0, "lat": 38.90951533333333, "bike_id": "347aa4d2f02dd4b3365bc71d2e0fddce", "type": "electric_scooter", "is_reserved": 0, "lon": -76.98544733333334}, {"fusion_lat": 0.0, "name": "7e3c4ab447562dd6060448950d883706", "is_disabled": 0, "rental_uris": {"android": "https://dc.lft.to/lastmile_qr_scan", "ios": "https://dc.lft.to/lastmile_qr_scan"}, "fusion_lon": 0.0, "lat": 38.8991065, "bike_id": "7e3c4ab447562dd6060448950d883706", "type": "electric_scooter", "is_reserved": 0, "lon": -76.9455005}, {"fusion_lat": 0.0, "name": "5fe7ae502217ac3ea1864343f4965f57", "is_disabled": 0, "rental_uris": {"android": "https://dc.lft.to/lastmile_qr_scan", "ios": "https://dc.lft.to/lastmile_qr_scan"}, "fusion_lon": 0.0, "lat": 38.902769166666666, "bike_id": "5fe7ae502217ac3ea1864343f4965f57", "type": "electric_scooter", "is_reserved": 0, "lon": -77.01886716666667}, {"fusion_lat": 0.0, "name": "028804751bb83384b1e99bb4df04baea", "is_disabled": 0, "rental_uris": {"android": "https://dc.lft.to/lastmile_qr_scan", "ios": "https://dc.lft.to/lastmile_qr_scan"}, "fusion_lon": 0.0, "lat": 38.9351535, "bike_id": "028804751bb83384b1e99bb4df04baea", "type": "electric_scooter", "is_reserved": 0, "lon": -77.03351583333334}, {"fusion_lat": 0.0, "name": "1c8bc1baa0478c9692973d6dc9a580ae", "is_disabled": 0, "rental_uris": {"android": "https://dc.lft.to/lastmile_qr_scan", "ios": "https://dc.lft.to/lastmile_qr_scan"}, "fusion_lon": 0.0, "lat": 38.92478583333333, "bike_id": "1c8bc1baa0478c9692973d6dc9a580ae", "type": "electric_scooter", "is_reserved": 0, "lon": -77.026299}, {"fusion_lat": 0.0, "name": "22e139e8923f3fd2039f03788ab9112a", "is_disabled": 0, "rental_uris": {"android": "https://dc.lft.to/lastmile_qr_scan", "ios": "https://dc.lft.to/lastmile_qr_scan"}, "fusion_lon": 0.0, "lat": 38.9319665, "bike_id": "22e139e8923f3fd2039f03788ab9112a", "type": "electric_bike", "is_reserved": 0, "lon": -77.22932316666666}, {"fusion_lat": 0.0, "name": "8387a9b28b2c586195f4e8d4fae8e023", "is_disabled": 0, "rental_uris": {"android": "https://dc.lft.to/lastmile_qr_scan", "ios": "https://dc.lft.to/lastmile_qr_scan"}, "fusion_lon": 0.0, "lat": 38.922463, "bike_id": "8387a9b28b2c586195f4e8d4fae8e023", "type": "electric_scooter", "is_reserved": 0, "lon": -77.0747355}, {"fusion_lat": 0.0, "name": "e1209f3943f0dae047920d2202fae2ee", "is_disabled": 0, "rental_uris": {"android": "https://dc.lft.to/lastmile_qr_scan", "ios": "https://dc.lft.to/lastmile_qr_scan"}, "fusion_lon": 0.0, "lat": 38.920635833333336, "bike_id": "e1209f3943f0dae047920d2202fae2ee", "type": "electric_scooter", "is_reserved": 0, "lon": -77.04258966666667}, {"fusion_lat": 0.0, "name": "eb96eb450c0f4dc1b52c424d2dbcf541", "is_disabled": 0, "rental_uris": {"android": "https://dc.lft.to/lastmile_qr_scan", "ios": "https://dc.lft.to/lastmile_qr_scan"}, "fusion_lon": 0.0, "lat": 38.884697833333334, "bike_id": "eb96eb450c0f4dc1b52c424d2dbcf541", "type": "electric_scooter", "is_reserved": 0, "lon": -76.99678433333334}, {"fusion_lat": 0.0, "name": "ef77e44fa6555a7c80f610c5503819c2", "is_disabled": 0, "rental_uris": {"android": "https://dc.lft.to/lastmile_qr_scan", "ios": "https://dc.lft.to/lastmile_qr_scan"}, "fusion_lon": 0.0, "lat": 38.915522333333335, "bike_id": "ef77e44fa6555a7c80f610c5503819c2", "type": "electric_scooter", "is_reserved": 0, "lon": -77.01200866666667}, {"fusion_lat": 0.0, "name": "de15769ad300fda26d9549b8ea8baeed", "is_disabled": 0, "rental_uris": {"android": "https://dc.lft.to/lastmile_qr_scan", "ios": "https://dc.lft.to/lastmile_qr_scan"}, "fusion_lon": 0.0, "lat": 38.90063, "bike_id": "de15769ad300fda26d9549b8ea8baeed", "type": "electric_scooter", "is_reserved": 0, "lon": -76.93382616666666}, {"fusion_lat": 0.0, "name": "08ac97a254a72c27dabd022d9e03fd1c", "is_disabled": 0, "rental_uris": {"android": "https://dc.lft.to/lastmile_qr_scan", "ios": "https://dc.lft.to/lastmile_qr_scan"}, "fusion_lon": 0.0, "lat": 38.94229333333333, "bike_id": "08ac97a254a72c27dabd022d9e03fd1c", "type": "electric_scooter", "is_reserved": 0, "lon": -77.0764465}, {"fusion_lat": 0.0, "name": "78b5594799e4d1bb42bbd7e07ac2d681", "is_disabled": 0, "rental_uris": {"android": "https://dc.lft.to/lastmile_qr_scan", "ios": "https://dc.lft.to/lastmile_qr_scan"}, "fusion_lon": 0.0, "lat": 38.907716, "bike_id": "78b5594799e4d1bb42bbd7e07ac2d681", "type": "electric_scooter", "is_reserved": 0, "lon": -77.055948}, {"fusion_lat": 0.0, "name": "04fa14b0e175d663a0175523c0b27464", "is_disabled": 0, "rental_uris": {"android": "https://dc.lft.to/lastmile_qr_scan", "ios": "https://dc.lft.to/lastmile_qr_scan"}, "fusion_lon": 0.0, "lat": 38.91048466666667, "bike_id": "04fa14b0e175d663a0175523c0b27464", "type": "electric_scooter", "is_reserved": 0, "lon": -77.0267945}, {"fusion_lat": 0.0, "name": "656cdc18893d52903faf33ac16ab7626", "is_disabled": 0, "rental_uris": {"android": "https://dc.lft.to/lastmile_qr_scan", "ios": "https://dc.lft.to/lastmile_qr_scan"}, "fusion_lon": 0.0, "lat": 38.88614416666667, "bike_id": "656cdc18893d52903faf33ac16ab7626", "type": "electric_scooter", "is_reserved": 0, "lon": -77.01556}, {"fusion_lat": 0.0, "name": "c08add8c1b386a15aa4a25f23f935533", "is_disabled": 0, "rental_uris": {"android": "https://dc.lft.to/lastmile_qr_scan", "ios": "https://dc.lft.to/lastmile_qr_scan"}, "fusion_lon": 0.0, "lat": 38.92071, "bike_id": "c08add8c1b386a15aa4a25f23f935533", "type": "electric_scooter", "is_reserved": 0, "lon": -77.02413416666667}, {"fusion_lat": 0.0, "name": "9097a499b61639b158e21c061a3e1af2", "is_disabled": 0, "rental_uris": {"android": "https://dc.lft.to/lastmile_qr_scan", "ios": "https://dc.lft.to/lastmile_qr_scan"}, "fusion_lon": 0.0, "lat": 38.922382666666664, "bike_id": "9097a499b61639b158e21c061a3e1af2", "type": "electric_scooter", "is_reserved": 0, "lon": -77.04247466666666}, {"fusion_lat": 0.0, "name": "ae1771d6f0c7d7643c0e9eb8df2b257c", "is_disabled": 0, "rental_uris": {"android": "https://dc.lft.to/lastmile_qr_scan", "ios": "https://dc.lft.to/lastmile_qr_scan"}, "fusion_lon": 0.0, "lat": 38.88840283333333, "bike_id": "ae1771d6f0c7d7643c0e9eb8df2b257c", "type": "electric_scooter", "is_reserved": 0, "lon": -77.0490115}, {"fusion_lat": 0.0, "name": "4f229c168fcda87d9cdc792f4243cf3d", "is_disabled": 0, "rental_uris": {"android": "https://dc.lft.to/lastmile_qr_scan", "ios": "https://dc.lft.to/lastmile_qr_scan"}, "fusion_lon": 0.0, "lat": 38.83512966666667, "bike_id": "4f229c168fcda87d9cdc792f4243cf3d", "type": "electric_bike", "is_reserved": 0, "lon": -76.98675}, {"fusion_lat": 0.0, "name": "c73b4cf0aab9b2f3b11c4993d183c5a9", "is_disabled": 0, "rental_uris": {"android": "https://dc.lft.to/lastmile_qr_scan", "ios": "https://dc.lft.to/lastmile_qr_scan"}, "fusion_lon": 0.0, "lat": 38.924484166666666, "bike_id": "c73b4cf0aab9b2f3b11c4993d183c5a9", "type": "electric_scooter", "is_reserved": 0, "lon": -77.03426366666666}, {"fusion_lat": 0.0, "name": "8b294b8b6a5e3c116d6424db96f41647", "is_disabled": 0, "rental_uris": {"android": "https://dc.lft.to/lastmile_qr_scan", "ios": "https://dc.lft.to/lastmile_qr_scan"}, "fusion_lon": 0.0, "lat": 38.907909833333335, "bike_id": "8b294b8b6a5e3c116d6424db96f41647", "type": "electric_scooter", "is_reserved": 0, "lon": -77.0342885}, {"fusion_lat": 0.0, "name": "ec0eb0b958152be837a8762aae9e994e", "is_disabled": 0, "rental_uris": {"android": "https://dc.lft.to/lastmile_qr_scan", "ios": "https://dc.lft.to/lastmile_qr_scan"}, "fusion_lon": 0.0, "lat": 38.87399583333333, "bike_id": "ec0eb0b958152be837a8762aae9e994e", "type": "electric_scooter", "is_reserved": 0, "lon": -77.00013266666667}, {"fusion_lat": 0.0, "name": "699be9f95f0fe512f2cdaa180bfb8c84", "is_disabled": 0, "rental_uris": {"android": "https://dc.lft.to/lastmile_qr_scan", "ios": "https://dc.lft.to/lastmile_qr_scan"}, "fusion_lon": 0.0, "lat": 38.91719333333333, "bike_id": "699be9f95f0fe512f2cdaa180bfb8c84", "type": "electric_scooter", "is_reserved": 0, "lon": -77.02888983333334}, {"fusion_lat": 0.0, "name": "4c7e867b28e72648d18970e59252d26b", "is_disabled": 0, "rental_uris": {"android": "https://dc.lft.to/lastmile_qr_scan", "ios": "https://dc.lft.to/lastmile_qr_scan"}, "fusion_lon": 0.0, "lat": 38.927467, "bike_id": "4c7e867b28e72648d18970e59252d26b", "type": "electric_scooter", "is_reserved": 0, "lon": -77.02438433333333}, {"fusion_lat": 0.0, "name": "06facd83d2b20a3372d171da1f96398f", "is_disabled": 0, "rental_uris": {"android": "https://dc.lft.to/lastmile_qr_scan", "ios": "https://dc.lft.to/lastmile_qr_scan"}, "fusion_lon": 0.0, "lat": 39.0525305, "bike_id": "06facd83d2b20a3372d171da1f96398f", "type": "electric_bike", "is_reserved": 0, "lon": -77.08067133333333}, {"fusion_lat": 0.0, "name": "3bd341b0537702457aac3849f773bfe2", "is_disabled": 0, "rental_uris": {"android": "https://dc.lft.to/lastmile_qr_scan", "ios": "https://dc.lft.to/lastmile_qr_scan"}, "fusion_lon": 0.0, "lat": 38.899336, "bike_id": "3bd341b0537702457aac3849f773bfe2", "type": "electric_scooter", "is_reserved": 0, "lon": -77.00367}, {"fusion_lat": 0.0, "name": "10910ef59aa1fd21e96f3457f79a9d37", "is_disabled": 0, "rental_uris": {"android": "https://dc.lft.to/lastmile_qr_scan", "ios": "https://dc.lft.to/lastmile_qr_scan"}, "fusion_lon": 0.0, "lat": 38.88324316666667, "bike_id": "10910ef59aa1fd21e96f3457f79a9d37", "type": "electric_scooter", "is_reserved": 0, "lon": -77.01774083333333}, {"fusion_lat": 0.0, "name": "c27c82db1b59a6fe33793aea76f76569", "is_disabled": 0, "rental_uris": {"android": "https://dc.lft.to/lastmile_qr_scan", "ios": "https://dc.lft.to/lastmile_qr_scan"}, "fusion_lon": 0.0, "lat": 38.8961775, "bike_id": "c27c82db1b59a6fe33793aea76f76569", "type": "electric_scooter", "is_reserved": 0, "lon": -77.009197}, {"fusion_lat": 0.0, "name": "b39d7a2939d1c89b257cf37167b02981", "is_disabled": 0, "rental_uris": {"android": "https://dc.lft.to/lastmile_qr_scan", "ios": "https://dc.lft.to/lastmile_qr_scan"}, "fusion_lon": 0.0, "lat": 38.935288166666666, "bike_id": "b39d7a2939d1c89b257cf37167b02981", "type": "electric_scooter", "is_reserved": 0, "lon": -77.07263816666666}, {"fusion_lat": 0.0, "name": "7b63562770f2d557728ed47e9b63cbf6", "is_disabled": 0, "rental_uris": {"android": "https://dc.lft.to/lastmile_qr_scan", "ios": "https://dc.lft.to/lastmile_qr_scan"}, "fusion_lon": 0.0, "lat": 38.898765, "bike_id": "7b63562770f2d557728ed47e9b63cbf6", "type": "electric_scooter", "is_reserved": 0, "lon": -76.93186083333333}, {"fusion_lat": 0.0, "name": "f6668a3121351df5b7bd4fb9357e883d", "is_disabled": 0, "rental_uris": {"android": "https://dc.lft.to/lastmile_qr_scan", "ios": "https://dc.lft.to/lastmile_qr_scan"}, "fusion_lon": 0.0, "lat": 38.86243866666667, "bike_id": "f6668a3121351df5b7bd4fb9357e883d", "type": "electric_scooter", "is_reserved": 0, "lon": -76.9949825}, {"fusion_lat": 0.0, "name": "ab5a5913ed453d6c03b4cccf6f2483f1", "is_disabled": 0, "rental_uris": {"android": "https://dc.lft.to/lastmile_qr_scan", "ios": "https://dc.lft.to/lastmile_qr_scan"}, "fusion_lon": 0.0, "lat": 38.88355883333333, "bike_id": "ab5a5913ed453d6c03b4cccf6f2483f1", "type": "electric_scooter", "is_reserved": 0, "lon": -77.01737966666667}, {"fusion_lat": 0.0, "name": "4cd5f9a165e45a67a8d92ef89b575f8c", "is_disabled": 0, "rental_uris": {"android": "https://dc.lft.to/lastmile_qr_scan", "ios": "https://dc.lft.to/lastmile_qr_scan"}, "fusion_lon": 0.0, "lat": 38.900119333333336, "bike_id": "4cd5f9a165e45a67a8d92ef89b575f8c", "type": "electric_scooter", "is_reserved": 0, "lon": -77.0334125}, {"fusion_lat": 0.0, "name": "7646d75865f3e0da11a46d4bddd8c035", "is_disabled": 0, "rental_uris": {"android": "https://dc.lft.to/lastmile_qr_scan", "ios": "https://dc.lft.to/lastmile_qr_scan"}, "fusion_lon": 0.0, "lat": 38.924385, "bike_id": "7646d75865f3e0da11a46d4bddd8c035", "type": "electric_scooter", "is_reserved": 0, "lon": -77.00068433333334}, {"fusion_lat": 0.0, "name": "f12d9c0b19b0544a3560e6e86154bbd7", "is_disabled": 0, "rental_uris": {"android": "https://dc.lft.to/lastmile_qr_scan", "ios": "https://dc.lft.to/lastmile_qr_scan"}, "fusion_lon": 0.0, "lat": 38.88892366666666, "bike_id": "f12d9c0b19b0544a3560e6e86154bbd7", "type": "electric_scooter", "is_reserved": 0, "lon": -77.01506033333334}, {"fusion_lat": 0.0, "name": "be0078e77c53cc0d751f710008829e30", "is_disabled": 0, "rental_uris": {"android": "https://dc.lft.to/lastmile_qr_scan", "ios": "https://dc.lft.to/lastmile_qr_scan"}, "fusion_lon": 0.0, "lat": 38.90688516666667, "bike_id": "be0078e77c53cc0d751f710008829e30", "type": "electric_bike", "is_reserved": 0, "lon": -77.06354516666667}, {"fusion_lat": 0.0, "name": "27a432667446f59d72601bf69cbb24f0", "is_disabled": 0, "rental_uris": {"android": "https://dc.lft.to/lastmile_qr_scan", "ios": "https://dc.lft.to/lastmile_qr_scan"}, "fusion_lon": 0.0, "lat": 38.88723683333333, "bike_id": "27a432667446f59d72601bf69cbb24f0", "type": "electric_scooter", "is_reserved": 0, "lon": -76.98354366666666}, {"fusion_lat": 0.0, "name": "bfcb64e684b454e58ac549b16d782795", "is_disabled": 0, "rental_uris": {"android": "https://dc.lft.to/lastmile_qr_scan", "ios": "https://dc.lft.to/lastmile_qr_scan"}, "fusion_lon": 0.0, "lat": 38.8855545, "bike_id": "bfcb64e684b454e58ac549b16d782795", "type": "electric_scooter", "is_reserved": 0, "lon": -76.99782133333333}, {"fusion_lat": 0.0, "name": "f4516f5b3958c5dba461d70d39e87387", "is_disabled": 0, "rental_uris": {"android": "https://dc.lft.to/lastmile_qr_scan", "ios": "https://dc.lft.to/lastmile_qr_scan"}, "fusion_lon": 0.0, "lat": 38.9055735, "bike_id": "f4516f5b3958c5dba461d70d39e87387", "type": "electric_scooter", "is_reserved": 0, "lon": -77.0625845}, {"fusion_lat": 0.0, "name": "fc2193b5d36df19e62f37dc2e5bb6c77", "is_disabled": 0, "rental_uris": {"android": "https://dc.lft.to/lastmile_qr_scan", "ios": "https://dc.lft.to/lastmile_qr_scan"}, "fusion_lon": 0.0, "lat": 38.898545, "bike_id": "fc2193b5d36df19e62f37dc2e5bb6c77", "type": "electric_scooter", "is_reserved": 0, "lon": -77.02654633333333}, {"fusion_lat": 0.0, "name": "9e376042bd57dbd17be9d3c68bb5d8f4", "is_disabled": 0, "rental_uris": {"android": "https://dc.lft.to/lastmile_qr_scan", "ios": "https://dc.lft.to/lastmile_qr_scan"}, "fusion_lon": 0.0, "lat": 38.91808233333333, "bike_id": "9e376042bd57dbd17be9d3c68bb5d8f4", "type": "electric_scooter", "is_reserved": 0, "lon": -77.0459405}, {"fusion_lat": 0.0, "name": "da37c171ca0ec0b4895dea65bc2ccb7c", "is_disabled": 0, "rental_uris": {"android": "https://dc.lft.to/lastmile_qr_scan", "ios": "https://dc.lft.to/lastmile_qr_scan"}, "fusion_lon": 0.0, "lat": 38.89718766666667, "bike_id": "da37c171ca0ec0b4895dea65bc2ccb7c", "type": "electric_scooter", "is_reserved": 0, "lon": -77.00798233333333}, {"fusion_lat": 0.0, "name": "6b7ab112fd615a032a023c23d506e05d", "is_disabled": 0, "rental_uris": {"android": "https://dc.lft.to/lastmile_qr_scan", "ios": "https://dc.lft.to/lastmile_qr_scan"}, "fusion_lon": 0.0, "lat": 38.877156166666666, "bike_id": "6b7ab112fd615a032a023c23d506e05d", "type": "electric_scooter", "is_reserved": 0, "lon": -77.01764383333334}, {"fusion_lat": 0.0, "name": "1524143dcc5ddc4a461c3290116b8e46", "is_disabled": 0, "rental_uris": {"android": "https://dc.lft.to/lastmile_qr_scan", "ios": "https://dc.lft.to/lastmile_qr_scan"}, "fusion_lon": 0.0, "lat": 38.897301166666665, "bike_id": "1524143dcc5ddc4a461c3290116b8e46", "type": "electric_scooter", "is_reserved": 0, "lon": -77.0200115}, {"fusion_lat": 0.0, "name": "c1566af2781e159ae4aa4ea091ba5554", "is_disabled": 0, "rental_uris": {"android": "https://dc.lft.to/lastmile_qr_scan", "ios": "https://dc.lft.to/lastmile_qr_scan"}, "fusion_lon": 0.0, "lat": 38.931907833333334, "bike_id": "c1566af2781e159ae4aa4ea091ba5554", "type": "electric_scooter", "is_reserved": 0, "lon": -77.04294633333333}, {"fusion_lat": 0.0, "name": "ee56e0a1b40750df1ce7c6812362d473", "is_disabled": 0, "rental_uris": {"android": "https://dc.lft.to/lastmile_qr_scan", "ios": "https://dc.lft.to/lastmile_qr_scan"}, "fusion_lon": 0.0, "lat": 38.9040725, "bike_id": "ee56e0a1b40750df1ce7c6812362d473", "type": "electric_scooter", "is_reserved": 0, "lon": -76.97331333333334}, {"fusion_lat": 0.0, "name": "8bf88cfff071f7385b6e0d88aecda6ac", "is_disabled": 0, "rental_uris": {"android": "https://dc.lft.to/lastmile_qr_scan", "ios": "https://dc.lft.to/lastmile_qr_scan"}, "fusion_lon": 0.0, "lat": 38.904288666666666, "bike_id": "8bf88cfff071f7385b6e0d88aecda6ac", "type": "electric_scooter", "is_reserved": 0, "lon": -76.98183283333333}, {"fusion_lat": 0.0, "name": "65ad349f123a3225f58c8f895d3a314d", "is_disabled": 0, "rental_uris": {"android": "https://dc.lft.to/lastmile_qr_scan", "ios": "https://dc.lft.to/lastmile_qr_scan"}, "fusion_lon": 0.0, "lat": 38.84135766666667, "bike_id": "65ad349f123a3225f58c8f895d3a314d", "type": "electric_bike", "is_reserved": 0, "lon": -76.94763366666666}, {"fusion_lat": 0.0, "name": "5ab9c81e7b9ab279a00f5fa3d7f7b875", "is_disabled": 0, "rental_uris": {"android": "https://dc.lft.to/lastmile_qr_scan", "ios": "https://dc.lft.to/lastmile_qr_scan"}, "fusion_lon": 0.0, "lat": 38.921951166666666, "bike_id": "5ab9c81e7b9ab279a00f5fa3d7f7b875", "type": "electric_scooter", "is_reserved": 0, "lon": -77.050493}, {"fusion_lat": 0.0, "name": "43b728a1bac5809d8df4d78ab1c24439", "is_disabled": 0, "rental_uris": {"android": "https://dc.lft.to/lastmile_qr_scan", "ios": "https://dc.lft.to/lastmile_qr_scan"}, "fusion_lon": 0.0, "lat": 38.9127145, "bike_id": "43b728a1bac5809d8df4d78ab1c24439", "type": "electric_scooter", "is_reserved": 0, "lon": -77.01225}, {"fusion_lat": 0.0, "name": "b31bb178b60067e5a54c35518f5f09cb", "is_disabled": 0, "rental_uris": {"android": "https://dc.lft.to/lastmile_qr_scan", "ios": "https://dc.lft.to/lastmile_qr_scan"}, "fusion_lon": 0.0, "lat": 38.9588, "bike_id": "b31bb178b60067e5a54c35518f5f09cb", "type": "electric_bike", "is_reserved": 0, "lon": -77.00262166666667}, {"fusion_lat": 0.0, "name": "ef8d3550eca5c8cbd692a853fd476d00", "is_disabled": 0, "rental_uris": {"android": "https://dc.lft.to/lastmile_qr_scan", "ios": "https://dc.lft.to/lastmile_qr_scan"}, "fusion_lon": 0.0, "lat": 38.92219383333333, "bike_id": "ef8d3550eca5c8cbd692a853fd476d00", "type": "electric_scooter", "is_reserved": 0, "lon": -77.0433355}, {"fusion_lat": 0.0, "name": "0466c932eeb63904e3793a74a454f3d2", "is_disabled": 0, "rental_uris": {"android": "https://dc.lft.to/lastmile_qr_scan", "ios": "https://dc.lft.to/lastmile_qr_scan"}, "fusion_lon": 0.0, "lat": 38.918050666666666, "bike_id": "0466c932eeb63904e3793a74a454f3d2", "type": "electric_scooter", "is_reserved": 0, "lon": -76.99981766666667}, {"fusion_lat": 0.0, "name": "ee05e5db4a6efc65f4d5ff10e24cb954", "is_disabled": 0, "rental_uris": {"android": "https://dc.lft.to/lastmile_qr_scan", "ios": "https://dc.lft.to/lastmile_qr_scan"}, "fusion_lon": 0.0, "lat": 38.95115533333333, "bike_id": "ee05e5db4a6efc65f4d5ff10e24cb954", "type": "electric_scooter", "is_reserved": 0, "lon": -77.013657}, {"fusion_lat": 0.0, "name": "333fd8fed97a3ace2152a0f179abec5b", "is_disabled": 0, "rental_uris": {"android": "https://dc.lft.to/lastmile_qr_scan", "ios": "https://dc.lft.to/lastmile_qr_scan"}, "fusion_lon": 0.0, "lat": 38.94705066666667, "bike_id": "333fd8fed97a3ace2152a0f179abec5b", "type": "electric_scooter", "is_reserved": 0, "lon": -77.01938716666666}, {"fusion_lat": 0.0, "name": "aa8e15d323480a8d6b17cc26dcb5f4c5", "is_disabled": 0, "rental_uris": {"android": "https://dc.lft.to/lastmile_qr_scan", "ios": "https://dc.lft.to/lastmile_qr_scan"}, "fusion_lon": 0.0, "lat": 38.961153833333334, "bike_id": "aa8e15d323480a8d6b17cc26dcb5f4c5", "type": "electric_scooter", "is_reserved": 0, "lon": -77.0285935}, {"fusion_lat": 0.0, "name": "fc1c0cf418448bab45193d769413b8f5", "is_disabled": 0, "rental_uris": {"android": "https://dc.lft.to/lastmile_qr_scan", "ios": "https://dc.lft.to/lastmile_qr_scan"}, "fusion_lon": 0.0, "lat": 38.931946833333335, "bike_id": "fc1c0cf418448bab45193d769413b8f5", "type": "electric_scooter", "is_reserved": 0, "lon": -77.04296183333334}, {"fusion_lat": 0.0, "name": "5ec6e3adabbe7a676672f4c52454b243", "is_disabled": 0, "rental_uris": {"android": "https://dc.lft.to/lastmile_qr_scan", "ios": "https://dc.lft.to/lastmile_qr_scan"}, "fusion_lon": 0.0, "lat": 38.993606666666665, "bike_id": "5ec6e3adabbe7a676672f4c52454b243", "type": "electric_bike", "is_reserved": 0, "lon": -77.03178033333333}, {"fusion_lat": 0.0, "name": "42c8d5811f3c37698d316b5d00140b25", "is_disabled": 0, "rental_uris": {"android": "https://dc.lft.to/lastmile_qr_scan", "ios": "https://dc.lft.to/lastmile_qr_scan"}, "fusion_lon": 0.0, "lat": 38.9208005, "bike_id": "42c8d5811f3c37698d316b5d00140b25", "type": "electric_scooter", "is_reserved": 0, "lon": -77.00460483333333}, {"fusion_lat": 0.0, "name": "3f449620bfb4842711b7f471ff60af1a", "is_disabled": 0, "rental_uris": {"android": "https://dc.lft.to/lastmile_qr_scan", "ios": "https://dc.lft.to/lastmile_qr_scan"}, "fusion_lon": 0.0, "lat": 38.887682, "bike_id": "3f449620bfb4842711b7f471ff60af1a", "type": "electric_scooter", "is_reserved": 0, "lon": -77.03331316666667}, {"fusion_lat": 0.0, "name": "1db9942fc8ab1e04b7103aa171d85049", "is_disabled": 0, "rental_uris": {"android": "https://dc.lft.to/lastmile_qr_scan", "ios": "https://dc.lft.to/lastmile_qr_scan"}, "fusion_lon": 0.0, "lat": 38.92949133333333, "bike_id": "1db9942fc8ab1e04b7103aa171d85049", "type": "electric_scooter", "is_reserved": 0, "lon": -77.04403466666666}, {"fusion_lat": 0.0, "name": "7f21fc688014172940fbe9fb3b713011", "is_disabled": 0, "rental_uris": {"android": "https://dc.lft.to/lastmile_qr_scan", "ios": "https://dc.lft.to/lastmile_qr_scan"}, "fusion_lon": 0.0, "lat": 38.92069983333333, "bike_id": "7f21fc688014172940fbe9fb3b713011", "type": "electric_scooter", "is_reserved": 0, "lon": -77.0439885}, {"fusion_lat": 0.0, "name": "80263c0170b1ec3508a2a428c1e5bd45", "is_disabled": 0, "rental_uris": {"android": "https://dc.lft.to/lastmile_qr_scan", "ios": "https://dc.lft.to/lastmile_qr_scan"}, "fusion_lon": 0.0, "lat": 38.884584833333335, "bike_id": "80263c0170b1ec3508a2a428c1e5bd45", "type": "electric_scooter", "is_reserved": 0, "lon": -76.9984075}, {"fusion_lat": 0.0, "name": "0315a6d278aedfc413e92d05249576e3", "is_disabled": 0, "rental_uris": {"android": "https://dc.lft.to/lastmile_qr_scan", "ios": "https://dc.lft.to/lastmile_qr_scan"}, "fusion_lon": 0.0, "lat": 38.90670083333333, "bike_id": "0315a6d278aedfc413e92d05249576e3", "type": "electric_scooter", "is_reserved": 0, "lon": -77.02955816666666}, {"fusion_lat": 0.0, "name": "617af095a74889f2619e3fbd914ef6bc", "is_disabled": 0, "rental_uris": {"android": "https://dc.lft.to/lastmile_qr_scan", "ios": "https://dc.lft.to/lastmile_qr_scan"}, "fusion_lon": 0.0, "lat": 38.885184333333335, "bike_id": "617af095a74889f2619e3fbd914ef6bc", "type": "electric_scooter", "is_reserved": 0, "lon": -76.92952283333334}, {"fusion_lat": 0.0, "name": "9f0f2b99ae7fa28205487821e60169de", "is_disabled": 0, "rental_uris": {"android": "https://dc.lft.to/lastmile_qr_scan", "ios": "https://dc.lft.to/lastmile_qr_scan"}, "fusion_lon": 0.0, "lat": 38.919195333333334, "bike_id": "9f0f2b99ae7fa28205487821e60169de", "type": "electric_scooter", "is_reserved": 0, "lon": -77.0331315}, {"fusion_lat": 0.0, "name": "3612c04ea8447bc609660ea57f84063f", "is_disabled": 0, "rental_uris": {"android": "https://dc.lft.to/lastmile_qr_scan", "ios": "https://dc.lft.to/lastmile_qr_scan"}, "fusion_lon": 0.0, "lat": 38.93301666666667, "bike_id": "3612c04ea8447bc609660ea57f84063f", "type": "electric_scooter", "is_reserved": 0, "lon": -77.02469883333333}, {"fusion_lat": 0.0, "name": "08d649b2352c92490d56428ee65eb8c5", "is_disabled": 0, "rental_uris": {"android": "https://dc.lft.to/lastmile_qr_scan", "ios": "https://dc.lft.to/lastmile_qr_scan"}, "fusion_lon": 0.0, "lat": 38.91689616666667, "bike_id": "08d649b2352c92490d56428ee65eb8c5", "type": "electric_scooter", "is_reserved": 0, "lon": -77.0376185}, {"fusion_lat": 0.0, "name": "dfe6fc0bc9d0703148d5f483d9ecdbac", "is_disabled": 0, "rental_uris": {"android": "https://dc.lft.to/lastmile_qr_scan", "ios": "https://dc.lft.to/lastmile_qr_scan"}, "fusion_lon": 0.0, "lat": 38.92413166666667, "bike_id": "dfe6fc0bc9d0703148d5f483d9ecdbac", "type": "electric_scooter", "is_reserved": 0, "lon": -77.02007666666667}, {"fusion_lat": 0.0, "name": "78167a53a5c943446cab38a8afb75e24", "is_disabled": 0, "rental_uris": {"android": "https://dc.lft.to/lastmile_qr_scan", "ios": "https://dc.lft.to/lastmile_qr_scan"}, "fusion_lon": 0.0, "lat": 38.929222333333335, "bike_id": "78167a53a5c943446cab38a8afb75e24", "type": "electric_scooter", "is_reserved": 0, "lon": -77.02639533333334}, {"fusion_lat": 0.0, "name": "2f4ac5b42776eda4e0d62d9c711d36f6", "is_disabled": 0, "rental_uris": {"android": "https://dc.lft.to/lastmile_qr_scan", "ios": "https://dc.lft.to/lastmile_qr_scan"}, "fusion_lon": 0.0, "lat": 38.91680566666667, "bike_id": "2f4ac5b42776eda4e0d62d9c711d36f6", "type": "electric_scooter", "is_reserved": 0, "lon": -77.0296895}, {"fusion_lat": 0.0, "name": "9a81dc6983f24b2801b0d494aebfccba", "is_disabled": 0, "rental_uris": {"android": "https://dc.lft.to/lastmile_qr_scan", "ios": "https://dc.lft.to/lastmile_qr_scan"}, "fusion_lon": 0.0, "lat": 38.9285595, "bike_id": "9a81dc6983f24b2801b0d494aebfccba", "type": "electric_scooter", "is_reserved": 0, "lon": -76.997855}, {"fusion_lat": 0.0, "name": "f79dc92b54ab94b2d2b7d19bdfdabe7d", "is_disabled": 0, "rental_uris": {"android": "https://dc.lft.to/lastmile_qr_scan", "ios": "https://dc.lft.to/lastmile_qr_scan"}, "fusion_lon": 0.0, "lat": 38.922223, "bike_id": "f79dc92b54ab94b2d2b7d19bdfdabe7d", "type": "electric_scooter", "is_reserved": 0, "lon": -77.04128733333333}, {"fusion_lat": 0.0, "name": "61df121a1a0f1a5cdc64ddd681f75383", "is_disabled": 0, "rental_uris": {"android": "https://dc.lft.to/lastmile_qr_scan", "ios": "https://dc.lft.to/lastmile_qr_scan"}, "fusion_lon": 0.0, "lat": 38.899846333333336, "bike_id": "61df121a1a0f1a5cdc64ddd681f75383", "type": "electric_scooter", "is_reserved": 0, "lon": -77.02931116666667}, {"fusion_lat": 0.0, "name": "fbd7425d56b3832bc793a116e4f5c600", "is_disabled": 0, "rental_uris": {"android": "https://dc.lft.to/lastmile_qr_scan", "ios": "https://dc.lft.to/lastmile_qr_scan"}, "fusion_lon": 0.0, "lat": 38.923571, "bike_id": "fbd7425d56b3832bc793a116e4f5c600", "type": "electric_scooter", "is_reserved": 0, "lon": -77.01960216666667}, {"fusion_lat": 0.0, "name": "13df8027644f5459a5e7bfb58b179e46", "is_disabled": 0, "rental_uris": {"android": "https://dc.lft.to/lastmile_qr_scan", "ios": "https://dc.lft.to/lastmile_qr_scan"}, "fusion_lon": 0.0, "lat": 38.898337166666664, "bike_id": "13df8027644f5459a5e7bfb58b179e46", "type": "electric_scooter", "is_reserved": 0, "lon": -77.02494216666666}, {"fusion_lat": 0.0, "name": "5b57e9c82d777d7028c0c1088fc9dd38", "is_disabled": 0, "rental_uris": {"android": "https://dc.lft.to/lastmile_qr_scan", "ios": "https://dc.lft.to/lastmile_qr_scan"}, "fusion_lon": 0.0, "lat": 38.898516666666666, "bike_id": "5b57e9c82d777d7028c0c1088fc9dd38", "type": "electric_scooter", "is_reserved": 0, "lon": -77.02852333333334}, {"fusion_lat": 0.0, "name": "a5c5cee98e1bd89aa828b6ffa41b2bb6", "is_disabled": 0, "rental_uris": {"android": "https://dc.lft.to/lastmile_qr_scan", "ios": "https://dc.lft.to/lastmile_qr_scan"}, "fusion_lon": 0.0, "lat": 38.94226966666667, "bike_id": "a5c5cee98e1bd89aa828b6ffa41b2bb6", "type": "electric_scooter", "is_reserved": 0, "lon": -77.02343816666666}, {"fusion_lat": 0.0, "name": "2e30516049ddb6b3e2287ba0fea44d0e", "is_disabled": 0, "rental_uris": {"android": "https://dc.lft.to/lastmile_qr_scan", "ios": "https://dc.lft.to/lastmile_qr_scan"}, "fusion_lon": 0.0, "lat": 38.9311525, "bike_id": "2e30516049ddb6b3e2287ba0fea44d0e", "type": "electric_scooter", "is_reserved": 0, "lon": -77.03818}, {"fusion_lat": 0.0, "name": "9ef91a136e622981205cee5947d7de65", "is_disabled": 0, "rental_uris": {"android": "https://dc.lft.to/lastmile_qr_scan", "ios": "https://dc.lft.to/lastmile_qr_scan"}, "fusion_lon": 0.0, "lat": 38.938000333333335, "bike_id": "9ef91a136e622981205cee5947d7de65", "type": "electric_scooter", "is_reserved": 0, "lon": -77.0686165}, {"fusion_lat": 0.0, "name": "3b343ee8dc56a76d630c2069a0698ec5", "is_disabled": 0, "rental_uris": {"android": "https://dc.lft.to/lastmile_qr_scan", "ios": "https://dc.lft.to/lastmile_qr_scan"}, "fusion_lon": 0.0, "lat": 38.9014835, "bike_id": "3b343ee8dc56a76d630c2069a0698ec5", "type": "electric_scooter", "is_reserved": 0, "lon": -77.0332445}, {"fusion_lat": 0.0, "name": "0247611e33ba0d2ae07ba2279b371b5d", "is_disabled": 0, "rental_uris": {"android": "https://dc.lft.to/lastmile_qr_scan", "ios": "https://dc.lft.to/lastmile_qr_scan"}, "fusion_lon": 0.0, "lat": 39.010778, "bike_id": "0247611e33ba0d2ae07ba2279b371b5d", "type": "electric_bike", "is_reserved": 0, "lon": -76.91067316666667}, {"fusion_lat": 0.0, "name": "3d42384b8c5fb408e788d230ed15dc2d", "is_disabled": 0, "rental_uris": {"android": "https://dc.lft.to/lastmile_qr_scan", "ios": "https://dc.lft.to/lastmile_qr_scan"}, "fusion_lon": 0.0, "lat": 38.91695566666667, "bike_id": "3d42384b8c5fb408e788d230ed15dc2d", "type": "electric_bike", "is_reserved": 0, "lon": -77.03384066666666}, {"fusion_lat": 0.0, "name": "5c9530b9c0e6b6b73463ea860ff91330", "is_disabled": 0, "rental_uris": {"android": "https://dc.lft.to/lastmile_qr_scan", "ios": "https://dc.lft.to/lastmile_qr_scan"}, "fusion_lon": 0.0, "lat": 38.912667, "bike_id": "5c9530b9c0e6b6b73463ea860ff91330", "type": "electric_scooter", "is_reserved": 0, "lon": -77.04930716666667}, {"fusion_lat": 0.0, "name": "253015423f1cb7476d124274ba7c33e7", "is_disabled": 0, "rental_uris": {"android": "https://dc.lft.to/lastmile_qr_scan", "ios": "https://dc.lft.to/lastmile_qr_scan"}, "fusion_lon": 0.0, "lat": 38.8900785, "bike_id": "253015423f1cb7476d124274ba7c33e7", "type": "electric_scooter", "is_reserved": 0, "lon": -76.9374925}, {"fusion_lat": 0.0, "name": "0524b8a0484dc81e27468070224a91cc", "is_disabled": 0, "rental_uris": {"android": "https://dc.lft.to/lastmile_qr_scan", "ios": "https://dc.lft.to/lastmile_qr_scan"}, "fusion_lon": 0.0, "lat": 38.90443583333333, "bike_id": "0524b8a0484dc81e27468070224a91cc", "type": "electric_scooter", "is_reserved": 0, "lon": -77.03354466666667}, {"fusion_lat": 0.0, "name": "1b3f928e48a780a38d2774d69a47d961", "is_disabled": 0, "rental_uris": {"android": "https://dc.lft.to/lastmile_qr_scan", "ios": "https://dc.lft.to/lastmile_qr_scan"}, "fusion_lon": 0.0, "lat": 38.913632166666666, "bike_id": "1b3f928e48a780a38d2774d69a47d961", "type": "electric_scooter", "is_reserved": 0, "lon": -77.04877233333333}, {"fusion_lat": 0.0, "name": "f67525eea49f0e43b7371e45de1b8c41", "is_disabled": 0, "rental_uris": {"android": "https://dc.lft.to/lastmile_qr_scan", "ios": "https://dc.lft.to/lastmile_qr_scan"}, "fusion_lon": 0.0, "lat": 38.88743383333333, "bike_id": "f67525eea49f0e43b7371e45de1b8c41", "type": "electric_scooter", "is_reserved": 0, "lon": -77.02575116666667}, {"fusion_lat": 0.0, "name": "60bcaf891ce9411dcba0d4331bf64370", "is_disabled": 0, "rental_uris": {"android": "https://dc.lft.to/lastmile_qr_scan", "ios": "https://dc.lft.to/lastmile_qr_scan"}, "fusion_lon": 0.0, "lat": 38.910325, "bike_id": "60bcaf891ce9411dcba0d4331bf64370", "type": "electric_scooter", "is_reserved": 0, "lon": -77.01516633333334}, {"fusion_lat": 0.0, "name": "c36bdf3f0642f7386420cddb4b911067", "is_disabled": 0, "rental_uris": {"android": "https://dc.lft.to/lastmile_qr_scan", "ios": "https://dc.lft.to/lastmile_qr_scan"}, "fusion_lon": 0.0, "lat": 38.89866266666667, "bike_id": "c36bdf3f0642f7386420cddb4b911067", "type": "electric_scooter", "is_reserved": 0, "lon": -77.028068}, {"fusion_lat": 0.0, "name": "65b7eef3a24830a10dcc35c86c4c7ee1", "is_disabled": 0, "rental_uris": {"android": "https://dc.lft.to/lastmile_qr_scan", "ios": "https://dc.lft.to/lastmile_qr_scan"}, "fusion_lon": 0.0, "lat": 38.92399616666667, "bike_id": "65b7eef3a24830a10dcc35c86c4c7ee1", "type": "electric_scooter", "is_reserved": 0, "lon": -77.024187},