{"data": {"bikes": [{"rental_uris": {"ios": "https://dc.lft.to/lastmile_qr_scan", "android": "https://dc.lft.to/lastmile_qr_scan"}, "fusion_lat": 0.0, "name": "794e901ae6b4bcc8d08d11433b6c9b9f", "bike_id": "794e901ae6b4bcc8d08d11433b6c9b9f", "is_disabled": 0, "type": "electric_scooter", "lat": 38.94534616666667, "lon": -77.01789116666667, "is_reserved": 0, "fusion_lon": 0.0}, {"rental_uris": {"ios": "https://dc.lft.to/lastmile_qr_scan", "android": "https://dc.lft.to/lastmile_qr_scan"}, "fusion_lat": 0.0, "name": "7a2ec67779b4b5cab4e6d3185db68076", "bike_id": "7a2ec67779b4b5cab4e6d3185db68076", "is_disabled": 0, "type": "electric_scooter", "lat": 38.90054766666667, "lon": -77.05144533333333, "is_reserved": 0, "fusion_lon": 0.0}, {"rental_uris": {"ios": "https://dc.lft.to/lastmile_qr_scan", "android": "https://dc.lft.to/lastmile_qr_scan"}, "fusion_lat": 0.0, "name": "9f99af4791a708181a0ae24133fb7f1e", "bike_id": "9f99af4791a708181a0ae24133fb7f1e", "is_disabled": 0, "type": "electric_scooter", "lat": 38.90497366666666, "lon": -77.04859716666667, "is_reserved": 0, "fusion_lon": 0.0}, {"rental_uris": {"ios": "https://dc.lft.to/lastmile_qr_scan", "android": "https://dc.lft.to/lastmile_qr_scan"}, "fusion_lat": 0.0, "name": "70dcc364ae4f31be1b0e6f5fb3e10340", "bike_id": "70dcc364ae4f31be1b0e6f5fb3e10340", "is_disabled": 0, "type": "electric_scooter", "lat": 38.9116485, "lon": -77.0448015, "is_reserved": 0, "fusion_lon": 0.0}, {"rental_uris": {"ios": "https://dc.lft.to/lastmile_qr_scan", "android": "https://dc.lft.to/lastmile_qr_scan"}, "fusion_lat": 0.0, "name": "b572b12349b143807fb90a97d207dde6", "bike_id": "b572b12349b143807fb90a97d207dde6", "is_disabled": 0, "type": "electric_scooter", "lat": 38.916870833333334, "lon": -77.03628866666666, "is_reserved": 0, "fusion_lon": 0.0}, {"rental_uris": {"ios": "https://dc.lft.to/lastmile_qr_scan", "android": "https://dc.lft.to/lastmile_qr_scan"}, "fusion_lat": 0.0, "name": "dfe146394eefabbab9e8c217ada6923c", "bike_id": "dfe146394eefabbab9e8c217ada6923c", "is_disabled": 0, "type": "electric_scooter", "lat": 38.91552433333333, "lon": -77.022127, "is_reserved": 0, "fusion_lon": 0.0}, {"rental_uris": {"ios": "https://dc.lft.to/lastmile_qr_scan", "android": "https://dc.lft.to/lastmile_qr_scan"}, "fusion_lat": 0.0, "name": "a505517ce3bf850293e16cc27813c913", "bike_id": "a505517ce3bf850293e16cc27813c913", "is_disabled": 0, "type": "electric_scooter", "lat": 38.89034683333333, "lon": -76.9375655, "is_reserved": 0, "fusion_lon": 0.0}, {"rental_uris": {"ios": "https://dc.lft.to/lastmile_qr_scan", "android": "https://dc.lft.to/lastmile_qr_scan"}, "fusion_lat": 0.0, "name": "0bc8eab81b6c7107442c5f585ac199c7", "bike_id": "0bc8eab81b6c7107442c5f585ac199c7", "is_disabled": 0, "type": "electric_scooter", "lat": 38.91556116666667, "lon": -77.038672, "is_reserved": 0, "fusion_lon": 0.0}, {"rental_uris": {"ios": "https://dc.lft.to/lastmile_qr_scan", "android": "https://dc.lft.to/lastmile_qr_scan"}, "fusion_lat": 0.0, "name": "635a8679efb28c23920b08ec43b4eae5", "bike_id": "635a8679efb28c23920b08ec43b4eae5", "is_disabled": 0, "type": "electric_bike", "lat": 38.83810733333333, "lon": -77.09523883333334, "is_reserved": 0, "fusion_lon": 0.0}, {"rental_uris": {"ios": "https://dc.lft.to/lastmile_qr_scan", "android": "https://dc.lft.to/lastmile_qr_scan"}, "fusion_lat": 0.0, "name": "4371bd45aa8cee72b6323c446dc5f0c3", "bike_id": "4371bd45aa8cee72b6323c446dc5f0c3", "is_disabled": 0, "type": "electric_scooter", "lat": 38.90944316666667, "lon": -77.04479066666667, "is_reserved": 0, "fusion_lon": 0.0}, {"rental_uris": {"ios": "https://dc.lft.to/lastmile_qr_scan", "android": "https://dc.lft.to/lastmile_qr_scan"}, "fusion_lat": 0.0, "name": "d659c19f11f0d7a07f7bdc9a2aacc06c", "bike_id": "d659c19f11f0d7a07f7bdc9a2aacc06c", "is_disabled": 0, "type": "electric_scooter", "lat": 38.87961516666667, "lon": -76.98743883333333, "is_reserved": 0, "fusion_lon": 0.0}, {"rental_uris": {"ios": "https://dc.lft.to/lastmile_qr_scan", "android": "https://dc.lft.to/lastmile_qr_scan"}, "fusion_lat": 0.0, "name": "5992b727b776afb31fce5a0efe181f2c", "bike_id": "5992b727b776afb31fce5a0efe181f2c", "is_disabled": 0, "type": "electric_bike", "lat": 38.918041833333334, "lon": -77.223659, "is_reserved": 0, "fusion_lon": 0.0}, {"rental_uris": {"ios": "https://dc.lft.to/lastmile_qr_scan", "android": "https://dc.lft.to/lastmile_qr_scan"}, "fusion_lat": 0.0, "name": "c8626e2aa7ec16e763753b27f6056b95", "bike_id": "c8626e2aa7ec16e763753b27f6056b95", "is_disabled": 0, "type": "electric_scooter", "lat": 38.92142616666667, "lon": -77.01806566666667, "is_reserved": 0, "fusion_lon": 0.0}, {"rental_uris": {"ios": "https://dc.lft.to/lastmile_qr_scan", "android": "https://dc.lft.to/lastmile_qr_scan"}, "fusion_lat": 0.0, "name": "e130aef9dc040425e88fafd81fb5f0df", "bike_id": "e130aef9dc040425e88fafd81fb5f0df", "is_disabled": 0, "type": "electric_scooter", "lat": 38.9131895, "lon": -77.040255, "is_reserved": 0, "fusion_lon": 0.0}, {"rental_uris": {"ios": "https://dc.lft.to/lastmile_qr_scan", "android": "https://dc.lft.to/lastmile_qr_scan"}, "fusion_lat": 0.0, "name": "5fad62d7c9aad338d5956ce63a7e35a1", "bike_id": "5fad62d7c9aad338d5956ce63a7e35a1", "is_disabled": 0, "type": "electric_scooter", "lat": 38.91799183333333, "lon": -77.03659066666667, "is_reserved": 0, "fusion_lon": 0.0}, {"rental_uris": {"ios": "https://dc.lft.to/lastmile_qr_scan", "android": "https://dc.lft.to/lastmile_qr_scan"}, "fusion_lat": 0.0, "name": "c35e4cfebc85c5f818c6454758237ef5", "bike_id": "c35e4cfebc85c5f818c6454758237ef5", "is_disabled": 0, "type": "electric_scooter", "lat": 38.90525616666667, "lon": -77.061647, "is_reserved": 0, "fusion_lon": 0.0}, {"rental_uris": {"ios": "https://dc.lft.to/lastmile_qr_scan", "android": "https://dc.lft.to/lastmile_qr_scan"}, "fusion_lat": 0.0, "name": "b067bdb338284de6ce4f781ff719fb45", "bike_id": "b067bdb338284de6ce4f781ff719fb45", "is_disabled": 0, "type": "electric_scooter", "lat": 38.917002333333336, "lon": -77.024674, "is_reserved": 0, "fusion_lon": 0.0}, {"rental_uris": {"ios": "https://dc.lft.to/lastmile_qr_scan", "android": "https://dc.lft.to/lastmile_qr_scan"}, "fusion_lat": 0.0, "name": "9c4fe297045da112df6676cf5bc9330d", "bike_id": "9c4fe297045da112df6676cf5bc9330d", "is_disabled": 0, "type": "electric_scooter", "lat": 38.903058333333334, "lon": -77.03952116666666, "is_reserved": 0, "fusion_lon": 0.0}, {"rental_uris": {"ios": "https://dc.lft.to/lastmile_qr_scan", "android": "https://dc.lft.to/lastmile_qr_scan"}, "fusion_lat": 0.0, "name": "0b7e0a2eb2fe523630e35bd88a93a432", "bike_id": "0b7e0a2eb2fe523630e35bd88a93a432", "is_disabled": 0, "type": "electric_scooter", "lat": 38.907535833333334, "lon": -76.98332083333334, "is_reserved": 0, "fusion_lon": 0.0}, {"rental_uris": {"ios": "https://dc.lft.to/lastmile_qr_scan", "android": "https://dc.lft.to/lastmile_qr_scan"}, "fusion_lat": 0.0, "name": "d284cfb146539ec6d0049305fb7960b3", "bike_id": "d284cfb146539ec6d0049305fb7960b3", "is_disabled": 0, "type": "electric_bike", "lat": 38.87069116666667, "lon": -76.97829266666666, "is_reserved": 0, "fusion_lon": 0.0}, {"rental_uris": {"ios": "https://dc.lft.to/lastmile_qr_scan", "android": "https://dc.lft.to/lastmile_qr_scan"}, "fusion_lat": 0.0, "name": "e38c1e6ff3de603e15bf9a62df134c73", "bike_id": "e38c1e6ff3de603e15bf9a62df134c73", "is_disabled": 0, "type": "electric_scooter", "lat": 38.92148066666667, "lon": -77.03512533333334, "is_reserved": 0, "fusion_lon": 0.0}, {"rental_uris": {"ios": "https://dc.lft.to/lastmile_qr_scan", "android": "https://dc.lft.to/lastmile_qr_scan"}, "fusion_lat": 0.0, "name": "9065fa2cabef335f97814b5622d93581", "bike_id": "9065fa2cabef335f97814b5622d93581", "is_disabled": 0, "type": "electric_bike", "lat": 38.95479483333333, "lon": -76.98869833333333, "is_reserved": 0, "fusion_lon": 0.0}, {"rental_uris": {"ios": "https://dc.lft.to/lastmile_qr_scan", "android": "https://dc.lft.to/lastmile_qr_scan"}, "fusion_lat": 0.0, "name": "03ce56b997a39438689fd582fbc56215", "bike_id": "03ce56b997a39438689fd582fbc56215", "is_disabled": 0, "type": "electric_scooter", "lat": 38.902793333333335, "lon": -77.045316, "is_reserved": 0, "fusion_lon": 0.0}, {"rental_uris": {"ios": "https://dc.lft.to/lastmile_qr_scan", "android": "https://dc.lft.to/lastmile_qr_scan"}, "fusion_lat": 0.0, "name": "02e56e2f73940a70e1c5b6eed14c9a16", "bike_id": "02e56e2f73940a70e1c5b6eed14c9a16", "is_disabled": 0, "type": "electric_bike", "lat": 38.893952, "lon": -76.94803183333333, "is_reserved": 0, "fusion_lon": 0.0}, {"rental_uris": {"ios": "https://dc.lft.to/lastmile_qr_scan", "android": "https://dc.lft.to/lastmile_qr_scan"}, "fusion_lat": 0.0, "name": "60c844045a95e45437dd19995ad0f26a", "bike_id": "60c844045a95e45437dd19995ad0f26a", "is_disabled": 0, "type": "electric_scooter", "lat": 38.87180016666667, "lon": -77.00610866666666, "is_reserved": 0, "fusion_lon": 0.0}, {"rental_uris": {"ios": "https://dc.lft.to/lastmile_qr_scan", "android": "https://dc.lft.to/lastmile_qr_scan"}, "fusion_lat": 0.0, "name": "a279874253e610217bf63f84deb75873", "bike_id": "a279874253e610217bf63f84deb75873", "is_disabled": 0, "type": "electric_scooter", "lat": 38.8674705, "lon": -77.03855583333333, "is_reserved": 0, "fusion_lon": 0.0}, {"rental_uris": {"ios": "https://dc.lft.to/lastmile_qr_scan", "android": "https://dc.lft.to/lastmile_qr_scan"}, "fusion_lat": 0.0, "name": "57a6a02926da30b75754ee6598b56702", "bike_id": "57a6a02926da30b75754ee6598b56702", "is_disabled": 0, "type": "electric_scooter", "lat": 38.90930633333333, "lon": -77.07391866666667, "is_reserved": 0, "fusion_lon": 0.0}, {"rental_uris": {"ios": "https://dc.lft.to/lastmile_qr_scan", "android": "https://dc.lft.to/lastmile_qr_scan"}, "fusion_lat": 0.0, "name": "b1f6fa15acc91ea7d38fbb1d2f64bb86", "bike_id": "b1f6fa15acc91ea7d38fbb1d2f64bb86", "is_disabled": 0, "type": "electric_scooter", "lat": 38.91709433333333, "lon": -77.03224616666667, "is_reserved": 0, "fusion_lon": 0.0}, {"rental_uris": {"ios": "https://dc.lft.to/lastmile_qr_scan", "android": "https://dc.lft.to/lastmile_qr_scan"}, "fusion_lat": 0.0, "name": "f39b0db869e198af27c38323a9fb5fba", "bike_id": "f39b0db869e198af27c38323a9fb5fba", "is_disabled": 0, "type": "electric_scooter", "lat": 38.90217233333333, "lon": -77.00911366666666, "is_reserved": 0, "fusion_lon": 0.0}, {"rental_uris": {"ios": "https://dc.lft.to/lastmile_qr_scan", "android": "https://dc.lft.to/lastmile_qr_scan"}, "fusion_lat": 0.0, "name": "124b04a1dbfa947b446de225849f836c", "bike_id": "124b04a1dbfa947b446de225849f836c", "is_disabled": 0, "type": "electric_scooter", "lat": 38.910694166666666, "lon": -77.0439835, "is_reserved": 0, "fusion_lon": 0.0}, {"rental_uris": {"ios": "https://dc.lft.to/lastmile_qr_scan", "android": "https://dc.lft.to/lastmile_qr_scan"}, "fusion_lat": 0.0, "name": "0cc97d379139eaeb94b48b86bd906987", "bike_id": "0cc97d379139eaeb94b48b86bd906987", "is_disabled": 0, "type": "electric_scooter", "lat": 38.92312283333333, "lon": -77.03427133333334, "is_reserved": 0, "fusion_lon": 0.0}, {"rental_uris": {"ios": "https://dc.lft.to/lastmile_qr_scan", "android": "https://dc.lft.to/lastmile_qr_scan"}, "fusion_lat": 0.0, "name": "3141bbce1eb6bd511511b940e553de78", "bike_id": "3141bbce1eb6bd511511b940e553de78", "is_disabled": 0, "type": "electric_scooter", "lat": 38.8935245, "lon": -77.0033405, "is_reserved": 0, "fusion_lon": 0.0}, {"rental_uris": {"ios": "https://dc.lft.to/lastmile_qr_scan", "android": "https://dc.lft.to/lastmile_qr_scan"}, "fusion_lat": 0.0, "name": "7bd70fbbc91d950f7b7c010362cb9c83", "bike_id": "7bd70fbbc91d950f7b7c010362cb9c83", "is_disabled": 0, "type": "electric_scooter", "lat": 38.8874225, "lon": -77.0286315, "is_reserved": 0, "fusion_lon": 0.0}, {"rental_uris": {"ios": "https://dc.lft.to/lastmile_qr_scan", "android": "https://dc.lft.to/lastmile_qr_scan"}, "fusion_lat": 0.0, "name": "17b9c39dd2f313b688a02df395dc58c0", "bike_id": "17b9c39dd2f313b688a02df395dc58c0", "is_disabled": 0, "type": "electric_scooter", "lat": 38.916697, "lon": -77.02391433333334, "is_reserved": 0, "fusion_lon": 0.0}, {"rental_uris": {"ios": "https://dc.lft.to/lastmile_qr_scan", "android": "https://dc.lft.to/lastmile_qr_scan"}, "fusion_lat": 0.0, "name": "dd5ebabc2c0af91654816ba7b3707f88", "bike_id": "dd5ebabc2c0af91654816ba7b3707f88", "is_disabled": 0, "type": "electric_scooter", "lat": 38.9374815, "lon": -77.03451433333333, "is_reserved": 0, "fusion_lon": 0.0}, {"rental_uris": {"ios": "https://dc.lft.to/lastmile_qr_scan", "android": "https://dc.lft.to/lastmile_qr_scan"}, "fusion_lat": 0.0, "name": "63824f3b9217ab2de8bf2ef13728286b", "bike_id": "63824f3b9217ab2de8bf2ef13728286b", "is_disabled": 0, "type": "electric_scooter", "lat": 38.910354, "lon": -77.04372966666666, "is_reserved": 0, "fusion_lon": 0.0}, {"rental_uris": {"ios": "https://dc.lft.to/lastmile_qr_scan", "android": "https://dc.lft.to/lastmile_qr_scan"}, "fusion_lat": 0.0, "name": "258db7268af1572fc9b94e0f88f1dbbf", "bike_id": "258db7268af1572fc9b94e0f88f1dbbf", "is_disabled": 0, "type": "electric_scooter", "lat": 38.933463833333334, "lon": -77.07258283333333, "is_reserved": 0, "fusion_lon": 0.0}, {"rental_uris": {"ios": "https://dc.lft.to/lastmile_qr_scan", "android": "https://dc.lft.to/lastmile_qr_scan"}, "fusion_lat": 0.0, "name": "4ebdc03330bb4072fb81b0a83f54a1e7", "bike_id": "4ebdc03330bb4072fb81b0a83f54a1e7", "is_disabled": 0, "type": "electric_scooter", "lat": 38.906814, "lon": -77.02697316666666, "is_reserved": 0, "fusion_lon": 0.0}, {"rental_uris": {"ios": "https://dc.lft.to/lastmile_qr_scan", "android": "https://dc.lft.to/lastmile_qr_scan"}, "fusion_lat": 0.0, "name": "719751d7eb87a2ef69a535ef7c6a547c", "bike_id": "719751d7eb87a2ef69a535ef7c6a547c", "is_disabled": 0, "type": "electric_scooter", "lat": 38.88738583333333, "lon": -77.01536183333333, "is_reserved": 0, "fusion_lon": 0.0}, {"rental_uris": {"ios": "https://dc.lft.to/lastmile_qr_scan", "android": "https://dc.lft.to/lastmile_qr_scan"}, "fusion_lat": 0.0, "name": "e42360c407df2497a4fa2e24beb5ba88", "bike_id": "e42360c407df2497a4fa2e24beb5ba88", "is_disabled": 0, "type": "electric_scooter", "lat": 38.897257833333335, "lon": -77.04341333333333, "is_reserved": 0, "fusion_lon": 0.0}, {"rental_uris": {"ios": "https://dc.lft.to/lastmile_qr_scan", "android": "https://dc.lft.to/lastmile_qr_scan"}, "fusion_lat": 0.0, "name": "3ad250cf17d9cd1fc4fd77511cba3720", "bike_id": "3ad250cf17d9cd1fc4fd77511cba3720", "is_disabled": 0, "type": "electric_scooter", "lat": 38.94467233333334, "lon": -77.0234075, "is_reserved": 0, "fusion_lon": 0.0}, {"rental_uris": {"ios": "https://dc.lft.to/lastmile_qr_scan", "android": "https://dc.lft.to/lastmile_qr_scan"}, "fusion_lat": 0.0, "name": "4ab8248d4ef577fbf2e4b21d4a124edd", "bike_id": "4ab8248d4ef577fbf2e4b21d4a124edd", "is_disabled": 0, "type": "electric_scooter", "lat": 38.9072465, "lon": -77.023463, "is_reserved": 0, "fusion_lon": 0.0}, {"rental_uris": {"ios": "https://dc.lft.to/lastmile_qr_scan", "android": "https://dc.lft.to/lastmile_qr_scan"}, "fusion_lat": 0.0, "name": "43dd29e804aa3ece3c400eae44e0427e", "bike_id": "43dd29e804aa3ece3c400eae44e0427e", "is_disabled": 0, "type": "electric_bike", "lat": 38.85396333333333, "lon": -77.12484966666666, "is_reserved": 0, "fusion_lon": 0.0}, {"rental_uris": {"ios": "https://dc.lft.to/lastmile_qr_scan", "android": "https://dc.lft.to/lastmile_qr_scan"}, "fusion_lat": 0.0, "name": "059c06a5975acf6730510b195892d903", "bike_id": "059c06a5975acf6730510b195892d903", "is_disabled": 0, "type": "electric_scooter", "lat": 38.89624116666667, "lon": -77.03181033333334, "is_reserved": 0, "fusion_lon": 0.0}, {"rental_uris": {"ios": "https://dc.lft.to/lastmile_qr_scan", "android": "https://dc.lft.to/lastmile_qr_scan"}, "fusion_lat": 0.0, "name": "54a2c27425b4bcfa2310eccfdcca4594", "bike_id": "54a2c27425b4bcfa2310eccfdcca4594", "is_disabled": 0, "type": "electric_scooter", "lat": 38.883706833333335, "lon": -76.99512916666667, "is_reserved": 0, "fusion_lon": 0.0}, {"rental_uris": {"ios": "https://dc.lft.to/lastmile_qr_scan", "android": "https://dc.lft.to/lastmile_qr_scan"}, "fusion_lat": 0.0, "name": "02b45ebf4b87fd683fdcd1d4431ec67f", "bike_id": "02b45ebf4b87fd683fdcd1d4431ec67f", "is_disabled": 0, "type": "electric_scooter", "lat": 38.906663333333334, "lon": -77.02703783333334, "is_reserved": 0, "fusion_lon": 0.0}, {"rental_uris": {"ios": "https://dc.lft.to/lastmile_qr_scan", "android": "https://dc.lft.to/lastmile_qr_scan"}, "fusion_lat": 0.0, "name": "66afd4d027dd417cd58b02fa348b0ea3", "bike_id": "66afd4d027dd417cd58b02fa348b0ea3", "is_disabled": 0, "type": "electric_scooter", "lat": 38.92046883333333, "lon": -77.04194366666667, "is_reserved": 0, "fusion_lon": 0.0}, {"rental_uris": {"ios": "https://dc.lft.to/lastmile_qr_scan", "android": "https://dc.lft.to/lastmile_qr_scan"}, "fusion_lat": 0.0, "name": "fc557b00008e1c271ddc7df7fe3fb1a2", "bike_id": "fc557b00008e1c271ddc7df7fe3fb1a2", "is_disabled": 0, "type": "electric_bike", "lat": 38.840120166666665, "lon": -76.97530233333333, "is_reserved": 0, "fusion_lon": 0.0}, {"rental_uris": {"ios": "https://dc.lft.to/lastmile_qr_scan", "android": "https://dc.lft.to/lastmile_qr_scan"}, "fusion_lat": 0.0, "name": "164ccbef9199e1d5ff2fc671a496b5a2", "bike_id": "164ccbef9199e1d5ff2fc671a496b5a2", "is_disabled": 0, "type": "electric_scooter", "lat": 38.862421833333336, "lon": -76.994985, "is_reserved": 0, "fusion_lon": 0.0}, {"rental_uris": {"ios": "https://dc.lft.to/lastmile_qr_scan", "android": "https://dc.lft.to/lastmile_qr_scan"}, "fusion_lat": 0.0, "name": "924a3f49bc2039168d6c308bc9c8f3e5", "bike_id": "924a3f49bc2039168d6c308bc9c8f3e5", "is_disabled": 0, "type": "electric_scooter", "lat": 38.897276, "lon": -77.04689216666667, "is_reserved": 0, "fusion_lon": 0.0}, {"rental_uris": {"ios": "https://dc.lft.to/lastmile_qr_scan", "android": "https://dc.lft.to/lastmile_qr_scan"}, "fusion_lat": 0.0, "name": "23bffa543d00c58098fc3238ed3da852", "bike_id": "23bffa543d00c58098fc3238ed3da852", "is_disabled": 0, "type": "electric_scooter", "lat": 38.901354, "lon": -77.02942516666667, "is_reserved": 0, "fusion_lon": 0.0}, {"rental_uris": {"ios": "https://dc.lft.to/lastmile_qr_scan", "android": "https://dc.lft.to/lastmile_qr_scan"}, "fusion_lat": 0.0, "name": "7d6a0a3047e981559c432d6cba66a211", "bike_id": "7d6a0a3047e981559c432d6cba66a211", "is_disabled": 0, "type": "electric_bike", "lat": 38.881910833333336, "lon": -76.99498716666666, "is_reserved": 0, "fusion_lon": 0.0}, {"rental_uris": {"ios": "https://dc.lft.to/lastmile_qr_scan", "android": "https://dc.lft.to/lastmile_qr_scan"}, "fusion_lat": 0.0, "name": "87eae2b9934bc12b5a49487084fd1499", "bike_id": "87eae2b9934bc12b5a49487084fd1499", "is_disabled": 0, "type": "electric_scooter", "lat": 38.917964166666664, "lon": -77.03661483333333, "is_reserved": 0, "fusion_lon": 0.0}, {"rental_uris": {"ios": "https://dc.lft.to/lastmile_qr_scan", "android": "https://dc.lft.to/lastmile_qr_scan"}, "fusion_lat": 0.0, "name": "7b966eebeff898cb4965d5e701bee81c", "bike_id": "7b966eebeff898cb4965d5e701bee81c", "is_disabled": 0, "type": "electric_scooter", "lat": 38.911042, "lon": -77.044819, "is_reserved": 0, "fusion_lon": 0.0}, {"rental_uris": {"ios": "https://dc.lft.to/lastmile_qr_scan", "android": "https://dc.lft.to/lastmile_qr_scan"}, "fusion_lat": 0.0, "name": "1a5b203e0e32656aafc9a47148b737f5", "bike_id": "1a5b203e0e32656aafc9a47148b737f5", "is_disabled": 0, "type": "electric_scooter", "lat": 38.9441495, "lon": -77.05516716666666, "is_reserved": 0, "fusion_lon": 0.0}, {"rental_uris": {"ios": "https://dc.lft.to/lastmile_qr_scan", "android": "https://dc.lft.to/lastmile_qr_scan"}, "fusion_lat": 0.0, "name": "74bb722494392c3ec4a5a36884be1924", "bike_id": "74bb722494392c3ec4a5a36884be1924", "is_disabled": 0, "type": "electric_bike", "lat": 38.91474216666667, "lon": -76.98110666666666, "is_reserved": 0, "fusion_lon": 0.0}, {"rental_uris": {"ios": "https://dc.lft.to/lastmile_qr_scan", "android": "https://dc.lft.to/lastmile_qr_scan"}, "fusion_lat": 0.0, "name": "3e02cdb6fc66a1aaa4866ac697c73468", "bike_id": "3e02cdb6fc66a1aaa4866ac697c73468", "is_disabled": 0, "type": "electric_scooter", "lat": 38.922105333333334, "lon": -77.003907, "is_reserved": 0, "fusion_lon": 0.0}, {"rental_uris": {"ios": "https://dc.lft.to/lastmile_qr_scan", "android": "https://dc.lft.to/lastmile_qr_scan"}, "fusion_lat": 0.0, "name": "00bdeb3e06a51dc90a3c5ca08dc8df33", "bike_id": "00bdeb3e06a51dc90a3c5ca08dc8df33", "is_disabled": 0, "type": "electric_scooter", "lat": 38.90562166666667, "lon": -77.03473133333334, "is_reserved": 0, "fusion_lon": 0.0}, {"rental_uris": {"ios": "https://dc.lft.to/lastmile_qr_scan", "android": "https://dc.lft.to/lastmile_qr_scan"}, "fusion_lat": 0.0, "name": "eb9a5e43fb89552bcd9f7d59a36d77fe", "bike_id": "eb9a5e43fb89552bcd9f7d59a36d77fe", "is_disabled": 0, "type": "electric_scooter", "lat": 38.90384, "lon": -77.04509383333334, "is_reserved": 0, "fusion_lon": 0.0}, {"rental_uris": {"ios": "https://dc.lft.to/lastmile_qr_scan", "android": "https://dc.lft.to/lastmile_qr_scan"}, "fusion_lat": 0.0, "name": "c7412820e1e655c73dfcfd30780b849e", "bike_id": "c7412820e1e655c73dfcfd30780b849e", "is_disabled": 0, "type": "electric_scooter", "lat": 38.91729083333333, "lon": -77.04171316666667, "is_reserved": 0, "fusion_lon": 0.0}, {"rental_uris": {"ios": "https://dc.lft.to/lastmile_qr_scan", "android": "https://dc.lft.to/lastmile_qr_scan"}, "fusion_lat": 0.0, "name": "d304bad2b3505cc2daf808364cbc2695", "bike_id": "d304bad2b3505cc2daf808364cbc2695", "is_disabled": 0, "type": "electric_scooter", "lat": 38.910067833333336, "lon": -77.04423766666666, "is_reserved": 0, "fusion_lon": 0.0}, {"rental_uris": {"ios": "https://dc.lft.to/lastmile_qr_scan", "android": "https://dc.lft.to/lastmile_qr_scan"}, "fusion_lat": 0.0, "name": "bd76fc71ce9cca0623f0d303c8a66dce", "bike_id": "bd76fc71ce9cca0623f0d303c8a66dce", "is_disabled": 0, "type": "electric_scooter", "lat": 38.91550733333333, "lon": -77.03665133333334, "is_reserved": 0, "fusion_lon": 0.0}, {"rental_uris": {"ios": "https://dc.lft.to/lastmile_qr_scan", "android": "https://dc.lft.to/lastmile_qr_scan"}, "fusion_lat": 0.0, "name": "2edefdf5967fe492df859acefa9471ad", "bike_id": "2edefdf5967fe492df859acefa9471ad", "is_disabled": 0, "type": "electric_scooter", "lat": 38.9159835, "lon": -77.02978583333334, "is_reserved": 0, "fusion_lon": 0.0}, {"rental_uris": {"ios": "https://dc.lft.to/lastmile_qr_scan", "android": "https://dc.lft.to/lastmile_qr_scan"}, "fusion_lat": 0.0, "name": "4477110e9ca2aba340b73b8751f3697f", "bike_id": "4477110e9ca2aba340b73b8751f3697f", "is_disabled": 0, "type": "electric_scooter", "lat": 38.906151666666666, "lon": -77.02180033333333, "is_reserved": 0, "fusion_lon": 0.0}, {"rental_uris": {"ios": "https://dc.lft.to/lastmile_qr_scan", "android": "https://dc.lft.to/lastmile_qr_scan"}, "fusion_lat": 0.0, "name": "851e48c8a0a97c3c7b878142b6cc439e", "bike_id": "851e48c8a0a97c3c7b878142b6cc439e", "is_disabled": 0, "type": "electric_scooter", "lat": 38.92205383333334, "lon": -77.042359, "is_reserved": 0, "fusion_lon": 0.0}, {"rental_uris": {"ios": "https://dc.lft.to/lastmile_qr_scan", "android": "https://dc.lft.to/lastmile_qr_scan"}, "fusion_lat": 0.0, "name": "323c91e49f8b6a15b90ae4e37db37730", "bike_id": "323c91e49f8b6a15b90ae4e37db37730", "is_disabled": 0, "type": "electric_scooter", "lat": 38.84297466666666, "lon": -76.99947633333333, "is_reserved": 0, "fusion_lon": 0.0}, {"rental_uris": {"ios": "https://dc.lft.to/lastmile_qr_scan", "android": "https://dc.lft.to/lastmile_qr_scan"}, "fusion_lat": 0.0, "name": "69204c15c071f97493aa48c105188619", "bike_id": "69204c15c071f97493aa48c105188619", "is_disabled": 0, "type": "electric_scooter", "lat": 38.90307283333333, "lon": -77.0331405, "is_reserved": 0, "fusion_lon": 0.0}, {"rental_uris": {"ios": "https://dc.lft.to/lastmile_qr_scan", "android": "https://dc.lft.to/lastmile_qr_scan"}, "fusion_lat": 0.0, "name": "7bba56789d14e55575cda56f559f437e", "bike_id": "7bba56789d14e55575cda56f559f437e", "is_disabled": 0, "type": "electric_scooter", "lat": 38.892235666666664, "lon": -77.03162416666666, "is_reserved": 0, "fusion_lon": 0.0}, {"rental_uris": {"ios": "https://dc.lft.to/lastmile_qr_scan", "android": "https://dc.lft.to/lastmile_qr_scan"}, "fusion_lat": 0.0, "name": "e6078e70fcd3ca217f182a8872c7c979", "bike_id": "e6078e70fcd3ca217f182a8872c7c979", "is_disabled": 0, "type": "electric_scooter", "lat": 38.915645166666664, "lon": -77.02007783333333, "is_reserved": 0, "fusion_lon": 0.0}, {"rental_uris": {"ios": "https://dc.lft.to/lastmile_qr_scan", "android": "https://dc.lft.to/lastmile_qr_scan"}, "fusion_lat": 0.0, "name": "6867d8256d912f84f89ef45ac3182a4a", "bike_id": "6867d8256d912f84f89ef45ac3182a4a", "is_disabled": 0, "type": "electric_scooter", "lat": 38.902697333333336, "lon": -77.03343483333333, "is_reserved": 0, "fusion_lon": 0.0}, {"rental_uris": {"ios": "https://dc.lft.to/lastmile_qr_scan", "android": "https://dc.lft.to/lastmile_qr_scan"}, "fusion_lat": 0.0, "name": "29939c678a23f1c8bc125224b63691b2", "bike_id": "29939c678a23f1c8bc125224b63691b2", "is_disabled": 0, "type": "electric_scooter", "lat": 38.915498666666664, "lon": -77.0463185, "is_reserved": 0, "fusion_lon": 0.0}, {"rental_uris": {"ios": "https://dc.lft.to/lastmile_qr_scan", "android": "https://dc.lft.to/lastmile_qr_scan"}, "fusion_lat": 0.0, "name": "b3560adc089103abe6c58f3d31240799", "bike_id": "b3560adc089103abe6c58f3d31240799", "is_disabled": 0, "type": "electric_bike", "lat": 38.93182783333334, "lon": -77.023511, "is_reserved": 0, "fusion_lon": 0.0}, {"rental_uris": {"ios": "https://dc.lft.to/lastmile_qr_scan", "android": "https://dc.lft.to/lastmile_qr_scan"}, "fusion_lat": 0.0, "name": "23f09a52ed5b1dc6fc9b451eb4b76ac7", "bike_id": "23f09a52ed5b1dc6fc9b451eb4b76ac7", "is_disabled": 0, "type": "electric_scooter", "lat": 38.907834333333334, "lon": -77.03200983333333, "is_reserved": 0, "fusion_lon": 0.0}, {"rental_uris": {"ios": "https://dc.lft.to/lastmile_qr_scan", "android": "https://dc.lft.to/lastmile_qr_scan"}, "fusion_lat": 0.0, "name": "e1f24e82528d5e88ea870afc1d53bce2", "bike_id": "e1f24e82528d5e88ea870afc1d53bce2", "is_disabled": 0, "type": "electric_scooter", "lat": 38.923591, "lon": -77.01918883333333, "is_reserved": 0, "fusion_lon": 0.0}, {"rental_uris": {"ios": "https://dc.lft.to/lastmile_qr_scan", "android": "https://dc.lft.to/lastmile_qr_scan"}, "fusion_lat": 0.0, "name": "1cf8db5c9629ad1db1284502cef45b36", "bike_id": "1cf8db5c9629ad1db1284502cef45b36", "is_disabled": 0, "type": "electric_scooter", "lat": 38.90156416666667, "lon": -77.02396166666666, "is_reserved": 0, "fusion_lon": 0.0}, {"rental_uris": {"ios": "https://dc.lft.to/lastmile_qr_scan", "android": "https://dc.lft.to/lastmile_qr_scan"}, "fusion_lat": 0.0, "name": "1a9eea3b5581b4d30445fdc1158971be", "bike_id": "1a9eea3b5581b4d30445fdc1158971be", "is_disabled": 0, "type": "electric_scooter", "lat": 38.89749233333333, "lon": -76.94185333333333, "is_reserved": 0, "fusion_lon": 0.0}, {"rental_uris": {"ios": "https://dc.lft.to/lastmile_qr_scan", "android": "https://dc.lft.to/lastmile_qr_scan"}, "fusion_lat": 0.0, "name": "47ac1f08c6c49c54ba8223ad2f52afa8", "bike_id": "47ac1f08c6c49c54ba8223ad2f52afa8", "is_disabled": 0, "type": "electric_scooter", "lat": 38.91000833333333, "lon": -77.040086, "is_reserved": 0, "fusion_lon": 0.0}, {"rental_uris": {"ios": "https://dc.lft.to/lastmile_qr_scan", "android": "https://dc.lft.to/lastmile_qr_scan"}, "fusion_lat": 0.0, "name": "ff0f6409e9ada73e0a72a78b7d55f772", "bike_id": "ff0f6409e9ada73e0a72a78b7d55f772", "is_disabled": 0, "type": "electric_scooter", "lat": 38.91108083333334, "lon": -77.00374816666667, "is_reserved": 0, "fusion_lon": 0.0}, {"rental_uris": {"ios": "https://dc.lft.to/lastmile_qr_scan", "android": "https://dc.lft.to/lastmile_qr_scan"}, "fusion_lat": 0.0, "name": "296356f2f2fd3eccd926c4b819e35796", "bike_id": "296356f2f2fd3eccd926c4b819e35796", "is_disabled": 0, "type": "electric_scooter", "lat": 38.92242866666667, "lon": -77.03421983333334, "is_reserved": 0, "fusion_lon": 0.0}, {"rental_uris": {"ios": "https://dc.lft.to/lastmile_qr_scan", "android": "https://dc.lft.to/lastmile_qr_scan"}, "fusion_lat": 0.0, "name": "26f4e76ed0ed67965c2f85177976458d", "bike_id": "26f4e76ed0ed67965c2f85177976458d", "is_disabled": 0, "type": "electric_bike", "lat": 38.85520866666667, "lon": -77.12024466666666, "is_reserved": 0, "fusion_lon": 0.0}, {"rental_uris": {"ios": "https://dc.lft.to/lastmile_qr_scan", "android": "https://dc.lft.to/lastmile_qr_scan"}, "fusion_lat": 0.0, "name": "303440491feac4eabb98af95f2969c74", "bike_id": "303440491feac4eabb98af95f2969c74", "is_disabled": 0, "type": "electric_scooter", "lat": 38.893566666666665, "lon": -77.04190833333334, "is_reserved": 0, "fusion_lon": 0.0}, {"rental_uris": {"ios": "https://dc.lft.to/lastmile_qr_scan", "android": "https://dc.lft.to/lastmile_qr_scan"}, "fusion_lat": 0.0, "name": "5fb851eca8d47d321ee08bb2d892f871", "bike_id": "5fb851eca8d47d321ee08bb2d892f871", "is_disabled": 0, "type": "electric_scooter", "lat": 38.92324816666667, "lon": -77.02129183333334, "is_reserved": 0, "fusion_lon": 0.0}, {"rental_uris": {"ios": "https://dc.lft.to/lastmile_qr_scan", "android": "https://dc.lft.to/lastmile_qr_scan"}, "fusion_lat": 0.0, "name": "d916657aee54a2877f69133ee04e185a", "bike_id": "d916657aee54a2877f69133ee04e185a", "is_disabled": 0, "type": "electric_scooter", "lat": 38.909568166666666, "lon": -77.02588533333333, "is_reserved": 0, "fusion_lon": 0.0}, {"rental_uris": {"ios": "https://dc.lft.to/lastmile_qr_scan", "android": "https://dc.lft.to/lastmile_qr_scan"}, "fusion_lat": 0.0, "name": "dde30ee6b57f88173102bfd81ce8b342", "bike_id": "dde30ee6b57f88173102bfd81ce8b342", "is_disabled": 0, "type": "electric_scooter", "lat": 38.90389366666667, "lon": -77.04832683333333, "is_reserved": 0, "fusion_lon": 0.0}, {"rental_uris": {"ios": "https://dc.lft.to/lastmile_qr_scan", "android": "https://dc.lft.to/lastmile_qr_scan"}, "fusion_lat": 0.0, "name": "47037fa608c65cbd1db9e025698f31ab", "bike_id": "47037fa608c65cbd1db9e025698f31ab", "is_disabled": 0, "type": "electric_scooter", "lat": 38.90979, "lon": -76.995187, "is_reserved": 0, "fusion_lon": 0.0}, {"rental_uris": {"ios": "https://dc.lft.to/lastmile_qr_scan", "android": "https://dc.lft.to/lastmile_qr_scan"}, "fusion_lat": 0.0, "name": "c7ec3bd1a396a9b443358aa2f79991c9", "bike_id": "c7ec3bd1a396a9b443358aa2f79991c9", "is_disabled": 0, "type": "electric_scooter", "lat": 38.9052175, "lon": -77.04185533333333, "is_reserved": 0, "fusion_lon": 0.0}, {"rental_uris": {"ios": "https://dc.lft.to/lastmile_qr_scan", "android": "https://dc.lft.to/lastmile_qr_scan"}, "fusion_lat": 0.0, "name": "d53eeaa50d71973ac57bab2e51d1924f", "bike_id": "d53eeaa50d71973ac57bab2e51d1924f", "is_disabled": 0, "type": "electric_scooter", "lat": 38.909586833333336, "lon": -77.0465325, "is_reserved": 0, "fusion_lon": 0.0}, {"rental_uris": {"ios": "https://dc.lft.to/lastmile_qr_scan", "android": "https://dc.lft.to/lastmile_qr_scan"}, "fusion_lat": 0.0, "name": "6309090a4d77f94d91b12d08221646aa", "bike_id": "6309090a4d77f94d91b12d08221646aa", "is_disabled": 0, "type": "electric_scooter", "lat": 38.917111, "lon": -77.036748, "is_reserved": 0, "fusion_lon": 0.0}, {"rental_uris": {"ios": "https://dc.lft.to/lastmile_qr_scan", "android": "https://dc.lft.to/lastmile_qr_scan"}, "fusion_lat": 0.0, "name": "27db887bf27def69c9177fabc413e203", "bike_id": "27db887bf27def69c9177fabc413e203", "is_disabled": 0, "type": "electric_scooter", "lat": 38.9014115, "lon": -77.04889133333333, "is_reserved": 0, "fusion_lon": 0.0}, {"rental_uris": {"ios": "https://dc.lft.to/lastmile_qr_scan", "android": "https://dc.lft.to/lastmile_qr_scan"}, "fusion_lat": 0.0, "name": "af3579fd75b5ec4807e6e39baac43a6b", "bike_id": "af3579fd75b5ec4807e6e39baac43a6b", "is_disabled": 0, "type": "electric_scooter", "lat": 38.93967133333334, "lon": -77.03208416666666, "is_reserved": 0, "fusion_lon": 0.0}, {"rental_uris": {"ios": "https://dc.lft.to/lastmile_qr_scan", "android": "https://dc.lft.to/lastmile_qr_scan"}, "fusion_lat": 0.0, "name": "5f549c66c5ad6f7c191736be62f53395", "bike_id": "5f549c66c5ad6f7c191736be62f53395", "is_disabled": 0, "type": "electric_scooter", "lat": 38.8825945, "lon": -77.0037415, "is_reserved": 0, "fusion_lon": 0.0}, {"rental_uris": {"ios": "https://dc.lft.to/lastmile_qr_scan", "android": "https://dc.lft.to/lastmile_qr_scan"}, "fusion_lat": 0.0, "name": "731d1f6c9cc4d73c745762f83420e725", "bike_id": "731d1f6c9cc4d73c745762f83420e725", "is_disabled": 0, "type": "electric_scooter", "lat": 38.928071333333335, "lon": -77.0261955, "is_reserved": 0, "fusion_lon": 0.0}, {"rental_uris": {"ios": "https://dc.lft.to/lastmile_qr_scan", "android": "https://dc.lft.to/lastmile_qr_scan"}, "fusion_lat": 0.0, "name": "e3f3020c962f4d177c156ab6484800fb", "bike_id": "e3f3020c962f4d177c156ab6484800fb", "is_disabled": 0, "type": "electric_scooter", "lat": 38.946450166666665, "lon": -77.03109933333333, "is_reserved": 0, "fusion_lon": 0.0}, {"rental_uris": {"ios": "https://dc.lft.to/lastmile_qr_scan", "android": "https://dc.lft.to/lastmile_qr_scan"}, "fusion_lat": 0.0, "name": "5ad1368f08743dac718a55130f57e5ed", "bike_id": "5ad1368f08743dac718a55130f57e5ed", "is_disabled": 0, "type": "electric_bike", "lat": 38.96133116666667, "lon": -77.0097175, "is_reserved": 0, "fusion_lon": 0.0}, {"rental_uris": {"ios": "https://dc.lft.to/lastmile_qr_scan", "android": "https://dc.lft.to/lastmile_qr_scan"}, "fusion_lat": 0.0, "name": "714cb58df7910ffac1afbbd81d7a39db", "bike_id": "714cb58df7910ffac1afbbd81d7a39db", "is_disabled": 0, "type": "electric_scooter", "lat": 38.89219416666667, "lon": -77.0222895, "is_reserved": 0, "fusion_lon": 0.0}, {"rental_uris": {"ios": "https://dc.lft.to/lastmile_qr_scan", "android": "https://dc.lft.to/lastmile_qr_scan"}, "fusion_lat": 0.0, "name": "843b38126f0a77f3b32e1edb1e82e614", "bike_id": "843b38126f0a77f3b32e1edb1e82e614", "is_disabled": 0, "type": "electric_scooter", "lat": 38.8922695, "lon": -77.03187216666667, "is_reserved": 0, "fusion_lon": 0.0}, {"rental_uris": {"ios": "https://dc.lft.to/lastmile_qr_scan", "android": "https://dc.lft.to/lastmile_qr_scan"}, "fusion_lat": 0.0, "name": "46e09eb2aec7483f4a41f3e1a0d22563", "bike_id": "46e09eb2aec7483f4a41f3e1a0d22563", "is_disabled": 0, "type": "electric_scooter", "lat": 38.89958933333333, "lon": -77.03381966666667, "is_reserved": 0, "fusion_lon": 0.0}, {"rental_uris": {"ios": "https://dc.lft.to/lastmile_qr_scan", "android": "https://dc.lft.to/lastmile_qr_scan"}, "fusion_lat": 0.0, "name": "e650c27ae2bb1f2c868484a5d63d73d7", "bike_id": "e650c27ae2bb1f2c868484a5d63d73d7", "is_disabled": 0, "type": "electric_scooter", "lat": 38.906392833333335, "lon": -77.04877816666666, "is_reserved": 0, "fusion_lon": 0.0}, {"rental_uris": {"ios": "https://dc.lft.to/lastmile_qr_scan", "android": "https://dc.lft.to/lastmile_qr_scan"}, "fusion_lat": 0.0, "name": "590eb78f092d9dddb879fc0e5cf4c344", "bike_id": "590eb78f092d9dddb879fc0e5cf4c344", "is_disabled": 0, "type": "electric_scooter", "lat": 38.91108083333334, "lon": -77.001605, "is_reserved": 0, "fusion_lon": 0.0}, {"rental_uris": {"ios": "https://dc.lft.to/lastmile_qr_scan", "android": "https://dc.lft.to/lastmile_qr_scan"}, "fusion_lat": 0.0, "name": "37a45a07e57a8853b104e41f5b8af62c", "bike_id": "37a45a07e57a8853b104e41f5b8af62c", "is_disabled": 0, "type": "electric_scooter", "lat": 38.906386833333336, "lon": -77.04882333333333, "is_reserved": 0, "fusion_lon": 0.0}, {"rental_uris": {"ios": "https://dc.lft.to/lastmile_qr_scan", "android": "https://dc.lft.to/lastmile_qr_scan"}, "fusion_lat": 0.0, "name": "86abbb4d57aa5a865d8e3f8886043ce8", "bike_id": "86abbb4d57aa5a865d8e3f8886043ce8", "is_disabled": 0, "type": "electric_scooter", "lat": 38.91363616666667, "lon": -77.04492216666667, "is_reserved": 0, "fusion_lon": 0.0}, {"rental_uris": {"ios": "https://dc.lft.to/lastmile_qr_scan", "android": "https://dc.lft.to/lastmile_qr_scan"}, "fusion_lat": 0.0, "name": "bcdb023b9fc6e5e2ada6aadac2512a21", "bike_id": "bcdb023b9fc6e5e2ada6aadac2512a21", "is_disabled": 0, "type": "electric_scooter", "lat": 38.91816683333333, "lon": -77.03915116666667, "is_reserved": 0, "fusion_lon": 0.0}, {"rental_uris": {"ios": "https://dc.lft.to/lastmile_qr_scan", "android": "https://dc.lft.to/lastmile_qr_scan"}, "fusion_lat": 0.0, "name": "5f5b67fb0e26a7cc52e396c95f6d38c0", "bike_id": "5f5b67fb0e26a7cc52e396c95f6d38c0", "is_disabled": 0, "type": "electric_scooter", "lat": 38.882297666666666, "lon": -76.99088733333333, "is_reserved": 0, "fusion_lon": 0.0}, {"rental_uris": {"ios": "https://dc.lft.to/lastmile_qr_scan", "android": "https://dc.lft.to/lastmile_qr_scan"}, "fusion_lat": 0.0, "name": "6b3192ff1c4072ac22be56d3c9075db0", "bike_id": "6b3192ff1c4072ac22be56d3c9075db0", "is_disabled": 0, "type": "electric_scooter", "lat": 38.90532783333333, "lon": -77.0593605, "is_reserved": 0, "fusion_lon": 0.0}, {"rental_uris": {"ios": "https://dc.lft.to/lastmile_qr_scan", "android": "https://dc.lft.to/lastmile_qr_scan"}, "fusion_lat": 0.0, "name": "645299a8d4e24b45d5b59e640998cc11", "bike_id": "645299a8d4e24b45d5b59e640998cc11", "is_disabled": 0, "type": "electric_scooter", "lat": 38.909852666666666, "lon": -77.03190216666667, "is_reserved": 0, "fusion_lon": 0.0}, {"rental_uris": {"ios": "https://dc.lft.to/lastmile_qr_scan", "android": "https://dc.lft.to/lastmile_qr_scan"}, "fusion_lat": 0.0, "name": "8dd34d4b207fb90fffee24ee18fe037b", "bike_id": "8dd34d4b207fb90fffee24ee18fe037b", "is_disabled": 0, "type": "electric_scooter", "lat": 38.92677, "lon": -77.01553016666666, "is_reserved": 0, "fusion_lon": 0.0}, {"rental_uris": {"ios": "https://dc.lft.to/lastmile_qr_scan", "android": "https://dc.lft.to/lastmile_qr_scan"}, "fusion_lat": 0.0, "name": "eca2e38965b7fc5fa3d26c05357e9264", "bike_id": "eca2e38965b7fc5fa3d26c05357e9264", "is_disabled": 0, "type": "electric_scooter", "lat": 38.892304833333334, "lon": -77.03376583333333, "is_reserved": 0, "fusion_lon": 0.0}, {"rental_uris": {"ios": "https://dc.lft.to/lastmile_qr_scan", "android": "https://dc.lft.to/lastmile_qr_scan"}, "fusion_lat": 0.0, "name": "8f5587c68ca0aace5190f0461fc0ea45", "bike_id": "8f5587c68ca0aace5190f0461fc0ea45", "is_disabled": 0, "type": "electric_scooter", "lat": 38.90642533333333, "lon": -77.038674, "is_reserved": 0, "fusion_lon": 0.0}, {"rental_uris": {"ios": "https://dc.lft.to/lastmile_qr_scan", "android": "https://dc.lft.to/lastmile_qr_scan"}, "fusion_lat": 0.0, "name": "e470574e4a52f5773b669fba372b9cb5", "bike_id": "e470574e4a52f5773b669fba372b9cb5", "is_disabled": 0, "type": "electric_scooter", "lat": 38.9168755, "lon": -77.03537383333334, "is_reserved": 0, "fusion_lon": 0.0}, {"rental_uris": {"ios": "https://dc.lft.to/lastmile_qr_scan", "android": "https://dc.lft.to/lastmile_qr_scan"}, "fusion_lat": 0.0, "name": "bd5e93923756e2376b93eb9d0f84d6e2", "bike_id": "bd5e93923756e2376b93eb9d0f84d6e2", "is_disabled": 0, "type": "electric_bike", "lat": 38.914934833333334, "lon": -77.02818483333333, "is_reserved": 0, "fusion_lon": 0.0}, {"rental_uris": {"ios": "https://dc.lft.to/lastmile_qr_scan", "android": "https://dc.lft.to/lastmile_qr_scan"}, "fusion_lat": 0.0, "name": "914b53ffa8ce4cde72722421ba7502c8", "bike_id": "914b53ffa8ce4cde72722421ba7502c8", "is_disabled": 0, "type": "electric_bike", "lat": 38.969269833333335, "lon": -77.026168, "is_reserved": 0, "fusion_lon": 0.0}, {"rental_uris": {"ios": "https://dc.lft.to/lastmile_qr_scan", "android": "https://dc.lft.to/lastmile_qr_scan"}, "fusion_lat": 0.0, "name": "b5edb770829d17d95bb043bc5c0f4596", "bike_id": "b5edb770829d17d95bb043bc5c0f4596", "is_disabled": 0, "type": "electric_scooter", "lat": 38.910799833333336, "lon": -77.04407666666667, "is_reserved": 0, "fusion_lon": 0.0}, {"rental_uris": {"ios": "https://dc.lft.to/lastmile_qr_scan", "android": "https://dc.lft.to/lastmile_qr_scan"}, "fusion_lat": 0.0, "name": "5e03920aed9a44e602f8a2dd0dc2f08c", "bike_id": "5e03920aed9a44e602f8a2dd0dc2f08c", "is_disabled": 0, "type": "electric_scooter", "lat": 38.917049666666664, "lon": -77.03885516666666, "is_reserved": 0, "fusion_lon": 0.0}, {"rental_uris": {"ios": "https://dc.lft.to/lastmile_qr_scan", "android": "https://dc.lft.to/lastmile_qr_scan"}, "fusion_lat": 0.0, "name": "8fa9e296cd694bce63c5d1796d6e5c43", "bike_id": "8fa9e296cd694bce63c5d1796d6e5c43", "is_disabled": 0, "type": "electric_scooter", "lat": 38.87628316666667, "lon": -76.96528466666666, "is_reserved": 0, "fusion_lon": 0.0}, {"rental_uris": {"ios": "https://dc.lft.to/lastmile_qr_scan", "android": "https://dc.lft.to/lastmile_qr_scan"}, "fusion_lat": 0.0, "name": "a236139d4710f75065387dda77514d8b", "bike_id": "a236139d4710f75065387dda77514d8b", "is_disabled": 0, "type": "electric_scooter", "lat": 38.914143, "lon": -77.04739633333334, "is_reserved": 0, "fusion_lon": 0.0}, {"rental_uris": {"ios": "https://dc.lft.to/lastmile_qr_scan", "android": "https://dc.lft.to/lastmile_qr_scan"}, "fusion_lat": 0.0, "name": "4064ee199aea0c60bcbbeeb97ff0e9f3", "bike_id": "4064ee199aea0c60bcbbeeb97ff0e9f3", "is_disabled": 0, "type": "electric_scooter", "lat": 38.88411833333333, "lon": -76.9421015, "is_reserved": 0, "fusion_lon": 0.0}, {"rental_uris": {"ios": "https://dc.lft.to/lastmile_qr_scan", "android": "https://dc.lft.to/lastmile_qr_scan"}, "fusion_lat": 0.0, "name": "98455eee2908b1d2f7648b70b1771ad8", "bike_id": "98455eee2908b1d2f7648b70b1771ad8", "is_disabled": 0, "type": "electric_scooter", "lat": 38.91122283333333, "lon": -77.04479566666667, "is_reserved": 0, "fusion_lon": 0.0}, {"rental_uris": {"ios": "https://dc.lft.to/lastmile_qr_scan", "android": "https://dc.lft.to/lastmile_qr_scan"}, "fusion_lat": 0.0, "name": "fa5884c821f632fe64c179fd6c5b575c", "bike_id": "fa5884c821f632fe64c179fd6c5b575c", "is_disabled": 0, "type": "electric_scooter", "lat": 38.906081666666665, "lon": -77.04143183333333, "is_reserved": 0, "fusion_lon": 0.0}, {"rental_uris": {"ios": "https://dc.lft.to/lastmile_qr_scan", "android": "https://dc.lft.to/lastmile_qr_scan"}, "fusion_lat": 0.0, "name": "fd63e0f5e6af6bd5f7ddfd8b2bfa1e9e", "bike_id": "fd63e0f5e6af6bd5f7ddfd8b2bfa1e9e", "is_disabled": 0, "type": "electric_scooter", "lat": 38.87626616666667, "lon": -76.9652655, "is_reserved": 0, "fusion_lon": 0.0}, {"rental_uris": {"ios": "https://dc.lft.to/lastmile_qr_scan", "android": "https://dc.lft.to/lastmile_qr_scan"}, "fusion_lat": 0.0, "name": "99606055bfae59abdba71e67756c6aa4", "bike_id": "99606055bfae59abdba71e67756c6aa4", "is_disabled": 0, "type": "electric_bike", "lat": 38.873733333333334, "lon": -77.11801, "is_reserved": 0, "fusion_lon": 0.0}, {"rental_uris": {"ios": "https://dc.lft.to/lastmile_qr_scan", "android": "https://dc.lft.to/lastmile_qr_scan"}, "fusion_lat": 0.0, "name": "63215425d1cc9d97a3639c6d7f6e9447", "bike_id": "63215425d1cc9d97a3639c6d7f6e9447", "is_disabled": 0, "type": "electric_bike", "lat": 38.8621045, "lon": -76.99780033333333, "is_reserved": 0, "fusion_lon": 0.0}, {"rental_uris": {"ios": "https://dc.lft.to/lastmile_qr_scan", "android": "https://dc.lft.to/lastmile_qr_scan"}, "fusion_lat": 0.0, "name": "33f2d2653840dfed94f44aabfd5a5272", "bike_id": "33f2d2653840dfed94f44aabfd5a5272", "is_disabled": 0, "type": "electric_scooter", "lat": 38.918786, "lon": -77.03553216666667, "is_reserved": 0, "fusion_lon": 0.0}, {"rental_uris": {"ios": "https://dc.lft.to/lastmile_qr_scan", "android": "https://dc.lft.to/lastmile_qr_scan"}, "fusion_lat": 0.0, "name": "74010e6397785e145599f512b022e727", "bike_id": "74010e6397785e145599f512b022e727", "is_disabled": 0, "type": "electric_scooter", "lat": 38.928634833333334, "lon": -77.031027, "is_reserved": 0, "fusion_lon": 0.0}, {"rental_uris": {"ios": "https://dc.lft.to/lastmile_qr_scan", "android": "https://dc.lft.to/lastmile_qr_scan"}, "fusion_lat": 0.0, "name": "2af514d629fc48019ceb6a537f8cfab8", "bike_id": "2af514d629fc48019ceb6a537f8cfab8", "is_disabled": 0, "type": "electric_scooter", "lat": 38.89227233333333, "lon": -77.05006, "is_reserved": 0, "fusion_lon": 0.0}, {"rental_uris": {"ios": "https://dc.lft.to/lastmile_qr_scan", "android": "https://dc.lft.to/lastmile_qr_scan"}, "fusion_lat": 0.0, "name": "09092427c5d620696d1d0611bb81ad63", "bike_id": "09092427c5d620696d1d0611bb81ad63", "is_disabled": 0, "type": "electric_scooter", "lat": 38.8665445, "lon": -76.98521166666667, "is_reserved": 0, "fusion_lon": 0.0}, {"rental_uris": {"ios": "https://dc.lft.to/lastmile_qr_scan", "android": "https://dc.lft.to/lastmile_qr_scan"}, "fusion_lat": 0.0, "name": "384a2a9541480fdd8db35bfbe2e1a23d", "bike_id": "384a2a9541480fdd8db35bfbe2e1a23d", "is_disabled": 0, "type": "electric_scooter", "lat": 38.91424833333333, "lon": -77.03926933333334, "is_reserved": 0, "fusion_lon": 0.0}, {"rental_uris": {"ios": "https://dc.lft.to/lastmile_qr_scan", "android": "https://dc.lft.to/lastmile_qr_scan"}, "fusion_lat": 0.0, "name": "4c9705ef2423d3b2e71e7790a44860aa", "bike_id": "4c9705ef2423d3b2e71e7790a44860aa", "is_disabled": 0, "type": "electric_scooter", "lat": 38.91506583333334, "lon": -77.02186316666666, "is_reserved": 0, "fusion_lon": 0.0}, {"rental_uris": {"ios": "https://dc.lft.to/lastmile_qr_scan", "android": "https://dc.lft.to/lastmile_qr_scan"}, "fusion_lat": 0.0, "name": "bf5a4424cc005e3c045f346315f98ee4", "bike_id": "bf5a4424cc005e3c045f346315f98ee4", "is_disabled": 0, "type": "electric_scooter", "lat": 38.9237385, "lon": -77.04315983333333, "is_reserved": 0, "fusion_lon": 0.0}, {"rental_uris": {"ios": "https://dc.lft.to/lastmile_qr_scan", "android": "https://dc.lft.to/lastmile_qr_scan"}, "fusion_lat": 0.0, "name": "1424eab62864bb7df03063a4c6d612fc", "bike_id": "1424eab62864bb7df03063a4c6d612fc", "is_disabled": 0, "type": "electric_scooter", "lat": 38.91757966666667, "lon": -77.02700216666666, "is_reserved": 0, "fusion_lon": 0.0}, {"rental_uris": {"ios": "https://dc.lft.to/lastmile_qr_scan", "android": "https://dc.lft.to/lastmile_qr_scan"}, "fusion_lat": 0.0, "name": "d4009fda44aa67451be42f0b981c6c3d", "bike_id": "d4009fda44aa67451be42f0b981c6c3d", "is_disabled": 0, "type": "electric_scooter", "lat": 38.898805, "lon": -76.9317925, "is_reserved": 0, "fusion_lon": 0.0}, {"rental_uris": {"ios": "https://dc.lft.to/lastmile_qr_scan", "android": "https://dc.lft.to/lastmile_qr_scan"}, "fusion_lat": 0.0, "name": "25e2926e3797ee35d783857ec2180996", "bike_id": "25e2926e3797ee35d783857ec2180996", "is_disabled": 0, "type": "electric_scooter", "lat": 38.9066885, "lon": -77.0270785, "is_reserved": 0, "fusion_lon": 0.0}, {"rental_uris": {"ios": "https://dc.lft.to/lastmile_qr_scan", "android": "https://dc.lft.to/lastmile_qr_scan"}, "fusion_lat": 0.0, "name": "bbacde70155118041287d28271b9a3cc", "bike_id": "bbacde70155118041287d28271b9a3cc", "is_disabled": 0, "type": "electric_scooter", "lat": 38.90033116666667, "lon": -76.9883335, "is_reserved": 0, "fusion_lon": 0.0}, {"rental_uris": {"ios": "https://dc.lft.to/lastmile_qr_scan", "android": "https://dc.lft.to/lastmile_qr_scan"}, "fusion_lat": 0.0, "name": "bd27734fa97d838339f31f09ec0e0c4b", "bike_id": "bd27734fa97d838339f31f09ec0e0c4b", "is_disabled": 0, "type": "electric_bike", "lat": 38.9289245, "lon": -77.10598533333334, "is_reserved": 0, "fusion_lon": 0.0}, {"rental_uris": {"ios": "https://dc.lft.to/lastmile_qr_scan", "android": "https://dc.lft.to/lastmile_qr_scan"}, "fusion_lat": 0.0, "name": "ceef962c358a8a9aae92bd284c6ae716", "bike_id": "ceef962c358a8a9aae92bd284c6ae716", "is_disabled": 0, "type": "electric_scooter", "lat": 38.887787, "lon": -76.95538616666667, "is_reserved": 0, "fusion_lon": 0.0}, {"rental_uris": {"ios": "https://dc.lft.to/lastmile_qr_scan", "android": "https://dc.lft.to/lastmile_qr_scan"}, "fusion_lat": 0.0, "name": "3c782e017ecc82bd3e95c0441f595ed8", "bike_id": "3c782e017ecc82bd3e95c0441f595ed8", "is_disabled": 0, "type": "electric_scooter", "lat": 38.90306733333333, "lon": -77.01186566666667, "is_reserved": 0, "fusion_lon": 0.0}, {"rental_uris": {"ios": "https://dc.lft.to/lastmile_qr_scan", "android": "https://dc.lft.to/lastmile_qr_scan"}, "fusion_lat": 0.0, "name": "bea2f546042f5ccc8a26850b05e56019", "bike_id": "bea2f546042f5ccc8a26850b05e56019", "is_disabled": 0, "type": "electric_scooter", "lat": 38.90095866666667, "lon": -77.03397366666667, "is_reserved": 0, "fusion_lon": 0.0}, {"rental_uris": {"ios": "https://dc.lft.to/lastmile_qr_scan", "android": "https://dc.lft.to/lastmile_qr_scan"}, "fusion_lat": 0.0, "name": "893916af772964f43f4407220f7df0b2", "bike_id": "893916af772964f43f4407220f7df0b2", "is_disabled": 0, "type": "electric_scooter", "lat": 38.92444833333333, "lon": -77.040305, "is_reserved": 0, "fusion_lon": 0.0}, {"rental_uris": {"ios": "https://dc.lft.to/lastmile_qr_scan", "android": "https://dc.lft.to/lastmile_qr_scan"}, "fusion_lat": 0.0, "name": "f45a272d282e11e05a9260bcfa4a0c0d", "bike_id": "f45a272d282e11e05a9260bcfa4a0c0d", "is_disabled": 0, "type": "electric_scooter", "lat": 38.84424833333333, "lon": -76.9977985, "is_reserved": 0, "fusion_lon": 0.0}, {"rental_uris": {"ios": "https://dc.lft.to/lastmile_qr_scan", "android": "https://dc.lft.to/lastmile_qr_scan"}, "fusion_lat": 0.0, "name": "02ba503285e633d1299e6fdf6f67289b", "bike_id": "02ba503285e633d1299e6fdf6f67289b", "is_disabled": 0, "type": "electric_scooter", "lat": 38.8973835, "lon": -77.02621383333333, "is_reserved": 0, "fusion_lon": 0.0}, {"rental_uris": {"ios": "https://dc.lft.to/lastmile_qr_scan", "android": "https://dc.lft.to/lastmile_qr_scan"}, "fusion_lat": 0.0, "name": "9b2119fa1841dcc2fd567e5be2967d89", "bike_id": "9b2119fa1841dcc2fd567e5be2967d89", "is_disabled": 0, "type": "electric_scooter", "lat": 38.91411566666667, "lon": -77.04039183333333, "is_reserved": 0, "fusion_lon": 0.0}, {"rental_uris": {"ios": "https://dc.lft.to/lastmile_qr_scan", "android": "https://dc.lft.to/lastmile_qr_scan"}, "fusion_lat": 0.0, "name": "b2b8448b47d8699bfec225178d3fc9ff", "bike_id": "b2b8448b47d8699bfec225178d3fc9ff", "is_disabled": 0, "type": "electric_scooter", "lat": 38.884275, "lon": -76.95753733333333, "is_reserved": 0, "fusion_lon": 0.0}, {"rental_uris": {"ios": "https://dc.lft.to/lastmile_qr_scan", "android": "https://dc.lft.to/lastmile_qr_scan"}, "fusion_lat": 0.0, "name": "c17eefe8bcccb19275151eeea740c4d1", "bike_id": "c17eefe8bcccb19275151eeea740c4d1", "is_disabled": 0, "type": "electric_scooter", "lat": 38.923182, "lon": -77.04202833333333, "is_reserved": 0, "fusion_lon": 0.0}, {"rental_uris": {"ios": "https://dc.lft.to/lastmile_qr_scan", "android": "https://dc.lft.to/lastmile_qr_scan"}, "fusion_lat": 0.0, "name": "f1fcd98faf307adf5a406b47a7e6cfcf", "bike_id": "f1fcd98faf307adf5a406b47a7e6cfcf", "is_disabled": 0, "type": "electric_scooter", "lat": 38.917091, "lon": -77.0113775, "is_reserved": 0, "fusion_lon": 0.0}, {"rental_uris": {"ios": "https://dc.lft.to/lastmile_qr_scan", "android": "https://dc.lft.to/lastmile_qr_scan"}, "fusion_lat": 0.0, "name": "53af07c2f567456a0b4202d3b0174361", "bike_id": "53af07c2f567456a0b4202d3b0174361", "is_disabled": 0, "type": "electric_scooter", "lat": 38.905385833333334, "lon": -77.00715166666667, "is_reserved": 0, "fusion_lon": 0.0}, {"rental_uris": {"ios": "https://dc.lft.to/lastmile_qr_scan", "android": "https://dc.lft.to/lastmile_qr_scan"}, "fusion_lat": 0.0, "name": "b9f40fce90886e05e7b60ac1d444ec82", "bike_id": "b9f40fce90886e05e7b60ac1d444ec82", "is_disabled": 0, "type": "electric_scooter", "lat": 38.911648666666665, "lon": -77.04478216666666, "is_reserved": 0, "fusion_lon": 0.0}, {"rental_uris": {"ios": "https://dc.lft.to/lastmile_qr_scan", "android": "https://dc.lft.to/lastmile_qr_scan"}, "fusion_lat": 0.0, "name": "ce4b025140e74a304a48859e62690b5a", "bike_id": "ce4b025140e74a304a48859e62690b5a", "is_disabled": 0, "type": "electric_scooter", "lat": 38.887399333333335, "lon": -77.02126916666667, "is_reserved": 0, "fusion_lon": 0.0}, {"rental_uris": {"ios": "https://dc.lft.to/lastmile_qr_scan", "android": "https://dc.lft.to/lastmile_qr_scan"}, "fusion_lat": 0.0, "name": "a1de1ef30f6f4289e7f8b7ce6745a97d", "bike_id": "a1de1ef30f6f4289e7f8b7ce6745a97d", "is_disabled": 0, "type": "electric_scooter", "lat": 38.92570583333333, "lon": -77.02853216666666, "is_reserved": 0, "fusion_lon": 0.0}, {"rental_uris": {"ios": "https://dc.lft.to/lastmile_qr_scan", "android": "https://dc.lft.to/lastmile_qr_scan"}, "fusion_lat": 0.0, "name": "e5f49a32e617a0c65720168ecc1d7d25", "bike_id": "e5f49a32e617a0c65720168ecc1d7d25", "is_disabled": 0, "type": "electric_scooter", "lat": 38.88728316666667, "lon": -77.02827033333334, "is_reserved": 0, "fusion_lon": 0.0}, {"rental_uris": {"ios": "https://dc.lft.to/lastmile_qr_scan", "android": "https://dc.lft.to/lastmile_qr_scan"}, "fusion_lat": 0.0, "name": "7ae2e1c7a35a7ebc314954bc99167b86", "bike_id": "7ae2e1c7a35a7ebc314954bc99167b86", "is_disabled": 0, "type": "electric_scooter", "lat": 38.87084183333333, "lon": -77.01380116666667, "is_reserved": 0, "fusion_lon": 0.0}, {"rental_uris": {"ios": "https://dc.lft.to/lastmile_qr_scan", "android": "https://dc.lft.to/lastmile_qr_scan"}, "fusion_lat": 0.0, "name": "25a943c801535e02541095b8546ca302", "bike_id": "25a943c801535e02541095b8546ca302", "is_disabled": 0, "type": "electric_scooter", "lat": 38.916975666666666, "lon": -77.03770916666667, "is_reserved": 0, "fusion_lon": 0.0}, {"rental_uris": {"ios": "https://dc.lft.to/lastmile_qr_scan", "android": "https://dc.lft.to/lastmile_qr_scan"}, "fusion_lat": 0.0, "name": "335d2478c58fab4519d884f1108eb8b1", "bike_id": "335d2478c58fab4519d884f1108eb8b1", "is_disabled": 0, "type": "electric_scooter", "lat": 38.93690766666667, "lon": -77.03267833333334, "is_reserved": 0, "fusion_lon": 0.0}, {"rental_uris": {"ios": "https://dc.lft.to/lastmile_qr_scan", "android": "https://dc.lft.to/lastmile_qr_scan"}, "fusion_lat": 0.0, "name": "428d2a73c98f2d2d3b8c48f229610484", "bike_id": "428d2a73c98f2d2d3b8c48f229610484", "is_disabled": 0, "type": "electric_scooter", "lat": 38.93970183333333, "lon": -77.0215865, "is_reserved": 0, "fusion_lon": 0.0}, {"rental_uris": {"ios": "https://dc.lft.to/lastmile_qr_scan", "android": "https://dc.lft.to/lastmile_qr_scan"}, "fusion_lat": 0.0, "name": "0546b5b7acc534880f5aba4f5e1e9a95", "bike_id": "0546b5b7acc534880f5aba4f5e1e9a95", "is_disabled": 0, "type": "electric_scooter", "lat": 38.8790925, "lon": -76.9914855, "is_reserved": 0, "fusion_lon": 0.0}, {"rental_uris": {"ios": "https://dc.lft.to/lastmile_qr_scan", "android": "https://dc.lft.to/lastmile_qr_scan"}, "fusion_lat": 0.0, "name": "77eb5dbd87c23c6c8bd718aaf478e3f5", "bike_id": "77eb5dbd87c23c6c8bd718aaf478e3f5", "is_disabled": 0, "type": "electric_scooter", "lat": 38.911763666666666, "lon": -77.0046335, "is_reserved": 0, "fusion_lon": 0.0}, {"rental_uris": {"ios": "https://dc.lft.to/lastmile_qr_scan", "android": "https://dc.lft.to/lastmile_qr_scan"}, "fusion_lat": 0.0, "name": "a05a94320e10c5bf61bec34c88093d58", "bike_id": "a05a94320e10c5bf61bec34c88093d58", "is_disabled": 0, "type": "electric_scooter", "lat": 38.89732883333333, "lon": -77.04683483333334, "is_reserved": 0, "fusion_lon": 0.0}, {"rental_uris": {"ios": "https://dc.lft.to/lastmile_qr_scan", "android": "https://dc.lft.to/lastmile_qr_scan"}, "fusion_lat": 0.0, "name": "0ecf44226ba2770bbcb9959fd64186e9", "bike_id": "0ecf44226ba2770bbcb9959fd64186e9", "is_disabled": 0, "type": "electric_scooter", "lat": 38.89821716666667, "lon": -76.93025183333333, "is_reserved": 0, "fusion_lon": 0.0}, {"rental_uris": {"ios": "https://dc.lft.to/lastmile_qr_scan", "android": "https://dc.lft.to/lastmile_qr_scan"}, "fusion_lat": 0.0, "name": "304c2e83c21eb94cf50a43fb43b51a87", "bike_id": "304c2e83c21eb94cf50a43fb43b51a87", "is_disabled": 0, "type": "electric_scooter", "lat": 38.91679166666667, "lon": -77.02975983333333, "is_reserved": 0, "fusion_lon": 0.0}, {"rental_uris": {"ios": "https://dc.lft.to/lastmile_qr_scan", "android": "https://dc.lft.to/lastmile_qr_scan"}, "fusion_lat": 0.0, "name": "be7fa813781d1b370777faf2fb05b663", "bike_id": "be7fa813781d1b370777faf2fb05b663", "is_disabled": 0, "type": "electric_scooter", "lat": 38.909103, "lon": -76.9977855, "is_reserved": 0, "fusion_lon": 0.0}, {"rental_uris": {"ios": "https://dc.lft.to/lastmile_qr_scan", "android": "https://dc.lft.to/lastmile_qr_scan"}, "fusion_lat": 0.0, "name": "f3947447bb62cbdf37695b762ec7c866", "bike_id": "f3947447bb62cbdf37695b762ec7c866", "is_disabled": 0, "type": "electric_scooter", "lat": 38.91266516666666, "lon": -77.0364565, "is_reserved": 0, "fusion_lon": 0.0}, {"rental_uris": {"ios": "https://dc.lft.to/lastmile_qr_scan", "android": "https://dc.lft.to/lastmile_qr_scan"}, "fusion_lat": 0.0, "name": "9d18838a71b430bcbf2edeb84a2fb2e0", "bike_id": "9d18838a71b430bcbf2edeb84a2fb2e0", "is_disabled": 0, "type": "electric_scooter", "lat": 38.938271, "lon": -76.98617483333334, "is_reserved": 0, "fusion_lon": 0.0}, {"rental_uris": {"ios": "https://dc.lft.to/lastmile_qr_scan", "android": "https://dc.lft.to/lastmile_qr_scan"}, "fusion_lat": 0.0, "name": "a045c6ff9efbb82d7737fcfb5fa15289", "bike_id": "a045c6ff9efbb82d7737fcfb5fa15289", "is_disabled": 0, "type": "electric_scooter", "lat": 38.9105055, "lon": -77.04355383333333, "is_reserved": 0, "fusion_lon": 0.0}, {"rental_uris": {"ios": "https://dc.lft.to/lastmile_qr_scan", "android": "https://dc.lft.to/lastmile_qr_scan"}, "fusion_lat": 0.0, "name": "c1bc72716803a96d0f293feb9856510c", "bike_id": "c1bc72716803a96d0f293feb9856510c", "is_disabled": 0, "type": "electric_scooter", "lat": 38.89221716666667, "lon": -77.048029, "is_reserved": 0, "fusion_lon": 0.0}, {"rental_uris": {"ios": "https://dc.lft.to/lastmile_qr_scan", "android": "https://dc.lft.to/lastmile_qr_scan"}, "fusion_lat": 0.0, "name": "9b6d1e3921e1afedb7ca5a2a72604adc", "bike_id": "9b6d1e3921e1afedb7ca5a2a72604adc", "is_disabled": 0, "type": "electric_scooter", "lat": 38.915222666666665, "lon": -77.0184145, "is_reserved": 0, "fusion_lon": 0.0}, {"rental_uris": {"ios": "https://dc.lft.to/lastmile_qr_scan", "android": "https://dc.lft.to/lastmile_qr_scan"}, "fusion_lat": 0.0, "name": "1deee97b7f230010c4005d83c578cfe0", "bike_id": "1deee97b7f230010c4005d83c578cfe0", "is_disabled": 0, "type": "electric_scooter", "lat": 38.90248783333333, "lon": -77.01759233333334, "is_reserved": 0, "fusion_lon": 0.0}, {"rental_uris": {"ios": "https://dc.lft.to/lastmile_qr_scan", "android": "https://dc.lft.to/lastmile_qr_scan"}, "fusion_lat": 0.0, "name": "83e0e9e6bdfe90501a0db853756c84d5", "bike_id": "83e0e9e6bdfe90501a0db853756c84d5", "is_disabled": 0, "type": "electric_scooter", "lat": 38.9156545, "lon": -77.02511283333334, "is_reserved": 0, "fusion_lon": 0.0}, {"rental_uris": {"ios": "https://dc.lft.to/lastmile_qr_scan", "android": "https://dc.lft.to/lastmile_qr_scan"}, "fusion_lat": 0.0, "name": "d5165756371f4cd968ce3450aafd2e44", "bike_id": "d5165756371f4cd968ce3450aafd2e44", "is_disabled": 0, "type": "electric_scooter", "lat": 38.94954333333333, "lon": -77.02720083333334, "is_reserved": 0, "fusion_lon": 0.0}, {"rental_uris": {"ios": "https://dc.lft.to/lastmile_qr_scan", "android": "https://dc.lft.to/lastmile_qr_scan"}, "fusion_lat": 0.0, "name": "6472851a3274b94b3dc4cf78c72ddcb7", "bike_id": "6472851a3274b94b3dc4cf78c72ddcb7", "is_disabled": 0, "type": "electric_scooter", "lat": 38.9169495, "lon": -77.02671316666667, "is_reserved": 0, "fusion_lon": 0.0}, {"rental_uris": {"ios": "https://dc.lft.to/lastmile_qr_scan", "android": "https://dc.lft.to/lastmile_qr_scan"}, "fusion_lat": 0.0, "name": "890431d5e2a2bb7c319889de47ffc121", "bike_id": "890431d5e2a2bb7c319889de47ffc121", "is_disabled": 0, "type": "electric_scooter", "lat": 38.90668983333333, "lon": -77.027094, "is_reserved": 0, "fusion_lon": 0.0}, {"rental_uris": {"ios": "https://dc.lft.to/lastmile_qr_scan", "android": "https://dc.lft.to/lastmile_qr_scan"}, "fusion_lat": 0.0, "name": "9e7584045449bfc5acc4db93f6b61c6d", "bike_id": "9e7584045449bfc5acc4db93f6b61c6d", "is_disabled": 0, "type": "electric_scooter", "lat": 38.885718833333335, "lon": -76.91909266666667, "is_reserved": 0, "fusion_lon": 0.0}, {"rental_uris": {"ios": "https://dc.lft.to/lastmile_qr_scan", "android": "https://dc.lft.to/lastmile_qr_scan"}, "fusion_lat": 0.0, "name": "75a1be2cb8b54312fc843b6d4858b375", "bike_id": "75a1be2cb8b54312fc843b6d4858b375", "is_disabled": 0, "type": "electric_scooter", "lat": 38.90679183333334, "lon": -77.03821116666667, "is_reserved": 0, "fusion_lon": 0.0}, {"rental_uris": {"ios": "https://dc.lft.to/lastmile_qr_scan", "android": "https://dc.lft.to/lastmile_qr_scan"}, "fusion_lat": 0.0, "name": "ae3f722ca92bbdb21d76a4d3279d1c21", "bike_id": "ae3f722ca92bbdb21d76a4d3279d1c21", "is_disabled": 0, "type": "electric_scooter", "lat": 38.9170675, "lon": -77.0412635, "is_reserved": 0, "fusion_lon": 0.0}, {"rental_uris": {"ios": "https://dc.lft.to/lastmile_qr_scan", "android": "https://dc.lft.to/lastmile_qr_scan"}, "fusion_lat": 0.0, "name": "e7041b91aae9221c019b239e296506f5", "bike_id": "e7041b91aae9221c019b239e296506f5", "is_disabled": 0, "type": "electric_scooter", "lat": 38.867376, "lon": -76.986555, "is_reserved": 0, "fusion_lon": 0.0}, {"rental_uris": {"ios": "https://dc.lft.to/lastmile_qr_scan", "android": "https://dc.lft.to/lastmile_qr_scan"}, "fusion_lat": 0.0, "name": "9dbc2239b315f4f27e2483147a56f56e", "bike_id": "9dbc2239b315f4f27e2483147a56f56e", "is_disabled": 0, "type": "electric_scooter", "lat": 38.862416333333336, "lon": -76.9949625, "is_reserved": 0, "fusion_lon": 0.0}, {"rental_uris": {"ios": "https://dc.lft.to/lastmile_qr_scan", "android": "https://dc.lft.to/lastmile_qr_scan"}, "fusion_lat": 0.0, "name": "125069d9f473fc7a7f3f174185e4c321", "bike_id": "125069d9f473fc7a7f3f174185e4c321", "is_disabled": 0, "type": "electric_scooter", "lat": 38.910607166666665, "lon": -77.06198516666667, "is_reserved": 0, "fusion_lon": 0.0}, {"rental_uris": {"ios": "https://dc.lft.to/lastmile_qr_scan", "android": "https://dc.lft.to/lastmile_qr_scan"}, "fusion_lat": 0.0, "name": "5b1b07dcc493cce8728436654c99ffe5", "bike_id": "5b1b07dcc493cce8728436654c99ffe5", "is_disabled": 0, "type": "electric_scooter", "lat": 38.89225183333333, "lon": -77.031879, "is_reserved": 0, "fusion_lon": 0.0}, {"rental_uris": {"ios": "https://dc.lft.to/lastmile_qr_scan", "android": "https://dc.lft.to/lastmile_qr_scan"}, "fusion_lat": 0.0, "name": "93e8cb7f9b0ba3b937265983583ce868", "bike_id": "93e8cb7f9b0ba3b937265983583ce868", "is_disabled": 0, "type": "electric_scooter", "lat": 38.923585833333334, "lon": -77.051309, "is_reserved": 0, "fusion_lon": 0.0}, {"rental_uris": {"ios": "https://dc.lft.to/lastmile_qr_scan", "android": "https://dc.lft.to/lastmile_qr_scan"}, "fusion_lat": 0.0, "name": "fca729ec5456672cf892125b4e2def2d", "bike_id": "fca729ec5456672cf892125b4e2def2d", "is_disabled": 0, "type": "electric_scooter", "lat": 38.892218166666666, "lon": -77.0315675, "is_reserved": 0, "fusion_lon": 0.0}, {"rental_uris": {"ios": "https://dc.lft.to/lastmile_qr_scan", "android": "https://dc.lft.to/lastmile_qr_scan"}, "fusion_lat": 0.0, "name": "643699a244cc6a29b1a20230863b07ab", "bike_id": "643699a244cc6a29b1a20230863b07ab", "is_disabled": 0, "type": "electric_scooter", "lat": 38.862566666666666, "lon": -76.99515216666667, "is_reserved": 0, "fusion_lon": 0.0}, {"rental_uris": {"ios": "https://dc.lft.to/lastmile_qr_scan", "android": "https://dc.lft.to/lastmile_qr_scan"}, "fusion_lat": 0.0, "name": "913e80128e4510a712b1d72c0d7a5730", "bike_id": "913e80128e4510a712b1d72c0d7a5730", "is_disabled": 0, "type": "electric_scooter", "lat": 38.90543266666667, "lon": -77.04569, "is_reserved": 0, "fusion_lon": 0.0}, {"rental_uris": {"ios": "https://dc.lft.to/lastmile_qr_scan", "android": "https://dc.lft.to/lastmile_qr_scan"}, "fusion_lat": 0.0, "name": "a7ec67a704586a57690b37fa803fe3d1", "bike_id": "a7ec67a704586a57690b37fa803fe3d1", "is_disabled": 0, "type": "electric_scooter", "lat": 38.916816, "lon": -77.02378916666666, "is_reserved": 0, "fusion_lon": 0.0}, {"rental_uris": {"ios": "https://dc.lft.to/lastmile_qr_scan", "android": "https://dc.lft.to/lastmile_qr_scan"}, "fusion_lat": 0.0, "name": "a83cf064682438c6fc28268db1d745e5", "bike_id": "a83cf064682438c6fc28268db1d745e5", "is_disabled": 0, "type": "electric_scooter", "lat": 38.89996416666666, "lon": -77.031791, "is_reserved": 0, "fusion_lon": 0.0}, {"rental_uris": {"ios": "https://dc.lft.to/lastmile_qr_scan", "android": "https://dc.lft.to/lastmile_qr_scan"}, "fusion_lat": 0.0, "name": "16531cf8fc0c84d400a7bf292a3c9ae4", "bike_id": "16531cf8fc0c84d400a7bf292a3c9ae4", "is_disabled": 0, "type": "electric_scooter", "lat": 38.903715166666665, "lon": -77.03285633333333, "is_reserved": 0, "fusion_lon": 0.0}, {"rental_uris": {"ios": "https://dc.lft.to/lastmile_qr_scan", "android": "https://dc.lft.to/lastmile_qr_scan"}, "fusion_lat": 0.0, "name": "40bd972cfa84e9a8215639f8e32a5cb9", "bike_id": "40bd972cfa84e9a8215639f8e32a5cb9", "is_disabled": 0, "type": "electric_scooter", "lat": 38.921443833333335, "lon": -77.0423755, "is_reserved": 0, "fusion_lon": 0.0}, {"rental_uris": {"ios": "https://dc.lft.to/lastmile_qr_scan", "android": "https://dc.lft.to/lastmile_qr_scan"}, "fusion_lat": 0.0, "name": "3b736007ae0a7ff914c217af74d701df", "bike_id": "3b736007ae0a7ff914c217af74d701df", "is_disabled": 0, "type": "electric_scooter", "lat": 38.917043666666665, "lon": -77.03471466666667, "is_reserved": 0, "fusion_lon": 0.0}, {"rental_uris": {"ios": "https://dc.lft.to/lastmile_qr_scan", "android": "https://dc.lft.to/lastmile_qr_scan"}, "fusion_lat": 0.0, "name": "f606021d819fff23a1de9c197b1c033e", "bike_id": "f606021d819fff23a1de9c197b1c033e", "is_disabled": 0, "type": "electric_scooter", "lat": 38.88103, "lon": -77.04310816666667, "is_reserved": 0, "fusion_lon": 0.0}, {"rental_uris": {"ios": "https://dc.lft.to/lastmile_qr_scan", "android": "https://dc.lft.to/lastmile_qr_scan"}, "fusion_lat": 0.0, "name": "4d37092ca5633fba4568e1f7d80fe936", "bike_id": "4d37092ca5633fba4568e1f7d80fe936", "is_disabled": 0, "type": "electric_scooter", "lat": 38.88523166666667, "lon": -77.011344, "is_reserved": 0, "fusion_lon": 0.0}, {"rental_uris": {"ios": "https://dc.lft.to/lastmile_qr_scan", "android": "https://dc.lft.to/lastmile_qr_scan"}, "fusion_lat": 0.0, "name": "680903c77bb0b796b5fe223a71c12667", "bike_id": "680903c77bb0b796b5fe223a71c12667", "is_disabled": 0, "type": "electric_scooter", "lat": 38.916171, "lon": -77.0415865, "is_reserved": 0, "fusion_lon": 0.0}, {"rental_uris": {"ios": "https://dc.lft.to/lastmile_qr_scan", "android": "https://dc.lft.to/lastmile_qr_scan"}, "fusion_lat": 0.0, "name": "980d8de22ef408e182da663ac649297a", "bike_id": "980d8de22ef408e182da663ac649297a", "is_disabled": 0, "type": "electric_bike", "lat": 38.861649166666666, "lon": -77.1314785, "is_reserved": 0, "fusion_lon": 0.0}, {"rental_uris": {"ios": "https://dc.lft.to/lastmile_qr_scan", "android": "https://dc.lft.to/lastmile_qr_scan"}, "fusion_lat": 0.0, "name": "2edde9374d390ae8a7866bd7432f99d6", "bike_id": "2edde9374d390ae8a7866bd7432f99d6", "is_disabled": 0, "type": "electric_scooter", "lat": 38.942898, "lon": -77.0217195, "is_reserved": 0, "fusion_lon": 0.0}, {"rental_uris": {"ios": "https://dc.lft.to/lastmile_qr_scan", "android": "https://dc.lft.to/lastmile_qr_scan"}, "fusion_lat": 0.0, "name": "57147430e6ba599057ebeeecbfda0662", "bike_id": "57147430e6ba599057ebeeecbfda0662", "is_disabled": 0, "type": "electric_scooter", "lat": 38.90526833333333, "lon": -77.04169733333333, "is_reserved": 0, "fusion_lon": 0.0}, {"rental_uris": {"ios": "https://dc.lft.to/lastmile_qr_scan", "android": "https://dc.lft.to/lastmile_qr_scan"}, "fusion_lat": 0.0, "name": "ae1646329fd12e0ee062854793a31e3b", "bike_id": "ae1646329fd12e0ee062854793a31e3b", "is_disabled": 0, "type": "electric_scooter", "lat": 38.9173535, "lon": -77.02116783333334, "is_reserved": 0, "fusion_lon": 0.0}, {"rental_uris": {"ios": "https://dc.lft.to/lastmile_qr_scan", "android": "https://dc.lft.to/lastmile_qr_scan"}, "fusion_lat": 0.0, "name": "0fc3e1607275916fdeb7398bce9e2939", "bike_id": "0fc3e1607275916fdeb7398bce9e2939", "is_disabled": 0, "type": "electric_scooter", "lat": 38.91870333333333, "lon": -77.0424895, "is_reserved": 0, "fusion_lon": 0.0}, {"rental_uris": {"ios": "https://dc.lft.to/lastmile_qr_scan", "android": "https://dc.lft.to/lastmile_qr_scan"}, "fusion_lat": 0.0, "name": "a6b05f96930fc809fb0163ab7fcbe5d9", "bike_id": "a6b05f96930fc809fb0163ab7fcbe5d9", "is_disabled": 0, "type": "electric_scooter", "lat": 38.89487066666667, "lon": -77.03118633333334, "is_reserved": 0, "fusion_lon": 0.0}, {"rental_uris": {"ios": "https://dc.lft.to/lastmile_qr_scan", "android": "https://dc.lft.to/lastmile_qr_scan"}, "fusion_lat": 0.0, "name": "ab2713eef22ad38250f46c8f42ec59c3", "bike_id": "ab2713eef22ad38250f46c8f42ec59c3", "is_disabled": 0, "type": "electric_bike", "lat": 38.949615666666666, "lon": -77.06646733333334, "is_reserved": 0, "fusion_lon": 0.0}, {"rental_uris": {"ios": "https://dc.lft.to/lastmile_qr_scan", "android": "https://dc.lft.to/lastmile_qr_scan"}, "fusion_lat": 0.0, "name": "8aaf5d40fa9d7f484de6cc1966b3b243", "bike_id": "8aaf5d40fa9d7f484de6cc1966b3b243", "is_disabled": 0, "type": "electric_scooter", "lat": 38.94183916666667, "lon": -77.02491416666666, "is_reserved": 0, "fusion_lon": 0.0}, {"rental_uris": {"ios": "https://dc.lft.to/lastmile_qr_scan", "android": "https://dc.lft.to/lastmile_qr_scan"}, "fusion_lat": 0.0, "name": "89eb36d245a8e657e39eb21506aca5c2", "bike_id": "89eb36d245a8e657e39eb21506aca5c2", "is_disabled": 0, "type": "electric_scooter", "lat": 38.8653555, "lon": -76.9870495, "is_reserved": 0, "fusion_lon": 0.0}, {"rental_uris": {"ios": "https://dc.lft.to/lastmile_qr_scan", "android": "https://dc.lft.to/lastmile_qr_scan"}, "fusion_lat": 0.0, "name": "bce0d0bd5cff8275119e140d764c111c", "bike_id": "bce0d0bd5cff8275119e140d764c111c", "is_disabled": 0, "type": "electric_scooter", "lat": 38.923772166666666, "lon": -77.02687883333333, "is_reserved": 0, "fusion_lon": 0.0}, {"rental_uris": {"ios": "https://dc.lft.to/lastmile_qr_scan", "android": "https://dc.lft.to/lastmile_qr_scan"}, "fusion_lat": 0.0, "name": "f48fa5e4ba1c79c32c2b3d4c3f8573b5", "bike_id": "f48fa5e4ba1c79c32c2b3d4c3f8573b5", "is_disabled": 0, "type": "electric_bike", "lat": 38.917796, "lon": -76.9717825, "is_reserved": 0, "fusion_lon": 0.0}, {"rental_uris": {"ios": "https://dc.lft.to/lastmile_qr_scan", "android": "https://dc.lft.to/lastmile_qr_scan"}, "fusion_lat": 0.0, "name": "3279dda4e45a2b5022b27c9fa687481e", "bike_id": "3279dda4e45a2b5022b27c9fa687481e", "is_disabled": 0, "type": "electric_scooter", "lat": 38.9365805, "lon": -77.05498616666667, "is_reserved": 0, "fusion_lon": 0.0}, {"rental_uris": {"ios": "https://dc.lft.to/lastmile_qr_scan", "android": "https://dc.lft.to/lastmile_qr_scan"}, "fusion_lat": 0.0, "name": "3e71e522fa3d5944f7e2aa6939ca73bd", "bike_id": "3e71e522fa3d5944f7e2aa6939ca73bd", "is_disabled": 0, "type": "electric_bike", "lat": 38.8651615, "lon": -76.97335983333333, "is_reserved": 0, "fusion_lon": 0.0}, {"rental_uris": {"ios": "https://dc.lft.to/lastmile_qr_scan", "android": "https://dc.lft.to/lastmile_qr_scan"}, "fusion_lat": 0.0, "name": "9d117789fb94e6b4c6d23398077fe9d2", "bike_id": "9d117789fb94e6b4c6d23398077fe9d2", "is_disabled": 0, "type": "electric_scooter", "lat": 38.86241233333333, "lon": -76.99498083333333, "is_reserved": 0, "fusion_lon": 0.0}, {"rental_uris": {"ios": "https://dc.lft.to/lastmile_qr_scan", "android": "https://dc.lft.to/lastmile_qr_scan"}, "fusion_lat": 0.0, "name": "4419778b925795268eb086cfb3053d95", "bike_id": "4419778b925795268eb086cfb3053d95", "is_disabled": 0, "type": "electric_scooter", "lat": 38.899115333333334, "lon": -76.93347966666667, "is_reserved": 0, "fusion_lon": 0.0}, {"rental_uris": {"ios": "https://dc.lft.to/lastmile_qr_scan", "android": "https://dc.lft.to/lastmile_qr_scan"}, "fusion_lat": 0.0, "name": "9b01879cc424d8254f835fcff861dca2", "bike_id": "9b01879cc424d8254f835fcff861dca2", "is_disabled": 0, "type": "electric_scooter", "lat": 38.922045833333335, "lon": -77.0389525, "is_reserved": 0, "fusion_lon": 0.0}, {"rental_uris": {"ios": "https://dc.lft.to/lastmile_qr_scan", "android": "https://dc.lft.to/lastmile_qr_scan"}, "fusion_lat": 0.0, "name": "4d52b2e94241e26ea137ece3af9ec188", "bike_id": "4d52b2e94241e26ea137ece3af9ec188", "is_disabled": 0, "type": "electric_scooter", "lat": 38.90983033333333, "lon": -76.99488833333334, "is_reserved": 0, "fusion_lon": 0.0}, {"rental_uris": {"ios": "https://dc.lft.to/lastmile_qr_scan", "android": "https://dc.lft.to/lastmile_qr_scan"}, "fusion_lat": 0.0, "name": "6f333eded4ab5dd9fe16198f6020412e", "bike_id": "6f333eded4ab5dd9fe16198f6020412e", "is_disabled": 0, "type": "electric_scooter", "lat": 38.88741916666667, "lon": -77.02574783333333, "is_reserved": 0, "fusion_lon": 0.0}, {"rental_uris": {"ios": "https://dc.lft.to/lastmile_qr_scan", "android": "https://dc.lft.to/lastmile_qr_scan"}, "fusion_lat": 0.0, "name": "f85091ba021469bd6f7ec09bff858c09", "bike_id": "f85091ba021469bd6f7ec09bff858c09", "is_disabled": 0, "type": "electric_scooter", "lat": 38.90958833333333, "lon": -77.04822, "is_reserved": 0, "fusion_lon": 0.0}, {"rental_uris": {"ios": "https://dc.lft.to/lastmile_qr_scan", "android": "https://dc.lft.to/lastmile_qr_scan"}, "fusion_lat": 0.0, "name": "57445b0a281a1330101e785ad549d686", "bike_id": "57445b0a281a1330101e785ad549d686", "is_disabled": 0, "type": "electric_scooter", "lat": 38.85094566666667, "lon": -76.96677033333333, "is_reserved": 0, "fusion_lon": 0.0}, {"rental_uris": {"ios": "https://dc.lft.to/lastmile_qr_scan", "android": "https://dc.lft.to/lastmile_qr_scan"}, "fusion_lat": 0.0, "name": "e8d44e28461a9be114eb288f7720f6bc", "bike_id": "e8d44e28461a9be114eb288f7720f6bc", "is_disabled": 0, "type": "electric_scooter", "lat": 38.91372333333333, "lon": -77.03205283333334, "is_reserved": 0, "fusion_lon": 0.0}, {"rental_uris": {"ios": "https://dc.lft.to/lastmile_qr_scan", "android": "https://dc.lft.to/lastmile_qr_scan"}, "fusion_lat": 0.0, "name": "5ab4c83f0fb6d2db4e96db2d0847b0ca", "bike_id": "5ab4c83f0fb6d2db4e96db2d0847b0ca", "is_disabled": 0, "type": "electric_scooter", "lat": 38.91687, "lon": -77.03440533333334, "is_reserved": 0, "fusion_lon": 0.0}, {"rental_uris": {"ios": "https://dc.lft.to/lastmile_qr_scan", "android": "https://dc.lft.to/lastmile_qr_scan"}, "fusion_lat": 0.0, "name": "3706df0bace74db5d4844673933410dc", "bike_id": "3706df0bace74db5d4844673933410dc", "is_disabled": 0, "type": "electric_scooter", "lat": 38.9285725, "lon": -77.033685, "is_reserved": 0, "fusion_lon": 0.0}, {"rental_uris": {"ios": "https://dc.lft.to/lastmile_qr_scan", "android": "https://dc.lft.to/lastmile_qr_scan"}, "fusion_lat": 0.0, "name": "424c4c7cf3f2817d064be52e9ac117d0", "bike_id": "424c4c7cf3f2817d064be52e9ac117d0", "is_disabled": 0, "type": "electric_bike", "lat": 38.8290555, "lon": -77.00840833333334, "is_reserved": 0, "fusion_lon": 0.0}, {"rental_uris": {"ios": "https://dc.lft.to/lastmile_qr_scan", "android": "https://dc.lft.to/lastmile_qr_scan"}, "fusion_lat": 0.0, "name": "9597884448e59349e691799ceb4ea238", "bike_id": "9597884448e59349e691799ceb4ea238", "is_disabled": 0, "type": "electric_scooter", "lat": 38.902543, "lon": -77.04341533333333, "is_reserved": 0, "fusion_lon": 0.0}, {"rental_uris": {"ios": "https://dc.lft.to/lastmile_qr_scan", "android": "https://dc.lft.to/lastmile_qr_scan"}, "fusion_lat": 0.0, "name": "fe59a52d21db304aa6fe04f16e36be76", "bike_id": "fe59a52d21db304aa6fe04f16e36be76", "is_disabled": 0, "type": "electric_scooter", "lat": 38.907849666666664, "lon": -77.038604, "is_reserved": 0, "fusion_lon": 0.0}, {"rental_uris": {"ios": "https://dc.lft.to/lastmile_qr_scan", "android": "https://dc.lft.to/lastmile_qr_scan"}, "fusion_lat": 0.0, "name": "e570e543ec4e7b07a803f215432625a8", "bike_id": "e570e543ec4e7b07a803f215432625a8", "is_disabled": 0, "type": "electric_bike", "lat": 38.97343516666667, "lon": -77.01795466666667, "is_reserved": 0, "fusion_lon": 0.0}, {"rental_uris": {"ios": "https://dc.lft.to/lastmile_qr_scan", "android": "https://dc.lft.to/lastmile_qr_scan"}, "fusion_lat": 0.0, "name": "c4b9716b7a14dd5477f072aeb6ca198e", "bike_id": "c4b9716b7a14dd5477f072aeb6ca198e", "is_disabled": 0, "type": "electric_scooter", "lat": 38.91564133333333, "lon": -77.00600066666667, "is_reserved": 0, "fusion_lon": 0.0}, {"rental_uris": {"ios": "https://dc.lft.to/lastmile_qr_scan", "android": "https://dc.lft.to/lastmile_qr_scan"}, "fusion_lat": 0.0, "name": "d338b4d100cbb54adde7a129ed2771a2", "bike_id": "d338b4d100cbb54adde7a129ed2771a2", "is_disabled": 0, "type": "electric_scooter", "lat": 38.9134325, "lon": -77.00923483333334, "is_reserved": 0, "fusion_lon": 0.0}, {"rental_uris": {"ios": "https://dc.lft.to/lastmile_qr_scan", "android": "https://dc.lft.to/lastmile_qr_scan"}, "fusion_lat": 0.0, "name": "45661c8d8785b995dc4028fcdbf3caf6", "bike_id": "45661c8d8785b995dc4028fcdbf3caf6", "is_disabled": 0, "type": "electric_scooter", "lat": 38.93606333333334, "lon": -77.058576, "is_reserved": 0, "fusion_lon": 0.0}, {"rental_uris": {"ios": "https://dc.lft.to/lastmile_qr_scan", "android": "https://dc.lft.to/lastmile_qr_scan"}, "fusion_lat": 0.0, "name": "53a747578e613025ee86003d314ec775", "bike_id": "53a747578e613025ee86003d314ec775", "is_disabled": 0, "type": "electric_scooter", "lat": 38.90198866666667, "lon": -77.04700416666667, "is_reserved": 0, "fusion_lon": 0.0}, {"rental_uris": {"ios": "https://dc.lft.to/lastmile_qr_scan", "android": "https://dc.lft.to/lastmile_qr_scan"}, "fusion_lat": 0.0, "name": "4b3c96259f0288431690ce1800f80104", "bike_id": "4b3c96259f0288431690ce1800f80104", "is_disabled": 0, "type": "electric_scooter", "lat": 38.87868366666667, "lon": -76.94140266666666, "is_reserved": 0, "fusion_lon": 0.0}, {"rental_uris": {"ios": "https://dc.lft.to/lastmile_qr_scan", "android": "https://dc.lft.to/lastmile_qr_scan"}, "fusion_lat": 0.0, "name": "a48494e0bb49230a41b482fd136eb900", "bike_id": "a48494e0bb49230a41b482fd136eb900", "is_disabled": 0, "type": "electric_bike", "lat": 38.9587865, "lon": -76.9248665, "is_reserved": 0, "fusion_lon": 0.0}, {"rental_uris": {"ios": "https://dc.lft.to/lastmile_qr_scan", "android": "https://dc.lft.to/lastmile_qr_scan"}, "fusion_lat": 0.0, "name": "499bb3c54f9d541617796e58e335f850", "bike_id": "499bb3c54f9d541617796e58e335f850", "is_disabled": 0, "type": "electric_scooter", "lat": 38.92534, "lon": -77.02644166666667, "is_reserved": 0, "fusion_lon": 0.0}, {"rental_uris": {"ios": "https://dc.lft.to/lastmile_qr_scan", "android": "https://dc.lft.to/lastmile_qr_scan"}, "fusion_lat": 0.0, "name": "cb608fe1173955fcc2b33c266cf594ce", "bike_id": "cb608fe1173955fcc2b33c266cf594ce", "is_disabled": 0, "type": "electric_scooter", "lat": 38.876273, "lon": -76.96529266666667, "is_reserved": 0, "fusion_lon": 0.0}, {"rental_uris": {"ios": "https://dc.lft.to/lastmile_qr_scan", "android": "https://dc.lft.to/lastmile_qr_scan"}, "fusion_lat": 0.0, "name": "c8a9f84eb81e9193312d05e60ed02ab3", "bike_id": "c8a9f84eb81e9193312d05e60ed02ab3", "is_disabled": 0, "type": "electric_scooter", "lat": 38.9177995, "lon": -77.04339566666667, "is_reserved": 0, "fusion_lon": 0.0}, {"rental_uris": {"ios": "https://dc.lft.to/lastmile_qr_scan", "android": "https://dc.lft.to/lastmile_qr_scan"}, "fusion_lat": 0.0, "name": "788e41e3834970ba5abc5a11f5ec25a2", "bike_id": "788e41e3834970ba5abc5a11f5ec25a2", "is_disabled": 0, "type": "electric_scooter", "lat": 38.9462205, "lon": -77.02516566666667, "is_reserved": 0, "fusion_lon": 0.0}, {"rental_uris": {"ios": "https://dc.lft.to/lastmile_qr_scan", "android": "https://dc.lft.to/lastmile_qr_scan"}, "fusion_lat": 0.0, "name": "b6d4810df87763e0ceedecbec0e994e6", "bike_id": "b6d4810df87763e0ceedecbec0e994e6", "is_disabled": 0, "type": "electric_scooter", "lat": 38.9056085, "lon": -77.03475716666667, "is_reserved": 0, "fusion_lon": 0.0}, {"rental_uris": {"ios": "https://dc.lft.to/lastmile_qr_scan", "android": "https://dc.lft.to/lastmile_qr_scan"}, "fusion_lat": 0.0, "name": "9140043e6aafadaea42ae9b9a17464a6", "bike_id": "9140043e6aafadaea42ae9b9a17464a6", "is_disabled": 0, "type": "electric_scooter", "lat": 38.928090833333336, "lon": -77.05396216666666, "is_reserved": 0, "fusion_lon": 0.0}, {"rental_uris": {"ios": "https://dc.lft.to/lastmile_qr_scan", "android": "https://dc.lft.to/lastmile_qr_scan"}, "fusion_lat": 0.0, "name": "50e44c88d8044520227561649d26e317", "bike_id": "50e44c88d8044520227561649d26e317", "is_disabled": 0, "type": "electric_scooter", "lat": 38.909703, "lon": -77.04626033333334, "is_reserved": 0, "fusion_lon": 0.0}, {"rental_uris": {"ios": "https://dc.lft.to/lastmile_qr_scan", "android": "https://dc.lft.to/lastmile_qr_scan"}, "fusion_lat": 0.0, "name": "e3be864e1f613bcdfbcd78293c81daa6", "bike_id": "e3be864e1f613bcdfbcd78293c81daa6", "is_disabled": 0, "type": "electric_scooter", "lat": 38.92309783333333, "lon": -77.0353145, "is_reserved": 0, "fusion_lon": 0.0}, {"rental_uris": {"ios": "https://dc.lft.to/lastmile_qr_scan", "android": "https://dc.lft.to/lastmile_qr_scan"}, "fusion_lat": 0.0, "name": "feeb6b9a77dc38011f8b9a4807097334", "bike_id": "feeb6b9a77dc38011f8b9a4807097334", "is_disabled": 0, "type": "electric_scooter", "lat": 38.92433883333333, "lon": -77.052124, "is_reserved": 0, "fusion_lon": 0.0}, {"rental_uris": {"ios": "https://dc.lft.to/lastmile_qr_scan", "android": "https://dc.lft.to/lastmile_qr_scan"}, "fusion_lat": 0.0, "name": "5286e20d2186509a1dedf40f7922c9bb", "bike_id": "5286e20d2186509a1dedf40f7922c9bb", "is_disabled": 0, "type": "electric_scooter", "lat": 38.92415733333333, "lon": -77.01952983333334, "is_reserved": 0, "fusion_lon": 0.0}, {"rental_uris": {"ios": "https://dc.lft.to/lastmile_qr_scan", "android": "https://dc.lft.to/lastmile_qr_scan"}, "fusion_lat": 0.0, "name": "c32672f6bf8a5fc341a03ae35b909835", "bike_id": "c32672f6bf8a5fc341a03ae35b909835", "is_disabled": 0, "type": "electric_scooter", "lat": 38.86698833333333, "lon": -76.98709183333334, "is_reserved": 0, "fusion_lon": 0.0}, {"rental_uris": {"ios": "https://dc.lft.to/lastmile_qr_scan", "android": "https://dc.lft.to/lastmile_qr_scan"}, "fusion_lat": 0.0, "name": "f87ddc254165a17346e85bccc63c1965", "bike_id": "f87ddc254165a17346e85bccc63c1965", "is_disabled": 0, "type": "electric_scooter", "lat": 38.93889566666667, "lon": -77.024856, "is_reserved": 0, "fusion_lon": 0.0}, {"rental_uris": {"ios": "https://dc.lft.to/lastmile_qr_scan", "android": "https://dc.lft.to/lastmile_qr_scan"}, "fusion_lat": 0.0, "name": "adb2b5f1c41e12f3a8b95e14194c6343", "bike_id": "adb2b5f1c41e12f3a8b95e14194c6343", "is_disabled": 0, "type": "electric_scooter", "lat": 38.909661, "lon": -76.99607733333333, "is_reserved": 0, "fusion_lon": 0.0}, {"rental_uris": {"ios": "https://dc.lft.to/lastmile_qr_scan", "android": "https://dc.lft.to/lastmile_qr_scan"}, "fusion_lat": 0.0, "name": "00e3407fefdecd3794e00a093e5fb3ad", "bike_id": "00e3407fefdecd3794e00a093e5fb3ad", "is_disabled": 0, "type": "electric_scooter", "lat": 38.903714, "lon": -77.03444216666666, "is_reserved": 0, "fusion_lon": 0.0}, {"rental_uris": {"ios": "https://dc.lft.to/lastmile_qr_scan", "android": "https://dc.lft.to/lastmile_qr_scan"}, "fusion_lat": 0.0, "name": "e75b6cb723a85f62bb1e16d0e79c06ab", "bike_id": "e75b6cb723a85f62bb1e16d0e79c06ab", "is_disabled": 0, "type": "electric_scooter", "lat": 38.92053883333333, "lon": -77.04194383333333, "is_reserved": 0, "fusion_lon": 0.0}, {"rental_uris": {"ios": "https://dc.lft.to/lastmile_qr_scan", "android": "https://dc.lft.to/lastmile_qr_scan"}, "fusion_lat": 0.0, "name": "bdf5202a714894d0980f1b376435f74f", "bike_id": "bdf5202a714894d0980f1b376435f74f", "is_disabled": 0, "type": "electric_scooter", "lat": 38.88717716666667, "lon": -76.99611666666667, "is_reserved": 0, "fusion_lon": 0.0}, {"rental_uris": {"ios": "https://dc.lft.to/lastmile_qr_scan", "android": "https://dc.lft.to/lastmile_qr_scan"}, "fusion_lat": 0.0, "name": "93e6226d14ba2f9712aa75ca09a1d6fd", "bike_id": "93e6226d14ba2f9712aa75ca09a1d6fd", "is_disabled": 0, "type": "electric_scooter", "lat": 38.9156415, "lon": -77.01173466666667, "is_reserved": 0, "fusion_lon": 0.0}, {"rental_uris": {"ios": "https://dc.lft.to/lastmile_qr_scan", "android": "https://dc.lft.to/lastmile_qr_scan"}, "fusion_lat": 0.0, "name": "5915d87601955ef07200d5a7a8aad246", "bike_id": "5915d87601955ef07200d5a7a8aad246", "is_disabled": 0, "type": "electric_scooter", "lat": 38.913374166666664, "lon": -77.038476, "is_reserved": 0, "fusion_lon": 0.0}, {"rental_uris": {"ios": "https://dc.lft.to/lastmile_qr_scan", "android": "https://dc.lft.to/lastmile_qr_scan"}, "fusion_lat": 0.0, "name": "de33fb7434c3d2508e11380c1101c427", "bike_id": "de33fb7434c3d2508e11380c1101c427", "is_disabled": 0, "type": "electric_scooter", "lat": 38.929530166666666, "lon": -76.99089383333333, "is_reserved": 0, "fusion_lon": 0.0}, {"rental_uris": {"ios": "https://dc.lft.to/lastmile_qr_scan", "android": "https://dc.lft.to/lastmile_qr_scan"}, "fusion_lat": 0.0, "name": "f83503e03a070a24103ca15b17188c19", "bike_id": "f83503e03a070a24103ca15b17188c19", "is_disabled": 0, "type": "electric_scooter", "lat": 38.922634333333335, "lon": -77.03452233333333, "is_reserved": 0, "fusion_lon": 0.0}, {"rental_uris": {"ios": "https://dc.lft.to/lastmile_qr_scan", "android": "https://dc.lft.to/lastmile_qr_scan"}, "fusion_lat": 0.0, "name": "26287ff6673a6bff4d9396eb5ccb19bc", "bike_id": "26287ff6673a6bff4d9396eb5ccb19bc", "is_disabled": 0, "type": "electric_scooter", "lat": 38.92363916666667, "lon": -77.05028716666666, "is_reserved": 0, "fusion_lon": 0.0}, {"rental_uris": {"ios": "https://dc.lft.to/lastmile_qr_scan", "android": "https://dc.lft.to/lastmile_qr_scan"}, "fusion_lat": 0.0, "name": "e4626bf0b4bb0993fefc86dc4bd27b58", "bike_id": "e4626bf0b4bb0993fefc86dc4bd27b58", "is_disabled": 0, "type": "electric_scooter", "lat": 38.90933916666667, "lon": -77.05520716666666, "is_reserved": 0, "fusion_lon": 0.0}, {"rental_uris": {"ios": "https://dc.lft.to/lastmile_qr_scan", "android": "https://dc.lft.to/lastmile_qr_scan"}, "fusion_lat": 0.0, "name": "b54ea4c7ac1fd75376944fc12976ba9b", "bike_id": "b54ea4c7ac1fd75376944fc12976ba9b", "is_disabled": 0, "type": "electric_bike", "lat": 38.85786566666667, "lon": -77.09963616666667, "is_reserved": 0, "fusion_lon": 0.0}, {"rental_uris": {"ios": "https://dc.lft.to/lastmile_qr_scan", "android": "https://dc.lft.to/lastmile_qr_scan"}, "fusion_lat": 0.0, "name": "b939965cd9466bb6cd08f414b487d88a", "bike_id": "b939965cd9466bb6cd08f414b487d88a", "is_disabled": 0, "type": "electric_scooter", "lat": 38.915942, "lon": -77.02971033333333, "is_reserved": 0, "fusion_lon": 0.0}, {"rental_uris": {"ios": "https://dc.lft.to/lastmile_qr_scan", "android": "https://dc.lft.to/lastmile_qr_scan"}, "fusion_lat": 0.0, "name": "db5216dac4d65bc83067ad0ed9c921d4", "bike_id": "db5216dac4d65bc83067ad0ed9c921d4", "is_disabled": 0, "type": "electric_scooter", "lat": 38.95646633333333, "lon": -77.0328685, "is_reserved": 0, "fusion_lon": 0.0}, {"rental_uris": {"ios": "https://dc.lft.to/lastmile_qr_scan", "android": "https://dc.lft.to/lastmile_qr_scan"}, "fusion_lat": 0.0, "name": "3fc5ded4611be94802197b85ab51ac2a", "bike_id": "3fc5ded4611be94802197b85ab51ac2a", "is_disabled": 0, "type": "electric_scooter", "lat": 38.9126285, "lon": -77.04469416666667, "is_reserved": 0, "fusion_lon": 0.0}, {"rental_uris": {"ios": "https://dc.lft.to/lastmile_qr_scan", "android": "https://dc.lft.to/lastmile_qr_scan"}, "fusion_lat": 0.0, "name": "b7b93fcf9e310f79c176b741721ade7a", "bike_id": "b7b93fcf9e310f79c176b741721ade7a", "is_disabled": 0, "type": "electric_scooter", "lat": 38.91918166666667, "lon": -77.07074183333333, "is_reserved": 0, "fusion_lon": 0.0}, {"rental_uris": {"ios": "https://dc.lft.to/lastmile_qr_scan", "android": "https://dc.lft.to/lastmile_qr_scan"}, "fusion_lat": 0.0, "name": "0413fcaeaa87de13f090e2b6ac695b93", "bike_id": "0413fcaeaa87de13f090e2b6ac695b93", "is_disabled": 0, "type": "electric_bike", "lat": 38.951832833333334, "lon": -76.93545316666666, "is_reserved": 0, "fusion_lon": 0.0}, {"rental_uris": {"ios": "https://dc.lft.to/lastmile_qr_scan", "android": "https://dc.lft.to/lastmile_qr_scan"}, "fusion_lat": 0.0, "name": "d22b1de2e5281b6bf793012673a88205", "bike_id": "d22b1de2e5281b6bf793012673a88205", "is_disabled": 0, "type": "electric_scooter", "lat": 38.907269166666666, "lon": -77.02763316666666, "is_reserved": 0, "fusion_lon": 0.0}, {"rental_uris": {"ios": "https://dc.lft.to/lastmile_qr_scan", "android": "https://dc.lft.to/lastmile_qr_scan"}, "fusion_lat": 0.0, "name": "51131fcb2f81444f027fa25d548f4137", "bike_id": "51131fcb2f81444f027fa25d548f4137", "is_disabled": 0, "type": "electric_scooter", "lat": 38.907304, "lon": -77.02765533333333, "is_reserved": 0, "fusion_lon": 0.0}, {"rental_uris": {"ios": "https://dc.lft.to/lastmile_qr_scan", "android": "https://dc.lft.to/lastmile_qr_scan"}, "fusion_lat": 0.0, "name": "2202d3c3905c93bed05f5bbcaaed33d5", "bike_id": "2202d3c3905c93bed05f5bbcaaed33d5", "is_disabled": 0, "type": "electric_scooter", "lat": 38.86699933333333, "lon": -76.98714266666667, "is_reserved": 0, "fusion_lon": 0.0}, {"rental_uris": {"ios": "https://dc.lft.to/lastmile_qr_scan", "android": "https://dc.lft.to/lastmile_qr_scan"}, "fusion_lat": 0.0, "name": "bd7716e1ead02f8271073beee62da72a", "bike_id": "bd7716e1ead02f8271073beee62da72a", "is_disabled": 0, "type": "electric_scooter", "lat": 38.90274933333333, "lon": -77.03173783333334, "is_reserved": 0, "fusion_lon": 0.0}, {"rental_uris": {"ios": "https://dc.lft.to/lastmile_qr_scan", "android": "https://dc.lft.to/lastmile_qr_scan"}, "fusion_lat": 0.0, "name": "84388a39b32909a31e57dab2446b779f", "bike_id": "84388a39b32909a31e57dab2446b779f", "is_disabled": 0, "type": "electric_scooter", "lat": 38.946339333333334, "lon": -77.01846883333333, "is_reserved": 0, "fusion_lon": 0.0}, {"rental_uris": {"ios": "https://dc.lft.to/lastmile_qr_scan", "android": "https://dc.lft.to/lastmile_qr_scan"}, "fusion_lat": 0.0, "name": "cc40f8f098f9cf655a3744eff0bf22c3", "bike_id": "cc40f8f098f9cf655a3744eff0bf22c3", "is_disabled": 0, "type": "electric_scooter", "lat": 38.9250885, "lon": -77.00225366666666, "is_reserved": 0, "fusion_lon": 0.0}, {"rental_uris": {"ios": "https://dc.lft.to/lastmile_qr_scan", "android": "https://dc.lft.to/lastmile_qr_scan"}, "fusion_lat": 0.0, "name": "fc8f254dcad6e880fbf9b73dd47532b1", "bike_id": "fc8f254dcad6e880fbf9b73dd47532b1", "is_disabled": 0, "type": "electric_scooter", "lat": 38.87092033333333, "lon": -76.96871683333333, "is_reserved": 0, "fusion_lon": 0.0}, {"rental_uris": {"ios": "https://dc.lft.to/lastmile_qr_scan", "android": "https://dc.lft.to/lastmile_qr_scan"}, "fusion_lat": 0.0, "name": "f4810d4ca867ccc4def1514e6b1d20a3", "bike_id": "f4810d4ca867ccc4def1514e6b1d20a3", "is_disabled": 0, "type": "electric_scooter", "lat": 38.89621116666667, "lon": -77.02689916666667, "is_reserved": 0, "fusion_lon": 0.0}, {"rental_uris": {"ios": "https://dc.lft.to/lastmile_qr_scan", "android": "https://dc.lft.to/lastmile_qr_scan"}, "fusion_lat": 0.0, "name": "12fec35ad6f359f1b72c4ac65063fbaf", "bike_id": "12fec35ad6f359f1b72c4ac65063fbaf", "is_disabled": 0, "type": "electric_scooter", "lat": 38.90670816666667, "lon": -77.02713583333333, "is_reserved": 0, "fusion_lon": 0.0}, {"rental_uris": {"ios": "https://dc.lft.to/lastmile_qr_scan", "android": "https://dc.lft.to/lastmile_qr_scan"}, "fusion_lat": 0.0, "name": "efab0093df7df9e5674e84f3c1b6381b", "bike_id": "efab0093df7df9e5674e84f3c1b6381b", "is_disabled": 0, "type": "electric_scooter", "lat": 38.890361166666665, "lon": -76.93752716666667, "is_reserved": 0, "fusion_lon": 0.0}, {"rental_uris": {"ios": "https://dc.lft.to/lastmile_qr_scan", "android": "https://dc.lft.to/lastmile_qr_scan"}, "fusion_lat": 0.0, "name": "f28c6efe05c1e762d226452cdad13308", "bike_id": "f28c6efe05c1e762d226452cdad13308", "is_disabled": 0, "type": "electric_scooter", "lat": 38.918246, "lon": -77.04522316666667, "is_reserved": 0, "fusion_lon": 0.0}, {"rental_uris": {"ios": "https://dc.lft.to/lastmile_qr_scan", "android": "https://dc.lft.to/lastmile_qr_scan"}, "fusion_lat": 0.0, "name": "82ae7ff18c8517a4a3b448f9ef93ec7a", "bike_id": "82ae7ff18c8517a4a3b448f9ef93ec7a", "is_disabled": 0, "type": "electric_scooter", "lat": 38.931312, "lon": -77.03257333333333, "is_reserved": 0, "fusion_lon": 0.0}, {"rental_uris": {"ios": "https://dc.lft.to/lastmile_qr_scan", "android": "https://dc.lft.to/lastmile_qr_scan"}, "fusion_lat": 0.0, "name": "72981150c31c20f68c6405e8772118e7", "bike_id": "72981150c31c20f68c6405e8772118e7", "is_disabled": 0, "type": "electric_scooter", "lat": 38.892359666666664, "lon": -77.04663133333334, "is_reserved": 0, "fusion_lon": 0.0}, {"rental_uris": {"ios": "https://dc.lft.to/lastmile_qr_scan", "android": "https://dc.lft.to/lastmile_qr_scan"}, "fusion_lat": 0.0, "name": "207ad03bf4f63415575ad9c9b71ccfa8", "bike_id": "207ad03bf4f63415575ad9c9b71ccfa8", "is_disabled": 0, "type": "electric_scooter", "lat": 38.904511166666666, "lon": -77.03455566666666, "is_reserved": 0, "fusion_lon": 0.0}, {"rental_uris": {"ios": "https://dc.lft.to/lastmile_qr_scan", "android": "https://dc.lft.to/lastmile_qr_scan"}, "fusion_lat": 0.0, "name": "eedc0ffa8cc44db7bea54f8d3a7aa1f3", "bike_id": "eedc0ffa8cc44db7bea54f8d3a7aa1f3", "is_disabled": 0, "type": "electric_scooter", "lat": 38.932482666666665, "lon": -77.038467, "is_reserved": 0, "fusion_lon": 0.0}, {"rental_uris": {"ios": "https://dc.lft.to/lastmile_qr_scan", "android": "https://dc.lft.to/lastmile_qr_scan"}, "fusion_lat": 0.0, "name": "da9cd38d558bf477f8786e00565a3948", "bike_id": "da9cd38d558bf477f8786e00565a3948", "is_disabled": 0, "type": "electric_scooter", "lat": 38.921108833333335, "lon": -77.04366416666667, "is_reserved": 0, "fusion_lon": 0.0}, {"rental_uris": {"ios": "https://dc.lft.to/lastmile_qr_scan", "android": "https://dc.lft.to/lastmile_qr_scan"}, "fusion_lat": 0.0, "name": "6d42fb3df9e618098b8c402df7d60ee9", "bike_id": "6d42fb3df9e618098b8c402df7d60ee9", "is_disabled": 0, "type": "electric_scooter", "lat": 38.88640566666667, "lon": -77.0010145, "is_reserved": 0, "fusion_lon": 0.0}, {"rental_uris": {"ios": "https://dc.lft.to/lastmile_qr_scan", "android": "https://dc.lft.to/lastmile_qr_scan"}, "fusion_lat": 0.0, "name": "7b5f3925a0b732a12c724c811b8c8d5e", "bike_id": "7b5f3925a0b732a12c724c811b8c8d5e", "is_disabled": 0, "type": "electric_scooter", "lat": 38.916597833333334, "lon": -77.0233385, "is_reserved": 0, "fusion_lon": 0.0}, {"rental_uris": {"ios": "https://dc.lft.to/lastmile_qr_scan", "android": "https://dc.lft.to/lastmile_qr_scan"}, "fusion_lat": 0.0, "name": "63e85dace2268badbe58b5931197fe23", "bike_id": "63e85dace2268badbe58b5931197fe23", "is_disabled": 0, "type": "electric_bike", "lat": 38.94835833333333, "lon": -77.0063655, "is_reserved": 0, "fusion_lon": 0.0}, {"rental_uris": {"ios": "https://dc.lft.to/lastmile_qr_scan", "android": "https://dc.lft.to/lastmile_qr_scan"}, "fusion_lat": 0.0, "name": "c44c16d532fd995cbc8f21179fd87d75", "bike_id": "c44c16d532fd995cbc8f21179fd87d75", "is_disabled": 0, "type": "electric_scooter", "lat": 38.91678783333333, "lon": -77.0298295, "is_reserved": 0, "fusion_lon": 0.0}, {"rental_uris": {"ios": "https://dc.lft.to/lastmile_qr_scan", "android": "https://dc.lft.to/lastmile_qr_scan"}, "fusion_lat": 0.0, "name": "4d2ff4897de62686f406b65a8909100f", "bike_id": "4d2ff4897de62686f406b65a8909100f", "is_disabled": 0, "type": "electric_scooter", "lat": 38.8621125, "lon": -76.994831, "is_reserved": 0, "fusion_lon": 0.0}, {"rental_uris": {"ios": "https://dc.lft.to/lastmile_qr_scan", "android": "https://dc.lft.to/lastmile_qr_scan"}, "fusion_lat": 0.0, "name": "4724457389edda3add0a26c7649a0038", "bike_id": "4724457389edda3add0a26c7649a0038", "is_disabled": 0, "type": "electric_scooter", "lat": 38.89220066666667, "lon": -77.02782666666667, "is_reserved": 0, "fusion_lon": 0.0}, {"rental_uris": {"ios": "https://dc.lft.to/lastmile_qr_scan", "android": "https://dc.lft.to/lastmile_qr_scan"}, "fusion_lat": 0.0, "name": "74baa28e8d2657a0dbed92f9ef5577bb", "bike_id": "74baa28e8d2657a0dbed92f9ef5577bb", "is_disabled": 0, "type": "electric_scooter", "lat": 38.92076316666667, "lon": -77.04203516666666, "is_reserved": 0, "fusion_lon": 0.0}, {"rental_uris": {"ios": "https://dc.lft.to/lastmile_qr_scan", "android": "https://dc.lft.to/lastmile_qr_scan"}, "fusion_lat": 0.0, "name": "7ce75f80ac540453c34d71f6abb8343e", "bike_id": "7ce75f80ac540453c34d71f6abb8343e", "is_disabled": 0, "type": "electric_bike", "lat": 38.8715, "lon": -76.93651733333333, "is_reserved": 0, "fusion_lon": 0.0}, {"rental_uris": {"ios": "https://dc.lft.to/lastmile_qr_scan", "android": "https://dc.lft.to/lastmile_qr_scan"}, "fusion_lat": 0.0, "name": "22bad19737d64f69ee2c35338cd7721f", "bike_id": "22bad19737d64f69ee2c35338cd7721f", "is_disabled": 0, "type": "electric_scooter", "lat": 38.892197333333336, "lon": -77.02649083333333, "is_reserved": 0, "fusion_lon": 0.0}, {"rental_uris": {"ios": "https://dc.lft.to/lastmile_qr_scan", "android": "https://dc.lft.to/lastmile_qr_scan"}, "fusion_lat": 0.0, "name": "d1002b2f38511bb30bba80c54595e7c3", "bike_id": "d1002b2f38511bb30bba80c54595e7c3", "is_disabled": 0, "type": "electric_scooter", "lat": 38.8738465, "lon": -76.9660565, "is_reserved": 0, "fusion_lon": 0.0}, {"rental_uris": {"ios": "https://dc.lft.to/lastmile_qr_scan", "android": "https://dc.lft.to/lastmile_qr_scan"}, "fusion_lat": 0.0, "name": "7479b849af4bdca9e9c7e7ffedc24587", "bike_id": "7479b849af4bdca9e9c7e7ffedc24587", "is_disabled": 0, "type": "electric_scooter", "lat": 38.923677166666664, "lon": -77.0514955, "is_reserved": 0, "fusion_lon": 0.0}, {"rental_uris": {"ios": "https://dc.lft.to/lastmile_qr_scan", "android": "https://dc.lft.to/lastmile_qr_scan"}, "fusion_lat": 0.0, "name": "54297658f75348c1bd38e1520bd71899", "bike_id": "54297658f75348c1bd38e1520bd71899", "is_disabled": 0, "type": "electric_scooter", "lat": 38.892440666666666, "lon": -77.04659666666667, "is_reserved": 0, "fusion_lon": 0.0}, {"rental_uris": {"ios": "https://dc.lft.to/lastmile_qr_scan", "android": "https://dc.lft.to/lastmile_qr_scan"}, "fusion_lat": 0.0, "name": "4dd1e4bc19730eaca876642748c6a8a1", "bike_id": "4dd1e4bc19730eaca876642748c6a8a1", "is_disabled": 0, "type": "electric_scooter", "lat": 38.926261333333336, "lon": -77.03540933333333, "is_reserved": 0, "fusion_lon": 0.0}, {"rental_uris": {"ios": "https://dc.lft.to/lastmile_qr_scan", "android": "https://dc.lft.to/lastmile_qr_scan"}, "fusion_lat": 0.0, "name": "1c3e98f7469ac8fd4faf45efaa11dd77", "bike_id": "1c3e98f7469ac8fd4faf45efaa11dd77", "is_disabled": 0, "type": "electric_scooter", "lat": 38.916821666666664, "lon": -77.02286866666667, "is_reserved": 0, "fusion_lon": 0.0}, {"rental_uris": {"ios": "https://dc.lft.to/lastmile_qr_scan", "android": "https://dc.lft.to/lastmile_qr_scan"}, "fusion_lat": 0.0, "name": "050b76a859d3048b25cc91026bfabf08", "bike_id": "050b76a859d3048b25cc91026bfabf08", "is_disabled": 0, "type": "electric_scooter", "lat": 38.93604416666667, "lon": -77.058548, "is_reserved": 0, "fusion_lon": 0.0}, {"rental_uris": {"ios": "https://dc.lft.to/lastmile_qr_scan", "android": "https://dc.lft.to/lastmile_qr_scan"}, "fusion_lat": 0.0, "name": "9f4dc537c014426627bd5a14d4c39ed4", "bike_id": "9f4dc537c014426627bd5a14d4c39ed4", "is_disabled": 0, "type": "electric_scooter", "lat": 38.9495825, "lon": -77.02721416666667, "is_reserved": 0, "fusion_lon": 0.0}, {"rental_uris": {"ios": "https://dc.lft.to/lastmile_qr_scan", "android": "https://dc.lft.to/lastmile_qr_scan"}, "fusion_lat": 0.0, "name": "3009ca3e66498a83b7456424d29d280b", "bike_id": "3009ca3e66498a83b7456424d29d280b", "is_disabled": 0, "type": "electric_scooter", "lat": 38.915548666666666, "lon": -77.02420116666667, "is_reserved": 0, "fusion_lon": 0.0}, {"rental_uris": {"ios": "https://dc.lft.to/lastmile_qr_scan", "android": "https://dc.lft.to/lastmile_qr_scan"}, "fusion_lat": 0.0, "name": "7b2977ff159a0a7d2b375ee0729e059d", "bike_id": "7b2977ff159a0a7d2b375ee0729e059d", "is_disabled": 0, "type": "electric_bike", "lat": 38.87728366666666, "lon": -76.9810925, "is_reserved": 0, "fusion_lon": 0.0},