{"data": {"bikes": [{"bike_id": "0c2ecdd1389fa8d0a64b730d1cd717d9", "type": "electric_scooter", "is_disabled": 0, "lat": 38.853229666666664, "rental_uris": {"ios": "https://dc.lft.to/lastmile_qr_scan", "android": "https://dc.lft.to/lastmile_qr_scan"}, "is_reserved": 0, "fusion_lon": 0.0, "fusion_lat": 0.0, "lon": -76.98010466666666, "name": "0c2ecdd1389fa8d0a64b730d1cd717d9"}, {"bike_id": "888c4f6e3cb334bee2e977a1a9ee5e2a", "type": "electric_scooter", "is_disabled": 0, "lat": 38.91637083333333, "rental_uris": {"ios": "https://dc.lft.to/lastmile_qr_scan", "android": "https://dc.lft.to/lastmile_qr_scan"}, "is_reserved": 0, "fusion_lon": 0.0, "fusion_lat": 0.0, "lon": -77.02283833333334, "name": "888c4f6e3cb334bee2e977a1a9ee5e2a"}, {"bike_id": "3847bf5220025e326f34b2e97f87f5d6", "type": "electric_scooter", "is_disabled": 0, "lat": 38.866845166666664, "rental_uris": {"ios": "https://dc.lft.to/lastmile_qr_scan", "android": "https://dc.lft.to/lastmile_qr_scan"}, "is_reserved": 0, "fusion_lon": 0.0, "fusion_lat": 0.0, "lon": -76.98574383333333, "name": "3847bf5220025e326f34b2e97f87f5d6"}, {"bike_id": "05167f8cfd4c2d570fbb2f7a25e1835f", "type": "electric_scooter", "is_disabled": 0, "lat": 38.912584833333334, "rental_uris": {"ios": "https://dc.lft.to/lastmile_qr_scan", "android": "https://dc.lft.to/lastmile_qr_scan"}, "is_reserved": 0, "fusion_lon": 0.0, "fusion_lat": 0.0, "lon": -77.03752133333333, "name": "05167f8cfd4c2d570fbb2f7a25e1835f"}, {"bike_id": "701152377e80cf124b569964b4c542fb", "type": "electric_scooter", "is_disabled": 0, "lat": 38.88849283333333, "rental_uris": {"ios": "https://dc.lft.to/lastmile_qr_scan", "android": "https://dc.lft.to/lastmile_qr_scan"}, "is_reserved": 0, "fusion_lon": 0.0, "fusion_lat": 0.0, "lon": -76.92679366666667, "name": "701152377e80cf124b569964b4c542fb"}, {"bike_id": "e3ea5c57dc890457436c0f1e71f11122", "type": "electric_scooter", "is_disabled": 0, "lat": 38.9426865, "rental_uris": {"ios": "https://dc.lft.to/lastmile_qr_scan", "android": "https://dc.lft.to/lastmile_qr_scan"}, "is_reserved": 0, "fusion_lon": 0.0, "fusion_lat": 0.0, "lon": -77.032564, "name": "e3ea5c57dc890457436c0f1e71f11122"}, {"bike_id": "23c21f53b68e5b8e7623c45874d7e035", "type": "electric_scooter", "is_disabled": 0, "lat": 38.8786615, "rental_uris": {"ios": "https://dc.lft.to/lastmile_qr_scan", "android": "https://dc.lft.to/lastmile_qr_scan"}, "is_reserved": 0, "fusion_lon": 0.0, "fusion_lat": 0.0, "lon": -76.96982833333334, "name": "23c21f53b68e5b8e7623c45874d7e035"}, {"bike_id": "41bae6178498670d8dd02b81ea1b9823", "type": "electric_scooter", "is_disabled": 0, "lat": 38.9110545, "rental_uris": {"ios": "https://dc.lft.to/lastmile_qr_scan", "android": "https://dc.lft.to/lastmile_qr_scan"}, "is_reserved": 0, "fusion_lon": 0.0, "fusion_lat": 0.0, "lon": -77.0383115, "name": "41bae6178498670d8dd02b81ea1b9823"}, {"bike_id": "ba3d517a2749f2c9b5153fc8ae7ef4ad", "type": "electric_scooter", "is_disabled": 0, "lat": 38.929142, "rental_uris": {"ios": "https://dc.lft.to/lastmile_qr_scan", "android": "https://dc.lft.to/lastmile_qr_scan"}, "is_reserved": 0, "fusion_lon": 0.0, "fusion_lat": 0.0, "lon": -77.02092266666666, "name": "ba3d517a2749f2c9b5153fc8ae7ef4ad"}, {"bike_id": "30558e1a5cb3a4149f4c1bc4aa7f5cda", "type": "electric_scooter", "is_disabled": 0, "lat": 38.90245316666667, "rental_uris": {"ios": "https://dc.lft.to/lastmile_qr_scan", "android": "https://dc.lft.to/lastmile_qr_scan"}, "is_reserved": 0, "fusion_lon": 0.0, "fusion_lat": 0.0, "lon": -77.043331, "name": "30558e1a5cb3a4149f4c1bc4aa7f5cda"}, {"bike_id": "3e8c31abf9bb0eec4f42fc0bbaacbed2", "type": "electric_scooter", "is_disabled": 0, "lat": 38.87421283333333, "rental_uris": {"ios": "https://dc.lft.to/lastmile_qr_scan", "android": "https://dc.lft.to/lastmile_qr_scan"}, "is_reserved": 0, "fusion_lon": 0.0, "fusion_lat": 0.0, "lon": -76.9690745, "name": "3e8c31abf9bb0eec4f42fc0bbaacbed2"}, {"bike_id": "4525748cbd1913664ef57b1026545db2", "type": "electric_scooter", "is_disabled": 0, "lat": 38.92471, "rental_uris": {"ios": "https://dc.lft.to/lastmile_qr_scan", "android": "https://dc.lft.to/lastmile_qr_scan"}, "is_reserved": 0, "fusion_lon": 0.0, "fusion_lat": 0.0, "lon": -77.02832216666667, "name": "4525748cbd1913664ef57b1026545db2"}, {"bike_id": "89dbe16f4a2a7f32f8a3a77566576bff", "type": "electric_scooter", "is_disabled": 0, "lat": 38.91438683333333, "rental_uris": {"ios": "https://dc.lft.to/lastmile_qr_scan", "android": "https://dc.lft.to/lastmile_qr_scan"}, "is_reserved": 0, "fusion_lon": 0.0, "fusion_lat": 0.0, "lon": -77.02295783333334, "name": "89dbe16f4a2a7f32f8a3a77566576bff"}, {"bike_id": "1a311f4fdd76baa4399a2699a9eda8cf", "type": "electric_scooter", "is_disabled": 0, "lat": 38.90362966666667, "rental_uris": {"ios": "https://dc.lft.to/lastmile_qr_scan", "android": "https://dc.lft.to/lastmile_qr_scan"}, "is_reserved": 0, "fusion_lon": 0.0, "fusion_lat": 0.0, "lon": -76.99948633333334, "name": "1a311f4fdd76baa4399a2699a9eda8cf"}, {"bike_id": "a0443b1517492de479fe192d3c273839", "type": "electric_scooter", "is_disabled": 0, "lat": 38.89845866666667, "rental_uris": {"ios": "https://dc.lft.to/lastmile_qr_scan", "android": "https://dc.lft.to/lastmile_qr_scan"}, "is_reserved": 0, "fusion_lon": 0.0, "fusion_lat": 0.0, "lon": -77.0287835, "name": "a0443b1517492de479fe192d3c273839"}, {"bike_id": "5000897732e38428d64d76e068a5bfda", "type": "electric_scooter", "is_disabled": 0, "lat": 38.90558083333333, "rental_uris": {"ios": "https://dc.lft.to/lastmile_qr_scan", "android": "https://dc.lft.to/lastmile_qr_scan"}, "is_reserved": 0, "fusion_lon": 0.0, "fusion_lat": 0.0, "lon": -77.06518333333334, "name": "5000897732e38428d64d76e068a5bfda"}, {"bike_id": "d891260412ac06bf155b399e9219fe0e", "type": "electric_scooter", "is_disabled": 0, "lat": 38.8893005, "rental_uris": {"ios": "https://dc.lft.to/lastmile_qr_scan", "android": "https://dc.lft.to/lastmile_qr_scan"}, "is_reserved": 0, "fusion_lon": 0.0, "fusion_lat": 0.0, "lon": -76.9357625, "name": "d891260412ac06bf155b399e9219fe0e"}, {"bike_id": "bfafb57569b6f8f9485ae0e6307cff1f", "type": "electric_bike", "is_disabled": 0, "lat": 38.821736333333334, "rental_uris": {"ios": "https://dc.lft.to/lastmile_qr_scan", "android": "https://dc.lft.to/lastmile_qr_scan"}, "is_reserved": 0, "fusion_lon": 0.0, "fusion_lat": 0.0, "lon": -76.9951785, "name": "bfafb57569b6f8f9485ae0e6307cff1f"}, {"bike_id": "ada2b6d36a3e5f57c7dafba4535202d1", "type": "electric_bike", "is_disabled": 0, "lat": 39.043071, "rental_uris": {"ios": "https://dc.lft.to/lastmile_qr_scan", "android": "https://dc.lft.to/lastmile_qr_scan"}, "is_reserved": 0, "fusion_lon": 0.0, "fusion_lat": 0.0, "lon": -77.05162033333333, "name": "ada2b6d36a3e5f57c7dafba4535202d1"}, {"bike_id": "aabce59acdb1ca41f6f33ffaf9758323", "type": "electric_scooter", "is_disabled": 0, "lat": 38.87845083333333, "rental_uris": {"ios": "https://dc.lft.to/lastmile_qr_scan", "android": "https://dc.lft.to/lastmile_qr_scan"}, "is_reserved": 0, "fusion_lon": 0.0, "fusion_lat": 0.0, "lon": -76.9861705, "name": "aabce59acdb1ca41f6f33ffaf9758323"}, {"bike_id": "21ca59d8a6fecf9f47eacac3e178275a", "type": "electric_scooter", "is_disabled": 0, "lat": 38.90553883333333, "rental_uris": {"ios": "https://dc.lft.to/lastmile_qr_scan", "android": "https://dc.lft.to/lastmile_qr_scan"}, "is_reserved": 0, "fusion_lon": 0.0, "fusion_lat": 0.0, "lon": -77.04234766666667, "name": "21ca59d8a6fecf9f47eacac3e178275a"}, {"bike_id": "f8eec46034893587ddc704a6f1551b2b", "type": "electric_scooter", "is_disabled": 0, "lat": 38.919442333333336, "rental_uris": {"ios": "https://dc.lft.to/lastmile_qr_scan", "android": "https://dc.lft.to/lastmile_qr_scan"}, "is_reserved": 0, "fusion_lon": 0.0, "fusion_lat": 0.0, "lon": -77.02504583333334, "name": "f8eec46034893587ddc704a6f1551b2b"}, {"bike_id": "76cd937f97867b2d53cf9c358696dfb2", "type": "electric_scooter", "is_disabled": 0, "lat": 38.88059116666667, "rental_uris": {"ios": "https://dc.lft.to/lastmile_qr_scan", "android": "https://dc.lft.to/lastmile_qr_scan"}, "is_reserved": 0, "fusion_lon": 0.0, "fusion_lat": 0.0, "lon": -77.00544633333334, "name": "76cd937f97867b2d53cf9c358696dfb2"}, {"bike_id": "1614e64b92137f39770e7603f8dafb14", "type": "electric_scooter", "is_disabled": 0, "lat": 38.88860733333333, "rental_uris": {"ios": "https://dc.lft.to/lastmile_qr_scan", "android": "https://dc.lft.to/lastmile_qr_scan"}, "is_reserved": 0, "fusion_lon": 0.0, "fusion_lat": 0.0, "lon": -76.991447, "name": "1614e64b92137f39770e7603f8dafb14"}, {"bike_id": "f04d7ad02c29288073b7f14b8bea1d9b", "type": "electric_scooter", "is_disabled": 0, "lat": 38.89355316666666, "rental_uris": {"ios": "https://dc.lft.to/lastmile_qr_scan", "android": "https://dc.lft.to/lastmile_qr_scan"}, "is_reserved": 0, "fusion_lon": 0.0, "fusion_lat": 0.0, "lon": -76.94935283333334, "name": "f04d7ad02c29288073b7f14b8bea1d9b"}, {"bike_id": "6a063d08fe127be456ce9fa99bbd3861", "type": "electric_scooter", "is_disabled": 0, "lat": 38.84641333333333, "rental_uris": {"ios": "https://dc.lft.to/lastmile_qr_scan", "android": "https://dc.lft.to/lastmile_qr_scan"}, "is_reserved": 0, "fusion_lon": 0.0, "fusion_lat": 0.0, "lon": -76.99132183333333, "name": "6a063d08fe127be456ce9fa99bbd3861"}, {"bike_id": "961c93781b72f1515833be9c1973ef60", "type": "electric_scooter", "is_disabled": 0, "lat": 38.9196755, "rental_uris": {"ios": "https://dc.lft.to/lastmile_qr_scan", "android": "https://dc.lft.to/lastmile_qr_scan"}, "is_reserved": 0, "fusion_lon": 0.0, "fusion_lat": 0.0, "lon": -77.0427605, "name": "961c93781b72f1515833be9c1973ef60"}, {"bike_id": "8ddfe6d2e8ea311aafb8b30a1e8c4e73", "type": "electric_scooter", "is_disabled": 0, "lat": 38.9205035, "rental_uris": {"ios": "https://dc.lft.to/lastmile_qr_scan", "android": "https://dc.lft.to/lastmile_qr_scan"}, "is_reserved": 0, "fusion_lon": 0.0, "fusion_lat": 0.0, "lon": -77.02428933333333, "name": "8ddfe6d2e8ea311aafb8b30a1e8c4e73"}, {"bike_id": "2bb9d62f2f5c34e2a3f2943b5393f963", "type": "electric_scooter", "is_disabled": 0, "lat": 38.92665016666667, "rental_uris": {"ios": "https://dc.lft.to/lastmile_qr_scan", "android": "https://dc.lft.to/lastmile_qr_scan"}, "is_reserved": 0, "fusion_lon": 0.0, "fusion_lat": 0.0, "lon": -77.03027533333334, "name": "2bb9d62f2f5c34e2a3f2943b5393f963"}, {"bike_id": "55e04fa515f21b650f04810228a16e51", "type": "electric_scooter", "is_disabled": 0, "lat": 38.871584666666664, "rental_uris": {"ios": "https://dc.lft.to/lastmile_qr_scan", "android": "https://dc.lft.to/lastmile_qr_scan"}, "is_reserved": 0, "fusion_lon": 0.0, "fusion_lat": 0.0, "lon": -77.01352616666667, "name": "55e04fa515f21b650f04810228a16e51"}, {"bike_id": "2fe0ccc39cf14e4bf6ce8a3a84c6cb39", "type": "electric_scooter", "is_disabled": 0, "lat": 38.930954666666665, "rental_uris": {"ios": "https://dc.lft.to/lastmile_qr_scan", "android": "https://dc.lft.to/lastmile_qr_scan"}, "is_reserved": 0, "fusion_lon": 0.0, "fusion_lat": 0.0, "lon": -77.025459, "name": "2fe0ccc39cf14e4bf6ce8a3a84c6cb39"}, {"bike_id": "5441e381e7f171d79615dc6b4774b3c8", "type": "electric_scooter", "is_disabled": 0, "lat": 38.904058, "rental_uris": {"ios": "https://dc.lft.to/lastmile_qr_scan", "android": "https://dc.lft.to/lastmile_qr_scan"}, "is_reserved": 0, "fusion_lon": 0.0, "fusion_lat": 0.0, "lon": -77.0487585, "name": "5441e381e7f171d79615dc6b4774b3c8"}, {"bike_id": "2bd66356625b1d1dcf3e9dc9597f20dd", "type": "electric_scooter", "is_disabled": 0, "lat": 38.927938, "rental_uris": {"ios": "https://dc.lft.to/lastmile_qr_scan", "android": "https://dc.lft.to/lastmile_qr_scan"}, "is_reserved": 0, "fusion_lon": 0.0, "fusion_lat": 0.0, "lon": -77.03194466666666, "name": "2bd66356625b1d1dcf3e9dc9597f20dd"}, {"bike_id": "b727343dd9b65b20fe2e07879b8482ec", "type": "electric_scooter", "is_disabled": 0, "lat": 38.882684833333336, "rental_uris": {"ios": "https://dc.lft.to/lastmile_qr_scan", "android": "https://dc.lft.to/lastmile_qr_scan"}, "is_reserved": 0, "fusion_lon": 0.0, "fusion_lat": 0.0, "lon": -76.99253266666666, "name": "b727343dd9b65b20fe2e07879b8482ec"}, {"bike_id": "a57166475fdb357090a8e30d1d768041", "type": "electric_scooter", "is_disabled": 0, "lat": 38.918643833333334, "rental_uris": {"ios": "https://dc.lft.to/lastmile_qr_scan", "android": "https://dc.lft.to/lastmile_qr_scan"}, "is_reserved": 0, "fusion_lon": 0.0, "fusion_lat": 0.0, "lon": -77.01512233333334, "name": "a57166475fdb357090a8e30d1d768041"}, {"bike_id": "19597330273d6dcab67a8ac2ce693810", "type": "electric_scooter", "is_disabled": 0, "lat": 38.94325933333333, "rental_uris": {"ios": "https://dc.lft.to/lastmile_qr_scan", "android": "https://dc.lft.to/lastmile_qr_scan"}, "is_reserved": 0, "fusion_lon": 0.0, "fusion_lat": 0.0, "lon": -77.0147845, "name": "19597330273d6dcab67a8ac2ce693810"}, {"bike_id": "6b4fde5f95d37fce065a7b573ab506cf", "type": "electric_scooter", "is_disabled": 0, "lat": 38.92153316666667, "rental_uris": {"ios": "https://dc.lft.to/lastmile_qr_scan", "android": "https://dc.lft.to/lastmile_qr_scan"}, "is_reserved": 0, "fusion_lon": 0.0, "fusion_lat": 0.0, "lon": -77.033186, "name": "6b4fde5f95d37fce065a7b573ab506cf"}, {"bike_id": "1b244a688e6fd4ef81055d3b0083529d", "type": "electric_scooter", "is_disabled": 0, "lat": 38.931477666666666, "rental_uris": {"ios": "https://dc.lft.to/lastmile_qr_scan", "android": "https://dc.lft.to/lastmile_qr_scan"}, "is_reserved": 0, "fusion_lon": 0.0, "fusion_lat": 0.0, "lon": -77.033467, "name": "1b244a688e6fd4ef81055d3b0083529d"}, {"bike_id": "ee87866693a1d0167a1521813b9cae58", "type": "electric_scooter", "is_disabled": 0, "lat": 38.9097325, "rental_uris": {"ios": "https://dc.lft.to/lastmile_qr_scan", "android": "https://dc.lft.to/lastmile_qr_scan"}, "is_reserved": 0, "fusion_lon": 0.0, "fusion_lat": 0.0, "lon": -77.0322555, "name": "ee87866693a1d0167a1521813b9cae58"}, {"bike_id": "2fbb0406ef8646056c99b27cdf05232e", "type": "electric_scooter", "is_disabled": 0, "lat": 38.91133466666667, "rental_uris": {"ios": "https://dc.lft.to/lastmile_qr_scan", "android": "https://dc.lft.to/lastmile_qr_scan"}, "is_reserved": 0, "fusion_lon": 0.0, "fusion_lat": 0.0, "lon": -77.0654105, "name": "2fbb0406ef8646056c99b27cdf05232e"}, {"bike_id": "f3d382d5cc6d2e48545016c178dcebf3", "type": "electric_scooter", "is_disabled": 0, "lat": 38.903894333333334, "rental_uris": {"ios": "https://dc.lft.to/lastmile_qr_scan", "android": "https://dc.lft.to/lastmile_qr_scan"}, "is_reserved": 0, "fusion_lon": 0.0, "fusion_lat": 0.0, "lon": -77.0687315, "name": "f3d382d5cc6d2e48545016c178dcebf3"}, {"bike_id": "76bf5d223252a6c7a37fccfe2566279c", "type": "electric_scooter", "is_disabled": 0, "lat": 38.898158, "rental_uris": {"ios": "https://dc.lft.to/lastmile_qr_scan", "android": "https://dc.lft.to/lastmile_qr_scan"}, "is_reserved": 0, "fusion_lon": 0.0, "fusion_lat": 0.0, "lon": -77.023754, "name": "76bf5d223252a6c7a37fccfe2566279c"}, {"bike_id": "baed811861a5c80990e039076b83be10", "type": "electric_scooter", "is_disabled": 0, "lat": 38.937156, "rental_uris": {"ios": "https://dc.lft.to/lastmile_qr_scan", "android": "https://dc.lft.to/lastmile_qr_scan"}, "is_reserved": 0, "fusion_lon": 0.0, "fusion_lat": 0.0, "lon": -76.99052633333334, "name": "baed811861a5c80990e039076b83be10"}, {"bike_id": "f02e7363e3bb964d7c728d8a028ddb84", "type": "electric_scooter", "is_disabled": 0, "lat": 38.91274666666666, "rental_uris": {"ios": "https://dc.lft.to/lastmile_qr_scan", "android": "https://dc.lft.to/lastmile_qr_scan"}, "is_reserved": 0, "fusion_lon": 0.0, "fusion_lat": 0.0, "lon": -77.05160116666667, "name": "f02e7363e3bb964d7c728d8a028ddb84"}, {"bike_id": "3f40fcb2e5fce24821320b3e1a02558a", "type": "electric_scooter", "is_disabled": 0, "lat": 38.91694866666667, "rental_uris": {"ios": "https://dc.lft.to/lastmile_qr_scan", "android": "https://dc.lft.to/lastmile_qr_scan"}, "is_reserved": 0, "fusion_lon": 0.0, "fusion_lat": 0.0, "lon": -77.032116, "name": "3f40fcb2e5fce24821320b3e1a02558a"}, {"bike_id": "c4b367f4cb2e1479083ba4e7cd25e478", "type": "electric_scooter", "is_disabled": 0, "lat": 38.942919333333336, "rental_uris": {"ios": "https://dc.lft.to/lastmile_qr_scan", "android": "https://dc.lft.to/lastmile_qr_scan"}, "is_reserved": 0, "fusion_lon": 0.0, "fusion_lat": 0.0, "lon": -77.02173816666667, "name": "c4b367f4cb2e1479083ba4e7cd25e478"}, {"bike_id": "c9459314489cb2ab749ab74fc2cf1dc1", "type": "electric_scooter", "is_disabled": 0, "lat": 38.918464666666665, "rental_uris": {"ios": "https://dc.lft.to/lastmile_qr_scan", "android": "https://dc.lft.to/lastmile_qr_scan"}, "is_reserved": 0, "fusion_lon": 0.0, "fusion_lat": 0.0, "lon": -76.9656365, "name": "c9459314489cb2ab749ab74fc2cf1dc1"}, {"bike_id": "f52541a90c3dd7bf2d8465c61d72521f", "type": "electric_scooter", "is_disabled": 0, "lat": 38.914118, "rental_uris": {"ios": "https://dc.lft.to/lastmile_qr_scan", "android": "https://dc.lft.to/lastmile_qr_scan"}, "is_reserved": 0, "fusion_lon": 0.0, "fusion_lat": 0.0, "lon": -77.02252183333333, "name": "f52541a90c3dd7bf2d8465c61d72521f"}, {"bike_id": "820c71c330ba688f27074523dfd2c10b", "type": "electric_scooter", "is_disabled": 0, "lat": 38.922265, "rental_uris": {"ios": "https://dc.lft.to/lastmile_qr_scan", "android": "https://dc.lft.to/lastmile_qr_scan"}, "is_reserved": 0, "fusion_lon": 0.0, "fusion_lat": 0.0, "lon": -77.0426445, "name": "820c71c330ba688f27074523dfd2c10b"}, {"bike_id": "64c3e61e6937fcac1981603464722ecd", "type": "electric_scooter", "is_disabled": 0, "lat": 38.919019, "rental_uris": {"ios": "https://dc.lft.to/lastmile_qr_scan", "android": "https://dc.lft.to/lastmile_qr_scan"}, "is_reserved": 0, "fusion_lon": 0.0, "fusion_lat": 0.0, "lon": -77.03209466666667, "name": "64c3e61e6937fcac1981603464722ecd"}, {"bike_id": "23f6cbda1e5406b41f65dbc9241be9d4", "type": "electric_scooter", "is_disabled": 0, "lat": 38.89288633333334, "rental_uris": {"ios": "https://dc.lft.to/lastmile_qr_scan", "android": "https://dc.lft.to/lastmile_qr_scan"}, "is_reserved": 0, "fusion_lon": 0.0, "fusion_lat": 0.0, "lon": -77.044864, "name": "23f6cbda1e5406b41f65dbc9241be9d4"}, {"bike_id": "b6475d6309664c708b79feb226724fc3", "type": "electric_scooter", "is_disabled": 0, "lat": 38.933381833333335, "rental_uris": {"ios": "https://dc.lft.to/lastmile_qr_scan", "android": "https://dc.lft.to/lastmile_qr_scan"}, "is_reserved": 0, "fusion_lon": 0.0, "fusion_lat": 0.0, "lon": -77.03987883333333, "name": "b6475d6309664c708b79feb226724fc3"}, {"bike_id": "61425ab0a6440a95a5f54da9caa70fc4", "type": "electric_scooter", "is_disabled": 0, "lat": 38.914166333333334, "rental_uris": {"ios": "https://dc.lft.to/lastmile_qr_scan", "android": "https://dc.lft.to/lastmile_qr_scan"}, "is_reserved": 0, "fusion_lon": 0.0, "fusion_lat": 0.0, "lon": -77.03173333333334, "name": "61425ab0a6440a95a5f54da9caa70fc4"}, {"bike_id": "96f0cdee334b893c465084536c93fdfb", "type": "electric_scooter", "is_disabled": 0, "lat": 38.92055116666667, "rental_uris": {"ios": "https://dc.lft.to/lastmile_qr_scan", "android": "https://dc.lft.to/lastmile_qr_scan"}, "is_reserved": 0, "fusion_lon": 0.0, "fusion_lat": 0.0, "lon": -77.033925, "name": "96f0cdee334b893c465084536c93fdfb"}, {"bike_id": "64876a663fd98aa39d2d126ed3e89b7f", "type": "electric_scooter", "is_disabled": 0, "lat": 38.90033016666667, "rental_uris": {"ios": "https://dc.lft.to/lastmile_qr_scan", "android": "https://dc.lft.to/lastmile_qr_scan"}, "is_reserved": 0, "fusion_lon": 0.0, "fusion_lat": 0.0, "lon": -77.00184816666666, "name": "64876a663fd98aa39d2d126ed3e89b7f"}, {"bike_id": "8e3989fbe3d4d3045978009ffdccdda7", "type": "electric_scooter", "is_disabled": 0, "lat": 38.93372033333333, "rental_uris": {"ios": "https://dc.lft.to/lastmile_qr_scan", "android": "https://dc.lft.to/lastmile_qr_scan"}, "is_reserved": 0, "fusion_lon": 0.0, "fusion_lat": 0.0, "lon": -77.057344, "name": "8e3989fbe3d4d3045978009ffdccdda7"}, {"bike_id": "441bda0511e03676b812693b8eb9addd", "type": "electric_scooter", "is_disabled": 0, "lat": 38.933529666666665, "rental_uris": {"ios": "https://dc.lft.to/lastmile_qr_scan", "android": "https://dc.lft.to/lastmile_qr_scan"}, "is_reserved": 0, "fusion_lon": 0.0, "fusion_lat": 0.0, "lon": -76.99259983333333, "name": "441bda0511e03676b812693b8eb9addd"}, {"bike_id": "52c3c8f1e1545c564d5bd6a8503d486a", "type": "electric_scooter", "is_disabled": 0, "lat": 38.9007285, "rental_uris": {"ios": "https://dc.lft.to/lastmile_qr_scan", "android": "https://dc.lft.to/lastmile_qr_scan"}, "is_reserved": 0, "fusion_lon": 0.0, "fusion_lat": 0.0, "lon": -77.018205, "name": "52c3c8f1e1545c564d5bd6a8503d486a"}, {"bike_id": "43e5639698739067312904725aa4aa84", "type": "electric_scooter", "is_disabled": 0, "lat": 38.8995145, "rental_uris": {"ios": "https://dc.lft.to/lastmile_qr_scan", "android": "https://dc.lft.to/lastmile_qr_scan"}, "is_reserved": 0, "fusion_lon": 0.0, "fusion_lat": 0.0, "lon": -77.051335, "name": "43e5639698739067312904725aa4aa84"}, {"bike_id": "c422bb06eb15a63386b2337c37dd8599", "type": "electric_scooter", "is_disabled": 0, "lat": 38.86684066666667, "rental_uris": {"ios": "https://dc.lft.to/lastmile_qr_scan", "android": "https://dc.lft.to/lastmile_qr_scan"}, "is_reserved": 0, "fusion_lon": 0.0, "fusion_lat": 0.0, "lon": -76.98585316666667, "name": "c422bb06eb15a63386b2337c37dd8599"}, {"bike_id": "d3e6218cf074f903078cb24e289cd351", "type": "electric_scooter", "is_disabled": 0, "lat": 38.917808, "rental_uris": {"ios": "https://dc.lft.to/lastmile_qr_scan", "android": "https://dc.lft.to/lastmile_qr_scan"}, "is_reserved": 0, "fusion_lon": 0.0, "fusion_lat": 0.0, "lon": -77.045479, "name": "d3e6218cf074f903078cb24e289cd351"}, {"bike_id": "15139da230b4a0270ca4987047e7652e", "type": "electric_scooter", "is_disabled": 0, "lat": 38.921908, "rental_uris": {"ios": "https://dc.lft.to/lastmile_qr_scan", "android": "https://dc.lft.to/lastmile_qr_scan"}, "is_reserved": 0, "fusion_lon": 0.0, "fusion_lat": 0.0, "lon": -77.03777533333333, "name": "15139da230b4a0270ca4987047e7652e"}, {"bike_id": "44ff1fcdcc89f3d720608a4a6416f118", "type": "electric_scooter", "is_disabled": 0, "lat": 38.909716833333334, "rental_uris": {"ios": "https://dc.lft.to/lastmile_qr_scan", "android": "https://dc.lft.to/lastmile_qr_scan"}, "is_reserved": 0, "fusion_lon": 0.0, "fusion_lat": 0.0, "lon": -77.036312, "name": "44ff1fcdcc89f3d720608a4a6416f118"}, {"bike_id": "dfc5d1bebee592e5e6b0f0a73ac677c3", "type": "electric_scooter", "is_disabled": 0, "lat": 38.90539866666667, "rental_uris": {"ios": "https://dc.lft.to/lastmile_qr_scan", "android": "https://dc.lft.to/lastmile_qr_scan"}, "is_reserved": 0, "fusion_lon": 0.0, "fusion_lat": 0.0, "lon": -76.9880885, "name": "dfc5d1bebee592e5e6b0f0a73ac677c3"}, {"bike_id": "3cef2a3b5b1aea31215436690599e10f", "type": "electric_scooter", "is_disabled": 0, "lat": 38.911323833333334, "rental_uris": {"ios": "https://dc.lft.to/lastmile_qr_scan", "android": "https://dc.lft.to/lastmile_qr_scan"}, "is_reserved": 0, "fusion_lon": 0.0, "fusion_lat": 0.0, "lon": -77.044108, "name": "3cef2a3b5b1aea31215436690599e10f"}, {"bike_id": "3d8bbcda1b68c8c733caf6bfb48c4680", "type": "electric_scooter", "is_disabled": 0, "lat": 38.9086785, "rental_uris": {"ios": "https://dc.lft.to/lastmile_qr_scan", "android": "https://dc.lft.to/lastmile_qr_scan"}, "is_reserved": 0, "fusion_lon": 0.0, "fusion_lat": 0.0, "lon": -77.023633, "name": "3d8bbcda1b68c8c733caf6bfb48c4680"}, {"bike_id": "23c8b03231edad08b63c4abc7302470d", "type": "electric_scooter", "is_disabled": 0, "lat": 38.8668625, "rental_uris": {"ios": "https://dc.lft.to/lastmile_qr_scan", "android": "https://dc.lft.to/lastmile_qr_scan"}, "is_reserved": 0, "fusion_lon": 0.0, "fusion_lat": 0.0, "lon": -76.9857505, "name": "23c8b03231edad08b63c4abc7302470d"}, {"bike_id": "075dcd0a9545203f203272596ce1031f", "type": "electric_scooter", "is_disabled": 0, "lat": 38.90230583333334, "rental_uris": {"ios": "https://dc.lft.to/lastmile_qr_scan", "android": "https://dc.lft.to/lastmile_qr_scan"}, "is_reserved": 0, "fusion_lon": 0.0, "fusion_lat": 0.0, "lon": -77.04046683333333, "name": "075dcd0a9545203f203272596ce1031f"}, {"bike_id": "f576f000e9e194afb9482456e7c8f99a", "type": "electric_scooter", "is_disabled": 0, "lat": 38.9192775, "rental_uris": {"ios": "https://dc.lft.to/lastmile_qr_scan", "android": "https://dc.lft.to/lastmile_qr_scan"}, "is_reserved": 0, "fusion_lon": 0.0, "fusion_lat": 0.0, "lon": -77.03182016666666, "name": "f576f000e9e194afb9482456e7c8f99a"}, {"bike_id": "8d0ba69bc0fd3fd89d08054cf524c876", "type": "electric_scooter", "is_disabled": 0, "lat": 38.92976733333333, "rental_uris": {"ios": "https://dc.lft.to/lastmile_qr_scan", "android": "https://dc.lft.to/lastmile_qr_scan"}, "is_reserved": 0, "fusion_lon": 0.0, "fusion_lat": 0.0, "lon": -77.03657633333333, "name": "8d0ba69bc0fd3fd89d08054cf524c876"}, {"bike_id": "b05ad20e54da1d3e85c145f4e2d273d5", "type": "electric_scooter", "is_disabled": 0, "lat": 38.93355283333333, "rental_uris": {"ios": "https://dc.lft.to/lastmile_qr_scan", "android": "https://dc.lft.to/lastmile_qr_scan"}, "is_reserved": 0, "fusion_lon": 0.0, "fusion_lat": 0.0, "lon": -77.07361683333333, "name": "b05ad20e54da1d3e85c145f4e2d273d5"}, {"bike_id": "275ba7579b116685787271d7d89eefb2", "type": "electric_scooter", "is_disabled": 0, "lat": 38.92210016666667, "rental_uris": {"ios": "https://dc.lft.to/lastmile_qr_scan", "android": "https://dc.lft.to/lastmile_qr_scan"}, "is_reserved": 0, "fusion_lon": 0.0, "fusion_lat": 0.0, "lon": -77.03655066666667, "name": "275ba7579b116685787271d7d89eefb2"}, {"bike_id": "80d895c36aeab105f7a944a67a462898", "type": "electric_scooter", "is_disabled": 0, "lat": 38.907909833333335, "rental_uris": {"ios": "https://dc.lft.to/lastmile_qr_scan", "android": "https://dc.lft.to/lastmile_qr_scan"}, "is_reserved": 0, "fusion_lon": 0.0, "fusion_lat": 0.0, "lon": -77.00196, "name": "80d895c36aeab105f7a944a67a462898"}, {"bike_id": "92df3958f2b11563c9b7120cddb9fc3e", "type": "electric_scooter", "is_disabled": 0, "lat": 38.9030745, "rental_uris": {"ios": "https://dc.lft.to/lastmile_qr_scan", "android": "https://dc.lft.to/lastmile_qr_scan"}, "is_reserved": 0, "fusion_lon": 0.0, "fusion_lat": 0.0, "lon": -77.04955366666667, "name": "92df3958f2b11563c9b7120cddb9fc3e"}, {"bike_id": "d6253f13ab10d98fb44dd4b2547cf8e8", "type": "electric_bike", "is_disabled": 0, "lat": 38.993255833333336, "rental_uris": {"ios": "https://dc.lft.to/lastmile_qr_scan", "android": "https://dc.lft.to/lastmile_qr_scan"}, "is_reserved": 0, "fusion_lon": 0.0, "fusion_lat": 0.0, "lon": -76.94615283333333, "name": "d6253f13ab10d98fb44dd4b2547cf8e8"}, {"bike_id": "0cfae1b9292a10924e632c344493f4cc", "type": "electric_bike", "is_disabled": 0, "lat": 38.85530416666667, "rental_uris": {"ios": "https://dc.lft.to/lastmile_qr_scan", "android": "https://dc.lft.to/lastmile_qr_scan"}, "is_reserved": 0, "fusion_lon": 0.0, "fusion_lat": 0.0, "lon": -77.12032533333333, "name": "0cfae1b9292a10924e632c344493f4cc"}, {"bike_id": "285c4425f0f37cb047d94b94857a0ee1", "type": "electric_scooter", "is_disabled": 0, "lat": 38.91603833333333, "rental_uris": {"ios": "https://dc.lft.to/lastmile_qr_scan", "android": "https://dc.lft.to/lastmile_qr_scan"}, "is_reserved": 0, "fusion_lon": 0.0, "fusion_lat": 0.0, "lon": -77.03215833333333, "name": "285c4425f0f37cb047d94b94857a0ee1"}, {"bike_id": "84243483e7e13d807ff847aae25932fd", "type": "electric_scooter", "is_disabled": 0, "lat": 38.8973335, "rental_uris": {"ios": "https://dc.lft.to/lastmile_qr_scan", "android": "https://dc.lft.to/lastmile_qr_scan"}, "is_reserved": 0, "fusion_lon": 0.0, "fusion_lat": 0.0, "lon": -77.0461185, "name": "84243483e7e13d807ff847aae25932fd"}, {"bike_id": "55983f9b5e10ca04b6d224654fb01ad5", "type": "electric_scooter", "is_disabled": 0, "lat": 38.934667166666664, "rental_uris": {"ios": "https://dc.lft.to/lastmile_qr_scan", "android": "https://dc.lft.to/lastmile_qr_scan"}, "is_reserved": 0, "fusion_lon": 0.0, "fusion_lat": 0.0, "lon": -77.0276785, "name": "55983f9b5e10ca04b6d224654fb01ad5"}, {"bike_id": "88ce2f73862c8293f34f583d6f30fc61", "type": "electric_bike", "is_disabled": 0, "lat": 38.937707833333334, "rental_uris": {"ios": "https://dc.lft.to/lastmile_qr_scan", "android": "https://dc.lft.to/lastmile_qr_scan"}, "is_reserved": 0, "fusion_lon": 0.0, "fusion_lat": 0.0, "lon": -77.01877133333333, "name": "88ce2f73862c8293f34f583d6f30fc61"}, {"bike_id": "bdb17553d90f53caa90f5468cfbaadc7", "type": "electric_scooter", "is_disabled": 0, "lat": 38.831011, "rental_uris": {"ios": "https://dc.lft.to/lastmile_qr_scan", "android": "https://dc.lft.to/lastmile_qr_scan"}, "is_reserved": 0, "fusion_lon": 0.0, "fusion_lat": 0.0, "lon": -77.05164916666666, "name": "bdb17553d90f53caa90f5468cfbaadc7"}, {"bike_id": "a129f6d6d7caaa387de23a84ea278525", "type": "electric_scooter", "is_disabled": 0, "lat": 38.9441425, "rental_uris": {"ios": "https://dc.lft.to/lastmile_qr_scan", "android": "https://dc.lft.to/lastmile_qr_scan"}, "is_reserved": 0, "fusion_lon": 0.0, "fusion_lat": 0.0, "lon": -77.017798, "name": "a129f6d6d7caaa387de23a84ea278525"}, {"bike_id": "e91acb4d829e0941eecbabb59a3ab687", "type": "electric_scooter", "is_disabled": 0, "lat": 38.86682, "rental_uris": {"ios": "https://dc.lft.to/lastmile_qr_scan", "android": "https://dc.lft.to/lastmile_qr_scan"}, "is_reserved": 0, "fusion_lon": 0.0, "fusion_lat": 0.0, "lon": -76.98575016666666, "name": "e91acb4d829e0941eecbabb59a3ab687"}, {"bike_id": "040520b0fcc9eecb6b2ee508f836b7d3", "type": "electric_scooter", "is_disabled": 0, "lat": 38.86649366666666, "rental_uris": {"ios": "https://dc.lft.to/lastmile_qr_scan", "android": "https://dc.lft.to/lastmile_qr_scan"}, "is_reserved": 0, "fusion_lon": 0.0, "fusion_lat": 0.0, "lon": -76.98818433333334, "name": "040520b0fcc9eecb6b2ee508f836b7d3"}, {"bike_id": "6a6fdea7f550c28adfced05bf19e0405", "type": "electric_bike", "is_disabled": 0, "lat": 38.98373516666667, "rental_uris": {"ios": "https://dc.lft.to/lastmile_qr_scan", "android": "https://dc.lft.to/lastmile_qr_scan"}, "is_reserved": 0, "fusion_lon": 0.0, "fusion_lat": 0.0, "lon": -76.9721805, "name": "6a6fdea7f550c28adfced05bf19e0405"}, {"bike_id": "938314c4c637fcd4b4f4ac636839a4fe", "type": "electric_scooter", "is_disabled": 0, "lat": 38.927475666666666, "rental_uris": {"ios": "https://dc.lft.to/lastmile_qr_scan", "android": "https://dc.lft.to/lastmile_qr_scan"}, "is_reserved": 0, "fusion_lon": 0.0, "fusion_lat": 0.0, "lon": -77.0253495, "name": "938314c4c637fcd4b4f4ac636839a4fe"}, {"bike_id": "9ec8e778f935b0201c4dddf45c483780", "type": "electric_scooter", "is_disabled": 0, "lat": 38.915451166666664, "rental_uris": {"ios": "https://dc.lft.to/lastmile_qr_scan", "android": "https://dc.lft.to/lastmile_qr_scan"}, "is_reserved": 0, "fusion_lon": 0.0, "fusion_lat": 0.0, "lon": -77.02202433333333, "name": "9ec8e778f935b0201c4dddf45c483780"}, {"bike_id": "a05b074808157c751950fec2df143ca8", "type": "electric_scooter", "is_disabled": 0, "lat": 38.907908666666664, "rental_uris": {"ios": "https://dc.lft.to/lastmile_qr_scan", "android": "https://dc.lft.to/lastmile_qr_scan"}, "is_reserved": 0, "fusion_lon": 0.0, "fusion_lat": 0.0, "lon": -77.038631, "name": "a05b074808157c751950fec2df143ca8"}, {"bike_id": "0866abc972f8ab53e631a6827751da6b", "type": "electric_scooter", "is_disabled": 0, "lat": 38.8666235, "rental_uris": {"ios": "https://dc.lft.to/lastmile_qr_scan", "android": "https://dc.lft.to/lastmile_qr_scan"}, "is_reserved": 0, "fusion_lon": 0.0, "fusion_lat": 0.0, "lon": -76.98886833333333, "name": "0866abc972f8ab53e631a6827751da6b"}, {"bike_id": "e5b6ee73a2e7a29290e1d4dfd590d2a3", "type": "electric_scooter", "is_disabled": 0, "lat": 38.91864416666667, "rental_uris": {"ios": "https://dc.lft.to/lastmile_qr_scan", "android": "https://dc.lft.to/lastmile_qr_scan"}, "is_reserved": 0, "fusion_lon": 0.0, "fusion_lat": 0.0, "lon": -77.04765416666666, "name": "e5b6ee73a2e7a29290e1d4dfd590d2a3"}, {"bike_id": "1d608e351509f15adc7f0633f67e8056", "type": "electric_scooter", "is_disabled": 0, "lat": 38.91561816666667, "rental_uris": {"ios": "https://dc.lft.to/lastmile_qr_scan", "android": "https://dc.lft.to/lastmile_qr_scan"}, "is_reserved": 0, "fusion_lon": 0.0, "fusion_lat": 0.0, "lon": -77.0312335, "name": "1d608e351509f15adc7f0633f67e8056"}, {"bike_id": "f2139c7d9bc073c0d72df74cdc524e74", "type": "electric_scooter", "is_disabled": 0, "lat": 38.8806045, "rental_uris": {"ios": "https://dc.lft.to/lastmile_qr_scan", "android": "https://dc.lft.to/lastmile_qr_scan"}, "is_reserved": 0, "fusion_lon": 0.0, "fusion_lat": 0.0, "lon": -76.93215216666667, "name": "f2139c7d9bc073c0d72df74cdc524e74"}, {"bike_id": "9866292772eb331873304641c7a92dcd", "type": "electric_bike", "is_disabled": 0, "lat": 38.879808833333335, "rental_uris": {"ios": "https://dc.lft.to/lastmile_qr_scan", "android": "https://dc.lft.to/lastmile_qr_scan"}, "is_reserved": 0, "fusion_lon": 0.0, "fusion_lat": 0.0, "lon": -76.91596916666667, "name": "9866292772eb331873304641c7a92dcd"}, {"bike_id": "add5a05b323abb349b04e08a92317911", "type": "electric_scooter", "is_disabled": 0, "lat": 38.907545166666665, "rental_uris": {"ios": "https://dc.lft.to/lastmile_qr_scan", "android": "https://dc.lft.to/lastmile_qr_scan"}, "is_reserved": 0, "fusion_lon": 0.0, "fusion_lat": 0.0, "lon": -76.99956166666666, "name": "add5a05b323abb349b04e08a92317911"}, {"bike_id": "94b0b9bcb343d7225e3db282243e7e94", "type": "electric_scooter", "is_disabled": 0, "lat": 38.9279965, "rental_uris": {"ios": "https://dc.lft.to/lastmile_qr_scan", "android": "https://dc.lft.to/lastmile_qr_scan"}, "is_reserved": 0, "fusion_lon": 0.0, "fusion_lat": 0.0, "lon": -77.02363883333334, "name": "94b0b9bcb343d7225e3db282243e7e94"}, {"bike_id": "dbf5f2eda1e3c2fa6e97a98fd0886f2b", "type": "electric_scooter", "is_disabled": 0, "lat": 38.88853, "rental_uris": {"ios": "https://dc.lft.to/lastmile_qr_scan", "android": "https://dc.lft.to/lastmile_qr_scan"}, "is_reserved": 0, "fusion_lon": 0.0, "fusion_lat": 0.0, "lon": -77.00051483333333, "name": "dbf5f2eda1e3c2fa6e97a98fd0886f2b"}, {"bike_id": "6271407156b2626d78095109f918ce9d", "type": "electric_scooter", "is_disabled": 0, "lat": 38.91662433333333, "rental_uris": {"ios": "https://dc.lft.to/lastmile_qr_scan", "android": "https://dc.lft.to/lastmile_qr_scan"}, "is_reserved": 0, "fusion_lon": 0.0, "fusion_lat": 0.0, "lon": -77.028874, "name": "6271407156b2626d78095109f918ce9d"}, {"bike_id": "06fbc2552f1606372b3beb0b7452ff8a", "type": "electric_scooter", "is_disabled": 0, "lat": 38.8874545, "rental_uris": {"ios": "https://dc.lft.to/lastmile_qr_scan", "android": "https://dc.lft.to/lastmile_qr_scan"}, "is_reserved": 0, "fusion_lon": 0.0, "fusion_lat": 0.0, "lon": -76.99624716666666, "name": "06fbc2552f1606372b3beb0b7452ff8a"}, {"bike_id": "2ef5409fb1dfb528920290bcbcbf26dc", "type": "electric_bike", "is_disabled": 0, "lat": 38.929659666666666, "rental_uris": {"ios": "https://dc.lft.to/lastmile_qr_scan", "android": "https://dc.lft.to/lastmile_qr_scan"}, "is_reserved": 0, "fusion_lon": 0.0, "fusion_lat": 0.0, "lon": -77.18562966666667, "name": "2ef5409fb1dfb528920290bcbcbf26dc"}, {"bike_id": "d90c167f35b3b7e1e0992d55c106e3f7", "type": "electric_scooter", "is_disabled": 0, "lat": 38.91106466666667, "rental_uris": {"ios": "https://dc.lft.to/lastmile_qr_scan", "android": "https://dc.lft.to/lastmile_qr_scan"}, "is_reserved": 0, "fusion_lon": 0.0, "fusion_lat": 0.0, "lon": -77.0115465, "name": "d90c167f35b3b7e1e0992d55c106e3f7"}, {"bike_id": "3bc490a670916d57234fe1eb1034b931", "type": "electric_scooter", "is_disabled": 0, "lat": 38.932467, "rental_uris": {"ios": "https://dc.lft.to/lastmile_qr_scan", "android": "https://dc.lft.to/lastmile_qr_scan"}, "is_reserved": 0, "fusion_lon": 0.0, "fusion_lat": 0.0, "lon": -77.02002816666666, "name": "3bc490a670916d57234fe1eb1034b931"}, {"bike_id": "a5b4bc75d2d323c40d9cf87ef7a31fa8", "type": "electric_scooter", "is_disabled": 0, "lat": 38.9163545, "rental_uris": {"ios": "https://dc.lft.to/lastmile_qr_scan", "android": "https://dc.lft.to/lastmile_qr_scan"}, "is_reserved": 0, "fusion_lon": 0.0, "fusion_lat": 0.0, "lon": -77.01427983333333, "name": "a5b4bc75d2d323c40d9cf87ef7a31fa8"}, {"bike_id": "8460bb37ca3a177aba6003c18d416824", "type": "electric_bike", "is_disabled": 0, "lat": 38.86147533333333, "rental_uris": {"ios": "https://dc.lft.to/lastmile_qr_scan", "android": "https://dc.lft.to/lastmile_qr_scan"}, "is_reserved": 0, "fusion_lon": 0.0, "fusion_lat": 0.0, "lon": -77.091386, "name": "8460bb37ca3a177aba6003c18d416824"}, {"bike_id": "2b608dc84b00b5c1fab2a3543345ffd8", "type": "electric_bike", "is_disabled": 0, "lat": 38.90535766666667, "rental_uris": {"ios": "https://dc.lft.to/lastmile_qr_scan", "android": "https://dc.lft.to/lastmile_qr_scan"}, "is_reserved": 0, "fusion_lon": 0.0, "fusion_lat": 0.0, "lon": -77.05909633333333, "name": "2b608dc84b00b5c1fab2a3543345ffd8"}, {"bike_id": "f97045373eac6abe429f37538598a7da", "type": "electric_scooter", "is_disabled": 0, "lat": 38.8984255, "rental_uris": {"ios": "https://dc.lft.to/lastmile_qr_scan", "android": "https://dc.lft.to/lastmile_qr_scan"}, "is_reserved": 0, "fusion_lon": 0.0, "fusion_lat": 0.0, "lon": -76.94630916666667, "name": "f97045373eac6abe429f37538598a7da"}, {"bike_id": "d1b80b65285c209b1aec31ff0e28a054", "type": "electric_scooter", "is_disabled": 0, "lat": 38.93633483333333, "rental_uris": {"ios": "https://dc.lft.to/lastmile_qr_scan", "android": "https://dc.lft.to/lastmile_qr_scan"}, "is_reserved": 0, "fusion_lon": 0.0, "fusion_lat": 0.0, "lon": -77.05883816666666, "name": "d1b80b65285c209b1aec31ff0e28a054"}, {"bike_id": "eb0a4cc2347b7568248625bdc03e9417", "type": "electric_scooter", "is_disabled": 0, "lat": 38.927919333333335, "rental_uris": {"ios": "https://dc.lft.to/lastmile_qr_scan", "android": "https://dc.lft.to/lastmile_qr_scan"}, "is_reserved": 0, "fusion_lon": 0.0, "fusion_lat": 0.0, "lon": -77.021332, "name": "eb0a4cc2347b7568248625bdc03e9417"}, {"bike_id": "f5db8556433158b84acfe16d5b6f14ee", "type": "electric_scooter", "is_disabled": 0, "lat": 38.902821833333334, "rental_uris": {"ios": "https://dc.lft.to/lastmile_qr_scan", "android": "https://dc.lft.to/lastmile_qr_scan"}, "is_reserved": 0, "fusion_lon": 0.0, "fusion_lat": 0.0, "lon": -77.0580705, "name": "f5db8556433158b84acfe16d5b6f14ee"}, {"bike_id": "2480cf711d588ee270ac38c413e4ec20", "type": "electric_scooter", "is_disabled": 0, "lat": 38.9162245, "rental_uris": {"ios": "https://dc.lft.to/lastmile_qr_scan", "android": "https://dc.lft.to/lastmile_qr_scan"}, "is_reserved": 0, "fusion_lon": 0.0, "fusion_lat": 0.0, "lon": -77.02303766666667, "name": "2480cf711d588ee270ac38c413e4ec20"}, {"bike_id": "050920242b46f7c2493783ef02e65448", "type": "electric_scooter", "is_disabled": 0, "lat": 38.90845233333334, "rental_uris": {"ios": "https://dc.lft.to/lastmile_qr_scan", "android": "https://dc.lft.to/lastmile_qr_scan"}, "is_reserved": 0, "fusion_lon": 0.0, "fusion_lat": 0.0, "lon": -77.04360066666666, "name": "050920242b46f7c2493783ef02e65448"}, {"bike_id": "7535f570c1a6e65125780b25480f42f0", "type": "electric_scooter", "is_disabled": 0, "lat": 38.900159, "rental_uris": {"ios": "https://dc.lft.to/lastmile_qr_scan", "android": "https://dc.lft.to/lastmile_qr_scan"}, "is_reserved": 0, "fusion_lon": 0.0, "fusion_lat": 0.0, "lon": -77.00383, "name": "7535f570c1a6e65125780b25480f42f0"}, {"bike_id": "7e08507fed1c687498bd923cd55dc0de", "type": "electric_scooter", "is_disabled": 0, "lat": 38.94854633333333, "rental_uris": {"ios": "https://dc.lft.to/lastmile_qr_scan", "android": "https://dc.lft.to/lastmile_qr_scan"}, "is_reserved": 0, "fusion_lon": 0.0, "fusion_lat": 0.0, "lon": -77.08021583333333, "name": "7e08507fed1c687498bd923cd55dc0de"}, {"bike_id": "1a9dd73b88b9a719baa4b0befda4422d", "type": "electric_scooter", "is_disabled": 0, "lat": 38.93144816666667, "rental_uris": {"ios": "https://dc.lft.to/lastmile_qr_scan", "android": "https://dc.lft.to/lastmile_qr_scan"}, "is_reserved": 0, "fusion_lon": 0.0, "fusion_lat": 0.0, "lon": -77.03357916666667, "name": "1a9dd73b88b9a719baa4b0befda4422d"}, {"bike_id": "5bef0a5fb6de909bd73d818aaa844038", "type": "electric_bike", "is_disabled": 0, "lat": 38.88244483333333, "rental_uris": {"ios": "https://dc.lft.to/lastmile_qr_scan", "android": "https://dc.lft.to/lastmile_qr_scan"}, "is_reserved": 0, "fusion_lon": 0.0, "fusion_lat": 0.0, "lon": -76.962606, "name": "5bef0a5fb6de909bd73d818aaa844038"}, {"bike_id": "1b015e1080be0b5fa0ea80e7dd3174b5", "type": "electric_scooter", "is_disabled": 0, "lat": 38.922462833333334, "rental_uris": {"ios": "https://dc.lft.to/lastmile_qr_scan", "android": "https://dc.lft.to/lastmile_qr_scan"}, "is_reserved": 0, "fusion_lon": 0.0, "fusion_lat": 0.0, "lon": -77.0420705, "name": "1b015e1080be0b5fa0ea80e7dd3174b5"}, {"bike_id": "928f60b3c89bebe20aaf642d387ed721", "type": "electric_scooter", "is_disabled": 0, "lat": 38.93462183333333, "rental_uris": {"ios": "https://dc.lft.to/lastmile_qr_scan", "android": "https://dc.lft.to/lastmile_qr_scan"}, "is_reserved": 0, "fusion_lon": 0.0, "fusion_lat": 0.0, "lon": -77.02796916666667, "name": "928f60b3c89bebe20aaf642d387ed721"}, {"bike_id": "881e233146e94e752afc81c231ec5d8c", "type": "electric_scooter", "is_disabled": 0, "lat": 38.896060166666665, "rental_uris": {"ios": "https://dc.lft.to/lastmile_qr_scan", "android": "https://dc.lft.to/lastmile_qr_scan"}, "is_reserved": 0, "fusion_lon": 0.0, "fusion_lat": 0.0, "lon": -77.0107765, "name": "881e233146e94e752afc81c231ec5d8c"}, {"bike_id": "073f3f2e94ff802cf2e151c9b16c2424", "type": "electric_scooter", "is_disabled": 0, "lat": 38.908504, "rental_uris": {"ios": "https://dc.lft.to/lastmile_qr_scan", "android": "https://dc.lft.to/lastmile_qr_scan"}, "is_reserved": 0, "fusion_lon": 0.0, "fusion_lat": 0.0, "lon": -77.05489466666667, "name": "073f3f2e94ff802cf2e151c9b16c2424"}, {"bike_id": "08e15aab79834e6eee7f1bbcb115cea6", "type": "electric_scooter", "is_disabled": 0, "lat": 38.90465316666667, "rental_uris": {"ios": "https://dc.lft.to/lastmile_qr_scan", "android": "https://dc.lft.to/lastmile_qr_scan"}, "is_reserved": 0, "fusion_lon": 0.0, "fusion_lat": 0.0, "lon": -76.97606866666666, "name": "08e15aab79834e6eee7f1bbcb115cea6"}, {"bike_id": "a99250ec66575429bb0fcd037af0babd", "type": "electric_scooter", "is_disabled": 0, "lat": 38.9067935, "rental_uris": {"ios": "https://dc.lft.to/lastmile_qr_scan", "android": "https://dc.lft.to/lastmile_qr_scan"}, "is_reserved": 0, "fusion_lon": 0.0, "fusion_lat": 0.0, "lon": -76.98001416666666, "name": "a99250ec66575429bb0fcd037af0babd"}, {"bike_id": "129d00a783b02dcce177171003066101", "type": "electric_bike", "is_disabled": 0, "lat": 38.93226416666667, "rental_uris": {"ios": "https://dc.lft.to/lastmile_qr_scan", "android": "https://dc.lft.to/lastmile_qr_scan"}, "is_reserved": 0, "fusion_lon": 0.0, "fusion_lat": 0.0, "lon": -77.18122066666666, "name": "129d00a783b02dcce177171003066101"}, {"bike_id": "e31ff564ef9161651d07b773fa6042c3", "type": "electric_scooter", "is_disabled": 0, "lat": 38.918367, "rental_uris": {"ios": "https://dc.lft.to/lastmile_qr_scan", "android": "https://dc.lft.to/lastmile_qr_scan"}, "is_reserved": 0, "fusion_lon": 0.0, "fusion_lat": 0.0, "lon": -77.025961, "name": "e31ff564ef9161651d07b773fa6042c3"}, {"bike_id": "0e11bcd4db45c7a07e66b91c70cda867", "type": "electric_scooter", "is_disabled": 0, "lat": 38.92951133333333, "rental_uris": {"ios": "https://dc.lft.to/lastmile_qr_scan", "android": "https://dc.lft.to/lastmile_qr_scan"}, "is_reserved": 0, "fusion_lon": 0.0, "fusion_lat": 0.0, "lon": -77.04403316666667, "name": "0e11bcd4db45c7a07e66b91c70cda867"}, {"bike_id": "3bea902ae24a5f0e0ed2c8591a337c05", "type": "electric_scooter", "is_disabled": 0, "lat": 38.9012155, "rental_uris": {"ios": "https://dc.lft.to/lastmile_qr_scan", "android": "https://dc.lft.to/lastmile_qr_scan"}, "is_reserved": 0, "fusion_lon": 0.0, "fusion_lat": 0.0, "lon": -77.04999983333333, "name": "3bea902ae24a5f0e0ed2c8591a337c05"}, {"bike_id": "044c2a6e5992780289c6a3e1c4fd9017", "type": "electric_scooter", "is_disabled": 0, "lat": 38.9088775, "rental_uris": {"ios": "https://dc.lft.to/lastmile_qr_scan", "android": "https://dc.lft.to/lastmile_qr_scan"}, "is_reserved": 0, "fusion_lon": 0.0, "fusion_lat": 0.0, "lon": -77.04496466666667, "name": "044c2a6e5992780289c6a3e1c4fd9017"}, {"bike_id": "382452771b962fbc6533d446310d6a9e", "type": "electric_scooter", "is_disabled": 0, "lat": 38.905475333333335, "rental_uris": {"ios": "https://dc.lft.to/lastmile_qr_scan", "android": "https://dc.lft.to/lastmile_qr_scan"}, "is_reserved": 0, "fusion_lon": 0.0, "fusion_lat": 0.0, "lon": -77.04393083333333, "name": "382452771b962fbc6533d446310d6a9e"}, {"bike_id": "a78a6ba70ca228b7d15400ac0378c545", "type": "electric_scooter", "is_disabled": 0, "lat": 38.8847135, "rental_uris": {"ios": "https://dc.lft.to/lastmile_qr_scan", "android": "https://dc.lft.to/lastmile_qr_scan"}, "is_reserved": 0, "fusion_lon": 0.0, "fusion_lat": 0.0, "lon": -77.02582166666667, "name": "a78a6ba70ca228b7d15400ac0378c545"}, {"bike_id": "2c73915930537a72f3ee3e7f05500be8", "type": "electric_scooter", "is_disabled": 0, "lat": 38.91585966666667, "rental_uris": {"ios": "https://dc.lft.to/lastmile_qr_scan", "android": "https://dc.lft.to/lastmile_qr_scan"}, "is_reserved": 0, "fusion_lon": 0.0, "fusion_lat": 0.0, "lon": -77.01147233333333, "name": "2c73915930537a72f3ee3e7f05500be8"}, {"bike_id": "8a800595b6d476d8a7bc916d2304291a", "type": "electric_scooter", "is_disabled": 0, "lat": 38.93268183333333, "rental_uris": {"ios": "https://dc.lft.to/lastmile_qr_scan", "android": "https://dc.lft.to/lastmile_qr_scan"}, "is_reserved": 0, "fusion_lon": 0.0, "fusion_lat": 0.0, "lon": -77.03894616666666, "name": "8a800595b6d476d8a7bc916d2304291a"}, {"bike_id": "8fb94b22ffd5c3f648ddf88de5ab96f6", "type": "electric_scooter", "is_disabled": 0, "lat": 38.89290466666667, "rental_uris": {"ios": "https://dc.lft.to/lastmile_qr_scan", "android": "https://dc.lft.to/lastmile_qr_scan"}, "is_reserved": 0, "fusion_lon": 0.0, "fusion_lat": 0.0, "lon": -77.04872716666667, "name": "8fb94b22ffd5c3f648ddf88de5ab96f6"}, {"bike_id": "c9523e9fd14147192d1a515d51b4215f", "type": "electric_scooter", "is_disabled": 0, "lat": 38.897609333333335, "rental_uris": {"ios": "https://dc.lft.to/lastmile_qr_scan", "android": "https://dc.lft.to/lastmile_qr_scan"}, "is_reserved": 0, "fusion_lon": 0.0, "fusion_lat": 0.0, "lon": -77.05135616666666, "name": "c9523e9fd14147192d1a515d51b4215f"}, {"bike_id": "05d202dfd1ae0c0a96df24ec7431fb2f", "type": "electric_scooter", "is_disabled": 0, "lat": 38.92297716666667, "rental_uris": {"ios": "https://dc.lft.to/lastmile_qr_scan", "android": "https://dc.lft.to/lastmile_qr_scan"}, "is_reserved": 0, "fusion_lon": 0.0, "fusion_lat": 0.0, "lon": -77.07303916666666, "name": "05d202dfd1ae0c0a96df24ec7431fb2f"}, {"bike_id": "e4c3fb10252859810fceba66e6c9575d", "type": "electric_scooter", "is_disabled": 0, "lat": 38.911806166666665, "rental_uris": {"ios": "https://dc.lft.to/lastmile_qr_scan", "android": "https://dc.lft.to/lastmile_qr_scan"}, "is_reserved": 0, "fusion_lon": 0.0, "fusion_lat": 0.0, "lon": -77.00191466666666, "name": "e4c3fb10252859810fceba66e6c9575d"}, {"bike_id": "1c76c3aa78259a7367dab49cc9a69ed1", "type": "electric_scooter", "is_disabled": 0, "lat": 38.936839, "rental_uris": {"ios": "https://dc.lft.to/lastmile_qr_scan", "android": "https://dc.lft.to/lastmile_qr_scan"}, "is_reserved": 0, "fusion_lon": 0.0, "fusion_lat": 0.0, "lon": -77.0662255, "name": "1c76c3aa78259a7367dab49cc9a69ed1"}, {"bike_id": "76c1ddb12e9b8137793245440260d8bb", "type": "electric_scooter", "is_disabled": 0, "lat": 38.915564, "rental_uris": {"ios": "https://dc.lft.to/lastmile_qr_scan", "android": "https://dc.lft.to/lastmile_qr_scan"}, "is_reserved": 0, "fusion_lon": 0.0, "fusion_lat": 0.0, "lon": -77.03172916666666, "name": "76c1ddb12e9b8137793245440260d8bb"}, {"bike_id": "8a0e851cbea1a2fe996b74103c7bcaaf", "type": "electric_scooter", "is_disabled": 0, "lat": 38.9082595, "rental_uris": {"ios": "https://dc.lft.to/lastmile_qr_scan", "android": "https://dc.lft.to/lastmile_qr_scan"}, "is_reserved": 0, "fusion_lon": 0.0, "fusion_lat": 0.0, "lon": -77.02707616666666, "name": "8a0e851cbea1a2fe996b74103c7bcaaf"}, {"bike_id": "d53084177eb43fde1af2b94ab296c94f", "type": "electric_scooter", "is_disabled": 0, "lat": 38.899289333333336, "rental_uris": {"ios": "https://dc.lft.to/lastmile_qr_scan", "android": "https://dc.lft.to/lastmile_qr_scan"}, "is_reserved": 0, "fusion_lon": 0.0, "fusion_lat": 0.0, "lon": -77.00353816666667, "name": "d53084177eb43fde1af2b94ab296c94f"}, {"bike_id": "467e9354af9571f3c7de6be4661da81b", "type": "electric_scooter", "is_disabled": 0, "lat": 38.91634033333333, "rental_uris": {"ios": "https://dc.lft.to/lastmile_qr_scan", "android": "https://dc.lft.to/lastmile_qr_scan"}, "is_reserved": 0, "fusion_lon": 0.0, "fusion_lat": 0.0, "lon": -77.000472, "name": "467e9354af9571f3c7de6be4661da81b"}, {"bike_id": "954cad54433e4bd583e3eaa1b30a9478", "type": "electric_scooter", "is_disabled": 0, "lat": 38.918982, "rental_uris": {"ios": "https://dc.lft.to/lastmile_qr_scan", "android": "https://dc.lft.to/lastmile_qr_scan"}, "is_reserved": 0, "fusion_lon": 0.0, "fusion_lat": 0.0, "lon": -77.0320895, "name": "954cad54433e4bd583e3eaa1b30a9478"}, {"bike_id": "939a34fd5cf1f9a40c0b26308035f15a", "type": "electric_scooter", "is_disabled": 0, "lat": 38.8620685, "rental_uris": {"ios": "https://dc.lft.to/lastmile_qr_scan", "android": "https://dc.lft.to/lastmile_qr_scan"}, "is_reserved": 0, "fusion_lon": 0.0, "fusion_lat": 0.0, "lon": -76.99470666666667, "name": "939a34fd5cf1f9a40c0b26308035f15a"}, {"bike_id": "49eb6eb08c1a32b261dfdee748478f7f", "type": "electric_scooter", "is_disabled": 0, "lat": 38.91769016666667, "rental_uris": {"ios": "https://dc.lft.to/lastmile_qr_scan", "android": "https://dc.lft.to/lastmile_qr_scan"}, "is_reserved": 0, "fusion_lon": 0.0, "fusion_lat": 0.0, "lon": -77.03653016666667, "name": "49eb6eb08c1a32b261dfdee748478f7f"}, {"bike_id": "762b36100d8be76d4ef5af37e8ff9a6d", "type": "electric_scooter", "is_disabled": 0, "lat": 38.91090833333333, "rental_uris": {"ios": "https://dc.lft.to/lastmile_qr_scan", "android": "https://dc.lft.to/lastmile_qr_scan"}, "is_reserved": 0, "fusion_lon": 0.0, "fusion_lat": 0.0, "lon": -77.02814633333334, "name": "762b36100d8be76d4ef5af37e8ff9a6d"}, {"bike_id": "4a60207a80740f00db969af1e466f1fa", "type": "electric_scooter", "is_disabled": 0, "lat": 38.909598, "rental_uris": {"ios": "https://dc.lft.to/lastmile_qr_scan", "android": "https://dc.lft.to/lastmile_qr_scan"}, "is_reserved": 0, "fusion_lon": 0.0, "fusion_lat": 0.0, "lon": -77.032298, "name": "4a60207a80740f00db969af1e466f1fa"}, {"bike_id": "697d16297a6fe328016b4addc839e6ad", "type": "electric_scooter", "is_disabled": 0, "lat": 38.905681, "rental_uris": {"ios": "https://dc.lft.to/lastmile_qr_scan", "android": "https://dc.lft.to/lastmile_qr_scan"}, "is_reserved": 0, "fusion_lon": 0.0, "fusion_lat": 0.0, "lon": -77.0422595, "name": "697d16297a6fe328016b4addc839e6ad"}, {"bike_id": "1abb8e3a1c891ccad3259d787fc1edc3", "type": "electric_scooter", "is_disabled": 0, "lat": 38.890366666666665, "rental_uris": {"ios": "https://dc.lft.to/lastmile_qr_scan", "android": "https://dc.lft.to/lastmile_qr_scan"}, "is_reserved": 0, "fusion_lon": 0.0, "fusion_lat": 0.0, "lon": -76.937512, "name": "1abb8e3a1c891ccad3259d787fc1edc3"}, {"bike_id": "e36597081b39cd8e32d0104263b8abc8", "type": "electric_scooter", "is_disabled": 0, "lat": 38.92109116666666, "rental_uris": {"ios": "https://dc.lft.to/lastmile_qr_scan", "android": "https://dc.lft.to/lastmile_qr_scan"}, "is_reserved": 0, "fusion_lon": 0.0, "fusion_lat": 0.0, "lon": -77.03636783333333, "name": "e36597081b39cd8e32d0104263b8abc8"}, {"bike_id": "686d5979a4bc5bfa0c78c8efcfed3259", "type": "electric_scooter", "is_disabled": 0, "lat": 38.90422016666667, "rental_uris": {"ios": "https://dc.lft.to/lastmile_qr_scan", "android": "https://dc.lft.to/lastmile_qr_scan"}, "is_reserved": 0, "fusion_lon": 0.0, "fusion_lat": 0.0, "lon": -76.990721, "name": "686d5979a4bc5bfa0c78c8efcfed3259"}, {"bike_id": "7905bd6e23aa6712ecf0e6687fa0f80c", "type": "electric_scooter", "is_disabled": 0, "lat": 38.89798, "rental_uris": {"ios": "https://dc.lft.to/lastmile_qr_scan", "android": "https://dc.lft.to/lastmile_qr_scan"}, "is_reserved": 0, "fusion_lon": 0.0, "fusion_lat": 0.0, "lon": -77.02484383333334, "name": "7905bd6e23aa6712ecf0e6687fa0f80c"}, {"bike_id": "106d2dd65057058147a6bd2c48bd726a", "type": "electric_scooter", "is_disabled": 0, "lat": 38.91388666666667, "rental_uris": {"ios": "https://dc.lft.to/lastmile_qr_scan", "android": "https://dc.lft.to/lastmile_qr_scan"}, "is_reserved": 0, "fusion_lon": 0.0, "fusion_lat": 0.0, "lon": -77.04607783333333, "name": "106d2dd65057058147a6bd2c48bd726a"}, {"bike_id": "6bdbe8ef1ace19b6d3bb37f5b1ac0447", "type": "electric_scooter", "is_disabled": 0, "lat": 38.88984933333333, "rental_uris": {"ios": "https://dc.lft.to/lastmile_qr_scan", "android": "https://dc.lft.to/lastmile_qr_scan"}, "is_reserved": 0, "fusion_lon": 0.0, "fusion_lat": 0.0, "lon": -77.0011945, "name": "6bdbe8ef1ace19b6d3bb37f5b1ac0447"}, {"bike_id": "7e0d6fe94847bdbb2942b916de1b9e28", "type": "electric_scooter", "is_disabled": 0, "lat": 38.90401966666667, "rental_uris": {"ios": "https://dc.lft.to/lastmile_qr_scan", "android": "https://dc.lft.to/lastmile_qr_scan"}, "is_reserved": 0, "fusion_lon": 0.0, "fusion_lat": 0.0, "lon": -77.06769016666667, "name": "7e0d6fe94847bdbb2942b916de1b9e28"}, {"bike_id": "b2670469530cbde4a675c70b4d95ba9b", "type": "electric_scooter", "is_disabled": 0, "lat": 38.91841466666666, "rental_uris": {"ios": "https://dc.lft.to/lastmile_qr_scan", "android": "https://dc.lft.to/lastmile_qr_scan"}, "is_reserved": 0, "fusion_lon": 0.0, "fusion_lat": 0.0, "lon": -77.025338, "name": "b2670469530cbde4a675c70b4d95ba9b"}, {"bike_id": "ed77faf5a3f37034a3769378667a5f8c", "type": "electric_scooter", "is_disabled": 0, "lat": 38.957318, "rental_uris": {"ios": "https://dc.lft.to/lastmile_qr_scan", "android": "https://dc.lft.to/lastmile_qr_scan"}, "is_reserved": 0, "fusion_lon": 0.0, "fusion_lat": 0.0, "lon": -77.024036, "name": "ed77faf5a3f37034a3769378667a5f8c"}, {"bike_id": "f36e424a5a66ce20455783aeb7352185", "type": "electric_scooter", "is_disabled": 0, "lat": 38.90142733333333, "rental_uris": {"ios": "https://dc.lft.to/lastmile_qr_scan", "android": "https://dc.lft.to/lastmile_qr_scan"}, "is_reserved": 0, "fusion_lon": 0.0, "fusion_lat": 0.0, "lon": -77.01609316666666, "name": "f36e424a5a66ce20455783aeb7352185"}, {"bike_id": "37532961294434dcc832e046151dab68", "type": "electric_scooter", "is_disabled": 0, "lat": 38.92341916666667, "rental_uris": {"ios": "https://dc.lft.to/lastmile_qr_scan", "android": "https://dc.lft.to/lastmile_qr_scan"}, "is_reserved": 0, "fusion_lon": 0.0, "fusion_lat": 0.0, "lon": -77.0509815, "name": "37532961294434dcc832e046151dab68"}, {"bike_id": "0d35b58823715d45b2ddeb60c22f57a4", "type": "electric_scooter", "is_disabled": 0, "lat": 38.86721716666667, "rental_uris": {"ios": "https://dc.lft.to/lastmile_qr_scan", "android": "https://dc.lft.to/lastmile_qr_scan"}, "is_reserved": 0, "fusion_lon": 0.0, "fusion_lat": 0.0, "lon": -77.01016033333333, "name": "0d35b58823715d45b2ddeb60c22f57a4"}, {"bike_id": "ec3add81ff1f7d90b49f326b5eae60bd", "type": "electric_scooter", "is_disabled": 0, "lat": 38.909997, "rental_uris": {"ios": "https://dc.lft.to/lastmile_qr_scan", "android": "https://dc.lft.to/lastmile_qr_scan"}, "is_reserved": 0, "fusion_lon": 0.0, "fusion_lat": 0.0, "lon": -77.04009516666666, "name": "ec3add81ff1f7d90b49f326b5eae60bd"}, {"bike_id": "5be79c3d650d05b9c7b7c8a4bbc0d0cc", "type": "electric_scooter", "is_disabled": 0, "lat": 38.93187666666667, "rental_uris": {"ios": "https://dc.lft.to/lastmile_qr_scan", "android": "https://dc.lft.to/lastmile_qr_scan"}, "is_reserved": 0, "fusion_lon": 0.0, "fusion_lat": 0.0, "lon": -77.020232, "name": "5be79c3d650d05b9c7b7c8a4bbc0d0cc"}, {"bike_id": "03edc7d6fe11ca39ca946eb3f58dd4e3", "type": "electric_scooter", "is_disabled": 0, "lat": 38.916324, "rental_uris": {"ios": "https://dc.lft.to/lastmile_qr_scan", "android": "https://dc.lft.to/lastmile_qr_scan"}, "is_reserved": 0, "fusion_lon": 0.0, "fusion_lat": 0.0, "lon": -77.03965433333333, "name": "03edc7d6fe11ca39ca946eb3f58dd4e3"}, {"bike_id": "b49d701ad8a31a177f5d648e04f34621", "type": "electric_scooter", "is_disabled": 0, "lat": 38.917624, "rental_uris": {"ios": "https://dc.lft.to/lastmile_qr_scan", "android": "https://dc.lft.to/lastmile_qr_scan"}, "is_reserved": 0, "fusion_lon": 0.0, "fusion_lat": 0.0, "lon": -77.04774766666667, "name": "b49d701ad8a31a177f5d648e04f34621"}, {"bike_id": "b2bec3ff086e8372d81b50b58b1727e4", "type": "electric_scooter", "is_disabled": 0, "lat": 38.91693333333333, "rental_uris": {"ios": "https://dc.lft.to/lastmile_qr_scan", "android": "https://dc.lft.to/lastmile_qr_scan"}, "is_reserved": 0, "fusion_lon": 0.0, "fusion_lat": 0.0, "lon": -77.03215133333333, "name": "b2bec3ff086e8372d81b50b58b1727e4"}, {"bike_id": "f8aef1dd091d34b4eda4e3170ec48348", "type": "electric_scooter", "is_disabled": 0, "lat": 38.8621085, "rental_uris": {"ios": "https://dc.lft.to/lastmile_qr_scan", "android": "https://dc.lft.to/lastmile_qr_scan"}, "is_reserved": 0, "fusion_lon": 0.0, "fusion_lat": 0.0, "lon": -76.99471816666667, "name": "f8aef1dd091d34b4eda4e3170ec48348"}, {"bike_id": "7b73e9248a9f2c0a242e8e5e8127d9e3", "type": "electric_scooter", "is_disabled": 0, "lat": 38.895450333333336, "rental_uris": {"ios": "https://dc.lft.to/lastmile_qr_scan", "android": "https://dc.lft.to/lastmile_qr_scan"}, "is_reserved": 0, "fusion_lon": 0.0, "fusion_lat": 0.0, "lon": -76.94939933333333, "name": "7b73e9248a9f2c0a242e8e5e8127d9e3"}, {"bike_id": "3f3876a629d5d593586c4ef78b515ac7", "type": "electric_scooter", "is_disabled": 0, "lat": 38.867000166666664, "rental_uris": {"ios": "https://dc.lft.to/lastmile_qr_scan", "android": "https://dc.lft.to/lastmile_qr_scan"}, "is_reserved": 0, "fusion_lon": 0.0, "fusion_lat": 0.0, "lon": -76.98712266666666, "name": "3f3876a629d5d593586c4ef78b515ac7"}, {"bike_id": "6630befee24b619742d8777d395e2ffd", "type": "electric_scooter", "is_disabled": 0, "lat": 38.938491166666665, "rental_uris": {"ios": "https://dc.lft.to/lastmile_qr_scan", "android": "https://dc.lft.to/lastmile_qr_scan"}, "is_reserved": 0, "fusion_lon": 0.0, "fusion_lat": 0.0, "lon": -77.03376666666666, "name": "6630befee24b619742d8777d395e2ffd"}, {"bike_id": "024745e6059489f28d24fed840ffdbef", "type": "electric_scooter", "is_disabled": 0, "lat": 38.898811, "rental_uris": {"ios": "https://dc.lft.to/lastmile_qr_scan", "android": "https://dc.lft.to/lastmile_qr_scan"}, "is_reserved": 0, "fusion_lon": 0.0, "fusion_lat": 0.0, "lon": -76.93178116666667, "name": "024745e6059489f28d24fed840ffdbef"}, {"bike_id": "c6a3fc17697125b4468247edb8e5f6ef", "type": "electric_scooter", "is_disabled": 0, "lat": 38.86699183333333, "rental_uris": {"ios": "https://dc.lft.to/lastmile_qr_scan", "android": "https://dc.lft.to/lastmile_qr_scan"}, "is_reserved": 0, "fusion_lon": 0.0, "fusion_lat": 0.0, "lon": -76.98706483333333, "name": "c6a3fc17697125b4468247edb8e5f6ef"}, {"bike_id": "09f3b107ef85c0bdfe91addd87fa2b8f", "type": "electric_bike", "is_disabled": 0, "lat": 38.943639166666664, "rental_uris": {"ios": "https://dc.lft.to/lastmile_qr_scan", "android": "https://dc.lft.to/lastmile_qr_scan"}, "is_reserved": 0, "fusion_lon": 0.0, "fusion_lat": 0.0, "lon": -76.96780866666667, "name": "09f3b107ef85c0bdfe91addd87fa2b8f"}, {"bike_id": "7e31bfc6b82a1e962d371b0ca3b138df", "type": "electric_scooter", "is_disabled": 0, "lat": 38.897272, "rental_uris": {"ios": "https://dc.lft.to/lastmile_qr_scan", "android": "https://dc.lft.to/lastmile_qr_scan"}, "is_reserved": 0, "fusion_lon": 0.0, "fusion_lat": 0.0, "lon": -77.05476466666667, "name": "7e31bfc6b82a1e962d371b0ca3b138df"}, {"bike_id": "c116ca5f9ffdb897011205890c7f7b7f", "type": "electric_scooter", "is_disabled": 0, "lat": 38.905921666666664, "rental_uris": {"ios": "https://dc.lft.to/lastmile_qr_scan", "android": "https://dc.lft.to/lastmile_qr_scan"}, "is_reserved": 0, "fusion_lon": 0.0, "fusion_lat": 0.0, "lon": -77.02709, "name": "c116ca5f9ffdb897011205890c7f7b7f"}, {"bike_id": "aad6ab28aad73d87ca9c470e81ccf528", "type": "electric_bike", "is_disabled": 0, "lat": 38.94472566666666, "rental_uris": {"ios": "https://dc.lft.to/lastmile_qr_scan", "android": "https://dc.lft.to/lastmile_qr_scan"}, "is_reserved": 0, "fusion_lon": 0.0, "fusion_lat": 0.0, "lon": -76.98687583333333, "name": "aad6ab28aad73d87ca9c470e81ccf528"}, {"bike_id": "5fa806ab0e239d351ee52fbf00e13f0f", "type": "electric_bike", "is_disabled": 0, "lat": 38.849656333333336, "rental_uris": {"ios": "https://dc.lft.to/lastmile_qr_scan", "android": "https://dc.lft.to/lastmile_qr_scan"}, "is_reserved": 0, "fusion_lon": 0.0, "fusion_lat": 0.0, "lon": -77.077571, "name": "5fa806ab0e239d351ee52fbf00e13f0f"}, {"bike_id": "c748c2f0a03058319c7160f3ad0fe555", "type": "electric_scooter", "is_disabled": 0, "lat": 38.91225633333333, "rental_uris": {"ios": "https://dc.lft.to/lastmile_qr_scan", "android": "https://dc.lft.to/lastmile_qr_scan"}, "is_reserved": 0, "fusion_lon": 0.0, "fusion_lat": 0.0, "lon": -76.98785016666666, "name": "c748c2f0a03058319c7160f3ad0fe555"}, {"bike_id": "58d7eb8f8feeaec03f53507f685105f9", "type": "electric_scooter", "is_disabled": 0, "lat": 38.915016, "rental_uris": {"ios": "https://dc.lft.to/lastmile_qr_scan", "android": "https://dc.lft.to/lastmile_qr_scan"}, "is_reserved": 0, "fusion_lon": 0.0, "fusion_lat": 0.0, "lon": -77.017761, "name": "58d7eb8f8feeaec03f53507f685105f9"}, {"bike_id": "f0f4a3d16760da005b84cf95b71b1653", "type": "electric_scooter", "is_disabled": 0, "lat": 38.922306666666664, "rental_uris": {"ios": "https://dc.lft.to/lastmile_qr_scan", "android": "https://dc.lft.to/lastmile_qr_scan"}, "is_reserved": 0, "fusion_lon": 0.0, "fusion_lat": 0.0, "lon": -77.03705166666667, "name": "f0f4a3d16760da005b84cf95b71b1653"}, {"bike_id": "d3fe93f4ebd111e1ea59c27629de559e", "type": "electric_scooter", "is_disabled": 0, "lat": 38.90419983333334, "rental_uris": {"ios": "https://dc.lft.to/lastmile_qr_scan", "android": "https://dc.lft.to/lastmile_qr_scan"}, "is_reserved": 0, "fusion_lon": 0.0, "fusion_lat": 0.0, "lon": -77.06872283333334, "name": "d3fe93f4ebd111e1ea59c27629de559e"}, {"bike_id": "e493f1d2c5342825c21610d9c6663d1c", "type": "electric_scooter", "is_disabled": 0, "lat": 38.86655866666667, "rental_uris": {"ios": "https://dc.lft.to/lastmile_qr_scan", "android": "https://dc.lft.to/lastmile_qr_scan"}, "is_reserved": 0, "fusion_lon": 0.0, "fusion_lat": 0.0, "lon": -76.988838, "name": "e493f1d2c5342825c21610d9c6663d1c"}, {"bike_id": "729261d42e5fe33284fed2bed9253d70", "type": "electric_scooter", "is_disabled": 0, "lat": 38.90381816666667, "rental_uris": {"ios": "https://dc.lft.to/lastmile_qr_scan", "android": "https://dc.lft.to/lastmile_qr_scan"}, "is_reserved": 0, "fusion_lon": 0.0, "fusion_lat": 0.0, "lon": -77.0217945, "name": "729261d42e5fe33284fed2bed9253d70"}, {"bike_id": "ab284b950bc011bcebb13f115b8c2650", "type": "electric_scooter", "is_disabled": 0, "lat": 38.918512, "rental_uris": {"ios": "https://dc.lft.to/lastmile_qr_scan", "android": "https://dc.lft.to/lastmile_qr_scan"}, "is_reserved": 0, "fusion_lon": 0.0, "fusion_lat": 0.0, "lon": -77.03183783333333, "name": "ab284b950bc011bcebb13f115b8c2650"}, {"bike_id": "7927d60ef0c9de097f5c0731ba77d9bb", "type": "electric_scooter", "is_disabled": 0, "lat": 38.91712883333334, "rental_uris": {"ios": "https://dc.lft.to/lastmile_qr_scan", "android": "https://dc.lft.to/lastmile_qr_scan"}, "is_reserved": 0, "fusion_lon": 0.0, "fusion_lat": 0.0, "lon": -77.0120545, "name": "7927d60ef0c9de097f5c0731ba77d9bb"}, {"bike_id": "72daf420d154a49351354063208951d7", "type": "electric_bike", "is_disabled": 0, "lat": 38.8384825, "rental_uris": {"ios": "https://dc.lft.to/lastmile_qr_scan", "android": "https://dc.lft.to/lastmile_qr_scan"}, "is_reserved": 0, "fusion_lon": 0.0, "fusion_lat": 0.0, "lon": -77.0502185, "name": "72daf420d154a49351354063208951d7"}, {"bike_id": "1e18a7172de5595025702e1f8d5cb4b5", "type": "electric_scooter", "is_disabled": 0, "lat": 38.909716833333334, "rental_uris": {"ios": "https://dc.lft.to/lastmile_qr_scan", "android": "https://dc.lft.to/lastmile_qr_scan"}, "is_reserved": 0, "fusion_lon": 0.0, "fusion_lat": 0.0, "lon": -77.0280185, "name": "1e18a7172de5595025702e1f8d5cb4b5"}, {"bike_id": "3c3fa2121c62d6cbcba276961119a4e0", "type": "electric_scooter", "is_disabled": 0, "lat": 38.90258033333333, "rental_uris": {"ios": "https://dc.lft.to/lastmile_qr_scan", "android": "https://dc.lft.to/lastmile_qr_scan"}, "is_reserved": 0, "fusion_lon": 0.0, "fusion_lat": 0.0, "lon": -77.017838, "name": "3c3fa2121c62d6cbcba276961119a4e0"}, {"bike_id": "026b15eb2f5d6f5b482d4d3b8bcb563b", "type": "electric_scooter", "is_disabled": 0, "lat": 38.91101066666667, "rental_uris": {"ios": "https://dc.lft.to/lastmile_qr_scan", "android": "https://dc.lft.to/lastmile_qr_scan"}, "is_reserved": 0, "fusion_lon": 0.0, "fusion_lat": 0.0, "lon": -77.00213283333333, "name": "026b15eb2f5d6f5b482d4d3b8bcb563b"}, {"bike_id": "6761e9f59febb92885b0140a4d082e52", "type": "electric_scooter", "is_disabled": 0, "lat": 38.884372166666665, "rental_uris": {"ios": "https://dc.lft.to/lastmile_qr_scan", "android": "https://dc.lft.to/lastmile_qr_scan"}, "is_reserved": 0, "fusion_lon": 0.0, "fusion_lat": 0.0, "lon": -76.95751066666666, "name": "6761e9f59febb92885b0140a4d082e52"}, {"bike_id": "d068d81aedf6ab81a6155e841e9588d3", "type": "electric_scooter", "is_disabled": 0, "lat": 38.8747025, "rental_uris": {"ios": "https://dc.lft.to/lastmile_qr_scan", "android": "https://dc.lft.to/lastmile_qr_scan"}, "is_reserved": 0, "fusion_lon": 0.0, "fusion_lat": 0.0, "lon": -77.0107155, "name": "d068d81aedf6ab81a6155e841e9588d3"}, {"bike_id": "b717fdc177fee8c478306e347ac4c34f", "type": "electric_scooter", "is_disabled": 0, "lat": 38.887387333333336, "rental_uris": {"ios": "https://dc.lft.to/lastmile_qr_scan", "android": "https://dc.lft.to/lastmile_qr_scan"}, "is_reserved": 0, "fusion_lon": 0.0, "fusion_lat": 0.0, "lon": -77.0151985, "name": "b717fdc177fee8c478306e347ac4c34f"}, {"bike_id": "b8abb6527b2493fa25a296bda1ebb971", "type": "electric_scooter", "is_disabled": 0, "lat": 38.91811233333333, "rental_uris": {"ios": "https://dc.lft.to/lastmile_qr_scan", "android": "https://dc.lft.to/lastmile_qr_scan"}, "is_reserved": 0, "fusion_lon": 0.0, "fusion_lat": 0.0, "lon": -77.03170783333333, "name": "b8abb6527b2493fa25a296bda1ebb971"}, {"bike_id": "4d452cc51ea86ba0a82e119abc4bc31b", "type": "electric_scooter", "is_disabled": 0, "lat": 38.914206, "rental_uris": {"ios": "https://dc.lft.to/lastmile_qr_scan", "android": "https://dc.lft.to/lastmile_qr_scan"}, "is_reserved": 0, "fusion_lon": 0.0, "fusion_lat": 0.0, "lon": -77.0220315, "name": "4d452cc51ea86ba0a82e119abc4bc31b"}, {"bike_id": "838e3f0ffe24ca391cefe2b2a69c53d3", "type": "electric_scooter", "is_disabled": 0, "lat": 38.905157833333334, "rental_uris": {"ios": "https://dc.lft.to/lastmile_qr_scan", "android": "https://dc.lft.to/lastmile_qr_scan"}, "is_reserved": 0, "fusion_lon": 0.0, "fusion_lat": 0.0, "lon": -77.06246283333333, "name": "838e3f0ffe24ca391cefe2b2a69c53d3"}, {"bike_id": "fcbe1b117ca99d99caa46f6e081edb7f", "type": "electric_scooter", "is_disabled": 0, "lat": 38.9026475, "rental_uris": {"ios": "https://dc.lft.to/lastmile_qr_scan", "android": "https://dc.lft.to/lastmile_qr_scan"}, "is_reserved": 0, "fusion_lon": 0.0, "fusion_lat": 0.0, "lon": -77.0178635, "name": "fcbe1b117ca99d99caa46f6e081edb7f"}, {"bike_id": "7c2123e560216187af9b653364c1e48a", "type": "electric_scooter", "is_disabled": 0, "lat": 38.92862616666667, "rental_uris": {"ios": "https://dc.lft.to/lastmile_qr_scan", "android": "https://dc.lft.to/lastmile_qr_scan"}, "is_reserved": 0, "fusion_lon": 0.0, "fusion_lat": 0.0, "lon": -77.02304183333334, "name": "7c2123e560216187af9b653364c1e48a"}, {"bike_id": "65f2a5d87251ab0f3b680916f4e6b7b6", "type": "electric_scooter", "is_disabled": 0, "lat": 38.937576166666666, "rental_uris": {"ios": "https://dc.lft.to/lastmile_qr_scan", "android": "https://dc.lft.to/lastmile_qr_scan"}, "is_reserved": 0, "fusion_lon": 0.0, "fusion_lat": 0.0, "lon": -77.02475366666667, "name": "65f2a5d87251ab0f3b680916f4e6b7b6"}, {"bike_id": "1db8a3e8dc0df6a6616523e79658de0f", "type": "electric_scooter", "is_disabled": 0, "lat": 38.91769583333333, "rental_uris": {"ios": "https://dc.lft.to/lastmile_qr_scan", "android": "https://dc.lft.to/lastmile_qr_scan"}, "is_reserved": 0, "fusion_lon": 0.0, "fusion_lat": 0.0, "lon": -77.0318675, "name": "1db8a3e8dc0df6a6616523e79658de0f"}, {"bike_id": "f9a181e4433c2197f655db0afa5755dd", "type": "electric_scooter", "is_disabled": 0, "lat": 38.9037855, "rental_uris": {"ios": "https://dc.lft.to/lastmile_qr_scan", "android": "https://dc.lft.to/lastmile_qr_scan"}, "is_reserved": 0, "fusion_lon": 0.0, "fusion_lat": 0.0, "lon": -76.98203916666667, "name": "f9a181e4433c2197f655db0afa5755dd"}, {"bike_id": "239c6c0e5634a58b567959b7763bc541", "type": "electric_scooter", "is_disabled": 0, "lat": 38.919266, "rental_uris": {"ios": "https://dc.lft.to/lastmile_qr_scan", "android": "https://dc.lft.to/lastmile_qr_scan"}, "is_reserved": 0, "fusion_lon": 0.0, "fusion_lat": 0.0, "lon": -77.0022805, "name": "239c6c0e5634a58b567959b7763bc541"}, {"bike_id": "2af231e909419d039054a4ba78d03e41", "type": "electric_scooter", "is_disabled": 0, "lat": 38.932436, "rental_uris": {"ios": "https://dc.lft.to/lastmile_qr_scan", "android": "https://dc.lft.to/lastmile_qr_scan"}, "is_reserved": 0, "fusion_lon": 0.0, "fusion_lat": 0.0, "lon": -77.03881033333333, "name": "2af231e909419d039054a4ba78d03e41"}, {"bike_id": "7fb39536b28f6fb4f1429a1361b767b3", "type": "electric_scooter", "is_disabled": 0, "lat": 38.91936533333333, "rental_uris": {"ios": "https://dc.lft.to/lastmile_qr_scan", "android": "https://dc.lft.to/lastmile_qr_scan"}, "is_reserved": 0, "fusion_lon": 0.0, "fusion_lat": 0.0, "lon": -77.041709, "name": "7fb39536b28f6fb4f1429a1361b767b3"}, {"bike_id": "3b15c5ddc336df5388c0998f29f2ca6a", "type": "electric_scooter", "is_disabled": 0, "lat": 38.90272433333333, "rental_uris": {"ios": "https://dc.lft.to/lastmile_qr_scan", "android": "https://dc.lft.to/lastmile_qr_scan"}, "is_reserved": 0, "fusion_lon": 0.0, "fusion_lat": 0.0, "lon": -77.03653366666667, "name": "3b15c5ddc336df5388c0998f29f2ca6a"}, {"bike_id": "b7f8260dd070c25059509e0c026e7b61", "type": "electric_scooter", "is_disabled": 0, "lat": 38.93651883333333, "rental_uris": {"ios": "https://dc.lft.to/lastmile_qr_scan", "android": "https://dc.lft.to/lastmile_qr_scan"}, "is_reserved": 0, "fusion_lon": 0.0, "fusion_lat": 0.0, "lon": -77.0263575, "name": "b7f8260dd070c25059509e0c026e7b61"}, {"bike_id": "f630cdfaf948e33099abf314994f87d1", "type": "electric_scooter", "is_disabled": 0, "lat": 38.92765416666667, "rental_uris": {"ios": "https://dc.lft.to/lastmile_qr_scan", "android": "https://dc.lft.to/lastmile_qr_scan"}, "is_reserved": 0, "fusion_lon": 0.0, "fusion_lat": 0.0, "lon": -77.05637983333334, "name": "f630cdfaf948e33099abf314994f87d1"}, {"bike_id": "e036ab4cc1c8324925da08c4432beca4", "type": "electric_scooter", "is_disabled": 0, "lat": 38.908174833333334, "rental_uris": {"ios": "https://dc.lft.to/lastmile_qr_scan", "android": "https://dc.lft.to/lastmile_qr_scan"}, "is_reserved": 0, "fusion_lon": 0.0, "fusion_lat": 0.0, "lon": -77.03657316666667, "name": "e036ab4cc1c8324925da08c4432beca4"}, {"bike_id": "66a49466a138f0653084a1232104e73a", "type": "electric_scooter", "is_disabled": 0, "lat": 38.90806383333333, "rental_uris": {"ios": "https://dc.lft.to/lastmile_qr_scan", "android": "https://dc.lft.to/lastmile_qr_scan"}, "is_reserved": 0, "fusion_lon": 0.0, "fusion_lat": 0.0, "lon": -77.0344095, "name": "66a49466a138f0653084a1232104e73a"}, {"bike_id": "e9f7d463c89b32784b44f032e2c00506", "type": "electric_scooter", "is_disabled": 0, "lat": 38.91102766666667, "rental_uris": {"ios": "https://dc.lft.to/lastmile_qr_scan", "android": "https://dc.lft.to/lastmile_qr_scan"}, "is_reserved": 0, "fusion_lon": 0.0, "fusion_lat": 0.0, "lon": -77.012065, "name": "e9f7d463c89b32784b44f032e2c00506"}, {"bike_id": "cde4df1634e95c96c0b51b42fabc0008", "type": "electric_scooter", "is_disabled": 0, "lat": 38.89913033333333, "rental_uris": {"ios": "https://dc.lft.to/lastmile_qr_scan", "android": "https://dc.lft.to/lastmile_qr_scan"}, "is_reserved": 0, "fusion_lon": 0.0, "fusion_lat": 0.0, "lon": -76.93367983333333, "name": "cde4df1634e95c96c0b51b42fabc0008"}, {"bike_id": "c94f2616826c5e27fd94f4ff3e253c09", "type": "electric_scooter", "is_disabled": 0, "lat": 38.88279633333333, "rental_uris": {"ios": "https://dc.lft.to/lastmile_qr_scan", "android": "https://dc.lft.to/lastmile_qr_scan"}, "is_reserved": 0, "fusion_lon": 0.0, "fusion_lat": 0.0, "lon": -76.9877915, "name": "c94f2616826c5e27fd94f4ff3e253c09"}, {"bike_id": "614122eee3e7e2c414365c4d722f7601", "type": "electric_scooter", "is_disabled": 0, "lat": 38.958535, "rental_uris": {"ios": "https://dc.lft.to/lastmile_qr_scan", "android": "https://dc.lft.to/lastmile_qr_scan"}, "is_reserved": 0, "fusion_lon": 0.0, "fusion_lat": 0.0, "lon": -77.02798116666666, "name": "614122eee3e7e2c414365c4d722f7601"}, {"bike_id": "e495c2b60b2cf48aa946aadf8ae1328f", "type": "electric_scooter", "is_disabled": 0, "lat": 38.90562383333334, "rental_uris": {"ios": "https://dc.lft.to/lastmile_qr_scan", "android": "https://dc.lft.to/lastmile_qr_scan"}, "is_reserved": 0, "fusion_lon": 0.0, "fusion_lat": 0.0, "lon": -77.028163, "name": "e495c2b60b2cf48aa946aadf8ae1328f"}, {"bike_id": "10125384beb57066ae3f70e48e47d8b0", "type": "electric_scooter", "is_disabled": 0, "lat": 38.9361765, "rental_uris": {"ios": "https://dc.lft.to/lastmile_qr_scan", "android": "https://dc.lft.to/lastmile_qr_scan"}, "is_reserved": 0, "fusion_lon": 0.0, "fusion_lat": 0.0, "lon": -77.05587016666666, "name": "10125384beb57066ae3f70e48e47d8b0"}, {"bike_id": "eee2994e32ac20be4a811b8d70ba7d6e", "type": "electric_scooter", "is_disabled": 0, "lat": 38.9308755, "rental_uris": {"ios": "https://dc.lft.to/lastmile_qr_scan", "android": "https://dc.lft.to/lastmile_qr_scan"}, "is_reserved": 0, "fusion_lon": 0.0, "fusion_lat": 0.0, "lon": -77.037399, "name": "eee2994e32ac20be4a811b8d70ba7d6e"}, {"bike_id": "79d87c96b29e794ec6c5e58e4ea830e8", "type": "electric_scooter", "is_disabled": 0, "lat": 38.9425765, "rental_uris": {"ios": "https://dc.lft.to/lastmile_qr_scan", "android": "https://dc.lft.to/lastmile_qr_scan"}, "is_reserved": 0, "fusion_lon": 0.0, "fusion_lat": 0.0, "lon": -77.02530833333333, "name": "79d87c96b29e794ec6c5e58e4ea830e8"}, {"bike_id": "21ac729e28918a7dc586d2119405b46f", "type": "electric_scooter", "is_disabled": 0, "lat": 38.90802933333333, "rental_uris": {"ios": "https://dc.lft.to/lastmile_qr_scan", "android": "https://dc.lft.to/lastmile_qr_scan"}, "is_reserved": 0, "fusion_lon": 0.0, "fusion_lat": 0.0, "lon": -77.03057866666667, "name": "21ac729e28918a7dc586d2119405b46f"}, {"bike_id": "77484c4e3a73f4eff3c2f19d1c856631", "type": "electric_scooter", "is_disabled": 0, "lat": 38.92816366666667, "rental_uris": {"ios": "https://dc.lft.to/lastmile_qr_scan", "android": "https://dc.lft.to/lastmile_qr_scan"}, "is_reserved": 0, "fusion_lon": 0.0, "fusion_lat": 0.0, "lon": -77.02814016666666, "name": "77484c4e3a73f4eff3c2f19d1c856631"}, {"bike_id": "836b14e6ae641a33975cc2d9129dca46", "type": "electric_bike", "is_disabled": 0, "lat": 38.978799, "rental_uris": {"ios": "https://dc.lft.to/lastmile_qr_scan", "android": "https://dc.lft.to/lastmile_qr_scan"}, "is_reserved": 0, "fusion_lon": 0.0, "fusion_lat": 0.0, "lon": -77.0602945, "name": "836b14e6ae641a33975cc2d9129dca46"}, {"bike_id": "347785ac5600150b690986fdb191a558", "type": "electric_scooter", "is_disabled": 0, "lat": 38.940213, "rental_uris": {"ios": "https://dc.lft.to/lastmile_qr_scan", "android": "https://dc.lft.to/lastmile_qr_scan"}, "is_reserved": 0, "fusion_lon": 0.0, "fusion_lat": 0.0, "lon": -76.97606566666667, "name": "347785ac5600150b690986fdb191a558"}, {"bike_id": "0e3072de946ab1694fadb517b8ef1055", "type": "electric_scooter", "is_disabled": 0, "lat": 38.91846533333333, "rental_uris": {"ios": "https://dc.lft.to/lastmile_qr_scan", "android": "https://dc.lft.to/lastmile_qr_scan"}, "is_reserved": 0, "fusion_lon": 0.0, "fusion_lat": 0.0, "lon": -76.96556766666667, "name": "0e3072de946ab1694fadb517b8ef1055"}, {"bike_id": "3bda526f8b1560606145b060b70e14f2", "type": "electric_bike", "is_disabled": 0, "lat": 38.933334333333335, "rental_uris": {"ios": "https://dc.lft.to/lastmile_qr_scan", "android": "https://dc.lft.to/lastmile_qr_scan"}, "is_reserved": 0, "fusion_lon": 0.0, "fusion_lat": 0.0, "lon": -77.03959583333334, "name": "3bda526f8b1560606145b060b70e14f2"}, {"bike_id": "d02057d5bf8a4533dae3545ed1467fbd", "type": "electric_scooter", "is_disabled": 0, "lat": 38.90954883333333, "rental_uris": {"ios": "https://dc.lft.to/lastmile_qr_scan", "android": "https://dc.lft.to/lastmile_qr_scan"}, "is_reserved": 0, "fusion_lon": 0.0, "fusion_lat": 0.0, "lon": -77.0478625, "name": "d02057d5bf8a4533dae3545ed1467fbd"}, {"bike_id": "58257f731404bda147b43bc709137860", "type": "electric_scooter", "is_disabled": 0, "lat": 38.894779, "rental_uris": {"ios": "https://dc.lft.to/lastmile_qr_scan", "android": "https://dc.lft.to/lastmile_qr_scan"}, "is_reserved": 0, "fusion_lon": 0.0, "fusion_lat": 0.0, "lon": -76.948627, "name": "58257f731404bda147b43bc709137860"}, {"bike_id": "996259eecf060eb98f9a789e2bc9da78", "type": "electric_scooter", "is_disabled": 0, "lat": 38.876519, "rental_uris": {"ios": "https://dc.lft.to/lastmile_qr_scan", "android": "https://dc.lft.to/lastmile_qr_scan"}, "is_reserved": 0, "fusion_lon": 0.0, "fusion_lat": 0.0, "lon": -77.004202, "name": "996259eecf060eb98f9a789e2bc9da78"}, {"bike_id": "89b88e31f060d6387ba6b8bec37860c1", "type": "electric_scooter", "is_disabled": 0, "lat": 38.931572333333335, "rental_uris": {"ios": "https://dc.lft.to/lastmile_qr_scan", "android": "https://dc.lft.to/lastmile_qr_scan"}, "is_reserved": 0, "fusion_lon": 0.0, "fusion_lat": 0.0, "lon": -77.03339, "name": "89b88e31f060d6387ba6b8bec37860c1"}, {"bike_id": "4116534844c96567f449e3f18676fc19", "type": "electric_scooter", "is_disabled": 0, "lat": 38.901865, "rental_uris": {"ios": "https://dc.lft.to/lastmile_qr_scan", "android": "https://dc.lft.to/lastmile_qr_scan"}, "is_reserved": 0, "fusion_lon": 0.0, "fusion_lat": 0.0, "lon": -77.0131145, "name": "4116534844c96567f449e3f18676fc19"}, {"bike_id": "ea65521b5f190ac71da33faec0fec70e", "type": "electric_scooter", "is_disabled": 0, "lat": 38.8814705, "rental_uris": {"ios": "https://dc.lft.to/lastmile_qr_scan", "android": "https://dc.lft.to/lastmile_qr_scan"}, "is_reserved": 0, "fusion_lon": 0.0, "fusion_lat": 0.0, "lon": -77.02742516666666, "name": "ea65521b5f190ac71da33faec0fec70e"}, {"bike_id": "392668a96bc6872c3c84e63312b4be8a", "type": "electric_scooter", "is_disabled": 0, "lat": 38.937683166666666, "rental_uris": {"ios": "https://dc.lft.to/lastmile_qr_scan", "android": "https://dc.lft.to/lastmile_qr_scan"}, "is_reserved": 0, "fusion_lon": 0.0, "fusion_lat": 0.0, "lon": -77.01968466666666, "name": "392668a96bc6872c3c84e63312b4be8a"}, {"bike_id": "12d317c9a1445fe16e6380ed4c4a2a9e", "type": "electric_scooter", "is_disabled": 0, "lat": 38.899849333333336, "rental_uris": {"ios": "https://dc.lft.to/lastmile_qr_scan", "android": "https://dc.lft.to/lastmile_qr_scan"}, "is_reserved": 0, "fusion_lon": 0.0, "fusion_lat": 0.0, "lon": -76.9499865, "name": "12d317c9a1445fe16e6380ed4c4a2a9e"}, {"bike_id": "8d81514b0d18f2ffc64b27dce01ec4f7", "type": "electric_scooter", "is_disabled": 0, "lat": 38.91384266666667, "rental_uris": {"ios": "https://dc.lft.to/lastmile_qr_scan", "android": "https://dc.lft.to/lastmile_qr_scan"}, "is_reserved": 0, "fusion_lon": 0.0, "fusion_lat": 0.0, "lon": -77.03937883333333, "name": "8d81514b0d18f2ffc64b27dce01ec4f7"}, {"bike_id": "2dae7fe8986d6e94ac75fccef5edfcae", "type": "electric_scooter", "is_disabled": 0, "lat": 38.9241825, "rental_uris": {"ios": "https://dc.lft.to/lastmile_qr_scan", "android": "https://dc.lft.to/lastmile_qr_scan"}, "is_reserved": 0, "fusion_lon": 0.0, "fusion_lat": 0.0, "lon": -77.02030283333333, "name": "2dae7fe8986d6e94ac75fccef5edfcae"}, {"bike_id": "b74f0d908d1295c476210d748ec3c8d8", "type": "electric_scooter", "is_disabled": 0, "lat": 38.921775333333336, "rental_uris": {"ios": "https://dc.lft.to/lastmile_qr_scan", "android": "https://dc.lft.to/lastmile_qr_scan"}, "is_reserved": 0, "fusion_lon": 0.0, "fusion_lat": 0.0, "lon": -76.997938, "name": "b74f0d908d1295c476210d748ec3c8d8"}, {"bike_id": "7a2f9d49aec5641fc9d5a7144cc5e5e3", "type": "electric_bike", "is_disabled": 0, "lat": 38.86369583333333, "rental_uris": {"ios": "https://dc.lft.to/lastmile_qr_scan", "android": "https://dc.lft.to/lastmile_qr_scan"}, "is_reserved": 0, "fusion_lon": 0.0, "fusion_lat": 0.0, "lon": -76.97009933333334, "name": "7a2f9d49aec5641fc9d5a7144cc5e5e3"}, {"bike_id": "c6ea1c66b3067b74ff908d65dca79150", "type": "electric_bike", "is_disabled": 0, "lat": 38.857691, "rental_uris": {"ios": "https://dc.lft.to/lastmile_qr_scan", "android": "https://dc.lft.to/lastmile_qr_scan"}, "is_reserved": 0, "fusion_lon": 0.0, "fusion_lat": 0.0, "lon": -76.98765933333334, "name": "c6ea1c66b3067b74ff908d65dca79150"}, {"bike_id": "37e34dd0c0f7e0c5fcf516e32c93f23c", "type": "electric_scooter", "is_disabled": 0, "lat": 38.909582666666665, "rental_uris": {"ios": "https://dc.lft.to/lastmile_qr_scan", "android": "https://dc.lft.to/lastmile_qr_scan"}, "is_reserved": 0, "fusion_lon": 0.0, "fusion_lat": 0.0, "lon": -77.014283, "name": "37e34dd0c0f7e0c5fcf516e32c93f23c"}, {"bike_id": "7d1603eaefc1e99389c03239547a2ecf", "type": "electric_scooter", "is_disabled": 0, "lat": 38.8589585, "rental_uris": {"ios": "https://dc.lft.to/lastmile_qr_scan", "android": "https://dc.lft.to/lastmile_qr_scan"}, "is_reserved": 0, "fusion_lon": 0.0, "fusion_lat": 0.0, "lon": -76.99729116666667, "name": "7d1603eaefc1e99389c03239547a2ecf"}, {"bike_id": "fde0d6576b9360875e75b592fc563052", "type": "electric_scooter", "is_disabled": 0, "lat": 38.87811816666667, "rental_uris": {"ios": "https://dc.lft.to/lastmile_qr_scan", "android": "https://dc.lft.to/lastmile_qr_scan"}, "is_reserved": 0, "fusion_lon": 0.0, "fusion_lat": 0.0, "lon": -76.971715, "name": "fde0d6576b9360875e75b592fc563052"}, {"bike_id": "2e92a33049e22c288d591884f9107579", "type": "electric_scooter", "is_disabled": 0, "lat": 38.9159535, "rental_uris": {"ios": "https://dc.lft.to/lastmile_qr_scan", "android": "https://dc.lft.to/lastmile_qr_scan"}, "is_reserved": 0, "fusion_lon": 0.0, "fusion_lat": 0.0, "lon": -77.00198433333334, "name": "2e92a33049e22c288d591884f9107579"}, {"bike_id": "1129d3994ca962bc7b70737a9534ec61", "type": "electric_scooter", "is_disabled": 0, "lat": 38.88060083333333, "rental_uris": {"ios": "https://dc.lft.to/lastmile_qr_scan", "android": "https://dc.lft.to/lastmile_qr_scan"}, "is_reserved": 0, "fusion_lon": 0.0, "fusion_lat": 0.0, "lon": -76.93216316666667, "name": "1129d3994ca962bc7b70737a9534ec61"}, {"bike_id": "9124dc8fbe60010219486ae0d339cb63", "type": "electric_scooter", "is_disabled": 0, "lat": 38.900715166666664, "rental_uris": {"ios": "https://dc.lft.to/lastmile_qr_scan", "android": "https://dc.lft.to/lastmile_qr_scan"}, "is_reserved": 0, "fusion_lon": 0.0, "fusion_lat": 0.0, "lon": -77.053122, "name": "9124dc8fbe60010219486ae0d339cb63"}, {"bike_id": "a17c8483f50541ef2be9e866f5a16ca0", "type": "electric_scooter", "is_disabled": 0, "lat": 38.92664633333333, "rental_uris": {"ios": "https://dc.lft.to/lastmile_qr_scan", "android": "https://dc.lft.to/lastmile_qr_scan"}, "is_reserved": 0, "fusion_lon": 0.0, "fusion_lat": 0.0, "lon": -76.99536733333333, "name": "a17c8483f50541ef2be9e866f5a16ca0"}, {"bike_id": "71ff49ef5056a9e8567ae2d6f0ef00d3", "type": "electric_scooter", "is_disabled": 0, "lat": 38.90128683333333, "rental_uris": {"ios": "https://dc.lft.to/lastmile_qr_scan", "android": "https://dc.lft.to/lastmile_qr_scan"}, "is_reserved": 0, "fusion_lon": 0.0, "fusion_lat": 0.0, "lon": -77.03869916666666, "name": "71ff49ef5056a9e8567ae2d6f0ef00d3"}, {"bike_id": "1245cf2425cd68783da83bd31a852485", "type": "electric_scooter", "is_disabled": 0, "lat": 38.89880183333333, "rental_uris": {"ios": "https://dc.lft.to/lastmile_qr_scan", "android": "https://dc.lft.to/lastmile_qr_scan"}, "is_reserved": 0, "fusion_lon": 0.0, "fusion_lat": 0.0, "lon": -76.9317535, "name": "1245cf2425cd68783da83bd31a852485"}, {"bike_id": "c61ea880ef8fab7a394299459283e711", "type": "electric_scooter", "is_disabled": 0, "lat": 38.931697, "rental_uris": {"ios": "https://dc.lft.to/lastmile_qr_scan", "android": "https://dc.lft.to/lastmile_qr_scan"}, "is_reserved": 0, "fusion_lon": 0.0, "fusion_lat": 0.0, "lon": -77.02846233333334, "name": "c61ea880ef8fab7a394299459283e711"}, {"bike_id": "e1995942e3ed528826a1637bc56e875f", "type": "electric_scooter", "is_disabled": 0, "lat": 38.92377966666667, "rental_uris": {"ios": "https://dc.lft.to/lastmile_qr_scan", "android": "https://dc.lft.to/lastmile_qr_scan"}, "is_reserved": 0, "fusion_lon": 0.0, "fusion_lat": 0.0, "lon": -77.03080216666666, "name": "e1995942e3ed528826a1637bc56e875f"}, {"bike_id": "28db8cafb5a5cc911ac8d18ebb84ed2a", "type": "electric_scooter", "is_disabled": 0, "lat": 38.8876155, "rental_uris": {"ios": "https://dc.lft.to/lastmile_qr_scan", "android": "https://dc.lft.to/lastmile_qr_scan"}, "is_reserved": 0, "fusion_lon": 0.0, "fusion_lat": 0.0, "lon": -77.01530033333333, "name": "28db8cafb5a5cc911ac8d18ebb84ed2a"}, {"bike_id": "8c8814b418fb5865d9463b447d951262", "type": "electric_scooter", "is_disabled": 0, "lat": 38.90725066666667, "rental_uris": {"ios": "https://dc.lft.to/lastmile_qr_scan", "android": "https://dc.lft.to/lastmile_qr_scan"}, "is_reserved": 0, "fusion_lon": 0.0, "fusion_lat": 0.0, "lon": -77.032056, "name": "8c8814b418fb5865d9463b447d951262"}, {"bike_id": "8a2c63939f4f0304ddc27d55516fb595", "type": "electric_scooter", "is_disabled": 0, "lat": 38.919701833333335, "rental_uris": {"ios": "https://dc.lft.to/lastmile_qr_scan", "android": "https://dc.lft.to/lastmile_qr_scan"}, "is_reserved": 0, "fusion_lon": 0.0, "fusion_lat": 0.0, "lon": -77.03951483333333, "name": "8a2c63939f4f0304ddc27d55516fb595"}, {"bike_id": "ae7bc37dc9e105c7e7436f051fb156b2", "type": "electric_scooter", "is_disabled": 0, "lat": 38.91551183333333, "rental_uris": {"ios": "https://dc.lft.to/lastmile_qr_scan", "android": "https://dc.lft.to/lastmile_qr_scan"}, "is_reserved": 0, "fusion_lon": 0.0, "fusion_lat": 0.0, "lon": -77.0255455, "name": "ae7bc37dc9e105c7e7436f051fb156b2"}, {"bike_id": "9add42fc7c7502e4a013e07fd2118232", "type": "electric_scooter", "is_disabled": 0, "lat": 38.902972, "rental_uris": {"ios": "https://dc.lft.to/lastmile_qr_scan", "android": "https://dc.lft.to/lastmile_qr_scan"}, "is_reserved": 0, "fusion_lon": 0.0, "fusion_lat": 0.0, "lon": -77.0504605, "name": "9add42fc7c7502e4a013e07fd2118232"}, {"bike_id": "a3b5081bffb263dce764e2db1d4a3b84", "type": "electric_bike", "is_disabled": 0, "lat": 38.889296, "rental_uris": {"ios": "https://dc.lft.to/lastmile_qr_scan", "android": "https://dc.lft.to/lastmile_qr_scan"}, "is_reserved": 0, "fusion_lon": 0.0, "fusion_lat": 0.0, "lon": -76.99174533333333, "name": "a3b5081bffb263dce764e2db1d4a3b84"}, {"bike_id": "f0710f501f0d51cfd8c23d3e90d228b4", "type": "electric_bike", "is_disabled": 0, "lat": 39.03402666666667, "rental_uris": {"ios": "https://dc.lft.to/lastmile_qr_scan", "android": "https://dc.lft.to/lastmile_qr_scan"}, "is_reserved": 0, "fusion_lon": 0.0, "fusion_lat": 0.0, "lon": -77.04146766666666, "name": "f0710f501f0d51cfd8c23d3e90d228b4"}, {"bike_id": "d5d09cf90e918f0fbf8e4a07dcc57081", "type": "electric_scooter", "is_disabled": 0, "lat": 38.881750833333335, "rental_uris": {"ios": "https://dc.lft.to/lastmile_qr_scan", "android": "https://dc.lft.to/lastmile_qr_scan"}, "is_reserved": 0, "fusion_lon": 0.0, "fusion_lat": 0.0, "lon": -77.02812883333333, "name": "d5d09cf90e918f0fbf8e4a07dcc57081"}, {"bike_id": "0b7566c3e0757e8cabaaf5ad766ff90f", "type": "electric_scooter", "is_disabled": 0, "lat": 38.875732666666664, "rental_uris": {"ios": "https://dc.lft.to/lastmile_qr_scan", "android": "https://dc.lft.to/lastmile_qr_scan"}, "is_reserved": 0, "fusion_lon": 0.0, "fusion_lat": 0.0, "lon": -77.01276183333333, "name": "0b7566c3e0757e8cabaaf5ad766ff90f"}, {"bike_id": "d0dbb931c1f3f2a72375fbf15f141e6d", "type": "electric_scooter", "is_disabled": 0, "lat": 38.923819333333334, "rental_uris": {"ios": "https://dc.lft.to/lastmile_qr_scan", "android": "https://dc.lft.to/lastmile_qr_scan"}, "is_reserved": 0, "fusion_lon": 0.0, "fusion_lat": 0.0, "lon": -77.02821733333333, "name": "d0dbb931c1f3f2a72375fbf15f141e6d"}, {"bike_id": "e024257783ec5654090c89b582fb926d", "type": "electric_scooter", "is_disabled": 0, "lat": 38.89741266666667, "rental_uris": {"ios": "https://dc.lft.to/lastmile_qr_scan", "android": "https://dc.lft.to/lastmile_qr_scan"}, "is_reserved": 0, "fusion_lon": 0.0, "fusion_lat": 0.0, "lon": -76.9472205, "name": "e024257783ec5654090c89b582fb926d"}, {"bike_id": "4f48ac272b3a802b46eff91f6cf8b7fb", "type": "electric_scooter", "is_disabled": 0, "lat": 38.905264, "rental_uris": {"ios": "https://dc.lft.to/lastmile_qr_scan", "android": "https://dc.lft.to/lastmile_qr_scan"}, "is_reserved": 0, "fusion_lon": 0.0, "fusion_lat": 0.0, "lon": -77.04996933333334, "name": "4f48ac272b3a802b46eff91f6cf8b7fb"}, {"bike_id": "fb6b9e2b68d722bf29182410efe498f6", "type": "electric_scooter", "is_disabled": 0, "lat": 38.92881416666667, "rental_uris": {"ios": "https://dc.lft.to/lastmile_qr_scan", "android": "https://dc.lft.to/lastmile_qr_scan"}, "is_reserved": 0, "fusion_lon": 0.0, "fusion_lat": 0.0, "lon": -77.03306583333334, "name": "fb6b9e2b68d722bf29182410efe498f6"}, {"bike_id": "5070ae41f227d9ab5a8b7f1cdb37d291", "type": "electric_scooter", "is_disabled": 0, "lat": 38.925399, "rental_uris": {"ios": "https://dc.lft.to/lastmile_qr_scan", "android": "https://dc.lft.to/lastmile_qr_scan"}, "is_reserved": 0, "fusion_lon": 0.0, "fusion_lat": 0.0, "lon": -77.0324805, "name": "5070ae41f227d9ab5a8b7f1cdb37d291"}, {"bike_id": "823b60a3b95e0a40bb4849fceb1c29c6", "type": "electric_scooter", "is_disabled": 0, "lat": 38.918384333333336, "rental_uris": {"ios": "https://dc.lft.to/lastmile_qr_scan", "android": "https://dc.lft.to/lastmile_qr_scan"}, "is_reserved": 0, "fusion_lon": 0.0, "fusion_lat": 0.0, "lon": -77.02252733333333, "name": "823b60a3b95e0a40bb4849fceb1c29c6"}, {"bike_id": "7b33e320811bb536d721b3f791cfbcd2", "type": "electric_scooter", "is_disabled": 0, "lat": 38.918025, "rental_uris": {"ios": "https://dc.lft.to/lastmile_qr_scan", "android": "https://dc.lft.to/lastmile_qr_scan"}, "is_reserved": 0, "fusion_lon": 0.0, "fusion_lat": 0.0, "lon": -77.03434483333334, "name": "7b33e320811bb536d721b3f791cfbcd2"}, {"bike_id": "9a278335af7a20dd0cfbf337f6020bc3", "type": "electric_scooter", "is_disabled": 0, "lat": 38.9193075, "rental_uris": {"ios": "https://dc.lft.to/lastmile_qr_scan", "android": "https://dc.lft.to/lastmile_qr_scan"}, "is_reserved": 0, "fusion_lon": 0.0, "fusion_lat": 0.0, "lon": -77.07068533333333, "name": "9a278335af7a20dd0cfbf337f6020bc3"}, {"bike_id": "cb40686c18c571b1c08493fdb3bbbdb0", "type": "electric_scooter", "is_disabled": 0, "lat": 38.86624116666667, "rental_uris": {"ios": "https://dc.lft.to/lastmile_qr_scan", "android": "https://dc.lft.to/lastmile_qr_scan"}, "is_reserved": 0, "fusion_lon": 0.0, "fusion_lat": 0.0, "lon": -76.98717316666666, "name": "cb40686c18c571b1c08493fdb3bbbdb0"}, {"bike_id": "a36880d9f92805cf358830390905164f", "type": "electric_scooter", "is_disabled": 0, "lat": 38.92288333333333, "rental_uris": {"ios": "https://dc.lft.to/lastmile_qr_scan", "android": "https://dc.lft.to/lastmile_qr_scan"}, "is_reserved": 0, "fusion_lon": 0.0, "fusion_lat": 0.0, "lon": -77.04463166666666, "name": "a36880d9f92805cf358830390905164f"}, {"bike_id": "a79f5829e694ada6be8d4394b1bbfa10", "type": "electric_bike", "is_disabled": 0, "lat": 38.9315215, "rental_uris": {"ios": "https://dc.lft.to/lastmile_qr_scan", "android": "https://dc.lft.to/lastmile_qr_scan"}, "is_reserved": 0, "fusion_lon": 0.0, "fusion_lat": 0.0, "lon": -77.07843833333334, "name": "a79f5829e694ada6be8d4394b1bbfa10"}, {"bike_id": "d1c8231e2a04f889e9c852f22be9ebc0", "type": "electric_scooter", "is_disabled": 0, "lat": 38.887798, "rental_uris": {"ios": "https://dc.lft.to/lastmile_qr_scan", "android": "https://dc.lft.to/lastmile_qr_scan"}, "is_reserved": 0, "fusion_lon": 0.0, "fusion_lat": 0.0, "lon": -76.9552775, "name": "d1c8231e2a04f889e9c852f22be9ebc0"}, {"bike_id": "e8577da1b2bdb13fbd9f3c9064ab325a", "type": "electric_scooter", "is_disabled": 0, "lat": 38.92059883333334, "rental_uris": {"ios": "https://dc.lft.to/lastmile_qr_scan", "android": "https://dc.lft.to/lastmile_qr_scan"}, "is_reserved": 0, "fusion_lon": 0.0, "fusion_lat": 0.0, "lon": -77.04253666666666, "name": "e8577da1b2bdb13fbd9f3c9064ab325a"}, {"bike_id": "ffa334a14643a13fbf703994201cbc5e", "type": "electric_scooter", "is_disabled": 0, "lat": 38.92236116666667, "rental_uris": {"ios": "https://dc.lft.to/lastmile_qr_scan", "android": "https://dc.lft.to/lastmile_qr_scan"}, "is_reserved": 0, "fusion_lon": 0.0, "fusion_lat": 0.0, "lon": -77.0313595, "name": "ffa334a14643a13fbf703994201cbc5e"}, {"bike_id": "4a0d5878d2b09ddd9841a16485d147e6", "type": "electric_scooter", "is_disabled": 0, "lat": 38.908455833333335, "rental_uris": {"ios": "https://dc.lft.to/lastmile_qr_scan", "android": "https://dc.lft.to/lastmile_qr_scan"}, "is_reserved": 0, "fusion_lon": 0.0, "fusion_lat": 0.0, "lon": -77.02231933333333, "name": "4a0d5878d2b09ddd9841a16485d147e6"}, {"bike_id": "3ad65197718f2e9dc221c1fe743c4966", "type": "electric_scooter", "is_disabled": 0, "lat": 38.902577666666666, "rental_uris": {"ios": "https://dc.lft.to/lastmile_qr_scan", "android": "https://dc.lft.to/lastmile_qr_scan"}, "is_reserved": 0, "fusion_lon": 0.0, "fusion_lat": 0.0, "lon": -77.0336525, "name": "3ad65197718f2e9dc221c1fe743c4966"}, {"bike_id": "b3965befd2d2c6d4ca2964614f13feaa", "type": "electric_scooter", "is_disabled": 0, "lat": 38.9068255, "rental_uris": {"ios": "https://dc.lft.to/lastmile_qr_scan", "android": "https://dc.lft.to/lastmile_qr_scan"}, "is_reserved": 0, "fusion_lon": 0.0, "fusion_lat": 0.0, "lon": -77.02691933333334, "name": "b3965befd2d2c6d4ca2964614f13feaa"}, {"bike_id": "468031cad3ff42c4380c8e93e385385a", "type": "electric_scooter", "is_disabled": 0, "lat": 38.906206, "rental_uris": {"ios": "https://dc.lft.to/lastmile_qr_scan", "android": "https://dc.lft.to/lastmile_qr_scan"}, "is_reserved": 0, "fusion_lon": 0.0, "fusion_lat": 0.0, "lon": -77.03918933333334, "name": "468031cad3ff42c4380c8e93e385385a"}, {"bike_id": "da0ac090211307bc17e042b008ae90de", "type": "electric_scooter", "is_disabled": 0, "lat": 38.896638833333334, "rental_uris": {"ios": "https://dc.lft.to/lastmile_qr_scan", "android": "https://dc.lft.to/lastmile_qr_scan"}, "is_reserved": 0, "fusion_lon": 0.0, "fusion_lat": 0.0, "lon": -77.07077666666666, "name": "da0ac090211307bc17e042b008ae90de"}, {"bike_id": "b32f47ec2cddffd1750d0e3f8a5861d3", "type": "electric_scooter", "is_disabled": 0, "lat": 38.90105716666667, "rental_uris": {"ios": "https://dc.lft.to/lastmile_qr_scan", "android": "https://dc.lft.to/lastmile_qr_scan"}, "is_reserved": 0, "fusion_lon": 0.0, "fusion_lat": 0.0, "lon": -77.03830666666667, "name": "b32f47ec2cddffd1750d0e3f8a5861d3"}, {"bike_id": "d34841ae166df07d410e98fb5e41d6c2", "type": "electric_scooter", "is_disabled": 0, "lat": 38.843117166666666, "rental_uris": {"ios": "https://dc.lft.to/lastmile_qr_scan", "android": "https://dc.lft.to/lastmile_qr_scan"}, "is_reserved": 0, "fusion_lon": 0.0, "fusion_lat": 0.0, "lon": -76.9993135, "name": "d34841ae166df07d410e98fb5e41d6c2"}, {"bike_id": "095f2b29a73b3a3bbeef7922db596403", "type": "electric_scooter", "is_disabled": 0, "lat": 38.91990166666667, "rental_uris": {"ios": "https://dc.lft.to/lastmile_qr_scan", "android": "https://dc.lft.to/lastmile_qr_scan"}, "is_reserved": 0, "fusion_lon": 0.0, "fusion_lat": 0.0, "lon": -77.01805566666667, "name": "095f2b29a73b3a3bbeef7922db596403"}, {"bike_id": "2d4382e8021dcd0fc735d8b54ddc6ca7", "type": "electric_scooter", "is_disabled": 0, "lat": 38.911126833333334, "rental_uris": {"ios": "https://dc.lft.to/lastmile_qr_scan", "android": "https://dc.lft.to/lastmile_qr_scan"}, "is_reserved": 0, "fusion_lon": 0.0, "fusion_lat": 0.0, "lon": -77.04525833333334, "name": "2d4382e8021dcd0fc735d8b54ddc6ca7"}, {"bike_id": "ffce371c1208a72718eb5de8b2ef1f91", "type": "electric_bike", "is_disabled": 0, "lat": 38.83605283333333, "rental_uris": {"ios": "https://dc.lft.to/lastmile_qr_scan", "android": "https://dc.lft.to/lastmile_qr_scan"}, "is_reserved": 0, "fusion_lon": 0.0, "fusion_lat": 0.0, "lon": -77.00384466666667, "name": "ffce371c1208a72718eb5de8b2ef1f91"}, {"bike_id": "5a04f7f2b7231f0e1b1cbb41a3c0374f", "type": "electric_scooter", "is_disabled": 0, "lat": 38.92361916666667, "rental_uris": {"ios": "https://dc.lft.to/lastmile_qr_scan", "android": "https://dc.lft.to/lastmile_qr_scan"}, "is_reserved": 0, "fusion_lon": 0.0, "fusion_lat": 0.0, "lon": -77.05129616666666, "name": "5a04f7f2b7231f0e1b1cbb41a3c0374f"}, {"bike_id": "97b8d4f488a3932432c0306a181365d8", "type": "electric_scooter", "is_disabled": 0, "lat": 38.9146885, "rental_uris": {"ios": "https://dc.lft.to/lastmile_qr_scan", "android": "https://dc.lft.to/lastmile_qr_scan"}, "is_reserved": 0, "fusion_lon": 0.0, "fusion_lat": 0.0, "lon": -77.00200766666667, "name": "97b8d4f488a3932432c0306a181365d8"}, {"bike_id": "681a52540670fe8980e5d1e8234d387f", "type": "electric_scooter", "is_disabled": 0, "lat": 38.92271516666667, "rental_uris": {"ios": "https://dc.lft.to/lastmile_qr_scan", "android": "https://dc.lft.to/lastmile_qr_scan"}, "is_reserved": 0, "fusion_lon": 0.0, "fusion_lat": 0.0, "lon": -77.03663716666667, "name": "681a52540670fe8980e5d1e8234d387f"}, {"bike_id": "4ace87f913875ce0917ca8b2fff9e026", "type": "electric_scooter", "is_disabled": 0, "lat": 38.8647685, "rental_uris": {"ios": "https://dc.lft.to/lastmile_qr_scan", "android": "https://dc.lft.to/lastmile_qr_scan"}, "is_reserved": 0, "fusion_lon": 0.0, "fusion_lat": 0.0, "lon": -77.0000975, "name": "4ace87f913875ce0917ca8b2fff9e026"}, {"bike_id": "03aef8a3006741641383187b2521da1f", "type": "electric_bike", "is_disabled": 0, "lat": 38.895647, "rental_uris": {"ios": "https://dc.lft.to/lastmile_qr_scan", "android": "https://dc.lft.to/lastmile_qr_scan"}, "is_reserved": 0, "fusion_lon": 0.0, "fusion_lat": 0.0, "lon": -77.12740516666666, "name": "03aef8a3006741641383187b2521da1f"}, {"bike_id": "f319c76f6124d4d0c6f9fd037b37c6ef", "type": "electric_scooter", "is_disabled": 0, "lat": 38.907951833333335, "rental_uris": {"ios": "https://dc.lft.to/lastmile_qr_scan", "android": "https://dc.lft.to/lastmile_qr_scan"}, "is_reserved": 0, "fusion_lon": 0.0, "fusion_lat": 0.0, "lon": -77.04190333333334, "name": "f319c76f6124d4d0c6f9fd037b37c6ef"}, {"bike_id": "58db8bd601bea16ac7a57a785cfb3278", "type": "electric_scooter", "is_disabled": 0, "lat": 38.93949683333334, "rental_uris": {"ios": "https://dc.lft.to/lastmile_qr_scan", "android": "https://dc.lft.to/lastmile_qr_scan"}, "is_reserved": 0, "fusion_lon": 0.0, "fusion_lat": 0.0, "lon": -77.07244716666666, "name": "58db8bd601bea16ac7a57a785cfb3278"}, {"bike_id": "4f7ec97c3146cbe493baf751e79d8d3f", "type": "electric_scooter", "is_disabled": 0, "lat": 38.928632666666665, "rental_uris": {"ios": "https://dc.lft.to/lastmile_qr_scan", "android": "https://dc.lft.to/lastmile_qr_scan"}, "is_reserved": 0, "fusion_lon": 0.0, "fusion_lat": 0.0, "lon": -77.03709666666667, "name": "4f7ec97c3146cbe493baf751e79d8d3f"}, {"bike_id": "0191e12769dd707923ac816b611ca4be", "type": "electric_scooter", "is_disabled": 0, "lat": 38.92564766666667, "rental_uris": {"ios": "https://dc.lft.to/lastmile_qr_scan", "android": "https://dc.lft.to/lastmile_qr_scan"},