{"data": {"bikes": [{"fusion_lon": 0.0, "bike_id": "2f467cfb9c460b1112d38f18455aa92f", "name": "2f467cfb9c460b1112d38f18455aa92f", "type": "electric_bike", "lon": -77.11223566666666, "rental_uris": {"android": "https://dc.lft.to/lastmile_qr_scan", "ios": "https://dc.lft.to/lastmile_qr_scan"}, "lat": 38.8287, "is_reserved": 0, "is_disabled": 0, "fusion_lat": 0.0}, {"fusion_lon": 0.0, "bike_id": "1b7c04f74ac0ad26b2ccd7b9d07ba81a", "name": "1b7c04f74ac0ad26b2ccd7b9d07ba81a", "type": "electric_bike", "lon": -76.87498183333334, "rental_uris": {"android": "https://dc.lft.to/lastmile_qr_scan", "ios": "https://dc.lft.to/lastmile_qr_scan"}, "lat": 38.990905, "is_reserved": 0, "is_disabled": 0, "fusion_lat": 0.0}, {"fusion_lon": 0.0, "bike_id": "dc7c358a625dea145711c123c909f544", "name": "dc7c358a625dea145711c123c909f544", "type": "electric_scooter", "lon": -77.03342466666666, "rental_uris": {"android": "https://dc.lft.to/lastmile_qr_scan", "ios": "https://dc.lft.to/lastmile_qr_scan"}, "lat": 38.919137666666664, "is_reserved": 0, "is_disabled": 0, "fusion_lat": 0.0}, {"fusion_lon": 0.0, "bike_id": "eaabcfc7845f95c1a2b09b6f72d786f0", "name": "eaabcfc7845f95c1a2b09b6f72d786f0", "type": "electric_scooter", "lon": -77.024522, "rental_uris": {"android": "https://dc.lft.to/lastmile_qr_scan", "ios": "https://dc.lft.to/lastmile_qr_scan"}, "lat": 38.903231, "is_reserved": 0, "is_disabled": 0, "fusion_lat": 0.0}, {"fusion_lon": 0.0, "bike_id": "7c6df1b67b3e51bae5fa1584bce89d24", "name": "7c6df1b67b3e51bae5fa1584bce89d24", "type": "electric_scooter", "lon": -76.98198283333333, "rental_uris": {"android": "https://dc.lft.to/lastmile_qr_scan", "ios": "https://dc.lft.to/lastmile_qr_scan"}, "lat": 38.90205683333333, "is_reserved": 0, "is_disabled": 0, "fusion_lat": 0.0}, {"fusion_lon": 0.0, "bike_id": "71f1d51e2dd64c990b5396a8bb922724", "name": "71f1d51e2dd64c990b5396a8bb922724", "type": "electric_scooter", "lon": -77.01617283333333, "rental_uris": {"android": "https://dc.lft.to/lastmile_qr_scan", "ios": "https://dc.lft.to/lastmile_qr_scan"}, "lat": 38.89965333333333, "is_reserved": 0, "is_disabled": 0, "fusion_lat": 0.0}, {"fusion_lon": 0.0, "bike_id": "9eefdd4355f7faa6abe884fabf042cd4", "name": "9eefdd4355f7faa6abe884fabf042cd4", "type": "electric_scooter", "lon": -76.96509266666666, "rental_uris": {"android": "https://dc.lft.to/lastmile_qr_scan", "ios": "https://dc.lft.to/lastmile_qr_scan"}, "lat": 38.876482333333335, "is_reserved": 0, "is_disabled": 0, "fusion_lat": 0.0}, {"fusion_lon": 0.0, "bike_id": "6fcc286301413caba2e92453141537b8", "name": "6fcc286301413caba2e92453141537b8", "type": "electric_scooter", "lon": -77.0386015, "rental_uris": {"android": "https://dc.lft.to/lastmile_qr_scan", "ios": "https://dc.lft.to/lastmile_qr_scan"}, "lat": 38.90783183333333, "is_reserved": 0, "is_disabled": 0, "fusion_lat": 0.0}, {"fusion_lon": 0.0, "bike_id": "17a871dc917627ca7b4a951f2a68f00e", "name": "17a871dc917627ca7b4a951f2a68f00e", "type": "electric_bike", "lon": -76.975647, "rental_uris": {"android": "https://dc.lft.to/lastmile_qr_scan", "ios": "https://dc.lft.to/lastmile_qr_scan"}, "lat": 38.92456933333333, "is_reserved": 0, "is_disabled": 0, "fusion_lat": 0.0}, {"fusion_lon": 0.0, "bike_id": "9e53dc90eaa767f8e21f53dece88e35d", "name": "9e53dc90eaa767f8e21f53dece88e35d", "type": "electric_scooter", "lon": -77.04657633333333, "rental_uris": {"android": "https://dc.lft.to/lastmile_qr_scan", "ios": "https://dc.lft.to/lastmile_qr_scan"}, "lat": 38.9040695, "is_reserved": 0, "is_disabled": 0, "fusion_lat": 0.0}, {"fusion_lon": 0.0, "bike_id": "aa1718e4a1acd7860675013dd23be827", "name": "aa1718e4a1acd7860675013dd23be827", "type": "electric_scooter", "lon": -77.05084666666667, "rental_uris": {"android": "https://dc.lft.to/lastmile_qr_scan", "ios": "https://dc.lft.to/lastmile_qr_scan"}, "lat": 38.905261, "is_reserved": 0, "is_disabled": 0, "fusion_lat": 0.0}, {"fusion_lon": 0.0, "bike_id": "d130954b69f901daf0c9eb4642e84da5", "name": "d130954b69f901daf0c9eb4642e84da5", "type": "electric_scooter", "lon": -77.03217383333333, "rental_uris": {"android": "https://dc.lft.to/lastmile_qr_scan", "ios": "https://dc.lft.to/lastmile_qr_scan"}, "lat": 38.892185, "is_reserved": 0, "is_disabled": 0, "fusion_lat": 0.0}, {"fusion_lon": 0.0, "bike_id": "2f5b5ace1c4af2a528599c7e6d9f6bb6", "name": "2f5b5ace1c4af2a528599c7e6d9f6bb6", "type": "electric_scooter", "lon": -77.00825266666666, "rental_uris": {"android": "https://dc.lft.to/lastmile_qr_scan", "ios": "https://dc.lft.to/lastmile_qr_scan"}, "lat": 38.8765305, "is_reserved": 0, "is_disabled": 0, "fusion_lat": 0.0}, {"fusion_lon": 0.0, "bike_id": "fea3651f50993d8306b08ce0526183fa", "name": "fea3651f50993d8306b08ce0526183fa", "type": "electric_scooter", "lon": -77.04360683333333, "rental_uris": {"android": "https://dc.lft.to/lastmile_qr_scan", "ios": "https://dc.lft.to/lastmile_qr_scan"}, "lat": 38.90876183333334, "is_reserved": 0, "is_disabled": 0, "fusion_lat": 0.0}, {"fusion_lon": 0.0, "bike_id": "9cd3a4c27fff6b8f9e040555514cade2", "name": "9cd3a4c27fff6b8f9e040555514cade2", "type": "electric_bike", "lon": -76.99436666666666, "rental_uris": {"android": "https://dc.lft.to/lastmile_qr_scan", "ios": "https://dc.lft.to/lastmile_qr_scan"}, "lat": 38.876755333333335, "is_reserved": 0, "is_disabled": 0, "fusion_lat": 0.0}, {"fusion_lon": 0.0, "bike_id": "d56669973d24d27fdf9321ec61031348", "name": "d56669973d24d27fdf9321ec61031348", "type": "electric_scooter", "lon": -77.049127, "rental_uris": {"android": "https://dc.lft.to/lastmile_qr_scan", "ios": "https://dc.lft.to/lastmile_qr_scan"}, "lat": 38.892558, "is_reserved": 0, "is_disabled": 0, "fusion_lat": 0.0}, {"fusion_lon": 0.0, "bike_id": "ec13de5c4166a783e457e425d6fe70aa", "name": "ec13de5c4166a783e457e425d6fe70aa", "type": "electric_scooter", "lon": -76.99853183333333, "rental_uris": {"android": "https://dc.lft.to/lastmile_qr_scan", "ios": "https://dc.lft.to/lastmile_qr_scan"}, "lat": 38.900287666666664, "is_reserved": 0, "is_disabled": 0, "fusion_lat": 0.0}, {"fusion_lon": 0.0, "bike_id": "305864dc62af761bb3f31dfd3e0b9a04", "name": "305864dc62af761bb3f31dfd3e0b9a04", "type": "electric_scooter", "lon": -77.04405516666667, "rental_uris": {"android": "https://dc.lft.to/lastmile_qr_scan", "ios": "https://dc.lft.to/lastmile_qr_scan"}, "lat": 38.922818166666666, "is_reserved": 0, "is_disabled": 0, "fusion_lat": 0.0}, {"fusion_lon": 0.0, "bike_id": "5900511fcbadd30c9fb3865e41e85f8a", "name": "5900511fcbadd30c9fb3865e41e85f8a", "type": "electric_scooter", "lon": -76.973064, "rental_uris": {"android": "https://dc.lft.to/lastmile_qr_scan", "ios": "https://dc.lft.to/lastmile_qr_scan"}, "lat": 38.91988283333333, "is_reserved": 0, "is_disabled": 0, "fusion_lat": 0.0}, {"fusion_lon": 0.0, "bike_id": "9267d7d2e86aa1b54e2ecdcb5ef6eda2", "name": "9267d7d2e86aa1b54e2ecdcb5ef6eda2", "type": "electric_scooter", "lon": -76.98713066666667, "rental_uris": {"android": "https://dc.lft.to/lastmile_qr_scan", "ios": "https://dc.lft.to/lastmile_qr_scan"}, "lat": 38.866969833333336, "is_reserved": 0, "is_disabled": 0, "fusion_lat": 0.0}, {"fusion_lon": 0.0, "bike_id": "73f99f82b82551047b782dcee02308c2", "name": "73f99f82b82551047b782dcee02308c2", "type": "electric_scooter", "lon": -77.02215733333334, "rental_uris": {"android": "https://dc.lft.to/lastmile_qr_scan", "ios": "https://dc.lft.to/lastmile_qr_scan"}, "lat": 38.914152666666666, "is_reserved": 0, "is_disabled": 0, "fusion_lat": 0.0}, {"fusion_lon": 0.0, "bike_id": "5a5ce0dfb4052c3e539c4c7b526da903", "name": "5a5ce0dfb4052c3e539c4c7b526da903", "type": "electric_scooter", "lon": -76.9888225, "rental_uris": {"android": "https://dc.lft.to/lastmile_qr_scan", "ios": "https://dc.lft.to/lastmile_qr_scan"}, "lat": 38.90633483333333, "is_reserved": 0, "is_disabled": 0, "fusion_lat": 0.0}, {"fusion_lon": 0.0, "bike_id": "908da688135c44464953d7553213241f", "name": "908da688135c44464953d7553213241f", "type": "electric_bike", "lon": -77.08046466666667, "rental_uris": {"android": "https://dc.lft.to/lastmile_qr_scan", "ios": "https://dc.lft.to/lastmile_qr_scan"}, "lat": 38.848432333333335, "is_reserved": 0, "is_disabled": 0, "fusion_lat": 0.0}, {"fusion_lon": 0.0, "bike_id": "70b9a34b01db3a8cd41e2157c609f1e3", "name": "70b9a34b01db3a8cd41e2157c609f1e3", "type": "electric_scooter", "lon": -77.0465855, "rental_uris": {"android": "https://dc.lft.to/lastmile_qr_scan", "ios": "https://dc.lft.to/lastmile_qr_scan"}, "lat": 38.893396, "is_reserved": 0, "is_disabled": 0, "fusion_lat": 0.0}, {"fusion_lon": 0.0, "bike_id": "ff8471c3e799dfa940713ce080069e31", "name": "ff8471c3e799dfa940713ce080069e31", "type": "electric_scooter", "lon": -77.04664016666666, "rental_uris": {"android": "https://dc.lft.to/lastmile_qr_scan", "ios": "https://dc.lft.to/lastmile_qr_scan"}, "lat": 38.91320066666667, "is_reserved": 0, "is_disabled": 0, "fusion_lat": 0.0}, {"fusion_lon": 0.0, "bike_id": "3271b7af9406fb571ebf38139f3f95f3", "name": "3271b7af9406fb571ebf38139f3f95f3", "type": "electric_scooter", "lon": -77.04382916666667, "rental_uris": {"android": "https://dc.lft.to/lastmile_qr_scan", "ios": "https://dc.lft.to/lastmile_qr_scan"}, "lat": 38.9257115, "is_reserved": 0, "is_disabled": 0, "fusion_lat": 0.0}, {"fusion_lon": 0.0, "bike_id": "afca3bbfafb45a4a5402ce872ab5a0e3", "name": "afca3bbfafb45a4a5402ce872ab5a0e3", "type": "electric_scooter", "lon": -76.9575455, "rental_uris": {"android": "https://dc.lft.to/lastmile_qr_scan", "ios": "https://dc.lft.to/lastmile_qr_scan"}, "lat": 38.88428416666667, "is_reserved": 0, "is_disabled": 0, "fusion_lat": 0.0}, {"fusion_lon": 0.0, "bike_id": "25fc4d421a2a741eed23feb372b1957e", "name": "25fc4d421a2a741eed23feb372b1957e", "type": "electric_bike", "lon": -76.98093966666667, "rental_uris": {"android": "https://dc.lft.to/lastmile_qr_scan", "ios": "https://dc.lft.to/lastmile_qr_scan"}, "lat": 38.953593, "is_reserved": 0, "is_disabled": 0, "fusion_lat": 0.0}, {"fusion_lon": 0.0, "bike_id": "6d5810d087233d0692c7fab74a97445e", "name": "6d5810d087233d0692c7fab74a97445e", "type": "electric_scooter", "lon": -77.03661283333334, "rental_uris": {"android": "https://dc.lft.to/lastmile_qr_scan", "ios": "https://dc.lft.to/lastmile_qr_scan"}, "lat": 38.922843666666665, "is_reserved": 0, "is_disabled": 0, "fusion_lat": 0.0}, {"fusion_lon": 0.0, "bike_id": "03245f30fddfd210ab43d1251952b7c5", "name": "03245f30fddfd210ab43d1251952b7c5", "type": "electric_scooter", "lon": -77.02040766666667, "rental_uris": {"android": "https://dc.lft.to/lastmile_qr_scan", "ios": "https://dc.lft.to/lastmile_qr_scan"}, "lat": 38.9110915, "is_reserved": 0, "is_disabled": 0, "fusion_lat": 0.0}, {"fusion_lon": 0.0, "bike_id": "fac162ce37bba0116d71b9f7cfe05f46", "name": "fac162ce37bba0116d71b9f7cfe05f46", "type": "electric_scooter", "lon": -76.987048, "rental_uris": {"android": "https://dc.lft.to/lastmile_qr_scan", "ios": "https://dc.lft.to/lastmile_qr_scan"}, "lat": 38.9012415, "is_reserved": 0, "is_disabled": 0, "fusion_lat": 0.0}, {"fusion_lon": 0.0, "bike_id": "a27aaa43a2d46a1c447cbfb10642f6d0", "name": "a27aaa43a2d46a1c447cbfb10642f6d0", "type": "electric_scooter", "lon": -77.00201066666666, "rental_uris": {"android": "https://dc.lft.to/lastmile_qr_scan", "ios": "https://dc.lft.to/lastmile_qr_scan"}, "lat": 38.902370833333336, "is_reserved": 0, "is_disabled": 0, "fusion_lat": 0.0}, {"fusion_lon": 0.0, "bike_id": "12bf64fcdc7386d3b6d653b8ea7c8eca", "name": "12bf64fcdc7386d3b6d653b8ea7c8eca", "type": "electric_scooter", "lon": -77.011656, "rental_uris": {"android": "https://dc.lft.to/lastmile_qr_scan", "ios": "https://dc.lft.to/lastmile_qr_scan"}, "lat": 38.871994666666666, "is_reserved": 0, "is_disabled": 0, "fusion_lat": 0.0}, {"fusion_lon": 0.0, "bike_id": "025a2d841620d34268d99591c0c4235d", "name": "025a2d841620d34268d99591c0c4235d", "type": "electric_scooter", "lon": -77.036462, "rental_uris": {"android": "https://dc.lft.to/lastmile_qr_scan", "ios": "https://dc.lft.to/lastmile_qr_scan"}, "lat": 38.92413066666667, "is_reserved": 0, "is_disabled": 0, "fusion_lat": 0.0}, {"fusion_lon": 0.0, "bike_id": "2a88cb1f54797187bf4ef38bdaa5267e", "name": "2a88cb1f54797187bf4ef38bdaa5267e", "type": "electric_scooter", "lon": -77.01386383333333, "rental_uris": {"android": "https://dc.lft.to/lastmile_qr_scan", "ios": "https://dc.lft.to/lastmile_qr_scan"}, "lat": 38.92835816666667, "is_reserved": 0, "is_disabled": 0, "fusion_lat": 0.0}, {"fusion_lon": 0.0, "bike_id": "b28d36e91f70bf984d09f7ebbdd6f36b", "name": "b28d36e91f70bf984d09f7ebbdd6f36b", "type": "electric_scooter", "lon": -77.05193533333333, "rental_uris": {"android": "https://dc.lft.to/lastmile_qr_scan", "ios": "https://dc.lft.to/lastmile_qr_scan"}, "lat": 38.92545233333333, "is_reserved": 0, "is_disabled": 0, "fusion_lat": 0.0}, {"fusion_lon": 0.0, "bike_id": "e9d98229302a829ce78260303305242c", "name": "e9d98229302a829ce78260303305242c", "type": "electric_scooter", "lon": -76.99820283333334, "rental_uris": {"android": "https://dc.lft.to/lastmile_qr_scan", "ios": "https://dc.lft.to/lastmile_qr_scan"}, "lat": 38.84435883333333, "is_reserved": 0, "is_disabled": 0, "fusion_lat": 0.0}, {"fusion_lon": 0.0, "bike_id": "f2ed27be426975053c48ffe9a08b1e9a", "name": "f2ed27be426975053c48ffe9a08b1e9a", "type": "electric_bike", "lon": -76.96687583333333, "rental_uris": {"android": "https://dc.lft.to/lastmile_qr_scan", "ios": "https://dc.lft.to/lastmile_qr_scan"}, "lat": 38.95890166666667, "is_reserved": 0, "is_disabled": 0, "fusion_lat": 0.0}, {"fusion_lon": 0.0, "bike_id": "5f16ddf1cb4dc1f14cfcf9470655b9b5", "name": "5f16ddf1cb4dc1f14cfcf9470655b9b5", "type": "electric_bike", "lon": -77.12627016666667, "rental_uris": {"android": "https://dc.lft.to/lastmile_qr_scan", "ios": "https://dc.lft.to/lastmile_qr_scan"}, "lat": 39.058121166666666, "is_reserved": 0, "is_disabled": 0, "fusion_lat": 0.0}, {"fusion_lon": 0.0, "bike_id": "41b42f38afccda060262dff6611b93b3", "name": "41b42f38afccda060262dff6611b93b3", "type": "electric_scooter", "lon": -77.02715283333333, "rental_uris": {"android": "https://dc.lft.to/lastmile_qr_scan", "ios": "https://dc.lft.to/lastmile_qr_scan"}, "lat": 38.88131583333333, "is_reserved": 0, "is_disabled": 0, "fusion_lat": 0.0}, {"fusion_lon": 0.0, "bike_id": "50bf7f1f9c56f4d6fe1a0cb7f0c70074", "name": "50bf7f1f9c56f4d6fe1a0cb7f0c70074", "type": "electric_scooter", "lon": -77.0238505, "rental_uris": {"android": "https://dc.lft.to/lastmile_qr_scan", "ios": "https://dc.lft.to/lastmile_qr_scan"}, "lat": 38.905874833333336, "is_reserved": 0, "is_disabled": 0, "fusion_lat": 0.0}, {"fusion_lon": 0.0, "bike_id": "e577b6cb3faea0b14ab297e9c2b6c11e", "name": "e577b6cb3faea0b14ab297e9c2b6c11e", "type": "electric_scooter", "lon": -77.033476, "rental_uris": {"android": "https://dc.lft.to/lastmile_qr_scan", "ios": "https://dc.lft.to/lastmile_qr_scan"}, "lat": 38.922329833333336, "is_reserved": 0, "is_disabled": 0, "fusion_lat": 0.0}, {"fusion_lon": 0.0, "bike_id": "4e60bbb947e422c8d7eac49c3b149eda", "name": "4e60bbb947e422c8d7eac49c3b149eda", "type": "electric_scooter", "lon": -77.03853883333333, "rental_uris": {"android": "https://dc.lft.to/lastmile_qr_scan", "ios": "https://dc.lft.to/lastmile_qr_scan"}, "lat": 38.91073816666667, "is_reserved": 0, "is_disabled": 0, "fusion_lat": 0.0}, {"fusion_lon": 0.0, "bike_id": "92b89bf572a7a7d0a9bce9f3189daf7e", "name": "92b89bf572a7a7d0a9bce9f3189daf7e", "type": "electric_scooter", "lon": -77.04178983333334, "rental_uris": {"android": "https://dc.lft.to/lastmile_qr_scan", "ios": "https://dc.lft.to/lastmile_qr_scan"}, "lat": 38.909278, "is_reserved": 0, "is_disabled": 0, "fusion_lat": 0.0}, {"fusion_lon": 0.0, "bike_id": "b71d936107dd7af75a69131824a264c3", "name": "b71d936107dd7af75a69131824a264c3", "type": "electric_scooter", "lon": -77.0237565, "rental_uris": {"android": "https://dc.lft.to/lastmile_qr_scan", "ios": "https://dc.lft.to/lastmile_qr_scan"}, "lat": 38.90731233333333, "is_reserved": 0, "is_disabled": 0, "fusion_lat": 0.0}, {"fusion_lon": 0.0, "bike_id": "93fc2d1ea1b6289d18a8bf6847957f7f", "name": "93fc2d1ea1b6289d18a8bf6847957f7f", "type": "electric_scooter", "lon": -77.00757833333333, "rental_uris": {"android": "https://dc.lft.to/lastmile_qr_scan", "ios": "https://dc.lft.to/lastmile_qr_scan"}, "lat": 38.91547416666667, "is_reserved": 0, "is_disabled": 0, "fusion_lat": 0.0}, {"fusion_lon": 0.0, "bike_id": "e5be28b1f2b35d81e8b29583188bbcf9", "name": "e5be28b1f2b35d81e8b29583188bbcf9", "type": "electric_scooter", "lon": -76.98859816666666, "rental_uris": {"android": "https://dc.lft.to/lastmile_qr_scan", "ios": "https://dc.lft.to/lastmile_qr_scan"}, "lat": 38.90702866666667, "is_reserved": 0, "is_disabled": 0, "fusion_lat": 0.0}, {"fusion_lon": 0.0, "bike_id": "ea0dc549b916abac97fa56d007d6e3c7", "name": "ea0dc549b916abac97fa56d007d6e3c7", "type": "electric_scooter", "lon": -76.9982005, "rental_uris": {"android": "https://dc.lft.to/lastmile_qr_scan", "ios": "https://dc.lft.to/lastmile_qr_scan"}, "lat": 38.84433816666667, "is_reserved": 0, "is_disabled": 0, "fusion_lat": 0.0}, {"fusion_lon": 0.0, "bike_id": "d4b2fc702acdb5275aaeb17675401a7e", "name": "d4b2fc702acdb5275aaeb17675401a7e", "type": "electric_scooter", "lon": -77.0296285, "rental_uris": {"android": "https://dc.lft.to/lastmile_qr_scan", "ios": "https://dc.lft.to/lastmile_qr_scan"}, "lat": 38.8922415, "is_reserved": 0, "is_disabled": 0, "fusion_lat": 0.0}, {"fusion_lon": 0.0, "bike_id": "a455799aeedccb379f5be87b755a98d6", "name": "a455799aeedccb379f5be87b755a98d6", "type": "electric_scooter", "lon": -77.03188916666667, "rental_uris": {"android": "https://dc.lft.to/lastmile_qr_scan", "ios": "https://dc.lft.to/lastmile_qr_scan"}, "lat": 38.91916466666667, "is_reserved": 0, "is_disabled": 0, "fusion_lat": 0.0}, {"fusion_lon": 0.0, "bike_id": "fc18b96db2064ae98b62f50de4f00e81", "name": "fc18b96db2064ae98b62f50de4f00e81", "type": "electric_scooter", "lon": -77.02772716666666, "rental_uris": {"android": "https://dc.lft.to/lastmile_qr_scan", "ios": "https://dc.lft.to/lastmile_qr_scan"}, "lat": 38.88156933333333, "is_reserved": 0, "is_disabled": 0, "fusion_lat": 0.0}, {"fusion_lon": 0.0, "bike_id": "564685b0c7e58bdbf0d1aea5668023a0", "name": "564685b0c7e58bdbf0d1aea5668023a0", "type": "electric_scooter", "lon": -77.028043, "rental_uris": {"android": "https://dc.lft.to/lastmile_qr_scan", "ios": "https://dc.lft.to/lastmile_qr_scan"}, "lat": 38.90620233333333, "is_reserved": 0, "is_disabled": 0, "fusion_lat": 0.0}, {"fusion_lon": 0.0, "bike_id": "6909a134417ec64f11b7ff1bb85adc34", "name": "6909a134417ec64f11b7ff1bb85adc34", "type": "electric_scooter", "lon": -77.01608183333333, "rental_uris": {"android": "https://dc.lft.to/lastmile_qr_scan", "ios": "https://dc.lft.to/lastmile_qr_scan"}, "lat": 38.90106633333333, "is_reserved": 0, "is_disabled": 0, "fusion_lat": 0.0}, {"fusion_lon": 0.0, "bike_id": "bff01ec2ad9ba7e2fe05cbd0e4496248", "name": "bff01ec2ad9ba7e2fe05cbd0e4496248", "type": "electric_bike", "lon": -77.02658283333334, "rental_uris": {"android": "https://dc.lft.to/lastmile_qr_scan", "ios": "https://dc.lft.to/lastmile_qr_scan"}, "lat": 38.98809333333333, "is_reserved": 0, "is_disabled": 0, "fusion_lat": 0.0}, {"fusion_lon": 0.0, "bike_id": "6e6f9ca4664d9929a62e9cba3714bc83", "name": "6e6f9ca4664d9929a62e9cba3714bc83", "type": "electric_scooter", "lon": -77.03939733333333, "rental_uris": {"android": "https://dc.lft.to/lastmile_qr_scan", "ios": "https://dc.lft.to/lastmile_qr_scan"}, "lat": 38.924931, "is_reserved": 0, "is_disabled": 0, "fusion_lat": 0.0}, {"fusion_lon": 0.0, "bike_id": "28af88e3aed1022777f5564e20fb5fd4", "name": "28af88e3aed1022777f5564e20fb5fd4", "type": "electric_bike", "lon": -77.131784, "rental_uris": {"android": "https://dc.lft.to/lastmile_qr_scan", "ios": "https://dc.lft.to/lastmile_qr_scan"}, "lat": 38.869081333333334, "is_reserved": 0, "is_disabled": 0, "fusion_lat": 0.0}, {"fusion_lon": 0.0, "bike_id": "863c9a18ca658b3982add9b81c095baf", "name": "863c9a18ca658b3982add9b81c095baf", "type": "electric_scooter", "lon": -77.01761766666667, "rental_uris": {"android": "https://dc.lft.to/lastmile_qr_scan", "ios": "https://dc.lft.to/lastmile_qr_scan"}, "lat": 38.902640166666664, "is_reserved": 0, "is_disabled": 0, "fusion_lat": 0.0}, {"fusion_lon": 0.0, "bike_id": "d905c2a86d94e4c0d492a9076fadc898", "name": "d905c2a86d94e4c0d492a9076fadc898", "type": "electric_scooter", "lon": -77.03066883333334, "rental_uris": {"android": "https://dc.lft.to/lastmile_qr_scan", "ios": "https://dc.lft.to/lastmile_qr_scan"}, "lat": 38.88044266666667, "is_reserved": 0, "is_disabled": 0, "fusion_lat": 0.0}, {"fusion_lon": 0.0, "bike_id": "23cb7f8ab592a89f51547aa98bffc725", "name": "23cb7f8ab592a89f51547aa98bffc725", "type": "electric_scooter", "lon": -77.03284366666666, "rental_uris": {"android": "https://dc.lft.to/lastmile_qr_scan", "ios": "https://dc.lft.to/lastmile_qr_scan"}, "lat": 38.9387975, "is_reserved": 0, "is_disabled": 0, "fusion_lat": 0.0}, {"fusion_lon": 0.0, "bike_id": "277f86a168bc03a3af16f39871cb17b2", "name": "277f86a168bc03a3af16f39871cb17b2", "type": "electric_scooter", "lon": -77.03386083333334, "rental_uris": {"android": "https://dc.lft.to/lastmile_qr_scan", "ios": "https://dc.lft.to/lastmile_qr_scan"}, "lat": 38.92539266666667, "is_reserved": 0, "is_disabled": 0, "fusion_lat": 0.0}, {"fusion_lon": 0.0, "bike_id": "8467fae17fc7600845eb02b727a145a2", "name": "8467fae17fc7600845eb02b727a145a2", "type": "electric_scooter", "lon": -76.9847235, "rental_uris": {"android": "https://dc.lft.to/lastmile_qr_scan", "ios": "https://dc.lft.to/lastmile_qr_scan"}, "lat": 38.9289335, "is_reserved": 0, "is_disabled": 0, "fusion_lat": 0.0}, {"fusion_lon": 0.0, "bike_id": "35d86d9b41bce7f1597ebb628cef0e71", "name": "35d86d9b41bce7f1597ebb628cef0e71", "type": "electric_bike", "lon": -77.01947083333333, "rental_uris": {"android": "https://dc.lft.to/lastmile_qr_scan", "ios": "https://dc.lft.to/lastmile_qr_scan"}, "lat": 38.883170166666666, "is_reserved": 0, "is_disabled": 0, "fusion_lat": 0.0}, {"fusion_lon": 0.0, "bike_id": "767271461a6cc185decae1d867fb4c55", "name": "767271461a6cc185decae1d867fb4c55", "type": "electric_scooter", "lon": -77.037713, "rental_uris": {"android": "https://dc.lft.to/lastmile_qr_scan", "ios": "https://dc.lft.to/lastmile_qr_scan"}, "lat": 38.924756333333335, "is_reserved": 0, "is_disabled": 0, "fusion_lat": 0.0}, {"fusion_lon": 0.0, "bike_id": "1dd93f0a24e27e975e4bbadede65346e", "name": "1dd93f0a24e27e975e4bbadede65346e", "type": "electric_scooter", "lon": -77.01191533333333, "rental_uris": {"android": "https://dc.lft.to/lastmile_qr_scan", "ios": "https://dc.lft.to/lastmile_qr_scan"}, "lat": 38.87152783333333, "is_reserved": 0, "is_disabled": 0, "fusion_lat": 0.0}, {"fusion_lon": 0.0, "bike_id": "c175e1bd23a9f7724ddfad55c2000d96", "name": "c175e1bd23a9f7724ddfad55c2000d96", "type": "electric_scooter", "lon": -77.029623, "rental_uris": {"android": "https://dc.lft.to/lastmile_qr_scan", "ios": "https://dc.lft.to/lastmile_qr_scan"}, "lat": 38.922681, "is_reserved": 0, "is_disabled": 0, "fusion_lat": 0.0}, {"fusion_lon": 0.0, "bike_id": "af6921660cfe39dffbe3271eac89d565", "name": "af6921660cfe39dffbe3271eac89d565", "type": "electric_scooter", "lon": -76.9295585, "rental_uris": {"android": "https://dc.lft.to/lastmile_qr_scan", "ios": "https://dc.lft.to/lastmile_qr_scan"}, "lat": 38.89878733333333, "is_reserved": 0, "is_disabled": 0, "fusion_lat": 0.0}, {"fusion_lon": 0.0, "bike_id": "3dd26a6366d9705e479214a4a88d6ad9", "name": "3dd26a6366d9705e479214a4a88d6ad9", "type": "electric_scooter", "lon": -77.0387675, "rental_uris": {"android": "https://dc.lft.to/lastmile_qr_scan", "ios": "https://dc.lft.to/lastmile_qr_scan"}, "lat": 38.919811833333334, "is_reserved": 0, "is_disabled": 0, "fusion_lat": 0.0}, {"fusion_lon": 0.0, "bike_id": "7e052cd03953de8e152130245e798ce8", "name": "7e052cd03953de8e152130245e798ce8", "type": "electric_bike", "lon": -76.99763, "rental_uris": {"android": "https://dc.lft.to/lastmile_qr_scan", "ios": "https://dc.lft.to/lastmile_qr_scan"}, "lat": 39.00592266666666, "is_reserved": 0, "is_disabled": 0, "fusion_lat": 0.0}, {"fusion_lon": 0.0, "bike_id": "2770e9cabc7c177f6451b4c6774ce290", "name": "2770e9cabc7c177f6451b4c6774ce290", "type": "electric_scooter", "lon": -77.04667566666667, "rental_uris": {"android": "https://dc.lft.to/lastmile_qr_scan", "ios": "https://dc.lft.to/lastmile_qr_scan"}, "lat": 38.903258666666666, "is_reserved": 0, "is_disabled": 0, "fusion_lat": 0.0}, {"fusion_lon": 0.0, "bike_id": "01d08c166fcb8e7dd8b1f7d6dd60c627", "name": "01d08c166fcb8e7dd8b1f7d6dd60c627", "type": "electric_scooter", "lon": -77.04169933333333, "rental_uris": {"android": "https://dc.lft.to/lastmile_qr_scan", "ios": "https://dc.lft.to/lastmile_qr_scan"}, "lat": 38.91574966666667, "is_reserved": 0, "is_disabled": 0, "fusion_lat": 0.0}, {"fusion_lon": 0.0, "bike_id": "ccd0d2c9e968c80a94b068f14d3346e2", "name": "ccd0d2c9e968c80a94b068f14d3346e2", "type": "electric_scooter", "lon": -77.02373733333333, "rental_uris": {"android": "https://dc.lft.to/lastmile_qr_scan", "ios": "https://dc.lft.to/lastmile_qr_scan"}, "lat": 38.9073465, "is_reserved": 0, "is_disabled": 0, "fusion_lat": 0.0}, {"fusion_lon": 0.0, "bike_id": "36fe41efe9a89dfff1bc821bbb43845b", "name": "36fe41efe9a89dfff1bc821bbb43845b", "type": "electric_scooter", "lon": -76.99163366666667, "rental_uris": {"android": "https://dc.lft.to/lastmile_qr_scan", "ios": "https://dc.lft.to/lastmile_qr_scan"}, "lat": 38.87903716666667, "is_reserved": 0, "is_disabled": 0, "fusion_lat": 0.0}, {"fusion_lon": 0.0, "bike_id": "d6e743ddbca21a2f605930e1690982e4", "name": "d6e743ddbca21a2f605930e1690982e4", "type": "electric_scooter", "lon": -77.034184, "rental_uris": {"android": "https://dc.lft.to/lastmile_qr_scan", "ios": "https://dc.lft.to/lastmile_qr_scan"}, "lat": 38.929404166666664, "is_reserved": 0, "is_disabled": 0, "fusion_lat": 0.0}, {"fusion_lon": 0.0, "bike_id": "a5e219d9f6eac72e83d19b7ee2444f53", "name": "a5e219d9f6eac72e83d19b7ee2444f53", "type": "electric_scooter", "lon": -77.036541, "rental_uris": {"android": "https://dc.lft.to/lastmile_qr_scan", "ios": "https://dc.lft.to/lastmile_qr_scan"}, "lat": 38.93625983333333, "is_reserved": 0, "is_disabled": 0, "fusion_lat": 0.0}, {"fusion_lon": 0.0, "bike_id": "ba3690bb28719ec827338bdfd5b94431", "name": "ba3690bb28719ec827338bdfd5b94431", "type": "electric_scooter", "lon": -76.94247883333334, "rental_uris": {"android": "https://dc.lft.to/lastmile_qr_scan", "ios": "https://dc.lft.to/lastmile_qr_scan"}, "lat": 38.889941, "is_reserved": 0, "is_disabled": 0, "fusion_lat": 0.0}, {"fusion_lon": 0.0, "bike_id": "4e076dfe4150336f7fecf2baea08dbec", "name": "4e076dfe4150336f7fecf2baea08dbec", "type": "electric_scooter", "lon": -77.06261533333333, "rental_uris": {"android": "https://dc.lft.to/lastmile_qr_scan", "ios": "https://dc.lft.to/lastmile_qr_scan"}, "lat": 38.90528283333333, "is_reserved": 0, "is_disabled": 0, "fusion_lat": 0.0}, {"fusion_lon": 0.0, "bike_id": "d8df4c6deac5e86a72f559b2b091f958", "name": "d8df4c6deac5e86a72f559b2b091f958", "type": "electric_scooter", "lon": -77.0385145, "rental_uris": {"android": "https://dc.lft.to/lastmile_qr_scan", "ios": "https://dc.lft.to/lastmile_qr_scan"}, "lat": 38.912886666666665, "is_reserved": 0, "is_disabled": 0, "fusion_lat": 0.0}, {"fusion_lon": 0.0, "bike_id": "2dc30db0c761577dc5ee6a88e2dedf4d", "name": "2dc30db0c761577dc5ee6a88e2dedf4d", "type": "electric_scooter", "lon": -77.04168616666666, "rental_uris": {"android": "https://dc.lft.to/lastmile_qr_scan", "ios": "https://dc.lft.to/lastmile_qr_scan"}, "lat": 38.913414, "is_reserved": 0, "is_disabled": 0, "fusion_lat": 0.0}, {"fusion_lon": 0.0, "bike_id": "bc0ee73469e1c275141db53006aa0348", "name": "bc0ee73469e1c275141db53006aa0348", "type": "electric_scooter", "lon": -77.032067, "rental_uris": {"android": "https://dc.lft.to/lastmile_qr_scan", "ios": "https://dc.lft.to/lastmile_qr_scan"}, "lat": 38.8873685, "is_reserved": 0, "is_disabled": 0, "fusion_lat": 0.0}, {"fusion_lon": 0.0, "bike_id": "3a4703cd734c35d3f1c0fb5eeb8f31a2", "name": "3a4703cd734c35d3f1c0fb5eeb8f31a2", "type": "electric_bike", "lon": -76.90970333333334, "rental_uris": {"android": "https://dc.lft.to/lastmile_qr_scan", "ios": "https://dc.lft.to/lastmile_qr_scan"}, "lat": 38.85428666666667, "is_reserved": 0, "is_disabled": 0, "fusion_lat": 0.0}, {"fusion_lon": 0.0, "bike_id": "ec4199b45e59ee1f8125029b89b6043a", "name": "ec4199b45e59ee1f8125029b89b6043a", "type": "electric_scooter", "lon": -77.03064116666667, "rental_uris": {"android": "https://dc.lft.to/lastmile_qr_scan", "ios": "https://dc.lft.to/lastmile_qr_scan"}, "lat": 38.901248, "is_reserved": 0, "is_disabled": 0, "fusion_lat": 0.0}, {"fusion_lon": 0.0, "bike_id": "1815e5bf01adf0c9047c69fb658eded0", "name": "1815e5bf01adf0c9047c69fb658eded0", "type": "electric_scooter", "lon": -77.06100183333334, "rental_uris": {"android": "https://dc.lft.to/lastmile_qr_scan", "ios": "https://dc.lft.to/lastmile_qr_scan"}, "lat": 38.9436795, "is_reserved": 0, "is_disabled": 0, "fusion_lat": 0.0}, {"fusion_lon": 0.0, "bike_id": "e3696a1c98405262d372a9736b80339b", "name": "e3696a1c98405262d372a9736b80339b", "type": "electric_scooter", "lon": -77.00958316666667, "rental_uris": {"android": "https://dc.lft.to/lastmile_qr_scan", "ios": "https://dc.lft.to/lastmile_qr_scan"}, "lat": 38.876631333333336, "is_reserved": 0, "is_disabled": 0, "fusion_lat": 0.0}, {"fusion_lon": 0.0, "bike_id": "37d0bdd38ec09b603f0bc11f228b1340", "name": "37d0bdd38ec09b603f0bc11f228b1340", "type": "electric_scooter", "lon": -77.01393283333333, "rental_uris": {"android": "https://dc.lft.to/lastmile_qr_scan", "ios": "https://dc.lft.to/lastmile_qr_scan"}, "lat": 38.928780833333334, "is_reserved": 0, "is_disabled": 0, "fusion_lat": 0.0}, {"fusion_lon": 0.0, "bike_id": "ce828a66ed47a3778dd18ea11f955358", "name": "ce828a66ed47a3778dd18ea11f955358", "type": "electric_scooter", "lon": -77.03791383333333, "rental_uris": {"android": "https://dc.lft.to/lastmile_qr_scan", "ios": "https://dc.lft.to/lastmile_qr_scan"}, "lat": 38.936096666666664, "is_reserved": 0, "is_disabled": 0, "fusion_lat": 0.0}, {"fusion_lon": 0.0, "bike_id": "db47b8d6e8921b3a86e215475f877028", "name": "db47b8d6e8921b3a86e215475f877028", "type": "electric_scooter", "lon": -77.00344566666666, "rental_uris": {"android": "https://dc.lft.to/lastmile_qr_scan", "ios": "https://dc.lft.to/lastmile_qr_scan"}, "lat": 38.922686666666664, "is_reserved": 0, "is_disabled": 0, "fusion_lat": 0.0}, {"fusion_lon": 0.0, "bike_id": "7f33033813a6829d6e27a04464527b08", "name": "7f33033813a6829d6e27a04464527b08", "type": "electric_scooter", "lon": -77.05138933333333, "rental_uris": {"android": "https://dc.lft.to/lastmile_qr_scan", "ios": "https://dc.lft.to/lastmile_qr_scan"}, "lat": 38.907117166666666, "is_reserved": 0, "is_disabled": 0, "fusion_lat": 0.0}, {"fusion_lon": 0.0, "bike_id": "3b4110e05bb78766611c32fff63752ea", "name": "3b4110e05bb78766611c32fff63752ea", "type": "electric_scooter", "lon": -77.02583616666666, "rental_uris": {"android": "https://dc.lft.to/lastmile_qr_scan", "ios": "https://dc.lft.to/lastmile_qr_scan"}, "lat": 38.92792266666667, "is_reserved": 0, "is_disabled": 0, "fusion_lat": 0.0}, {"fusion_lon": 0.0, "bike_id": "fc29b6b40b94380023160c35bfd1f718", "name": "fc29b6b40b94380023160c35bfd1f718", "type": "electric_scooter", "lon": -77.009233, "rental_uris": {"android": "https://dc.lft.to/lastmile_qr_scan", "ios": "https://dc.lft.to/lastmile_qr_scan"}, "lat": 38.89648183333333, "is_reserved": 0, "is_disabled": 0, "fusion_lat": 0.0}, {"fusion_lon": 0.0, "bike_id": "242317643a633bbe30ca46b94086ed17", "name": "242317643a633bbe30ca46b94086ed17", "type": "electric_scooter", "lon": -76.990189, "rental_uris": {"android": "https://dc.lft.to/lastmile_qr_scan", "ios": "https://dc.lft.to/lastmile_qr_scan"}, "lat": 38.85866, "is_reserved": 0, "is_disabled": 0, "fusion_lat": 0.0}, {"fusion_lon": 0.0, "bike_id": "57060a0ddff1742c707574512c2bc448", "name": "57060a0ddff1742c707574512c2bc448", "type": "electric_scooter", "lon": -77.03283566666667, "rental_uris": {"android": "https://dc.lft.to/lastmile_qr_scan", "ios": "https://dc.lft.to/lastmile_qr_scan"}, "lat": 38.93250166666667, "is_reserved": 0, "is_disabled": 0, "fusion_lat": 0.0}, {"fusion_lon": 0.0, "bike_id": "b394ead81e049c037d51640229dfb679", "name": "b394ead81e049c037d51640229dfb679", "type": "electric_bike", "lon": -77.18293816666667, "rental_uris": {"android": "https://dc.lft.to/lastmile_qr_scan", "ios": "https://dc.lft.to/lastmile_qr_scan"}, "lat": 38.88340383333333, "is_reserved": 0, "is_disabled": 0, "fusion_lat": 0.0}, {"fusion_lon": 0.0, "bike_id": "ea07c43695b6876f29ccf28704b7b02e", "name": "ea07c43695b6876f29ccf28704b7b02e", "type": "electric_scooter", "lon": -77.0400295, "rental_uris": {"android": "https://dc.lft.to/lastmile_qr_scan", "ios": "https://dc.lft.to/lastmile_qr_scan"}, "lat": 38.90360583333333, "is_reserved": 0, "is_disabled": 0, "fusion_lat": 0.0}, {"fusion_lon": 0.0, "bike_id": "9f480205d272b45e9d3816dc47572604", "name": "9f480205d272b45e9d3816dc47572604", "type": "electric_scooter", "lon": -77.02474316666667, "rental_uris": {"android": "https://dc.lft.to/lastmile_qr_scan", "ios": "https://dc.lft.to/lastmile_qr_scan"}, "lat": 38.939048, "is_reserved": 0, "is_disabled": 0, "fusion_lat": 0.0}, {"fusion_lon": 0.0, "bike_id": "9e932e173fc0841099c8925ef1970fd8", "name": "9e932e173fc0841099c8925ef1970fd8", "type": "electric_scooter", "lon": -77.02784233333334, "rental_uris": {"android": "https://dc.lft.to/lastmile_qr_scan", "ios": "https://dc.lft.to/lastmile_qr_scan"}, "lat": 38.89224433333333, "is_reserved": 0, "is_disabled": 0, "fusion_lat": 0.0}, {"fusion_lon": 0.0, "bike_id": "afda6fe3c4abb3c72800a3eb932eb0db", "name": "afda6fe3c4abb3c72800a3eb932eb0db", "type": "electric_scooter", "lon": -77.04815616666667, "rental_uris": {"android": "https://dc.lft.to/lastmile_qr_scan", "ios": "https://dc.lft.to/lastmile_qr_scan"}, "lat": 38.9203225, "is_reserved": 0, "is_disabled": 0, "fusion_lat": 0.0}, {"fusion_lon": 0.0, "bike_id": "49102a35297c60a18dfe0204df7ac172", "name": "49102a35297c60a18dfe0204df7ac172", "type": "electric_scooter", "lon": -77.04876816666666, "rental_uris": {"android": "https://dc.lft.to/lastmile_qr_scan", "ios": "https://dc.lft.to/lastmile_qr_scan"}, "lat": 38.89225616666667, "is_reserved": 0, "is_disabled": 0, "fusion_lat": 0.0}, {"fusion_lon": 0.0, "bike_id": "73bdf04149d24b0b3343a8d7f878f2f5", "name": "73bdf04149d24b0b3343a8d7f878f2f5", "type": "electric_scooter", "lon": -77.03273716666666, "rental_uris": {"android": "https://dc.lft.to/lastmile_qr_scan", "ios": "https://dc.lft.to/lastmile_qr_scan"}, "lat": 38.928844166666664, "is_reserved": 0, "is_disabled": 0, "fusion_lat": 0.0}, {"fusion_lon": 0.0, "bike_id": "c19697f52bd63c7684441babae031058", "name": "c19697f52bd63c7684441babae031058", "type": "electric_scooter", "lon": -77.0222375, "rental_uris": {"android": "https://dc.lft.to/lastmile_qr_scan", "ios": "https://dc.lft.to/lastmile_qr_scan"}, "lat": 38.89222066666667, "is_reserved": 0, "is_disabled": 0, "fusion_lat": 0.0}, {"fusion_lon": 0.0, "bike_id": "7779ec64101de12446445c819ffde216", "name": "7779ec64101de12446445c819ffde216", "type": "electric_scooter", "lon": -76.9809435, "rental_uris": {"android": "https://dc.lft.to/lastmile_qr_scan", "ios": "https://dc.lft.to/lastmile_qr_scan"}, "lat": 38.85717133333333, "is_reserved": 0, "is_disabled": 0, "fusion_lat": 0.0}, {"fusion_lon": 0.0, "bike_id": "e8986c9991d1a1b69ba1060ecfd67599", "name": "e8986c9991d1a1b69ba1060ecfd67599", "type": "electric_scooter", "lon": -77.01704783333334, "rental_uris": {"android": "https://dc.lft.to/lastmile_qr_scan", "ios": "https://dc.lft.to/lastmile_qr_scan"}, "lat": 38.907282333333335, "is_reserved": 0, "is_disabled": 0, "fusion_lat": 0.0}, {"fusion_lon": 0.0, "bike_id": "c3fe768cb0ce1426429ea9615ba54947", "name": "c3fe768cb0ce1426429ea9615ba54947", "type": "electric_scooter", "lon": -77.05930366666666, "rental_uris": {"android": "https://dc.lft.to/lastmile_qr_scan", "ios": "https://dc.lft.to/lastmile_qr_scan"}, "lat": 38.93667583333333, "is_reserved": 0, "is_disabled": 0, "fusion_lat": 0.0}, {"fusion_lon": 0.0, "bike_id": "a7e865938e5e2b025fe96938a79c8834", "name": "a7e865938e5e2b025fe96938a79c8834", "type": "electric_scooter", "lon": -77.0321475, "rental_uris": {"android": "https://dc.lft.to/lastmile_qr_scan", "ios": "https://dc.lft.to/lastmile_qr_scan"}, "lat": 38.8922005, "is_reserved": 0, "is_disabled": 0, "fusion_lat": 0.0}, {"fusion_lon": 0.0, "bike_id": "2275464f9b85c73edb4685ae9cc36231", "name": "2275464f9b85c73edb4685ae9cc36231", "type": "electric_bike", "lon": -77.02790416666667, "rental_uris": {"android": "https://dc.lft.to/lastmile_qr_scan", "ios": "https://dc.lft.to/lastmile_qr_scan"}, "lat": 38.93947133333333, "is_reserved": 0, "is_disabled": 0, "fusion_lat": 0.0}, {"fusion_lon": 0.0, "bike_id": "7b460225e4e8b4987ef7f27109098469", "name": "7b460225e4e8b4987ef7f27109098469", "type": "electric_scooter", "lon": -77.023751, "rental_uris": {"android": "https://dc.lft.to/lastmile_qr_scan", "ios": "https://dc.lft.to/lastmile_qr_scan"}, "lat": 38.90732766666667, "is_reserved": 0, "is_disabled": 0, "fusion_lat": 0.0}, {"fusion_lon": 0.0, "bike_id": "3715677e2530dc8bee434a2ebaf721d6", "name": "3715677e2530dc8bee434a2ebaf721d6", "type": "electric_bike", "lon": -77.013804, "rental_uris": {"android": "https://dc.lft.to/lastmile_qr_scan", "ios": "https://dc.lft.to/lastmile_qr_scan"}, "lat": 38.942379833333334, "is_reserved": 0, "is_disabled": 0, "fusion_lat": 0.0}, {"fusion_lon": 0.0, "bike_id": "84c6fdcfc7d3fa0490f85a10f7fc28ed", "name": "84c6fdcfc7d3fa0490f85a10f7fc28ed", "type": "electric_bike", "lon": -76.95157783333333, "rental_uris": {"android": "https://dc.lft.to/lastmile_qr_scan", "ios": "https://dc.lft.to/lastmile_qr_scan"}, "lat": 38.8850405, "is_reserved": 0, "is_disabled": 0, "fusion_lat": 0.0}, {"fusion_lon": 0.0, "bike_id": "184b1936a38f32d0999104afc17fe315", "name": "184b1936a38f32d0999104afc17fe315", "type": "electric_scooter", "lon": -77.03288166666667, "rental_uris": {"android": "https://dc.lft.to/lastmile_qr_scan", "ios": "https://dc.lft.to/lastmile_qr_scan"}, "lat": 38.9387745, "is_reserved": 0, "is_disabled": 0, "fusion_lat": 0.0}, {"fusion_lon": 0.0, "bike_id": "d1c7b4e55bfb3664dc8087d15ab69777", "name": "d1c7b4e55bfb3664dc8087d15ab69777", "type": "electric_scooter", "lon": -77.03467283333333, "rental_uris": {"android": "https://dc.lft.to/lastmile_qr_scan", "ios": "https://dc.lft.to/lastmile_qr_scan"}, "lat": 38.92151833333333, "is_reserved": 0, "is_disabled": 0, "fusion_lat": 0.0}, {"fusion_lon": 0.0, "bike_id": "57759d6f6f4f8fc43471352148b7c119", "name": "57759d6f6f4f8fc43471352148b7c119", "type": "electric_scooter", "lon": -77.03770816666666, "rental_uris": {"android": "https://dc.lft.to/lastmile_qr_scan", "ios": "https://dc.lft.to/lastmile_qr_scan"}, "lat": 38.9168155, "is_reserved": 0, "is_disabled": 0, "fusion_lat": 0.0}, {"fusion_lon": 0.0, "bike_id": "9a9e164a740fa278942634db631744bb", "name": "9a9e164a740fa278942634db631744bb", "type": "electric_scooter", "lon": -77.02225716666666, "rental_uris": {"android": "https://dc.lft.to/lastmile_qr_scan", "ios": "https://dc.lft.to/lastmile_qr_scan"}, "lat": 38.907974333333335, "is_reserved": 0, "is_disabled": 0, "fusion_lat": 0.0}, {"fusion_lon": 0.0, "bike_id": "76f5f35c33778defd554ff882f0b3cf3", "name": "76f5f35c33778defd554ff882f0b3cf3", "type": "electric_scooter", "lon": -77.03737466666666, "rental_uris": {"android": "https://dc.lft.to/lastmile_qr_scan", "ios": "https://dc.lft.to/lastmile_qr_scan"}, "lat": 38.92854833333333, "is_reserved": 0, "is_disabled": 0, "fusion_lat": 0.0}, {"fusion_lon": 0.0, "bike_id": "b3b1f0e430d1ef6fab4e19351adf98dc", "name": "b3b1f0e430d1ef6fab4e19351adf98dc", "type": "electric_scooter", "lon": -76.99373733333333, "rental_uris": {"android": "https://dc.lft.to/lastmile_qr_scan", "ios": "https://dc.lft.to/lastmile_qr_scan"}, "lat": 38.92410916666667, "is_reserved": 0, "is_disabled": 0, "fusion_lat": 0.0}, {"fusion_lon": 0.0, "bike_id": "2e9d127e4b01cd7006d2c1ece3d9e98c", "name": "2e9d127e4b01cd7006d2c1ece3d9e98c", "type": "electric_scooter", "lon": -77.04422666666666, "rental_uris": {"android": "https://dc.lft.to/lastmile_qr_scan", "ios": "https://dc.lft.to/lastmile_qr_scan"}, "lat": 38.89404, "is_reserved": 0, "is_disabled": 0, "fusion_lat": 0.0}, {"fusion_lon": 0.0, "bike_id": "838bc53ed9f0cc7efda3c9314e336ce6", "name": "838bc53ed9f0cc7efda3c9314e336ce6", "type": "electric_scooter", "lon": -76.94634833333333, "rental_uris": {"android": "https://dc.lft.to/lastmile_qr_scan", "ios": "https://dc.lft.to/lastmile_qr_scan"}, "lat": 38.898416166666664, "is_reserved": 0, "is_disabled": 0, "fusion_lat": 0.0}, {"fusion_lon": 0.0, "bike_id": "01d9016108ea5e4e33ad5627aeae8d46", "name": "01d9016108ea5e4e33ad5627aeae8d46", "type": "electric_scooter", "lon": -77.0498235, "rental_uris": {"android": "https://dc.lft.to/lastmile_qr_scan", "ios": "https://dc.lft.to/lastmile_qr_scan"}, "lat": 38.896622, "is_reserved": 0, "is_disabled": 0, "fusion_lat": 0.0}, {"fusion_lon": 0.0, "bike_id": "3e81e120eeb794557735b3507501069d", "name": "3e81e120eeb794557735b3507501069d", "type": "electric_scooter", "lon": -77.00453666666667, "rental_uris": {"android": "https://dc.lft.to/lastmile_qr_scan", "ios": "https://dc.lft.to/lastmile_qr_scan"}, "lat": 38.91176433333333, "is_reserved": 0, "is_disabled": 0, "fusion_lat": 0.0}, {"fusion_lon": 0.0, "bike_id": "0a9983204f75149178926b1866e928a9", "name": "0a9983204f75149178926b1866e928a9", "type": "electric_scooter", "lon": -77.041688, "rental_uris": {"android": "https://dc.lft.to/lastmile_qr_scan", "ios": "https://dc.lft.to/lastmile_qr_scan"}, "lat": 38.910944666666666, "is_reserved": 0, "is_disabled": 0, "fusion_lat": 0.0}, {"fusion_lon": 0.0, "bike_id": "5ac6bce68bc6c3c68dd85957851d49f7", "name": "5ac6bce68bc6c3c68dd85957851d49f7", "type": "electric_scooter", "lon": -76.98997233333333, "rental_uris": {"android": "https://dc.lft.to/lastmile_qr_scan", "ios": "https://dc.lft.to/lastmile_qr_scan"}, "lat": 38.8644545, "is_reserved": 0, "is_disabled": 0, "fusion_lat": 0.0}, {"fusion_lon": 0.0, "bike_id": "13f61a0e9270aa5876b4a42b602f73c7", "name": "13f61a0e9270aa5876b4a42b602f73c7", "type": "electric_scooter", "lon": -77.04159733333333, "rental_uris": {"android": "https://dc.lft.to/lastmile_qr_scan", "ios": "https://dc.lft.to/lastmile_qr_scan"}, "lat": 38.917440666666664, "is_reserved": 0, "is_disabled": 0, "fusion_lat": 0.0}, {"fusion_lon": 0.0, "bike_id": "0e45d1ee2e1139579b30fd5151507594", "name": "0e45d1ee2e1139579b30fd5151507594", "type": "electric_scooter", "lon": -77.0296285, "rental_uris": {"android": "https://dc.lft.to/lastmile_qr_scan", "ios": "https://dc.lft.to/lastmile_qr_scan"}, "lat": 38.920705, "is_reserved": 0, "is_disabled": 0, "fusion_lat": 0.0}, {"fusion_lon": 0.0, "bike_id": "7bb51160665a787bd38a79cee173ae47", "name": "7bb51160665a787bd38a79cee173ae47", "type": "electric_scooter", "lon": -77.016119, "rental_uris": {"android": "https://dc.lft.to/lastmile_qr_scan", "ios": "https://dc.lft.to/lastmile_qr_scan"}, "lat": 38.8768165, "is_reserved": 0, "is_disabled": 0, "fusion_lat": 0.0}, {"fusion_lon": 0.0, "bike_id": "17b6548ce99b39c1ae8369d1ca11539f", "name": "17b6548ce99b39c1ae8369d1ca11539f", "type": "electric_bike", "lon": -76.98830166666667, "rental_uris": {"android": "https://dc.lft.to/lastmile_qr_scan", "ios": "https://dc.lft.to/lastmile_qr_scan"}, "lat": 38.985614166666664, "is_reserved": 0, "is_disabled": 0, "fusion_lat": 0.0}, {"fusion_lon": 0.0, "bike_id": "04cf115b20c952a23a6b67df7c98dfae", "name": "04cf115b20c952a23a6b67df7c98dfae", "type": "electric_scooter", "lon": -77.023905, "rental_uris": {"android": "https://dc.lft.to/lastmile_qr_scan", "ios": "https://dc.lft.to/lastmile_qr_scan"}, "lat": 38.957344166666665, "is_reserved": 0, "is_disabled": 0, "fusion_lat": 0.0}, {"fusion_lon": 0.0, "bike_id": "5dc364007d83d44649e2a215f53c623b", "name": "5dc364007d83d44649e2a215f53c623b", "type": "electric_scooter", "lon": -77.0235605, "rental_uris": {"android": "https://dc.lft.to/lastmile_qr_scan", "ios": "https://dc.lft.to/lastmile_qr_scan"}, "lat": 38.92502366666667, "is_reserved": 0, "is_disabled": 0, "fusion_lat": 0.0}, {"fusion_lon": 0.0, "bike_id": "a3c0704b3e0db243bb999010780f6224", "name": "a3c0704b3e0db243bb999010780f6224", "type": "electric_scooter", "lon": -77.04161533333334, "rental_uris": {"android": "https://dc.lft.to/lastmile_qr_scan", "ios": "https://dc.lft.to/lastmile_qr_scan"}, "lat": 38.916032333333334, "is_reserved": 0, "is_disabled": 0, "fusion_lat": 0.0}, {"fusion_lon": 0.0, "bike_id": "89dfdcf585bef78c8207757369863c98", "name": "89dfdcf585bef78c8207757369863c98", "type": "electric_scooter", "lon": -77.00195533333333, "rental_uris": {"android": "https://dc.lft.to/lastmile_qr_scan", "ios": "https://dc.lft.to/lastmile_qr_scan"}, "lat": 38.90000916666666, "is_reserved": 0, "is_disabled": 0, "fusion_lat": 0.0}, {"fusion_lon": 0.0, "bike_id": "97d19b893bef7dad81270491728e092f", "name": "97d19b893bef7dad81270491728e092f", "type": "electric_scooter", "lon": -77.04790083333333, "rental_uris": {"android": "https://dc.lft.to/lastmile_qr_scan", "ios": "https://dc.lft.to/lastmile_qr_scan"}, "lat": 38.907968333333336, "is_reserved": 0, "is_disabled": 0, "fusion_lat": 0.0}, {"fusion_lon": 0.0, "bike_id": "7845492d1246acd9029e0001d5581696", "name": "7845492d1246acd9029e0001d5581696", "type": "electric_scooter", "lon": -76.99467933333334, "rental_uris": {"android": "https://dc.lft.to/lastmile_qr_scan", "ios": "https://dc.lft.to/lastmile_qr_scan"}, "lat": 38.8403515, "is_reserved": 0, "is_disabled": 0, "fusion_lat": 0.0}, {"fusion_lon": 0.0, "bike_id": "741bbaa07088930f6aba076925168018", "name": "741bbaa07088930f6aba076925168018", "type": "electric_scooter", "lon": -77.0245075, "rental_uris": {"android": "https://dc.lft.to/lastmile_qr_scan", "ios": "https://dc.lft.to/lastmile_qr_scan"}, "lat": 38.927926166666666, "is_reserved": 0, "is_disabled": 0, "fusion_lat": 0.0}, {"fusion_lon": 0.0, "bike_id": "3bf538456123ab5b3aaa513f328f47ba", "name": "3bf538456123ab5b3aaa513f328f47ba", "type": "electric_scooter", "lon": -77.0402405, "rental_uris": {"android": "https://dc.lft.to/lastmile_qr_scan", "ios": "https://dc.lft.to/lastmile_qr_scan"}, "lat": 38.9179495, "is_reserved": 0, "is_disabled": 0, "fusion_lat": 0.0}, {"fusion_lon": 0.0, "bike_id": "6792b656c81f4fc4ca750a585b2372bb", "name": "6792b656c81f4fc4ca750a585b2372bb", "type": "electric_scooter", "lon": -77.026595, "rental_uris": {"android": "https://dc.lft.to/lastmile_qr_scan", "ios": "https://dc.lft.to/lastmile_qr_scan"}, "lat": 38.979379333333334, "is_reserved": 0, "is_disabled": 0, "fusion_lat": 0.0}, {"fusion_lon": 0.0, "bike_id": "67202e00a98363da2e86b0a458c5896a", "name": "67202e00a98363da2e86b0a458c5896a", "type": "electric_scooter", "lon": -77.0470365, "rental_uris": {"android": "https://dc.lft.to/lastmile_qr_scan", "ios": "https://dc.lft.to/lastmile_qr_scan"}, "lat": 38.89740966666667, "is_reserved": 0, "is_disabled": 0, "fusion_lat": 0.0}, {"fusion_lon": 0.0, "bike_id": "e1c33992350529b7b04d9c2891ee03ec", "name": "e1c33992350529b7b04d9c2891ee03ec", "type": "electric_scooter", "lon": -77.032737, "rental_uris": {"android": "https://dc.lft.to/lastmile_qr_scan", "ios": "https://dc.lft.to/lastmile_qr_scan"}, "lat": 38.93209183333333, "is_reserved": 0, "is_disabled": 0, "fusion_lat": 0.0}, {"fusion_lon": 0.0, "bike_id": "256c72f220138f0f41fdeba7ff6e9c7e", "name": "256c72f220138f0f41fdeba7ff6e9c7e", "type": "electric_scooter", "lon": -77.0272305, "rental_uris": {"android": "https://dc.lft.to/lastmile_qr_scan", "ios": "https://dc.lft.to/lastmile_qr_scan"}, "lat": 38.93430716666667, "is_reserved": 0, "is_disabled": 0, "fusion_lat": 0.0}, {"fusion_lon": 0.0, "bike_id": "bf42a2fcca4a1aa3015e92a36d94cc46", "name": "bf42a2fcca4a1aa3015e92a36d94cc46", "type": "electric_scooter", "lon": -77.05255983333333, "rental_uris": {"android": "https://dc.lft.to/lastmile_qr_scan", "ios": "https://dc.lft.to/lastmile_qr_scan"}, "lat": 38.923749666666666, "is_reserved": 0, "is_disabled": 0, "fusion_lat": 0.0}, {"fusion_lon": 0.0, "bike_id": "0521daa452940c78f8238b8836e6d19e", "name": "0521daa452940c78f8238b8836e6d19e", "type": "electric_scooter", "lon": -77.0513705, "rental_uris": {"android": "https://dc.lft.to/lastmile_qr_scan", "ios": "https://dc.lft.to/lastmile_qr_scan"}, "lat": 38.923659666666666, "is_reserved": 0, "is_disabled": 0, "fusion_lat": 0.0}, {"fusion_lon": 0.0, "bike_id": "7e6d36bec84f31d01613c1e0079a9cbb", "name": "7e6d36bec84f31d01613c1e0079a9cbb", "type": "electric_scooter", "lon": -77.02694683333333, "rental_uris": {"android": "https://dc.lft.to/lastmile_qr_scan", "ios": "https://dc.lft.to/lastmile_qr_scan"}, "lat": 38.90836516666667, "is_reserved": 0, "is_disabled": 0, "fusion_lat": 0.0}, {"fusion_lon": 0.0, "bike_id": "85e39abe1c5ae5de15240bb515ce5145", "name": "85e39abe1c5ae5de15240bb515ce5145", "type": "electric_scooter", "lon": -77.02717016666666, "rental_uris": {"android": "https://dc.lft.to/lastmile_qr_scan", "ios": "https://dc.lft.to/lastmile_qr_scan"}, "lat": 38.90745416666667, "is_reserved": 0, "is_disabled": 0, "fusion_lat": 0.0}, {"fusion_lon": 0.0, "bike_id": "ec7cc1d0d8077bda4f08586c4faa9f34", "name": "ec7cc1d0d8077bda4f08586c4faa9f34", "type": "electric_scooter", "lon": -76.940658, "rental_uris": {"android": "https://dc.lft.to/lastmile_qr_scan", "ios": "https://dc.lft.to/lastmile_qr_scan"}, "lat": 38.89015716666667, "is_reserved": 0, "is_disabled": 0, "fusion_lat": 0.0}, {"fusion_lon": 0.0, "bike_id": "bc749e9155361e44ec00e0e47740ffbe", "name": "bc749e9155361e44ec00e0e47740ffbe", "type": "electric_bike", "lon": -77.12581383333334, "rental_uris": {"android": "https://dc.lft.to/lastmile_qr_scan", "ios": "https://dc.lft.to/lastmile_qr_scan"}, "lat": 38.85144116666667, "is_reserved": 0, "is_disabled": 0, "fusion_lat": 0.0}, {"fusion_lon": 0.0, "bike_id": "78298b3fa74628b2a24dd86f6143d365", "name": "78298b3fa74628b2a24dd86f6143d365", "type": "electric_scooter", "lon": -77.019893, "rental_uris": {"android": "https://dc.lft.to/lastmile_qr_scan", "ios": "https://dc.lft.to/lastmile_qr_scan"}, "lat": 38.883948833333335, "is_reserved": 0, "is_disabled": 0, "fusion_lat": 0.0}, {"fusion_lon": 0.0, "bike_id": "803ab2d9df487887a162b7280d0514e6", "name": "803ab2d9df487887a162b7280d0514e6", "type": "electric_scooter", "lon": -76.98420983333334, "rental_uris": {"android": "https://dc.lft.to/lastmile_qr_scan", "ios": "https://dc.lft.to/lastmile_qr_scan"}, "lat": 38.91995716666667, "is_reserved": 0, "is_disabled": 0, "fusion_lat": 0.0}, {"fusion_lon": 0.0, "bike_id": "1af461e668b489ce7b47581903190801", "name": "1af461e668b489ce7b47581903190801", "type": "electric_scooter", "lon": -77.03188283333333, "rental_uris": {"android": "https://dc.lft.to/lastmile_qr_scan", "ios": "https://dc.lft.to/lastmile_qr_scan"}, "lat": 38.91779833333333, "is_reserved": 0, "is_disabled": 0, "fusion_lat": 0.0}, {"fusion_lon": 0.0, "bike_id": "fde87fea1b9ff309f87de402af19653f", "name": "fde87fea1b9ff309f87de402af19653f", "type": "electric_bike", "lon": -76.932334, "rental_uris": {"android": "https://dc.lft.to/lastmile_qr_scan", "ios": "https://dc.lft.to/lastmile_qr_scan"}, "lat": 38.86597666666667, "is_reserved": 0, "is_disabled": 0, "fusion_lat": 0.0}, {"fusion_lon": 0.0, "bike_id": "d7eb9172fa7b69d690d31281d4a52b81", "name": "d7eb9172fa7b69d690d31281d4a52b81", "type": "electric_scooter", "lon": -77.02254783333333, "rental_uris": {"android": "https://dc.lft.to/lastmile_qr_scan", "ios": "https://dc.lft.to/lastmile_qr_scan"}, "lat": 38.9655795, "is_reserved": 0, "is_disabled": 0, "fusion_lat": 0.0}, {"fusion_lon": 0.0, "bike_id": "5f0093d503a089d17d1d5dcd3bebe423", "name": "5f0093d503a089d17d1d5dcd3bebe423", "type": "electric_scooter", "lon": -77.041687, "rental_uris": {"android": "https://dc.lft.to/lastmile_qr_scan", "ios": "https://dc.lft.to/lastmile_qr_scan"}, "lat": 38.91573566666667, "is_reserved": 0, "is_disabled": 0, "fusion_lat": 0.0}, {"fusion_lon": 0.0, "bike_id": "b5568bb76f6103f976faeeaaf8db712e", "name": "b5568bb76f6103f976faeeaaf8db712e", "type": "electric_scooter", "lon": -77.018169, "rental_uris": {"android": "https://dc.lft.to/lastmile_qr_scan", "ios": "https://dc.lft.to/lastmile_qr_scan"}, "lat": 38.92218966666667, "is_reserved": 0, "is_disabled": 0, "fusion_lat": 0.0}, {"fusion_lon": 0.0, "bike_id": "58f75c13d4ede1645e1a660c02d61e63", "name": "58f75c13d4ede1645e1a660c02d61e63", "type": "electric_scooter", "lon": -76.9877505, "rental_uris": {"android": "https://dc.lft.to/lastmile_qr_scan", "ios": "https://dc.lft.to/lastmile_qr_scan"}, "lat": 38.911733, "is_reserved": 0, "is_disabled": 0, "fusion_lat": 0.0}, {"fusion_lon": 0.0, "bike_id": "54abf25b7558b46f40596af0f4e1e79b", "name": "54abf25b7558b46f40596af0f4e1e79b", "type": "electric_scooter", "lon": -77.0260455, "rental_uris": {"android": "https://dc.lft.to/lastmile_qr_scan", "ios": "https://dc.lft.to/lastmile_qr_scan"}, "lat": 38.9163485, "is_reserved": 0, "is_disabled": 0, "fusion_lat": 0.0}, {"fusion_lon": 0.0, "bike_id": "85232794fb4cf78ac678b6bfed5fdc6d", "name": "85232794fb4cf78ac678b6bfed5fdc6d", "type": "electric_scooter", "lon": -77.04731533333333, "rental_uris": {"android": "https://dc.lft.to/lastmile_qr_scan", "ios": "https://dc.lft.to/lastmile_qr_scan"}, "lat": 38.90599433333333, "is_reserved": 0, "is_disabled": 0, "fusion_lat": 0.0}, {"fusion_lon": 0.0, "bike_id": "c6a576d7a46759d67c2ef1da9df2559b", "name": "c6a576d7a46759d67c2ef1da9df2559b", "type": "electric_scooter", "lon": -77.03648066666666, "rental_uris": {"android": "https://dc.lft.to/lastmile_qr_scan", "ios": "https://dc.lft.to/lastmile_qr_scan"}, "lat": 38.908223166666666, "is_reserved": 0, "is_disabled": 0, "fusion_lat": 0.0}, {"fusion_lon": 0.0, "bike_id": "c4c0d399d2e69b9a4ce4e8f8ed2ce8f6", "name": "c4c0d399d2e69b9a4ce4e8f8ed2ce8f6", "type": "electric_scooter", "lon": -77.02114383333333, "rental_uris": {"android": "https://dc.lft.to/lastmile_qr_scan", "ios": "https://dc.lft.to/lastmile_qr_scan"}, "lat": 38.941021, "is_reserved": 0, "is_disabled": 0, "fusion_lat": 0.0}, {"fusion_lon": 0.0, "bike_id": "23bf23a6a64801611aa07a96cb93ab3d", "name": "23bf23a6a64801611aa07a96cb93ab3d", "type": "electric_scooter", "lon": -77.03242033333333, "rental_uris": {"android": "https://dc.lft.to/lastmile_qr_scan", "ios": "https://dc.lft.to/lastmile_qr_scan"}, "lat": 38.91552133333333, "is_reserved": 0, "is_disabled": 0, "fusion_lat": 0.0}, {"fusion_lon": 0.0, "bike_id": "9e23d318db08d575f43b2e0a258cd8bd", "name": "9e23d318db08d575f43b2e0a258cd8bd", "type": "electric_scooter", "lon": -76.96511916666667, "rental_uris": {"android": "https://dc.lft.to/lastmile_qr_scan", "ios": "https://dc.lft.to/lastmile_qr_scan"}, "lat": 38.87650133333333, "is_reserved": 0, "is_disabled": 0, "fusion_lat": 0.0}, {"fusion_lon": 0.0, "bike_id": "0fcfe4c09c2790e99fb61f080e2f5acf", "name": "0fcfe4c09c2790e99fb61f080e2f5acf", "type": "electric_scooter", "lon": -77.02147166666667, "rental_uris": {"android": "https://dc.lft.to/lastmile_qr_scan", "ios": "https://dc.lft.to/lastmile_qr_scan"}, "lat": 38.92917, "is_reserved": 0, "is_disabled": 0, "fusion_lat": 0.0}, {"fusion_lon": 0.0, "bike_id": "2ebfce07135fdd18541da367edd92ebc", "name": "2ebfce07135fdd18541da367edd92ebc", "type": "electric_scooter", "lon": -77.031732, "rental_uris": {"android": "https://dc.lft.to/lastmile_qr_scan", "ios": "https://dc.lft.to/lastmile_qr_scan"}, "lat": 38.907248, "is_reserved": 0, "is_disabled": 0, "fusion_lat": 0.0}, {"fusion_lon": 0.0, "bike_id": "47d514a92d07e232a0ba5abf567f7498", "name": "47d514a92d07e232a0ba5abf567f7498", "type": "electric_scooter", "lon": -77.03999583333334, "rental_uris": {"android": "https://dc.lft.to/lastmile_qr_scan", "ios": "https://dc.lft.to/lastmile_qr_scan"}, "lat": 38.932547, "is_reserved": 0, "is_disabled": 0, "fusion_lat": 0.0}, {"fusion_lon": 0.0, "bike_id": "cf7d2dca52dbdc5b449bc3b63cfab59f", "name": "cf7d2dca52dbdc5b449bc3b63cfab59f", "type": "electric_scooter", "lon": -77.02856416666667, "rental_uris": {"android": "https://dc.lft.to/lastmile_qr_scan", "ios": "https://dc.lft.to/lastmile_qr_scan"}, "lat": 38.935914833333335, "is_reserved": 0, "is_disabled": 0, "fusion_lat": 0.0}, {"fusion_lon": 0.0, "bike_id": "dbe10db9bfd6bf9b3369c38366998566", "name": "dbe10db9bfd6bf9b3369c38366998566", "type": "electric_scooter", "lon": -76.99635549999999, "rental_uris": {"android": "https://dc.lft.to/lastmile_qr_scan", "ios": "https://dc.lft.to/lastmile_qr_scan"}, "lat": 38.846212333333334, "is_reserved": 0, "is_disabled": 0, "fusion_lat": 0.0}, {"fusion_lon": 0.0, "bike_id": "e8c2b4d04d29ea47fa6904fddaa86a39", "name": "e8c2b4d04d29ea47fa6904fddaa86a39", "type": "electric_scooter", "lon": -77.050093, "rental_uris": {"android": "https://dc.lft.to/lastmile_qr_scan", "ios": "https://dc.lft.to/lastmile_qr_scan"}, "lat": 38.895486166666664, "is_reserved": 0, "is_disabled": 0, "fusion_lat": 0.0}, {"fusion_lon": 0.0, "bike_id": "9a42080e930c73b8e79e0264e3168346", "name": "9a42080e930c73b8e79e0264e3168346", "type": "electric_scooter", "lon": -76.93748633333334, "rental_uris": {"android": "https://dc.lft.to/lastmile_qr_scan", "ios": "https://dc.lft.to/lastmile_qr_scan"}, "lat": 38.890065666666665, "is_reserved": 0, "is_disabled": 0, "fusion_lat": 0.0}, {"fusion_lon": 0.0, "bike_id": "283a167f1508df24636d2de80bacbf24", "name": "283a167f1508df24636d2de80bacbf24", "type": "electric_scooter", "lon": -77.02212316666666, "rental_uris": {"android": "https://dc.lft.to/lastmile_qr_scan", "ios": "https://dc.lft.to/lastmile_qr_scan"}, "lat": 38.90571666666666, "is_reserved": 0, "is_disabled": 0, "fusion_lat": 0.0}, {"fusion_lon": 0.0, "bike_id": "8b406e3f5861265fdea2422697e0293a", "name": "8b406e3f5861265fdea2422697e0293a", "type": "electric_scooter", "lon": -77.005696, "rental_uris": {"android": "https://dc.lft.to/lastmile_qr_scan", "ios": "https://dc.lft.to/lastmile_qr_scan"}, "lat": 38.9052945, "is_reserved": 0, "is_disabled": 0, "fusion_lat": 0.0}, {"fusion_lon": 0.0, "bike_id": "f558a599cc0cdf2640f2069147675b49", "name": "f558a599cc0cdf2640f2069147675b49", "type": "electric_scooter", "lon": -77.0366415, "rental_uris": {"android": "https://dc.lft.to/lastmile_qr_scan", "ios": "https://dc.lft.to/lastmile_qr_scan"}, "lat": 38.9207175, "is_reserved": 0, "is_disabled": 0, "fusion_lat": 0.0}, {"fusion_lon": 0.0, "bike_id": "968bc275d028c65a8a92ff369d46046f", "name": "968bc275d028c65a8a92ff369d46046f", "type": "electric_scooter", "lon": -77.02639216666667, "rental_uris": {"android": "https://dc.lft.to/lastmile_qr_scan", "ios": "https://dc.lft.to/lastmile_qr_scan"}, "lat": 38.980546, "is_reserved": 0, "is_disabled": 0, "fusion_lat": 0.0}, {"fusion_lon": 0.0, "bike_id": "41c172e81c7b09f21c76409f563370b8", "name": "41c172e81c7b09f21c76409f563370b8", "type": "electric_bike", "lon": -76.94575266666666, "rental_uris": {"android": "https://dc.lft.to/lastmile_qr_scan", "ios": "https://dc.lft.to/lastmile_qr_scan"}, "lat": 38.866205666666666, "is_reserved": 0, "is_disabled": 0, "fusion_lat": 0.0}, {"fusion_lon": 0.0, "bike_id": "e52998d56a8a56b622b34abd98fc3fad", "name": "e52998d56a8a56b622b34abd98fc3fad", "type": "electric_scooter", "lon": -77.06893116666667, "rental_uris": {"android": "https://dc.lft.to/lastmile_qr_scan", "ios": "https://dc.lft.to/lastmile_qr_scan"}, "lat": 38.905153166666665, "is_reserved": 0, "is_disabled": 0, "fusion_lat": 0.0}, {"fusion_lon": 0.0, "bike_id": "07b488b8ef7103efe82553fd8f03ec2e", "name": "07b488b8ef7103efe82553fd8f03ec2e", "type": "electric_scooter", "lon": -77.03841066666666, "rental_uris": {"android": "https://dc.lft.to/lastmile_qr_scan", "ios": "https://dc.lft.to/lastmile_qr_scan"}, "lat": 38.915625666666664, "is_reserved": 0, "is_disabled": 0, "fusion_lat": 0.0}, {"fusion_lon": 0.0, "bike_id": "bc6c44ccb76afaeca923828afdba6fa0", "name": "bc6c44ccb76afaeca923828afdba6fa0", "type": "electric_scooter", "lon": -77.01764283333333, "rental_uris": {"android": "https://dc.lft.to/lastmile_qr_scan", "ios": "https://dc.lft.to/lastmile_qr_scan"}, "lat": 38.8772145, "is_reserved": 0, "is_disabled": 0, "fusion_lat": 0.0}, {"fusion_lon": 0.0, "bike_id": "41931381995da144d63a4987cc2a034b", "name": "41931381995da144d63a4987cc2a034b", "type": "electric_scooter", "lon": -76.9652895, "rental_uris": {"android": "https://dc.lft.to/lastmile_qr_scan", "ios": "https://dc.lft.to/lastmile_qr_scan"}, "lat": 38.876272166666666, "is_reserved": 0, "is_disabled": 0, "fusion_lat": 0.0}, {"fusion_lon": 0.0, "bike_id": "086c5d25c153f8a2e488b7d2d4548f09", "name": "086c5d25c153f8a2e488b7d2d4548f09", "type": "electric_scooter", "lon": -77.0005375, "rental_uris": {"android": "https://dc.lft.to/lastmile_qr_scan", "ios": "https://dc.lft.to/lastmile_qr_scan"}, "lat": 38.88900316666667, "is_reserved": 0, "is_disabled": 0, "fusion_lat": 0.0}, {"fusion_lon": 0.0, "bike_id": "7951b9735b09a2d1eaaa5f9899e1ac2b", "name": "7951b9735b09a2d1eaaa5f9899e1ac2b", "type": "electric_scooter", "lon": -76.99681933333333, "rental_uris": {"android": "https://dc.lft.to/lastmile_qr_scan", "ios": "https://dc.lft.to/lastmile_qr_scan"}, "lat": 38.886964666666664, "is_reserved": 0, "is_disabled": 0, "fusion_lat": 0.0}, {"fusion_lon": 0.0, "bike_id": "2565317c82103d6b99545d65ed4ac2af", "name": "2565317c82103d6b99545d65ed4ac2af", "type": "electric_scooter", "lon": -77.0621575, "rental_uris": {"android": "https://dc.lft.to/lastmile_qr_scan", "ios": "https://dc.lft.to/lastmile_qr_scan"}, "lat": 38.90527816666667, "is_reserved": 0, "is_disabled": 0, "fusion_lat": 0.0}, {"fusion_lon": 0.0, "bike_id": "1b334867e94f955b2a1139d2c6bb9782", "name": "1b334867e94f955b2a1139d2c6bb9782", "type": "electric_scooter", "lon": -77.03107583333333, "rental_uris": {"android": "https://dc.lft.to/lastmile_qr_scan", "ios": "https://dc.lft.to/lastmile_qr_scan"}, "lat": 38.92975466666667, "is_reserved": 0, "is_disabled": 0, "fusion_lat": 0.0}, {"fusion_lon": 0.0, "bike_id": "a59cb752c56db190a45f39660ea06e58", "name": "a59cb752c56db190a45f39660ea06e58", "type": "electric_scooter", "lon": -77.02609966666667, "rental_uris": {"android": "https://dc.lft.to/lastmile_qr_scan", "ios": "https://dc.lft.to/lastmile_qr_scan"}, "lat": 38.92440233333333, "is_reserved": 0, "is_disabled": 0, "fusion_lat": 0.0}, {"fusion_lon": 0.0, "bike_id": "7cc25c9d5f357681f61fbdc64b359b1a", "name": "7cc25c9d5f357681f61fbdc64b359b1a", "type": "electric_scooter", "lon": -77.03189633333334, "rental_uris": {"android": "https://dc.lft.to/lastmile_qr_scan", "ios": "https://dc.lft.to/lastmile_qr_scan"}, "lat": 38.918626833333335, "is_reserved": 0, "is_disabled": 0, "fusion_lat": 0.0}, {"fusion_lon": 0.0, "bike_id": "ebda2f81980cdb18a448ef3f9beda7ef", "name": "ebda2f81980cdb18a448ef3f9beda7ef", "type": "electric_scooter", "lon": -77.03945166666666, "rental_uris": {"android": "https://dc.lft.to/lastmile_qr_scan", "ios": "https://dc.lft.to/lastmile_qr_scan"}, "lat": 38.903592833333335, "is_reserved": 0, "is_disabled": 0, "fusion_lat": 0.0}, {"fusion_lon": 0.0, "bike_id": "453fb23a5d081830074b9420599b31a0", "name": "453fb23a5d081830074b9420599b31a0", "type": "electric_scooter", "lon": -77.05266316666666, "rental_uris": {"android": "https://dc.lft.to/lastmile_qr_scan", "ios": "https://dc.lft.to/lastmile_qr_scan"}, "lat": 38.927573, "is_reserved": 0, "is_disabled": 0, "fusion_lat": 0.0}, {"fusion_lon": 0.0, "bike_id": "797cf628053e324cbc5570ddd15fc5f4", "name": "797cf628053e324cbc5570ddd15fc5f4", "type": "electric_scooter", "lon": -76.95755366666667, "rental_uris": {"android": "https://dc.lft.to/lastmile_qr_scan", "ios": "https://dc.lft.to/lastmile_qr_scan"}, "lat": 38.884319166666664, "is_reserved": 0, "is_disabled": 0, "fusion_lat": 0.0}, {"fusion_lon": 0.0, "bike_id": "197c162832b57d300e9e2d082e6ae739", "name": "197c162832b57d300e9e2d082e6ae739", "type": "electric_scooter", "lon": -76.985908, "rental_uris": {"android": "https://dc.lft.to/lastmile_qr_scan", "ios": "https://dc.lft.to/lastmile_qr_scan"}, "lat": 38.88966283333333, "is_reserved": 0, "is_disabled": 0, "fusion_lat": 0.0}, {"fusion_lon": 0.0, "bike_id": "4f674daeb568ab92d157e99b8ce4d1dd", "name": "4f674daeb568ab92d157e99b8ce4d1dd", "type": "electric_scooter", "lon": -77.03190966666666, "rental_uris": {"android": "https://dc.lft.to/lastmile_qr_scan", "ios": "https://dc.lft.to/lastmile_qr_scan"}, "lat": 38.907723, "is_reserved": 0, "is_disabled": 0, "fusion_lat": 0.0}, {"fusion_lon": 0.0, "bike_id": "c3e27ae82a988f0a2fd1b3ff22b1c936", "name": "c3e27ae82a988f0a2fd1b3ff22b1c936", "type": "electric_scooter", "lon": -77.04352783333333, "rental_uris": {"android": "https://dc.lft.to/lastmile_qr_scan", "ios": "https://dc.lft.to/lastmile_qr_scan"}, "lat": 38.913597, "is_reserved": 0, "is_disabled": 0, "fusion_lat": 0.0}, {"fusion_lon": 0.0, "bike_id": "784bfac1f1213c647eb9710c6aae97b9", "name": "784bfac1f1213c647eb9710c6aae97b9", "type": "electric_scooter", "lon": -77.02340683333334, "rental_uris": {"android": "https://dc.lft.to/lastmile_qr_scan", "ios": "https://dc.lft.to/lastmile_qr_scan"}, "lat": 38.9154575, "is_reserved": 0, "is_disabled": 0, "fusion_lat": 0.0}, {"fusion_lon": 0.0, "bike_id": "fa6c9d02bf627dc09920d971577047c0", "name": "fa6c9d02bf627dc09920d971577047c0", "type": "electric_scooter", "lon": -77.03185033333334, "rental_uris": {"android": "https://dc.lft.to/lastmile_qr_scan", "ios": "https://dc.lft.to/lastmile_qr_scan"}, "lat": 38.919236, "is_reserved": 0, "is_disabled": 0, "fusion_lat": 0.0}, {"fusion_lon": 0.0, "bike_id": "373c513d87a755558d00c81333a020b2", "name": "373c513d87a755558d00c81333a020b2", "type": "electric_bike", "lon": -76.87497633333334, "rental_uris": {"android": "https://dc.lft.to/lastmile_qr_scan", "ios": "https://dc.lft.to/lastmile_qr_scan"}, "lat": 38.990881, "is_reserved": 0, "is_disabled": 0, "fusion_lat": 0.0}, {"fusion_lon": 0.0, "bike_id": "4c663819fa801e0d7190dd64ca241271", "name": "4c663819fa801e0d7190dd64ca241271", "type": "electric_scooter", "lon": -77.03846966666667, "rental_uris": {"android": "https://dc.lft.to/lastmile_qr_scan", "ios": "https://dc.lft.to/lastmile_qr_scan"}, "lat": 38.902639666666666, "is_reserved": 0, "is_disabled": 0, "fusion_lat": 0.0}, {"fusion_lon": 0.0, "bike_id": "8dd243d7a7a36423142d0a1b9ca97f08", "name": "8dd243d7a7a36423142d0a1b9ca97f08", "type": "electric_scooter", "lon": -76.98560616666667, "rental_uris": {"android": "https://dc.lft.to/lastmile_qr_scan", "ios": "https://dc.lft.to/lastmile_qr_scan"}, "lat": 38.92006283333333, "is_reserved": 0, "is_disabled": 0, "fusion_lat": 0.0}, {"fusion_lon": 0.0, "bike_id": "b745ce0e031c3a22531545ffcd0e3134", "name": "b745ce0e031c3a22531545ffcd0e3134", "type": "electric_scooter", "lon": -77.02277333333333, "rental_uris": {"android": "https://dc.lft.to/lastmile_qr_scan", "ios": "https://dc.lft.to/lastmile_qr_scan"}, "lat": 38.92503583333333, "is_reserved": 0, "is_disabled": 0, "fusion_lat": 0.0}, {"fusion_lon": 0.0, "bike_id": "136dd390df2fb946f173f238fd2ea867", "name": "136dd390df2fb946f173f238fd2ea867", "type": "electric_scooter", "lon": -76.9374515, "rental_uris": {"android": "https://dc.lft.to/lastmile_qr_scan", "ios": "https://dc.lft.to/lastmile_qr_scan"}, "lat": 38.89002883333333, "is_reserved": 0, "is_disabled": 0, "fusion_lat": 0.0}, {"fusion_lon": 0.0, "bike_id": "6b815c2b1f592dca44313e29333585de", "name": "6b815c2b1f592dca44313e29333585de", "type": "electric_scooter", "lon": -77.018854, "rental_uris": {"android": "https://dc.lft.to/lastmile_qr_scan", "ios": "https://dc.lft.to/lastmile_qr_scan"}, "lat": 38.90005, "is_reserved": 0, "is_disabled": 0, "fusion_lat": 0.0}, {"fusion_lon": 0.0, "bike_id": "b4678dc687d9e73847f8ad243e740549", "name": "b4678dc687d9e73847f8ad243e740549", "type": "electric_scooter", "lon": -77.01042683333333, "rental_uris": {"android": "https://dc.lft.to/lastmile_qr_scan", "ios": "https://dc.lft.to/lastmile_qr_scan"}, "lat": 38.88447716666667, "is_reserved": 0, "is_disabled": 0, "fusion_lat": 0.0}, {"fusion_lon": 0.0, "bike_id": "6bc37262af662893155bef126e6d9782", "name": "6bc37262af662893155bef126e6d9782", "type": "electric_scooter", "lon": -77.013584, "rental_uris": {"android": "https://dc.lft.to/lastmile_qr_scan", "ios": "https://dc.lft.to/lastmile_qr_scan"}, "lat": 38.9038545, "is_reserved": 0, "is_disabled": 0, "fusion_lat": 0.0}, {"fusion_lon": 0.0, "bike_id": "e747bcf19350819fd7396a2c863c333b", "name": "e747bcf19350819fd7396a2c863c333b", "type": "electric_scooter", "lon": -77.01863183333333, "rental_uris": {"android": "https://dc.lft.to/lastmile_qr_scan", "ios": "https://dc.lft.to/lastmile_qr_scan"}, "lat": 38.94921766666667, "is_reserved": 0, "is_disabled": 0, "fusion_lat": 0.0}, {"fusion_lon": 0.0, "bike_id": "20c856a0c63c44912e4c25fab5f3f6f4", "name": "20c856a0c63c44912e4c25fab5f3f6f4", "type": "electric_scooter", "lon": -76.96718833333334, "rental_uris": {"android": "https://dc.lft.to/lastmile_qr_scan", "ios": "https://dc.lft.to/lastmile_qr_scan"}, "lat": 38.86956033333333, "is_reserved": 0, "is_disabled": 0, "fusion_lat": 0.0}, {"fusion_lon": 0.0, "bike_id": "dfa1c7e4d098f7770966e8cf36374bcb", "name": "dfa1c7e4d098f7770966e8cf36374bcb", "type": "electric_scooter", "lon": -77.0113585, "rental_uris": {"android": "https://dc.lft.to/lastmile_qr_scan", "ios": "https://dc.lft.to/lastmile_qr_scan"}, "lat": 38.895954, "is_reserved": 0, "is_disabled": 0, "fusion_lat": 0.0}, {"fusion_lon": 0.0, "bike_id": "58f502eb7f62bbcf47684928ab3f6fbd", "name": "58f502eb7f62bbcf47684928ab3f6fbd", "type": "electric_scooter", "lon": -76.99631866666667, "rental_uris": {"android": "https://dc.lft.to/lastmile_qr_scan", "ios": "https://dc.lft.to/lastmile_qr_scan"}, "lat": 38.8462145, "is_reserved": 0, "is_disabled": 0, "fusion_lat": 0.0}, {"fusion_lon": 0.0, "bike_id": "7746caec25ec133023086b140592a519", "name": "7746caec25ec133023086b140592a519", "type": "electric_scooter", "lon": -76.95752883333333, "rental_uris": {"android": "https://dc.lft.to/lastmile_qr_scan", "ios": "https://dc.lft.to/lastmile_qr_scan"}, "lat": 38.88429816666667, "is_reserved": 0, "is_disabled": 0, "fusion_lat": 0.0}, {"fusion_lon": 0.0, "bike_id": "24e4af18f58f77beea7021bc67bf4b30", "name": "24e4af18f58f77beea7021bc67bf4b30", "type": "electric_scooter", "lon": -77.042272, "rental_uris": {"android": "https://dc.lft.to/lastmile_qr_scan", "ios": "https://dc.lft.to/lastmile_qr_scan"}, "lat": 38.92063516666666, "is_reserved": 0, "is_disabled": 0, "fusion_lat": 0.0}, {"fusion_lon": 0.0, "bike_id": "c4d2f50763e2592178887f84a6ed5c95", "name": "c4d2f50763e2592178887f84a6ed5c95", "type": "electric_scooter", "lon": -77.02494816666666, "rental_uris": {"android": "https://dc.lft.to/lastmile_qr_scan", "ios": "https://dc.lft.to/lastmile_qr_scan"}, "lat": 38.9418235, "is_reserved": 0, "is_disabled": 0, "fusion_lat": 0.0}, {"fusion_lon": 0.0, "bike_id": "a035c0c8bed1fd92f00700a830da19f9", "name": "a035c0c8bed1fd92f00700a830da19f9", "type": "electric_scooter", "lon": -77.070818, "rental_uris": {"android": "https://dc.lft.to/lastmile_qr_scan", "ios": "https://dc.lft.to/lastmile_qr_scan"}, "lat": 38.9197765, "is_reserved": 0, "is_disabled": 0, "fusion_lat": 0.0}, {"fusion_lon": 0.0, "bike_id": "7521ab437ce14e7cb430d26d9e761a20", "name": "7521ab437ce14e7cb430d26d9e761a20", "type": "electric_scooter", "lon": -77.01390683333334, "rental_uris": {"android": "https://dc.lft.to/lastmile_qr_scan", "ios": "https://dc.lft.to/lastmile_qr_scan"}, "lat": 38.9194605, "is_reserved": 0, "is_disabled": 0, "fusion_lat": 0.0}, {"fusion_lon": 0.0, "bike_id": "270c91c810ecd8815727fb83c0c17626", "name": "270c91c810ecd8815727fb83c0c17626", "type": "electric_bike", "lon": -77.024906, "rental_uris": {"android": "https://dc.lft.to/lastmile_qr_scan", "ios": "https://dc.lft.to/lastmile_qr_scan"}, "lat": 38.973693, "is_reserved": 0, "is_disabled": 0, "fusion_lat": 0.0}, {"fusion_lon": 0.0, "bike_id": "c9f2f9953d72bebd36ce45419455c654", "name": "c9f2f9953d72bebd36ce45419455c654", "type": "electric_scooter", "lon": -76.9939045, "rental_uris": {"android": "https://dc.lft.to/lastmile_qr_scan", "ios": "https://dc.lft.to/lastmile_qr_scan"}, "lat": 38.884506333333334, "is_reserved": 0, "is_disabled": 0, "fusion_lat": 0.0}, {"fusion_lon": 0.0, "bike_id": "65ff66cba9ade1ebacb6663a0286c77c", "name": "65ff66cba9ade1ebacb6663a0286c77c", "type": "electric_scooter", "lon": -76.99013616666667, "rental_uris": {"android": "https://dc.lft.to/lastmile_qr_scan", "ios": "https://dc.lft.to/lastmile_qr_scan"}, "lat": 38.86105516666667, "is_reserved": 0, "is_disabled": 0, "fusion_lat": 0.0}, {"fusion_lon": 0.0, "bike_id": "e1ea5eda8902d0ae235e13135471e076", "name": "e1ea5eda8902d0ae235e13135471e076", "type": "electric_scooter", "lon": -77.07097233333333, "rental_uris": {"android": "https://dc.lft.to/lastmile_qr_scan", "ios": "https://dc.lft.to/lastmile_qr_scan"}, "lat": 38.9198265, "is_reserved": 0, "is_disabled": 0, "fusion_lat": 0.0}, {"fusion_lon": 0.0, "bike_id": "bee381c8a5d4e9d0cf1d8fcceb80b0fd", "name": "bee381c8a5d4e9d0cf1d8fcceb80b0fd", "type": "electric_scooter", "lon": -77.04897033333333, "rental_uris": {"android": "https://dc.lft.to/lastmile_qr_scan", "ios": "https://dc.lft.to/lastmile_qr_scan"}, "lat": 38.9035615, "is_reserved": 0, "is_disabled": 0, "fusion_lat": 0.0}, {"fusion_lon": 0.0, "bike_id": "386adce6ec96aa6495ae78c848242ed9", "name": "386adce6ec96aa6495ae78c848242ed9", "type": "electric_scooter", "lon": -76.95001966666666, "rental_uris": {"android": "https://dc.lft.to/lastmile_qr_scan", "ios": "https://dc.lft.to/lastmile_qr_scan"}, "lat": 38.89392516666667, "is_reserved": 0, "is_disabled": 0, "fusion_lat": 0.0}, {"fusion_lon": 0.0, "bike_id": "8e6f26bf1d9c7244b76e431105d47c62", "name": "8e6f26bf1d9c7244b76e431105d47c62", "type": "electric_scooter", "lon": -77.03293333333333, "rental_uris": {"android": "https://dc.lft.to/lastmile_qr_scan", "ios": "https://dc.lft.to/lastmile_qr_scan"}, "lat": 38.928750666666666, "is_reserved": 0, "is_disabled": 0, "fusion_lat": 0.0}, {"fusion_lon": 0.0, "bike_id": "372029c22be65729604eac36e16f4817", "name": "372029c22be65729604eac36e16f4817", "type": "electric_bike", "lon": -77.02302733333333, "rental_uris": {"android": "https://dc.lft.to/lastmile_qr_scan", "ios": "https://dc.lft.to/lastmile_qr_scan"}, "lat": 38.96556266666666, "is_reserved": 0, "is_disabled": 0, "fusion_lat": 0.0}, {"fusion_lon": 0.0, "bike_id": "39d42c7f70b8875e235c5264e76f32c4", "name": "39d42c7f70b8875e235c5264e76f32c4", "type": "electric_scooter", "lon": -76.942544, "rental_uris": {"android": "https://dc.lft.to/lastmile_qr_scan", "ios": "https://dc.lft.to/lastmile_qr_scan"}, "lat": 38.89680716666667, "is_reserved": 0, "is_disabled": 0, "fusion_lat": 0.0}, {"fusion_lon": 0.0, "bike_id": "693a1137f5dee508e213d872a8e6ef0e", "name": "693a1137f5dee508e213d872a8e6ef0e", "type": "electric_bike", "lon": -77.12267283333334, "rental_uris": {"android": "https://dc.lft.to/lastmile_qr_scan", "ios": "https://dc.lft.to/lastmile_qr_scan"}, "lat": 38.897368666666665, "is_reserved": 0, "is_disabled": 0, "fusion_lat": 0.0}, {"fusion_lon": 0.0, "bike_id": "31361b281af47236caf03059c09c32b1", "name": "31361b281af47236caf03059c09c32b1", "type": "electric_scooter", "lon": -77.00216483333334, "rental_uris": {"android": "https://dc.lft.to/lastmile_qr_scan", "ios": "https://dc.lft.to/lastmile_qr_scan"}, "lat": 38.890890666666664, "is_reserved": 0, "is_disabled": 0, "fusion_lat": 0.0}, {"fusion_lon": 0.0, "bike_id": "e11c938c13e3b0346444eb8e240d43cd", "name": "e11c938c13e3b0346444eb8e240d43cd", "type": "electric_bike", "lon": -76.91658633333333, "rental_uris": {"android": "https://dc.lft.to/lastmile_qr_scan", "ios": "https://dc.lft.to/lastmile_qr_scan"}, "lat": 38.8685805, "is_reserved": 0, "is_disabled": 0, "fusion_lat": 0.0}, {"fusion_lon": 0.0, "bike_id": "d61c0489992c7cf63d76f6a903074f01", "name": "d61c0489992c7cf63d76f6a903074f01", "type": "electric_scooter", "lon": -77.02391666666666, "rental_uris": {"android": "https://dc.lft.to/lastmile_qr_scan", "ios": "https://dc.lft.to/lastmile_qr_scan"}, "lat": 38.91504116666667, "is_reserved": 0, "is_disabled": 0, "fusion_lat": 0.0}, {"fusion_lon": 0.0, "bike_id": "574a9b9fdfb41a9f38e772ce6538ae4a", "name": "574a9b9fdfb41a9f38e772ce6538ae4a", "type": "electric_scooter", "lon": -77.04011783333333, "rental_uris": {"android": "https://dc.lft.to/lastmile_qr_scan", "ios": "https://dc.lft.to/lastmile_qr_scan"}, "lat": 38.9130765, "is_reserved": 0, "is_disabled": 0, "fusion_lat": 0.0}, {"fusion_lon": 0.0, "bike_id": "171eb2a342a62ac77a44ea15a27ad931", "name": "171eb2a342a62ac77a44ea15a27ad931", "type": "electric_scooter", "lon": -77.02556133333333, "rental_uris": {"android": "https://dc.lft.to/lastmile_qr_scan", "ios": "https://dc.lft.to/lastmile_qr_scan"}, "lat": 38.895297166666666, "is_reserved": 0, "is_disabled": 0, "fusion_lat": 0.0}, {"fusion_lon": 0.0, "bike_id": "42ca6578438e12f350ff7df2c3f4c39d", "name": "42ca6578438e12f350ff7df2c3f4c39d", "type": "electric_scooter", "lon": -77.04183633333334, "rental_uris": {"android": "https://dc.lft.to/lastmile_qr_scan", "ios": "https://dc.lft.to/lastmile_qr_scan"}, "lat": 38.9233085, "is_reserved": 0, "is_disabled": 0, "fusion_lat": 0.0}, {"fusion_lon": 0.0, "bike_id": "f1df880afe751fd0cdb9baa5e37aeec3", "name": "f1df880afe751fd0cdb9baa5e37aeec3", "type": "electric_scooter", "lon": -77.02493433333333, "rental_uris": {"android": "https://dc.lft.to/lastmile_qr_scan", "ios": "https://dc.lft.to/lastmile_qr_scan"}, "lat": 38.941832833333336, "is_reserved": 0, "is_disabled": 0, "fusion_lat": 0.0}, {"fusion_lon": 0.0, "bike_id": "6634542a23998a08ef7186c59d301e98", "name": "6634542a23998a08ef7186c59d301e98", "type": "electric_scooter", "lon": -77.05863783333334, "rental_uris": {"android": "https://dc.lft.to/lastmile_qr_scan", "ios": "https://dc.lft.to/lastmile_qr_scan"}, "lat": 38.9370155, "is_reserved": 0, "is_disabled": 0, "fusion_lat": 0.0}, {"fusion_lon": 0.0, "bike_id": "ff361756e0aadbbbe3a8a7650a30f179", "name": "ff361756e0aadbbbe3a8a7650a30f179", "type": "electric_scooter", "lon": -77.03402116666666, "rental_uris": {"android": "https://dc.lft.to/lastmile_qr_scan", "ios": "https://dc.lft.to/lastmile_qr_scan"}, "lat": 38.92056383333333, "is_reserved": 0, "is_disabled": 0, "fusion_lat": 0.0}, {"fusion_lon": 0.0, "bike_id": "034db86ac5e8668a0f32434bd77fd482", "name": "034db86ac5e8668a0f32434bd77fd482", "type": "electric_scooter", "lon": -77.037863, "rental_uris": {"android": "https://dc.lft.to/lastmile_qr_scan", "ios": "https://dc.lft.to/lastmile_qr_scan"}, "lat": 38.92328633333333, "is_reserved": 0, "is_disabled": 0, "fusion_lat": 0.0}, {"fusion_lon": 0.0, "bike_id": "c8f310b26eb5b5fd5914d428a5689cd9", "name": "c8f310b26eb5b5fd5914d428a5689cd9", "type": "electric_scooter", "lon": -76.9980085, "rental_uris": {"android": "https://dc.lft.to/lastmile_qr_scan", "ios": "https://dc.lft.to/lastmile_qr_scan"}, "lat": 38.91054883333334, "is_reserved": 0, "is_disabled": 0, "fusion_lat": 0.0}, {"fusion_lon": 0.0, "bike_id": "0efe244af08cc3b6348e9a0465c1f6d4", "name": "0efe244af08cc3b6348e9a0465c1f6d4", "type": "electric_scooter", "lon": -76.965513, "rental_uris": {"android": "https://dc.lft.to/lastmile_qr_scan", "ios": "https://dc.lft.to/lastmile_qr_scan"}, "lat": 38.918798, "is_reserved": 0, "is_disabled": 0, "fusion_lat": 0.0}, {"fusion_lon": 0.0, "bike_id": "887b11d4f84e84dfa2e3c6973a740266", "name": "887b11d4f84e84dfa2e3c6973a740266", "type": "electric_scooter", "lon": -77.07257183333333, "rental_uris": {"android": "https://dc.lft.to/lastmile_qr_scan", "ios": "https://dc.lft.to/lastmile_qr_scan"}, "lat": 38.90782933333333, "is_reserved": 0, "is_disabled": 0, "fusion_lat": 0.0}, {"fusion_lon": 0.0, "bike_id": "020f65e95f6e6d58af807847a0bf5aed", "name": "020f65e95f6e6d58af807847a0bf5aed", "type": "electric_scooter", "lon": -77.02094566666666, "rental_uris": {"android": "https://dc.lft.to/lastmile_qr_scan", "ios": "https://dc.lft.to/lastmile_qr_scan"}, "lat": 38.9473215, "is_reserved": 0, "is_disabled": 0, "fusion_lat": 0.0}, {"fusion_lon": 0.0, "bike_id": "0ff4ace55428968c0fc6c01640ddd07d", "name": "0ff4ace55428968c0fc6c01640ddd07d", "type": "electric_scooter", "lon": -77.00063516666667, "rental_uris": {"android": "https://dc.lft.to/lastmile_qr_scan", "ios": "https://dc.lft.to/lastmile_qr_scan"}, "lat": 38.892933, "is_reserved": 0, "is_disabled": 0, "fusion_lat": 0.0}, {"fusion_lon": 0.0, "bike_id": "3d0be64333ec6996391c56d2eaa5d624", "name": "3d0be64333ec6996391c56d2eaa5d624", "type": "electric_scooter", "lon": -77.02177866666666, "rental_uris": {"android": "https://dc.lft.to/lastmile_qr_scan", "ios": "https://dc.lft.to/lastmile_qr_scan"}, "lat": 38.9431225, "is_reserved": 0, "is_disabled": 0, "fusion_lat": 0.0}, {"fusion_lon": 0.0, "bike_id": "a2be22cac289ec82033b9bd9cbc1e0f8", "name": "a2be22cac289ec82033b9bd9cbc1e0f8", "type": "electric_scooter", "lon": -77.05792666666666, "rental_uris": {"android": "https://dc.lft.to/lastmile_qr_scan", "ios": "https://dc.lft.to/lastmile_qr_scan"}, "lat": 38.902984333333336, "is_reserved": 0, "is_disabled": 0, "fusion_lat": 0.0}, {"fusion_lon": 0.0, "bike_id": "6938390bdafcda49cb068d9e99a875f5", "name": "6938390bdafcda49cb068d9e99a875f5", "type": "electric_scooter", "lon": -77.03950216666667, "rental_uris": {"android": "https://dc.lft.to/lastmile_qr_scan", "ios": "https://dc.lft.to/lastmile_qr_scan"}, "lat": 38.901257666666666, "is_reserved": 0, "is_disabled": 0, "fusion_lat": 0.0}, {"fusion_lon": 0.0, "bike_id": "ee93bffe0c56b17677b1dfa26622fff9", "name": "ee93bffe0c56b17677b1dfa26622fff9", "type": "electric_scooter", "lon": -77.07290183333333, "rental_uris": {"android": "https://dc.lft.to/lastmile_qr_scan", "ios": "https://dc.lft.to/lastmile_qr_scan"}, "lat": 38.931912833333335, "is_reserved": 0, "is_disabled": 0, "fusion_lat": 0.0}, {"fusion_lon": 0.0, "bike_id": "25c176c730a4e97480bc11249740b2c4", "name": "25c176c730a4e97480bc11249740b2c4", "type": "electric_scooter", "lon": -77.04521683333333, "rental_uris": {"android": "https://dc.lft.to/lastmile_qr_scan", "ios": "https://dc.lft.to/lastmile_qr_scan"}, "lat": 38.905525, "is_reserved": 0, "is_disabled": 0, "fusion_lat": 0.0}, {"fusion_lon": 0.0, "bike_id": "cacd0e7e90082a1a17195f9bf6597e7d", "name": "cacd0e7e90082a1a17195f9bf6597e7d", "type": "electric_scooter", "lon": -77.0406375, "rental_uris": {"android": "https://dc.lft.to/lastmile_qr_scan", "ios": "https://dc.lft.to/lastmile_qr_scan"}, "lat": 38.905033, "is_reserved": 0, "is_disabled": 0, "fusion_lat": 0.0}, {"fusion_lon": 0.0, "bike_id": "666fb2817b087e47f486d045e2b43fc8", "name": "666fb2817b087e47f486d045e2b43fc8", "type": "electric_scooter", "lon": -77.0296125, "rental_uris": {"android": "https://dc.lft.to/lastmile_qr_scan", "ios": "https://dc.lft.to/lastmile_qr_scan"}, "lat": 38.92145033333333, "is_reserved": 0, "is_disabled": 0, "fusion_lat": 0.0}, {"fusion_lon": 0.0, "bike_id": "7a0774ccbf571834d3f79f80213044d7", "name": "7a0774ccbf571834d3f79f80213044d7", "type": "electric_scooter", "lon": -77.01717616666667, "rental_uris": {"android": "https://dc.lft.to/lastmile_qr_scan", "ios": "https://dc.lft.to/lastmile_qr_scan"}, "lat": 38.90529983333333, "is_reserved": 0, "is_disabled": 0, "fusion_lat": 0.0}, {"fusion_lon": 0.0, "bike_id": "441747f3e1480ae6d0440048f8a44edc", "name": "441747f3e1480ae6d0440048f8a44edc", "type": "electric_scooter", "lon": -77.043531, "rental_uris": {"android": "https://dc.lft.to/lastmile_qr_scan", "ios": "https://dc.lft.to/lastmile_qr_scan"}, "lat": 38.91122433333334, "is_reserved": 0, "is_disabled": 0, "fusion_lat": 0.0}, {"fusion_lon": 0.0, "bike_id": "0acaaea03fe1b25d58cc77c7ab48988e", "name": "0acaaea03fe1b25d58cc77c7ab48988e", "type": "electric_scooter", "lon": -77.0436115, "rental_uris": {"android": "https://dc.lft.to/lastmile_qr_scan", "ios": "https://dc.lft.to/lastmile_qr_scan"}, "lat": 38.89234883333334, "is_reserved": 0, "is_disabled": 0, "fusion_lat": 0.0}, {"fusion_lon": 0.0, "bike_id": "76c492fd769c28b1219c95b293f3ce55", "name": "76c492fd769c28b1219c95b293f3ce55", "type": "electric_scooter", "lon": -76.97737983333333, "rental_uris": {"android": "https://dc.lft.to/lastmile_qr_scan", "ios": "https://dc.lft.to/lastmile_qr_scan"}, "lat": 38.888625166666664, "is_reserved": 0, "is_disabled": 0, "fusion_lat": 0.0}, {"fusion_lon": 0.0, "bike_id": "708901fa1723625230fecb4367d55ee5", "name": "708901fa1723625230fecb4367d55ee5", "type": "electric_scooter", "lon": -77.03836183333334, "rental_uris": {"android": "https://dc.lft.to/lastmile_qr_scan", "ios": "https://dc.lft.to/lastmile_qr_scan"}, "lat": 38.91562783333333, "is_reserved": 0, "is_disabled": 0, "fusion_lat": 0.0}, {"fusion_lon": 0.0, "bike_id": "a82dcb79e2d7385a0bff37eb89b4824b", "name": "a82dcb79e2d7385a0bff37eb89b4824b", "type": "electric_scooter", "lon": -77.00434066666666, "rental_uris": {"android": "https://dc.lft.to/lastmile_qr_scan", "ios": "https://dc.lft.to/lastmile_qr_scan"}, "lat": 38.87670266666667, "is_reserved": 0, "is_disabled": 0, "fusion_lat": 0.0}, {"fusion_lon": 0.0, "bike_id": "2c16a624a3c9aee5ee98f4804dca5315", "name": "2c16a624a3c9aee5ee98f4804dca5315", "type": "electric_scooter", "lon": -77.03923966666666, "rental_uris": {"android": "https://dc.lft.to/lastmile_qr_scan", "ios": "https://dc.lft.to/lastmile_qr_scan"}, "lat": 38.911806, "is_reserved": 0, "is_disabled": 0, "fusion_lat": 0.0}, {"fusion_lon": 0.0, "bike_id": "c3b3515c4386c2c6deea408536559622", "name": "c3b3515c4386c2c6deea408536559622", "type": "electric_scooter", "lon": -77.0219855, "rental_uris": {"android": "https://dc.lft.to/lastmile_qr_scan", "ios": "https://dc.lft.to/lastmile_qr_scan"}, "lat": 38.9153045, "is_reserved": 0, "is_disabled": 0, "fusion_lat": 0.0}, {"fusion_lon": 0.0, "bike_id": "94503c587c6657d9676b8cd58b221295", "name": "94503c587c6657d9676b8cd58b221295", "type": "electric_scooter", "lon": -77.02268733333334, "rental_uris": {"android": "https://dc.lft.to/lastmile_qr_scan", "ios": "https://dc.lft.to/lastmile_qr_scan"}, "lat": 38.94715566666667, "is_reserved": 0, "is_disabled": 0, "fusion_lat": 0.0}, {"fusion_lon": 0.0, "bike_id": "2804aaceceb4efe60cbb4771f3dd15aa", "name": "2804aaceceb4efe60cbb4771f3dd15aa", "type": "electric_scooter", "lon": -76.99009933333333, "rental_uris": {"android": "https://dc.lft.to/lastmile_qr_scan", "ios": "https://dc.lft.to/lastmile_qr_scan"}, "lat": 38.86505066666667, "is_reserved": 0, "is_disabled": 0, "fusion_lat": 0.0}, {"fusion_lon": 0.0, "bike_id": "bdc2885692b899489ab5f80d8e55b637", "name": "bdc2885692b899489ab5f80d8e55b637", "type": "electric_scooter", "lon": -77.00139016666667, "rental_uris": {"android": "https://dc.lft.to/lastmile_qr_scan", "ios": "https://dc.lft.to/lastmile_qr_scan"}, "lat": 38.90514316666667, "is_reserved": 0, "is_disabled": 0, "fusion_lat": 0.0}, {"fusion_lon": 0.0, "bike_id": "107be48214944131dfaea04fa932120b", "name": "107be48214944131dfaea04fa932120b", "type": "electric_scooter", "lon": -77.03283966666666, "rental_uris": {"android": "https://dc.lft.to/lastmile_qr_scan", "ios": "https://dc.lft.to/lastmile_qr_scan"}, "lat": 38.90401083333333, "is_reserved": 0, "is_disabled": 0, "fusion_lat": 0.0}, {"fusion_lon": 0.0, "bike_id": "337fc423c24d32767e472c39d13f596f", "name": "337fc423c24d32767e472c39d13f596f", "type": "electric_scooter", "lon": -77.01560766666667, "rental_uris": {"android": "https://dc.lft.to/lastmile_qr_scan", "ios": "https://dc.lft.to/lastmile_qr_scan"}, "lat": 38.913689166666664, "is_reserved": 0, "is_disabled": 0, "fusion_lat": 0.0}, {"fusion_lon": 0.0, "bike_id": "a98736ddac3519e967c65661001d2d64", "name": "a98736ddac3519e967c65661001d2d64", "type": "electric_scooter", "lon": -76.99212466666667, "rental_uris": {"android": "https://dc.lft.to/lastmile_qr_scan", "ios": "https://dc.lft.to/lastmile_qr_scan"}, "lat": 38.89514533333333, "is_reserved": 0, "is_disabled": 0, "fusion_lat": 0.0}, {"fusion_lon": 0.0, "bike_id": "f7390fcffac19a4ca44ed4f0fe63af9c", "name": "f7390fcffac19a4ca44ed4f0fe63af9c", "type": "electric_scooter", "lon": -77.0334535, "rental_uris": {"android": "https://dc.lft.to/lastmile_qr_scan", "ios": "https://dc.lft.to/lastmile_qr_scan"}, "lat": 38.90144866666667, "is_reserved": 0, "is_disabled": 0, "fusion_lat": 0.0}, {"fusion_lon": 0.0, "bike_id": "033383ba8246e8491be202c5b033f0e6", "name": "033383ba8246e8491be202c5b033f0e6", "type": "electric_scooter", "lon": -77.06604783333333, "rental_uris": {"android": "https://dc.lft.to/lastmile_qr_scan", "ios": "https://dc.lft.to/lastmile_qr_scan"}, "lat": 38.90453866666667, "is_reserved": 0, "is_disabled": 0, "fusion_lat": 0.0}, {"fusion_lon": 0.0, "bike_id": "bde3477ccc42fcb950894a1ad8286e77", "name": "bde3477ccc42fcb950894a1ad8286e77", "type": "electric_scooter", "lon": -77.031855, "rental_uris": {"android": "https://dc.lft.to/lastmile_qr_scan", "ios": "https://dc.lft.to/lastmile_qr_scan"}, "lat": 38.91356283333333, "is_reserved": 0, "is_disabled": 0, "fusion_lat": 0.0}, {"fusion_lon": 0.0, "bike_id": "67cabaaa5225c992be5f0f9bd11f11b3", "name": "67cabaaa5225c992be5f0f9bd11f11b3", "type": "electric_scooter", "lon": -77.031789, "rental_uris": {"android": "https://dc.lft.to/lastmile_qr_scan", "ios": "https://dc.lft.to/lastmile_qr_scan"}, "lat": 38.8866475, "is_reserved": 0, "is_disabled": 0, "fusion_lat": 0.0}, {"fusion_lon": 0.0, "bike_id": "379b8c0af3f7958d9c02ba38f1a81b52", "name": "379b8c0af3f7958d9c02ba38f1a81b52", "type": "electric_scooter", "lon": -77.0138785, "rental_uris": {"android": "https://dc.lft.to/lastmile_qr_scan", "ios": "https://dc.lft.to/lastmile_qr_scan"}, "lat": 38.910106666666664, "is_reserved": 0, "is_disabled": 0, "fusion_lat": 0.0}, {"fusion_lon": 0.0, "bike_id": "52985f982a158873c37526a88f5a0a77", "name": "52985f982a158873c37526a88f5a0a77", "type": "electric_scooter", "lon": -77.02157533333333, "rental_uris": {"android": "https://dc.lft.to/lastmile_qr_scan", "ios": "https://dc.lft.to/lastmile_qr_scan"}, "lat": 38.92602483333334, "is_reserved": 0, "is_disabled": 0, "fusion_lat": 0.0}, {"fusion_lon": 0.0, "bike_id": "d2f104d47977b8beaa17730133201fe5", "name": "d2f104d47977b8beaa17730133201fe5", "type": "electric_scooter", "lon": -77.02182083333334, "rental_uris": {"android": "https://dc.lft.to/lastmile_qr_scan", "ios": "https://dc.lft.to/lastmile_qr_scan"}, "lat": 38.879176666666666, "is_reserved": 0, "is_disabled": 0, "fusion_lat": 0.0}, {"fusion_lon": 0.0, "bike_id": "3c1d37a8450b23d9c1d7d7c5643947da", "name": "3c1d37a8450b23d9c1d7d7c5643947da", "type": "electric_scooter", "lon": -77.02485883333334, "rental_uris": {"android": "https://dc.lft.to/lastmile_qr_scan", "ios": "https://dc.lft.to/lastmile_qr_scan"}, "lat": 38.904164333333334, "is_reserved": 0, "is_disabled": 0, "fusion_lat": 0.0}, {"fusion_lon": 0.0, "bike_id": "4938243210c0319899f287ca95613d66", "name": "4938243210c0319899f287ca95613d66", "type": "electric_scooter", "lon": -77.03049016666667, "rental_uris": {"android": "https://dc.lft.to/lastmile_qr_scan", "ios": "https://dc.lft.to/lastmile_qr_scan"}, "lat": 38.884036333333334, "is_reserved": 0, "is_disabled": 0, "fusion_lat": 0.0}, {"fusion_lon": 0.0, "bike_id": "0eb021214cf65c0db5814edd91338291", "name": "0eb021214cf65c0db5814edd91338291", "type": "electric_scooter", "lon": -77.05925716666667, "rental_uris": {"android": "https://dc.lft.to/lastmile_qr_scan", "ios": "https://dc.lft.to/lastmile_qr_scan"}, "lat": 38.909983, "is_reserved": 0, "is_disabled": 0, "fusion_lat": 0.0}, {"fusion_lon": 0.0, "bike_id": "6c3a04a08f12f20a0a526b1581ea7591", "name": "6c3a04a08f12f20a0a526b1581ea7591", "type": "electric_scooter", "lon": -77.0374005, "rental_uris": {"android": "https://dc.lft.to/lastmile_qr_scan", "ios": "https://dc.lft.to/lastmile_qr_scan"}, "lat": 38.9356845, "is_reserved": 0, "is_disabled": 0, "fusion_lat": 0.0}, {"fusion_lon": 0.0, "bike_id": "c3991434404a52b84b51bbb9ca26b27b", "name": "c3991434404a52b84b51bbb9ca26b27b", "type": "electric_scooter", "lon": -77.01766316666667, "rental_uris": {"android": "https://dc.lft.to/lastmile_qr_scan", "ios": "https://dc.lft.to/lastmile_qr_scan"}, "lat": 38.87707616666667, "is_reserved": 0, "is_disabled": 0, "fusion_lat": 0.0}, {"fusion_lon": 0.0, "bike_id": "b324af989a743064e2d1b411203b9ed0", "name": "b324af989a743064e2d1b411203b9ed0", "type": "electric_scooter", "lon": -77.02227883333333, "rental_uris": {"android": "https://dc.lft.to/lastmile_qr_scan", "ios": "https://dc.lft.to/lastmile_qr_scan"}, "lat": 38.912689666666665, "is_reserved": 0, "is_disabled": 0, "fusion_lat": 0.0}, {"fusion_lon": 0.0, "bike_id": "1258b80ce3707bd3aa64664e681c39e5", "name": "1258b80ce3707bd3aa64664e681c39e5", "type": "electric_bike", "lon": -76.874954, "rental_uris": {"android": "https://dc.lft.to/lastmile_qr_scan", "ios": "https://dc.lft.to/lastmile_qr_scan"}, "lat": 38.99089016666667, "is_reserved": 0, "is_disabled": 0, "fusion_lat": 0.0}, {"fusion_lon": 0.0, "bike_id": "e10d2d4868d8f557452354e89a7ddd71", "name": "e10d2d4868d8f557452354e89a7ddd71", "type": "electric_bike", "lon": -77.10029616666667, "rental_uris": {"android": "https://dc.lft.to/lastmile_qr_scan", "ios": "https://dc.lft.to/lastmile_qr_scan"}, "lat": 38.990625666666666, "is_reserved": 0, "is_disabled": 0, "fusion_lat": 0.0}, {"fusion_lon": 0.0, "bike_id": "fe08f45dbd4f0a73b21dc879d38182a4", "name": "fe08f45dbd4f0a73b21dc879d38182a4", "type": "electric_scooter", "lon": -77.04022866666666, "rental_uris": {"android": "https://dc.lft.to/lastmile_qr_scan", "ios": "https://dc.lft.to/lastmile_qr_scan"}, "lat": 38.91299583333333, "is_reserved": 0, "is_disabled": 0, "fusion_lat": 0.0}, {"fusion_lon": 0.0, "bike_id": "2f9caf16d9980727606e2b91aac4fab1", "name": "2f9caf16d9980727606e2b91aac4fab1", "type": "electric_scooter", "lon": -77.02802633333333, "rental_uris": {"android": "https://dc.lft.to/lastmile_qr_scan", "ios": "https://dc.lft.to/lastmile_qr_scan"}, "lat": 38.95093633333333, "is_reserved": 0, "is_disabled": 0, "fusion_lat": 0.0}, {"fusion_lon": 0.0, "bike_id": "14bb0259bb6a032059529116fb4e3cf4", "name": "14bb0259bb6a032059529116fb4e3cf4", "type": "electric_scooter", "lon": -77.00202916666667, "rental_uris": {"android": "https://dc.lft.to/lastmile_qr_scan", "ios": "https://dc.lft.to/lastmile_qr_scan"}, "lat": 38.90238166666666, "is_reserved": 0, "is_disabled": 0, "fusion_lat": 0.0}, {"fusion_lon": 0.0, "bike_id": "7f28cbd711cb162588e284c40e12e48c", "name": "7f28cbd711cb162588e284c40e12e48c", "type": "electric_scooter", "lon": -77.03153066666667, "rental_uris": {"android": "https://dc.lft.to/lastmile_qr_scan", "ios": "https://dc.lft.to/lastmile_qr_scan"}, "lat": 38.92788933333333, "is_reserved": 0, "is_disabled": 0, "fusion_lat": 0.0}, {"fusion_lon": 0.0, "bike_id": "c1c6c729e671a7811bfd3368f168618a", "name": "c1c6c729e671a7811bfd3368f168618a", "type": "electric_scooter", "lon": -77.00335333333334, "rental_uris": {"android": "https://dc.lft.to/lastmile_qr_scan", "ios": "https://dc.lft.to/lastmile_qr_scan"}, "lat": 38.907116, "is_reserved": 0, "is_disabled": 0, "fusion_lat": 0.0}, {"fusion_lon": 0.0, "bike_id": "abfc73111882ac9097456b58e08c907f", "name": "abfc73111882ac9097456b58e08c907f", "type": "electric_bike", "lon": -77.04898933333334, "rental_uris": {"android": "https://dc.lft.to/lastmile_qr_scan", "ios": "https://dc.lft.to/lastmile_qr_scan"}, "lat": 38.874927, "is_reserved": 0, "is_disabled": 0, "fusion_lat": 0.0}, {"fusion_lon": 0.0, "bike_id": "c3691d8d1cbe7b2aa5b65eef7bf99f61", "name": "c3691d8d1cbe7b2aa5b65eef7bf99f61", "type": "electric_scooter", "lon": -77.0179565, "rental_uris": {"android": "https://dc.lft.to/lastmile_qr_scan", "ios": "https://dc.lft.to/lastmile_qr_scan"}, "lat": 38.9411055, "is_reserved": 0, "is_disabled": 0, "fusion_lat": 0.0}, {"fusion_lon": 0.0, "bike_id": "2edf11108d4077bdd8b7422145294f53", "name": "2edf11108d4077bdd8b7422145294f53", "type": "electric_scooter", "lon": -77.02935816666667, "rental_uris": {"android": "https://dc.lft.to/lastmile_qr_scan", "ios": "https://dc.lft.to/lastmile_qr_scan"}, "lat": 38.914152, "is_reserved": 0, "is_disabled": 0, "fusion_lat": 0.0}, {"fusion_lon": 0.0, "bike_id": "2163d906ca110072c6e3fa811a5b6817", "name": "2163d906ca110072c6e3fa811a5b6817", "type": "electric_scooter", "lon": -77.0094375, "rental_uris": {"android": "https://dc.lft.to/lastmile_qr_scan", "ios": "https://dc.lft.to/lastmile_qr_scan"}, "lat": 38.876607166666666, "is_reserved": 0, "is_disabled": 0, "fusion_lat": 0.0}, {"fusion_lon": 0.0, "bike_id": "13d9816ede41b7c53096ae9622993688", "name": "13d9816ede41b7c53096ae9622993688", "type": "electric_bike", "lon": -77.11234183333333, "rental_uris": {"android": "https://dc.lft.to/lastmile_qr_scan", "ios": "https://dc.lft.to/lastmile_qr_scan"}, "lat": 38.8122495, "is_reserved": 0, "is_disabled": 0, "fusion_lat": 0.0}, {"fusion_lon": 0.0, "bike_id": "5d492b59cb699656cd2b9497f911765c", "name": "5d492b59cb699656cd2b9497f911765c", "type": "electric_scooter", "lon": -76.98846933333333, "rental_uris": {"android": "https://dc.lft.to/lastmile_qr_scan", "ios": "https://dc.lft.to/lastmile_qr_scan"}, "lat": 38.900255333333334, "is_reserved": 0, "is_disabled": 0, "fusion_lat": 0.0}, {"fusion_lon": 0.0, "bike_id": "e59ab0d7805f5923c8cda0c4caedf897", "name": "e59ab0d7805f5923c8cda0c4caedf897", "type": "electric_scooter", "lon": -76.98381433333333, "rental_uris": {"android": "https://dc.lft.to/lastmile_qr_scan", "ios": "https://dc.lft.to/lastmile_qr_scan"}, "lat": 38.90646533333334, "is_reserved": 0, "is_disabled": 0, "fusion_lat": 0.0}, {"fusion_lon": 0.0, "bike_id": "b5baf8ec7c470a34d6a41a06c27bb21e", "name": "b5baf8ec7c470a34d6a41a06c27bb21e", "type": "electric_scooter", "lon": -77.02594483333333, "rental_uris": {"android": "https://dc.lft.to/lastmile_qr_scan", "ios": "https://dc.lft.to/lastmile_qr_scan"}, "lat": 38.912771, "is_reserved": 0, "is_disabled": 0, "fusion_lat": 0.0}, {"fusion_lon": 0.0, "bike_id": "de9d4f012f9c615dd9436fa09bfd5429", "name": "de9d4f012f9c615dd9436fa09bfd5429", "type": "electric_scooter", "lon": -77.02158933333334, "rental_uris": {"android": "https://dc.lft.to/lastmile_qr_scan", "ios": "https://dc.lft.to/lastmile_qr_scan"}, "lat": 38.926063166666665, "is_reserved": 0, "is_disabled": 0, "fusion_lat": 0.0}, {"fusion_lon": 0.0, "bike_id": "c4271fdc571aca32ff35ff225497e2bc", "name": "c4271fdc571aca32ff35ff225497e2bc", "type": "electric_bike", "lon": -76.9811985, "rental_uris": {"android": "https://dc.lft.to/lastmile_qr_scan", "ios": "https://dc.lft.to/lastmile_qr_scan"}, "lat": 38.89668983333333, "is_reserved": 0, "is_disabled": 0, "fusion_lat": 0.0}, {"fusion_lon": 0.0, "bike_id": "c6bc63e3416efe5e7da67b25227861a5", "name": "c6bc63e3416efe5e7da67b25227861a5", "type": "electric_bike", "lon": -77.10184183333334, "rental_uris": {"android": "https://dc.lft.to/lastmile_qr_scan", "ios": "https://dc.lft.to/lastmile_qr_scan"}, "lat": 38.91809333333333, "is_reserved": 0, "is_disabled": 0, "fusion_lat": 0.0}, {"fusion_lon": 0.0, "bike_id": "9a64522b9acfa78eb2c9633057ce975c", "name": "9a64522b9acfa78eb2c9633057ce975c", "type": "electric_scooter", "lon": -76.99627433333333, "rental_uris": {"android": "https://dc.lft.to/lastmile_qr_scan", "ios": "https://dc.lft.to/lastmile_qr_scan"}, "lat": 38.88609016666667, "is_reserved": 0, "is_disabled": 0, "fusion_lat": 0.0}, {"fusion_lon": 0.0, "bike_id": "75f514b29a89fe9a5edeba77ebedba89", "name": "75f514b29a89fe9a5edeba77ebedba89", "type": "electric_scooter", "lon": -77.05236166666667, "rental_uris": {"android": "https://dc.lft.to/lastmile_qr_scan", "ios": "https://dc.lft.to/lastmile_qr_scan"}, "lat": 38.924640833333335, "is_reserved": 0, "is_disabled": 0, "fusion_lat": 0.0}, {"fusion_lon": 0.0, "bike_id": "33b1d65b90bd4319459400192be856c9", "name": "33b1d65b90bd4319459400192be856c9", "type": "electric_bike", "lon": -76.98333650000001, "rental_uris": {"android": "https://dc.lft.to/lastmile_qr_scan", "ios": "https://dc.lft.to/lastmile_qr_scan"}, "lat": 38.966046666666664, "is_reserved": 0, "is_disabled": 0, "fusion_lat": 0.0},