{"data": {"bikes": [{"is_disabled": 0, "fusion_lon": 0.0, "fusion_lat": 0.0, "lat": 38.91997816666667, "type": "electric_scooter", "lon": -77.03219916666667, "bike_id": "6ed836c09a9d58988a8b3f4d6e6e5379", "rental_uris": {"android": "https://dc.lft.to/lastmile_qr_scan", "ios": "https://dc.lft.to/lastmile_qr_scan"}, "name": "6ed836c09a9d58988a8b3f4d6e6e5379", "is_reserved": 0}, {"is_disabled": 0, "fusion_lon": 0.0, "fusion_lat": 0.0, "lat": 38.941969666666665, "type": "electric_scooter", "lon": -77.02580016666667, "bike_id": "8c490d6aaf817d0f149687c18d42eef8", "rental_uris": {"android": "https://dc.lft.to/lastmile_qr_scan", "ios": "https://dc.lft.to/lastmile_qr_scan"}, "name": "8c490d6aaf817d0f149687c18d42eef8", "is_reserved": 0}, {"is_disabled": 0, "fusion_lon": 0.0, "fusion_lat": 0.0, "lat": 38.8849015, "type": "electric_scooter", "lon": -77.0072335, "bike_id": "d81a373a411b733da47befccd7fc621c", "rental_uris": {"android": "https://dc.lft.to/lastmile_qr_scan", "ios": "https://dc.lft.to/lastmile_qr_scan"}, "name": "d81a373a411b733da47befccd7fc621c", "is_reserved": 0}, {"is_disabled": 0, "fusion_lon": 0.0, "fusion_lat": 0.0, "lat": 38.84424533333333, "type": "electric_scooter", "lon": -76.99781383333334, "bike_id": "ca09bd54afa2ae251e8277c2145d4f9a", "rental_uris": {"android": "https://dc.lft.to/lastmile_qr_scan", "ios": "https://dc.lft.to/lastmile_qr_scan"}, "name": "ca09bd54afa2ae251e8277c2145d4f9a", "is_reserved": 0}, {"is_disabled": 0, "fusion_lon": 0.0, "fusion_lat": 0.0, "lat": 38.895011, "type": "electric_scooter", "lon": -76.94880983333333, "bike_id": "cf22683d40eb21ec1fd5700a290c70bb", "rental_uris": {"android": "https://dc.lft.to/lastmile_qr_scan", "ios": "https://dc.lft.to/lastmile_qr_scan"}, "name": "cf22683d40eb21ec1fd5700a290c70bb", "is_reserved": 0}, {"is_disabled": 0, "fusion_lon": 0.0, "fusion_lat": 0.0, "lat": 38.93098533333333, "type": "electric_scooter", "lon": -77.03270566666667, "bike_id": "8760785788eb13e6cb4aab8abe5696d9", "rental_uris": {"android": "https://dc.lft.to/lastmile_qr_scan", "ios": "https://dc.lft.to/lastmile_qr_scan"}, "name": "8760785788eb13e6cb4aab8abe5696d9", "is_reserved": 0}, {"is_disabled": 0, "fusion_lon": 0.0, "fusion_lat": 0.0, "lat": 38.910009333333335, "type": "electric_scooter", "lon": -77.03735383333333, "bike_id": "9a90e46948b1807e0750783938a0fa6d", "rental_uris": {"android": "https://dc.lft.to/lastmile_qr_scan", "ios": "https://dc.lft.to/lastmile_qr_scan"}, "name": "9a90e46948b1807e0750783938a0fa6d", "is_reserved": 0}, {"is_disabled": 0, "fusion_lon": 0.0, "fusion_lat": 0.0, "lat": 38.90065833333333, "type": "electric_scooter", "lon": -77.04850016666667, "bike_id": "e60ba13eae1286b05ed1dd868f0e0711", "rental_uris": {"android": "https://dc.lft.to/lastmile_qr_scan", "ios": "https://dc.lft.to/lastmile_qr_scan"}, "name": "e60ba13eae1286b05ed1dd868f0e0711", "is_reserved": 0}, {"is_disabled": 0, "fusion_lon": 0.0, "fusion_lat": 0.0, "lat": 38.943248, "type": "electric_scooter", "lon": -77.08581583333333, "bike_id": "9570834e640a53684c5a684ee211b8ec", "rental_uris": {"android": "https://dc.lft.to/lastmile_qr_scan", "ios": "https://dc.lft.to/lastmile_qr_scan"}, "name": "9570834e640a53684c5a684ee211b8ec", "is_reserved": 0}, {"is_disabled": 0, "fusion_lon": 0.0, "fusion_lat": 0.0, "lat": 38.872899333333336, "type": "electric_scooter", "lon": -77.00986533333334, "bike_id": "e78425a333abb6af9d91734a77e234fd", "rental_uris": {"android": "https://dc.lft.to/lastmile_qr_scan", "ios": "https://dc.lft.to/lastmile_qr_scan"}, "name": "e78425a333abb6af9d91734a77e234fd", "is_reserved": 0}, {"is_disabled": 0, "fusion_lon": 0.0, "fusion_lat": 0.0, "lat": 38.892768833333335, "type": "electric_scooter", "lon": -76.93730683333334, "bike_id": "776175308e15bb54c02eec3feb3ef839", "rental_uris": {"android": "https://dc.lft.to/lastmile_qr_scan", "ios": "https://dc.lft.to/lastmile_qr_scan"}, "name": "776175308e15bb54c02eec3feb3ef839", "is_reserved": 0}, {"is_disabled": 0, "fusion_lon": 0.0, "fusion_lat": 0.0, "lat": 38.912491, "type": "electric_scooter", "lon": -77.04163766666667, "bike_id": "954aecdb96cca0a634b46c65c3f5aac7", "rental_uris": {"android": "https://dc.lft.to/lastmile_qr_scan", "ios": "https://dc.lft.to/lastmile_qr_scan"}, "name": "954aecdb96cca0a634b46c65c3f5aac7", "is_reserved": 0}, {"is_disabled": 0, "fusion_lon": 0.0, "fusion_lat": 0.0, "lat": 38.90269766666667, "type": "electric_scooter", "lon": -77.0282895, "bike_id": "4e2486d9150f2e0ce63282ad4c92d6b6", "rental_uris": {"android": "https://dc.lft.to/lastmile_qr_scan", "ios": "https://dc.lft.to/lastmile_qr_scan"}, "name": "4e2486d9150f2e0ce63282ad4c92d6b6", "is_reserved": 0}, {"is_disabled": 0, "fusion_lon": 0.0, "fusion_lat": 0.0, "lat": 38.87972516666667, "type": "electric_scooter", "lon": -76.993687, "bike_id": "caad44d4b0146e7203c0d8399f39b46d", "rental_uris": {"android": "https://dc.lft.to/lastmile_qr_scan", "ios": "https://dc.lft.to/lastmile_qr_scan"}, "name": "caad44d4b0146e7203c0d8399f39b46d", "is_reserved": 0}, {"is_disabled": 0, "fusion_lon": 0.0, "fusion_lat": 0.0, "lat": 38.92172216666667, "type": "electric_scooter", "lon": -77.03837066666667, "bike_id": "90a1c752218acab424aa4cdd0fd82772", "rental_uris": {"android": "https://dc.lft.to/lastmile_qr_scan", "ios": "https://dc.lft.to/lastmile_qr_scan"}, "name": "90a1c752218acab424aa4cdd0fd82772", "is_reserved": 0}, {"is_disabled": 0, "fusion_lon": 0.0, "fusion_lat": 0.0, "lat": 38.92537433333333, "type": "electric_scooter", "lon": -77.03476366666666, "bike_id": "6b11be57222b131d004ab22bf7624194", "rental_uris": {"android": "https://dc.lft.to/lastmile_qr_scan", "ios": "https://dc.lft.to/lastmile_qr_scan"}, "name": "6b11be57222b131d004ab22bf7624194", "is_reserved": 0}, {"is_disabled": 0, "fusion_lon": 0.0, "fusion_lat": 0.0, "lat": 38.984966166666666, "type": "electric_bike", "lon": -76.9819965, "bike_id": "f1ac2726307d600f81787a06fca708b0", "rental_uris": {"android": "https://dc.lft.to/lastmile_qr_scan", "ios": "https://dc.lft.to/lastmile_qr_scan"}, "name": "f1ac2726307d600f81787a06fca708b0", "is_reserved": 0}, {"is_disabled": 0, "fusion_lon": 0.0, "fusion_lat": 0.0, "lat": 38.8984055, "type": "electric_scooter", "lon": -77.0227935, "bike_id": "5e70bcb643cdd9b2ed37f8fce6f08f8d", "rental_uris": {"android": "https://dc.lft.to/lastmile_qr_scan", "ios": "https://dc.lft.to/lastmile_qr_scan"}, "name": "5e70bcb643cdd9b2ed37f8fce6f08f8d", "is_reserved": 0}, {"is_disabled": 0, "fusion_lon": 0.0, "fusion_lat": 0.0, "lat": 38.92550383333333, "type": "electric_scooter", "lon": -77.03790516666666, "bike_id": "aefdb59eab9c867484ee7667928eb687", "rental_uris": {"android": "https://dc.lft.to/lastmile_qr_scan", "ios": "https://dc.lft.to/lastmile_qr_scan"}, "name": "aefdb59eab9c867484ee7667928eb687", "is_reserved": 0}, {"is_disabled": 0, "fusion_lon": 0.0, "fusion_lat": 0.0, "lat": 38.8971815, "type": "electric_scooter", "lon": -77.0204015, "bike_id": "d73b8b95697a733edba3d44cc2cd4e0f", "rental_uris": {"android": "https://dc.lft.to/lastmile_qr_scan", "ios": "https://dc.lft.to/lastmile_qr_scan"}, "name": "d73b8b95697a733edba3d44cc2cd4e0f", "is_reserved": 0}, {"is_disabled": 0, "fusion_lon": 0.0, "fusion_lat": 0.0, "lat": 38.908386666666665, "type": "electric_scooter", "lon": -77.04363666666667, "bike_id": "56aa224ef0e22c1b56229adcc90be4bc", "rental_uris": {"android": "https://dc.lft.to/lastmile_qr_scan", "ios": "https://dc.lft.to/lastmile_qr_scan"}, "name": "56aa224ef0e22c1b56229adcc90be4bc", "is_reserved": 0}, {"is_disabled": 0, "fusion_lon": 0.0, "fusion_lat": 0.0, "lat": 38.90564283333333, "type": "electric_scooter", "lon": -77.017887, "bike_id": "50b2ebff66df8b07f69894e1593bc869", "rental_uris": {"android": "https://dc.lft.to/lastmile_qr_scan", "ios": "https://dc.lft.to/lastmile_qr_scan"}, "name": "50b2ebff66df8b07f69894e1593bc869", "is_reserved": 0}, {"is_disabled": 0, "fusion_lon": 0.0, "fusion_lat": 0.0, "lat": 38.915863333333334, "type": "electric_scooter", "lon": -77.03191666666666, "bike_id": "2aee1edd0720680eee9e66eceb38f1db", "rental_uris": {"android": "https://dc.lft.to/lastmile_qr_scan", "ios": "https://dc.lft.to/lastmile_qr_scan"}, "name": "2aee1edd0720680eee9e66eceb38f1db", "is_reserved": 0}, {"is_disabled": 0, "fusion_lon": 0.0, "fusion_lat": 0.0, "lat": 38.9462295, "type": "electric_bike", "lon": -76.93411466666667, "bike_id": "772e3a272caa0d549ff20ead02fed22e", "rental_uris": {"android": "https://dc.lft.to/lastmile_qr_scan", "ios": "https://dc.lft.to/lastmile_qr_scan"}, "name": "772e3a272caa0d549ff20ead02fed22e", "is_reserved": 0}, {"is_disabled": 0, "fusion_lon": 0.0, "fusion_lat": 0.0, "lat": 38.898234, "type": "electric_scooter", "lon": -76.94652733333334, "bike_id": "202cde8ddfbbabaad0e15e37b0ab02b6", "rental_uris": {"android": "https://dc.lft.to/lastmile_qr_scan", "ios": "https://dc.lft.to/lastmile_qr_scan"}, "name": "202cde8ddfbbabaad0e15e37b0ab02b6", "is_reserved": 0}, {"is_disabled": 0, "fusion_lon": 0.0, "fusion_lat": 0.0, "lat": 38.91691616666667, "type": "electric_scooter", "lon": -77.02589916666666, "bike_id": "8d2608b70bd222fb4686691c4cff6219", "rental_uris": {"android": "https://dc.lft.to/lastmile_qr_scan", "ios": "https://dc.lft.to/lastmile_qr_scan"}, "name": "8d2608b70bd222fb4686691c4cff6219", "is_reserved": 0}, {"is_disabled": 0, "fusion_lon": 0.0, "fusion_lat": 0.0, "lat": 38.90386866666667, "type": "electric_scooter", "lon": -76.99004216666667, "bike_id": "bfae1c2d9b6a7d74a2581a0d97a0e594", "rental_uris": {"android": "https://dc.lft.to/lastmile_qr_scan", "ios": "https://dc.lft.to/lastmile_qr_scan"}, "name": "bfae1c2d9b6a7d74a2581a0d97a0e594", "is_reserved": 0}, {"is_disabled": 0, "fusion_lon": 0.0, "fusion_lat": 0.0, "lat": 38.90972033333333, "type": "electric_scooter", "lon": -77.03617, "bike_id": "39b340d69276e43aabde2adead80d3b5", "rental_uris": {"android": "https://dc.lft.to/lastmile_qr_scan", "ios": "https://dc.lft.to/lastmile_qr_scan"}, "name": "39b340d69276e43aabde2adead80d3b5", "is_reserved": 0}, {"is_disabled": 0, "fusion_lon": 0.0, "fusion_lat": 0.0, "lat": 38.86954633333333, "type": "electric_scooter", "lon": -76.97593083333334, "bike_id": "2fb47c64407854f188171a481e36f07d", "rental_uris": {"android": "https://dc.lft.to/lastmile_qr_scan", "ios": "https://dc.lft.to/lastmile_qr_scan"}, "name": "2fb47c64407854f188171a481e36f07d", "is_reserved": 0}, {"is_disabled": 0, "fusion_lon": 0.0, "fusion_lat": 0.0, "lat": 38.90018533333333, "type": "electric_scooter", "lon": -77.05573216666667, "bike_id": "389a7022e5755c7469325f3e99577b7b", "rental_uris": {"android": "https://dc.lft.to/lastmile_qr_scan", "ios": "https://dc.lft.to/lastmile_qr_scan"}, "name": "389a7022e5755c7469325f3e99577b7b", "is_reserved": 0}, {"is_disabled": 0, "fusion_lon": 0.0, "fusion_lat": 0.0, "lat": 38.87621083333333, "type": "electric_scooter", "lon": -76.96537583333334, "bike_id": "207298f5a65b0f98e0ea5ef7226e11a8", "rental_uris": {"android": "https://dc.lft.to/lastmile_qr_scan", "ios": "https://dc.lft.to/lastmile_qr_scan"}, "name": "207298f5a65b0f98e0ea5ef7226e11a8", "is_reserved": 0}, {"is_disabled": 0, "fusion_lon": 0.0, "fusion_lat": 0.0, "lat": 38.898383833333334, "type": "electric_scooter", "lon": -77.04654383333333, "bike_id": "1791e7e8095130b4e430f782efa63c6a", "rental_uris": {"android": "https://dc.lft.to/lastmile_qr_scan", "ios": "https://dc.lft.to/lastmile_qr_scan"}, "name": "1791e7e8095130b4e430f782efa63c6a", "is_reserved": 0}, {"is_disabled": 0, "fusion_lon": 0.0, "fusion_lat": 0.0, "lat": 38.91470016666667, "type": "electric_scooter", "lon": -77.0219345, "bike_id": "2c8973a0675f895d06103a6299a77493", "rental_uris": {"android": "https://dc.lft.to/lastmile_qr_scan", "ios": "https://dc.lft.to/lastmile_qr_scan"}, "name": "2c8973a0675f895d06103a6299a77493", "is_reserved": 0}, {"is_disabled": 0, "fusion_lon": 0.0, "fusion_lat": 0.0, "lat": 38.9182025, "type": "electric_scooter", "lon": -77.02718183333333, "bike_id": "12388cf7b010527ba9b8f11d361f1b2e", "rental_uris": {"android": "https://dc.lft.to/lastmile_qr_scan", "ios": "https://dc.lft.to/lastmile_qr_scan"}, "name": "12388cf7b010527ba9b8f11d361f1b2e", "is_reserved": 0}, {"is_disabled": 0, "fusion_lon": 0.0, "fusion_lat": 0.0, "lat": 38.902450333333334, "type": "electric_bike", "lon": -76.970159, "bike_id": "214a3f8754d1778722d6187b159e6a81", "rental_uris": {"android": "https://dc.lft.to/lastmile_qr_scan", "ios": "https://dc.lft.to/lastmile_qr_scan"}, "name": "214a3f8754d1778722d6187b159e6a81", "is_reserved": 0}, {"is_disabled": 0, "fusion_lon": 0.0, "fusion_lat": 0.0, "lat": 38.91840283333333, "type": "electric_scooter", "lon": -77.03445483333333, "bike_id": "485e9e7ce15f2fc1158e9a3211f21ae0", "rental_uris": {"android": "https://dc.lft.to/lastmile_qr_scan", "ios": "https://dc.lft.to/lastmile_qr_scan"}, "name": "485e9e7ce15f2fc1158e9a3211f21ae0", "is_reserved": 0}, {"is_disabled": 0, "fusion_lon": 0.0, "fusion_lat": 0.0, "lat": 38.912722, "type": "electric_scooter", "lon": -77.0112945, "bike_id": "b1d155aece3e06af8190184ce0d8382a", "rental_uris": {"android": "https://dc.lft.to/lastmile_qr_scan", "ios": "https://dc.lft.to/lastmile_qr_scan"}, "name": "b1d155aece3e06af8190184ce0d8382a", "is_reserved": 0}, {"is_disabled": 0, "fusion_lon": 0.0, "fusion_lat": 0.0, "lat": 38.92417866666667, "type": "electric_scooter", "lon": -77.05750133333333, "bike_id": "79302f1b87bb27215c7051aab001d327", "rental_uris": {"android": "https://dc.lft.to/lastmile_qr_scan", "ios": "https://dc.lft.to/lastmile_qr_scan"}, "name": "79302f1b87bb27215c7051aab001d327", "is_reserved": 0}, {"is_disabled": 0, "fusion_lon": 0.0, "fusion_lat": 0.0, "lat": 38.913079, "type": "electric_scooter", "lon": -77.03186466666666, "bike_id": "6f7782fb64392e2d8c479873ea8ed3dc", "rental_uris": {"android": "https://dc.lft.to/lastmile_qr_scan", "ios": "https://dc.lft.to/lastmile_qr_scan"}, "name": "6f7782fb64392e2d8c479873ea8ed3dc", "is_reserved": 0}, {"is_disabled": 0, "fusion_lon": 0.0, "fusion_lat": 0.0, "lat": 38.89740333333334, "type": "electric_scooter", "lon": -77.04680216666667, "bike_id": "a88b63eb70b0b3f189e37a6d5298d84b", "rental_uris": {"android": "https://dc.lft.to/lastmile_qr_scan", "ios": "https://dc.lft.to/lastmile_qr_scan"}, "name": "a88b63eb70b0b3f189e37a6d5298d84b", "is_reserved": 0}, {"is_disabled": 0, "fusion_lon": 0.0, "fusion_lat": 0.0, "lat": 38.914352666666666, "type": "electric_scooter", "lon": -77.02957366666666, "bike_id": "0e29aa7bac4f34fda9e79cd22ff8794f", "rental_uris": {"android": "https://dc.lft.to/lastmile_qr_scan", "ios": "https://dc.lft.to/lastmile_qr_scan"}, "name": "0e29aa7bac4f34fda9e79cd22ff8794f", "is_reserved": 0}, {"is_disabled": 0, "fusion_lon": 0.0, "fusion_lat": 0.0, "lat": 38.92263783333333, "type": "electric_scooter", "lon": -77.04214183333333, "bike_id": "b59149a3e161f89e91a0c90683955f22", "rental_uris": {"android": "https://dc.lft.to/lastmile_qr_scan", "ios": "https://dc.lft.to/lastmile_qr_scan"}, "name": "b59149a3e161f89e91a0c90683955f22", "is_reserved": 0}, {"is_disabled": 0, "fusion_lon": 0.0, "fusion_lat": 0.0, "lat": 38.905980166666666, "type": "electric_scooter", "lon": -77.00603966666667, "bike_id": "c50528f2656598ee4d574bd25af7a687", "rental_uris": {"android": "https://dc.lft.to/lastmile_qr_scan", "ios": "https://dc.lft.to/lastmile_qr_scan"}, "name": "c50528f2656598ee4d574bd25af7a687", "is_reserved": 0}, {"is_disabled": 0, "fusion_lon": 0.0, "fusion_lat": 0.0, "lat": 38.970510166666664, "type": "electric_bike", "lon": -77.03081716666667, "bike_id": "8bcddd596f5e8ea629ad78a81fb1ce8c", "rental_uris": {"android": "https://dc.lft.to/lastmile_qr_scan", "ios": "https://dc.lft.to/lastmile_qr_scan"}, "name": "8bcddd596f5e8ea629ad78a81fb1ce8c", "is_reserved": 0}, {"is_disabled": 0, "fusion_lon": 0.0, "fusion_lat": 0.0, "lat": 38.911896666666664, "type": "electric_scooter", "lon": -77.03809866666667, "bike_id": "67b278030df97276bdca7de7b216585a", "rental_uris": {"android": "https://dc.lft.to/lastmile_qr_scan", "ios": "https://dc.lft.to/lastmile_qr_scan"}, "name": "67b278030df97276bdca7de7b216585a", "is_reserved": 0}, {"is_disabled": 0, "fusion_lon": 0.0, "fusion_lat": 0.0, "lat": 38.96021433333333, "type": "electric_bike", "lon": -77.0424865, "bike_id": "fae1b5465a277513099566543442ae73", "rental_uris": {"android": "https://dc.lft.to/lastmile_qr_scan", "ios": "https://dc.lft.to/lastmile_qr_scan"}, "name": "fae1b5465a277513099566543442ae73", "is_reserved": 0}, {"is_disabled": 0, "fusion_lon": 0.0, "fusion_lat": 0.0, "lat": 38.8967645, "type": "electric_scooter", "lon": -76.97622366666667, "bike_id": "38303d73be763e35877b54f36c81fed9", "rental_uris": {"android": "https://dc.lft.to/lastmile_qr_scan", "ios": "https://dc.lft.to/lastmile_qr_scan"}, "name": "38303d73be763e35877b54f36c81fed9", "is_reserved": 0}, {"is_disabled": 0, "fusion_lon": 0.0, "fusion_lat": 0.0, "lat": 38.93100533333333, "type": "electric_scooter", "lon": -77.03266116666667, "bike_id": "4b042ece4eb79a1016b86b380b1be99d", "rental_uris": {"android": "https://dc.lft.to/lastmile_qr_scan", "ios": "https://dc.lft.to/lastmile_qr_scan"}, "name": "4b042ece4eb79a1016b86b380b1be99d", "is_reserved": 0}, {"is_disabled": 0, "fusion_lon": 0.0, "fusion_lat": 0.0, "lat": 38.928202, "type": "electric_scooter", "lon": -77.021473, "bike_id": "d1b8c2fffcba151508d3f174fee9e529", "rental_uris": {"android": "https://dc.lft.to/lastmile_qr_scan", "ios": "https://dc.lft.to/lastmile_qr_scan"}, "name": "d1b8c2fffcba151508d3f174fee9e529", "is_reserved": 0}, {"is_disabled": 0, "fusion_lon": 0.0, "fusion_lat": 0.0, "lat": 38.99268333333333, "type": "electric_scooter", "lon": -77.03610233333333, "bike_id": "6c590cab6ab4ba1d044a176bf15b730d", "rental_uris": {"android": "https://dc.lft.to/lastmile_qr_scan", "ios": "https://dc.lft.to/lastmile_qr_scan"}, "name": "6c590cab6ab4ba1d044a176bf15b730d", "is_reserved": 0}, {"is_disabled": 0, "fusion_lon": 0.0, "fusion_lat": 0.0, "lat": 38.92260233333333, "type": "electric_scooter", "lon": -77.03680666666666, "bike_id": "5390e9bd2865f0f44056f21f7a7d2681", "rental_uris": {"android": "https://dc.lft.to/lastmile_qr_scan", "ios": "https://dc.lft.to/lastmile_qr_scan"}, "name": "5390e9bd2865f0f44056f21f7a7d2681", "is_reserved": 0}, {"is_disabled": 0, "fusion_lon": 0.0, "fusion_lat": 0.0, "lat": 38.917077, "type": "electric_scooter", "lon": -77.05125083333333, "bike_id": "b51410412b419e158653fb0da6ecc6e4", "rental_uris": {"android": "https://dc.lft.to/lastmile_qr_scan", "ios": "https://dc.lft.to/lastmile_qr_scan"}, "name": "b51410412b419e158653fb0da6ecc6e4", "is_reserved": 0}, {"is_disabled": 0, "fusion_lon": 0.0, "fusion_lat": 0.0, "lat": 38.909432333333335, "type": "electric_scooter", "lon": -77.04712233333333, "bike_id": "684cd11baa5ddb6ecfca46b1ae41fec0", "rental_uris": {"android": "https://dc.lft.to/lastmile_qr_scan", "ios": "https://dc.lft.to/lastmile_qr_scan"}, "name": "684cd11baa5ddb6ecfca46b1ae41fec0", "is_reserved": 0}, {"is_disabled": 0, "fusion_lon": 0.0, "fusion_lat": 0.0, "lat": 38.9074305, "type": "electric_scooter", "lon": -77.041577, "bike_id": "dc4a70c9a165a72cb941ba79eeac4371", "rental_uris": {"android": "https://dc.lft.to/lastmile_qr_scan", "ios": "https://dc.lft.to/lastmile_qr_scan"}, "name": "dc4a70c9a165a72cb941ba79eeac4371", "is_reserved": 0}, {"is_disabled": 0, "fusion_lon": 0.0, "fusion_lat": 0.0, "lat": 38.90971833333333, "type": "electric_scooter", "lon": -77.04624033333333, "bike_id": "d86b3db54e2bdec981ff9afbf9dd30e9", "rental_uris": {"android": "https://dc.lft.to/lastmile_qr_scan", "ios": "https://dc.lft.to/lastmile_qr_scan"}, "name": "d86b3db54e2bdec981ff9afbf9dd30e9", "is_reserved": 0}, {"is_disabled": 0, "fusion_lon": 0.0, "fusion_lat": 0.0, "lat": 38.9367215, "type": "electric_bike", "lon": -76.95205583333333, "bike_id": "30fc9d52aedb3969c15a40a9f2490e5a", "rental_uris": {"android": "https://dc.lft.to/lastmile_qr_scan", "ios": "https://dc.lft.to/lastmile_qr_scan"}, "name": "30fc9d52aedb3969c15a40a9f2490e5a", "is_reserved": 0}, {"is_disabled": 0, "fusion_lon": 0.0, "fusion_lat": 0.0, "lat": 38.9348165, "type": "electric_scooter", "lon": -77.07268483333333, "bike_id": "c57cba9e86306cbdeae8e5a78366d865", "rental_uris": {"android": "https://dc.lft.to/lastmile_qr_scan", "ios": "https://dc.lft.to/lastmile_qr_scan"}, "name": "c57cba9e86306cbdeae8e5a78366d865", "is_reserved": 0}, {"is_disabled": 0, "fusion_lon": 0.0, "fusion_lat": 0.0, "lat": 38.958381333333335, "type": "electric_scooter", "lon": -77.07163666666666, "bike_id": "19722a210d0ca45f060a09f4e8c11756", "rental_uris": {"android": "https://dc.lft.to/lastmile_qr_scan", "ios": "https://dc.lft.to/lastmile_qr_scan"}, "name": "19722a210d0ca45f060a09f4e8c11756", "is_reserved": 0}, {"is_disabled": 0, "fusion_lon": 0.0, "fusion_lat": 0.0, "lat": 38.8857655, "type": "electric_scooter", "lon": -76.91910383333334, "bike_id": "2ae9d2b82c38f5db7fe51c62e1381506", "rental_uris": {"android": "https://dc.lft.to/lastmile_qr_scan", "ios": "https://dc.lft.to/lastmile_qr_scan"}, "name": "2ae9d2b82c38f5db7fe51c62e1381506", "is_reserved": 0}, {"is_disabled": 0, "fusion_lon": 0.0, "fusion_lat": 0.0, "lat": 38.915481, "type": "electric_scooter", "lon": -77.0385105, "bike_id": "9548d6653da09db8b107ad282cd7d637", "rental_uris": {"android": "https://dc.lft.to/lastmile_qr_scan", "ios": "https://dc.lft.to/lastmile_qr_scan"}, "name": "9548d6653da09db8b107ad282cd7d637", "is_reserved": 0}, {"is_disabled": 0, "fusion_lon": 0.0, "fusion_lat": 0.0, "lat": 38.9103075, "type": "electric_scooter", "lon": -77.04248066666666, "bike_id": "02e92362133268a819747d4bc0705895", "rental_uris": {"android": "https://dc.lft.to/lastmile_qr_scan", "ios": "https://dc.lft.to/lastmile_qr_scan"}, "name": "02e92362133268a819747d4bc0705895", "is_reserved": 0}, {"is_disabled": 0, "fusion_lon": 0.0, "fusion_lat": 0.0, "lat": 39.038814, "type": "electric_bike", "lon": -77.10909083333334, "bike_id": "a3d72be79acab03786381db68aa7334f", "rental_uris": {"android": "https://dc.lft.to/lastmile_qr_scan", "ios": "https://dc.lft.to/lastmile_qr_scan"}, "name": "a3d72be79acab03786381db68aa7334f", "is_reserved": 0}, {"is_disabled": 0, "fusion_lon": 0.0, "fusion_lat": 0.0, "lat": 38.87847266666667, "type": "electric_scooter", "lon": -77.00283116666667, "bike_id": "bf114e52866a2b8439aa1f8eb65ad49c", "rental_uris": {"android": "https://dc.lft.to/lastmile_qr_scan", "ios": "https://dc.lft.to/lastmile_qr_scan"}, "name": "bf114e52866a2b8439aa1f8eb65ad49c", "is_reserved": 0}, {"is_disabled": 0, "fusion_lon": 0.0, "fusion_lat": 0.0, "lat": 38.90279833333334, "type": "electric_scooter", "lon": -77.02826166666667, "bike_id": "4ee1b143786739a10ea1d1f1e6734e32", "rental_uris": {"android": "https://dc.lft.to/lastmile_qr_scan", "ios": "https://dc.lft.to/lastmile_qr_scan"}, "name": "4ee1b143786739a10ea1d1f1e6734e32", "is_reserved": 0}, {"is_disabled": 0, "fusion_lon": 0.0, "fusion_lat": 0.0, "lat": 38.92572933333334, "type": "electric_scooter", "lon": -77.03772766666667, "bike_id": "96de06b095a1adf71e76a998a82e0134", "rental_uris": {"android": "https://dc.lft.to/lastmile_qr_scan", "ios": "https://dc.lft.to/lastmile_qr_scan"}, "name": "96de06b095a1adf71e76a998a82e0134", "is_reserved": 0}, {"is_disabled": 0, "fusion_lon": 0.0, "fusion_lat": 0.0, "lat": 38.894746166666664, "type": "electric_scooter", "lon": -76.93305566666666, "bike_id": "16fd021fdff187a4c175ef62013a5d56", "rental_uris": {"android": "https://dc.lft.to/lastmile_qr_scan", "ios": "https://dc.lft.to/lastmile_qr_scan"}, "name": "16fd021fdff187a4c175ef62013a5d56", "is_reserved": 0}, {"is_disabled": 0, "fusion_lon": 0.0, "fusion_lat": 0.0, "lat": 38.87183433333333, "type": "electric_scooter", "lon": -77.00596116666667, "bike_id": "66f8dc04a946d2486b83cf9ea479b57e", "rental_uris": {"android": "https://dc.lft.to/lastmile_qr_scan", "ios": "https://dc.lft.to/lastmile_qr_scan"}, "name": "66f8dc04a946d2486b83cf9ea479b57e", "is_reserved": 0}, {"is_disabled": 0, "fusion_lon": 0.0, "fusion_lat": 0.0, "lat": 38.89477216666667, "type": "electric_scooter", "lon": -77.0214085, "bike_id": "6025f780e8e21a65f0ff2c44b3ae4812", "rental_uris": {"android": "https://dc.lft.to/lastmile_qr_scan", "ios": "https://dc.lft.to/lastmile_qr_scan"}, "name": "6025f780e8e21a65f0ff2c44b3ae4812", "is_reserved": 0}, {"is_disabled": 0, "fusion_lon": 0.0, "fusion_lat": 0.0, "lat": 38.87898083333333, "type": "electric_scooter", "lon": -76.935229, "bike_id": "1f7adda4937440376e450c83b66bd5e1", "rental_uris": {"android": "https://dc.lft.to/lastmile_qr_scan", "ios": "https://dc.lft.to/lastmile_qr_scan"}, "name": "1f7adda4937440376e450c83b66bd5e1", "is_reserved": 0}, {"is_disabled": 0, "fusion_lon": 0.0, "fusion_lat": 0.0, "lat": 38.89798183333333, "type": "electric_scooter", "lon": -77.0118705, "bike_id": "1aa7f65cedf55f854b5abe0d19dbc50c", "rental_uris": {"android": "https://dc.lft.to/lastmile_qr_scan", "ios": "https://dc.lft.to/lastmile_qr_scan"}, "name": "1aa7f65cedf55f854b5abe0d19dbc50c", "is_reserved": 0}, {"is_disabled": 0, "fusion_lon": 0.0, "fusion_lat": 0.0, "lat": 38.905233333333335, "type": "electric_scooter", "lon": -77.05762116666666, "bike_id": "8983b1002415fb328320709d2ef6676c", "rental_uris": {"android": "https://dc.lft.to/lastmile_qr_scan", "ios": "https://dc.lft.to/lastmile_qr_scan"}, "name": "8983b1002415fb328320709d2ef6676c", "is_reserved": 0}, {"is_disabled": 0, "fusion_lon": 0.0, "fusion_lat": 0.0, "lat": 38.805517, "type": "electric_bike", "lon": -77.1324105, "bike_id": "330f0d8631cec0d3a2d6f529066a2437", "rental_uris": {"android": "https://dc.lft.to/lastmile_qr_scan", "ios": "https://dc.lft.to/lastmile_qr_scan"}, "name": "330f0d8631cec0d3a2d6f529066a2437", "is_reserved": 0}, {"is_disabled": 0, "fusion_lon": 0.0, "fusion_lat": 0.0, "lat": 38.94305333333333, "type": "electric_scooter", "lon": -77.02530466666667, "bike_id": "904c23354688d4cc21fae60f8e5fe512", "rental_uris": {"android": "https://dc.lft.to/lastmile_qr_scan", "ios": "https://dc.lft.to/lastmile_qr_scan"}, "name": "904c23354688d4cc21fae60f8e5fe512", "is_reserved": 0}, {"is_disabled": 0, "fusion_lon": 0.0, "fusion_lat": 0.0, "lat": 38.88421483333333, "type": "electric_scooter", "lon": -77.01982166666667, "bike_id": "41e4de7ca1564e0cb75ba11a98e5d688", "rental_uris": {"android": "https://dc.lft.to/lastmile_qr_scan", "ios": "https://dc.lft.to/lastmile_qr_scan"}, "name": "41e4de7ca1564e0cb75ba11a98e5d688", "is_reserved": 0}, {"is_disabled": 0, "fusion_lon": 0.0, "fusion_lat": 0.0, "lat": 38.8952165, "type": "electric_scooter", "lon": -77.00330016666666, "bike_id": "8575c40b3aac8a4debd8d751aea0ddbf", "rental_uris": {"android": "https://dc.lft.to/lastmile_qr_scan", "ios": "https://dc.lft.to/lastmile_qr_scan"}, "name": "8575c40b3aac8a4debd8d751aea0ddbf", "is_reserved": 0}, {"is_disabled": 0, "fusion_lon": 0.0, "fusion_lat": 0.0, "lat": 38.90969466666667, "type": "electric_scooter", "lon": -77.03438516666667, "bike_id": "86389f5a2403e3d799dc79943f5c0cb0", "rental_uris": {"android": "https://dc.lft.to/lastmile_qr_scan", "ios": "https://dc.lft.to/lastmile_qr_scan"}, "name": "86389f5a2403e3d799dc79943f5c0cb0", "is_reserved": 0}, {"is_disabled": 0, "fusion_lon": 0.0, "fusion_lat": 0.0, "lat": 38.842932166666664, "type": "electric_scooter", "lon": -76.99948083333334, "bike_id": "36566001704f5fb8dbfa418b4c1308b4", "rental_uris": {"android": "https://dc.lft.to/lastmile_qr_scan", "ios": "https://dc.lft.to/lastmile_qr_scan"}, "name": "36566001704f5fb8dbfa418b4c1308b4", "is_reserved": 0}, {"is_disabled": 0, "fusion_lon": 0.0, "fusion_lat": 0.0, "lat": 38.94461, "type": "electric_bike", "lon": -77.04341616666666, "bike_id": "dfd2dacc7ea9fffa9ed932765375434a", "rental_uris": {"android": "https://dc.lft.to/lastmile_qr_scan", "ios": "https://dc.lft.to/lastmile_qr_scan"}, "name": "dfd2dacc7ea9fffa9ed932765375434a", "is_reserved": 0}, {"is_disabled": 0, "fusion_lon": 0.0, "fusion_lat": 0.0, "lat": 38.96615383333334, "type": "electric_bike", "lon": -77.03431933333333, "bike_id": "184239dd13c97e59905c9a56e9012ef1", "rental_uris": {"android": "https://dc.lft.to/lastmile_qr_scan", "ios": "https://dc.lft.to/lastmile_qr_scan"}, "name": "184239dd13c97e59905c9a56e9012ef1", "is_reserved": 0}, {"is_disabled": 0, "fusion_lon": 0.0, "fusion_lat": 0.0, "lat": 38.908686, "type": "electric_scooter", "lon": -77.001742, "bike_id": "1f39c8aea57ecde7ae247c50f8ebd7f4", "rental_uris": {"android": "https://dc.lft.to/lastmile_qr_scan", "ios": "https://dc.lft.to/lastmile_qr_scan"}, "name": "1f39c8aea57ecde7ae247c50f8ebd7f4", "is_reserved": 0}, {"is_disabled": 0, "fusion_lon": 0.0, "fusion_lat": 0.0, "lat": 38.93496583333334, "type": "electric_bike", "lon": -76.9495955, "bike_id": "3c0f5106e1a75fecfb9a3148edff3efa", "rental_uris": {"android": "https://dc.lft.to/lastmile_qr_scan", "ios": "https://dc.lft.to/lastmile_qr_scan"}, "name": "3c0f5106e1a75fecfb9a3148edff3efa", "is_reserved": 0}, {"is_disabled": 0, "fusion_lon": 0.0, "fusion_lat": 0.0, "lat": 38.907976, "type": "electric_scooter", "lon": -77.0498845, "bike_id": "736322e43c146940388a943c2e0b9f2a", "rental_uris": {"android": "https://dc.lft.to/lastmile_qr_scan", "ios": "https://dc.lft.to/lastmile_qr_scan"}, "name": "736322e43c146940388a943c2e0b9f2a", "is_reserved": 0}, {"is_disabled": 0, "fusion_lon": 0.0, "fusion_lat": 0.0, "lat": 38.838089333333336, "type": "electric_scooter", "lon": -77.00434216666666, "bike_id": "12ed602622d00bde14b88f5849246bfb", "rental_uris": {"android": "https://dc.lft.to/lastmile_qr_scan", "ios": "https://dc.lft.to/lastmile_qr_scan"}, "name": "12ed602622d00bde14b88f5849246bfb", "is_reserved": 0}, {"is_disabled": 0, "fusion_lon": 0.0, "fusion_lat": 0.0, "lat": 38.91760416666666, "type": "electric_scooter", "lon": -77.025907, "bike_id": "c415267474757b42471e87f575fadbe4", "rental_uris": {"android": "https://dc.lft.to/lastmile_qr_scan", "ios": "https://dc.lft.to/lastmile_qr_scan"}, "name": "c415267474757b42471e87f575fadbe4", "is_reserved": 0}, {"is_disabled": 0, "fusion_lon": 0.0, "fusion_lat": 0.0, "lat": 39.0994185, "type": "electric_bike", "lon": -77.18790583333333, "bike_id": "8f1437007a91a43754a4e2056c47686b", "rental_uris": {"android": "https://dc.lft.to/lastmile_qr_scan", "ios": "https://dc.lft.to/lastmile_qr_scan"}, "name": "8f1437007a91a43754a4e2056c47686b", "is_reserved": 0}, {"is_disabled": 0, "fusion_lon": 0.0, "fusion_lat": 0.0, "lat": 38.95343583333333, "type": "electric_scooter", "lon": -77.06908033333333, "bike_id": "fd626355e49dc93d1e545f869b449314", "rental_uris": {"android": "https://dc.lft.to/lastmile_qr_scan", "ios": "https://dc.lft.to/lastmile_qr_scan"}, "name": "fd626355e49dc93d1e545f869b449314", "is_reserved": 0}, {"is_disabled": 0, "fusion_lon": 0.0, "fusion_lat": 0.0, "lat": 38.92803116666666, "type": "electric_scooter", "lon": -77.0542535, "bike_id": "6215409e6ed90f49160c37a9c02a789d", "rental_uris": {"android": "https://dc.lft.to/lastmile_qr_scan", "ios": "https://dc.lft.to/lastmile_qr_scan"}, "name": "6215409e6ed90f49160c37a9c02a789d", "is_reserved": 0}, {"is_disabled": 0, "fusion_lon": 0.0, "fusion_lat": 0.0, "lat": 38.892781, "type": "electric_scooter", "lon": -77.05041916666667, "bike_id": "73e49e51de0658c883f71869750fc679", "rental_uris": {"android": "https://dc.lft.to/lastmile_qr_scan", "ios": "https://dc.lft.to/lastmile_qr_scan"}, "name": "73e49e51de0658c883f71869750fc679", "is_reserved": 0}, {"is_disabled": 0, "fusion_lon": 0.0, "fusion_lat": 0.0, "lat": 38.89744733333333, "type": "electric_scooter", "lon": -77.00039716666667, "bike_id": "b6a069ee2032742a849b1407d92355cf", "rental_uris": {"android": "https://dc.lft.to/lastmile_qr_scan", "ios": "https://dc.lft.to/lastmile_qr_scan"}, "name": "b6a069ee2032742a849b1407d92355cf", "is_reserved": 0}, {"is_disabled": 0, "fusion_lon": 0.0, "fusion_lat": 0.0, "lat": 38.939621, "type": "electric_scooter", "lon": -77.03282266666666, "bike_id": "e804b4a394f0da5789fe476e5834ab29", "rental_uris": {"android": "https://dc.lft.to/lastmile_qr_scan", "ios": "https://dc.lft.to/lastmile_qr_scan"}, "name": "e804b4a394f0da5789fe476e5834ab29", "is_reserved": 0}, {"is_disabled": 0, "fusion_lon": 0.0, "fusion_lat": 0.0, "lat": 38.91587783333333, "type": "electric_scooter", "lon": -77.046866, "bike_id": "7214253ee412cfac7165f42dcc4331ee", "rental_uris": {"android": "https://dc.lft.to/lastmile_qr_scan", "ios": "https://dc.lft.to/lastmile_qr_scan"}, "name": "7214253ee412cfac7165f42dcc4331ee", "is_reserved": 0}, {"is_disabled": 0, "fusion_lon": 0.0, "fusion_lat": 0.0, "lat": 38.824470166666664, "type": "electric_bike", "lon": -77.07043066666667, "bike_id": "5f43af96ad0beada471b5b70f5d1f499", "rental_uris": {"android": "https://dc.lft.to/lastmile_qr_scan", "ios": "https://dc.lft.to/lastmile_qr_scan"}, "name": "5f43af96ad0beada471b5b70f5d1f499", "is_reserved": 0}, {"is_disabled": 0, "fusion_lon": 0.0, "fusion_lat": 0.0, "lat": 38.9619205, "type": "electric_scooter", "lon": -77.027795, "bike_id": "036aad7165fbb22204568d62f4927af7", "rental_uris": {"android": "https://dc.lft.to/lastmile_qr_scan", "ios": "https://dc.lft.to/lastmile_qr_scan"}, "name": "036aad7165fbb22204568d62f4927af7", "is_reserved": 0}, {"is_disabled": 0, "fusion_lon": 0.0, "fusion_lat": 0.0, "lat": 38.8983265, "type": "electric_scooter", "lon": -76.94634533333334, "bike_id": "212a12267e30054be4e7d25531fae5b6", "rental_uris": {"android": "https://dc.lft.to/lastmile_qr_scan", "ios": "https://dc.lft.to/lastmile_qr_scan"}, "name": "212a12267e30054be4e7d25531fae5b6", "is_reserved": 0}, {"is_disabled": 0, "fusion_lon": 0.0, "fusion_lat": 0.0, "lat": 38.82780483333333, "type": "electric_bike", "lon": -77.11080016666666, "bike_id": "f6c8ccd42ee37e8eb42ec4751c90d4a9", "rental_uris": {"android": "https://dc.lft.to/lastmile_qr_scan", "ios": "https://dc.lft.to/lastmile_qr_scan"}, "name": "f6c8ccd42ee37e8eb42ec4751c90d4a9", "is_reserved": 0}, {"is_disabled": 0, "fusion_lon": 0.0, "fusion_lat": 0.0, "lat": 38.93032983333333, "type": "electric_scooter", "lon": -77.034512, "bike_id": "458b75d3968f59a8c42ae612e303c165", "rental_uris": {"android": "https://dc.lft.to/lastmile_qr_scan", "ios": "https://dc.lft.to/lastmile_qr_scan"}, "name": "458b75d3968f59a8c42ae612e303c165", "is_reserved": 0}, {"is_disabled": 0, "fusion_lon": 0.0, "fusion_lat": 0.0, "lat": 38.920510166666666, "type": "electric_scooter", "lon": -77.02419016666667, "bike_id": "8e6d63eea0b827cd4314fc123e66e58f", "rental_uris": {"android": "https://dc.lft.to/lastmile_qr_scan", "ios": "https://dc.lft.to/lastmile_qr_scan"}, "name": "8e6d63eea0b827cd4314fc123e66e58f", "is_reserved": 0}, {"is_disabled": 0, "fusion_lon": 0.0, "fusion_lat": 0.0, "lat": 38.936608666666665, "type": "electric_scooter", "lon": -77.03263666666666, "bike_id": "57ad36f73534ee1dc6276b895c47d827", "rental_uris": {"android": "https://dc.lft.to/lastmile_qr_scan", "ios": "https://dc.lft.to/lastmile_qr_scan"}, "name": "57ad36f73534ee1dc6276b895c47d827", "is_reserved": 0}, {"is_disabled": 0, "fusion_lon": 0.0, "fusion_lat": 0.0, "lat": 38.90129783333333, "type": "electric_scooter", "lon": -77.000621, "bike_id": "9b6540ccadc6d3f0588070d33f9d2627", "rental_uris": {"android": "https://dc.lft.to/lastmile_qr_scan", "ios": "https://dc.lft.to/lastmile_qr_scan"}, "name": "9b6540ccadc6d3f0588070d33f9d2627", "is_reserved": 0}, {"is_disabled": 0, "fusion_lon": 0.0, "fusion_lat": 0.0, "lat": 38.89969766666667, "type": "electric_bike", "lon": -76.98670383333334, "bike_id": "de638a8b2fdf1c2716c33895a8149f41", "rental_uris": {"android": "https://dc.lft.to/lastmile_qr_scan", "ios": "https://dc.lft.to/lastmile_qr_scan"}, "name": "de638a8b2fdf1c2716c33895a8149f41", "is_reserved": 0}, {"is_disabled": 0, "fusion_lon": 0.0, "fusion_lat": 0.0, "lat": 38.93180433333333, "type": "electric_scooter", "lon": -77.07254233333333, "bike_id": "099edda9fe258cf0a167ce5200da91ef", "rental_uris": {"android": "https://dc.lft.to/lastmile_qr_scan", "ios": "https://dc.lft.to/lastmile_qr_scan"}, "name": "099edda9fe258cf0a167ce5200da91ef", "is_reserved": 0}, {"is_disabled": 0, "fusion_lon": 0.0, "fusion_lat": 0.0, "lat": 38.908207166666664, "type": "electric_scooter", "lon": -77.032086, "bike_id": "0a921ae1426cae46da720e8085063966", "rental_uris": {"android": "https://dc.lft.to/lastmile_qr_scan", "ios": "https://dc.lft.to/lastmile_qr_scan"}, "name": "0a921ae1426cae46da720e8085063966", "is_reserved": 0}, {"is_disabled": 0, "fusion_lon": 0.0, "fusion_lat": 0.0, "lat": 38.8989545, "type": "electric_scooter", "lon": -77.05294366666666, "bike_id": "d97b7f03a25d97630bf99f5001774783", "rental_uris": {"android": "https://dc.lft.to/lastmile_qr_scan", "ios": "https://dc.lft.to/lastmile_qr_scan"}, "name": "d97b7f03a25d97630bf99f5001774783", "is_reserved": 0}, {"is_disabled": 0, "fusion_lon": 0.0, "fusion_lat": 0.0, "lat": 38.89843333333334, "type": "electric_scooter", "lon": -76.94631166666667, "bike_id": "016dd47b866c86e8026f506134e1db19", "rental_uris": {"android": "https://dc.lft.to/lastmile_qr_scan", "ios": "https://dc.lft.to/lastmile_qr_scan"}, "name": "016dd47b866c86e8026f506134e1db19", "is_reserved": 0}, {"is_disabled": 0, "fusion_lon": 0.0, "fusion_lat": 0.0, "lat": 38.915169666666664, "type": "electric_scooter", "lon": -77.0184245, "bike_id": "a706afadf29f173645aaa24e76d9e35d", "rental_uris": {"android": "https://dc.lft.to/lastmile_qr_scan", "ios": "https://dc.lft.to/lastmile_qr_scan"}, "name": "a706afadf29f173645aaa24e76d9e35d", "is_reserved": 0}, {"is_disabled": 0, "fusion_lon": 0.0, "fusion_lat": 0.0, "lat": 38.88481133333333, "type": "electric_scooter", "lon": -77.01986866666667, "bike_id": "11551022fe50407dbb7fd632e176ad25", "rental_uris": {"android": "https://dc.lft.to/lastmile_qr_scan", "ios": "https://dc.lft.to/lastmile_qr_scan"}, "name": "11551022fe50407dbb7fd632e176ad25", "is_reserved": 0}, {"is_disabled": 0, "fusion_lon": 0.0, "fusion_lat": 0.0, "lat": 38.867184333333334, "type": "electric_scooter", "lon": -76.97915983333333, "bike_id": "de17e12bf30e8b846fedf1fb299b12d9", "rental_uris": {"android": "https://dc.lft.to/lastmile_qr_scan", "ios": "https://dc.lft.to/lastmile_qr_scan"}, "name": "de17e12bf30e8b846fedf1fb299b12d9", "is_reserved": 0}, {"is_disabled": 0, "fusion_lon": 0.0, "fusion_lat": 0.0, "lat": 38.9353435, "type": "electric_scooter", "lon": -77.02376733333334, "bike_id": "130e4d9c1bf3739405fc89da12e04ae6", "rental_uris": {"android": "https://dc.lft.to/lastmile_qr_scan", "ios": "https://dc.lft.to/lastmile_qr_scan"}, "name": "130e4d9c1bf3739405fc89da12e04ae6", "is_reserved": 0}, {"is_disabled": 0, "fusion_lon": 0.0, "fusion_lat": 0.0, "lat": 38.984774333333334, "type": "electric_scooter", "lon": -77.02647816666666, "bike_id": "16c538011e1594a2e0bc32b791f390d7", "rental_uris": {"android": "https://dc.lft.to/lastmile_qr_scan", "ios": "https://dc.lft.to/lastmile_qr_scan"}, "name": "16c538011e1594a2e0bc32b791f390d7", "is_reserved": 0}, {"is_disabled": 0, "fusion_lon": 0.0, "fusion_lat": 0.0, "lat": 38.884570333333336, "type": "electric_scooter", "lon": -76.95405966666667, "bike_id": "eba176fa0889b7508854573578a5cfc6", "rental_uris": {"android": "https://dc.lft.to/lastmile_qr_scan", "ios": "https://dc.lft.to/lastmile_qr_scan"}, "name": "eba176fa0889b7508854573578a5cfc6", "is_reserved": 0}, {"is_disabled": 0, "fusion_lon": 0.0, "fusion_lat": 0.0, "lat": 38.89669, "type": "electric_scooter", "lon": -77.02296516666667, "bike_id": "eece4c78ae9c4c84754799b5228ebe60", "rental_uris": {"android": "https://dc.lft.to/lastmile_qr_scan", "ios": "https://dc.lft.to/lastmile_qr_scan"}, "name": "eece4c78ae9c4c84754799b5228ebe60", "is_reserved": 0}, {"is_disabled": 0, "fusion_lon": 0.0, "fusion_lat": 0.0, "lat": 38.91341383333334, "type": "electric_scooter", "lon": -77.05213783333333, "bike_id": "d4d7988837e1c4fc12aeffe0b3029fdb", "rental_uris": {"android": "https://dc.lft.to/lastmile_qr_scan", "ios": "https://dc.lft.to/lastmile_qr_scan"}, "name": "d4d7988837e1c4fc12aeffe0b3029fdb", "is_reserved": 0}, {"is_disabled": 0, "fusion_lon": 0.0, "fusion_lat": 0.0, "lat": 38.9293515, "type": "electric_scooter", "lon": -77.0164045, "bike_id": "061e441fe7adb7d2e25562b79001fced", "rental_uris": {"android": "https://dc.lft.to/lastmile_qr_scan", "ios": "https://dc.lft.to/lastmile_qr_scan"}, "name": "061e441fe7adb7d2e25562b79001fced", "is_reserved": 0}, {"is_disabled": 0, "fusion_lon": 0.0, "fusion_lat": 0.0, "lat": 38.957417166666666, "type": "electric_scooter", "lon": -77.02431283333334, "bike_id": "bafd6385072eb93ec7f89a68cdf9147b", "rental_uris": {"android": "https://dc.lft.to/lastmile_qr_scan", "ios": "https://dc.lft.to/lastmile_qr_scan"}, "name": "bafd6385072eb93ec7f89a68cdf9147b", "is_reserved": 0}, {"is_disabled": 0, "fusion_lon": 0.0, "fusion_lat": 0.0, "lat": 38.90971916666667, "type": "electric_scooter", "lon": -77.08558166666667, "bike_id": "8c5c30f460ecda547d731ce3f3fafeae", "rental_uris": {"android": "https://dc.lft.to/lastmile_qr_scan", "ios": "https://dc.lft.to/lastmile_qr_scan"}, "name": "8c5c30f460ecda547d731ce3f3fafeae", "is_reserved": 0}, {"is_disabled": 0, "fusion_lon": 0.0, "fusion_lat": 0.0, "lat": 38.912592333333336, "type": "electric_scooter", "lon": -77.0329755, "bike_id": "a54522f7a83364c5b12711ffcba0b8da", "rental_uris": {"android": "https://dc.lft.to/lastmile_qr_scan", "ios": "https://dc.lft.to/lastmile_qr_scan"}, "name": "a54522f7a83364c5b12711ffcba0b8da", "is_reserved": 0}, {"is_disabled": 0, "fusion_lon": 0.0, "fusion_lat": 0.0, "lat": 38.90542533333333, "type": "electric_scooter", "lon": -77.04666633333333, "bike_id": "7104f5e63cca160471034738ebafb522", "rental_uris": {"android": "https://dc.lft.to/lastmile_qr_scan", "ios": "https://dc.lft.to/lastmile_qr_scan"}, "name": "7104f5e63cca160471034738ebafb522", "is_reserved": 0}, {"is_disabled": 0, "fusion_lon": 0.0, "fusion_lat": 0.0, "lat": 38.91380216666667, "type": "electric_scooter", "lon": -77.02970083333334, "bike_id": "f23e1190e75508baf2918fa7bc29fad9", "rental_uris": {"android": "https://dc.lft.to/lastmile_qr_scan", "ios": "https://dc.lft.to/lastmile_qr_scan"}, "name": "f23e1190e75508baf2918fa7bc29fad9", "is_reserved": 0}, {"is_disabled": 0, "fusion_lon": 0.0, "fusion_lat": 0.0, "lat": 38.917032, "type": "electric_scooter", "lon": -77.03342333333333, "bike_id": "d28f3e5158924a80892dd2fff533d568", "rental_uris": {"android": "https://dc.lft.to/lastmile_qr_scan", "ios": "https://dc.lft.to/lastmile_qr_scan"}, "name": "d28f3e5158924a80892dd2fff533d568", "is_reserved": 0}, {"is_disabled": 0, "fusion_lon": 0.0, "fusion_lat": 0.0, "lat": 38.89879666666667, "type": "electric_scooter", "lon": -76.93157966666666, "bike_id": "f52004fa1c8ad4495ebba768ce9e255d", "rental_uris": {"android": "https://dc.lft.to/lastmile_qr_scan", "ios": "https://dc.lft.to/lastmile_qr_scan"}, "name": "f52004fa1c8ad4495ebba768ce9e255d", "is_reserved": 0}, {"is_disabled": 0, "fusion_lon": 0.0, "fusion_lat": 0.0, "lat": 38.8875215, "type": "electric_scooter", "lon": -77.00224383333334, "bike_id": "66f031b90a5c995eb341231d9cbe339c", "rental_uris": {"android": "https://dc.lft.to/lastmile_qr_scan", "ios": "https://dc.lft.to/lastmile_qr_scan"}, "name": "66f031b90a5c995eb341231d9cbe339c", "is_reserved": 0}, {"is_disabled": 0, "fusion_lon": 0.0, "fusion_lat": 0.0, "lat": 38.893345833333335, "type": "electric_bike", "lon": -77.1240205, "bike_id": "479048cb52fdc34e38f58dadc091cd10", "rental_uris": {"android": "https://dc.lft.to/lastmile_qr_scan", "ios": "https://dc.lft.to/lastmile_qr_scan"}, "name": "479048cb52fdc34e38f58dadc091cd10", "is_reserved": 0}, {"is_disabled": 0, "fusion_lon": 0.0, "fusion_lat": 0.0, "lat": 38.9522575, "type": "electric_scooter", "lon": -77.0276015, "bike_id": "f32e9f13aff14f4e2097cce4e2894786", "rental_uris": {"android": "https://dc.lft.to/lastmile_qr_scan", "ios": "https://dc.lft.to/lastmile_qr_scan"}, "name": "f32e9f13aff14f4e2097cce4e2894786", "is_reserved": 0}, {"is_disabled": 0, "fusion_lon": 0.0, "fusion_lat": 0.0, "lat": 38.860625666666664, "type": "electric_scooter", "lon": -76.98509316666667, "bike_id": "39488df226b0196a789e6c3553e2c5d1", "rental_uris": {"android": "https://dc.lft.to/lastmile_qr_scan", "ios": "https://dc.lft.to/lastmile_qr_scan"}, "name": "39488df226b0196a789e6c3553e2c5d1", "is_reserved": 0}, {"is_disabled": 0, "fusion_lon": 0.0, "fusion_lat": 0.0, "lat": 38.90542966666667, "type": "electric_scooter", "lon": -77.05803516666667, "bike_id": "9f139f48a2b62227c66019a22b905a7b", "rental_uris": {"android": "https://dc.lft.to/lastmile_qr_scan", "ios": "https://dc.lft.to/lastmile_qr_scan"}, "name": "9f139f48a2b62227c66019a22b905a7b", "is_reserved": 0}, {"is_disabled": 0, "fusion_lon": 0.0, "fusion_lat": 0.0, "lat": 38.9302625, "type": "electric_scooter", "lon": -77.055556, "bike_id": "7aed3fe6a0bc942b46063cdcc7d9a910", "rental_uris": {"android": "https://dc.lft.to/lastmile_qr_scan", "ios": "https://dc.lft.to/lastmile_qr_scan"}, "name": "7aed3fe6a0bc942b46063cdcc7d9a910", "is_reserved": 0}, {"is_disabled": 0, "fusion_lon": 0.0, "fusion_lat": 0.0, "lat": 38.9287745, "type": "electric_scooter", "lon": -77.04132983333334, "bike_id": "bba3b72b36b4bcdad3d7532df025ecb6", "rental_uris": {"android": "https://dc.lft.to/lastmile_qr_scan", "ios": "https://dc.lft.to/lastmile_qr_scan"}, "name": "bba3b72b36b4bcdad3d7532df025ecb6", "is_reserved": 0}, {"is_disabled": 0, "fusion_lon": 0.0, "fusion_lat": 0.0, "lat": 38.9166675, "type": "electric_scooter", "lon": -77.02302933333333, "bike_id": "f33290f227bbf0f92e173b86dabbdccc", "rental_uris": {"android": "https://dc.lft.to/lastmile_qr_scan", "ios": "https://dc.lft.to/lastmile_qr_scan"}, "name": "f33290f227bbf0f92e173b86dabbdccc", "is_reserved": 0}, {"is_disabled": 0, "fusion_lon": 0.0, "fusion_lat": 0.0, "lat": 38.90527, "type": "electric_scooter", "lon": -77.0576015, "bike_id": "54097ccfbbf5e2ade8abc43cac496460", "rental_uris": {"android": "https://dc.lft.to/lastmile_qr_scan", "ios": "https://dc.lft.to/lastmile_qr_scan"}, "name": "54097ccfbbf5e2ade8abc43cac496460", "is_reserved": 0}, {"is_disabled": 0, "fusion_lon": 0.0, "fusion_lat": 0.0, "lat": 38.91329983333333, "type": "electric_scooter", "lon": -77.032499, "bike_id": "9e48db8d3a629882c6da6ab78bf61c54", "rental_uris": {"android": "https://dc.lft.to/lastmile_qr_scan", "ios": "https://dc.lft.to/lastmile_qr_scan"}, "name": "9e48db8d3a629882c6da6ab78bf61c54", "is_reserved": 0}, {"is_disabled": 0, "fusion_lon": 0.0, "fusion_lat": 0.0, "lat": 38.862092833333335, "type": "electric_bike", "lon": -76.99495516666667, "bike_id": "b89480045700ce75d0ef46a95f7e8850", "rental_uris": {"android": "https://dc.lft.to/lastmile_qr_scan", "ios": "https://dc.lft.to/lastmile_qr_scan"}, "name": "b89480045700ce75d0ef46a95f7e8850", "is_reserved": 0}, {"is_disabled": 0, "fusion_lon": 0.0, "fusion_lat": 0.0, "lat": 38.91695166666667, "type": "electric_scooter", "lon": -77.03634533333333, "bike_id": "f55a76c678795a8b2ec887ab2877ed12", "rental_uris": {"android": "https://dc.lft.to/lastmile_qr_scan", "ios": "https://dc.lft.to/lastmile_qr_scan"}, "name": "f55a76c678795a8b2ec887ab2877ed12", "is_reserved": 0}, {"is_disabled": 0, "fusion_lon": 0.0, "fusion_lat": 0.0, "lat": 38.91544366666667, "type": "electric_scooter", "lon": -77.03855916666667, "bike_id": "ef1f4676a19561d8533e9379e61cff78", "rental_uris": {"android": "https://dc.lft.to/lastmile_qr_scan", "ios": "https://dc.lft.to/lastmile_qr_scan"}, "name": "ef1f4676a19561d8533e9379e61cff78", "is_reserved": 0}, {"is_disabled": 0, "fusion_lon": 0.0, "fusion_lat": 0.0, "lat": 38.929037, "type": "electric_scooter", "lon": -77.02342483333334, "bike_id": "8bc922d054c740f4be7d7c126c5c0fe9", "rental_uris": {"android": "https://dc.lft.to/lastmile_qr_scan", "ios": "https://dc.lft.to/lastmile_qr_scan"}, "name": "8bc922d054c740f4be7d7c126c5c0fe9", "is_reserved": 0}, {"is_disabled": 0, "fusion_lon": 0.0, "fusion_lat": 0.0, "lat": 38.92826433333333, "type": "electric_scooter", "lon": -77.0543345, "bike_id": "eff62eca263667fcee3e621def11345b", "rental_uris": {"android": "https://dc.lft.to/lastmile_qr_scan", "ios": "https://dc.lft.to/lastmile_qr_scan"}, "name": "eff62eca263667fcee3e621def11345b", "is_reserved": 0}, {"is_disabled": 0, "fusion_lon": 0.0, "fusion_lat": 0.0, "lat": 38.9156375, "type": "electric_scooter", "lon": -77.032399, "bike_id": "308ea3c5c3cfeff07f54a77661299b36", "rental_uris": {"android": "https://dc.lft.to/lastmile_qr_scan", "ios": "https://dc.lft.to/lastmile_qr_scan"}, "name": "308ea3c5c3cfeff07f54a77661299b36", "is_reserved": 0}, {"is_disabled": 0, "fusion_lon": 0.0, "fusion_lat": 0.0, "lat": 38.90124383333333, "type": "electric_scooter", "lon": -76.98839583333333, "bike_id": "ead65056b409462c5505bf54c013d900", "rental_uris": {"android": "https://dc.lft.to/lastmile_qr_scan", "ios": "https://dc.lft.to/lastmile_qr_scan"}, "name": "ead65056b409462c5505bf54c013d900", "is_reserved": 0}, {"is_disabled": 0, "fusion_lon": 0.0, "fusion_lat": 0.0, "lat": 38.943030666666665, "type": "electric_scooter", "lon": -77.02761283333334, "bike_id": "f570c4496b85e9bdb445d5bdd3e5453e", "rental_uris": {"android": "https://dc.lft.to/lastmile_qr_scan", "ios": "https://dc.lft.to/lastmile_qr_scan"}, "name": "f570c4496b85e9bdb445d5bdd3e5453e", "is_reserved": 0}, {"is_disabled": 0, "fusion_lon": 0.0, "fusion_lat": 0.0, "lat": 38.920650333333334, "type": "electric_scooter", "lon": -77.04359233333334, "bike_id": "efa88c54ca4434195c5f50a351b7d31d", "rental_uris": {"android": "https://dc.lft.to/lastmile_qr_scan", "ios": "https://dc.lft.to/lastmile_qr_scan"}, "name": "efa88c54ca4434195c5f50a351b7d31d", "is_reserved": 0}, {"is_disabled": 0, "fusion_lon": 0.0, "fusion_lat": 0.0, "lat": 38.919344833333334, "type": "electric_bike", "lon": -76.975021, "bike_id": "f07235aff1286504f3a854639ea8513b", "rental_uris": {"android": "https://dc.lft.to/lastmile_qr_scan", "ios": "https://dc.lft.to/lastmile_qr_scan"}, "name": "f07235aff1286504f3a854639ea8513b", "is_reserved": 0}, {"is_disabled": 0, "fusion_lon": 0.0, "fusion_lat": 0.0, "lat": 38.90564116666667, "type": "electric_scooter", "lon": -77.0306665, "bike_id": "5d0582ec1499fc20066bea21e3d290fb", "rental_uris": {"android": "https://dc.lft.to/lastmile_qr_scan", "ios": "https://dc.lft.to/lastmile_qr_scan"}, "name": "5d0582ec1499fc20066bea21e3d290fb", "is_reserved": 0}, {"is_disabled": 0, "fusion_lon": 0.0, "fusion_lat": 0.0, "lat": 38.91899216666667, "type": "electric_scooter", "lon": -77.07113866666667, "bike_id": "2342ed70e77270f8d568e2f8cb1f88c0", "rental_uris": {"android": "https://dc.lft.to/lastmile_qr_scan", "ios": "https://dc.lft.to/lastmile_qr_scan"}, "name": "2342ed70e77270f8d568e2f8cb1f88c0", "is_reserved": 0}, {"is_disabled": 0, "fusion_lon": 0.0, "fusion_lat": 0.0, "lat": 38.869580666666664, "type": "electric_scooter", "lon": -76.960327, "bike_id": "85c49fe2fd31a9324f18e7f57d588538", "rental_uris": {"android": "https://dc.lft.to/lastmile_qr_scan", "ios": "https://dc.lft.to/lastmile_qr_scan"}, "name": "85c49fe2fd31a9324f18e7f57d588538", "is_reserved": 0}, {"is_disabled": 0, "fusion_lon": 0.0, "fusion_lat": 0.0, "lat": 38.93437333333333, "type": "electric_scooter", "lon": -77.07258333333333, "bike_id": "7578e69ef81442738b988d9fdbaa7084", "rental_uris": {"android": "https://dc.lft.to/lastmile_qr_scan", "ios": "https://dc.lft.to/lastmile_qr_scan"}, "name": "7578e69ef81442738b988d9fdbaa7084", "is_reserved": 0}, {"is_disabled": 0, "fusion_lon": 0.0, "fusion_lat": 0.0, "lat": 38.89371366666666, "type": "electric_scooter", "lon": -76.9499465, "bike_id": "e88c17c1617560632c08e39d8ff062c9", "rental_uris": {"android": "https://dc.lft.to/lastmile_qr_scan", "ios": "https://dc.lft.to/lastmile_qr_scan"}, "name": "e88c17c1617560632c08e39d8ff062c9", "is_reserved": 0}, {"is_disabled": 0, "fusion_lon": 0.0, "fusion_lat": 0.0, "lat": 38.928598666666666, "type": "electric_scooter", "lon": -77.0357215, "bike_id": "48a340c1383061046a79c17cb31c6d3e", "rental_uris": {"android": "https://dc.lft.to/lastmile_qr_scan", "ios": "https://dc.lft.to/lastmile_qr_scan"}, "name": "48a340c1383061046a79c17cb31c6d3e", "is_reserved": 0}, {"is_disabled": 0, "fusion_lon": 0.0, "fusion_lat": 0.0, "lat": 38.8851115, "type": "electric_scooter", "lon": -77.01726733333334, "bike_id": "9143c235bbc37dceb19598210149b4e5", "rental_uris": {"android": "https://dc.lft.to/lastmile_qr_scan", "ios": "https://dc.lft.to/lastmile_qr_scan"}, "name": "9143c235bbc37dceb19598210149b4e5", "is_reserved": 0}, {"is_disabled": 0, "fusion_lon": 0.0, "fusion_lat": 0.0, "lat": 38.845086333333334, "type": "electric_bike", "lon": -76.97211583333333, "bike_id": "e2f6f90b8942c33e905ae418cc5f941a", "rental_uris": {"android": "https://dc.lft.to/lastmile_qr_scan", "ios": "https://dc.lft.to/lastmile_qr_scan"}, "name": "e2f6f90b8942c33e905ae418cc5f941a", "is_reserved": 0}, {"is_disabled": 0, "fusion_lon": 0.0, "fusion_lat": 0.0, "lat": 38.92292416666667, "type": "electric_scooter", "lon": -77.04301966666667, "bike_id": "2c2decc67aad4e13d0f42ff2f66394c3", "rental_uris": {"android": "https://dc.lft.to/lastmile_qr_scan", "ios": "https://dc.lft.to/lastmile_qr_scan"}, "name": "2c2decc67aad4e13d0f42ff2f66394c3", "is_reserved": 0}, {"is_disabled": 0, "fusion_lon": 0.0, "fusion_lat": 0.0, "lat": 38.9350135, "type": "electric_scooter", "lon": -77.02415966666666, "bike_id": "9e8d06c2988d82672facb4f03026a7eb", "rental_uris": {"android": "https://dc.lft.to/lastmile_qr_scan", "ios": "https://dc.lft.to/lastmile_qr_scan"}, "name": "9e8d06c2988d82672facb4f03026a7eb", "is_reserved": 0}, {"is_disabled": 0, "fusion_lon": 0.0, "fusion_lat": 0.0, "lat": 38.910463666666665, "type": "electric_scooter", "lon": -77.04271616666666, "bike_id": "224f66981a9a7efd347c1590071e5210", "rental_uris": {"android": "https://dc.lft.to/lastmile_qr_scan", "ios": "https://dc.lft.to/lastmile_qr_scan"}, "name": "224f66981a9a7efd347c1590071e5210", "is_reserved": 0}, {"is_disabled": 0, "fusion_lon": 0.0, "fusion_lat": 0.0, "lat": 38.895417, "type": "electric_scooter", "lon": -77.02839833333333, "bike_id": "d0aa6870fb4a36eaeac794c51f6e2362", "rental_uris": {"android": "https://dc.lft.to/lastmile_qr_scan", "ios": "https://dc.lft.to/lastmile_qr_scan"}, "name": "d0aa6870fb4a36eaeac794c51f6e2362", "is_reserved": 0}, {"is_disabled": 0, "fusion_lon": 0.0, "fusion_lat": 0.0, "lat": 39.0001345, "type": "electric_bike", "lon": -76.87284916666667, "bike_id": "4bcc979f6b20e783011454effab66dea", "rental_uris": {"android": "https://dc.lft.to/lastmile_qr_scan", "ios": "https://dc.lft.to/lastmile_qr_scan"}, "name": "4bcc979f6b20e783011454effab66dea", "is_reserved": 0}, {"is_disabled": 0, "fusion_lon": 0.0, "fusion_lat": 0.0, "lat": 38.914230333333336, "type": "electric_scooter", "lon": -77.03209166666667, "bike_id": "f78423b98641941ad9349e7a0423e2ec", "rental_uris": {"android": "https://dc.lft.to/lastmile_qr_scan", "ios": "https://dc.lft.to/lastmile_qr_scan"}, "name": "f78423b98641941ad9349e7a0423e2ec", "is_reserved": 0}, {"is_disabled": 0, "fusion_lon": 0.0, "fusion_lat": 0.0, "lat": 38.90341316666667, "type": "electric_scooter", "lon": -77.02163833333333, "bike_id": "e37821c08f9c161abecc935b8fd2278f", "rental_uris": {"android": "https://dc.lft.to/lastmile_qr_scan", "ios": "https://dc.lft.to/lastmile_qr_scan"}, "name": "e37821c08f9c161abecc935b8fd2278f", "is_reserved": 0}, {"is_disabled": 0, "fusion_lon": 0.0, "fusion_lat": 0.0, "lat": 38.92612416666667, "type": "electric_scooter", "lon": -77.02160666666667, "bike_id": "10ef002519d8217e7e515be18c7aa728", "rental_uris": {"android": "https://dc.lft.to/lastmile_qr_scan", "ios": "https://dc.lft.to/lastmile_qr_scan"}, "name": "10ef002519d8217e7e515be18c7aa728", "is_reserved": 0}, {"is_disabled": 0, "fusion_lon": 0.0, "fusion_lat": 0.0, "lat": 38.828733666666665, "type": "electric_bike", "lon": -77.11217433333333, "bike_id": "fae6729160ddbfc6919e79b886e8d5bb", "rental_uris": {"android": "https://dc.lft.to/lastmile_qr_scan", "ios": "https://dc.lft.to/lastmile_qr_scan"}, "name": "fae6729160ddbfc6919e79b886e8d5bb", "is_reserved": 0}, {"is_disabled": 0, "fusion_lon": 0.0, "fusion_lat": 0.0, "lat": 38.90968433333333, "type": "electric_scooter", "lon": -77.01102816666666, "bike_id": "5fb09b6f86bec88462368df90e5dfd7c", "rental_uris": {"android": "https://dc.lft.to/lastmile_qr_scan", "ios": "https://dc.lft.to/lastmile_qr_scan"}, "name": "5fb09b6f86bec88462368df90e5dfd7c", "is_reserved": 0}, {"is_disabled": 0, "fusion_lon": 0.0, "fusion_lat": 0.0, "lat": 38.91248933333333, "type": "electric_scooter", "lon": -77.02235533333334, "bike_id": "8b69e2736769254cd0c2c48773e37df9", "rental_uris": {"android": "https://dc.lft.to/lastmile_qr_scan", "ios": "https://dc.lft.to/lastmile_qr_scan"}, "name": "8b69e2736769254cd0c2c48773e37df9", "is_reserved": 0}, {"is_disabled": 0, "fusion_lon": 0.0, "fusion_lat": 0.0, "lat": 38.89756633333333, "type": "electric_scooter", "lon": -77.030377, "bike_id": "8288003e37407c6199fef084d5044ca4", "rental_uris": {"android": "https://dc.lft.to/lastmile_qr_scan", "ios": "https://dc.lft.to/lastmile_qr_scan"}, "name": "8288003e37407c6199fef084d5044ca4", "is_reserved": 0}, {"is_disabled": 0, "fusion_lon": 0.0, "fusion_lat": 0.0, "lat": 38.919885666666666, "type": "electric_bike", "lon": -76.97311366666666, "bike_id": "62b1b5033ff459f4f703162dd5ced879", "rental_uris": {"android": "https://dc.lft.to/lastmile_qr_scan", "ios": "https://dc.lft.to/lastmile_qr_scan"}, "name": "62b1b5033ff459f4f703162dd5ced879", "is_reserved": 0}, {"is_disabled": 0, "fusion_lon": 0.0, "fusion_lat": 0.0, "lat": 38.9066245, "type": "electric_scooter", "lon": -76.98232316666666, "bike_id": "f4ce0c76c47b9ac9bb7f1b8f025b9a53", "rental_uris": {"android": "https://dc.lft.to/lastmile_qr_scan", "ios": "https://dc.lft.to/lastmile_qr_scan"}, "name": "f4ce0c76c47b9ac9bb7f1b8f025b9a53", "is_reserved": 0}, {"is_disabled": 0, "fusion_lon": 0.0, "fusion_lat": 0.0, "lat": 38.896982666666666, "type": "electric_scooter", "lon": -77.01211216666667, "bike_id": "62ae8f6f56f1e624ab519386cae85f2b", "rental_uris": {"android": "https://dc.lft.to/lastmile_qr_scan", "ios": "https://dc.lft.to/lastmile_qr_scan"}, "name": "62ae8f6f56f1e624ab519386cae85f2b", "is_reserved": 0}, {"is_disabled": 0, "fusion_lon": 0.0, "fusion_lat": 0.0, "lat": 38.91486833333333, "type": "electric_scooter", "lon": -77.04159483333333, "bike_id": "7b05cd2fd693270bd4d702e2c91c5429", "rental_uris": {"android": "https://dc.lft.to/lastmile_qr_scan", "ios": "https://dc.lft.to/lastmile_qr_scan"}, "name": "7b05cd2fd693270bd4d702e2c91c5429", "is_reserved": 0}, {"is_disabled": 0, "fusion_lon": 0.0, "fusion_lat": 0.0, "lat": 38.90268233333333, "type": "electric_scooter", "lon": -77.03373183333333, "bike_id": "285087855c5582244be1f48305801380", "rental_uris": {"android": "https://dc.lft.to/lastmile_qr_scan", "ios": "https://dc.lft.to/lastmile_qr_scan"}, "name": "285087855c5582244be1f48305801380", "is_reserved": 0}, {"is_disabled": 0, "fusion_lon": 0.0, "fusion_lat": 0.0, "lat": 38.933784333333335, "type": "electric_scooter", "lon": -77.07252916666667, "bike_id": "714a994e4b0f6d3b18a57d1091572ab5", "rental_uris": {"android": "https://dc.lft.to/lastmile_qr_scan", "ios": "https://dc.lft.to/lastmile_qr_scan"}, "name": "714a994e4b0f6d3b18a57d1091572ab5", "is_reserved": 0}, {"is_disabled": 0, "fusion_lon": 0.0, "fusion_lat": 0.0, "lat": 38.904728, "type": "electric_scooter", "lon": -77.03557083333334, "bike_id": "a8dfe1d6dfcbb4eb52e0e4cca5ce3bad", "rental_uris": {"android": "https://dc.lft.to/lastmile_qr_scan", "ios": "https://dc.lft.to/lastmile_qr_scan"}, "name": "a8dfe1d6dfcbb4eb52e0e4cca5ce3bad", "is_reserved": 0}, {"is_disabled": 0, "fusion_lon": 0.0, "fusion_lat": 0.0, "lat": 38.90724616666667, "type": "electric_scooter", "lon": -77.02278416666667, "bike_id": "47721b7c880f10c08d4fbb393935e924", "rental_uris": {"android": "https://dc.lft.to/lastmile_qr_scan", "ios": "https://dc.lft.to/lastmile_qr_scan"}, "name": "47721b7c880f10c08d4fbb393935e924", "is_reserved": 0}, {"is_disabled": 0, "fusion_lon": 0.0, "fusion_lat": 0.0, "lat": 38.8963255, "type": "electric_scooter", "lon": -77.00896816666666, "bike_id": "05f622cbde350d8345d49686af3b4a79", "rental_uris": {"android": "https://dc.lft.to/lastmile_qr_scan", "ios": "https://dc.lft.to/lastmile_qr_scan"}, "name": "05f622cbde350d8345d49686af3b4a79", "is_reserved": 0}, {"is_disabled": 0, "fusion_lon": 0.0, "fusion_lat": 0.0, "lat": 38.935862166666666, "type": "electric_bike", "lon": -77.08250833333334, "bike_id": "a5a05934229df0d1cbae8a75d31da25a", "rental_uris": {"android": "https://dc.lft.to/lastmile_qr_scan", "ios": "https://dc.lft.to/lastmile_qr_scan"}, "name": "a5a05934229df0d1cbae8a75d31da25a", "is_reserved": 0}, {"is_disabled": 0, "fusion_lon": 0.0, "fusion_lat": 0.0, "lat": 38.97537766666667, "type": "electric_bike", "lon": -76.995278, "bike_id": "d424712714066ee1a8152079d6ad1f01", "rental_uris": {"android": "https://dc.lft.to/lastmile_qr_scan", "ios": "https://dc.lft.to/lastmile_qr_scan"}, "name": "d424712714066ee1a8152079d6ad1f01", "is_reserved": 0}, {"is_disabled": 0, "fusion_lon": 0.0, "fusion_lat": 0.0, "lat": 38.866403, "type": "electric_scooter", "lon": -76.9830565, "bike_id": "452745c500703a3fdae234f72a463a9e", "rental_uris": {"android": "https://dc.lft.to/lastmile_qr_scan", "ios": "https://dc.lft.to/lastmile_qr_scan"}, "name": "452745c500703a3fdae234f72a463a9e", "is_reserved": 0}, {"is_disabled": 0, "fusion_lon": 0.0, "fusion_lat": 0.0, "lat": 38.91588383333333, "type": "electric_bike", "lon": -76.97149333333333, "bike_id": "544ede51ca944080be775030651568af", "rental_uris": {"android": "https://dc.lft.to/lastmile_qr_scan", "ios": "https://dc.lft.to/lastmile_qr_scan"}, "name": "544ede51ca944080be775030651568af", "is_reserved": 0}, {"is_disabled": 0, "fusion_lon": 0.0, "fusion_lat": 0.0, "lat": 38.911184, "type": "electric_scooter", "lon": -77.02282816666667, "bike_id": "2483ec8947d88c55db46f84fb685fa55", "rental_uris": {"android": "https://dc.lft.to/lastmile_qr_scan", "ios": "https://dc.lft.to/lastmile_qr_scan"}, "name": "2483ec8947d88c55db46f84fb685fa55", "is_reserved": 0}, {"is_disabled": 0, "fusion_lon": 0.0, "fusion_lat": 0.0, "lat": 38.90326233333333, "type": "electric_scooter", "lon": -77.02883, "bike_id": "bc40d2d37b512214e579c14e4b0cae9d", "rental_uris": {"android": "https://dc.lft.to/lastmile_qr_scan", "ios": "https://dc.lft.to/lastmile_qr_scan"}, "name": "bc40d2d37b512214e579c14e4b0cae9d", "is_reserved": 0}, {"is_disabled": 0, "fusion_lon": 0.0, "fusion_lat": 0.0, "lat": 38.91997816666667, "type": "electric_scooter", "lon": -77.0322435, "bike_id": "eb6e637efbc90045fa0c5783ddee0b09", "rental_uris": {"android": "https://dc.lft.to/lastmile_qr_scan", "ios": "https://dc.lft.to/lastmile_qr_scan"}, "name": "eb6e637efbc90045fa0c5783ddee0b09", "is_reserved": 0}, {"is_disabled": 0, "fusion_lon": 0.0, "fusion_lat": 0.0, "lat": 38.90743783333333, "type": "electric_scooter", "lon": -77.00309933333334, "bike_id": "b34243f2bd51412d83f06d0991d61da2", "rental_uris": {"android": "https://dc.lft.to/lastmile_qr_scan", "ios": "https://dc.lft.to/lastmile_qr_scan"}, "name": "b34243f2bd51412d83f06d0991d61da2", "is_reserved": 0}, {"is_disabled": 0, "fusion_lon": 0.0, "fusion_lat": 0.0, "lat": 38.909819166666665, "type": "electric_scooter", "lon": -77.03836616666666, "bike_id": "efd57e531cf48b99892802c02a15c3e0", "rental_uris": {"android": "https://dc.lft.to/lastmile_qr_scan", "ios": "https://dc.lft.to/lastmile_qr_scan"}, "name": "efd57e531cf48b99892802c02a15c3e0", "is_reserved": 0}, {"is_disabled": 0, "fusion_lon": 0.0, "fusion_lat": 0.0, "lat": 38.9044395, "type": "electric_scooter", "lon": -77.061233, "bike_id": "9cf033cae48ec2c4c71f97ed8c6c1f4e", "rental_uris": {"android": "https://dc.lft.to/lastmile_qr_scan", "ios": "https://dc.lft.to/lastmile_qr_scan"}, "name": "9cf033cae48ec2c4c71f97ed8c6c1f4e", "is_reserved": 0}, {"is_disabled": 0, "fusion_lon": 0.0, "fusion_lat": 0.0, "lat": 38.9231035, "type": "electric_scooter", "lon": -77.03107483333334, "bike_id": "8cb70d4ae3a2450a141d6e2a6c264a6e", "rental_uris": {"android": "https://dc.lft.to/lastmile_qr_scan", "ios": "https://dc.lft.to/lastmile_qr_scan"}, "name": "8cb70d4ae3a2450a141d6e2a6c264a6e", "is_reserved": 0}, {"is_disabled": 0, "fusion_lon": 0.0, "fusion_lat": 0.0, "lat": 38.932529333333335, "type": "electric_scooter", "lon": -77.03999983333334, "bike_id": "b0477dc7a1d12b448aa3561e55306edd", "rental_uris": {"android": "https://dc.lft.to/lastmile_qr_scan", "ios": "https://dc.lft.to/lastmile_qr_scan"}, "name": "b0477dc7a1d12b448aa3561e55306edd", "is_reserved": 0}, {"is_disabled": 0, "fusion_lon": 0.0, "fusion_lat": 0.0, "lat": 38.90342866666667, "type": "electric_scooter", "lon": -77.0253295, "bike_id": "ab13452dab9e3467f2a91abd93a317b0", "rental_uris": {"android": "https://dc.lft.to/lastmile_qr_scan", "ios": "https://dc.lft.to/lastmile_qr_scan"}, "name": "ab13452dab9e3467f2a91abd93a317b0", "is_reserved": 0}, {"is_disabled": 0, "fusion_lon": 0.0, "fusion_lat": 0.0, "lat": 38.887308, "type": "electric_scooter", "lon": -77.03209583333333, "bike_id": "7e5de524a0f75e8c9845aa22d1fdb079", "rental_uris": {"android": "https://dc.lft.to/lastmile_qr_scan", "ios": "https://dc.lft.to/lastmile_qr_scan"}, "name": "7e5de524a0f75e8c9845aa22d1fdb079", "is_reserved": 0}, {"is_disabled": 0, "fusion_lon": 0.0, "fusion_lat": 0.0, "lat": 38.907412666666666, "type": "electric_scooter", "lon": -77.0416585, "bike_id": "ac4a098fffb942224c422ea5cdeb34c2", "rental_uris": {"android": "https://dc.lft.to/lastmile_qr_scan", "ios": "https://dc.lft.to/lastmile_qr_scan"}, "name": "ac4a098fffb942224c422ea5cdeb34c2", "is_reserved": 0}, {"is_disabled": 0, "fusion_lon": 0.0, "fusion_lat": 0.0, "lat": 38.965607166666665, "type": "electric_bike", "lon": -77.0229835, "bike_id": "5f8a6d98c97622cda55015476672888a", "rental_uris": {"android": "https://dc.lft.to/lastmile_qr_scan", "ios": "https://dc.lft.to/lastmile_qr_scan"}, "name": "5f8a6d98c97622cda55015476672888a", "is_reserved": 0}, {"is_disabled": 0, "fusion_lon": 0.0, "fusion_lat": 0.0, "lat": 38.91894466666667, "type": "electric_scooter", "lon": -77.04468483333333, "bike_id": "5ea54051ed6422a9781fed236fd46f91", "rental_uris": {"android": "https://dc.lft.to/lastmile_qr_scan", "ios": "https://dc.lft.to/lastmile_qr_scan"}, "name": "5ea54051ed6422a9781fed236fd46f91", "is_reserved": 0}, {"is_disabled": 0, "fusion_lon": 0.0, "fusion_lat": 0.0, "lat": 38.9236845, "type": "electric_scooter", "lon": -77.05024983333334, "bike_id": "634fef14aeb8ec00c6e2af6b936dc301", "rental_uris": {"android": "https://dc.lft.to/lastmile_qr_scan", "ios": "https://dc.lft.to/lastmile_qr_scan"}, "name": "634fef14aeb8ec00c6e2af6b936dc301", "is_reserved": 0}, {"is_disabled": 0, "fusion_lon": 0.0, "fusion_lat": 0.0, "lat": 38.91361166666667, "type": "electric_scooter", "lon": -77.03968716666667, "bike_id": "2e501db50cb43584d7522a6481ec2bf6", "rental_uris": {"android": "https://dc.lft.to/lastmile_qr_scan", "ios": "https://dc.lft.to/lastmile_qr_scan"}, "name": "2e501db50cb43584d7522a6481ec2bf6", "is_reserved": 0}, {"is_disabled": 0, "fusion_lon": 0.0, "fusion_lat": 0.0, "lat": 38.935335333333335, "type": "electric_scooter", "lon": -77.02363283333334, "bike_id": "2502660d20b10e8f4174d36bfd167f2b", "rental_uris": {"android": "https://dc.lft.to/lastmile_qr_scan", "ios": "https://dc.lft.to/lastmile_qr_scan"}, "name": "2502660d20b10e8f4174d36bfd167f2b", "is_reserved": 0}, {"is_disabled": 0, "fusion_lon": 0.0, "fusion_lat": 0.0, "lat": 38.935071666666666, "type": "electric_scooter", "lon": -77.0822255, "bike_id": "c1119a7284f3e177430289b051ef3024", "rental_uris": {"android": "https://dc.lft.to/lastmile_qr_scan", "ios": "https://dc.lft.to/lastmile_qr_scan"}, "name": "c1119a7284f3e177430289b051ef3024", "is_reserved": 0}, {"is_disabled": 0, "fusion_lon": 0.0, "fusion_lat": 0.0, "lat": 38.92307516666666, "type": "electric_scooter", "lon": -77.04738966666666, "bike_id": "aa86e7d11a2aecdb08530edd01960557", "rental_uris": {"android": "https://dc.lft.to/lastmile_qr_scan", "ios": "https://dc.lft.to/lastmile_qr_scan"}, "name": "aa86e7d11a2aecdb08530edd01960557", "is_reserved": 0}, {"is_disabled": 0, "fusion_lon": 0.0, "fusion_lat": 0.0, "lat": 38.9169455, "type": "electric_scooter", "lon": -77.03623966666666, "bike_id": "6f08a58312af91c438c67e86bd607156", "rental_uris": {"android": "https://dc.lft.to/lastmile_qr_scan", "ios": "https://dc.lft.to/lastmile_qr_scan"}, "name": "6f08a58312af91c438c67e86bd607156", "is_reserved": 0}, {"is_disabled": 0, "fusion_lon": 0.0, "fusion_lat": 0.0, "lat": 38.924681166666666, "type": "electric_scooter", "lon": -77.03949233333333, "bike_id": "18ab09d894fe8f58c2a03d5fee08aefb", "rental_uris": {"android": "https://dc.lft.to/lastmile_qr_scan", "ios": "https://dc.lft.to/lastmile_qr_scan"}, "name": "18ab09d894fe8f58c2a03d5fee08aefb", "is_reserved": 0}, {"is_disabled": 0, "fusion_lon": 0.0, "fusion_lat": 0.0, "lat": 38.8985135, "type": "electric_scooter", "lon": -77.0396285, "bike_id": "c95611f208d8ded017812e7f7f805b93", "rental_uris": {"android": "https://dc.lft.to/lastmile_qr_scan", "ios": "https://dc.lft.to/lastmile_qr_scan"}, "name": "c95611f208d8ded017812e7f7f805b93", "is_reserved": 0}, {"is_disabled": 0, "fusion_lon": 0.0, "fusion_lat": 0.0, "lat": 38.84434616666667, "type": "electric_scooter", "lon": -76.99783016666666, "bike_id": "7a2c339e46074c20129c53fedcf3eef3", "rental_uris": {"android": "https://dc.lft.to/lastmile_qr_scan", "ios": "https://dc.lft.to/lastmile_qr_scan"}, "name": "7a2c339e46074c20129c53fedcf3eef3", "is_reserved": 0}, {"is_disabled": 0, "fusion_lon": 0.0, "fusion_lat": 0.0, "lat": 38.92844566666667, "type": "electric_scooter", "lon": -77.01427516666666, "bike_id": "a31fa0bc58a85440f0c04962c1dfad76", "rental_uris": {"android": "https://dc.lft.to/lastmile_qr_scan", "ios": "https://dc.lft.to/lastmile_qr_scan"}, "name": "a31fa0bc58a85440f0c04962c1dfad76", "is_reserved": 0}, {"is_disabled": 0, "fusion_lon": 0.0, "fusion_lat": 0.0, "lat": 38.90077316666667, "type": "electric_scooter", "lon": -77.00212133333333, "bike_id": "3485ba90f0b0be9d04ebb9e00dfd3265", "rental_uris": {"android": "https://dc.lft.to/lastmile_qr_scan", "ios": "https://dc.lft.to/lastmile_qr_scan"}, "name": "3485ba90f0b0be9d04ebb9e00dfd3265", "is_reserved": 0}, {"is_disabled": 0, "fusion_lon": 0.0, "fusion_lat": 0.0, "lat": 38.91235366666667, "type": "electric_scooter", "lon": -77.0487475, "bike_id": "874ef595fae7b4675113354350a677bd", "rental_uris": {"android": "https://dc.lft.to/lastmile_qr_scan", "ios": "https://dc.lft.to/lastmile_qr_scan"}, "name": "874ef595fae7b4675113354350a677bd", "is_reserved": 0}, {"is_disabled": 0, "fusion_lon": 0.0, "fusion_lat": 0.0, "lat": 39.05454433333333, "type": "electric_bike", "lon": -77.143227, "bike_id": "bfc077cda1e1d8f937f56c4faf5eec9c", "rental_uris": {"android": "https://dc.lft.to/lastmile_qr_scan", "ios": "https://dc.lft.to/lastmile_qr_scan"}, "name": "bfc077cda1e1d8f937f56c4faf5eec9c", "is_reserved": 0}, {"is_disabled": 0, "fusion_lon": 0.0, "fusion_lat": 0.0, "lat": 38.894931166666666, "type": "electric_scooter", "lon": -77.00958416666667, "bike_id": "84fa0c6a093a3fcfda4f762d3213a548", "rental_uris": {"android": "https://dc.lft.to/lastmile_qr_scan", "ios": "https://dc.lft.to/lastmile_qr_scan"}, "name": "84fa0c6a093a3fcfda4f762d3213a548", "is_reserved": 0}, {"is_disabled": 0, "fusion_lon": 0.0, "fusion_lat": 0.0, "lat": 38.905518666666666, "type": "electric_scooter", "lon": -76.98141283333334, "bike_id": "ce42dd6c2edf80bea900c1b94e99df0f", "rental_uris": {"android": "https://dc.lft.to/lastmile_qr_scan", "ios": "https://dc.lft.to/lastmile_qr_scan"}, "name": "ce42dd6c2edf80bea900c1b94e99df0f", "is_reserved": 0}, {"is_disabled": 0, "fusion_lon": 0.0, "fusion_lat": 0.0, "lat": 38.892345, "type": "electric_scooter", "lon": -77.03175316666666, "bike_id": "6b2fe5fa4f5ba990b5713f3f08b33578", "rental_uris": {"android": "https://dc.lft.to/lastmile_qr_scan", "ios": "https://dc.lft.to/lastmile_qr_scan"}, "name": "6b2fe5fa4f5ba990b5713f3f08b33578", "is_reserved": 0}, {"is_disabled": 0, "fusion_lon": 0.0, "fusion_lat": 0.0, "lat": 38.8819295, "type": "electric_scooter", "lon": -76.99507416666667, "bike_id": "5e73fd9116ec2847d392e365b369d52b", "rental_uris": {"android": "https://dc.lft.to/lastmile_qr_scan", "ios": "https://dc.lft.to/lastmile_qr_scan"}, "name": "5e73fd9116ec2847d392e365b369d52b", "is_reserved": 0}, {"is_disabled": 0, "fusion_lon": 0.0, "fusion_lat": 0.0, "lat": 38.903284666666664, "type": "electric_scooter", "lon": -76.99229816666667, "bike_id": "89f02574998b71f9ffd27de6cb3ef3d4", "rental_uris": {"android": "https://dc.lft.to/lastmile_qr_scan", "ios": "https://dc.lft.to/lastmile_qr_scan"}, "name": "89f02574998b71f9ffd27de6cb3ef3d4", "is_reserved": 0}, {"is_disabled": 0, "fusion_lon": 0.0, "fusion_lat": 0.0, "lat": 38.9458885, "type": "electric_bike", "lon": -77.34413066666667, "bike_id": "28d0af2d8224274066554c44b73ee88a", "rental_uris": {"android": "https://dc.lft.to/lastmile_qr_scan", "ios": "https://dc.lft.to/lastmile_qr_scan"}, "name": "28d0af2d8224274066554c44b73ee88a", "is_reserved": 0}, {"is_disabled": 0, "fusion_lon": 0.0, "fusion_lat": 0.0, "lat": 38.917147166666666, "type": "electric_scooter", "lon": -77.03237733333333, "bike_id": "8b7b898b2e7ce5b25fece290750d7abd", "rental_uris": {"android": "https://dc.lft.to/lastmile_qr_scan", "ios": "https://dc.lft.to/lastmile_qr_scan"}, "name": "8b7b898b2e7ce5b25fece290750d7abd", "is_reserved": 0}, {"is_disabled": 0, "fusion_lon": 0.0, "fusion_lat": 0.0, "lat": 38.89390433333333, "type": "electric_scooter", "lon": -76.95001583333334, "bike_id": "973eeb637f266cb485d303bc73ae834a", "rental_uris": {"android": "https://dc.lft.to/lastmile_qr_scan", "ios": "https://dc.lft.to/lastmile_qr_scan"}, "name": "973eeb637f266cb485d303bc73ae834a", "is_reserved": 0}, {"is_disabled": 0, "fusion_lon": 0.0, "fusion_lat": 0.0, "lat": 38.934603833333334, "type": "electric_scooter", "lon": -77.03054466666667, "bike_id": "3ba9eb7d4074d79179376889e4bbdc75", "rental_uris": {"android": "https://dc.lft.to/lastmile_qr_scan", "ios": "https://dc.lft.to/lastmile_qr_scan"}, "name": "3ba9eb7d4074d79179376889e4bbdc75", "is_reserved": 0}, {"is_disabled": 0, "fusion_lon": 0.0, "fusion_lat": 0.0, "lat": 38.905188, "type": "electric_scooter", "lon": -77.01706416666667, "bike_id": "80c053b74eb04bd7be2465efaba9f0f7", "rental_uris": {"android": "https://dc.lft.to/lastmile_qr_scan", "ios": "https://dc.lft.to/lastmile_qr_scan"}, "name": "80c053b74eb04bd7be2465efaba9f0f7", "is_reserved": 0}, {"is_disabled": 0, "fusion_lon": 0.0, "fusion_lat": 0.0, "lat": 38.88434483333333, "type": "electric_scooter", "lon": -77.02967883333334, "bike_id": "bc23c54df6c7e16de06433c028c03f2b", "rental_uris": {"android": "https://dc.lft.to/lastmile_qr_scan", "ios": "https://dc.lft.to/lastmile_qr_scan"}, "name": "bc23c54df6c7e16de06433c028c03f2b", "is_reserved": 0}, {"is_disabled": 0, "fusion_lon": 0.0, "fusion_lat": 0.0, "lat": 38.776198666666666, "type": "electric_bike", "lon": -77.0835525, "bike_id": "b5e1300ec9385d00e0b78f9c267bb5a0", "rental_uris": {"android": "https://dc.lft.to/lastmile_qr_scan", "ios": "https://dc.lft.to/lastmile_qr_scan"}, "name": "b5e1300ec9385d00e0b78f9c267bb5a0", "is_reserved": 0}, {"is_disabled": 0, "fusion_lon": 0.0, "fusion_lat": 0.0, "lat": 38.926033833333335, "type": "electric_scooter", "lon": -77.02354516666666, "bike_id": "8212404f02baced22c0d6657b9783bdd", "rental_uris": {"android": "https://dc.lft.to/lastmile_qr_scan", "ios": "https://dc.lft.to/lastmile_qr_scan"}, "name": "8212404f02baced22c0d6657b9783bdd", "is_reserved": 0}, {"is_disabled": 0, "fusion_lon": 0.0, "fusion_lat": 0.0, "lat": 38.89597966666667, "type": "electric_scooter", "lon": -77.00916033333333, "bike_id": "02f3ad8e7e6fb74404b474a66900f7b8", "rental_uris": {"android": "https://dc.lft.to/lastmile_qr_scan", "ios": "https://dc.lft.to/lastmile_qr_scan"}, "name": "02f3ad8e7e6fb74404b474a66900f7b8", "is_reserved": 0}, {"is_disabled": 0, "fusion_lon": 0.0, "fusion_lat": 0.0, "lat": 38.946367, "type": "electric_scooter", "lon": -77.0192765, "bike_id": "ac12925cdac2d13f5b47770cc53ebf1f", "rental_uris": {"android": "https://dc.lft.to/lastmile_qr_scan", "ios": "https://dc.lft.to/lastmile_qr_scan"}, "name": "ac12925cdac2d13f5b47770cc53ebf1f", "is_reserved": 0}, {"is_disabled": 0, "fusion_lon": 0.0, "fusion_lat": 0.0, "lat": 38.927576, "type": "electric_scooter", "lon": -77.00593916666666, "bike_id": "d5bd8fd4ec915c729b373c3262b9f227", "rental_uris": {"android": "https://dc.lft.to/lastmile_qr_scan", "ios": "https://dc.lft.to/lastmile_qr_scan"}, "name": "d5bd8fd4ec915c729b373c3262b9f227", "is_reserved": 0}, {"is_disabled": 0, "fusion_lon": 0.0, "fusion_lat": 0.0, "lat": 38.9076735, "type": "electric_scooter", "lon": -77.0627825, "bike_id": "14b61a0f5f023eba0e4c61bc642cdcb7", "rental_uris": {"android": "https://dc.lft.to/lastmile_qr_scan", "ios": "https://dc.lft.to/lastmile_qr_scan"}, "name": "14b61a0f5f023eba0e4c61bc642cdcb7", "is_reserved": 0}, {"is_disabled": 0, "fusion_lon": 0.0, "fusion_lat": 0.0, "lat": 38.852094, "type": "electric_bike", "lon": -77.10124966666666, "bike_id": "9c063e8090b81c3b4767014a76705f37", "rental_uris": {"android": "https://dc.lft.to/lastmile_qr_scan", "ios": "https://dc.lft.to/lastmile_qr_scan"}, "name": "9c063e8090b81c3b4767014a76705f37", "is_reserved": 0}, {"is_disabled": 0, "fusion_lon": 0.0, "fusion_lat": 0.0, "lat": 38.84618833333333, "type": "electric_scooter", "lon": -76.99630216666667, "bike_id": "155fd5093f3587eb64c908b5095f6fff", "rental_uris": {"android": "https://dc.lft.to/lastmile_qr_scan", "ios": "https://dc.lft.to/lastmile_qr_scan"}, "name": "155fd5093f3587eb64c908b5095f6fff", "is_reserved": 0}, {"is_disabled": 0, "fusion_lon": 0.0, "fusion_lat": 0.0, "lat": 38.918222166666666, "type": "electric_scooter", "lon": -77.03441516666666, "bike_id": "5b76fb44ed09b7786cf5c2e9cf8ba557", "rental_uris": {"android": "https://dc.lft.to/lastmile_qr_scan", "ios": "https://dc.lft.to/lastmile_qr_scan"}, "name": "5b76fb44ed09b7786cf5c2e9cf8ba557", "is_reserved": 0}, {"is_disabled": 0, "fusion_lon": 0.0, "fusion_lat": 0.0, "lat": 38.918218, "type": "electric_scooter", "lon": -77.03441216666667, "bike_id": "334e78435c47ea683c0425b51ed796d2", "rental_uris": {"android": "https://dc.lft.to/lastmile_qr_scan", "ios": "https://dc.lft.to/lastmile_qr_scan"}, "name": "334e78435c47ea683c0425b51ed796d2", "is_reserved": 0}, {"is_disabled": 0, "fusion_lon": 0.0, "fusion_lat": 0.0, "lat": 38.903257833333335, "type": "electric_scooter", "lon": -76.98017716666666, "bike_id": "8f0d9ccf893c8a8c8bc5b813d737ff39", "rental_uris": {"android": "https://dc.lft.to/lastmile_qr_scan", "ios": "https://dc.lft.to/lastmile_qr_scan"}, "name": "8f0d9ccf893c8a8c8bc5b813d737ff39", "is_reserved": 0}, {"is_disabled": 0, "fusion_lon": 0.0, "fusion_lat": 0.0, "lat": 38.865233333333336, "type": "electric_scooter", "lon": -76.98969133333334, "bike_id": "a9e3aded771286d4c70d7794d1efd787", "rental_uris": {"android": "https://dc.lft.to/lastmile_qr_scan", "ios": "https://dc.lft.to/lastmile_qr_scan"}, "name": "a9e3aded771286d4c70d7794d1efd787", "is_reserved": 0}, {"is_disabled": 0, "fusion_lon": 0.0, "fusion_lat": 0.0, "lat": 38.96217266666667, "type": "electric_scooter", "lon": -77.02804066666667, "bike_id": "8b7ce130b01c840cb906b46b7e5b2fee", "rental_uris": {"android": "https://dc.lft.to/lastmile_qr_scan", "ios": "https://dc.lft.to/lastmile_qr_scan"}, "name": "8b7ce130b01c840cb906b46b7e5b2fee", "is_reserved": 0}, {"is_disabled": 0, "fusion_lon": 0.0, "fusion_lat": 0.0, "lat": 38.912459, "type": "electric_scooter", "lon": -77.0223495, "bike_id": "066d7039407ba336575b7ea85d9d7185", "rental_uris": {"android": "https://dc.lft.to/lastmile_qr_scan", "ios": "https://dc.lft.to/lastmile_qr_scan"}, "name": "066d7039407ba336575b7ea85d9d7185", "is_reserved": 0}, {"is_disabled": 0, "fusion_lon": 0.0, "fusion_lat": 0.0, "lat": 38.936647666666666, "type": "electric_scooter", "lon": -77.03264, "bike_id": "b86c601ec210832a5debdf587186be6c", "rental_uris": {"android": "https://dc.lft.to/lastmile_qr_scan", "ios": "https://dc.lft.to/lastmile_qr_scan"}, "name": "b86c601ec210832a5debdf587186be6c", "is_reserved": 0}, {"is_disabled": 0, "fusion_lon": 0.0, "fusion_lat": 0.0, "lat": 38.8587165, "type": "electric_scooter", "lon": -76.9901975, "bike_id": "a079cbdde37d9840e9dea80656220d6d", "rental_uris": {"android": "https://dc.lft.to/lastmile_qr_scan", "ios": "https://dc.lft.to/lastmile_qr_scan"}, "name": "a079cbdde37d9840e9dea80656220d6d", "is_reserved": 0}, {"is_disabled": 0, "fusion_lon": 0.0, "fusion_lat": 0.0, "lat": 38.86342766666667, "type": "electric_scooter", "lon": -76.98264916666666, "bike_id": "7cdc8a9754ae7f86dfac2bdc0c71ced4", "rental_uris": {"android": "https://dc.lft.to/lastmile_qr_scan", "ios": "https://dc.lft.to/lastmile_qr_scan"}, "name": "7cdc8a9754ae7f86dfac2bdc0c71ced4", "is_reserved": 0}, {"is_disabled": 0, "fusion_lon": 0.0, "fusion_lat": 0.0, "lat": 38.904717833333336, "type": "electric_bike", "lon": -77.018966, "bike_id": "3f4af5b101ce6ffd7bb929df8ccb8072", "rental_uris": {"android": "https://dc.lft.to/lastmile_qr_scan", "ios": "https://dc.lft.to/lastmile_qr_scan"}, "name": "3f4af5b101ce6ffd7bb929df8ccb8072", "is_reserved": 0}, {"is_disabled": 0, "fusion_lon": 0.0, "fusion_lat": 0.0, "lat": 38.9160275, "type": "electric_scooter", "lon": -77.02343416666666, "bike_id": "e7931807a290155458620eb2e513339c", "rental_uris": {"android": "https://dc.lft.to/lastmile_qr_scan", "ios": "https://dc.lft.to/lastmile_qr_scan"}, "name": "e7931807a290155458620eb2e513339c", "is_reserved": 0}, {"is_disabled": 0, "fusion_lon": 0.0, "fusion_lat": 0.0, "lat": 38.89739, "type": "electric_scooter", "lon": -77.0269295, "bike_id": "978606c757dfeb2d502c5f03635d079f", "rental_uris": {"android": "https://dc.lft.to/lastmile_qr_scan", "ios": "https://dc.lft.to/lastmile_qr_scan"}, "name": "978606c757dfeb2d502c5f03635d079f", "is_reserved": 0}, {"is_disabled": 0, "fusion_lon": 0.0, "fusion_lat": 0.0, "lat": 38.91025966666667, "type": "electric_scooter", "lon": -77.03840833333334, "bike_id": "ef96ce3db6a959ee789fe9676155d868", "rental_uris": {"android": "https://dc.lft.to/lastmile_qr_scan", "ios": "https://dc.lft.to/lastmile_qr_scan"}, "name": "ef96ce3db6a959ee789fe9676155d868", "is_reserved": 0}, {"is_disabled": 0, "fusion_lon": 0.0, "fusion_lat": 0.0, "lat": 38.8827725, "type": "electric_scooter", "lon": -76.9878075, "bike_id": "59467c75005021411d0fa6ee1bca5254", "rental_uris": {"android": "https://dc.lft.to/lastmile_qr_scan", "ios": "https://dc.lft.to/lastmile_qr_scan"}, "name": "59467c75005021411d0fa6ee1bca5254", "is_reserved": 0}, {"is_disabled": 0, "fusion_lon": 0.0, "fusion_lat": 0.0, "lat": 38.92752083333333, "type": "electric_scooter", "lon": -77.03351516666666, "bike_id": "1a98cee9bd56e51664dfb766255793d7", "rental_uris": {"android": "https://dc.lft.to/lastmile_qr_scan", "ios": "https://dc.lft.to/lastmile_qr_scan"}, "name": "1a98cee9bd56e51664dfb766255793d7", "is_reserved": 0}, {"is_disabled": 0, "fusion_lon": 0.0, "fusion_lat": 0.0, "lat": 38.892263666666665, "type": "electric_scooter", "lon": -77.02573816666667, "bike_id": "a5e29a457d22b151824978e6256ba9a7", "rental_uris": {"android": "https://dc.lft.to/lastmile_qr_scan", "ios": "https://dc.lft.to/lastmile_qr_scan"}, "name": "a5e29a457d22b151824978e6256ba9a7", "is_reserved": 0}, {"is_disabled": 0, "fusion_lon": 0.0, "fusion_lat": 0.0, "lat": 38.91273866666667, "type": "electric_scooter", "lon": -77.03851166666666, "bike_id": "2840669ea415c8d13c0d92d02ff5e930", "rental_uris": {"android": "https://dc.lft.to/lastmile_qr_scan", "ios": "https://dc.lft.to/lastmile_qr_scan"}, "name": "2840669ea415c8d13c0d92d02ff5e930", "is_reserved": 0}, {"is_disabled": 0, "fusion_lon": 0.0, "fusion_lat": 0.0, "lat": 38.90172066666667, "type": "electric_scooter", "lon": -77.053165, "bike_id": "b0a85879b77481a859198bd95af89df5", "rental_uris": {"android": "https://dc.lft.to/lastmile_qr_scan", "ios": "https://dc.lft.to/lastmile_qr_scan"}, "name": "b0a85879b77481a859198bd95af89df5", "is_reserved": 0}, {"is_disabled": 0, "fusion_lon": 0.0, "fusion_lat": 0.0, "lat": 38.925782, "type": "electric_scooter", "lon": -76.994935, "bike_id": "3f1eeae25c378f22da5b85b32d681957", "rental_uris": {"android": "https://dc.lft.to/lastmile_qr_scan", "ios": "https://dc.lft.to/lastmile_qr_scan"}, "name": "3f1eeae25c378f22da5b85b32d681957", "is_reserved": 0}, {"is_disabled": 0, "fusion_lon": 0.0, "fusion_lat": 0.0, "lat": 38.988261666666666, "type": "electric_bike", "lon": -76.9874975, "bike_id": "168549c39520a7ed0dbaddf3be7f057f", "rental_uris": {"android": "https://dc.lft.to/lastmile_qr_scan", "ios": "https://dc.lft.to/lastmile_qr_scan"}, "name": "168549c39520a7ed0dbaddf3be7f057f", "is_reserved": 0}, {"is_disabled": 0, "fusion_lon": 0.0, "fusion_lat": 0.0, "lat": 38.908983666666664, "type": "electric_scooter", "lon": -76.9985365, "bike_id": "36d8e799cbbdb5cfccac71ab496f95f3", "rental_uris": {"android": "https://dc.lft.to/lastmile_qr_scan", "ios": "https://dc.lft.to/lastmile_qr_scan"}, "name": "36d8e799cbbdb5cfccac71ab496f95f3", "is_reserved": 0}, {"is_disabled": 0, "fusion_lon": 0.0, "fusion_lat": 0.0, "lat": 38.941977333333334, "type": "electric_scooter", "lon": -77.025789, "bike_id": "376320e3f9fb287ce2f57994173b217b", "rental_uris": {"android": "https://dc.lft.to/lastmile_qr_scan", "ios": "https://dc.lft.to/lastmile_qr_scan"}, "name": "376320e3f9fb287ce2f57994173b217b", "is_reserved": 0}, {"is_disabled": 0, "fusion_lon": 0.0, "fusion_lat": 0.0, "lat": 38.92152216666667, "type": "electric_scooter", "lon": -77.04243116666666, "bike_id": "a21ecf0e1cb31ab0dd88b55970df63b9", "rental_uris": {"android": "https://dc.lft.to/lastmile_qr_scan", "ios": "https://dc.lft.to/lastmile_qr_scan"}, "name": "a21ecf0e1cb31ab0dd88b55970df63b9", "is_reserved": 0}, {"is_disabled": 0, "fusion_lon": 0.0, "fusion_lat": 0.0, "lat": 38.99249066666667, "type": "electric_bike", "lon": -77.04993133333333, "bike_id": "b28e458ddb3f154711c8a45bbbf31a5a", "rental_uris": {"android": "https://dc.lft.to/lastmile_qr_scan", "ios": "https://dc.lft.to/lastmile_qr_scan"}, "name": "b28e458ddb3f154711c8a45bbbf31a5a", "is_reserved": 0}, {"is_disabled": 0, "fusion_lon": 0.0, "fusion_lat": 0.0, "lat": 38.92152466666667, "type": "electric_scooter", "lon": -77.042935, "bike_id": "242b8edd985c16dc2f2d288de160774e", "rental_uris": {"android": "https://dc.lft.to/lastmile_qr_scan", "ios": "https://dc.lft.to/lastmile_qr_scan"}, "name": "242b8edd985c16dc2f2d288de160774e", "is_reserved": 0}, {"is_disabled": 0, "fusion_lon": 0.0, "fusion_lat": 0.0, "lat": 38.88374783333333, "type": "electric_scooter", "lon": -76.92642833333333, "bike_id": "e7915a17ff7688cf532172922d946b46", "rental_uris": {"android": "https://dc.lft.to/lastmile_qr_scan", "ios": "https://dc.lft.to/lastmile_qr_scan"}, "name": "e7915a17ff7688cf532172922d946b46", "is_reserved": 0}, {"is_disabled": 0, "fusion_lon": 0.0, "fusion_lat": 0.0, "lat": 38.91552216666667, "type": "electric_scooter", "lon": -77.038816, "bike_id": "ad238ad4e4a993ccc7b730dfce8aefc5", "rental_uris": {"android": "https://dc.lft.to/lastmile_qr_scan", "ios": "https://dc.lft.to/lastmile_qr_scan"}, "name": "ad238ad4e4a993ccc7b730dfce8aefc5", "is_reserved": 0}, {"is_disabled": 0, "fusion_lon": 0.0, "fusion_lat": 0.0, "lat": 38.912618, "type": "electric_scooter", "lon": -77.04096366666667, "bike_id": "ada2786ee3f6dd05490c4f402fe5b46c", "rental_uris": {"android": "https://dc.lft.to/lastmile_qr_scan", "ios": "https://dc.lft.to/lastmile_qr_scan"}, "name": "ada2786ee3f6dd05490c4f402fe5b46c", "is_reserved": 0}, {"is_disabled": 0, "fusion_lon": 0.0, "fusion_lat": 0.0, "lat": 38.950421666666664, "type": "electric_bike", "lon": -77.01260516666666, "bike_id": "00e8df605b7ec024a5b9349bad4c962b", "rental_uris": {"android": "https://dc.lft.to/lastmile_qr_scan", "ios": "https://dc.lft.to/lastmile_qr_scan"}, "name": "00e8df605b7ec024a5b9349bad4c962b", "is_reserved": 0}, {"is_disabled": 0, "fusion_lon": 0.0, "fusion_lat": 0.0, "lat": 38.9160805, "type": "electric_scooter", "lon": -77.04170583333334, "bike_id": "3c39501c316bdd72b3e2316caff77941", "rental_uris": {"android": "https://dc.lft.to/lastmile_qr_scan", "ios": "https://dc.lft.to/lastmile_qr_scan"}, "name": "3c39501c316bdd72b3e2316caff77941", "is_reserved": 0}, {"is_disabled": 0, "fusion_lon": 0.0, "fusion_lat": 0.0, "lat": 39.0065195, "type": "electric_bike", "lon": -76.90027133333334, "bike_id": "83c95abcead4b617e22538bd6b479422", "rental_uris": {"android": "https://dc.lft.to/lastmile_qr_scan", "ios": "https://dc.lft.to/lastmile_qr_scan"}, "name": "83c95abcead4b617e22538bd6b479422", "is_reserved": 0}, {"is_disabled": 0, "fusion_lon": 0.0, "fusion_lat": 0.0, "lat": 38.95076733333333, "type": "electric_scooter", "lon": -77.02877933333333, "bike_id": "52f25c231d117a86addd9c548e6a2304", "rental_uris": {"android": "https://dc.lft.to/lastmile_qr_scan", "ios": "https://dc.lft.to/lastmile_qr_scan"}, "name": "52f25c231d117a86addd9c548e6a2304", "is_reserved": 0}, {"is_disabled": 0, "fusion_lon": 0.0, "fusion_lat": 0.0, "lat": 38.956103166666665, "type": "electric_scooter", "lon": -77.03632033333334, "bike_id": "17375c73b3feb337a477d0edf6e71097", "rental_uris": {"android": "https://dc.lft.to/lastmile_qr_scan", "ios": "https://dc.lft.to/lastmile_qr_scan"}, "name": "17375c73b3feb337a477d0edf6e71097", "is_reserved": 0}, {"is_disabled": 0, "fusion_lon": 0.0, "fusion_lat": 0.0, "lat": 38.890131, "type": "electric_scooter", "lon": -76.93732916666667, "bike_id": "c651801536eb70aba3219f256948f507", "rental_uris": {"android": "https://dc.lft.to/lastmile_qr_scan", "ios": "https://dc.lft.to/lastmile_qr_scan"}, "name": "c651801536eb70aba3219f256948f507", "is_reserved": 0}, {"is_disabled": 0, "fusion_lon": 0.0, "fusion_lat": 0.0, "lat": 38.93188883333333, "type": "electric_bike", "lon": -77.22937183333333, "bike_id": "fac93b95ffc105714918b314f868f453", "rental_uris": {"android": "https://dc.lft.to/lastmile_qr_scan", "ios": "https://dc.lft.to/lastmile_qr_scan"}, "name": "fac93b95ffc105714918b314f868f453", "is_reserved": 0}, {"is_disabled": 0, "fusion_lon": 0.0, "fusion_lat": 0.0, "lat": 38.91884733333333, "type": "electric_scooter", "lon": -77.01589866666667, "bike_id": "ce2353e4de28545cdacad445bd6f7764", "rental_uris": {"android": "https://dc.lft.to/lastmile_qr_scan", "ios": "https://dc.lft.to/lastmile_qr_scan"}, "name": "ce2353e4de28545cdacad445bd6f7764", "is_reserved": 0}, {"is_disabled": 0, "fusion_lon": 0.0, "fusion_lat": 0.0, "lat": 38.90250133333333, "type": "electric_scooter", "lon": -77.02202083333333, "bike_id": "7f8d7ba9dfe0d8019aea04c1d5bf8102", "rental_uris": {"android": "https://dc.lft.to/lastmile_qr_scan", "ios": "https://dc.lft.to/lastmile_qr_scan"}, "name": "7f8d7ba9dfe0d8019aea04c1d5bf8102", "is_reserved": 0}, {"is_disabled": 0, "fusion_lon": 0.0, "fusion_lat": 0.0, "lat": 38.90848, "type": "electric_scooter", "lon": -77.063464, "bike_id": "d59edf0fad1ae2a05f1773905b3c32e4", "rental_uris": {"android": "https://dc.lft.to/lastmile_qr_scan", "ios": "https://dc.lft.to/lastmile_qr_scan"}, "name": "d59edf0fad1ae2a05f1773905b3c32e4", "is_reserved": 0}, {"is_disabled": 0, "fusion_lon": 0.0, "fusion_lat": 0.0, "lat": 38.892300666666664, "type": "electric_scooter", "lon": -77.021754, "bike_id": "a067192e254b0386f063fa7e130a3392", "rental_uris": {"android": "https://dc.lft.to/lastmile_qr_scan", "ios": "https://dc.lft.to/lastmile_qr_scan"}, "name": "a067192e254b0386f063fa7e130a3392", "is_reserved": 0}, {"is_disabled": 0, "fusion_lon": 0.0, "fusion_lat": 0.0, "lat": 38.899058, "type": "electric_scooter", "lon": -77.03353133333333, "bike_id": "b0a538fb254728cbc303a8417d94b0ea", "rental_uris": {"android": "https://dc.lft.to/lastmile_qr_scan", "ios": "https://dc.lft.to/lastmile_qr_scan"}, "name": "b0a538fb254728cbc303a8417d94b0ea", "is_reserved": 0}, {"is_disabled": 0, "fusion_lon": 0.0, "fusion_lat": 0.0, "lat": 38.8586625, "type": "electric_scooter", "lon": -76.99020216666666, "bike_id": "501dbd6dfdfca9080b5f1550bd64cbb5", "rental_uris": {"android": "https://dc.lft.to/lastmile_qr_scan", "ios": "https://dc.lft.to/lastmile_qr_scan"}, "name": "501dbd6dfdfca9080b5f1550bd64cbb5", "is_reserved": 0}, {"is_disabled": 0, "fusion_lon": 0.0, "fusion_lat": 0.0, "lat": 38.89475683333333, "type": "electric_scooter", "lon": -77.02115583333334, "bike_id": "53547611d158bf64b1c253aa0d7e5f4f", "rental_uris": {"android": "https://dc.lft.to/lastmile_qr_scan", "ios": "https://dc.lft.to/lastmile_qr_scan"}, "name": "53547611d158bf64b1c253aa0d7e5f4f", "is_reserved": 0}, {"is_disabled": 0, "fusion_lon": 0.0, "fusion_lat": 0.0, "lat": 38.90544033333333, "type": "electric_scooter", "lon": -77.0570695, "bike_id": "baff589745a50b87fb9af3c0cc8a2b9a", "rental_uris": {"android": "https://dc.lft.to/lastmile_qr_scan", "ios": "https://dc.lft.to/lastmile_qr_scan"}, "name": "baff589745a50b87fb9af3c0cc8a2b9a", "is_reserved": 0}, {"is_disabled": 0, "fusion_lon": 0.0, "fusion_lat": 0.0, "lat": 38.91694433333333, "type": "electric_scooter", "lon": -77.03782633333333, "bike_id": "969b78e4d5f89bbbe38f7f0544bb4b40", "rental_uris": {"android": "https://dc.lft.to/lastmile_qr_scan", "ios": "https://dc.lft.to/lastmile_qr_scan"}, "name": "969b78e4d5f89bbbe38f7f0544bb4b40", "is_reserved": 0}, {"is_disabled": 0, "fusion_lon": 0.0, "fusion_lat": 0.0, "lat": 38.92610533333333, "type": "electric_scooter", "lon": -77.0216245, "bike_id": "5ac2a971c283e866735d4f753d0441e2", "rental_uris": {"android": "https://dc.lft.to/lastmile_qr_scan", "ios": "https://dc.lft.to/lastmile_qr_scan"}, "name": "5ac2a971c283e866735d4f753d0441e2", "is_reserved": 0}, {"is_disabled": 0, "fusion_lon": 0.0, "fusion_lat": 0.0, "lat": 38.92175916666667, "type": "electric_scooter", "lon": -77.04232583333334, "bike_id": "2b935037f1a3bb7dbd037cc2692cc44b", "rental_uris": {"android": "https://dc.lft.to/lastmile_qr_scan", "ios": "https://dc.lft.to/lastmile_qr_scan"}, "name": "2b935037f1a3bb7dbd037cc2692cc44b", "is_reserved": 0}, {"is_disabled": 0, "fusion_lon": 0.0, "fusion_lat": 0.0, "lat": 38.91817966666667, "type": "electric_scooter", "lon": -77.0253285, "bike_id": "1e08786e361b71225a7217f2ab95bd4d", "rental_uris": {"android": "https://dc.lft.to/lastmile_qr_scan", "ios": "https://dc.lft.to/lastmile_qr_scan"}, "name": "1e08786e361b71225a7217f2ab95bd4d", "is_reserved": 0}, {"is_disabled": 0, "fusion_lon": 0.0, "fusion_lat": 0.0, "lat": 38.94039633333333, "type": "electric_scooter", "lon": -77.02906716666666, "bike_id": "bb66d8c5e921d5e3ba417051df059250", "rental_uris": {"android": "https://dc.lft.to/lastmile_qr_scan", "ios": "https://dc.lft.to/lastmile_qr_scan"}, "name": "bb66d8c5e921d5e3ba417051df059250", "is_reserved": 0}, {"is_disabled": 0, "fusion_lon": 0.0, "fusion_lat": 0.0, "lat": 38.919917, "type": "electric_scooter", "lon": -76.97314633333333, "bike_id": "da4f3c91df9c6589bdb09f08917fc519", "rental_uris": {"android": "https://dc.lft.to/lastmile_qr_scan", "ios": "https://dc.lft.to/lastmile_qr_scan"}, "name": "da4f3c91df9c6589bdb09f08917fc519", "is_reserved": 0}, {"is_disabled": 0, "fusion_lon": 0.0, "fusion_lat": 0.0, "lat": 38.893726, "type": "electric_scooter", "lon": -76.97814783333334, "bike_id": "3120681e18e2ac316cf468529ff52fd7", "rental_uris": {"android": "https://dc.lft.to/lastmile_qr_scan", "ios": "https://dc.lft.to/lastmile_qr_scan"}, "name": "3120681e18e2ac316cf468529ff52fd7", "is_reserved": 0}, {"is_disabled": 0, "fusion_lon": 0.0, "fusion_lat": 0.0, "lat": 38.91268733333333, "type": "electric_scooter", "lon": -77.04166283333333, "bike_id": "aef4d4ec5f034ae3676cc0f9e1eaa94c", "rental_uris": {"android": "https://dc.lft.to/lastmile_qr_scan", "ios": "https://dc.lft.to/lastmile_qr_scan"}, "name": "aef4d4ec5f034ae3676cc0f9e1eaa94c", "is_reserved": 0}, {"is_disabled": 0, "fusion_lon": 0.0, "fusion_lat": 0.0, "lat": 38.895233166666664, "type": "electric_scooter", "lon": -77.00207066666667, "bike_id": "336115225ef21d835b4dc47b4d5bfc58", "rental_uris": {"android": "https://dc.lft.to/lastmile_qr_scan", "ios": "https://dc.lft.to/lastmile_qr_scan"}, "name": "336115225ef21d835b4dc47b4d5bfc58", "is_reserved": 0}, {"is_disabled": 0, "fusion_lon": 0.0, "fusion_lat": 0.0, "lat": 38.96038716666666, "type": "electric_bike", "lon": -76.9271635, "bike_id": "ed7398e3b8aceac25facb7642105118a", "rental_uris": {"android": "https://dc.lft.to/lastmile_qr_scan", "ios": "https://dc.lft.to/lastmile_qr_scan"}, "name": "ed7398e3b8aceac25facb7642105118a", "is_reserved": 0}, {"is_disabled": 0, "fusion_lon": 0.0, "fusion_lat": 0.0, "lat": 38.917322, "type": "electric_scooter", "lon": -77.03634316666667, "bike_id": "fcee9c9f276ac5608930fc873155ad1c", "rental_uris": {"android": "https://dc.lft.to/lastmile_qr_scan", "ios": "https://dc.lft.to/lastmile_qr_scan"}, "name": "fcee9c9f276ac5608930fc873155ad1c", "is_reserved": 0}, {"is_disabled": 0, "fusion_lon": 0.0, "fusion_lat": 0.0, "lat": 38.895673333333335, "type": "electric_bike", "lon": -77.12736133333334, "bike_id": "57d43b1537496ae51b5bf30d83a5d6d7", "rental_uris": {"android": "https://dc.lft.to/lastmile_qr_scan", "ios": "https://dc.lft.to/lastmile_qr_scan"}, "name": "57d43b1537496ae51b5bf30d83a5d6d7", "is_reserved": 0}, {"is_disabled": 0, "fusion_lon": 0.0, "fusion_lat": 0.0, "lat": 38.902755666666664, "type": "electric_scooter", "lon": -77.04058116666667, "bike_id": "3738bed60c082d356c282163b52b7a08", "rental_uris": {"android": "https://dc.lft.to/lastmile_qr_scan", "ios": "https://dc.lft.to/lastmile_qr_scan"}, "name": "3738bed60c082d356c282163b52b7a08", "is_reserved": 0}, {"is_disabled": 0, "fusion_lon": 0.0, "fusion_lat": 0.0, "lat": 38.9376065, "type": "electric_scooter", "lon": -77.02497766666667, "bike_id": "8c2554cb5e6b687f0cffcc1ec745b8ce", "rental_uris": {"android": "https://dc.lft.to/lastmile_qr_scan", "ios": "https://dc.lft.to/lastmile_qr_scan"}, "name": "8c2554cb5e6b687f0cffcc1ec745b8ce", "is_reserved": 0}, {"is_disabled": 0, "fusion_lon": 0.0, "fusion_lat": 0.0, "lat": 38.9169175, "type": "electric_scooter", "lon": -77.02905533333333, "bike_id": "6926230c5701a310ef5b0bacddc666c8", "rental_uris": {"android": "https://dc.lft.to/lastmile_qr_scan", "ios": "https://dc.lft.to/lastmile_qr_scan"}, "name": "6926230c5701a310ef5b0bacddc666c8", "is_reserved": 0}, {"is_disabled": 0, "fusion_lon": 0.0, "fusion_lat": 0.0, "lat": 38.8731845, "type": "electric_scooter", "lon": -77.00181283333333, "bike_id": "1aa838456d5055e9ca8e3d4a1e50ea66", "rental_uris": {"android": "https://dc.lft.to/lastmile_qr_scan", "ios": "https://dc.lft.to/lastmile_qr_scan"}, "name": "1aa838456d5055e9ca8e3d4a1e50ea66", "is_reserved": 0}, {"is_disabled": 0, "fusion_lon": 0.0, "fusion_lat": 0.0, "lat": 38.8923155, "type": "electric_scooter", "lon": -77.0217135, "bike_id": "cb1659ebf201617252eca549a20fcee2", "rental_uris": {"android": "https://dc.lft.to/lastmile_qr_scan", "ios": "https://dc.lft.to/lastmile_qr_scan"}, "name": "cb1659ebf201617252eca549a20fcee2", "is_reserved": 0}, {"is_disabled": 0, "fusion_lon": 0.0, "fusion_lat": 0.0, "lat": 38.909603833333335, "type": "electric_scooter", "lon": -77.04783966666666, "bike_id": "e2cdae5cbfaf40fcc974313f7b87624d", "rental_uris": {"android": "https://dc.lft.to/lastmile_qr_scan", "ios": "https://dc.lft.to/lastmile_qr_scan"}, "name": "e2cdae5cbfaf40fcc974313f7b87624d", "is_reserved": 0}, {"is_disabled": 0, "fusion_lon": 0.0, "fusion_lat": 0.0, "lat": 38.91039766666667, "type": "electric_scooter", "lon": -77.043501, "bike_id": "d208f39bb0c297450ddde64654ce6aed", "rental_uris": {"android": "https://dc.lft.to/lastmile_qr_scan", "ios": "https://dc.lft.to/lastmile_qr_scan"}, "name": "d208f39bb0c297450ddde64654ce6aed", "is_reserved": 0}, {"is_disabled": 0, "fusion_lon": 0.0, "fusion_lat": 0.0, "lat": 38.90960316666666, "type": "electric_scooter", "lon": -77.03833483333334, "bike_id": "1b61b2f4b548b6ff8f45ba32ac552a3e", "rental_uris": {"android": "https://dc.lft.to/lastmile_qr_scan", "ios": "https://dc.lft.to/lastmile_qr_scan"}, "name": "1b61b2f4b548b6ff8f45ba32ac552a3e", "is_reserved": 0}, {"is_disabled": 0, "fusion_lon": 0.0, "fusion_lat": 0.0, "lat": 38.9032395, "type": "electric_scooter", "lon": -77.02123666666667, "bike_id": "ff4eef363a6cc911bf8d0c5ac2c8f0ac", "rental_uris": {"android": "https://dc.lft.to/lastmile_qr_scan", "ios": "https://dc.lft.to/lastmile_qr_scan"}, "name": "ff4eef363a6cc911bf8d0c5ac2c8f0ac", "is_reserved": 0},