{"data": {"bikes": [{"lat": 38.919663, "is_disabled": 0, "type": "electric_scooter", "lon": -77.01216116666667, "bike_id": "ba0b6641a97a1e272b2d14daa75ceeda", "fusion_lat": 0.0, "name": "ba0b6641a97a1e272b2d14daa75ceeda", "is_reserved": 0, "rental_uris": {"android": "https://dc.lft.to/lastmile_qr_scan", "ios": "https://dc.lft.to/lastmile_qr_scan"}, "fusion_lon": 0.0}, {"lat": 39.056379, "is_disabled": 0, "type": "electric_bike", "lon": -77.12528916666666, "bike_id": "da5c0b7d4d99e92aa461f3861de2afa9", "fusion_lat": 0.0, "name": "da5c0b7d4d99e92aa461f3861de2afa9", "is_reserved": 0, "rental_uris": {"android": "https://dc.lft.to/lastmile_qr_scan", "ios": "https://dc.lft.to/lastmile_qr_scan"}, "fusion_lon": 0.0}, {"lat": 38.898154, "is_disabled": 0, "type": "electric_scooter", "lon": -76.99691583333333, "bike_id": "51f5baa2e60cc80d28ad7747aeab99b2", "fusion_lat": 0.0, "name": "51f5baa2e60cc80d28ad7747aeab99b2", "is_reserved": 0, "rental_uris": {"android": "https://dc.lft.to/lastmile_qr_scan", "ios": "https://dc.lft.to/lastmile_qr_scan"}, "fusion_lon": 0.0}, {"lat": 38.9247655, "is_disabled": 0, "type": "electric_scooter", "lon": -77.028474, "bike_id": "6fa0e167bec6f2a8af23b4fb38d7651a", "fusion_lat": 0.0, "name": "6fa0e167bec6f2a8af23b4fb38d7651a", "is_reserved": 0, "rental_uris": {"android": "https://dc.lft.to/lastmile_qr_scan", "ios": "https://dc.lft.to/lastmile_qr_scan"}, "fusion_lon": 0.0}, {"lat": 38.908349333333334, "is_disabled": 0, "type": "electric_scooter", "lon": -77.002118, "bike_id": "a0f12fdcc3e8cdc64c15171bd473776a", "fusion_lat": 0.0, "name": "a0f12fdcc3e8cdc64c15171bd473776a", "is_reserved": 0, "rental_uris": {"android": "https://dc.lft.to/lastmile_qr_scan", "ios": "https://dc.lft.to/lastmile_qr_scan"}, "fusion_lon": 0.0}, {"lat": 38.884141166666666, "is_disabled": 0, "type": "electric_bike", "lon": -76.95424716666666, "bike_id": "136e6f973bf63f5fe0122dc58592d791", "fusion_lat": 0.0, "name": "136e6f973bf63f5fe0122dc58592d791", "is_reserved": 0, "rental_uris": {"android": "https://dc.lft.to/lastmile_qr_scan", "ios": "https://dc.lft.to/lastmile_qr_scan"}, "fusion_lon": 0.0}, {"lat": 38.93175, "is_disabled": 0, "type": "electric_scooter", "lon": -77.02820333333334, "bike_id": "febbd96333e1924a7bd38fe253c44d53", "fusion_lat": 0.0, "name": "febbd96333e1924a7bd38fe253c44d53", "is_reserved": 0, "rental_uris": {"android": "https://dc.lft.to/lastmile_qr_scan", "ios": "https://dc.lft.to/lastmile_qr_scan"}, "fusion_lon": 0.0}, {"lat": 38.88738933333333, "is_disabled": 0, "type": "electric_scooter", "lon": -77.01532033333334, "bike_id": "8a800431699aef1257a870aabcbff0b6", "fusion_lat": 0.0, "name": "8a800431699aef1257a870aabcbff0b6", "is_reserved": 0, "rental_uris": {"android": "https://dc.lft.to/lastmile_qr_scan", "ios": "https://dc.lft.to/lastmile_qr_scan"}, "fusion_lon": 0.0}, {"lat": 38.88884816666667, "is_disabled": 0, "type": "electric_scooter", "lon": -76.93153083333333, "bike_id": "fd9c42a09747eb0ec78d3af1eabcbd04", "fusion_lat": 0.0, "name": "fd9c42a09747eb0ec78d3af1eabcbd04", "is_reserved": 0, "rental_uris": {"android": "https://dc.lft.to/lastmile_qr_scan", "ios": "https://dc.lft.to/lastmile_qr_scan"}, "fusion_lon": 0.0}, {"lat": 38.90726766666667, "is_disabled": 0, "type": "electric_scooter", "lon": -77.04641433333333, "bike_id": "61de3531f5d91314301394f534486ac9", "fusion_lat": 0.0, "name": "61de3531f5d91314301394f534486ac9", "is_reserved": 0, "rental_uris": {"android": "https://dc.lft.to/lastmile_qr_scan", "ios": "https://dc.lft.to/lastmile_qr_scan"}, "fusion_lon": 0.0}, {"lat": 38.96158533333333, "is_disabled": 0, "type": "electric_scooter", "lon": -77.02777966666666, "bike_id": "34dd28cfe43db5723827feac05762d2a", "fusion_lat": 0.0, "name": "34dd28cfe43db5723827feac05762d2a", "is_reserved": 0, "rental_uris": {"android": "https://dc.lft.to/lastmile_qr_scan", "ios": "https://dc.lft.to/lastmile_qr_scan"}, "fusion_lon": 0.0}, {"lat": 38.911862, "is_disabled": 0, "type": "electric_scooter", "lon": -77.043017, "bike_id": "d2fa354eda2dfcd179f50f66f6781cd0", "fusion_lat": 0.0, "name": "d2fa354eda2dfcd179f50f66f6781cd0", "is_reserved": 0, "rental_uris": {"android": "https://dc.lft.to/lastmile_qr_scan", "ios": "https://dc.lft.to/lastmile_qr_scan"}, "fusion_lon": 0.0}, {"lat": 38.89043983333333, "is_disabled": 0, "type": "electric_scooter", "lon": -76.952466, "bike_id": "20b7ff2b52f2a09cdc68fdf63c56179d", "fusion_lat": 0.0, "name": "20b7ff2b52f2a09cdc68fdf63c56179d", "is_reserved": 0, "rental_uris": {"android": "https://dc.lft.to/lastmile_qr_scan", "ios": "https://dc.lft.to/lastmile_qr_scan"}, "fusion_lon": 0.0}, {"lat": 38.9320695, "is_disabled": 0, "type": "electric_scooter", "lon": -77.02250566666666, "bike_id": "4e5a342da5a735007e6aa2ccefec21b1", "fusion_lat": 0.0, "name": "4e5a342da5a735007e6aa2ccefec21b1", "is_reserved": 0, "rental_uris": {"android": "https://dc.lft.to/lastmile_qr_scan", "ios": "https://dc.lft.to/lastmile_qr_scan"}, "fusion_lon": 0.0}, {"lat": 38.92554633333334, "is_disabled": 0, "type": "electric_scooter", "lon": -77.033438, "bike_id": "80059c208a19c0cd45659f80adb2d572", "fusion_lat": 0.0, "name": "80059c208a19c0cd45659f80adb2d572", "is_reserved": 0, "rental_uris": {"android": "https://dc.lft.to/lastmile_qr_scan", "ios": "https://dc.lft.to/lastmile_qr_scan"}, "fusion_lon": 0.0}, {"lat": 38.9049285, "is_disabled": 0, "type": "electric_scooter", "lon": -77.02959466666667, "bike_id": "6fa4de50f712b7380953f96df4cea70b", "fusion_lat": 0.0, "name": "6fa4de50f712b7380953f96df4cea70b", "is_reserved": 0, "rental_uris": {"android": "https://dc.lft.to/lastmile_qr_scan", "ios": "https://dc.lft.to/lastmile_qr_scan"}, "fusion_lon": 0.0}, {"lat": 38.9240915, "is_disabled": 0, "type": "electric_scooter", "lon": -77.0273965, "bike_id": "c9169fda892e2ca2c251d0f9561ab400", "fusion_lat": 0.0, "name": "c9169fda892e2ca2c251d0f9561ab400", "is_reserved": 0, "rental_uris": {"android": "https://dc.lft.to/lastmile_qr_scan", "ios": "https://dc.lft.to/lastmile_qr_scan"}, "fusion_lon": 0.0}, {"lat": 38.84466033333333, "is_disabled": 0, "type": "electric_bike", "lon": -76.98754333333333, "bike_id": "ec98f33ecd587e244f63fec423345c79", "fusion_lat": 0.0, "name": "ec98f33ecd587e244f63fec423345c79", "is_reserved": 0, "rental_uris": {"android": "https://dc.lft.to/lastmile_qr_scan", "ios": "https://dc.lft.to/lastmile_qr_scan"}, "fusion_lon": 0.0}, {"lat": 38.8762795, "is_disabled": 0, "type": "electric_scooter", "lon": -76.96526666666666, "bike_id": "70c4147a62b87c8ec2ab3250d9cb1ff3", "fusion_lat": 0.0, "name": "70c4147a62b87c8ec2ab3250d9cb1ff3", "is_reserved": 0, "rental_uris": {"android": "https://dc.lft.to/lastmile_qr_scan", "ios": "https://dc.lft.to/lastmile_qr_scan"}, "fusion_lon": 0.0}, {"lat": 38.906059666666664, "is_disabled": 0, "type": "electric_scooter", "lon": -76.98981983333333, "bike_id": "0640a16ef7337c01589dd0b575a6b34b", "fusion_lat": 0.0, "name": "0640a16ef7337c01589dd0b575a6b34b", "is_reserved": 0, "rental_uris": {"android": "https://dc.lft.to/lastmile_qr_scan", "ios": "https://dc.lft.to/lastmile_qr_scan"}, "fusion_lon": 0.0}, {"lat": 38.86996933333333, "is_disabled": 0, "type": "electric_bike", "lon": -77.06568616666667, "bike_id": "37d54f657ed847a476535e9ae421958e", "fusion_lat": 0.0, "name": "37d54f657ed847a476535e9ae421958e", "is_reserved": 0, "rental_uris": {"android": "https://dc.lft.to/lastmile_qr_scan", "ios": "https://dc.lft.to/lastmile_qr_scan"}, "fusion_lon": 0.0}, {"lat": 38.93450583333333, "is_disabled": 0, "type": "electric_scooter", "lon": -77.0308805, "bike_id": "8a743ba5ac69ee8c244e25fdd66105c8", "fusion_lat": 0.0, "name": "8a743ba5ac69ee8c244e25fdd66105c8", "is_reserved": 0, "rental_uris": {"android": "https://dc.lft.to/lastmile_qr_scan", "ios": "https://dc.lft.to/lastmile_qr_scan"}, "fusion_lon": 0.0}, {"lat": 38.90349116666667, "is_disabled": 0, "type": "electric_scooter", "lon": -77.04243183333334, "bike_id": "44ee12a3ae48a287ababe0cffbf1bb44", "fusion_lat": 0.0, "name": "44ee12a3ae48a287ababe0cffbf1bb44", "is_reserved": 0, "rental_uris": {"android": "https://dc.lft.to/lastmile_qr_scan", "ios": "https://dc.lft.to/lastmile_qr_scan"}, "fusion_lon": 0.0}, {"lat": 38.90038533333333, "is_disabled": 0, "type": "electric_scooter", "lon": -76.98373866666667, "bike_id": "3167b3f049047ae81ffac59156454c3b", "fusion_lat": 0.0, "name": "3167b3f049047ae81ffac59156454c3b", "is_reserved": 0, "rental_uris": {"android": "https://dc.lft.to/lastmile_qr_scan", "ios": "https://dc.lft.to/lastmile_qr_scan"}, "fusion_lon": 0.0}, {"lat": 38.8593095, "is_disabled": 0, "type": "electric_scooter", "lon": -76.99717816666667, "bike_id": "b6b72a0780127f34cf4a820c3d00cbb2", "fusion_lat": 0.0, "name": "b6b72a0780127f34cf4a820c3d00cbb2", "is_reserved": 0, "rental_uris": {"android": "https://dc.lft.to/lastmile_qr_scan", "ios": "https://dc.lft.to/lastmile_qr_scan"}, "fusion_lon": 0.0}, {"lat": 38.865231, "is_disabled": 0, "type": "electric_scooter", "lon": -76.99028316666667, "bike_id": "fce8791160e4e3b4431c67674b0b7bca", "fusion_lat": 0.0, "name": "fce8791160e4e3b4431c67674b0b7bca", "is_reserved": 0, "rental_uris": {"android": "https://dc.lft.to/lastmile_qr_scan", "ios": "https://dc.lft.to/lastmile_qr_scan"}, "fusion_lon": 0.0}, {"lat": 38.8341225, "is_disabled": 0, "type": "electric_bike", "lon": -77.1038665, "bike_id": "ceb84a6d8ec81e251135ca6c23bf84da", "fusion_lat": 0.0, "name": "ceb84a6d8ec81e251135ca6c23bf84da", "is_reserved": 0, "rental_uris": {"android": "https://dc.lft.to/lastmile_qr_scan", "ios": "https://dc.lft.to/lastmile_qr_scan"}, "fusion_lon": 0.0}, {"lat": 38.902710666666664, "is_disabled": 0, "type": "electric_scooter", "lon": -77.0396955, "bike_id": "b7702861324f04427eefe5ed770931c5", "fusion_lat": 0.0, "name": "b7702861324f04427eefe5ed770931c5", "is_reserved": 0, "rental_uris": {"android": "https://dc.lft.to/lastmile_qr_scan", "ios": "https://dc.lft.to/lastmile_qr_scan"}, "fusion_lon": 0.0}, {"lat": 38.918699333333336, "is_disabled": 0, "type": "electric_scooter", "lon": -77.0121, "bike_id": "3fab34345f3020a7bcb21bf5b141e03b", "fusion_lat": 0.0, "name": "3fab34345f3020a7bcb21bf5b141e03b", "is_reserved": 0, "rental_uris": {"android": "https://dc.lft.to/lastmile_qr_scan", "ios": "https://dc.lft.to/lastmile_qr_scan"}, "fusion_lon": 0.0}, {"lat": 38.933558166666664, "is_disabled": 0, "type": "electric_bike", "lon": -77.0996175, "bike_id": "2de105ec0cdad8405e0b3b8826b1393d", "fusion_lat": 0.0, "name": "2de105ec0cdad8405e0b3b8826b1393d", "is_reserved": 0, "rental_uris": {"android": "https://dc.lft.to/lastmile_qr_scan", "ios": "https://dc.lft.to/lastmile_qr_scan"}, "fusion_lon": 0.0}, {"lat": 38.9284705, "is_disabled": 0, "type": "electric_scooter", "lon": -77.01385583333334, "bike_id": "ea920962c41f36e6aa12cfe5e97e600b", "fusion_lat": 0.0, "name": "ea920962c41f36e6aa12cfe5e97e600b", "is_reserved": 0, "rental_uris": {"android": "https://dc.lft.to/lastmile_qr_scan", "ios": "https://dc.lft.to/lastmile_qr_scan"}, "fusion_lon": 0.0}, {"lat": 38.900819166666665, "is_disabled": 0, "type": "electric_scooter", "lon": -77.00207583333334, "bike_id": "a31774cdf59852885fa3920c70e5c020", "fusion_lat": 0.0, "name": "a31774cdf59852885fa3920c70e5c020", "is_reserved": 0, "rental_uris": {"android": "https://dc.lft.to/lastmile_qr_scan", "ios": "https://dc.lft.to/lastmile_qr_scan"}, "fusion_lon": 0.0}, {"lat": 38.903446333333335, "is_disabled": 0, "type": "electric_scooter", "lon": -77.04476716666667, "bike_id": "33f577b79b1210d3cdb8e92be487b2b9", "fusion_lat": 0.0, "name": "33f577b79b1210d3cdb8e92be487b2b9", "is_reserved": 0, "rental_uris": {"android": "https://dc.lft.to/lastmile_qr_scan", "ios": "https://dc.lft.to/lastmile_qr_scan"}, "fusion_lon": 0.0}, {"lat": 38.958245833333336, "is_disabled": 0, "type": "electric_bike", "lon": -76.94092333333333, "bike_id": "9cc5572e5f0d0bfb1edf59e1862e62dc", "fusion_lat": 0.0, "name": "9cc5572e5f0d0bfb1edf59e1862e62dc", "is_reserved": 0, "rental_uris": {"android": "https://dc.lft.to/lastmile_qr_scan", "ios": "https://dc.lft.to/lastmile_qr_scan"}, "fusion_lon": 0.0}, {"lat": 38.9104435, "is_disabled": 0, "type": "electric_scooter", "lon": -77.01505616666667, "bike_id": "c27384961e0c8a407399eeeaee316372", "fusion_lat": 0.0, "name": "c27384961e0c8a407399eeeaee316372", "is_reserved": 0, "rental_uris": {"android": "https://dc.lft.to/lastmile_qr_scan", "ios": "https://dc.lft.to/lastmile_qr_scan"}, "fusion_lon": 0.0}, {"lat": 38.907226666666666, "is_disabled": 0, "type": "electric_scooter", "lon": -77.04828483333333, "bike_id": "95d39e50f9884b8df52df6b66b9a9043", "fusion_lat": 0.0, "name": "95d39e50f9884b8df52df6b66b9a9043", "is_reserved": 0, "rental_uris": {"android": "https://dc.lft.to/lastmile_qr_scan", "ios": "https://dc.lft.to/lastmile_qr_scan"}, "fusion_lon": 0.0}, {"lat": 38.9006335, "is_disabled": 0, "type": "electric_scooter", "lon": -77.00201133333333, "bike_id": "9a362a8b533710c34ddcc50082188e01", "fusion_lat": 0.0, "name": "9a362a8b533710c34ddcc50082188e01", "is_reserved": 0, "rental_uris": {"android": "https://dc.lft.to/lastmile_qr_scan", "ios": "https://dc.lft.to/lastmile_qr_scan"}, "fusion_lon": 0.0}, {"lat": 39.051993, "is_disabled": 0, "type": "electric_bike", "lon": -77.1091675, "bike_id": "eb7a43858a0fc67a9375b0a2433853ca", "fusion_lat": 0.0, "name": "eb7a43858a0fc67a9375b0a2433853ca", "is_reserved": 0, "rental_uris": {"android": "https://dc.lft.to/lastmile_qr_scan", "ios": "https://dc.lft.to/lastmile_qr_scan"}, "fusion_lon": 0.0}, {"lat": 38.89233333333333, "is_disabled": 0, "type": "electric_scooter", "lon": -77.05001466666667, "bike_id": "46a18b161af73fd682818f8d6bc1fd92", "fusion_lat": 0.0, "name": "46a18b161af73fd682818f8d6bc1fd92", "is_reserved": 0, "rental_uris": {"android": "https://dc.lft.to/lastmile_qr_scan", "ios": "https://dc.lft.to/lastmile_qr_scan"}, "fusion_lon": 0.0}, {"lat": 38.91710583333333, "is_disabled": 0, "type": "electric_scooter", "lon": -77.0386405, "bike_id": "8e810dc8fe87f271dbc9a353efe2591d", "fusion_lat": 0.0, "name": "8e810dc8fe87f271dbc9a353efe2591d", "is_reserved": 0, "rental_uris": {"android": "https://dc.lft.to/lastmile_qr_scan", "ios": "https://dc.lft.to/lastmile_qr_scan"}, "fusion_lon": 0.0}, {"lat": 38.92327783333333, "is_disabled": 0, "type": "electric_scooter", "lon": -77.02712083333333, "bike_id": "13676601f2320e916a158f80882d30dd", "fusion_lat": 0.0, "name": "13676601f2320e916a158f80882d30dd", "is_reserved": 0, "rental_uris": {"android": "https://dc.lft.to/lastmile_qr_scan", "ios": "https://dc.lft.to/lastmile_qr_scan"}, "fusion_lon": 0.0}, {"lat": 38.902082, "is_disabled": 0, "type": "electric_scooter", "lon": -77.02377416666667, "bike_id": "fd31cfb1b7d647ef6c7ae8433af8ada9", "fusion_lat": 0.0, "name": "fd31cfb1b7d647ef6c7ae8433af8ada9", "is_reserved": 0, "rental_uris": {"android": "https://dc.lft.to/lastmile_qr_scan", "ios": "https://dc.lft.to/lastmile_qr_scan"}, "fusion_lon": 0.0}, {"lat": 38.9231435, "is_disabled": 0, "type": "electric_scooter", "lon": -77.03856666666667, "bike_id": "3609e578aecb1e2b371862f0c51166e5", "fusion_lat": 0.0, "name": "3609e578aecb1e2b371862f0c51166e5", "is_reserved": 0, "rental_uris": {"android": "https://dc.lft.to/lastmile_qr_scan", "ios": "https://dc.lft.to/lastmile_qr_scan"}, "fusion_lon": 0.0}, {"lat": 38.89968183333333, "is_disabled": 0, "type": "electric_scooter", "lon": -76.92660083333334, "bike_id": "afc7d795801792e58c1d0342891df176", "fusion_lat": 0.0, "name": "afc7d795801792e58c1d0342891df176", "is_reserved": 0, "rental_uris": {"android": "https://dc.lft.to/lastmile_qr_scan", "ios": "https://dc.lft.to/lastmile_qr_scan"}, "fusion_lon": 0.0}, {"lat": 38.904986, "is_disabled": 0, "type": "electric_scooter", "lon": -77.02955583333333, "bike_id": "611bfd823f5d392162a9f9d7ba821497", "fusion_lat": 0.0, "name": "611bfd823f5d392162a9f9d7ba821497", "is_reserved": 0, "rental_uris": {"android": "https://dc.lft.to/lastmile_qr_scan", "ios": "https://dc.lft.to/lastmile_qr_scan"}, "fusion_lon": 0.0}, {"lat": 38.924475666666666, "is_disabled": 0, "type": "electric_scooter", "lon": -77.020333, "bike_id": "3e912e0e849c6a82ec07751b29ba958b", "fusion_lat": 0.0, "name": "3e912e0e849c6a82ec07751b29ba958b", "is_reserved": 0, "rental_uris": {"android": "https://dc.lft.to/lastmile_qr_scan", "ios": "https://dc.lft.to/lastmile_qr_scan"}, "fusion_lon": 0.0}, {"lat": 38.854562333333334, "is_disabled": 0, "type": "electric_scooter", "lon": -76.97237966666667, "bike_id": "e660a7d547694b022de3afcfcf1670eb", "fusion_lat": 0.0, "name": "e660a7d547694b022de3afcfcf1670eb", "is_reserved": 0, "rental_uris": {"android": "https://dc.lft.to/lastmile_qr_scan", "ios": "https://dc.lft.to/lastmile_qr_scan"}, "fusion_lon": 0.0}, {"lat": 38.865798833333336, "is_disabled": 0, "type": "electric_bike", "lon": -76.973086, "bike_id": "fec744d7a8506c53992104a1b088d19a", "fusion_lat": 0.0, "name": "fec744d7a8506c53992104a1b088d19a", "is_reserved": 0, "rental_uris": {"android": "https://dc.lft.to/lastmile_qr_scan", "ios": "https://dc.lft.to/lastmile_qr_scan"}, "fusion_lon": 0.0}, {"lat": 38.885045833333336, "is_disabled": 0, "type": "electric_scooter", "lon": -77.0056575, "bike_id": "21767c3bcae43ed4029ac6973e5e12d3", "fusion_lat": 0.0, "name": "21767c3bcae43ed4029ac6973e5e12d3", "is_reserved": 0, "rental_uris": {"android": "https://dc.lft.to/lastmile_qr_scan", "ios": "https://dc.lft.to/lastmile_qr_scan"}, "fusion_lon": 0.0}, {"lat": 38.863837, "is_disabled": 0, "type": "electric_scooter", "lon": -76.99251383333333, "bike_id": "81a69a9cb9024b2a0998706941be02bb", "fusion_lat": 0.0, "name": "81a69a9cb9024b2a0998706941be02bb", "is_reserved": 0, "rental_uris": {"android": "https://dc.lft.to/lastmile_qr_scan", "ios": "https://dc.lft.to/lastmile_qr_scan"}, "fusion_lon": 0.0}, {"lat": 38.89000716666666, "is_disabled": 0, "type": "electric_scooter", "lon": -77.0489635, "bike_id": "03dc8e3f228132ab79d1b0cd5251577e", "fusion_lat": 0.0, "name": "03dc8e3f228132ab79d1b0cd5251577e", "is_reserved": 0, "rental_uris": {"android": "https://dc.lft.to/lastmile_qr_scan", "ios": "https://dc.lft.to/lastmile_qr_scan"}, "fusion_lon": 0.0}, {"lat": 38.91787433333333, "is_disabled": 0, "type": "electric_scooter", "lon": -77.04414866666667, "bike_id": "725090e3c6110500862381cc5492cd56", "fusion_lat": 0.0, "name": "725090e3c6110500862381cc5492cd56", "is_reserved": 0, "rental_uris": {"android": "https://dc.lft.to/lastmile_qr_scan", "ios": "https://dc.lft.to/lastmile_qr_scan"}, "fusion_lon": 0.0}, {"lat": 38.978408333333334, "is_disabled": 0, "type": "electric_bike", "lon": -77.026531, "bike_id": "01c866a9b0bf8f590f896178c2a70eef", "fusion_lat": 0.0, "name": "01c866a9b0bf8f590f896178c2a70eef", "is_reserved": 0, "rental_uris": {"android": "https://dc.lft.to/lastmile_qr_scan", "ios": "https://dc.lft.to/lastmile_qr_scan"}, "fusion_lon": 0.0}, {"lat": 38.92356233333334, "is_disabled": 0, "type": "electric_scooter", "lon": -77.043943, "bike_id": "ffc22aef9da12f1ffe0f8657c49a5f0d", "fusion_lat": 0.0, "name": "ffc22aef9da12f1ffe0f8657c49a5f0d", "is_reserved": 0, "rental_uris": {"android": "https://dc.lft.to/lastmile_qr_scan", "ios": "https://dc.lft.to/lastmile_qr_scan"}, "fusion_lon": 0.0}, {"lat": 38.92790166666666, "is_disabled": 0, "type": "electric_bike", "lon": -76.97223566666666, "bike_id": "eff8fce468cb67258b4ceadec9338c60", "fusion_lat": 0.0, "name": "eff8fce468cb67258b4ceadec9338c60", "is_reserved": 0, "rental_uris": {"android": "https://dc.lft.to/lastmile_qr_scan", "ios": "https://dc.lft.to/lastmile_qr_scan"}, "fusion_lon": 0.0}, {"lat": 38.85507366666667, "is_disabled": 0, "type": "electric_bike", "lon": -77.12039733333333, "bike_id": "df937b12c0f13d674a35fd701d45e781", "fusion_lat": 0.0, "name": "df937b12c0f13d674a35fd701d45e781", "is_reserved": 0, "rental_uris": {"android": "https://dc.lft.to/lastmile_qr_scan", "ios": "https://dc.lft.to/lastmile_qr_scan"}, "fusion_lon": 0.0}, {"lat": 38.943072666666666, "is_disabled": 0, "type": "electric_scooter", "lon": -77.05926166666667, "bike_id": "4d47b6c7e48c78001ba35165ddfce886", "fusion_lat": 0.0, "name": "4d47b6c7e48c78001ba35165ddfce886", "is_reserved": 0, "rental_uris": {"android": "https://dc.lft.to/lastmile_qr_scan", "ios": "https://dc.lft.to/lastmile_qr_scan"}, "fusion_lon": 0.0}, {"lat": 38.8662715, "is_disabled": 0, "type": "electric_scooter", "lon": -76.98697433333334, "bike_id": "bba446eeae18d325e7db8189bc73cc53", "fusion_lat": 0.0, "name": "bba446eeae18d325e7db8189bc73cc53", "is_reserved": 0, "rental_uris": {"android": "https://dc.lft.to/lastmile_qr_scan", "ios": "https://dc.lft.to/lastmile_qr_scan"}, "fusion_lon": 0.0}, {"lat": 38.884903666666666, "is_disabled": 0, "type": "electric_scooter", "lon": -77.007121, "bike_id": "79bb3c424f86c8709c189c138d651c0c", "fusion_lat": 0.0, "name": "79bb3c424f86c8709c189c138d651c0c", "is_reserved": 0, "rental_uris": {"android": "https://dc.lft.to/lastmile_qr_scan", "ios": "https://dc.lft.to/lastmile_qr_scan"}, "fusion_lon": 0.0}, {"lat": 38.93477633333333, "is_disabled": 0, "type": "electric_scooter", "lon": -77.035831, "bike_id": "c56c78b5d34aba68fc2d946d17ba5e0c", "fusion_lat": 0.0, "name": "c56c78b5d34aba68fc2d946d17ba5e0c", "is_reserved": 0, "rental_uris": {"android": "https://dc.lft.to/lastmile_qr_scan", "ios": "https://dc.lft.to/lastmile_qr_scan"}, "fusion_lon": 0.0}, {"lat": 38.842963833333336, "is_disabled": 0, "type": "electric_scooter", "lon": -76.9993585, "bike_id": "b050e1ac2a1d875afb0958d8fa565493", "fusion_lat": 0.0, "name": "b050e1ac2a1d875afb0958d8fa565493", "is_reserved": 0, "rental_uris": {"android": "https://dc.lft.to/lastmile_qr_scan", "ios": "https://dc.lft.to/lastmile_qr_scan"}, "fusion_lon": 0.0}, {"lat": 38.84266933333333, "is_disabled": 0, "type": "electric_bike", "lon": -76.98841316666666, "bike_id": "c49d3178b5a83261f5fbfa57d01c5320", "fusion_lat": 0.0, "name": "c49d3178b5a83261f5fbfa57d01c5320", "is_reserved": 0, "rental_uris": {"android": "https://dc.lft.to/lastmile_qr_scan", "ios": "https://dc.lft.to/lastmile_qr_scan"}, "fusion_lon": 0.0}, {"lat": 38.9323305, "is_disabled": 0, "type": "electric_scooter", "lon": -76.9959905, "bike_id": "2673e0d3db006c9e3817aa73c5428717", "fusion_lat": 0.0, "name": "2673e0d3db006c9e3817aa73c5428717", "is_reserved": 0, "rental_uris": {"android": "https://dc.lft.to/lastmile_qr_scan", "ios": "https://dc.lft.to/lastmile_qr_scan"}, "fusion_lon": 0.0}, {"lat": 38.94291283333333, "is_disabled": 0, "type": "electric_scooter", "lon": -77.0217135, "bike_id": "549294c4e60d0d1842dab7539214386b", "fusion_lat": 0.0, "name": "549294c4e60d0d1842dab7539214386b", "is_reserved": 0, "rental_uris": {"android": "https://dc.lft.to/lastmile_qr_scan", "ios": "https://dc.lft.to/lastmile_qr_scan"}, "fusion_lon": 0.0}, {"lat": 38.875808666666664, "is_disabled": 0, "type": "electric_bike", "lon": -77.10556833333334, "bike_id": "796513753472602edb7aaf55d3bb2352", "fusion_lat": 0.0, "name": "796513753472602edb7aaf55d3bb2352", "is_reserved": 0, "rental_uris": {"android": "https://dc.lft.to/lastmile_qr_scan", "ios": "https://dc.lft.to/lastmile_qr_scan"}, "fusion_lon": 0.0}, {"lat": 38.9141555, "is_disabled": 0, "type": "electric_scooter", "lon": -77.03996233333334, "bike_id": "80d14147137c78dd402fdd75c01467a4", "fusion_lat": 0.0, "name": "80d14147137c78dd402fdd75c01467a4", "is_reserved": 0, "rental_uris": {"android": "https://dc.lft.to/lastmile_qr_scan", "ios": "https://dc.lft.to/lastmile_qr_scan"}, "fusion_lon": 0.0}, {"lat": 38.91190783333333, "is_disabled": 0, "type": "electric_scooter", "lon": -77.00210083333333, "bike_id": "7cf4e8d8bfb2f1f8c679e0676abc4862", "fusion_lat": 0.0, "name": "7cf4e8d8bfb2f1f8c679e0676abc4862", "is_reserved": 0, "rental_uris": {"android": "https://dc.lft.to/lastmile_qr_scan", "ios": "https://dc.lft.to/lastmile_qr_scan"}, "fusion_lon": 0.0}, {"lat": 38.887661, "is_disabled": 0, "type": "electric_scooter", "lon": -76.95597183333334, "bike_id": "39b805c2fa1c3ce1767aec0bbee751a5", "fusion_lat": 0.0, "name": "39b805c2fa1c3ce1767aec0bbee751a5", "is_reserved": 0, "rental_uris": {"android": "https://dc.lft.to/lastmile_qr_scan", "ios": "https://dc.lft.to/lastmile_qr_scan"}, "fusion_lon": 0.0}, {"lat": 38.88489916666666, "is_disabled": 0, "type": "electric_scooter", "lon": -77.00711683333333, "bike_id": "1a77778007fb2a62e1aae2974b556e97", "fusion_lat": 0.0, "name": "1a77778007fb2a62e1aae2974b556e97", "is_reserved": 0, "rental_uris": {"android": "https://dc.lft.to/lastmile_qr_scan", "ios": "https://dc.lft.to/lastmile_qr_scan"}, "fusion_lon": 0.0}, {"lat": 38.920143333333336, "is_disabled": 0, "type": "electric_scooter", "lon": -77.023872, "bike_id": "2bba3d882d5a51f2dac77c4f0914e741", "fusion_lat": 0.0, "name": "2bba3d882d5a51f2dac77c4f0914e741", "is_reserved": 0, "rental_uris": {"android": "https://dc.lft.to/lastmile_qr_scan", "ios": "https://dc.lft.to/lastmile_qr_scan"}, "fusion_lon": 0.0}, {"lat": 38.934932833333335, "is_disabled": 0, "type": "electric_scooter", "lon": -77.03621016666666, "bike_id": "9ff51e6bc574d0badde9b01271ee346a", "fusion_lat": 0.0, "name": "9ff51e6bc574d0badde9b01271ee346a", "is_reserved": 0, "rental_uris": {"android": "https://dc.lft.to/lastmile_qr_scan", "ios": "https://dc.lft.to/lastmile_qr_scan"}, "fusion_lon": 0.0}, {"lat": 38.99391983333334, "is_disabled": 0, "type": "electric_bike", "lon": -77.031699, "bike_id": "faf13528716f6135b2758b51827621ed", "fusion_lat": 0.0, "name": "faf13528716f6135b2758b51827621ed", "is_reserved": 0, "rental_uris": {"android": "https://dc.lft.to/lastmile_qr_scan", "ios": "https://dc.lft.to/lastmile_qr_scan"}, "fusion_lon": 0.0}, {"lat": 38.897298, "is_disabled": 0, "type": "electric_scooter", "lon": -77.04989816666667, "bike_id": "9601faf953029e5df8d3df9748c9887f", "fusion_lat": 0.0, "name": "9601faf953029e5df8d3df9748c9887f", "is_reserved": 0, "rental_uris": {"android": "https://dc.lft.to/lastmile_qr_scan", "ios": "https://dc.lft.to/lastmile_qr_scan"}, "fusion_lon": 0.0}, {"lat": 38.909841166666666, "is_disabled": 0, "type": "electric_scooter", "lon": -77.03441933333333, "bike_id": "e4a61cacc57ed0c9e4a793563cd9ec33", "fusion_lat": 0.0, "name": "e4a61cacc57ed0c9e4a793563cd9ec33", "is_reserved": 0, "rental_uris": {"android": "https://dc.lft.to/lastmile_qr_scan", "ios": "https://dc.lft.to/lastmile_qr_scan"}, "fusion_lon": 0.0}, {"lat": 38.900145333333334, "is_disabled": 0, "type": "electric_scooter", "lon": -77.01199583333333, "bike_id": "9347809323057a6777d61b3090f1bbb8", "fusion_lat": 0.0, "name": "9347809323057a6777d61b3090f1bbb8", "is_reserved": 0, "rental_uris": {"android": "https://dc.lft.to/lastmile_qr_scan", "ios": "https://dc.lft.to/lastmile_qr_scan"}, "fusion_lon": 0.0}, {"lat": 38.9257535, "is_disabled": 0, "type": "electric_scooter", "lon": -76.9861135, "bike_id": "705eef2553382b99ab2ba0fe52540aed", "fusion_lat": 0.0, "name": "705eef2553382b99ab2ba0fe52540aed", "is_reserved": 0, "rental_uris": {"android": "https://dc.lft.to/lastmile_qr_scan", "ios": "https://dc.lft.to/lastmile_qr_scan"}, "fusion_lon": 0.0}, {"lat": 38.8429075, "is_disabled": 0, "type": "electric_scooter", "lon": -76.99947633333333, "bike_id": "6d8a64421720c3e733f8f4f8ef432ab4", "fusion_lat": 0.0, "name": "6d8a64421720c3e733f8f4f8ef432ab4", "is_reserved": 0, "rental_uris": {"android": "https://dc.lft.to/lastmile_qr_scan", "ios": "https://dc.lft.to/lastmile_qr_scan"}, "fusion_lon": 0.0}, {"lat": 38.92371766666667, "is_disabled": 0, "type": "electric_scooter", "lon": -77.0292755, "bike_id": "e65d53c5ddbbd5c66c892c2cb70e243f", "fusion_lat": 0.0, "name": "e65d53c5ddbbd5c66c892c2cb70e243f", "is_reserved": 0, "rental_uris": {"android": "https://dc.lft.to/lastmile_qr_scan", "ios": "https://dc.lft.to/lastmile_qr_scan"}, "fusion_lon": 0.0}, {"lat": 38.901122666666666, "is_disabled": 0, "type": "electric_scooter", "lon": -77.0333845, "bike_id": "382543cc9a22fcd67f3aa374cbdf580e", "fusion_lat": 0.0, "name": "382543cc9a22fcd67f3aa374cbdf580e", "is_reserved": 0, "rental_uris": {"android": "https://dc.lft.to/lastmile_qr_scan", "ios": "https://dc.lft.to/lastmile_qr_scan"}, "fusion_lon": 0.0}, {"lat": 38.90252916666667, "is_disabled": 0, "type": "electric_scooter", "lon": -77.0535405, "bike_id": "518cb2b24f9b06b089d574174e30b031", "fusion_lat": 0.0, "name": "518cb2b24f9b06b089d574174e30b031", "is_reserved": 0, "rental_uris": {"android": "https://dc.lft.to/lastmile_qr_scan", "ios": "https://dc.lft.to/lastmile_qr_scan"}, "fusion_lon": 0.0}, {"lat": 38.877804, "is_disabled": 0, "type": "electric_scooter", "lon": -76.9950865, "bike_id": "1bc14a1c8a5821b39928e5f7b8d0444c", "fusion_lat": 0.0, "name": "1bc14a1c8a5821b39928e5f7b8d0444c", "is_reserved": 0, "rental_uris": {"android": "https://dc.lft.to/lastmile_qr_scan", "ios": "https://dc.lft.to/lastmile_qr_scan"}, "fusion_lon": 0.0}, {"lat": 38.920437, "is_disabled": 0, "type": "electric_scooter", "lon": -77.02372483333333, "bike_id": "5fe8e06929e5e068eb0d61ddfeabfe35", "fusion_lat": 0.0, "name": "5fe8e06929e5e068eb0d61ddfeabfe35", "is_reserved": 0, "rental_uris": {"android": "https://dc.lft.to/lastmile_qr_scan", "ios": "https://dc.lft.to/lastmile_qr_scan"}, "fusion_lon": 0.0}, {"lat": 38.86259116666667, "is_disabled": 0, "type": "electric_scooter", "lon": -76.99515433333333, "bike_id": "0324ea40e27602f77a4e7cd8ccc12115", "fusion_lat": 0.0, "name": "0324ea40e27602f77a4e7cd8ccc12115", "is_reserved": 0, "rental_uris": {"android": "https://dc.lft.to/lastmile_qr_scan", "ios": "https://dc.lft.to/lastmile_qr_scan"}, "fusion_lon": 0.0}, {"lat": 38.938598999999996, "is_disabled": 0, "type": "electric_scooter", "lon": -77.02324633333333, "bike_id": "f096e7143d26c062ae5d0602363ad9aa", "fusion_lat": 0.0, "name": "f096e7143d26c062ae5d0602363ad9aa", "is_reserved": 0, "rental_uris": {"android": "https://dc.lft.to/lastmile_qr_scan", "ios": "https://dc.lft.to/lastmile_qr_scan"}, "fusion_lon": 0.0}, {"lat": 38.9345975, "is_disabled": 0, "type": "electric_scooter", "lon": -77.02845316666667, "bike_id": "1a35f41f8d37cc4ba42c93e356b71952", "fusion_lat": 0.0, "name": "1a35f41f8d37cc4ba42c93e356b71952", "is_reserved": 0, "rental_uris": {"android": "https://dc.lft.to/lastmile_qr_scan", "ios": "https://dc.lft.to/lastmile_qr_scan"}, "fusion_lon": 0.0}, {"lat": 38.95404683333334, "is_disabled": 0, "type": "electric_scooter", "lon": -77.02749483333334, "bike_id": "43cb03b72817d3d6d0e4263e2ba3e3bf", "fusion_lat": 0.0, "name": "43cb03b72817d3d6d0e4263e2ba3e3bf", "is_reserved": 0, "rental_uris": {"android": "https://dc.lft.to/lastmile_qr_scan", "ios": "https://dc.lft.to/lastmile_qr_scan"}, "fusion_lon": 0.0}, {"lat": 38.93351466666667, "is_disabled": 0, "type": "electric_scooter", "lon": -77.02493283333334, "bike_id": "f57e192c5aeabf4b869e338260709391", "fusion_lat": 0.0, "name": "f57e192c5aeabf4b869e338260709391", "is_reserved": 0, "rental_uris": {"android": "https://dc.lft.to/lastmile_qr_scan", "ios": "https://dc.lft.to/lastmile_qr_scan"}, "fusion_lon": 0.0}, {"lat": 38.89239633333333, "is_disabled": 0, "type": "electric_scooter", "lon": -77.05032916666667, "bike_id": "71ed7b99dd4dc2ab4400d873fa4bdd45", "fusion_lat": 0.0, "name": "71ed7b99dd4dc2ab4400d873fa4bdd45", "is_reserved": 0, "rental_uris": {"android": "https://dc.lft.to/lastmile_qr_scan", "ios": "https://dc.lft.to/lastmile_qr_scan"}, "fusion_lon": 0.0}, {"lat": 38.80266666666667, "is_disabled": 0, "type": "electric_bike", "lon": -77.08113333333333, "bike_id": "7767002136107be396845be973c657f0", "fusion_lat": 0.0, "name": "7767002136107be396845be973c657f0", "is_reserved": 0, "rental_uris": {"android": "https://dc.lft.to/lastmile_qr_scan", "ios": "https://dc.lft.to/lastmile_qr_scan"}, "fusion_lon": 0.0}, {"lat": 38.92583033333333, "is_disabled": 0, "type": "electric_scooter", "lon": -77.0574375, "bike_id": "8f191fde6fd46aafe2746ab4b3cad122", "fusion_lat": 0.0, "name": "8f191fde6fd46aafe2746ab4b3cad122", "is_reserved": 0, "rental_uris": {"android": "https://dc.lft.to/lastmile_qr_scan", "ios": "https://dc.lft.to/lastmile_qr_scan"}, "fusion_lon": 0.0}, {"lat": 38.921417, "is_disabled": 0, "type": "electric_scooter", "lon": -77.0436585, "bike_id": "bc826b258fac899ad4e6501208b88095", "fusion_lat": 0.0, "name": "bc826b258fac899ad4e6501208b88095", "is_reserved": 0, "rental_uris": {"android": "https://dc.lft.to/lastmile_qr_scan", "ios": "https://dc.lft.to/lastmile_qr_scan"}, "fusion_lon": 0.0}, {"lat": 38.90334266666667, "is_disabled": 0, "type": "electric_scooter", "lon": -76.97593866666666, "bike_id": "6680d2c1752421e1d3176ae88561021e", "fusion_lat": 0.0, "name": "6680d2c1752421e1d3176ae88561021e", "is_reserved": 0, "rental_uris": {"android": "https://dc.lft.to/lastmile_qr_scan", "ios": "https://dc.lft.to/lastmile_qr_scan"}, "fusion_lon": 0.0}, {"lat": 38.903471833333334, "is_disabled": 0, "type": "electric_scooter", "lon": -77.025341, "bike_id": "370045d38e40f5c4fcb8aab0352e6b5a", "fusion_lat": 0.0, "name": "370045d38e40f5c4fcb8aab0352e6b5a", "is_reserved": 0, "rental_uris": {"android": "https://dc.lft.to/lastmile_qr_scan", "ios": "https://dc.lft.to/lastmile_qr_scan"}, "fusion_lon": 0.0}, {"lat": 38.89264683333333, "is_disabled": 0, "type": "electric_scooter", "lon": -76.94152516666666, "bike_id": "56315a01849e7b602761fd13feb1c998", "fusion_lat": 0.0, "name": "56315a01849e7b602761fd13feb1c998", "is_reserved": 0, "rental_uris": {"android": "https://dc.lft.to/lastmile_qr_scan", "ios": "https://dc.lft.to/lastmile_qr_scan"}, "fusion_lon": 0.0}, {"lat": 38.9319985, "is_disabled": 0, "type": "electric_scooter", "lon": -77.03747716666666, "bike_id": "fd571431337a9e3e44af477c1110826a", "fusion_lat": 0.0, "name": "fd571431337a9e3e44af477c1110826a", "is_reserved": 0, "rental_uris": {"android": "https://dc.lft.to/lastmile_qr_scan", "ios": "https://dc.lft.to/lastmile_qr_scan"}, "fusion_lon": 0.0}, {"lat": 38.93989116666667, "is_disabled": 0, "type": "electric_scooter", "lon": -77.07173566666667, "bike_id": "dd20efa70ec37a369dd1da06bcf2f6cc", "fusion_lat": 0.0, "name": "dd20efa70ec37a369dd1da06bcf2f6cc", "is_reserved": 0, "rental_uris": {"android": "https://dc.lft.to/lastmile_qr_scan", "ios": "https://dc.lft.to/lastmile_qr_scan"}, "fusion_lon": 0.0}, {"lat": 38.911318, "is_disabled": 0, "type": "electric_scooter", "lon": -77.04415016666667, "bike_id": "dacee6a073792252452559978e623390", "fusion_lat": 0.0, "name": "dacee6a073792252452559978e623390", "is_reserved": 0, "rental_uris": {"android": "https://dc.lft.to/lastmile_qr_scan", "ios": "https://dc.lft.to/lastmile_qr_scan"}, "fusion_lon": 0.0}, {"lat": 38.8741095, "is_disabled": 0, "type": "electric_scooter", "lon": -76.97307116666667, "bike_id": "71a147fe469694f100484fde80879c14", "fusion_lat": 0.0, "name": "71a147fe469694f100484fde80879c14", "is_reserved": 0, "rental_uris": {"android": "https://dc.lft.to/lastmile_qr_scan", "ios": "https://dc.lft.to/lastmile_qr_scan"}, "fusion_lon": 0.0}, {"lat": 38.80682683333333, "is_disabled": 0, "type": "electric_bike", "lon": -77.0812215, "bike_id": "2741e5a4ce6099f8c7a432dcf4df2df0", "fusion_lat": 0.0, "name": "2741e5a4ce6099f8c7a432dcf4df2df0", "is_reserved": 0, "rental_uris": {"android": "https://dc.lft.to/lastmile_qr_scan", "ios": "https://dc.lft.to/lastmile_qr_scan"}, "fusion_lon": 0.0}, {"lat": 38.897437833333335, "is_disabled": 0, "type": "electric_scooter", "lon": -77.0453585, "bike_id": "60496808f4100386f84c211f669b3a17", "fusion_lat": 0.0, "name": "60496808f4100386f84c211f669b3a17", "is_reserved": 0, "rental_uris": {"android": "https://dc.lft.to/lastmile_qr_scan", "ios": "https://dc.lft.to/lastmile_qr_scan"}, "fusion_lon": 0.0}, {"lat": 38.912747, "is_disabled": 0, "type": "electric_bike", "lon": -77.01225416666666, "bike_id": "df183cb7934b755ce017ce0145d134b0", "fusion_lat": 0.0, "name": "df183cb7934b755ce017ce0145d134b0", "is_reserved": 0, "rental_uris": {"android": "https://dc.lft.to/lastmile_qr_scan", "ios": "https://dc.lft.to/lastmile_qr_scan"}, "fusion_lon": 0.0}, {"lat": 38.899176, "is_disabled": 0, "type": "electric_scooter", "lon": -76.93337366666667, "bike_id": "8400d711572d9262e897088fb08bef6e", "fusion_lat": 0.0, "name": "8400d711572d9262e897088fb08bef6e", "is_reserved": 0, "rental_uris": {"android": "https://dc.lft.to/lastmile_qr_scan", "ios": "https://dc.lft.to/lastmile_qr_scan"}, "fusion_lon": 0.0}, {"lat": 38.86657066666667, "is_disabled": 0, "type": "electric_scooter", "lon": -76.98883366666666, "bike_id": "9a1d27d7f9438cea175118bf92983d10", "fusion_lat": 0.0, "name": "9a1d27d7f9438cea175118bf92983d10", "is_reserved": 0, "rental_uris": {"android": "https://dc.lft.to/lastmile_qr_scan", "ios": "https://dc.lft.to/lastmile_qr_scan"}, "fusion_lon": 0.0}, {"lat": 38.91782383333333, "is_disabled": 0, "type": "electric_scooter", "lon": -77.0433305, "bike_id": "f907d9c5af337b1d57246112f4d2336c", "fusion_lat": 0.0, "name": "f907d9c5af337b1d57246112f4d2336c", "is_reserved": 0, "rental_uris": {"android": "https://dc.lft.to/lastmile_qr_scan", "ios": "https://dc.lft.to/lastmile_qr_scan"}, "fusion_lon": 0.0}, {"lat": 38.906227, "is_disabled": 0, "type": "electric_scooter", "lon": -77.0340335, "bike_id": "45ff8a4524ddc0bc1760e1dfe111596c", "fusion_lat": 0.0, "name": "45ff8a4524ddc0bc1760e1dfe111596c", "is_reserved": 0, "rental_uris": {"android": "https://dc.lft.to/lastmile_qr_scan", "ios": "https://dc.lft.to/lastmile_qr_scan"}, "fusion_lon": 0.0}, {"lat": 38.91414433333333, "is_disabled": 0, "type": "electric_scooter", "lon": -77.02022783333334, "bike_id": "1627ecd3ca678d0e33b361b1f00ea108", "fusion_lat": 0.0, "name": "1627ecd3ca678d0e33b361b1f00ea108", "is_reserved": 0, "rental_uris": {"android": "https://dc.lft.to/lastmile_qr_scan", "ios": "https://dc.lft.to/lastmile_qr_scan"}, "fusion_lon": 0.0}, {"lat": 38.949031, "is_disabled": 0, "type": "electric_bike", "lon": -76.97237466666667, "bike_id": "a043ae6a9edf24794b4d8e80a7323374", "fusion_lat": 0.0, "name": "a043ae6a9edf24794b4d8e80a7323374", "is_reserved": 0, "rental_uris": {"android": "https://dc.lft.to/lastmile_qr_scan", "ios": "https://dc.lft.to/lastmile_qr_scan"}, "fusion_lon": 0.0}, {"lat": 38.907205166666664, "is_disabled": 0, "type": "electric_scooter", "lon": -77.00136616666667, "bike_id": "984329c8899f46eecc210ee85da69cb8", "fusion_lat": 0.0, "name": "984329c8899f46eecc210ee85da69cb8", "is_reserved": 0, "rental_uris": {"android": "https://dc.lft.to/lastmile_qr_scan", "ios": "https://dc.lft.to/lastmile_qr_scan"}, "fusion_lon": 0.0}, {"lat": 38.88334566666666, "is_disabled": 0, "type": "electric_scooter", "lon": -77.00932, "bike_id": "34d8ebfcb7473388f9d70eddbab4f5f5", "fusion_lat": 0.0, "name": "34d8ebfcb7473388f9d70eddbab4f5f5", "is_reserved": 0, "rental_uris": {"android": "https://dc.lft.to/lastmile_qr_scan", "ios": "https://dc.lft.to/lastmile_qr_scan"}, "fusion_lon": 0.0}, {"lat": 38.926853666666666, "is_disabled": 0, "type": "electric_scooter", "lon": -77.01568216666666, "bike_id": "1481afe9559e5e8ef7e86f81fd4d12b1", "fusion_lat": 0.0, "name": "1481afe9559e5e8ef7e86f81fd4d12b1", "is_reserved": 0, "rental_uris": {"android": "https://dc.lft.to/lastmile_qr_scan", "ios": "https://dc.lft.to/lastmile_qr_scan"}, "fusion_lon": 0.0}, {"lat": 38.92185966666667, "is_disabled": 0, "type": "electric_scooter", "lon": -77.04345666666667, "bike_id": "aa26c231690ea9fd5d4f776b09c0315a", "fusion_lat": 0.0, "name": "aa26c231690ea9fd5d4f776b09c0315a", "is_reserved": 0, "rental_uris": {"android": "https://dc.lft.to/lastmile_qr_scan", "ios": "https://dc.lft.to/lastmile_qr_scan"}, "fusion_lon": 0.0}, {"lat": 38.940939, "is_disabled": 0, "type": "electric_scooter", "lon": -77.06138466666667, "bike_id": "d8a0db9a4af5ba171fc727db09632a8f", "fusion_lat": 0.0, "name": "d8a0db9a4af5ba171fc727db09632a8f", "is_reserved": 0, "rental_uris": {"android": "https://dc.lft.to/lastmile_qr_scan", "ios": "https://dc.lft.to/lastmile_qr_scan"}, "fusion_lon": 0.0}, {"lat": 38.89804983333333, "is_disabled": 0, "type": "electric_scooter", "lon": -77.05016566666667, "bike_id": "73928354786cc5b1604c77d48ae986d1", "fusion_lat": 0.0, "name": "73928354786cc5b1604c77d48ae986d1", "is_reserved": 0, "rental_uris": {"android": "https://dc.lft.to/lastmile_qr_scan", "ios": "https://dc.lft.to/lastmile_qr_scan"}, "fusion_lon": 0.0}, {"lat": 38.939855666666666, "is_disabled": 0, "type": "electric_scooter", "lon": -77.02883866666667, "bike_id": "3ad9d1f7e5c9fbed2f6892093b0f74e0", "fusion_lat": 0.0, "name": "3ad9d1f7e5c9fbed2f6892093b0f74e0", "is_reserved": 0, "rental_uris": {"android": "https://dc.lft.to/lastmile_qr_scan", "ios": "https://dc.lft.to/lastmile_qr_scan"}, "fusion_lon": 0.0}, {"lat": 38.90861733333333, "is_disabled": 0, "type": "electric_scooter", "lon": -77.0038605, "bike_id": "ed8d096673813ce29ee04c8c51afc3d4", "fusion_lat": 0.0, "name": "ed8d096673813ce29ee04c8c51afc3d4", "is_reserved": 0, "rental_uris": {"android": "https://dc.lft.to/lastmile_qr_scan", "ios": "https://dc.lft.to/lastmile_qr_scan"}, "fusion_lon": 0.0}, {"lat": 38.9533045, "is_disabled": 0, "type": "electric_scooter", "lon": -77.02758333333334, "bike_id": "94a3d4bf32b47908c4e9369de813d287", "fusion_lat": 0.0, "name": "94a3d4bf32b47908c4e9369de813d287", "is_reserved": 0, "rental_uris": {"android": "https://dc.lft.to/lastmile_qr_scan", "ios": "https://dc.lft.to/lastmile_qr_scan"}, "fusion_lon": 0.0}, {"lat": 38.872952833333336, "is_disabled": 0, "type": "electric_scooter", "lon": -77.00927883333334, "bike_id": "b50d4c270a1d6f94037f8e7ff5f8f581", "fusion_lat": 0.0, "name": "b50d4c270a1d6f94037f8e7ff5f8f581", "is_reserved": 0, "rental_uris": {"android": "https://dc.lft.to/lastmile_qr_scan", "ios": "https://dc.lft.to/lastmile_qr_scan"}, "fusion_lon": 0.0}, {"lat": 38.935291166666666, "is_disabled": 0, "type": "electric_bike", "lon": -77.0569045, "bike_id": "375dac526025b491854d081d26f5878d", "fusion_lat": 0.0, "name": "375dac526025b491854d081d26f5878d", "is_reserved": 0, "rental_uris": {"android": "https://dc.lft.to/lastmile_qr_scan", "ios": "https://dc.lft.to/lastmile_qr_scan"}, "fusion_lon": 0.0}, {"lat": 38.90565216666667, "is_disabled": 0, "type": "electric_scooter", "lon": -77.0298605, "bike_id": "4efb188f482b3372d74aa62c8c58b7c0", "fusion_lat": 0.0, "name": "4efb188f482b3372d74aa62c8c58b7c0", "is_reserved": 0, "rental_uris": {"android": "https://dc.lft.to/lastmile_qr_scan", "ios": "https://dc.lft.to/lastmile_qr_scan"}, "fusion_lon": 0.0}, {"lat": 38.934301, "is_disabled": 0, "type": "electric_scooter", "lon": -77.03448183333333, "bike_id": "ffa236feba9472d7cb2798a29daeeee8", "fusion_lat": 0.0, "name": "ffa236feba9472d7cb2798a29daeeee8", "is_reserved": 0, "rental_uris": {"android": "https://dc.lft.to/lastmile_qr_scan", "ios": "https://dc.lft.to/lastmile_qr_scan"}, "fusion_lon": 0.0}, {"lat": 38.81226066666667, "is_disabled": 0, "type": "electric_bike", "lon": -77.10425316666667, "bike_id": "09d7a82d2e9a89e2c0cb161daf8e5b92", "fusion_lat": 0.0, "name": "09d7a82d2e9a89e2c0cb161daf8e5b92", "is_reserved": 0, "rental_uris": {"android": "https://dc.lft.to/lastmile_qr_scan", "ios": "https://dc.lft.to/lastmile_qr_scan"}, "fusion_lon": 0.0}, {"lat": 38.96021316666667, "is_disabled": 0, "type": "electric_bike", "lon": -77.0172305, "bike_id": "70d98ac5b1c4a7ff020a0c15ca56429d", "fusion_lat": 0.0, "name": "70d98ac5b1c4a7ff020a0c15ca56429d", "is_reserved": 0, "rental_uris": {"android": "https://dc.lft.to/lastmile_qr_scan", "ios": "https://dc.lft.to/lastmile_qr_scan"}, "fusion_lon": 0.0}, {"lat": 38.884691, "is_disabled": 0, "type": "electric_scooter", "lon": -76.99258483333334, "bike_id": "ed8d25dd5e107f69d281c7ffac230a23", "fusion_lat": 0.0, "name": "ed8d25dd5e107f69d281c7ffac230a23", "is_reserved": 0, "rental_uris": {"android": "https://dc.lft.to/lastmile_qr_scan", "ios": "https://dc.lft.to/lastmile_qr_scan"}, "fusion_lon": 0.0}, {"lat": 38.903177166666666, "is_disabled": 0, "type": "electric_scooter", "lon": -76.99362233333333, "bike_id": "c519c4371c63964c47105a6323405b18", "fusion_lat": 0.0, "name": "c519c4371c63964c47105a6323405b18", "is_reserved": 0, "rental_uris": {"android": "https://dc.lft.to/lastmile_qr_scan", "ios": "https://dc.lft.to/lastmile_qr_scan"}, "fusion_lon": 0.0}, {"lat": 39.02935133333333, "is_disabled": 0, "type": "electric_bike", "lon": -77.049271, "bike_id": "6a0a7d6c1002383e8042f94ae013016c", "fusion_lat": 0.0, "name": "6a0a7d6c1002383e8042f94ae013016c", "is_reserved": 0, "rental_uris": {"android": "https://dc.lft.to/lastmile_qr_scan", "ios": "https://dc.lft.to/lastmile_qr_scan"}, "fusion_lon": 0.0}, {"lat": 38.884907, "is_disabled": 0, "type": "electric_scooter", "lon": -77.007162, "bike_id": "2100cdc18347b1a717b07aee0985f4b7", "fusion_lat": 0.0, "name": "2100cdc18347b1a717b07aee0985f4b7", "is_reserved": 0, "rental_uris": {"android": "https://dc.lft.to/lastmile_qr_scan", "ios": "https://dc.lft.to/lastmile_qr_scan"}, "fusion_lon": 0.0}, {"lat": 38.9215025, "is_disabled": 0, "type": "electric_scooter", "lon": -77.03511833333333, "bike_id": "26a7eab6bbb6b88b3839b2e830f3aea8", "fusion_lat": 0.0, "name": "26a7eab6bbb6b88b3839b2e830f3aea8", "is_reserved": 0, "rental_uris": {"android": "https://dc.lft.to/lastmile_qr_scan", "ios": "https://dc.lft.to/lastmile_qr_scan"}, "fusion_lon": 0.0}, {"lat": 38.858068333333335, "is_disabled": 0, "type": "electric_scooter", "lon": -76.98653533333334, "bike_id": "b0600fe02320c6ecade12216f186d38c", "fusion_lat": 0.0, "name": "b0600fe02320c6ecade12216f186d38c", "is_reserved": 0, "rental_uris": {"android": "https://dc.lft.to/lastmile_qr_scan", "ios": "https://dc.lft.to/lastmile_qr_scan"}, "fusion_lon": 0.0}, {"lat": 38.91033, "is_disabled": 0, "type": "electric_scooter", "lon": -77.04877233333333, "bike_id": "66882a892d86435e843b93c08e536a7e", "fusion_lat": 0.0, "name": "66882a892d86435e843b93c08e536a7e", "is_reserved": 0, "rental_uris": {"android": "https://dc.lft.to/lastmile_qr_scan", "ios": "https://dc.lft.to/lastmile_qr_scan"}, "fusion_lon": 0.0}, {"lat": 38.966123, "is_disabled": 0, "type": "electric_scooter", "lon": -77.0205155, "bike_id": "cb1135bb66ce304d6095761797d39d2c", "fusion_lat": 0.0, "name": "cb1135bb66ce304d6095761797d39d2c", "is_reserved": 0, "rental_uris": {"android": "https://dc.lft.to/lastmile_qr_scan", "ios": "https://dc.lft.to/lastmile_qr_scan"}, "fusion_lon": 0.0}, {"lat": 38.91569583333333, "is_disabled": 0, "type": "electric_scooter", "lon": -77.03854683333333, "bike_id": "a334df3d613c2b1ad25aed03f12757d7", "fusion_lat": 0.0, "name": "a334df3d613c2b1ad25aed03f12757d7", "is_reserved": 0, "rental_uris": {"android": "https://dc.lft.to/lastmile_qr_scan", "ios": "https://dc.lft.to/lastmile_qr_scan"}, "fusion_lon": 0.0}, {"lat": 38.95886683333333, "is_disabled": 0, "type": "electric_bike", "lon": -76.92491716666666, "bike_id": "24f528f1994acd76d1e1ff572f20f3ad", "fusion_lat": 0.0, "name": "24f528f1994acd76d1e1ff572f20f3ad", "is_reserved": 0, "rental_uris": {"android": "https://dc.lft.to/lastmile_qr_scan", "ios": "https://dc.lft.to/lastmile_qr_scan"}, "fusion_lon": 0.0}, {"lat": 38.906288833333335, "is_disabled": 0, "type": "electric_scooter", "lon": -77.06276166666666, "bike_id": "7445988e5c884deef9a6187b8c7f885c", "fusion_lat": 0.0, "name": "7445988e5c884deef9a6187b8c7f885c", "is_reserved": 0, "rental_uris": {"android": "https://dc.lft.to/lastmile_qr_scan", "ios": "https://dc.lft.to/lastmile_qr_scan"}, "fusion_lon": 0.0}, {"lat": 38.918818, "is_disabled": 0, "type": "electric_scooter", "lon": -77.04451866666666, "bike_id": "6ff98ed4281e7f1beb07e832b8461a39", "fusion_lat": 0.0, "name": "6ff98ed4281e7f1beb07e832b8461a39", "is_reserved": 0, "rental_uris": {"android": "https://dc.lft.to/lastmile_qr_scan", "ios": "https://dc.lft.to/lastmile_qr_scan"}, "fusion_lon": 0.0}, {"lat": 38.932554333333336, "is_disabled": 0, "type": "electric_scooter", "lon": -77.03262416666666, "bike_id": "d43f01601bc4bea4b41dbbece52a9ce1", "fusion_lat": 0.0, "name": "d43f01601bc4bea4b41dbbece52a9ce1", "is_reserved": 0, "rental_uris": {"android": "https://dc.lft.to/lastmile_qr_scan", "ios": "https://dc.lft.to/lastmile_qr_scan"}, "fusion_lon": 0.0}, {"lat": 38.917831666666665, "is_disabled": 0, "type": "electric_scooter", "lon": -77.02357683333334, "bike_id": "05d63b496f2607d6b4235629db5322a4", "fusion_lat": 0.0, "name": "05d63b496f2607d6b4235629db5322a4", "is_reserved": 0, "rental_uris": {"android": "https://dc.lft.to/lastmile_qr_scan", "ios": "https://dc.lft.to/lastmile_qr_scan"}, "fusion_lon": 0.0}, {"lat": 38.91681416666667, "is_disabled": 0, "type": "electric_scooter", "lon": -77.00204033333333, "bike_id": "a70bf87f75e356e9f0e339997ffab622", "fusion_lat": 0.0, "name": "a70bf87f75e356e9f0e339997ffab622", "is_reserved": 0, "rental_uris": {"android": "https://dc.lft.to/lastmile_qr_scan", "ios": "https://dc.lft.to/lastmile_qr_scan"}, "fusion_lon": 0.0}, {"lat": 38.8836395, "is_disabled": 0, "type": "electric_scooter", "lon": -76.941552, "bike_id": "db4d51a136e9cbcc8d6b5bbf3920229d", "fusion_lat": 0.0, "name": "db4d51a136e9cbcc8d6b5bbf3920229d", "is_reserved": 0, "rental_uris": {"android": "https://dc.lft.to/lastmile_qr_scan", "ios": "https://dc.lft.to/lastmile_qr_scan"}, "fusion_lon": 0.0}, {"lat": 38.988277, "is_disabled": 0, "type": "electric_bike", "lon": -76.9964555, "bike_id": "e1dba670fd8232a20652505d95368eb5", "fusion_lat": 0.0, "name": "e1dba670fd8232a20652505d95368eb5", "is_reserved": 0, "rental_uris": {"android": "https://dc.lft.to/lastmile_qr_scan", "ios": "https://dc.lft.to/lastmile_qr_scan"}, "fusion_lon": 0.0}, {"lat": 38.9176375, "is_disabled": 0, "type": "electric_scooter", "lon": -76.97631083333333, "bike_id": "3faffa8d26e908274ef760efb5b923ab", "fusion_lat": 0.0, "name": "3faffa8d26e908274ef760efb5b923ab", "is_reserved": 0, "rental_uris": {"android": "https://dc.lft.to/lastmile_qr_scan", "ios": "https://dc.lft.to/lastmile_qr_scan"}, "fusion_lon": 0.0}, {"lat": 38.90775216666667, "is_disabled": 0, "type": "electric_scooter", "lon": -77.0010955, "bike_id": "cc4ed7a26cc32ec43f6fc9ecc6fac968", "fusion_lat": 0.0, "name": "cc4ed7a26cc32ec43f6fc9ecc6fac968", "is_reserved": 0, "rental_uris": {"android": "https://dc.lft.to/lastmile_qr_scan", "ios": "https://dc.lft.to/lastmile_qr_scan"}, "fusion_lon": 0.0}, {"lat": 38.941183333333335, "is_disabled": 0, "type": "electric_scooter", "lon": -77.00072066666667, "bike_id": "385fb0fda2ea0e3dab2ed3f7faa71e64", "fusion_lat": 0.0, "name": "385fb0fda2ea0e3dab2ed3f7faa71e64", "is_reserved": 0, "rental_uris": {"android": "https://dc.lft.to/lastmile_qr_scan", "ios": "https://dc.lft.to/lastmile_qr_scan"}, "fusion_lon": 0.0}, {"lat": 38.93227233333333, "is_disabled": 0, "type": "electric_scooter", "lon": -77.027317, "bike_id": "43c0f6e6edbba51b85b284764ecc3831", "fusion_lat": 0.0, "name": "43c0f6e6edbba51b85b284764ecc3831", "is_reserved": 0, "rental_uris": {"android": "https://dc.lft.to/lastmile_qr_scan", "ios": "https://dc.lft.to/lastmile_qr_scan"}, "fusion_lon": 0.0}, {"lat": 38.896288166666665, "is_disabled": 0, "type": "electric_scooter", "lon": -77.04496083333333, "bike_id": "1d9b6c4d5c31f4a3e969ec70d4768ca3", "fusion_lat": 0.0, "name": "1d9b6c4d5c31f4a3e969ec70d4768ca3", "is_reserved": 0, "rental_uris": {"android": "https://dc.lft.to/lastmile_qr_scan", "ios": "https://dc.lft.to/lastmile_qr_scan"}, "fusion_lon": 0.0}, {"lat": 38.92867533333333, "is_disabled": 0, "type": "electric_scooter", "lon": -77.03413666666667, "bike_id": "4678856642ad9c8fcddb79e440423fbd", "fusion_lat": 0.0, "name": "4678856642ad9c8fcddb79e440423fbd", "is_reserved": 0, "rental_uris": {"android": "https://dc.lft.to/lastmile_qr_scan", "ios": "https://dc.lft.to/lastmile_qr_scan"}, "fusion_lon": 0.0}, {"lat": 38.908622, "is_disabled": 0, "type": "electric_scooter", "lon": -77.0293565, "bike_id": "2c27055139ce6c09ac62df9a725944d4", "fusion_lat": 0.0, "name": "2c27055139ce6c09ac62df9a725944d4", "is_reserved": 0, "rental_uris": {"android": "https://dc.lft.to/lastmile_qr_scan", "ios": "https://dc.lft.to/lastmile_qr_scan"}, "fusion_lon": 0.0}, {"lat": 38.865072, "is_disabled": 0, "type": "electric_scooter", "lon": -76.99004033333334, "bike_id": "59ba21d9e9e3a98ec1a810127992d695", "fusion_lat": 0.0, "name": "59ba21d9e9e3a98ec1a810127992d695", "is_reserved": 0, "rental_uris": {"android": "https://dc.lft.to/lastmile_qr_scan", "ios": "https://dc.lft.to/lastmile_qr_scan"}, "fusion_lon": 0.0}, {"lat": 38.91425683333333, "is_disabled": 0, "type": "electric_scooter", "lon": -77.032085, "bike_id": "572b6a69738e2ebe1adc4dcbd358b7c1", "fusion_lat": 0.0, "name": "572b6a69738e2ebe1adc4dcbd358b7c1", "is_reserved": 0, "rental_uris": {"android": "https://dc.lft.to/lastmile_qr_scan", "ios": "https://dc.lft.to/lastmile_qr_scan"}, "fusion_lon": 0.0}, {"lat": 38.900893333333336, "is_disabled": 0, "type": "electric_scooter", "lon": -77.0559985, "bike_id": "f706867496baa5b64dc812bc341d6c83", "fusion_lat": 0.0, "name": "f706867496baa5b64dc812bc341d6c83", "is_reserved": 0, "rental_uris": {"android": "https://dc.lft.to/lastmile_qr_scan", "ios": "https://dc.lft.to/lastmile_qr_scan"}, "fusion_lon": 0.0}, {"lat": 38.900338, "is_disabled": 0, "type": "electric_scooter", "lon": -77.033188, "bike_id": "3a5629b1e9c7b067b9764a79ad34a8ef", "fusion_lat": 0.0, "name": "3a5629b1e9c7b067b9764a79ad34a8ef", "is_reserved": 0, "rental_uris": {"android": "https://dc.lft.to/lastmile_qr_scan", "ios": "https://dc.lft.to/lastmile_qr_scan"}, "fusion_lon": 0.0}, {"lat": 38.889739666666664, "is_disabled": 0, "type": "electric_scooter", "lon": -76.93742416666667, "bike_id": "c796b9012326fd846a0f7217fe7a45a7", "fusion_lat": 0.0, "name": "c796b9012326fd846a0f7217fe7a45a7", "is_reserved": 0, "rental_uris": {"android": "https://dc.lft.to/lastmile_qr_scan", "ios": "https://dc.lft.to/lastmile_qr_scan"}, "fusion_lon": 0.0}, {"lat": 38.8997455, "is_disabled": 0, "type": "electric_scooter", "lon": -77.01903333333334, "bike_id": "e24a3c621bc03d1a784c347e0da99314", "fusion_lat": 0.0, "name": "e24a3c621bc03d1a784c347e0da99314", "is_reserved": 0, "rental_uris": {"android": "https://dc.lft.to/lastmile_qr_scan", "ios": "https://dc.lft.to/lastmile_qr_scan"}, "fusion_lon": 0.0}, {"lat": 38.91704566666667, "is_disabled": 0, "type": "electric_scooter", "lon": -77.03218283333334, "bike_id": "8aefa1f0038a6038b9c95b1b2aabeda0", "fusion_lat": 0.0, "name": "8aefa1f0038a6038b9c95b1b2aabeda0", "is_reserved": 0, "rental_uris": {"android": "https://dc.lft.to/lastmile_qr_scan", "ios": "https://dc.lft.to/lastmile_qr_scan"}, "fusion_lon": 0.0}, {"lat": 38.927629, "is_disabled": 0, "type": "electric_bike", "lon": -77.0688225, "bike_id": "cd58b1f2b2533a266c4d76f1893d5402", "fusion_lat": 0.0, "name": "cd58b1f2b2533a266c4d76f1893d5402", "is_reserved": 0, "rental_uris": {"android": "https://dc.lft.to/lastmile_qr_scan", "ios": "https://dc.lft.to/lastmile_qr_scan"}, "fusion_lon": 0.0}, {"lat": 38.94512133333333, "is_disabled": 0, "type": "electric_scooter", "lon": -77.021746, "bike_id": "4bf815cd0ae36465e2a6d33169df08a2", "fusion_lat": 0.0, "name": "4bf815cd0ae36465e2a6d33169df08a2", "is_reserved": 0, "rental_uris": {"android": "https://dc.lft.to/lastmile_qr_scan", "ios": "https://dc.lft.to/lastmile_qr_scan"}, "fusion_lon": 0.0}, {"lat": 38.89224166666666, "is_disabled": 0, "type": "electric_scooter", "lon": -76.932991, "bike_id": "52a78c1d56683073b9857dc66e95e01e", "fusion_lat": 0.0, "name": "52a78c1d56683073b9857dc66e95e01e", "is_reserved": 0, "rental_uris": {"android": "https://dc.lft.to/lastmile_qr_scan", "ios": "https://dc.lft.to/lastmile_qr_scan"}, "fusion_lon": 0.0}, {"lat": 38.90402433333333, "is_disabled": 0, "type": "electric_scooter", "lon": -77.02499816666666, "bike_id": "e26d54b15be6bb1228b2293d700181eb", "fusion_lat": 0.0, "name": "e26d54b15be6bb1228b2293d700181eb", "is_reserved": 0, "rental_uris": {"android": "https://dc.lft.to/lastmile_qr_scan", "ios": "https://dc.lft.to/lastmile_qr_scan"}, "fusion_lon": 0.0}, {"lat": 38.954922, "is_disabled": 0, "type": "electric_scooter", "lon": -77.06561166666667, "bike_id": "2296849b4c2d2f2fc1eeff2cce0e7dea", "fusion_lat": 0.0, "name": "2296849b4c2d2f2fc1eeff2cce0e7dea", "is_reserved": 0, "rental_uris": {"android": "https://dc.lft.to/lastmile_qr_scan", "ios": "https://dc.lft.to/lastmile_qr_scan"}, "fusion_lon": 0.0}, {"lat": 38.9119855, "is_disabled": 0, "type": "electric_scooter", "lon": -77.0146315, "bike_id": "65f3e01cb7361718876d3f3fd6fb123e", "fusion_lat": 0.0, "name": "65f3e01cb7361718876d3f3fd6fb123e", "is_reserved": 0, "rental_uris": {"android": "https://dc.lft.to/lastmile_qr_scan", "ios": "https://dc.lft.to/lastmile_qr_scan"}, "fusion_lon": 0.0}, {"lat": 38.95263533333333, "is_disabled": 0, "type": "electric_scooter", "lon": -77.06976366666666, "bike_id": "4c313ec5521ee82b39114bd5f91decf2", "fusion_lat": 0.0, "name": "4c313ec5521ee82b39114bd5f91decf2", "is_reserved": 0, "rental_uris": {"android": "https://dc.lft.to/lastmile_qr_scan", "ios": "https://dc.lft.to/lastmile_qr_scan"}, "fusion_lon": 0.0}, {"lat": 38.9067725, "is_disabled": 0, "type": "electric_scooter", "lon": -77.036405, "bike_id": "77f2d2f28ad633ea7370a56531303bff", "fusion_lat": 0.0, "name": "77f2d2f28ad633ea7370a56531303bff", "is_reserved": 0, "rental_uris": {"android": "https://dc.lft.to/lastmile_qr_scan", "ios": "https://dc.lft.to/lastmile_qr_scan"}, "fusion_lon": 0.0}, {"lat": 38.91683583333333, "is_disabled": 0, "type": "electric_scooter", "lon": -77.02959133333333, "bike_id": "bad0f0b1eb84f56742c544e30a525dde", "fusion_lat": 0.0, "name": "bad0f0b1eb84f56742c544e30a525dde", "is_reserved": 0, "rental_uris": {"android": "https://dc.lft.to/lastmile_qr_scan", "ios": "https://dc.lft.to/lastmile_qr_scan"}, "fusion_lon": 0.0}, {"lat": 38.916181333333334, "is_disabled": 0, "type": "electric_scooter", "lon": -77.03645183333333, "bike_id": "aeef71259652b3c19fc557f348ea42c3", "fusion_lat": 0.0, "name": "aeef71259652b3c19fc557f348ea42c3", "is_reserved": 0, "rental_uris": {"android": "https://dc.lft.to/lastmile_qr_scan", "ios": "https://dc.lft.to/lastmile_qr_scan"}, "fusion_lon": 0.0}, {"lat": 38.923817166666666, "is_disabled": 0, "type": "electric_scooter", "lon": -77.05751566666666, "bike_id": "f01f1a08e0882b144dcc74f578d95790", "fusion_lat": 0.0, "name": "f01f1a08e0882b144dcc74f578d95790", "is_reserved": 0, "rental_uris": {"android": "https://dc.lft.to/lastmile_qr_scan", "ios": "https://dc.lft.to/lastmile_qr_scan"}, "fusion_lon": 0.0}, {"lat": 38.91564916666667, "is_disabled": 0, "type": "electric_scooter", "lon": -77.03848866666667, "bike_id": "733b67ed7bf2a084f5b72b532adc7c08", "fusion_lat": 0.0, "name": "733b67ed7bf2a084f5b72b532adc7c08", "is_reserved": 0, "rental_uris": {"android": "https://dc.lft.to/lastmile_qr_scan", "ios": "https://dc.lft.to/lastmile_qr_scan"}, "fusion_lon": 0.0}, {"lat": 38.89966166666667, "is_disabled": 0, "type": "electric_bike", "lon": -77.02103966666667, "bike_id": "57b4db92e644ba7927c86d908d9a9677", "fusion_lat": 0.0, "name": "57b4db92e644ba7927c86d908d9a9677", "is_reserved": 0, "rental_uris": {"android": "https://dc.lft.to/lastmile_qr_scan", "ios": "https://dc.lft.to/lastmile_qr_scan"}, "fusion_lon": 0.0}, {"lat": 38.92060083333333, "is_disabled": 0, "type": "electric_scooter", "lon": -77.04373, "bike_id": "d5482c7ce8582d5d093f2cbc27dd6ede", "fusion_lat": 0.0, "name": "d5482c7ce8582d5d093f2cbc27dd6ede", "is_reserved": 0, "rental_uris": {"android": "https://dc.lft.to/lastmile_qr_scan", "ios": "https://dc.lft.to/lastmile_qr_scan"}, "fusion_lon": 0.0}, {"lat": 38.93872266666666, "is_disabled": 0, "type": "electric_scooter", "lon": -77.031251, "bike_id": "9517a7825f66dd3f4faf6e17a19d5bd6", "fusion_lat": 0.0, "name": "9517a7825f66dd3f4faf6e17a19d5bd6", "is_reserved": 0, "rental_uris": {"android": "https://dc.lft.to/lastmile_qr_scan", "ios": "https://dc.lft.to/lastmile_qr_scan"}, "fusion_lon": 0.0}, {"lat": 38.92311183333333, "is_disabled": 0, "type": "electric_bike", "lon": -77.0352455, "bike_id": "2f3d0c50a00209ca4e05c8b36c9a0999", "fusion_lat": 0.0, "name": "2f3d0c50a00209ca4e05c8b36c9a0999", "is_reserved": 0, "rental_uris": {"android": "https://dc.lft.to/lastmile_qr_scan", "ios": "https://dc.lft.to/lastmile_qr_scan"}, "fusion_lon": 0.0}, {"lat": 38.89770933333333, "is_disabled": 0, "type": "electric_scooter", "lon": -77.00916283333333, "bike_id": "265fc59894e836728e28778258fbea71", "fusion_lat": 0.0, "name": "265fc59894e836728e28778258fbea71", "is_reserved": 0, "rental_uris": {"android": "https://dc.lft.to/lastmile_qr_scan", "ios": "https://dc.lft.to/lastmile_qr_scan"}, "fusion_lon": 0.0}, {"lat": 38.919255666666665, "is_disabled": 0, "type": "electric_scooter", "lon": -77.02481183333333, "bike_id": "dfee2f6e5647c7fcec14286307681a44", "fusion_lat": 0.0, "name": "dfee2f6e5647c7fcec14286307681a44", "is_reserved": 0, "rental_uris": {"android": "https://dc.lft.to/lastmile_qr_scan", "ios": "https://dc.lft.to/lastmile_qr_scan"}, "fusion_lon": 0.0}, {"lat": 38.8876225, "is_disabled": 0, "type": "electric_scooter", "lon": -76.95596116666667, "bike_id": "7e4e24f6ecaffb9a5f073df72ae0caeb", "fusion_lat": 0.0, "name": "7e4e24f6ecaffb9a5f073df72ae0caeb", "is_reserved": 0, "rental_uris": {"android": "https://dc.lft.to/lastmile_qr_scan", "ios": "https://dc.lft.to/lastmile_qr_scan"}, "fusion_lon": 0.0}, {"lat": 38.936486333333335, "is_disabled": 0, "type": "electric_scooter", "lon": -77.03691183333333, "bike_id": "23495fb57276c030bd94d37e7ea883ec", "fusion_lat": 0.0, "name": "23495fb57276c030bd94d37e7ea883ec", "is_reserved": 0, "rental_uris": {"android": "https://dc.lft.to/lastmile_qr_scan", "ios": "https://dc.lft.to/lastmile_qr_scan"}, "fusion_lon": 0.0}, {"lat": 38.9529375, "is_disabled": 0, "type": "electric_scooter", "lon": -77.08157866666667, "bike_id": "cdef2fc16f462b0e6ccec062ca0dedd2", "fusion_lat": 0.0, "name": "cdef2fc16f462b0e6ccec062ca0dedd2", "is_reserved": 0, "rental_uris": {"android": "https://dc.lft.to/lastmile_qr_scan", "ios": "https://dc.lft.to/lastmile_qr_scan"}, "fusion_lon": 0.0}, {"lat": 38.866623, "is_disabled": 0, "type": "electric_scooter", "lon": -76.98881566666667, "bike_id": "d304159da724f40c14b374876a100e5d", "fusion_lat": 0.0, "name": "d304159da724f40c14b374876a100e5d", "is_reserved": 0, "rental_uris": {"android": "https://dc.lft.to/lastmile_qr_scan", "ios": "https://dc.lft.to/lastmile_qr_scan"}, "fusion_lon": 0.0}, {"lat": 38.85194666666666, "is_disabled": 0, "type": "electric_bike", "lon": -76.9610895, "bike_id": "1fe114dd8d7dd0243088f84d3a823174", "fusion_lat": 0.0, "name": "1fe114dd8d7dd0243088f84d3a823174", "is_reserved": 0, "rental_uris": {"android": "https://dc.lft.to/lastmile_qr_scan", "ios": "https://dc.lft.to/lastmile_qr_scan"}, "fusion_lon": 0.0}, {"lat": 38.9010685, "is_disabled": 0, "type": "electric_scooter", "lon": -77.02517866666666, "bike_id": "37d40accc2801658071d970478cc3ffe", "fusion_lat": 0.0, "name": "37d40accc2801658071d970478cc3ffe", "is_reserved": 0, "rental_uris": {"android": "https://dc.lft.to/lastmile_qr_scan", "ios": "https://dc.lft.to/lastmile_qr_scan"}, "fusion_lon": 0.0}, {"lat": 38.9439385, "is_disabled": 0, "type": "electric_scooter", "lon": -77.01985, "bike_id": "b12208f64184acc0e7fbf2600cd8b8c7", "fusion_lat": 0.0, "name": "b12208f64184acc0e7fbf2600cd8b8c7", "is_reserved": 0, "rental_uris": {"android": "https://dc.lft.to/lastmile_qr_scan", "ios": "https://dc.lft.to/lastmile_qr_scan"}, "fusion_lon": 0.0}, {"lat": 38.92837566666667, "is_disabled": 0, "type": "electric_scooter", "lon": -77.01386433333333, "bike_id": "95a729559b7cba5ee0fe8e707a8e6428", "fusion_lat": 0.0, "name": "95a729559b7cba5ee0fe8e707a8e6428", "is_reserved": 0, "rental_uris": {"android": "https://dc.lft.to/lastmile_qr_scan", "ios": "https://dc.lft.to/lastmile_qr_scan"}, "fusion_lon": 0.0}, {"lat": 38.9900255, "is_disabled": 0, "type": "electric_bike", "lon": -77.00438516666667, "bike_id": "fcae8414aeeb4b312d6a2ff2aa8b1906", "fusion_lat": 0.0, "name": "fcae8414aeeb4b312d6a2ff2aa8b1906", "is_reserved": 0, "rental_uris": {"android": "https://dc.lft.to/lastmile_qr_scan", "ios": "https://dc.lft.to/lastmile_qr_scan"}, "fusion_lon": 0.0}, {"lat": 38.855085833333334, "is_disabled": 0, "type": "electric_bike", "lon": -77.120442, "bike_id": "b1431bbbf1850ef30a81e03048743723", "fusion_lat": 0.0, "name": "b1431bbbf1850ef30a81e03048743723", "is_reserved": 0, "rental_uris": {"android": "https://dc.lft.to/lastmile_qr_scan", "ios": "https://dc.lft.to/lastmile_qr_scan"}, "fusion_lon": 0.0}, {"lat": 38.918906, "is_disabled": 0, "type": "electric_scooter", "lon": -77.03483283333334, "bike_id": "635b0217aac07efa178a84fd940bd56d", "fusion_lat": 0.0, "name": "635b0217aac07efa178a84fd940bd56d", "is_reserved": 0, "rental_uris": {"android": "https://dc.lft.to/lastmile_qr_scan", "ios": "https://dc.lft.to/lastmile_qr_scan"}, "fusion_lon": 0.0}, {"lat": 38.923467, "is_disabled": 0, "type": "electric_scooter", "lon": -77.03394366666667, "bike_id": "b62a6af3fd45364f5c74932eb1925d3e", "fusion_lat": 0.0, "name": "b62a6af3fd45364f5c74932eb1925d3e", "is_reserved": 0, "rental_uris": {"android": "https://dc.lft.to/lastmile_qr_scan", "ios": "https://dc.lft.to/lastmile_qr_scan"}, "fusion_lon": 0.0}, {"lat": 38.94436733333333, "is_disabled": 0, "type": "electric_scooter", "lon": -77.01504733333333, "bike_id": "f91a229c987f1fc02d52cb1f04b4ffcf", "fusion_lat": 0.0, "name": "f91a229c987f1fc02d52cb1f04b4ffcf", "is_reserved": 0, "rental_uris": {"android": "https://dc.lft.to/lastmile_qr_scan", "ios": "https://dc.lft.to/lastmile_qr_scan"}, "fusion_lon": 0.0}, {"lat": 38.911084333333335, "is_disabled": 0, "type": "electric_scooter", "lon": -77.038296, "bike_id": "fe5e43a1020faf6808681da79c7996c6", "fusion_lat": 0.0, "name": "fe5e43a1020faf6808681da79c7996c6", "is_reserved": 0, "rental_uris": {"android": "https://dc.lft.to/lastmile_qr_scan", "ios": "https://dc.lft.to/lastmile_qr_scan"}, "fusion_lon": 0.0}, {"lat": 38.91341666666667, "is_disabled": 0, "type": "electric_scooter", "lon": -77.00221333333333, "bike_id": "083a6aba7a87a0a1f2d6db641db3976c", "fusion_lat": 0.0, "name": "083a6aba7a87a0a1f2d6db641db3976c", "is_reserved": 0, "rental_uris": {"android": "https://dc.lft.to/lastmile_qr_scan", "ios": "https://dc.lft.to/lastmile_qr_scan"}, "fusion_lon": 0.0}, {"lat": 38.923413, "is_disabled": 0, "type": "electric_scooter", "lon": -77.019078, "bike_id": "e4aee85be75dae292c88f18eee4032fd", "fusion_lat": 0.0, "name": "e4aee85be75dae292c88f18eee4032fd", "is_reserved": 0, "rental_uris": {"android": "https://dc.lft.to/lastmile_qr_scan", "ios": "https://dc.lft.to/lastmile_qr_scan"}, "fusion_lon": 0.0}, {"lat": 38.917403166666666, "is_disabled": 0, "type": "electric_scooter", "lon": -77.068987, "bike_id": "fc11d0f44ccebec8d58a23d786e5c449", "fusion_lat": 0.0, "name": "fc11d0f44ccebec8d58a23d786e5c449", "is_reserved": 0, "rental_uris": {"android": "https://dc.lft.to/lastmile_qr_scan", "ios": "https://dc.lft.to/lastmile_qr_scan"}, "fusion_lon": 0.0}, {"lat": 38.87902716666667, "is_disabled": 0, "type": "electric_scooter", "lon": -77.00711083333333, "bike_id": "9ff1637e77d1feeb4fa4b011b371602b", "fusion_lat": 0.0, "name": "9ff1637e77d1feeb4fa4b011b371602b", "is_reserved": 0, "rental_uris": {"android": "https://dc.lft.to/lastmile_qr_scan", "ios": "https://dc.lft.to/lastmile_qr_scan"}, "fusion_lon": 0.0}, {"lat": 38.912234, "is_disabled": 0, "type": "electric_scooter", "lon": -77.0448205, "bike_id": "7f1225bcc74304a91cab8f42b2cdb62b", "fusion_lat": 0.0, "name": "7f1225bcc74304a91cab8f42b2cdb62b", "is_reserved": 0, "rental_uris": {"android": "https://dc.lft.to/lastmile_qr_scan", "ios": "https://dc.lft.to/lastmile_qr_scan"}, "fusion_lon": 0.0}, {"lat": 38.92247883333334, "is_disabled": 0, "type": "electric_scooter", "lon": -77.04250416666666, "bike_id": "2914df03ebaba7b8438b9e8383c57a41", "fusion_lat": 0.0, "name": "2914df03ebaba7b8438b9e8383c57a41", "is_reserved": 0, "rental_uris": {"android": "https://dc.lft.to/lastmile_qr_scan", "ios": "https://dc.lft.to/lastmile_qr_scan"}, "fusion_lon": 0.0}, {"lat": 38.918075, "is_disabled": 0, "type": "electric_scooter", "lon": -77.03435266666666, "bike_id": "e103c12add690edec8a75ae3546777c2", "fusion_lat": 0.0, "name": "e103c12add690edec8a75ae3546777c2", "is_reserved": 0, "rental_uris": {"android": "https://dc.lft.to/lastmile_qr_scan", "ios": "https://dc.lft.to/lastmile_qr_scan"}, "fusion_lon": 0.0}, {"lat": 38.85808766666667, "is_disabled": 0, "type": "electric_scooter", "lon": -76.98724916666667, "bike_id": "58da4151b713e6bc76f545babfa46f90", "fusion_lat": 0.0, "name": "58da4151b713e6bc76f545babfa46f90", "is_reserved": 0, "rental_uris": {"android": "https://dc.lft.to/lastmile_qr_scan", "ios": "https://dc.lft.to/lastmile_qr_scan"}, "fusion_lon": 0.0}, {"lat": 38.883373666666664, "is_disabled": 0, "type": "electric_scooter", "lon": -77.03147083333333, "bike_id": "4840492b4511b8e92befd9d1c0eded36", "fusion_lat": 0.0, "name": "4840492b4511b8e92befd9d1c0eded36", "is_reserved": 0, "rental_uris": {"android": "https://dc.lft.to/lastmile_qr_scan", "ios": "https://dc.lft.to/lastmile_qr_scan"}, "fusion_lon": 0.0}, {"lat": 38.8611825, "is_disabled": 0, "type": "electric_scooter", "lon": -76.96746949999999, "bike_id": "7e7d1a251b39c3484e0423af893d7edb", "fusion_lat": 0.0, "name": "7e7d1a251b39c3484e0423af893d7edb", "is_reserved": 0, "rental_uris": {"android": "https://dc.lft.to/lastmile_qr_scan", "ios": "https://dc.lft.to/lastmile_qr_scan"}, "fusion_lon": 0.0}, {"lat": 38.92389633333333, "is_disabled": 0, "type": "electric_scooter", "lon": -77.00065133333334, "bike_id": "547088cba503d07f88995616189afa5a", "fusion_lat": 0.0, "name": "547088cba503d07f88995616189afa5a", "is_reserved": 0, "rental_uris": {"android": "https://dc.lft.to/lastmile_qr_scan", "ios": "https://dc.lft.to/lastmile_qr_scan"}, "fusion_lon": 0.0}, {"lat": 38.898869, "is_disabled": 0, "type": "electric_scooter", "lon": -77.021778, "bike_id": "fa8a5426bb39e980551e6044558519cd", "fusion_lat": 0.0, "name": "fa8a5426bb39e980551e6044558519cd", "is_reserved": 0, "rental_uris": {"android": "https://dc.lft.to/lastmile_qr_scan", "ios": "https://dc.lft.to/lastmile_qr_scan"}, "fusion_lon": 0.0}, {"lat": 38.924135, "is_disabled": 0, "type": "electric_scooter", "lon": -77.035467, "bike_id": "f437baf77d943dd95a1fc87de40e63ce", "fusion_lat": 0.0, "name": "f437baf77d943dd95a1fc87de40e63ce", "is_reserved": 0, "rental_uris": {"android": "https://dc.lft.to/lastmile_qr_scan", "ios": "https://dc.lft.to/lastmile_qr_scan"}, "fusion_lon": 0.0}, {"lat": 38.9171015, "is_disabled": 0, "type": "electric_scooter", "lon": -77.03223716666666, "bike_id": "6252722ec852335094a80f33db0e3aa1", "fusion_lat": 0.0, "name": "6252722ec852335094a80f33db0e3aa1", "is_reserved": 0, "rental_uris": {"android": "https://dc.lft.to/lastmile_qr_scan", "ios": "https://dc.lft.to/lastmile_qr_scan"}, "fusion_lon": 0.0}, {"lat": 38.92028366666667, "is_disabled": 0, "type": "electric_scooter", "lon": -77.01328266666667, "bike_id": "73885904e8fa9f9ed2121d5a941ba06c", "fusion_lat": 0.0, "name": "73885904e8fa9f9ed2121d5a941ba06c", "is_reserved": 0, "rental_uris": {"android": "https://dc.lft.to/lastmile_qr_scan", "ios": "https://dc.lft.to/lastmile_qr_scan"}, "fusion_lon": 0.0}, {"lat": 38.926215, "is_disabled": 0, "type": "electric_scooter", "lon": -77.04188866666667, "bike_id": "bb741cfe5b598eb7e3c377f0a5d0d8a6", "fusion_lat": 0.0, "name": "bb741cfe5b598eb7e3c377f0a5d0d8a6", "is_reserved": 0, "rental_uris": {"android": "https://dc.lft.to/lastmile_qr_scan", "ios": "https://dc.lft.to/lastmile_qr_scan"}, "fusion_lon": 0.0}, {"lat": 38.90688566666667, "is_disabled": 0, "type": "electric_scooter", "lon": -77.0293105, "bike_id": "33210deb75bfc191f2d9c5fe911b063f", "fusion_lat": 0.0, "name": "33210deb75bfc191f2d9c5fe911b063f", "is_reserved": 0, "rental_uris": {"android": "https://dc.lft.to/lastmile_qr_scan", "ios": "https://dc.lft.to/lastmile_qr_scan"}, "fusion_lon": 0.0}, {"lat": 38.8965295, "is_disabled": 0, "type": "electric_scooter", "lon": -77.024024, "bike_id": "b8f95b39fb8486f0e85abdf7421f1728", "fusion_lat": 0.0, "name": "b8f95b39fb8486f0e85abdf7421f1728", "is_reserved": 0, "rental_uris": {"android": "https://dc.lft.to/lastmile_qr_scan", "ios": "https://dc.lft.to/lastmile_qr_scan"}, "fusion_lon": 0.0}, {"lat": 38.907405, "is_disabled": 0, "type": "electric_scooter", "lon": -77.009317, "bike_id": "8b522e3045a7c589bf43cf5389d4d468", "fusion_lat": 0.0, "name": "8b522e3045a7c589bf43cf5389d4d468", "is_reserved": 0, "rental_uris": {"android": "https://dc.lft.to/lastmile_qr_scan", "ios": "https://dc.lft.to/lastmile_qr_scan"}, "fusion_lon": 0.0}, {"lat": 38.90838433333333, "is_disabled": 0, "type": "electric_scooter", "lon": -77.03452883333334, "bike_id": "f0fc576cf8b08b04c65f44b97e15c4a8", "fusion_lat": 0.0, "name": "f0fc576cf8b08b04c65f44b97e15c4a8", "is_reserved": 0, "rental_uris": {"android": "https://dc.lft.to/lastmile_qr_scan", "ios": "https://dc.lft.to/lastmile_qr_scan"}, "fusion_lon": 0.0}, {"lat": 38.901701, "is_disabled": 0, "type": "electric_scooter", "lon": -77.02494983333334, "bike_id": "313c9a6f7f4bb3f87f807f2b5b2c64fc", "fusion_lat": 0.0, "name": "313c9a6f7f4bb3f87f807f2b5b2c64fc", "is_reserved": 0, "rental_uris": {"android": "https://dc.lft.to/lastmile_qr_scan", "ios": "https://dc.lft.to/lastmile_qr_scan"}, "fusion_lon": 0.0}, {"lat": 38.89499083333333, "is_disabled": 0, "type": "electric_scooter", "lon": -77.00211683333333, "bike_id": "fbe4b3647ce8f0fc71e169949270fd97", "fusion_lat": 0.0, "name": "fbe4b3647ce8f0fc71e169949270fd97", "is_reserved": 0, "rental_uris": {"android": "https://dc.lft.to/lastmile_qr_scan", "ios": "https://dc.lft.to/lastmile_qr_scan"}, "fusion_lon": 0.0}, {"lat": 38.919939166666666, "is_disabled": 0, "type": "electric_scooter", "lon": -77.03975, "bike_id": "02e458ba65886bcfe5f310b0acfe541c", "fusion_lat": 0.0, "name": "02e458ba65886bcfe5f310b0acfe541c", "is_reserved": 0, "rental_uris": {"android": "https://dc.lft.to/lastmile_qr_scan", "ios": "https://dc.lft.to/lastmile_qr_scan"}, "fusion_lon": 0.0}, {"lat": 38.93699316666667, "is_disabled": 0, "type": "electric_bike", "lon": -77.02980966666667, "bike_id": "0c4814203860765f3046e40ad38608f1", "fusion_lat": 0.0, "name": "0c4814203860765f3046e40ad38608f1", "is_reserved": 0, "rental_uris": {"android": "https://dc.lft.to/lastmile_qr_scan", "ios": "https://dc.lft.to/lastmile_qr_scan"}, "fusion_lon": 0.0}, {"lat": 38.91682566666667, "is_disabled": 0, "type": "electric_scooter", "lon": -77.02951183333333, "bike_id": "b67505421c7a5d7531b417d98b872d7d", "fusion_lat": 0.0, "name": "b67505421c7a5d7531b417d98b872d7d", "is_reserved": 0, "rental_uris": {"android": "https://dc.lft.to/lastmile_qr_scan", "ios": "https://dc.lft.to/lastmile_qr_scan"}, "fusion_lon": 0.0}, {"lat": 38.894906, "is_disabled": 0, "type": "electric_scooter", "lon": -77.0111585, "bike_id": "f60fff24addcd97f51eb7f9f12b2990d", "fusion_lat": 0.0, "name": "f60fff24addcd97f51eb7f9f12b2990d", "is_reserved": 0, "rental_uris": {"android": "https://dc.lft.to/lastmile_qr_scan", "ios": "https://dc.lft.to/lastmile_qr_scan"}, "fusion_lon": 0.0}, {"lat": 38.923872333333335, "is_disabled": 0, "type": "electric_scooter", "lon": -77.03661066666666, "bike_id": "f60eb02f98afff8fcf4ec1052ef469e0", "fusion_lat": 0.0, "name": "f60eb02f98afff8fcf4ec1052ef469e0", "is_reserved": 0, "rental_uris": {"android": "https://dc.lft.to/lastmile_qr_scan", "ios": "https://dc.lft.to/lastmile_qr_scan"}, "fusion_lon": 0.0}, {"lat": 38.91869716666667, "is_disabled": 0, "type": "electric_scooter", "lon": -77.04027633333334, "bike_id": "d0faed4cd16e7f7da8ea7d48c9595661", "fusion_lat": 0.0, "name": "d0faed4cd16e7f7da8ea7d48c9595661", "is_reserved": 0, "rental_uris": {"android": "https://dc.lft.to/lastmile_qr_scan", "ios": "https://dc.lft.to/lastmile_qr_scan"}, "fusion_lon": 0.0}, {"lat": 38.9175045, "is_disabled": 0, "type": "electric_scooter", "lon": -77.03659966666666, "bike_id": "67afbfab93310f6e0ddc8b31a5a67a16", "fusion_lat": 0.0, "name": "67afbfab93310f6e0ddc8b31a5a67a16", "is_reserved": 0, "rental_uris": {"android": "https://dc.lft.to/lastmile_qr_scan", "ios": "https://dc.lft.to/lastmile_qr_scan"}, "fusion_lon": 0.0}, {"lat": 38.915376, "is_disabled": 0, "type": "electric_scooter", "lon": -77.03829283333333, "bike_id": "c8e1aecdf2a4538334ce3cde53cac034", "fusion_lat": 0.0, "name": "c8e1aecdf2a4538334ce3cde53cac034", "is_reserved": 0, "rental_uris": {"android": "https://dc.lft.to/lastmile_qr_scan", "ios": "https://dc.lft.to/lastmile_qr_scan"}, "fusion_lon": 0.0}, {"lat": 38.90796233333333, "is_disabled": 0, "type": "electric_scooter", "lon": -76.99696816666666, "bike_id": "dd85b8551ef0221bde7ab2b83fb5ec88", "fusion_lat": 0.0, "name": "dd85b8551ef0221bde7ab2b83fb5ec88", "is_reserved": 0, "rental_uris": {"android": "https://dc.lft.to/lastmile_qr_scan", "ios": "https://dc.lft.to/lastmile_qr_scan"}, "fusion_lon": 0.0}, {"lat": 38.927512166666666, "is_disabled": 0, "type": "electric_scooter", "lon": -76.99716333333333, "bike_id": "010db66d3c0fc16191c464dc7ec7f49f", "fusion_lat": 0.0, "name": "010db66d3c0fc16191c464dc7ec7f49f", "is_reserved": 0, "rental_uris": {"android": "https://dc.lft.to/lastmile_qr_scan", "ios": "https://dc.lft.to/lastmile_qr_scan"}, "fusion_lon": 0.0}, {"lat": 38.9036815, "is_disabled": 0, "type": "electric_scooter", "lon": -77.003424, "bike_id": "bd63fc84982d925a39636996fe307b67", "fusion_lat": 0.0, "name": "bd63fc84982d925a39636996fe307b67", "is_reserved": 0, "rental_uris": {"android": "https://dc.lft.to/lastmile_qr_scan", "ios": "https://dc.lft.to/lastmile_qr_scan"}, "fusion_lon": 0.0}, {"lat": 38.92573933333333, "is_disabled": 0, "type": "electric_scooter", "lon": -77.05748616666666, "bike_id": "ef6a10c49e203ab1e536ba36acdb9800", "fusion_lat": 0.0, "name": "ef6a10c49e203ab1e536ba36acdb9800", "is_reserved": 0, "rental_uris": {"android": "https://dc.lft.to/lastmile_qr_scan", "ios": "https://dc.lft.to/lastmile_qr_scan"}, "fusion_lon": 0.0}, {"lat": 38.8980635, "is_disabled": 0, "type": "electric_scooter", "lon": -77.00058733333333, "bike_id": "7a98c54831ad1b6a74dd4c6120df5b21", "fusion_lat": 0.0, "name": "7a98c54831ad1b6a74dd4c6120df5b21", "is_reserved": 0, "rental_uris": {"android": "https://dc.lft.to/lastmile_qr_scan", "ios": "https://dc.lft.to/lastmile_qr_scan"}, "fusion_lon": 0.0}, {"lat": 38.897935333333336, "is_disabled": 0, "type": "electric_bike", "lon": -76.90433466666667, "bike_id": "5abe951c35f8b48d4fc997d9017f9015", "fusion_lat": 0.0, "name": "5abe951c35f8b48d4fc997d9017f9015", "is_reserved": 0, "rental_uris": {"android": "https://dc.lft.to/lastmile_qr_scan", "ios": "https://dc.lft.to/lastmile_qr_scan"}, "fusion_lon": 0.0}, {"lat": 38.88093666666666, "is_disabled": 0, "type": "electric_scooter", "lon": -76.9985305, "bike_id": "cc3dba274bf5f50429ee282cba8fdd19", "fusion_lat": 0.0, "name": "cc3dba274bf5f50429ee282cba8fdd19", "is_reserved": 0, "rental_uris": {"android": "https://dc.lft.to/lastmile_qr_scan", "ios": "https://dc.lft.to/lastmile_qr_scan"}, "fusion_lon": 0.0}, {"lat": 38.95634966666667, "is_disabled": 0, "type": "electric_bike", "lon": -76.9388255, "bike_id": "591c754deb19e9d9ed501c5de2e26cba", "fusion_lat": 0.0, "name": "591c754deb19e9d9ed501c5de2e26cba", "is_reserved": 0, "rental_uris": {"android": "https://dc.lft.to/lastmile_qr_scan", "ios": "https://dc.lft.to/lastmile_qr_scan"}, "fusion_lon": 0.0}, {"lat": 38.9036085, "is_disabled": 0, "type": "electric_scooter", "lon": -77.030991, "bike_id": "d41945027832a990d3e4a5573224012d", "fusion_lat": 0.0, "name": "d41945027832a990d3e4a5573224012d", "is_reserved": 0, "rental_uris": {"android": "https://dc.lft.to/lastmile_qr_scan", "ios": "https://dc.lft.to/lastmile_qr_scan"}, "fusion_lon": 0.0}, {"lat": 38.84278116666667, "is_disabled": 0, "type": "electric_bike", "lon": -76.98842833333333, "bike_id": "625a049acefb6c2334d9c3d0421aee41", "fusion_lat": 0.0, "name": "625a049acefb6c2334d9c3d0421aee41", "is_reserved": 0, "rental_uris": {"android": "https://dc.lft.to/lastmile_qr_scan", "ios": "https://dc.lft.to/lastmile_qr_scan"}, "fusion_lon": 0.0}, {"lat": 38.90065533333333, "is_disabled": 0, "type": "electric_scooter", "lon": -77.0497095, "bike_id": "b94b3955e0dcdefe9f21d1f6f4302847", "fusion_lat": 0.0, "name": "b94b3955e0dcdefe9f21d1f6f4302847", "is_reserved": 0, "rental_uris": {"android": "https://dc.lft.to/lastmile_qr_scan", "ios": "https://dc.lft.to/lastmile_qr_scan"}, "fusion_lon": 0.0}, {"lat": 38.919622333333336, "is_disabled": 0, "type": "electric_scooter", "lon": -77.012161, "bike_id": "62153bfa52bd4a9f2158f0554123d17d", "fusion_lat": 0.0, "name": "62153bfa52bd4a9f2158f0554123d17d", "is_reserved": 0, "rental_uris": {"android": "https://dc.lft.to/lastmile_qr_scan", "ios": "https://dc.lft.to/lastmile_qr_scan"}, "fusion_lon": 0.0}, {"lat": 38.9061025, "is_disabled": 0, "type": "electric_scooter", "lon": -77.01532683333333, "bike_id": "eca43ee0087a8315a97535217a251d35", "fusion_lat": 0.0, "name": "eca43ee0087a8315a97535217a251d35", "is_reserved": 0, "rental_uris": {"android": "https://dc.lft.to/lastmile_qr_scan", "ios": "https://dc.lft.to/lastmile_qr_scan"}, "fusion_lon": 0.0}, {"lat": 38.905641333333335, "is_disabled": 0, "type": "electric_scooter", "lon": -77.00488833333333, "bike_id": "a1fb712c54b1397ca053cede7cc1d3dc", "fusion_lat": 0.0, "name": "a1fb712c54b1397ca053cede7cc1d3dc", "is_reserved": 0, "rental_uris": {"android": "https://dc.lft.to/lastmile_qr_scan", "ios": "https://dc.lft.to/lastmile_qr_scan"}, "fusion_lon": 0.0}, {"lat": 38.88549183333333, "is_disabled": 0, "type": "electric_bike", "lon": -77.11788466666667, "bike_id": "eaa7eab6a14fd851cbcb6a9fa07005b4", "fusion_lat": 0.0, "name": "eaa7eab6a14fd851cbcb6a9fa07005b4", "is_reserved": 0, "rental_uris": {"android": "https://dc.lft.to/lastmile_qr_scan", "ios": "https://dc.lft.to/lastmile_qr_scan"}, "fusion_lon": 0.0}, {"lat": 38.906533833333334, "is_disabled": 0, "type": "electric_scooter", "lon": -77.00826, "bike_id": "d694a226de2d8e23235249888bb5246a", "fusion_lat": 0.0, "name": "d694a226de2d8e23235249888bb5246a", "is_reserved": 0, "rental_uris": {"android": "https://dc.lft.to/lastmile_qr_scan", "ios": "https://dc.lft.to/lastmile_qr_scan"}, "fusion_lon": 0.0}, {"lat": 38.903937166666665, "is_disabled": 0, "type": "electric_scooter", "lon": -76.99006216666666, "bike_id": "a892b3420b7e1e11cb06cba8af4a1789", "fusion_lat": 0.0, "name": "a892b3420b7e1e11cb06cba8af4a1789", "is_reserved": 0, "rental_uris": {"android": "https://dc.lft.to/lastmile_qr_scan", "ios": "https://dc.lft.to/lastmile_qr_scan"}, "fusion_lon": 0.0}, {"lat": 38.93379433333333, "is_disabled": 0, "type": "electric_scooter", "lon": -77.03550183333333, "bike_id": "0bd93269b4641e796895d2667cccd9c1", "fusion_lat": 0.0, "name": "0bd93269b4641e796895d2667cccd9c1", "is_reserved": 0, "rental_uris": {"android": "https://dc.lft.to/lastmile_qr_scan", "ios": "https://dc.lft.to/lastmile_qr_scan"}, "fusion_lon": 0.0}, {"lat": 38.885987666666665, "is_disabled": 0, "type": "electric_scooter", "lon": -77.01891783333333, "bike_id": "83cc98e331f0eaf900a3d2bc312325d2", "fusion_lat": 0.0, "name": "83cc98e331f0eaf900a3d2bc312325d2", "is_reserved": 0, "rental_uris": {"android": "https://dc.lft.to/lastmile_qr_scan", "ios": "https://dc.lft.to/lastmile_qr_scan"}, "fusion_lon": 0.0}, {"lat": 38.886786, "is_disabled": 0, "type": "electric_bike", "lon": -77.16237616666666, "bike_id": "3ff8a8471e443d7aa0c8f75db3298ca1", "fusion_lat": 0.0, "name": "3ff8a8471e443d7aa0c8f75db3298ca1", "is_reserved": 0, "rental_uris": {"android": "https://dc.lft.to/lastmile_qr_scan", "ios": "https://dc.lft.to/lastmile_qr_scan"}, "fusion_lon": 0.0}, {"lat": 38.957087, "is_disabled": 0, "type": "electric_scooter", "lon": -77.02399566666666, "bike_id": "8fb5b86403b2a185b8a5f3cfba55f6dc", "fusion_lat": 0.0, "name": "8fb5b86403b2a185b8a5f3cfba55f6dc", "is_reserved": 0, "rental_uris": {"android": "https://dc.lft.to/lastmile_qr_scan", "ios": "https://dc.lft.to/lastmile_qr_scan"}, "fusion_lon": 0.0}, {"lat": 38.919631, "is_disabled": 0, "type": "electric_scooter", "lon": -77.01441266666667, "bike_id": "2af44a2b428bebdaf87500b7e293bf92", "fusion_lat": 0.0, "name": "2af44a2b428bebdaf87500b7e293bf92", "is_reserved": 0, "rental_uris": {"android": "https://dc.lft.to/lastmile_qr_scan", "ios": "https://dc.lft.to/lastmile_qr_scan"}, "fusion_lon": 0.0}, {"lat": 38.899923333333334, "is_disabled": 0, "type": "electric_scooter", "lon": -77.04224, "bike_id": "90810005d4ae42c2b04ac04e5b193e62", "fusion_lat": 0.0, "name": "90810005d4ae42c2b04ac04e5b193e62", "is_reserved": 0, "rental_uris": {"android": "https://dc.lft.to/lastmile_qr_scan", "ios": "https://dc.lft.to/lastmile_qr_scan"}, "fusion_lon": 0.0}, {"lat": 38.94826533333333, "is_disabled": 0, "type": "electric_scooter", "lon": -76.999047, "bike_id": "841fc93cb7802e98faa31218a065a93e", "fusion_lat": 0.0, "name": "841fc93cb7802e98faa31218a065a93e", "is_reserved": 0, "rental_uris": {"android": "https://dc.lft.to/lastmile_qr_scan", "ios": "https://dc.lft.to/lastmile_qr_scan"}, "fusion_lon": 0.0}, {"lat": 38.861729833333335, "is_disabled": 0, "type": "electric_bike", "lon": -77.13141816666666, "bike_id": "ffab39e426d5e801a21687fa91df7521", "fusion_lat": 0.0, "name": "ffab39e426d5e801a21687fa91df7521", "is_reserved": 0, "rental_uris": {"android": "https://dc.lft.to/lastmile_qr_scan", "ios": "https://dc.lft.to/lastmile_qr_scan"}, "fusion_lon": 0.0}, {"lat": 38.91787166666667, "is_disabled": 0, "type": "electric_scooter", "lon": -77.02309416666667, "bike_id": "52b77394c8ca49799f6d5ab2717bbe03", "fusion_lat": 0.0, "name": "52b77394c8ca49799f6d5ab2717bbe03", "is_reserved": 0, "rental_uris": {"android": "https://dc.lft.to/lastmile_qr_scan", "ios": "https://dc.lft.to/lastmile_qr_scan"}, "fusion_lon": 0.0}, {"lat": 38.9286, "is_disabled": 0, "type": "electric_bike", "lon": -76.98934616666666, "bike_id": "4bb453f0a7d05c8f302b8fce9bc3261d", "fusion_lat": 0.0, "name": "4bb453f0a7d05c8f302b8fce9bc3261d", "is_reserved": 0, "rental_uris": {"android": "https://dc.lft.to/lastmile_qr_scan", "ios": "https://dc.lft.to/lastmile_qr_scan"}, "fusion_lon": 0.0}, {"lat": 38.90095816666667, "is_disabled": 0, "type": "electric_scooter", "lon": -77.00340516666667, "bike_id": "b7285116340e15f57577a1e2bf1c8b04", "fusion_lat": 0.0, "name": "b7285116340e15f57577a1e2bf1c8b04", "is_reserved": 0, "rental_uris": {"android": "https://dc.lft.to/lastmile_qr_scan", "ios": "https://dc.lft.to/lastmile_qr_scan"}, "fusion_lon": 0.0}, {"lat": 38.92406833333333, "is_disabled": 0, "type": "electric_bike", "lon": -77.05044966666667, "bike_id": "75e610808517507d9f108c7de18bdba1", "fusion_lat": 0.0, "name": "75e610808517507d9f108c7de18bdba1", "is_reserved": 0, "rental_uris": {"android": "https://dc.lft.to/lastmile_qr_scan", "ios": "https://dc.lft.to/lastmile_qr_scan"}, "fusion_lon": 0.0}, {"lat": 38.90722866666667, "is_disabled": 0, "type": "electric_scooter", "lon": -76.99819916666667, "bike_id": "cacbb11a0f3e23a71a38f7db428e87a5", "fusion_lat": 0.0, "name": "cacbb11a0f3e23a71a38f7db428e87a5", "is_reserved": 0, "rental_uris": {"android": "https://dc.lft.to/lastmile_qr_scan", "ios": "https://dc.lft.to/lastmile_qr_scan"}, "fusion_lon": 0.0}, {"lat": 38.9214995, "is_disabled": 0, "type": "electric_scooter", "lon": -77.0338585, "bike_id": "9a35bac33e19f574e9854230eae198ee", "fusion_lat": 0.0, "name": "9a35bac33e19f574e9854230eae198ee", "is_reserved": 0, "rental_uris": {"android": "https://dc.lft.to/lastmile_qr_scan", "ios": "https://dc.lft.to/lastmile_qr_scan"}, "fusion_lon": 0.0}, {"lat": 38.8669955, "is_disabled": 0, "type": "electric_scooter", "lon": -76.9871175, "bike_id": "3f9e4fbf650a4bbcb8104dcde3a104b3", "fusion_lat": 0.0, "name": "3f9e4fbf650a4bbcb8104dcde3a104b3", "is_reserved": 0, "rental_uris": {"android": "https://dc.lft.to/lastmile_qr_scan", "ios": "https://dc.lft.to/lastmile_qr_scan"}, "fusion_lon": 0.0}, {"lat": 38.9170535, "is_disabled": 0, "type": "electric_scooter", "lon": -77.03222183333334, "bike_id": "2536b0700320f901163b52a2ab211ac0", "fusion_lat": 0.0, "name": "2536b0700320f901163b52a2ab211ac0", "is_reserved": 0, "rental_uris": {"android": "https://dc.lft.to/lastmile_qr_scan", "ios": "https://dc.lft.to/lastmile_qr_scan"}, "fusion_lon": 0.0}, {"lat": 38.91790866666667, "is_disabled": 0, "type": "electric_bike", "lon": -76.97185766666666, "bike_id": "0409bd0bd26a96e3d669b414ad2fa68c", "fusion_lat": 0.0, "name": "0409bd0bd26a96e3d669b414ad2fa68c", "is_reserved": 0, "rental_uris": {"android": "https://dc.lft.to/lastmile_qr_scan", "ios": "https://dc.lft.to/lastmile_qr_scan"}, "fusion_lon": 0.0}, {"lat": 38.905791666666666, "is_disabled": 0, "type": "electric_scooter", "lon": -77.04862816666666, "bike_id": "b9c15abe76e8c667d29e21cc6365259f", "fusion_lat": 0.0, "name": "b9c15abe76e8c667d29e21cc6365259f", "is_reserved": 0, "rental_uris": {"android": "https://dc.lft.to/lastmile_qr_scan", "ios": "https://dc.lft.to/lastmile_qr_scan"}, "fusion_lon": 0.0}, {"lat": 38.8443175, "is_disabled": 0, "type": "electric_scooter", "lon": -76.99661583333334, "bike_id": "a9f15f96c3ad8542aa2a71ccfbad52f6", "fusion_lat": 0.0, "name": "a9f15f96c3ad8542aa2a71ccfbad52f6", "is_reserved": 0, "rental_uris": {"android": "https://dc.lft.to/lastmile_qr_scan", "ios": "https://dc.lft.to/lastmile_qr_scan"}, "fusion_lon": 0.0}, {"lat": 38.9643185, "is_disabled": 0, "type": "electric_bike", "lon": -77.02151716666667, "bike_id": "3e5aedfe7fcc5defec5816b631ad1098", "fusion_lat": 0.0, "name": "3e5aedfe7fcc5defec5816b631ad1098", "is_reserved": 0, "rental_uris": {"android": "https://dc.lft.to/lastmile_qr_scan", "ios": "https://dc.lft.to/lastmile_qr_scan"}, "fusion_lon": 0.0}, {"lat": 38.90730283333333, "is_disabled": 0, "type": "electric_scooter", "lon": -77.03994433333334, "bike_id": "3f53c0305e007a04a0df93419860792a", "fusion_lat": 0.0, "name": "3f53c0305e007a04a0df93419860792a", "is_reserved": 0, "rental_uris": {"android": "https://dc.lft.to/lastmile_qr_scan", "ios": "https://dc.lft.to/lastmile_qr_scan"}, "fusion_lon": 0.0}, {"lat": 38.89250083333334, "is_disabled": 0, "type": "electric_scooter", "lon": -77.03355416666666, "bike_id": "a515113f62082b3ed22581c642ade174", "fusion_lat": 0.0, "name": "a515113f62082b3ed22581c642ade174", "is_reserved": 0, "rental_uris": {"android": "https://dc.lft.to/lastmile_qr_scan", "ios": "https://dc.lft.to/lastmile_qr_scan"}, "fusion_lon": 0.0}, {"lat": 38.86258466666666, "is_disabled": 0, "type": "electric_scooter", "lon": -76.9951875, "bike_id": "f58fd5f1825a17a247914861cdbbe82a", "fusion_lat": 0.0, "name": "f58fd5f1825a17a247914861cdbbe82a", "is_reserved": 0, "rental_uris": {"android": "https://dc.lft.to/lastmile_qr_scan", "ios": "https://dc.lft.to/lastmile_qr_scan"}, "fusion_lon": 0.0}, {"lat": 38.8519115, "is_disabled": 0, "type": "electric_scooter", "lon": -76.97623183333333, "bike_id": "dad2a0db6bd2e9d38ba8ee544431c213", "fusion_lat": 0.0, "name": "dad2a0db6bd2e9d38ba8ee544431c213", "is_reserved": 0, "rental_uris": {"android": "https://dc.lft.to/lastmile_qr_scan", "ios": "https://dc.lft.to/lastmile_qr_scan"}, "fusion_lon": 0.0}, {"lat": 38.937380166666664, "is_disabled": 0, "type": "electric_scooter", "lon": -77.03612866666667, "bike_id": "bb5ff4349c11695b556e88ef5a3826ac", "fusion_lat": 0.0, "name": "bb5ff4349c11695b556e88ef5a3826ac", "is_reserved": 0, "rental_uris": {"android": "https://dc.lft.to/lastmile_qr_scan", "ios": "https://dc.lft.to/lastmile_qr_scan"}, "fusion_lon": 0.0}, {"lat": 38.9258415, "is_disabled": 0, "type": "electric_scooter", "lon": -77.04414266666667, "bike_id": "cdffca2c60839752f20eb23c6119fe90", "fusion_lat": 0.0, "name": "cdffca2c60839752f20eb23c6119fe90", "is_reserved": 0, "rental_uris": {"android": "https://dc.lft.to/lastmile_qr_scan", "ios": "https://dc.lft.to/lastmile_qr_scan"}, "fusion_lon": 0.0}, {"lat": 38.903701166666664, "is_disabled": 0, "type": "electric_scooter", "lon": -77.03841816666667, "bike_id": "1f0cfbaba8c561046698a5d9e6d52651", "fusion_lat": 0.0, "name": "1f0cfbaba8c561046698a5d9e6d52651", "is_reserved": 0, "rental_uris": {"android": "https://dc.lft.to/lastmile_qr_scan", "ios": "https://dc.lft.to/lastmile_qr_scan"}, "fusion_lon": 0.0}, {"lat": 38.89848933333333, "is_disabled": 0, "type": "electric_scooter", "lon": -76.99029766666666, "bike_id": "d6bb1430f74b7567043434c06e122c00", "fusion_lat": 0.0, "name": "d6bb1430f74b7567043434c06e122c00", "is_reserved": 0, "rental_uris": {"android": "https://dc.lft.to/lastmile_qr_scan", "ios": "https://dc.lft.to/lastmile_qr_scan"}, "fusion_lon": 0.0}, {"lat": 38.897336333333335, "is_disabled": 0, "type": "electric_scooter", "lon": -77.04991583333333, "bike_id": "d6f342e656a3967b9162c3b75deed262", "fusion_lat": 0.0, "name": "d6f342e656a3967b9162c3b75deed262", "is_reserved": 0, "rental_uris": {"android": "https://dc.lft.to/lastmile_qr_scan", "ios": "https://dc.lft.to/lastmile_qr_scan"}, "fusion_lon": 0.0}, {"lat": 38.9024735, "is_disabled": 0, "type": "electric_scooter", "lon": -77.0174285, "bike_id": "5710d344c5d38662ada89e58f729d50d", "fusion_lat": 0.0, "name": "5710d344c5d38662ada89e58f729d50d", "is_reserved": 0, "rental_uris": {"android": "https://dc.lft.to/lastmile_qr_scan", "ios": "https://dc.lft.to/lastmile_qr_scan"}, "fusion_lon": 0.0}, {"lat": 38.9095875, "is_disabled": 0, "type": "electric_scooter", "lon": -77.0479215, "bike_id": "4d4f3c0ed744150d8fb5407dca8193a6", "fusion_lat": 0.0, "name": "4d4f3c0ed744150d8fb5407dca8193a6", "is_reserved": 0, "rental_uris": {"android": "https://dc.lft.to/lastmile_qr_scan", "ios": "https://dc.lft.to/lastmile_qr_scan"}, "fusion_lon": 0.0}, {"lat": 39.03423633333333, "is_disabled": 0, "type": "electric_bike", "lon": -77.04316733333333, "bike_id": "0c8d352ca94055a3e4b51080228571d0", "fusion_lat": 0.0, "name": "0c8d352ca94055a3e4b51080228571d0", "is_reserved": 0, "rental_uris": {"android": "https://dc.lft.to/lastmile_qr_scan", "ios": "https://dc.lft.to/lastmile_qr_scan"}, "fusion_lon": 0.0}, {"lat": 38.9365895, "is_disabled": 0, "type": "electric_bike", "lon": -76.952187, "bike_id": "deb95c08aab6038a6ddef4e847a9cd6e", "fusion_lat": 0.0, "name": "deb95c08aab6038a6ddef4e847a9cd6e", "is_reserved": 0, "rental_uris": {"android": "https://dc.lft.to/lastmile_qr_scan", "ios": "https://dc.lft.to/lastmile_qr_scan"}, "fusion_lon": 0.0}, {"lat": 38.992602833333336, "is_disabled": 0, "type": "electric_scooter", "lon": -77.03655466666666, "bike_id": "f7a52d2d7aa913f6f154d26b45dbe24b", "fusion_lat": 0.0, "name": "f7a52d2d7aa913f6f154d26b45dbe24b", "is_reserved": 0, "rental_uris": {"android": "https://dc.lft.to/lastmile_qr_scan", "ios": "https://dc.lft.to/lastmile_qr_scan"}, "fusion_lon": 0.0}, {"lat": 38.905513, "is_disabled": 0, "type": "electric_scooter", "lon": -77.00566633333334, "bike_id": "6fc5a9f300bebe7ccdf68be5fc98911a", "fusion_lat": 0.0, "name": "6fc5a9f300bebe7ccdf68be5fc98911a", "is_reserved": 0, "rental_uris": {"android": "https://dc.lft.to/lastmile_qr_scan", "ios": "https://dc.lft.to/lastmile_qr_scan"}, "fusion_lon": 0.0}, {"lat": 38.94552233333334, "is_disabled": 0, "type": "electric_bike", "lon": -76.89540083333333, "bike_id": "a4bfb13e77923e849b98f4f1d100d573", "fusion_lat": 0.0, "name": "a4bfb13e77923e849b98f4f1d100d573", "is_reserved": 0, "rental_uris": {"android": "https://dc.lft.to/lastmile_qr_scan", "ios": "https://dc.lft.to/lastmile_qr_scan"}, "fusion_lon": 0.0}, {"lat": 38.91939716666667, "is_disabled": 0, "type": "electric_scooter", "lon": -77.070605, "bike_id": "cadfe561e514a0d14f78c4b9786df399", "fusion_lat": 0.0, "name": "cadfe561e514a0d14f78c4b9786df399", "is_reserved": 0, "rental_uris": {"android": "https://dc.lft.to/lastmile_qr_scan", "ios": "https://dc.lft.to/lastmile_qr_scan"}, "fusion_lon": 0.0}, {"lat": 39.000103, "is_disabled": 0, "type": "electric_bike", "lon": -76.910788, "bike_id": "551be523a89c541309cf449a974975ee", "fusion_lat": 0.0, "name": "551be523a89c541309cf449a974975ee", "is_reserved": 0, "rental_uris": {"android": "https://dc.lft.to/lastmile_qr_scan", "ios": "https://dc.lft.to/lastmile_qr_scan"}, "fusion_lon": 0.0}, {"lat": 38.865514166666664, "is_disabled": 0, "type": "electric_scooter", "lon": -76.97413716666667, "bike_id": "82b4a56b12cc90b6d431921031e2acbe", "fusion_lat": 0.0, "name": "82b4a56b12cc90b6d431921031e2acbe", "is_reserved": 0, "rental_uris": {"android": "https://dc.lft.to/lastmile_qr_scan", "ios": "https://dc.lft.to/lastmile_qr_scan"}, "fusion_lon": 0.0}, {"lat": 38.932945, "is_disabled": 0, "type": "electric_scooter", "lon": -77.0284295, "bike_id": "c3d4db7d79b93326454196d9d9f5f240", "fusion_lat": 0.0, "name": "c3d4db7d79b93326454196d9d9f5f240", "is_reserved": 0, "rental_uris": {"android": "https://dc.lft.to/lastmile_qr_scan", "ios": "https://dc.lft.to/lastmile_qr_scan"}, "fusion_lon": 0.0}, {"lat": 38.86387366666666, "is_disabled": 0, "type": "electric_bike", "lon": -76.989869, "bike_id": "f1bd2a91e74a087dcbc1c41f3c601f94", "fusion_lat": 0.0, "name": "f1bd2a91e74a087dcbc1c41f3c601f94", "is_reserved": 0, "rental_uris": {"android": "https://dc.lft.to/lastmile_qr_scan", "ios": "https://dc.lft.to/lastmile_qr_scan"}, "fusion_lon": 0.0}, {"lat": 38.900827166666666, "is_disabled": 0, "type": "electric_scooter", "lon": -77.04926016666667, "bike_id": "ce8688b837cfcdf5f71f838c059a4fcb", "fusion_lat": 0.0, "name": "ce8688b837cfcdf5f71f838c059a4fcb", "is_reserved": 0, "rental_uris": {"android": "https://dc.lft.to/lastmile_qr_scan", "ios": "https://dc.lft.to/lastmile_qr_scan"}, "fusion_lon": 0.0}, {"lat": 38.927969166666664, "is_disabled": 0, "type": "electric_scooter", "lon": -77.05526316666666, "bike_id": "cf13f11276405918728d7deb394326f0", "fusion_lat": 0.0, "name": "cf13f11276405918728d7deb394326f0", "is_reserved": 0, "rental_uris": {"android": "https://dc.lft.to/lastmile_qr_scan", "ios": "https://dc.lft.to/lastmile_qr_scan"}, "fusion_lon": 0.0}, {"lat": 38.938758166666666, "is_disabled": 0, "type": "electric_scooter", "lon": -77.02008416666666, "bike_id": "61dc92a05d32910d8052caeaf707d723", "fusion_lat": 0.0, "name": "61dc92a05d32910d8052caeaf707d723", "is_reserved": 0, "rental_uris": {"android": "https://dc.lft.to/lastmile_qr_scan", "ios": "https://dc.lft.to/lastmile_qr_scan"}, "fusion_lon": 0.0}, {"lat": 38.902999, "is_disabled": 0, "type": "electric_scooter", "lon": -77.03321716666666, "bike_id": "d6bdc0fbcf7a22a6c6c3da99f265ffc3", "fusion_lat": 0.0, "name": "d6bdc0fbcf7a22a6c6c3da99f265ffc3", "is_reserved": 0, "rental_uris": {"android": "https://dc.lft.to/lastmile_qr_scan", "ios": "https://dc.lft.to/lastmile_qr_scan"}, "fusion_lon": 0.0}, {"lat": 38.953356166666666, "is_disabled": 0, "type": "electric_bike", "lon": -76.97363266666666, "bike_id": "fb8ee3af34edbdd77b66ba6bae2d913c", "fusion_lat": 0.0, "name": "fb8ee3af34edbdd77b66ba6bae2d913c", "is_reserved": 0, "rental_uris": {"android": "https://dc.lft.to/lastmile_qr_scan", "ios": "https://dc.lft.to/lastmile_qr_scan"}, "fusion_lon": 0.0}, {"lat": 38.93367333333333, "is_disabled": 0, "type": "electric_scooter", "lon": -77.02397983333333, "bike_id": "dcd99ecdaca9c99c596d7a5b64d4c414", "fusion_lat": 0.0, "name": "dcd99ecdaca9c99c596d7a5b64d4c414", "is_reserved": 0, "rental_uris": {"android": "https://dc.lft.to/lastmile_qr_scan", "ios": "https://dc.lft.to/lastmile_qr_scan"}, "fusion_lon": 0.0}, {"lat": 38.9258415, "is_disabled": 0, "type": "electric_scooter", "lon": -77.02830566666667, "bike_id": "76b49af45f1b5a335816c5289548ad6a", "fusion_lat": 0.0, "name": "76b49af45f1b5a335816c5289548ad6a", "is_reserved": 0, "rental_uris": {"android": "https://dc.lft.to/lastmile_qr_scan", "ios": "https://dc.lft.to/lastmile_qr_scan"}, "fusion_lon": 0.0}, {"lat": 38.90277533333333, "is_disabled": 0, "type": "electric_scooter", "lon": -77.036565, "bike_id": "4ad8317d2228b34776134030abf23534", "fusion_lat": 0.0, "name": "4ad8317d2228b34776134030abf23534", "is_reserved": 0, "rental_uris": {"android": "https://dc.lft.to/lastmile_qr_scan", "ios": "https://dc.lft.to/lastmile_qr_scan"}, "fusion_lon": 0.0}, {"lat": 38.93691616666667, "is_disabled": 0, "type": "electric_scooter", "lon": -77.0326195, "bike_id": "25f56a1092324f7b30a6d7d7b20e8d60", "fusion_lat": 0.0, "name": "25f56a1092324f7b30a6d7d7b20e8d60", "is_reserved": 0, "rental_uris": {"android": "https://dc.lft.to/lastmile_qr_scan", "ios": "https://dc.lft.to/lastmile_qr_scan"}, "fusion_lon": 0.0},