{"data": {"bikes": [{"rental_uris": {"ios": "https://dc.lft.to/lastmile_qr_scan", "android": "https://dc.lft.to/lastmile_qr_scan"}, "type": "electric_bike", "name": "84f8e17dff073095a21863a99f32e551", "is_reserved": 0, "lon": -76.96304816666667, "is_disabled": 0, "fusion_lat": 0.0, "lat": 38.896987333333335, "bike_id": "84f8e17dff073095a21863a99f32e551", "fusion_lon": 0.0}, {"rental_uris": {"ios": "https://dc.lft.to/lastmile_qr_scan", "android": "https://dc.lft.to/lastmile_qr_scan"}, "type": "electric_scooter", "name": "2e496204b5f6f237d32a4ee0bc57c94a", "is_reserved": 0, "lon": -77.01587, "is_disabled": 0, "fusion_lat": 0.0, "lat": 38.87226283333333, "bike_id": "2e496204b5f6f237d32a4ee0bc57c94a", "fusion_lon": 0.0}, {"rental_uris": {"ios": "https://dc.lft.to/lastmile_qr_scan", "android": "https://dc.lft.to/lastmile_qr_scan"}, "type": "electric_bike", "name": "0e33eb5ccd015dc11737e676a43e8861", "is_reserved": 0, "lon": -77.02443116666667, "is_disabled": 0, "fusion_lat": 0.0, "lat": 38.8981625, "bike_id": "0e33eb5ccd015dc11737e676a43e8861", "fusion_lon": 0.0}, {"rental_uris": {"ios": "https://dc.lft.to/lastmile_qr_scan", "android": "https://dc.lft.to/lastmile_qr_scan"}, "type": "electric_scooter", "name": "179dec5e3d5f1fd5177ea6ff9a0f6fe9", "is_reserved": 0, "lon": -77.05084233333334, "is_disabled": 0, "fusion_lat": 0.0, "lat": 38.90387066666667, "bike_id": "179dec5e3d5f1fd5177ea6ff9a0f6fe9", "fusion_lon": 0.0}, {"rental_uris": {"ios": "https://dc.lft.to/lastmile_qr_scan", "android": "https://dc.lft.to/lastmile_qr_scan"}, "type": "electric_scooter", "name": "944305925ecb785c42c6d6301137b50c", "is_reserved": 0, "lon": -77.02948816666667, "is_disabled": 0, "fusion_lat": 0.0, "lat": 38.916712, "bike_id": "944305925ecb785c42c6d6301137b50c", "fusion_lon": 0.0}, {"rental_uris": {"ios": "https://dc.lft.to/lastmile_qr_scan", "android": "https://dc.lft.to/lastmile_qr_scan"}, "type": "electric_scooter", "name": "56765cc5f11eab7c7ebcc7eb8a0cf586", "is_reserved": 0, "lon": -77.006087, "is_disabled": 0, "fusion_lat": 0.0, "lat": 38.87834816666667, "bike_id": "56765cc5f11eab7c7ebcc7eb8a0cf586", "fusion_lon": 0.0}, {"rental_uris": {"ios": "https://dc.lft.to/lastmile_qr_scan", "android": "https://dc.lft.to/lastmile_qr_scan"}, "type": "electric_scooter", "name": "6024f2db51255017b0bb74f1dab60b35", "is_reserved": 0, "lon": -77.02825533333333, "is_disabled": 0, "fusion_lat": 0.0, "lat": 38.892453833333335, "bike_id": "6024f2db51255017b0bb74f1dab60b35", "fusion_lon": 0.0}, {"rental_uris": {"ios": "https://dc.lft.to/lastmile_qr_scan", "android": "https://dc.lft.to/lastmile_qr_scan"}, "type": "electric_scooter", "name": "941b32789667cb02b9cfb55b65582d25", "is_reserved": 0, "lon": -76.929412, "is_disabled": 0, "fusion_lat": 0.0, "lat": 38.90331783333333, "bike_id": "941b32789667cb02b9cfb55b65582d25", "fusion_lon": 0.0}, {"rental_uris": {"ios": "https://dc.lft.to/lastmile_qr_scan", "android": "https://dc.lft.to/lastmile_qr_scan"}, "type": "electric_scooter", "name": "d9e0373f39986019212e50f499fc9d14", "is_reserved": 0, "lon": -77.07158366666667, "is_disabled": 0, "fusion_lat": 0.0, "lat": 38.9075925, "bike_id": "d9e0373f39986019212e50f499fc9d14", "fusion_lon": 0.0}, {"rental_uris": {"ios": "https://dc.lft.to/lastmile_qr_scan", "android": "https://dc.lft.to/lastmile_qr_scan"}, "type": "electric_scooter", "name": "5d307354cdb971123c3d4d1a8c214924", "is_reserved": 0, "lon": -77.0633655, "is_disabled": 0, "fusion_lat": 0.0, "lat": 38.943627166666666, "bike_id": "5d307354cdb971123c3d4d1a8c214924", "fusion_lon": 0.0}, {"rental_uris": {"ios": "https://dc.lft.to/lastmile_qr_scan", "android": "https://dc.lft.to/lastmile_qr_scan"}, "type": "electric_bike", "name": "ee005e5f7885dcfb39b2aa678b18f8b2", "is_reserved": 0, "lon": -77.126524, "is_disabled": 0, "fusion_lat": 0.0, "lat": 38.8191055, "bike_id": "ee005e5f7885dcfb39b2aa678b18f8b2", "fusion_lon": 0.0}, {"rental_uris": {"ios": "https://dc.lft.to/lastmile_qr_scan", "android": "https://dc.lft.to/lastmile_qr_scan"}, "type": "electric_scooter", "name": "0a478e96abde3f5cfe794ed3efd393e3", "is_reserved": 0, "lon": -77.00549316666667, "is_disabled": 0, "fusion_lat": 0.0, "lat": 38.876379166666666, "bike_id": "0a478e96abde3f5cfe794ed3efd393e3", "fusion_lon": 0.0}, {"rental_uris": {"ios": "https://dc.lft.to/lastmile_qr_scan", "android": "https://dc.lft.to/lastmile_qr_scan"}, "type": "electric_scooter", "name": "577c6c3dccec889765173b8d7515d139", "is_reserved": 0, "lon": -76.985059, "is_disabled": 0, "fusion_lat": 0.0, "lat": 38.879978, "bike_id": "577c6c3dccec889765173b8d7515d139", "fusion_lon": 0.0}, {"rental_uris": {"ios": "https://dc.lft.to/lastmile_qr_scan", "android": "https://dc.lft.to/lastmile_qr_scan"}, "type": "electric_scooter", "name": "98d5d8135dca60dd15d255d7c51f4f32", "is_reserved": 0, "lon": -77.059161, "is_disabled": 0, "fusion_lat": 0.0, "lat": 38.9027735, "bike_id": "98d5d8135dca60dd15d255d7c51f4f32", "fusion_lon": 0.0}, {"rental_uris": {"ios": "https://dc.lft.to/lastmile_qr_scan", "android": "https://dc.lft.to/lastmile_qr_scan"}, "type": "electric_bike", "name": "0afa43fadf6b95c43bc99495b1554357", "is_reserved": 0, "lon": -77.08521416666666, "is_disabled": 0, "fusion_lat": 0.0, "lat": 38.856461833333334, "bike_id": "0afa43fadf6b95c43bc99495b1554357", "fusion_lon": 0.0}, {"rental_uris": {"ios": "https://dc.lft.to/lastmile_qr_scan", "android": "https://dc.lft.to/lastmile_qr_scan"}, "type": "electric_scooter", "name": "dae41411ff8c0e1d1e225108465d02d8", "is_reserved": 0, "lon": -77.03411433333333, "is_disabled": 0, "fusion_lat": 0.0, "lat": 38.9219855, "bike_id": "dae41411ff8c0e1d1e225108465d02d8", "fusion_lon": 0.0}, {"rental_uris": {"ios": "https://dc.lft.to/lastmile_qr_scan", "android": "https://dc.lft.to/lastmile_qr_scan"}, "type": "electric_scooter", "name": "034f17d96fb87939227f55520bfcf4d5", "is_reserved": 0, "lon": -77.06627983333334, "is_disabled": 0, "fusion_lat": 0.0, "lat": 38.90525016666667, "bike_id": "034f17d96fb87939227f55520bfcf4d5", "fusion_lon": 0.0}, {"rental_uris": {"ios": "https://dc.lft.to/lastmile_qr_scan", "android": "https://dc.lft.to/lastmile_qr_scan"}, "type": "electric_scooter", "name": "ccb958c815a44463dc69516bd3127352", "is_reserved": 0, "lon": -77.0249835, "is_disabled": 0, "fusion_lat": 0.0, "lat": 38.935431666666666, "bike_id": "ccb958c815a44463dc69516bd3127352", "fusion_lon": 0.0}, {"rental_uris": {"ios": "https://dc.lft.to/lastmile_qr_scan", "android": "https://dc.lft.to/lastmile_qr_scan"}, "type": "electric_bike", "name": "d88608ef2a8f5d5192cd8baeb0012ff1", "is_reserved": 0, "lon": -76.91803833333333, "is_disabled": 0, "fusion_lat": 0.0, "lat": 38.999975166666665, "bike_id": "d88608ef2a8f5d5192cd8baeb0012ff1", "fusion_lon": 0.0}, {"rental_uris": {"ios": "https://dc.lft.to/lastmile_qr_scan", "android": "https://dc.lft.to/lastmile_qr_scan"}, "type": "electric_scooter", "name": "1165d0018860b8f2b62f12872fdf9dbb", "is_reserved": 0, "lon": -77.03635833333334, "is_disabled": 0, "fusion_lat": 0.0, "lat": 38.923072833333336, "bike_id": "1165d0018860b8f2b62f12872fdf9dbb", "fusion_lon": 0.0}, {"rental_uris": {"ios": "https://dc.lft.to/lastmile_qr_scan", "android": "https://dc.lft.to/lastmile_qr_scan"}, "type": "electric_scooter", "name": "b9397968938f73a1c9817bb731cf3b26", "is_reserved": 0, "lon": -77.02692866666666, "is_disabled": 0, "fusion_lat": 0.0, "lat": 38.9084215, "bike_id": "b9397968938f73a1c9817bb731cf3b26", "fusion_lon": 0.0}, {"rental_uris": {"ios": "https://dc.lft.to/lastmile_qr_scan", "android": "https://dc.lft.to/lastmile_qr_scan"}, "type": "electric_scooter", "name": "3d731b0021be1ddf6a3c5833390e9956", "is_reserved": 0, "lon": -77.0473955, "is_disabled": 0, "fusion_lat": 0.0, "lat": 38.91775033333333, "bike_id": "3d731b0021be1ddf6a3c5833390e9956", "fusion_lon": 0.0}, {"rental_uris": {"ios": "https://dc.lft.to/lastmile_qr_scan", "android": "https://dc.lft.to/lastmile_qr_scan"}, "type": "electric_scooter", "name": "b4cc1a89b4a0f6a95f3a5fb9fca1fe15", "is_reserved": 0, "lon": -77.0263265, "is_disabled": 0, "fusion_lat": 0.0, "lat": 38.924784833333334, "bike_id": "b4cc1a89b4a0f6a95f3a5fb9fca1fe15", "fusion_lon": 0.0}, {"rental_uris": {"ios": "https://dc.lft.to/lastmile_qr_scan", "android": "https://dc.lft.to/lastmile_qr_scan"}, "type": "electric_bike", "name": "825cc113ec59d5f76a0ae84419699969", "is_reserved": 0, "lon": -77.01700366666667, "is_disabled": 0, "fusion_lat": 0.0, "lat": 38.914338, "bike_id": "825cc113ec59d5f76a0ae84419699969", "fusion_lon": 0.0}, {"rental_uris": {"ios": "https://dc.lft.to/lastmile_qr_scan", "android": "https://dc.lft.to/lastmile_qr_scan"}, "type": "electric_bike", "name": "ec508ff3e2757119092f760c1aa6970f", "is_reserved": 0, "lon": -76.98346166666667, "is_disabled": 0, "fusion_lat": 0.0, "lat": 38.862593333333336, "bike_id": "ec508ff3e2757119092f760c1aa6970f", "fusion_lon": 0.0}, {"rental_uris": {"ios": "https://dc.lft.to/lastmile_qr_scan", "android": "https://dc.lft.to/lastmile_qr_scan"}, "type": "electric_scooter", "name": "662983ab1efd03d5a2b64880b12bbd26", "is_reserved": 0, "lon": -76.99490616666667, "is_disabled": 0, "fusion_lat": 0.0, "lat": 38.88231616666667, "bike_id": "662983ab1efd03d5a2b64880b12bbd26", "fusion_lon": 0.0}, {"rental_uris": {"ios": "https://dc.lft.to/lastmile_qr_scan", "android": "https://dc.lft.to/lastmile_qr_scan"}, "type": "electric_scooter", "name": "9bceed9b0b5cf076e68b51eff83dd755", "is_reserved": 0, "lon": -77.04164883333333, "is_disabled": 0, "fusion_lat": 0.0, "lat": 38.911913, "bike_id": "9bceed9b0b5cf076e68b51eff83dd755", "fusion_lon": 0.0}, {"rental_uris": {"ios": "https://dc.lft.to/lastmile_qr_scan", "android": "https://dc.lft.to/lastmile_qr_scan"}, "type": "electric_bike", "name": "1ea7e1f8134a62f49229b89db2cfbfca", "is_reserved": 0, "lon": -77.12909666666667, "is_disabled": 0, "fusion_lat": 0.0, "lat": 38.79972433333333, "bike_id": "1ea7e1f8134a62f49229b89db2cfbfca", "fusion_lon": 0.0}, {"rental_uris": {"ios": "https://dc.lft.to/lastmile_qr_scan", "android": "https://dc.lft.to/lastmile_qr_scan"}, "type": "electric_scooter", "name": "e54e4022befd9421061e0e2038e5e3c9", "is_reserved": 0, "lon": -77.00638166666667, "is_disabled": 0, "fusion_lat": 0.0, "lat": 38.876668, "bike_id": "e54e4022befd9421061e0e2038e5e3c9", "fusion_lon": 0.0}, {"rental_uris": {"ios": "https://dc.lft.to/lastmile_qr_scan", "android": "https://dc.lft.to/lastmile_qr_scan"}, "type": "electric_scooter", "name": "2301639ee067302e5846a460247ece3f", "is_reserved": 0, "lon": -77.0435725, "is_disabled": 0, "fusion_lat": 0.0, "lat": 38.922525, "bike_id": "2301639ee067302e5846a460247ece3f", "fusion_lon": 0.0}, {"rental_uris": {"ios": "https://dc.lft.to/lastmile_qr_scan", "android": "https://dc.lft.to/lastmile_qr_scan"}, "type": "electric_scooter", "name": "1328bda2f7627c64798ff6c5641bb746", "is_reserved": 0, "lon": -77.021823, "is_disabled": 0, "fusion_lat": 0.0, "lat": 38.910908666666664, "bike_id": "1328bda2f7627c64798ff6c5641bb746", "fusion_lon": 0.0}, {"rental_uris": {"ios": "https://dc.lft.to/lastmile_qr_scan", "android": "https://dc.lft.to/lastmile_qr_scan"}, "type": "electric_scooter", "name": "4bb4d18bf71df91ca7202476744b7b09", "is_reserved": 0, "lon": -76.98696483333333, "is_disabled": 0, "fusion_lat": 0.0, "lat": 38.912950333333335, "bike_id": "4bb4d18bf71df91ca7202476744b7b09", "fusion_lon": 0.0}, {"rental_uris": {"ios": "https://dc.lft.to/lastmile_qr_scan", "android": "https://dc.lft.to/lastmile_qr_scan"}, "type": "electric_scooter", "name": "5e42dc16193efe65d739d47690168449", "is_reserved": 0, "lon": -77.036361, "is_disabled": 0, "fusion_lat": 0.0, "lat": 38.906312, "bike_id": "5e42dc16193efe65d739d47690168449", "fusion_lon": 0.0}, {"rental_uris": {"ios": "https://dc.lft.to/lastmile_qr_scan", "android": "https://dc.lft.to/lastmile_qr_scan"}, "type": "electric_scooter", "name": "79f3aeb08ffc988eec5c019201f5ba1c", "is_reserved": 0, "lon": -77.016464, "is_disabled": 0, "fusion_lat": 0.0, "lat": 38.92938933333333, "bike_id": "79f3aeb08ffc988eec5c019201f5ba1c", "fusion_lon": 0.0}, {"rental_uris": {"ios": "https://dc.lft.to/lastmile_qr_scan", "android": "https://dc.lft.to/lastmile_qr_scan"}, "type": "electric_scooter", "name": "12a56f21c38b3875f8d48df958e0242e", "is_reserved": 0, "lon": -77.0434575, "is_disabled": 0, "fusion_lat": 0.0, "lat": 38.921414666666664, "bike_id": "12a56f21c38b3875f8d48df958e0242e", "fusion_lon": 0.0}, {"rental_uris": {"ios": "https://dc.lft.to/lastmile_qr_scan", "android": "https://dc.lft.to/lastmile_qr_scan"}, "type": "electric_scooter", "name": "89d7177d6899727538ba57d9beae024c", "is_reserved": 0, "lon": -77.03253483333333, "is_disabled": 0, "fusion_lat": 0.0, "lat": 38.929239, "bike_id": "89d7177d6899727538ba57d9beae024c", "fusion_lon": 0.0}, {"rental_uris": {"ios": "https://dc.lft.to/lastmile_qr_scan", "android": "https://dc.lft.to/lastmile_qr_scan"}, "type": "electric_scooter", "name": "125e8bfbb46b75b31abe65c1f1ada66e", "is_reserved": 0, "lon": -77.05299016666666, "is_disabled": 0, "fusion_lat": 0.0, "lat": 38.902642166666666, "bike_id": "125e8bfbb46b75b31abe65c1f1ada66e", "fusion_lon": 0.0}, {"rental_uris": {"ios": "https://dc.lft.to/lastmile_qr_scan", "android": "https://dc.lft.to/lastmile_qr_scan"}, "type": "electric_scooter", "name": "50e03d6475467f92798713d6aac491c0", "is_reserved": 0, "lon": -77.02876983333333, "is_disabled": 0, "fusion_lat": 0.0, "lat": 38.903206833333336, "bike_id": "50e03d6475467f92798713d6aac491c0", "fusion_lon": 0.0}, {"rental_uris": {"ios": "https://dc.lft.to/lastmile_qr_scan", "android": "https://dc.lft.to/lastmile_qr_scan"}, "type": "electric_scooter", "name": "58af27febe4644f4d5f71a0c4916b516", "is_reserved": 0, "lon": -77.02705566666667, "is_disabled": 0, "fusion_lat": 0.0, "lat": 38.8998645, "bike_id": "58af27febe4644f4d5f71a0c4916b516", "fusion_lon": 0.0}, {"rental_uris": {"ios": "https://dc.lft.to/lastmile_qr_scan", "android": "https://dc.lft.to/lastmile_qr_scan"}, "type": "electric_bike", "name": "e4c6db11171a4af6b47d85bf8b19bcdd", "is_reserved": 0, "lon": -77.02024066666667, "is_disabled": 0, "fusion_lat": 0.0, "lat": 38.965582833333336, "bike_id": "e4c6db11171a4af6b47d85bf8b19bcdd", "fusion_lon": 0.0}, {"rental_uris": {"ios": "https://dc.lft.to/lastmile_qr_scan", "android": "https://dc.lft.to/lastmile_qr_scan"}, "type": "electric_scooter", "name": "3feff8df0ed2a76fb3134ef3dbbda965", "is_reserved": 0, "lon": -77.0143825, "is_disabled": 0, "fusion_lat": 0.0, "lat": 38.90236183333333, "bike_id": "3feff8df0ed2a76fb3134ef3dbbda965", "fusion_lon": 0.0}, {"rental_uris": {"ios": "https://dc.lft.to/lastmile_qr_scan", "android": "https://dc.lft.to/lastmile_qr_scan"}, "type": "electric_scooter", "name": "422088a84e97afbedc0386b17188779d", "is_reserved": 0, "lon": -77.05406783333333, "is_disabled": 0, "fusion_lat": 0.0, "lat": 38.90073483333333, "bike_id": "422088a84e97afbedc0386b17188779d", "fusion_lon": 0.0}, {"rental_uris": {"ios": "https://dc.lft.to/lastmile_qr_scan", "android": "https://dc.lft.to/lastmile_qr_scan"}, "type": "electric_scooter", "name": "1273561dd0b65eca9b5fd0f41f7ba7b3", "is_reserved": 0, "lon": -77.0269545, "is_disabled": 0, "fusion_lat": 0.0, "lat": 38.90533816666667, "bike_id": "1273561dd0b65eca9b5fd0f41f7ba7b3", "fusion_lon": 0.0}, {"rental_uris": {"ios": "https://dc.lft.to/lastmile_qr_scan", "android": "https://dc.lft.to/lastmile_qr_scan"}, "type": "electric_scooter", "name": "2ef8e439e3e7a8a5ed31e3a4323d11cf", "is_reserved": 0, "lon": -77.0572315, "is_disabled": 0, "fusion_lat": 0.0, "lat": 38.933581, "bike_id": "2ef8e439e3e7a8a5ed31e3a4323d11cf", "fusion_lon": 0.0}, {"rental_uris": {"ios": "https://dc.lft.to/lastmile_qr_scan", "android": "https://dc.lft.to/lastmile_qr_scan"}, "type": "electric_scooter", "name": "c86cfe30911f7273159c434c91d49057", "is_reserved": 0, "lon": -77.00056516666666, "is_disabled": 0, "fusion_lat": 0.0, "lat": 38.876813166666665, "bike_id": "c86cfe30911f7273159c434c91d49057", "fusion_lon": 0.0}, {"rental_uris": {"ios": "https://dc.lft.to/lastmile_qr_scan", "android": "https://dc.lft.to/lastmile_qr_scan"}, "type": "electric_scooter", "name": "95231d2b3d3d9843c382c1a62cff0783", "is_reserved": 0, "lon": -76.932165, "is_disabled": 0, "fusion_lat": 0.0, "lat": 38.880613, "bike_id": "95231d2b3d3d9843c382c1a62cff0783", "fusion_lon": 0.0}, {"rental_uris": {"ios": "https://dc.lft.to/lastmile_qr_scan", "android": "https://dc.lft.to/lastmile_qr_scan"}, "type": "electric_scooter", "name": "c774722b79177116ac5d0e020dd8b58a", "is_reserved": 0, "lon": -77.03470233333333, "is_disabled": 0, "fusion_lat": 0.0, "lat": 38.907294666666665, "bike_id": "c774722b79177116ac5d0e020dd8b58a", "fusion_lon": 0.0}, {"rental_uris": {"ios": "https://dc.lft.to/lastmile_qr_scan", "android": "https://dc.lft.to/lastmile_qr_scan"}, "type": "electric_scooter", "name": "c2d844e11d22672be061fc30f247bc74", "is_reserved": 0, "lon": -77.02500616666667, "is_disabled": 0, "fusion_lat": 0.0, "lat": 38.92019633333334, "bike_id": "c2d844e11d22672be061fc30f247bc74", "fusion_lon": 0.0}, {"rental_uris": {"ios": "https://dc.lft.to/lastmile_qr_scan", "android": "https://dc.lft.to/lastmile_qr_scan"}, "type": "electric_scooter", "name": "ca8aa159a7f2f8de7d1b12bbcb9ac0ca", "is_reserved": 0, "lon": -77.0413615, "is_disabled": 0, "fusion_lat": 0.0, "lat": 38.893491, "bike_id": "ca8aa159a7f2f8de7d1b12bbcb9ac0ca", "fusion_lon": 0.0}, {"rental_uris": {"ios": "https://dc.lft.to/lastmile_qr_scan", "android": "https://dc.lft.to/lastmile_qr_scan"}, "type": "electric_scooter", "name": "19498d438de513201801327d9fbff4fa", "is_reserved": 0, "lon": -77.04890566666667, "is_disabled": 0, "fusion_lat": 0.0, "lat": 38.91628083333333, "bike_id": "19498d438de513201801327d9fbff4fa", "fusion_lon": 0.0}, {"rental_uris": {"ios": "https://dc.lft.to/lastmile_qr_scan", "android": "https://dc.lft.to/lastmile_qr_scan"}, "type": "electric_scooter", "name": "96f762d39036751599260472d15aa28f", "is_reserved": 0, "lon": -76.99912516666667, "is_disabled": 0, "fusion_lat": 0.0, "lat": 38.924591, "bike_id": "96f762d39036751599260472d15aa28f", "fusion_lon": 0.0}, {"rental_uris": {"ios": "https://dc.lft.to/lastmile_qr_scan", "android": "https://dc.lft.to/lastmile_qr_scan"}, "type": "electric_bike", "name": "6edfd5bb29dae07ea91726425d8875a8", "is_reserved": 0, "lon": -76.90733533333334, "is_disabled": 0, "fusion_lat": 0.0, "lat": 38.896163666666666, "bike_id": "6edfd5bb29dae07ea91726425d8875a8", "fusion_lon": 0.0}, {"rental_uris": {"ios": "https://dc.lft.to/lastmile_qr_scan", "android": "https://dc.lft.to/lastmile_qr_scan"}, "type": "electric_scooter", "name": "dcd656b2233d8bb75126990caf0aa560", "is_reserved": 0, "lon": -77.03192583333333, "is_disabled": 0, "fusion_lat": 0.0, "lat": 38.8847165, "bike_id": "dcd656b2233d8bb75126990caf0aa560", "fusion_lon": 0.0}, {"rental_uris": {"ios": "https://dc.lft.to/lastmile_qr_scan", "android": "https://dc.lft.to/lastmile_qr_scan"}, "type": "electric_scooter", "name": "84f656c6f592ac53eee7b9233305b4f7", "is_reserved": 0, "lon": -77.02970366666666, "is_disabled": 0, "fusion_lat": 0.0, "lat": 38.91681416666667, "bike_id": "84f656c6f592ac53eee7b9233305b4f7", "fusion_lon": 0.0}, {"rental_uris": {"ios": "https://dc.lft.to/lastmile_qr_scan", "android": "https://dc.lft.to/lastmile_qr_scan"}, "type": "electric_scooter", "name": "ef4a5cc025f144dc99b48be7c5f035c5", "is_reserved": 0, "lon": -77.008276, "is_disabled": 0, "fusion_lat": 0.0, "lat": 38.913660166666666, "bike_id": "ef4a5cc025f144dc99b48be7c5f035c5", "fusion_lon": 0.0}, {"rental_uris": {"ios": "https://dc.lft.to/lastmile_qr_scan", "android": "https://dc.lft.to/lastmile_qr_scan"}, "type": "electric_scooter", "name": "e9154b3969052778f851bdcca9febfbb", "is_reserved": 0, "lon": -77.03262833333334, "is_disabled": 0, "fusion_lat": 0.0, "lat": 38.93377433333333, "bike_id": "e9154b3969052778f851bdcca9febfbb", "fusion_lon": 0.0}, {"rental_uris": {"ios": "https://dc.lft.to/lastmile_qr_scan", "android": "https://dc.lft.to/lastmile_qr_scan"}, "type": "electric_scooter", "name": "769ccbfb12578767e9a5aa8e8c87397d", "is_reserved": 0, "lon": -77.02615733333333, "is_disabled": 0, "fusion_lat": 0.0, "lat": 38.881002, "bike_id": "769ccbfb12578767e9a5aa8e8c87397d", "fusion_lon": 0.0}, {"rental_uris": {"ios": "https://dc.lft.to/lastmile_qr_scan", "android": "https://dc.lft.to/lastmile_qr_scan"}, "type": "electric_scooter", "name": "fde118e5f92e98dd05c73c7dbe2b1229", "is_reserved": 0, "lon": -77.026222, "is_disabled": 0, "fusion_lat": 0.0, "lat": 38.9037255, "bike_id": "fde118e5f92e98dd05c73c7dbe2b1229", "fusion_lon": 0.0}, {"rental_uris": {"ios": "https://dc.lft.to/lastmile_qr_scan", "android": "https://dc.lft.to/lastmile_qr_scan"}, "type": "electric_scooter", "name": "60fc327d5769ff31ca184c199f32e9ae", "is_reserved": 0, "lon": -77.03833616666667, "is_disabled": 0, "fusion_lat": 0.0, "lat": 38.93138666666667, "bike_id": "60fc327d5769ff31ca184c199f32e9ae", "fusion_lon": 0.0}, {"rental_uris": {"ios": "https://dc.lft.to/lastmile_qr_scan", "android": "https://dc.lft.to/lastmile_qr_scan"}, "type": "electric_scooter", "name": "570eb00029c21c245b5df9f4939287b5", "is_reserved": 0, "lon": -77.034527, "is_disabled": 0, "fusion_lat": 0.0, "lat": 38.901113333333335, "bike_id": "570eb00029c21c245b5df9f4939287b5", "fusion_lon": 0.0}, {"rental_uris": {"ios": "https://dc.lft.to/lastmile_qr_scan", "android": "https://dc.lft.to/lastmile_qr_scan"}, "type": "electric_scooter", "name": "5de90531cff5b63efe15d3fbd3c0b134", "is_reserved": 0, "lon": -77.01222033333333, "is_disabled": 0, "fusion_lat": 0.0, "lat": 38.86721083333333, "bike_id": "5de90531cff5b63efe15d3fbd3c0b134", "fusion_lon": 0.0}, {"rental_uris": {"ios": "https://dc.lft.to/lastmile_qr_scan", "android": "https://dc.lft.to/lastmile_qr_scan"}, "type": "electric_scooter", "name": "c0f95399e458c36c078b30fa493353b5", "is_reserved": 0, "lon": -76.99230333333334, "is_disabled": 0, "fusion_lat": 0.0, "lat": 38.887522, "bike_id": "c0f95399e458c36c078b30fa493353b5", "fusion_lon": 0.0}, {"rental_uris": {"ios": "https://dc.lft.to/lastmile_qr_scan", "android": "https://dc.lft.to/lastmile_qr_scan"}, "type": "electric_scooter", "name": "017999c52a5e8347a3215e1cbfde9bd0", "is_reserved": 0, "lon": -77.04888666666666, "is_disabled": 0, "fusion_lat": 0.0, "lat": 38.900659, "bike_id": "017999c52a5e8347a3215e1cbfde9bd0", "fusion_lon": 0.0}, {"rental_uris": {"ios": "https://dc.lft.to/lastmile_qr_scan", "android": "https://dc.lft.to/lastmile_qr_scan"}, "type": "electric_scooter", "name": "4a70e7ceedd43fc2ec7863e9368cd875", "is_reserved": 0, "lon": -77.03828833333333, "is_disabled": 0, "fusion_lat": 0.0, "lat": 38.907262833333334, "bike_id": "4a70e7ceedd43fc2ec7863e9368cd875", "fusion_lon": 0.0}, {"rental_uris": {"ios": "https://dc.lft.to/lastmile_qr_scan", "android": "https://dc.lft.to/lastmile_qr_scan"}, "type": "electric_scooter", "name": "0b7ab8460a08e01cbe2320b9612fee3d", "is_reserved": 0, "lon": -77.02841966666666, "is_disabled": 0, "fusion_lat": 0.0, "lat": 38.90443666666667, "bike_id": "0b7ab8460a08e01cbe2320b9612fee3d", "fusion_lon": 0.0}, {"rental_uris": {"ios": "https://dc.lft.to/lastmile_qr_scan", "android": "https://dc.lft.to/lastmile_qr_scan"}, "type": "electric_bike", "name": "66d241636cdab15b79edc4f78d7de9f7", "is_reserved": 0, "lon": -76.957363, "is_disabled": 0, "fusion_lat": 0.0, "lat": 38.88855366666667, "bike_id": "66d241636cdab15b79edc4f78d7de9f7", "fusion_lon": 0.0}, {"rental_uris": {"ios": "https://dc.lft.to/lastmile_qr_scan", "android": "https://dc.lft.to/lastmile_qr_scan"}, "type": "electric_scooter", "name": "464cad7a055c0f58a179a4db0183024f", "is_reserved": 0, "lon": -77.0306035, "is_disabled": 0, "fusion_lat": 0.0, "lat": 38.897119, "bike_id": "464cad7a055c0f58a179a4db0183024f", "fusion_lon": 0.0}, {"rental_uris": {"ios": "https://dc.lft.to/lastmile_qr_scan", "android": "https://dc.lft.to/lastmile_qr_scan"}, "type": "electric_scooter", "name": "74ff49305582c462d87a5ded37320055", "is_reserved": 0, "lon": -76.94716583333333, "is_disabled": 0, "fusion_lat": 0.0, "lat": 38.890831, "bike_id": "74ff49305582c462d87a5ded37320055", "fusion_lon": 0.0}, {"rental_uris": {"ios": "https://dc.lft.to/lastmile_qr_scan", "android": "https://dc.lft.to/lastmile_qr_scan"}, "type": "electric_scooter", "name": "2347a88046e5595535764895501713f6", "is_reserved": 0, "lon": -77.03138633333333, "is_disabled": 0, "fusion_lat": 0.0, "lat": 38.906361, "bike_id": "2347a88046e5595535764895501713f6", "fusion_lon": 0.0}, {"rental_uris": {"ios": "https://dc.lft.to/lastmile_qr_scan", "android": "https://dc.lft.to/lastmile_qr_scan"}, "type": "electric_scooter", "name": "3c9ea42b2ee8b6ad0605525b3204f2ba", "is_reserved": 0, "lon": -77.00121033333333, "is_disabled": 0, "fusion_lat": 0.0, "lat": 38.874861833333334, "bike_id": "3c9ea42b2ee8b6ad0605525b3204f2ba", "fusion_lon": 0.0}, {"rental_uris": {"ios": "https://dc.lft.to/lastmile_qr_scan", "android": "https://dc.lft.to/lastmile_qr_scan"}, "type": "electric_scooter", "name": "d53cc7ea54c6b8db2abb7faf37da7588", "is_reserved": 0, "lon": -77.00237566666667, "is_disabled": 0, "fusion_lat": 0.0, "lat": 38.9078585, "bike_id": "d53cc7ea54c6b8db2abb7faf37da7588", "fusion_lon": 0.0}, {"rental_uris": {"ios": "https://dc.lft.to/lastmile_qr_scan", "android": "https://dc.lft.to/lastmile_qr_scan"}, "type": "electric_scooter", "name": "0d6241d936baea5b1dddca99eb66cb7e", "is_reserved": 0, "lon": -77.03171633333334, "is_disabled": 0, "fusion_lat": 0.0, "lat": 38.90916216666667, "bike_id": "0d6241d936baea5b1dddca99eb66cb7e", "fusion_lon": 0.0}, {"rental_uris": {"ios": "https://dc.lft.to/lastmile_qr_scan", "android": "https://dc.lft.to/lastmile_qr_scan"}, "type": "electric_scooter", "name": "03ce17c920edf9df6ee164f6d351fa78", "is_reserved": 0, "lon": -77.00517266666667, "is_disabled": 0, "fusion_lat": 0.0, "lat": 38.89676216666667, "bike_id": "03ce17c920edf9df6ee164f6d351fa78", "fusion_lon": 0.0}, {"rental_uris": {"ios": "https://dc.lft.to/lastmile_qr_scan", "android": "https://dc.lft.to/lastmile_qr_scan"}, "type": "electric_scooter", "name": "45be06661444dbf6423c6b0ea2efd51e", "is_reserved": 0, "lon": -77.0296515, "is_disabled": 0, "fusion_lat": 0.0, "lat": 38.916805833333335, "bike_id": "45be06661444dbf6423c6b0ea2efd51e", "fusion_lon": 0.0}, {"rental_uris": {"ios": "https://dc.lft.to/lastmile_qr_scan", "android": "https://dc.lft.to/lastmile_qr_scan"}, "type": "electric_bike", "name": "f0c481e9f93c75b93413cfb9ef82b1a2", "is_reserved": 0, "lon": -77.089557, "is_disabled": 0, "fusion_lat": 0.0, "lat": 38.841058, "bike_id": "f0c481e9f93c75b93413cfb9ef82b1a2", "fusion_lon": 0.0}, {"rental_uris": {"ios": "https://dc.lft.to/lastmile_qr_scan", "android": "https://dc.lft.to/lastmile_qr_scan"}, "type": "electric_scooter", "name": "e5e6223ee75d28c8b713785ae6c77cbe", "is_reserved": 0, "lon": -76.97566583333334, "is_disabled": 0, "fusion_lat": 0.0, "lat": 38.94423483333333, "bike_id": "e5e6223ee75d28c8b713785ae6c77cbe", "fusion_lon": 0.0}, {"rental_uris": {"ios": "https://dc.lft.to/lastmile_qr_scan", "android": "https://dc.lft.to/lastmile_qr_scan"}, "type": "electric_scooter", "name": "eb0abfe81a5abf86ac2aa5a3d9c31477", "is_reserved": 0, "lon": -77.03385133333333, "is_disabled": 0, "fusion_lat": 0.0, "lat": 38.93737083333333, "bike_id": "eb0abfe81a5abf86ac2aa5a3d9c31477", "fusion_lon": 0.0}, {"rental_uris": {"ios": "https://dc.lft.to/lastmile_qr_scan", "android": "https://dc.lft.to/lastmile_qr_scan"}, "type": "electric_bike", "name": "97489112ac13fcf8a352d555f115a5b6", "is_reserved": 0, "lon": -77.00135, "is_disabled": 0, "fusion_lat": 0.0, "lat": 38.99496, "bike_id": "97489112ac13fcf8a352d555f115a5b6", "fusion_lon": 0.0}, {"rental_uris": {"ios": "https://dc.lft.to/lastmile_qr_scan", "android": "https://dc.lft.to/lastmile_qr_scan"}, "type": "electric_scooter", "name": "a304546a43ac9bd0c50f73bc0c1459a1", "is_reserved": 0, "lon": -77.05509033333334, "is_disabled": 0, "fusion_lat": 0.0, "lat": 38.928317, "bike_id": "a304546a43ac9bd0c50f73bc0c1459a1", "fusion_lon": 0.0}, {"rental_uris": {"ios": "https://dc.lft.to/lastmile_qr_scan", "android": "https://dc.lft.to/lastmile_qr_scan"}, "type": "electric_scooter", "name": "9d3561ec0c70e5d22be1812d965d5249", "is_reserved": 0, "lon": -77.060863, "is_disabled": 0, "fusion_lat": 0.0, "lat": 38.939861666666665, "bike_id": "9d3561ec0c70e5d22be1812d965d5249", "fusion_lon": 0.0}, {"rental_uris": {"ios": "https://dc.lft.to/lastmile_qr_scan", "android": "https://dc.lft.to/lastmile_qr_scan"}, "type": "electric_scooter", "name": "57d7a25e57182f9e7f6371ac42678f69", "is_reserved": 0, "lon": -76.93746383333334, "is_disabled": 0, "fusion_lat": 0.0, "lat": 38.890123833333334, "bike_id": "57d7a25e57182f9e7f6371ac42678f69", "fusion_lon": 0.0}, {"rental_uris": {"ios": "https://dc.lft.to/lastmile_qr_scan", "android": "https://dc.lft.to/lastmile_qr_scan"}, "type": "electric_scooter", "name": "e3190541387f3f4e8530136451785454", "is_reserved": 0, "lon": -77.02387133333333, "is_disabled": 0, "fusion_lat": 0.0, "lat": 38.93515716666667, "bike_id": "e3190541387f3f4e8530136451785454", "fusion_lon": 0.0}, {"rental_uris": {"ios": "https://dc.lft.to/lastmile_qr_scan", "android": "https://dc.lft.to/lastmile_qr_scan"}, "type": "electric_scooter", "name": "093b13bef12a38eea1a52948e676a138", "is_reserved": 0, "lon": -77.0318235, "is_disabled": 0, "fusion_lat": 0.0, "lat": 38.910968, "bike_id": "093b13bef12a38eea1a52948e676a138", "fusion_lon": 0.0}, {"rental_uris": {"ios": "https://dc.lft.to/lastmile_qr_scan", "android": "https://dc.lft.to/lastmile_qr_scan"}, "type": "electric_scooter", "name": "3b2ac8d506fa13ada44981d7de9f4c3e", "is_reserved": 0, "lon": -77.07325883333333, "is_disabled": 0, "fusion_lat": 0.0, "lat": 38.9608865, "bike_id": "3b2ac8d506fa13ada44981d7de9f4c3e", "fusion_lon": 0.0}, {"rental_uris": {"ios": "https://dc.lft.to/lastmile_qr_scan", "android": "https://dc.lft.to/lastmile_qr_scan"}, "type": "electric_bike", "name": "3906c8655587d7a1eb0298e398972122", "is_reserved": 0, "lon": -76.99246533333333, "is_disabled": 0, "fusion_lat": 0.0, "lat": 38.9606885, "bike_id": "3906c8655587d7a1eb0298e398972122", "fusion_lon": 0.0}, {"rental_uris": {"ios": "https://dc.lft.to/lastmile_qr_scan", "android": "https://dc.lft.to/lastmile_qr_scan"}, "type": "electric_scooter", "name": "39481c4775a5960d219738c428e07a64", "is_reserved": 0, "lon": -77.07162366666667, "is_disabled": 0, "fusion_lat": 0.0, "lat": 38.9076595, "bike_id": "39481c4775a5960d219738c428e07a64", "fusion_lon": 0.0}, {"rental_uris": {"ios": "https://dc.lft.to/lastmile_qr_scan", "android": "https://dc.lft.to/lastmile_qr_scan"}, "type": "electric_scooter", "name": "6aec5dd8d5120eb6a0f01dcf5088aa87", "is_reserved": 0, "lon": -77.03142466666667, "is_disabled": 0, "fusion_lat": 0.0, "lat": 38.88742883333333, "bike_id": "6aec5dd8d5120eb6a0f01dcf5088aa87", "fusion_lon": 0.0}, {"rental_uris": {"ios": "https://dc.lft.to/lastmile_qr_scan", "android": "https://dc.lft.to/lastmile_qr_scan"}, "type": "electric_scooter", "name": "d2e68f6422e06f940523d1ce6dbca06c", "is_reserved": 0, "lon": -76.9979205, "is_disabled": 0, "fusion_lat": 0.0, "lat": 38.87631833333333, "bike_id": "d2e68f6422e06f940523d1ce6dbca06c", "fusion_lon": 0.0}, {"rental_uris": {"ios": "https://dc.lft.to/lastmile_qr_scan", "android": "https://dc.lft.to/lastmile_qr_scan"}, "type": "electric_bike", "name": "2cc63f64cf70f5e06fd5583d5079b9eb", "is_reserved": 0, "lon": -76.95790083333333, "is_disabled": 0, "fusion_lat": 0.0, "lat": 38.98044616666667, "bike_id": "2cc63f64cf70f5e06fd5583d5079b9eb", "fusion_lon": 0.0}, {"rental_uris": {"ios": "https://dc.lft.to/lastmile_qr_scan", "android": "https://dc.lft.to/lastmile_qr_scan"}, "type": "electric_scooter", "name": "40277642feebfdaef66ae81e2ce9b491", "is_reserved": 0, "lon": -77.02107283333333, "is_disabled": 0, "fusion_lat": 0.0, "lat": 38.916023833333334, "bike_id": "40277642feebfdaef66ae81e2ce9b491", "fusion_lon": 0.0}, {"rental_uris": {"ios": "https://dc.lft.to/lastmile_qr_scan", "android": "https://dc.lft.to/lastmile_qr_scan"}, "type": "electric_scooter", "name": "7509999858935162ac92aadaf36961c9", "is_reserved": 0, "lon": -76.99901533333333, "is_disabled": 0, "fusion_lat": 0.0, "lat": 38.937454, "bike_id": "7509999858935162ac92aadaf36961c9", "fusion_lon": 0.0}, {"rental_uris": {"ios": "https://dc.lft.to/lastmile_qr_scan", "android": "https://dc.lft.to/lastmile_qr_scan"}, "type": "electric_scooter", "name": "369c7ac335f70a392d2aaebac9365d73", "is_reserved": 0, "lon": -77.0234835, "is_disabled": 0, "fusion_lat": 0.0, "lat": 38.93048533333334, "bike_id": "369c7ac335f70a392d2aaebac9365d73", "fusion_lon": 0.0}, {"rental_uris": {"ios": "https://dc.lft.to/lastmile_qr_scan", "android": "https://dc.lft.to/lastmile_qr_scan"}, "type": "electric_scooter", "name": "a8e0b17b5715bb17f408978b382d1bf7", "is_reserved": 0, "lon": -77.03466966666667, "is_disabled": 0, "fusion_lat": 0.0, "lat": 38.90967066666666, "bike_id": "a8e0b17b5715bb17f408978b382d1bf7", "fusion_lon": 0.0}, {"rental_uris": {"ios": "https://dc.lft.to/lastmile_qr_scan", "android": "https://dc.lft.to/lastmile_qr_scan"}, "type": "electric_scooter", "name": "9a7453fe95ac1a8ee6a7ec20c724505d", "is_reserved": 0, "lon": -76.98355816666667, "is_disabled": 0, "fusion_lat": 0.0, "lat": 38.88745683333333, "bike_id": "9a7453fe95ac1a8ee6a7ec20c724505d", "fusion_lon": 0.0}, {"rental_uris": {"ios": "https://dc.lft.to/lastmile_qr_scan", "android": "https://dc.lft.to/lastmile_qr_scan"}, "type": "electric_scooter", "name": "6a33e99b8f8acabbf5dafbb3b3205459", "is_reserved": 0, "lon": -77.02964666666666, "is_disabled": 0, "fusion_lat": 0.0, "lat": 38.90714416666667, "bike_id": "6a33e99b8f8acabbf5dafbb3b3205459", "fusion_lon": 0.0}, {"rental_uris": {"ios": "https://dc.lft.to/lastmile_qr_scan", "android": "https://dc.lft.to/lastmile_qr_scan"}, "type": "electric_scooter", "name": "a54c994005a0ed4c1d198c19f80c32c6", "is_reserved": 0, "lon": -77.038342, "is_disabled": 0, "fusion_lat": 0.0, "lat": 38.91170483333333, "bike_id": "a54c994005a0ed4c1d198c19f80c32c6", "fusion_lon": 0.0}, {"rental_uris": {"ios": "https://dc.lft.to/lastmile_qr_scan", "android": "https://dc.lft.to/lastmile_qr_scan"}, "type": "electric_bike", "name": "c829f08e8320ef38667e93d7d4eab731", "is_reserved": 0, "lon": -76.9868215, "is_disabled": 0, "fusion_lat": 0.0, "lat": 38.94472833333333, "bike_id": "c829f08e8320ef38667e93d7d4eab731", "fusion_lon": 0.0}, {"rental_uris": {"ios": "https://dc.lft.to/lastmile_qr_scan", "android": "https://dc.lft.to/lastmile_qr_scan"}, "type": "electric_scooter", "name": "8f6b8fd9c777ca15cfe5712cd16547bc", "is_reserved": 0, "lon": -77.00274516666667, "is_disabled": 0, "fusion_lat": 0.0, "lat": 38.88768783333333, "bike_id": "8f6b8fd9c777ca15cfe5712cd16547bc", "fusion_lon": 0.0}, {"rental_uris": {"ios": "https://dc.lft.to/lastmile_qr_scan", "android": "https://dc.lft.to/lastmile_qr_scan"}, "type": "electric_scooter", "name": "b3b83970eeb7ecd40f668b96932290e9", "is_reserved": 0, "lon": -77.04947483333333, "is_disabled": 0, "fusion_lat": 0.0, "lat": 38.91589666666667, "bike_id": "b3b83970eeb7ecd40f668b96932290e9", "fusion_lon": 0.0}, {"rental_uris": {"ios": "https://dc.lft.to/lastmile_qr_scan", "android": "https://dc.lft.to/lastmile_qr_scan"}, "type": "electric_scooter", "name": "b7cd84db187c2247057e9566b9a67989", "is_reserved": 0, "lon": -77.0447285, "is_disabled": 0, "fusion_lat": 0.0, "lat": 38.91604016666667, "bike_id": "b7cd84db187c2247057e9566b9a67989", "fusion_lon": 0.0}, {"rental_uris": {"ios": "https://dc.lft.to/lastmile_qr_scan", "android": "https://dc.lft.to/lastmile_qr_scan"}, "type": "electric_scooter", "name": "87a3f8efe006e995d81d7a7fd19767a6", "is_reserved": 0, "lon": -77.0229045, "is_disabled": 0, "fusion_lat": 0.0, "lat": 38.898624833333336, "bike_id": "87a3f8efe006e995d81d7a7fd19767a6", "fusion_lon": 0.0}, {"rental_uris": {"ios": "https://dc.lft.to/lastmile_qr_scan", "android": "https://dc.lft.to/lastmile_qr_scan"}, "type": "electric_bike", "name": "43623d19018536f8c2f7b97e1fcbbab0", "is_reserved": 0, "lon": -76.97315883333333, "is_disabled": 0, "fusion_lat": 0.0, "lat": 38.86513383333333, "bike_id": "43623d19018536f8c2f7b97e1fcbbab0", "fusion_lon": 0.0}, {"rental_uris": {"ios": "https://dc.lft.to/lastmile_qr_scan", "android": "https://dc.lft.to/lastmile_qr_scan"}, "type": "electric_scooter", "name": "16173010e13b2c09f4f479176b1b009e", "is_reserved": 0, "lon": -77.0318405, "is_disabled": 0, "fusion_lat": 0.0, "lat": 38.929080166666665, "bike_id": "16173010e13b2c09f4f479176b1b009e", "fusion_lon": 0.0}, {"rental_uris": {"ios": "https://dc.lft.to/lastmile_qr_scan", "android": "https://dc.lft.to/lastmile_qr_scan"}, "type": "electric_scooter", "name": "c7b2e9212f8f2509f2aaacddf759cc0d", "is_reserved": 0, "lon": -77.045288, "is_disabled": 0, "fusion_lat": 0.0, "lat": 38.91118516666667, "bike_id": "c7b2e9212f8f2509f2aaacddf759cc0d", "fusion_lon": 0.0}, {"rental_uris": {"ios": "https://dc.lft.to/lastmile_qr_scan", "android": "https://dc.lft.to/lastmile_qr_scan"}, "type": "electric_scooter", "name": "be90fee9c8591b2569ec556b147007b1", "is_reserved": 0, "lon": -77.0315005, "is_disabled": 0, "fusion_lat": 0.0, "lat": 38.905902, "bike_id": "be90fee9c8591b2569ec556b147007b1", "fusion_lon": 0.0}, {"rental_uris": {"ios": "https://dc.lft.to/lastmile_qr_scan", "android": "https://dc.lft.to/lastmile_qr_scan"}, "type": "electric_scooter", "name": "af24708696456371ce96b583dccc59e7", "is_reserved": 0, "lon": -77.00212366666666, "is_disabled": 0, "fusion_lat": 0.0, "lat": 38.8945185, "bike_id": "af24708696456371ce96b583dccc59e7", "fusion_lon": 0.0}, {"rental_uris": {"ios": "https://dc.lft.to/lastmile_qr_scan", "android": "https://dc.lft.to/lastmile_qr_scan"}, "type": "electric_scooter", "name": "3cc9949fa9e77ff43f480ba73d68840b", "is_reserved": 0, "lon": -76.98531616666666, "is_disabled": 0, "fusion_lat": 0.0, "lat": 38.85851366666667, "bike_id": "3cc9949fa9e77ff43f480ba73d68840b", "fusion_lon": 0.0}, {"rental_uris": {"ios": "https://dc.lft.to/lastmile_qr_scan", "android": "https://dc.lft.to/lastmile_qr_scan"}, "type": "electric_scooter", "name": "bfc7e028aab5d50315045e00205630cd", "is_reserved": 0, "lon": -77.03168483333333, "is_disabled": 0, "fusion_lat": 0.0, "lat": 38.89458666666667, "bike_id": "bfc7e028aab5d50315045e00205630cd", "fusion_lon": 0.0}, {"rental_uris": {"ios": "https://dc.lft.to/lastmile_qr_scan", "android": "https://dc.lft.to/lastmile_qr_scan"}, "type": "electric_bike", "name": "509f4bbdd2066b318f0ddac29c155497", "is_reserved": 0, "lon": -77.10077083333333, "is_disabled": 0, "fusion_lat": 0.0, "lat": 38.857348333333334, "bike_id": "509f4bbdd2066b318f0ddac29c155497", "fusion_lon": 0.0}, {"rental_uris": {"ios": "https://dc.lft.to/lastmile_qr_scan", "android": "https://dc.lft.to/lastmile_qr_scan"}, "type": "electric_scooter", "name": "33149197882984c8cd05bb354dfa1481", "is_reserved": 0, "lon": -77.03376216666666, "is_disabled": 0, "fusion_lat": 0.0, "lat": 38.9386, "bike_id": "33149197882984c8cd05bb354dfa1481", "fusion_lon": 0.0}, {"rental_uris": {"ios": "https://dc.lft.to/lastmile_qr_scan", "android": "https://dc.lft.to/lastmile_qr_scan"}, "type": "electric_scooter", "name": "c856deb946317cdc98ea563a39a7138a", "is_reserved": 0, "lon": -76.982594, "is_disabled": 0, "fusion_lat": 0.0, "lat": 38.8662915, "bike_id": "c856deb946317cdc98ea563a39a7138a", "fusion_lon": 0.0}, {"rental_uris": {"ios": "https://dc.lft.to/lastmile_qr_scan", "android": "https://dc.lft.to/lastmile_qr_scan"}, "type": "electric_scooter", "name": "05e0edd2d0dfea10a74d73a5f9c2cbd6", "is_reserved": 0, "lon": -77.0265925, "is_disabled": 0, "fusion_lat": 0.0, "lat": 38.92216233333333, "bike_id": "05e0edd2d0dfea10a74d73a5f9c2cbd6", "fusion_lon": 0.0}, {"rental_uris": {"ios": "https://dc.lft.to/lastmile_qr_scan", "android": "https://dc.lft.to/lastmile_qr_scan"}, "type": "electric_scooter", "name": "1514be2d9a05a7522774492f8cda9f31", "is_reserved": 0, "lon": -77.06551716666667, "is_disabled": 0, "fusion_lat": 0.0, "lat": 38.911713666666664, "bike_id": "1514be2d9a05a7522774492f8cda9f31", "fusion_lon": 0.0}, {"rental_uris": {"ios": "https://dc.lft.to/lastmile_qr_scan", "android": "https://dc.lft.to/lastmile_qr_scan"}, "type": "electric_scooter", "name": "88d90a3fb59ab0cefb1f9bfa9cc570cf", "is_reserved": 0, "lon": -77.043436, "is_disabled": 0, "fusion_lat": 0.0, "lat": 38.9235035, "bike_id": "88d90a3fb59ab0cefb1f9bfa9cc570cf", "fusion_lon": 0.0}, {"rental_uris": {"ios": "https://dc.lft.to/lastmile_qr_scan", "android": "https://dc.lft.to/lastmile_qr_scan"}, "type": "electric_scooter", "name": "53fd25e0d47f87fbca9fa25e62ee3b7d", "is_reserved": 0, "lon": -77.02135533333333, "is_disabled": 0, "fusion_lat": 0.0, "lat": 38.89726233333333, "bike_id": "53fd25e0d47f87fbca9fa25e62ee3b7d", "fusion_lon": 0.0}, {"rental_uris": {"ios": "https://dc.lft.to/lastmile_qr_scan", "android": "https://dc.lft.to/lastmile_qr_scan"}, "type": "electric_bike", "name": "c6fe71d76be62d6f517933d8e08d30d9", "is_reserved": 0, "lon": -77.02004566666666, "is_disabled": 0, "fusion_lat": 0.0, "lat": 38.964405666666664, "bike_id": "c6fe71d76be62d6f517933d8e08d30d9", "fusion_lon": 0.0}, {"rental_uris": {"ios": "https://dc.lft.to/lastmile_qr_scan", "android": "https://dc.lft.to/lastmile_qr_scan"}, "type": "electric_scooter", "name": "ce3eaf6824998b3912a7b9d13d3b5442", "is_reserved": 0, "lon": -77.02127433333334, "is_disabled": 0, "fusion_lat": 0.0, "lat": 38.92694133333333, "bike_id": "ce3eaf6824998b3912a7b9d13d3b5442", "fusion_lon": 0.0}, {"rental_uris": {"ios": "https://dc.lft.to/lastmile_qr_scan", "android": "https://dc.lft.to/lastmile_qr_scan"}, "type": "electric_scooter", "name": "a0e35e5a55bb154c8bfecb2fbe9deb66", "is_reserved": 0, "lon": -77.04719933333334, "is_disabled": 0, "fusion_lat": 0.0, "lat": 38.917895333333334, "bike_id": "a0e35e5a55bb154c8bfecb2fbe9deb66", "fusion_lon": 0.0}, {"rental_uris": {"ios": "https://dc.lft.to/lastmile_qr_scan", "android": "https://dc.lft.to/lastmile_qr_scan"}, "type": "electric_scooter", "name": "ad6b83ccc9545c9baa4e19ac3e7753cb", "is_reserved": 0, "lon": -77.02331966666667, "is_disabled": 0, "fusion_lat": 0.0, "lat": 38.92303783333333, "bike_id": "ad6b83ccc9545c9baa4e19ac3e7753cb", "fusion_lon": 0.0}, {"rental_uris": {"ios": "https://dc.lft.to/lastmile_qr_scan", "android": "https://dc.lft.to/lastmile_qr_scan"}, "type": "electric_scooter", "name": "c480fa827a5ce1b823dd9fb0a4d399db", "is_reserved": 0, "lon": -77.02607883333333, "is_disabled": 0, "fusion_lat": 0.0, "lat": 38.916909833333335, "bike_id": "c480fa827a5ce1b823dd9fb0a4d399db", "fusion_lon": 0.0}, {"rental_uris": {"ios": "https://dc.lft.to/lastmile_qr_scan", "android": "https://dc.lft.to/lastmile_qr_scan"}, "type": "electric_scooter", "name": "7e0fda39514d235c6e841950457f88ea", "is_reserved": 0, "lon": -76.983526, "is_disabled": 0, "fusion_lat": 0.0, "lat": 38.8874175, "bike_id": "7e0fda39514d235c6e841950457f88ea", "fusion_lon": 0.0}, {"rental_uris": {"ios": "https://dc.lft.to/lastmile_qr_scan", "android": "https://dc.lft.to/lastmile_qr_scan"}, "type": "electric_scooter", "name": "45ec85cb1d8b4110df090146ed763289", "is_reserved": 0, "lon": -76.97644516666666, "is_disabled": 0, "fusion_lat": 0.0, "lat": 38.887462, "bike_id": "45ec85cb1d8b4110df090146ed763289", "fusion_lon": 0.0}, {"rental_uris": {"ios": "https://dc.lft.to/lastmile_qr_scan", "android": "https://dc.lft.to/lastmile_qr_scan"}, "type": "electric_bike", "name": "eeab33e351d79aa5cd5b0bc6b1b3963e", "is_reserved": 0, "lon": -76.95247583333334, "is_disabled": 0, "fusion_lat": 0.0, "lat": 38.906969, "bike_id": "eeab33e351d79aa5cd5b0bc6b1b3963e", "fusion_lon": 0.0}, {"rental_uris": {"ios": "https://dc.lft.to/lastmile_qr_scan", "android": "https://dc.lft.to/lastmile_qr_scan"}, "type": "electric_scooter", "name": "61ce0dd996cc1528a8c8338effc02b3b", "is_reserved": 0, "lon": -77.0347615, "is_disabled": 0, "fusion_lat": 0.0, "lat": 38.906746, "bike_id": "61ce0dd996cc1528a8c8338effc02b3b", "fusion_lon": 0.0}, {"rental_uris": {"ios": "https://dc.lft.to/lastmile_qr_scan", "android": "https://dc.lft.to/lastmile_qr_scan"}, "type": "electric_scooter", "name": "e12ac8b748b971f19f569f966aa8b838", "is_reserved": 0, "lon": -77.00624833333333, "is_disabled": 0, "fusion_lat": 0.0, "lat": 38.871731833333335, "bike_id": "e12ac8b748b971f19f569f966aa8b838", "fusion_lon": 0.0}, {"rental_uris": {"ios": "https://dc.lft.to/lastmile_qr_scan", "android": "https://dc.lft.to/lastmile_qr_scan"}, "type": "electric_scooter", "name": "c9c57d6a4d591b4aa905fddedfa313ea", "is_reserved": 0, "lon": -77.06370566666666, "is_disabled": 0, "fusion_lat": 0.0, "lat": 38.93559333333333, "bike_id": "c9c57d6a4d591b4aa905fddedfa313ea", "fusion_lon": 0.0}, {"rental_uris": {"ios": "https://dc.lft.to/lastmile_qr_scan", "android": "https://dc.lft.to/lastmile_qr_scan"}, "type": "electric_scooter", "name": "697484fa21d3aa297c281ed6159a1e16", "is_reserved": 0, "lon": -77.03586016666667, "is_disabled": 0, "fusion_lat": 0.0, "lat": 38.927809833333335, "bike_id": "697484fa21d3aa297c281ed6159a1e16", "fusion_lon": 0.0}, {"rental_uris": {"ios": "https://dc.lft.to/lastmile_qr_scan", "android": "https://dc.lft.to/lastmile_qr_scan"}, "type": "electric_bike", "name": "62384220550b501c285b3a37c1435b91", "is_reserved": 0, "lon": -77.02451466666666, "is_disabled": 0, "fusion_lat": 0.0, "lat": 38.95728033333333, "bike_id": "62384220550b501c285b3a37c1435b91", "fusion_lon": 0.0}, {"rental_uris": {"ios": "https://dc.lft.to/lastmile_qr_scan", "android": "https://dc.lft.to/lastmile_qr_scan"}, "type": "electric_scooter", "name": "badc5ec0511f78ef5eeb459d31350451", "is_reserved": 0, "lon": -77.038128, "is_disabled": 0, "fusion_lat": 0.0, "lat": 38.931112666666664, "bike_id": "badc5ec0511f78ef5eeb459d31350451", "fusion_lon": 0.0}, {"rental_uris": {"ios": "https://dc.lft.to/lastmile_qr_scan", "android": "https://dc.lft.to/lastmile_qr_scan"}, "type": "electric_scooter", "name": "9f38d36d4f0b94d29bfb78a01de7d559", "is_reserved": 0, "lon": -77.03461383333334, "is_disabled": 0, "fusion_lat": 0.0, "lat": 38.90565016666667, "bike_id": "9f38d36d4f0b94d29bfb78a01de7d559", "fusion_lon": 0.0}, {"rental_uris": {"ios": "https://dc.lft.to/lastmile_qr_scan", "android": "https://dc.lft.to/lastmile_qr_scan"}, "type": "electric_scooter", "name": "e0af4e0fa2ef66d95b764509154ef6d8", "is_reserved": 0, "lon": -77.01389116666667, "is_disabled": 0, "fusion_lat": 0.0, "lat": 38.911075333333336, "bike_id": "e0af4e0fa2ef66d95b764509154ef6d8", "fusion_lon": 0.0}, {"rental_uris": {"ios": "https://dc.lft.to/lastmile_qr_scan", "android": "https://dc.lft.to/lastmile_qr_scan"}, "type": "electric_bike", "name": "56a0cd85764cd9aa4109c284c20d5ad4", "is_reserved": 0, "lon": -77.04645883333333, "is_disabled": 0, "fusion_lat": 0.0, "lat": 38.815463, "bike_id": "56a0cd85764cd9aa4109c284c20d5ad4", "fusion_lon": 0.0}, {"rental_uris": {"ios": "https://dc.lft.to/lastmile_qr_scan", "android": "https://dc.lft.to/lastmile_qr_scan"}, "type": "electric_bike", "name": "f23149d44bd383599b5ea343f21c5ccf", "is_reserved": 0, "lon": -76.97136866666666, "is_disabled": 0, "fusion_lat": 0.0, "lat": 38.923559, "bike_id": "f23149d44bd383599b5ea343f21c5ccf", "fusion_lon": 0.0}, {"rental_uris": {"ios": "https://dc.lft.to/lastmile_qr_scan", "android": "https://dc.lft.to/lastmile_qr_scan"}, "type": "electric_scooter", "name": "1c4f7bc8de9836229f445ab039110925", "is_reserved": 0, "lon": -77.037522, "is_disabled": 0, "fusion_lat": 0.0, "lat": 38.903650166666665, "bike_id": "1c4f7bc8de9836229f445ab039110925", "fusion_lon": 0.0}, {"rental_uris": {"ios": "https://dc.lft.to/lastmile_qr_scan", "android": "https://dc.lft.to/lastmile_qr_scan"}, "type": "electric_scooter", "name": "b11e394b7dbb032806f2ee6590ea56cd", "is_reserved": 0, "lon": -76.988013, "is_disabled": 0, "fusion_lat": 0.0, "lat": 38.89363616666667, "bike_id": "b11e394b7dbb032806f2ee6590ea56cd", "fusion_lon": 0.0}, {"rental_uris": {"ios": "https://dc.lft.to/lastmile_qr_scan", "android": "https://dc.lft.to/lastmile_qr_scan"}, "type": "electric_scooter", "name": "0373e720e157a9f273e802e169d6f11b", "is_reserved": 0, "lon": -77.0330675, "is_disabled": 0, "fusion_lat": 0.0, "lat": 38.900109666666665, "bike_id": "0373e720e157a9f273e802e169d6f11b", "fusion_lon": 0.0}, {"rental_uris": {"ios": "https://dc.lft.to/lastmile_qr_scan", "android": "https://dc.lft.to/lastmile_qr_scan"}, "type": "electric_bike", "name": "140e3405740b8238c39c662d3860116f", "is_reserved": 0, "lon": -77.12650316666667, "is_disabled": 0, "fusion_lat": 0.0, "lat": 38.81904016666667, "bike_id": "140e3405740b8238c39c662d3860116f", "fusion_lon": 0.0}, {"rental_uris": {"ios": "https://dc.lft.to/lastmile_qr_scan", "android": "https://dc.lft.to/lastmile_qr_scan"}, "type": "electric_scooter", "name": "ab9d557234ec2a022f6204aca79725fd", "is_reserved": 0, "lon": -76.93182, "is_disabled": 0, "fusion_lat": 0.0, "lat": 38.8987695, "bike_id": "ab9d557234ec2a022f6204aca79725fd", "fusion_lon": 0.0}, {"rental_uris": {"ios": "https://dc.lft.to/lastmile_qr_scan", "android": "https://dc.lft.to/lastmile_qr_scan"}, "type": "electric_scooter", "name": "d5dc476f5a61084fe871029e5b947e08", "is_reserved": 0, "lon": -76.99839, "is_disabled": 0, "fusion_lat": 0.0, "lat": 38.902967, "bike_id": "d5dc476f5a61084fe871029e5b947e08", "fusion_lon": 0.0}, {"rental_uris": {"ios": "https://dc.lft.to/lastmile_qr_scan", "android": "https://dc.lft.to/lastmile_qr_scan"}, "type": "electric_scooter", "name": "7fe159e85f7b2ffe61d3d9d3d7da5d95", "is_reserved": 0, "lon": -77.00210816666667, "is_disabled": 0, "fusion_lat": 0.0, "lat": 38.9156155, "bike_id": "7fe159e85f7b2ffe61d3d9d3d7da5d95", "fusion_lon": 0.0}, {"rental_uris": {"ios": "https://dc.lft.to/lastmile_qr_scan", "android": "https://dc.lft.to/lastmile_qr_scan"}, "type": "electric_bike", "name": "d9dd54e52e73f1049d160ffce8760698", "is_reserved": 0, "lon": -76.90292183333334, "is_disabled": 0, "fusion_lat": 0.0, "lat": 39.00292183333333, "bike_id": "d9dd54e52e73f1049d160ffce8760698", "fusion_lon": 0.0}, {"rental_uris": {"ios": "https://dc.lft.to/lastmile_qr_scan", "android": "https://dc.lft.to/lastmile_qr_scan"}, "type": "electric_scooter", "name": "33c29ffcbc90714e1b8945b115f5a8f4", "is_reserved": 0, "lon": -77.01994916666666, "is_disabled": 0, "fusion_lat": 0.0, "lat": 38.9044585, "bike_id": "33c29ffcbc90714e1b8945b115f5a8f4", "fusion_lon": 0.0}, {"rental_uris": {"ios": "https://dc.lft.to/lastmile_qr_scan", "android": "https://dc.lft.to/lastmile_qr_scan"}, "type": "electric_scooter", "name": "270e7200fe50b61c3fec00d0f5db7d0e", "is_reserved": 0, "lon": -77.0372165, "is_disabled": 0, "fusion_lat": 0.0, "lat": 38.92644683333333, "bike_id": "270e7200fe50b61c3fec00d0f5db7d0e", "fusion_lon": 0.0}, {"rental_uris": {"ios": "https://dc.lft.to/lastmile_qr_scan", "android": "https://dc.lft.to/lastmile_qr_scan"}, "type": "electric_scooter", "name": "31925c10f556225351ff4b987e5c3916", "is_reserved": 0, "lon": -76.9940835, "is_disabled": 0, "fusion_lat": 0.0, "lat": 38.877856, "bike_id": "31925c10f556225351ff4b987e5c3916", "fusion_lon": 0.0}, {"rental_uris": {"ios": "https://dc.lft.to/lastmile_qr_scan", "android": "https://dc.lft.to/lastmile_qr_scan"}, "type": "electric_scooter", "name": "17095d5efc66f7a50ae600242d948c7a", "is_reserved": 0, "lon": -77.04244283333334, "is_disabled": 0, "fusion_lat": 0.0, "lat": 38.92235633333333, "bike_id": "17095d5efc66f7a50ae600242d948c7a", "fusion_lon": 0.0}, {"rental_uris": {"ios": "https://dc.lft.to/lastmile_qr_scan", "android": "https://dc.lft.to/lastmile_qr_scan"}, "type": "electric_scooter", "name": "2a5129aa3488f62b614c578dac192ceb", "is_reserved": 0, "lon": -77.0354925, "is_disabled": 0, "fusion_lat": 0.0, "lat": 38.923414333333334, "bike_id": "2a5129aa3488f62b614c578dac192ceb", "fusion_lon": 0.0}, {"rental_uris": {"ios": "https://dc.lft.to/lastmile_qr_scan", "android": "https://dc.lft.to/lastmile_qr_scan"}, "type": "electric_bike", "name": "51b72617ef0028e94052b19cf1d7e9e3", "is_reserved": 0, "lon": -77.06527833333334, "is_disabled": 0, "fusion_lat": 0.0, "lat": 38.99230716666667, "bike_id": "51b72617ef0028e94052b19cf1d7e9e3", "fusion_lon": 0.0}, {"rental_uris": {"ios": "https://dc.lft.to/lastmile_qr_scan", "android": "https://dc.lft.to/lastmile_qr_scan"}, "type": "electric_scooter", "name": "feece80f7030c54a19e88862ac7ac4d0", "is_reserved": 0, "lon": -77.041223, "is_disabled": 0, "fusion_lat": 0.0, "lat": 38.933856666666664, "bike_id": "feece80f7030c54a19e88862ac7ac4d0", "fusion_lon": 0.0}, {"rental_uris": {"ios": "https://dc.lft.to/lastmile_qr_scan", "android": "https://dc.lft.to/lastmile_qr_scan"}, "type": "electric_bike", "name": "c0fc735647c47c03c259b0315e8d54c1", "is_reserved": 0, "lon": -77.09721316666666, "is_disabled": 0, "fusion_lat": 0.0, "lat": 38.80739716666667, "bike_id": "c0fc735647c47c03c259b0315e8d54c1", "fusion_lon": 0.0}, {"rental_uris": {"ios": "https://dc.lft.to/lastmile_qr_scan", "android": "https://dc.lft.to/lastmile_qr_scan"}, "type": "electric_scooter", "name": "ea0424cfe83aa4429a24d7b4f4a019c7", "is_reserved": 0, "lon": -77.0551245, "is_disabled": 0, "fusion_lat": 0.0, "lat": 38.928356, "bike_id": "ea0424cfe83aa4429a24d7b4f4a019c7", "fusion_lon": 0.0}, {"rental_uris": {"ios": "https://dc.lft.to/lastmile_qr_scan", "android": "https://dc.lft.to/lastmile_qr_scan"}, "type": "electric_bike", "name": "4add8cfd2f12aea650127b607a4436b8", "is_reserved": 0, "lon": -77.00158416666666, "is_disabled": 0, "fusion_lat": 0.0, "lat": 38.899251666666665, "bike_id": "4add8cfd2f12aea650127b607a4436b8", "fusion_lon": 0.0}, {"rental_uris": {"ios": "https://dc.lft.to/lastmile_qr_scan", "android": "https://dc.lft.to/lastmile_qr_scan"}, "type": "electric_scooter", "name": "31654c9ee7020b8cc53e1ce56929d146", "is_reserved": 0, "lon": -77.02190583333334, "is_disabled": 0, "fusion_lat": 0.0, "lat": 38.9112355, "bike_id": "31654c9ee7020b8cc53e1ce56929d146", "fusion_lon": 0.0}, {"rental_uris": {"ios": "https://dc.lft.to/lastmile_qr_scan", "android": "https://dc.lft.to/lastmile_qr_scan"}, "type": "electric_scooter", "name": "9b2c5752981a1b8d37b8a8be740dffb8", "is_reserved": 0, "lon": -77.015645, "is_disabled": 0, "fusion_lat": 0.0, "lat": 38.87636883333333, "bike_id": "9b2c5752981a1b8d37b8a8be740dffb8", "fusion_lon": 0.0}, {"rental_uris": {"ios": "https://dc.lft.to/lastmile_qr_scan", "android": "https://dc.lft.to/lastmile_qr_scan"}, "type": "electric_scooter", "name": "b36db13156813992a8624037b21eebc2", "is_reserved": 0, "lon": -77.0260065, "is_disabled": 0, "fusion_lat": 0.0, "lat": 38.9461195, "bike_id": "b36db13156813992a8624037b21eebc2", "fusion_lon": 0.0}, {"rental_uris": {"ios": "https://dc.lft.to/lastmile_qr_scan", "android": "https://dc.lft.to/lastmile_qr_scan"}, "type": "electric_bike", "name": "ea3b65129f30079bfa510feacaf99703", "is_reserved": 0, "lon": -77.09778266666666, "is_disabled": 0, "fusion_lat": 0.0, "lat": 38.8817745, "bike_id": "ea3b65129f30079bfa510feacaf99703", "fusion_lon": 0.0}, {"rental_uris": {"ios": "https://dc.lft.to/lastmile_qr_scan", "android": "https://dc.lft.to/lastmile_qr_scan"}, "type": "electric_bike", "name": "0375725a62810f48f3faa542847e5ada", "is_reserved": 0, "lon": -77.21658966666666, "is_disabled": 0, "fusion_lat": 0.0, "lat": 38.89507316666667, "bike_id": "0375725a62810f48f3faa542847e5ada", "fusion_lon": 0.0}, {"rental_uris": {"ios": "https://dc.lft.to/lastmile_qr_scan", "android": "https://dc.lft.to/lastmile_qr_scan"}, "type": "electric_bike", "name": "bc109583d610a3b323ac081d7d33e921", "is_reserved": 0, "lon": -77.023751, "is_disabled": 0, "fusion_lat": 0.0, "lat": 38.9322365, "bike_id": "bc109583d610a3b323ac081d7d33e921", "fusion_lon": 0.0}, {"rental_uris": {"ios": "https://dc.lft.to/lastmile_qr_scan", "android": "https://dc.lft.to/lastmile_qr_scan"}, "type": "electric_scooter", "name": "0154519de6d9bcdbe9760300ec300b21", "is_reserved": 0, "lon": -77.046179, "is_disabled": 0, "fusion_lat": 0.0, "lat": 38.90584366666667, "bike_id": "0154519de6d9bcdbe9760300ec300b21", "fusion_lon": 0.0}, {"rental_uris": {"ios": "https://dc.lft.to/lastmile_qr_scan", "android": "https://dc.lft.to/lastmile_qr_scan"}, "type": "electric_scooter", "name": "d23039c4edd0ca8b359db76466c596ab", "is_reserved": 0, "lon": -77.06589166666667, "is_disabled": 0, "fusion_lat": 0.0, "lat": 38.90395683333333, "bike_id": "d23039c4edd0ca8b359db76466c596ab", "fusion_lon": 0.0}, {"rental_uris": {"ios": "https://dc.lft.to/lastmile_qr_scan", "android": "https://dc.lft.to/lastmile_qr_scan"}, "type": "electric_scooter", "name": "07fa70809c1a8137eb5d1ce69bfdfbd0", "is_reserved": 0, "lon": -77.0188495, "is_disabled": 0, "fusion_lat": 0.0, "lat": 38.89748066666667, "bike_id": "07fa70809c1a8137eb5d1ce69bfdfbd0", "fusion_lon": 0.0}, {"rental_uris": {"ios": "https://dc.lft.to/lastmile_qr_scan", "android": "https://dc.lft.to/lastmile_qr_scan"}, "type": "electric_scooter", "name": "799482e1b356e3b89d59a20cc5a20b8d", "is_reserved": 0, "lon": -77.07919533333333, "is_disabled": 0, "fusion_lat": 0.0, "lat": 38.94555183333333, "bike_id": "799482e1b356e3b89d59a20cc5a20b8d", "fusion_lon": 0.0}, {"rental_uris": {"ios": "https://dc.lft.to/lastmile_qr_scan", "android": "https://dc.lft.to/lastmile_qr_scan"}, "type": "electric_scooter", "name": "30f02573ebf0b9df110635a689a1c735", "is_reserved": 0, "lon": -77.03207333333333, "is_disabled": 0, "fusion_lat": 0.0, "lat": 38.938744, "bike_id": "30f02573ebf0b9df110635a689a1c735", "fusion_lon": 0.0}, {"rental_uris": {"ios": "https://dc.lft.to/lastmile_qr_scan", "android": "https://dc.lft.to/lastmile_qr_scan"}, "type": "electric_bike", "name": "7b4030ff3d9dfbe07bdf3dd4a1372cd0", "is_reserved": 0, "lon": -76.99623883333334, "is_disabled": 0, "fusion_lat": 0.0, "lat": 38.928508, "bike_id": "7b4030ff3d9dfbe07bdf3dd4a1372cd0", "fusion_lon": 0.0}, {"rental_uris": {"ios": "https://dc.lft.to/lastmile_qr_scan", "android": "https://dc.lft.to/lastmile_qr_scan"}, "type": "electric_scooter", "name": "87d5887b7c9ec06cd355765e7fbb001a", "is_reserved": 0, "lon": -77.00280033333334, "is_disabled": 0, "fusion_lat": 0.0, "lat": 38.846128, "bike_id": "87d5887b7c9ec06cd355765e7fbb001a", "fusion_lon": 0.0}, {"rental_uris": {"ios": "https://dc.lft.to/lastmile_qr_scan", "android": "https://dc.lft.to/lastmile_qr_scan"}, "type": "electric_bike", "name": "9b62d6335e27d3076dcee45203138fde", "is_reserved": 0, "lon": -77.040748, "is_disabled": 0, "fusion_lat": 0.0, "lat": 38.830639166666664, "bike_id": "9b62d6335e27d3076dcee45203138fde", "fusion_lon": 0.0}, {"rental_uris": {"ios": "https://dc.lft.to/lastmile_qr_scan", "android": "https://dc.lft.to/lastmile_qr_scan"}, "type": "electric_scooter", "name": "4328d029a32c9f21f07a2dce45abaa5c", "is_reserved": 0, "lon": -77.04632533333333, "is_disabled": 0, "fusion_lat": 0.0, "lat": 38.91796983333333, "bike_id": "4328d029a32c9f21f07a2dce45abaa5c", "fusion_lon": 0.0}, {"rental_uris": {"ios": "https://dc.lft.to/lastmile_qr_scan", "android": "https://dc.lft.to/lastmile_qr_scan"}, "type": "electric_scooter", "name": "8213ca217bd2a88b8254cca05e5c9fff", "is_reserved": 0, "lon": -77.02002866666666, "is_disabled": 0, "fusion_lat": 0.0, "lat": 38.916207666666665, "bike_id": "8213ca217bd2a88b8254cca05e5c9fff", "fusion_lon": 0.0}, {"rental_uris": {"ios": "https://dc.lft.to/lastmile_qr_scan", "android": "https://dc.lft.to/lastmile_qr_scan"}, "type": "electric_scooter", "name": "d72fa60e89546ea7b437e38065a7614e", "is_reserved": 0, "lon": -77.07118166666666, "is_disabled": 0, "fusion_lat": 0.0, "lat": 38.89545583333334, "bike_id": "d72fa60e89546ea7b437e38065a7614e", "fusion_lon": 0.0}, {"rental_uris": {"ios": "https://dc.lft.to/lastmile_qr_scan", "android": "https://dc.lft.to/lastmile_qr_scan"}, "type": "electric_scooter", "name": "7f22e084937a26f13bc0d2ed35af1889", "is_reserved": 0, "lon": -77.00361766666667, "is_disabled": 0, "fusion_lat": 0.0, "lat": 38.8772025, "bike_id": "7f22e084937a26f13bc0d2ed35af1889", "fusion_lon": 0.0}, {"rental_uris": {"ios": "https://dc.lft.to/lastmile_qr_scan", "android": "https://dc.lft.to/lastmile_qr_scan"}, "type": "electric_scooter", "name": "2a0f727d4ee8e3369532519d7cdded04", "is_reserved": 0, "lon": -77.01776816666667, "is_disabled": 0, "fusion_lat": 0.0, "lat": 38.90052766666667, "bike_id": "2a0f727d4ee8e3369532519d7cdded04", "fusion_lon": 0.0}, {"rental_uris": {"ios": "https://dc.lft.to/lastmile_qr_scan", "android": "https://dc.lft.to/lastmile_qr_scan"}, "type": "electric_scooter", "name": "a6f2ad7304c65134cd3d02a5c49e1411", "is_reserved": 0, "lon": -77.03455133333334, "is_disabled": 0, "fusion_lat": 0.0, "lat": 38.90713083333333, "bike_id": "a6f2ad7304c65134cd3d02a5c49e1411", "fusion_lon": 0.0}, {"rental_uris": {"ios": "https://dc.lft.to/lastmile_qr_scan", "android": "https://dc.lft.to/lastmile_qr_scan"}, "type": "electric_scooter", "name": "e5842cd541288dfa447e29cc4aa4a992", "is_reserved": 0, "lon": -76.99290033333334, "is_disabled": 0, "fusion_lat": 0.0, "lat": 38.902602333333334, "bike_id": "e5842cd541288dfa447e29cc4aa4a992", "fusion_lon": 0.0}, {"rental_uris": {"ios": "https://dc.lft.to/lastmile_qr_scan", "android": "https://dc.lft.to/lastmile_qr_scan"}, "type": "electric_scooter", "name": "edf24b3887cd870514c8edeba1e04777", "is_reserved": 0, "lon": -77.01816716666667, "is_disabled": 0, "fusion_lat": 0.0, "lat": 38.92154266666667, "bike_id": "edf24b3887cd870514c8edeba1e04777", "fusion_lon": 0.0}, {"rental_uris": {"ios": "https://dc.lft.to/lastmile_qr_scan", "android": "https://dc.lft.to/lastmile_qr_scan"}, "type": "electric_scooter", "name": "5fce83c9aaaaf8e046f4e09e9355a642", "is_reserved": 0, "lon": -77.0398, "is_disabled": 0, "fusion_lat": 0.0, "lat": 38.902285666666664, "bike_id": "5fce83c9aaaaf8e046f4e09e9355a642", "fusion_lon": 0.0}, {"rental_uris": {"ios": "https://dc.lft.to/lastmile_qr_scan", "android": "https://dc.lft.to/lastmile_qr_scan"}, "type": "electric_scooter", "name": "64e6442fcb7491c7138661e8590ff7ab", "is_reserved": 0, "lon": -77.07830666666666, "is_disabled": 0, "fusion_lat": 0.0, "lat": 38.945683833333334, "bike_id": "64e6442fcb7491c7138661e8590ff7ab", "fusion_lon": 0.0}, {"rental_uris": {"ios": "https://dc.lft.to/lastmile_qr_scan", "android": "https://dc.lft.to/lastmile_qr_scan"}, "type": "electric_scooter", "name": "4101978d96eb02274382ea3734081adf", "is_reserved": 0, "lon": -77.04468716666666, "is_disabled": 0, "fusion_lat": 0.0, "lat": 38.90378033333333, "bike_id": "4101978d96eb02274382ea3734081adf", "fusion_lon": 0.0}, {"rental_uris": {"ios": "https://dc.lft.to/lastmile_qr_scan", "android": "https://dc.lft.to/lastmile_qr_scan"}, "type": "electric_scooter", "name": "96a88730632347cdfe4579a554b1c5c6", "is_reserved": 0, "lon": -77.02718966666667, "is_disabled": 0, "fusion_lat": 0.0, "lat": 38.910172333333335, "bike_id": "96a88730632347cdfe4579a554b1c5c6", "fusion_lon": 0.0}, {"rental_uris": {"ios": "https://dc.lft.to/lastmile_qr_scan", "android": "https://dc.lft.to/lastmile_qr_scan"}, "type": "electric_scooter", "name": "d5c68b623e87001165048934190ca5b2", "is_reserved": 0, "lon": -77.03258766666667, "is_disabled": 0, "fusion_lat": 0.0, "lat": 38.9352295, "bike_id": "d5c68b623e87001165048934190ca5b2", "fusion_lon": 0.0}, {"rental_uris": {"ios": "https://dc.lft.to/lastmile_qr_scan", "android": "https://dc.lft.to/lastmile_qr_scan"}, "type": "electric_scooter", "name": "2367b3a20730d8a714b0827b85172ba8", "is_reserved": 0, "lon": -77.08185516666667, "is_disabled": 0, "fusion_lat": 0.0, "lat": 38.9332635, "bike_id": "2367b3a20730d8a714b0827b85172ba8", "fusion_lon": 0.0}, {"rental_uris": {"ios": "https://dc.lft.to/lastmile_qr_scan", "android": "https://dc.lft.to/lastmile_qr_scan"}, "type": "electric_scooter", "name": "da3fe684f04cc5635f24fe3108fa3a24", "is_reserved": 0, "lon": -76.973599, "is_disabled": 0, "fusion_lat": 0.0, "lat": 38.85025516666666, "bike_id": "da3fe684f04cc5635f24fe3108fa3a24", "fusion_lon": 0.0}, {"rental_uris": {"ios": "https://dc.lft.to/lastmile_qr_scan", "android": "https://dc.lft.to/lastmile_qr_scan"}, "type": "electric_scooter", "name": "b27278f5bde82f41184c0d669ed089a9", "is_reserved": 0, "lon": -77.04345516666666, "is_disabled": 0, "fusion_lat": 0.0, "lat": 38.91352533333333, "bike_id": "b27278f5bde82f41184c0d669ed089a9", "fusion_lon": 0.0}, {"rental_uris": {"ios": "https://dc.lft.to/lastmile_qr_scan", "android": "https://dc.lft.to/lastmile_qr_scan"}, "type": "electric_scooter", "name": "17aeded31b8025e9b18b2911fa06f278", "is_reserved": 0, "lon": -77.03438433333334, "is_disabled": 0, "fusion_lat": 0.0, "lat": 38.91809966666667, "bike_id": "17aeded31b8025e9b18b2911fa06f278", "fusion_lon": 0.0}, {"rental_uris": {"ios": "https://dc.lft.to/lastmile_qr_scan", "android": "https://dc.lft.to/lastmile_qr_scan"}, "type": "electric_scooter", "name": "1c650ec816a38158de4f1192641bcdea", "is_reserved": 0, "lon": -76.995078, "is_disabled": 0, "fusion_lat": 0.0, "lat": 38.88988366666667, "bike_id": "1c650ec816a38158de4f1192641bcdea", "fusion_lon": 0.0}, {"rental_uris": {"ios": "https://dc.lft.to/lastmile_qr_scan", "android": "https://dc.lft.to/lastmile_qr_scan"}, "type": "electric_scooter", "name": "9c77cd9aaadff3a0db2cd4264f52774a", "is_reserved": 0, "lon": -76.98702583333333, "is_disabled": 0, "fusion_lat": 0.0, "lat": 38.85964533333333, "bike_id": "9c77cd9aaadff3a0db2cd4264f52774a", "fusion_lon": 0.0}, {"rental_uris": {"ios": "https://dc.lft.to/lastmile_qr_scan", "android": "https://dc.lft.to/lastmile_qr_scan"}, "type": "electric_scooter", "name": "ab87539ad3d23b0f638985fbc9ad5748", "is_reserved": 0, "lon": -77.00056316666667, "is_disabled": 0, "fusion_lat": 0.0, "lat": 38.87369616666667, "bike_id": "ab87539ad3d23b0f638985fbc9ad5748", "fusion_lon": 0.0}, {"rental_uris": {"ios": "https://dc.lft.to/lastmile_qr_scan", "android": "https://dc.lft.to/lastmile_qr_scan"}, "type": "electric_scooter", "name": "cae0f9b164fa8f25570b7136d64ce11a", "is_reserved": 0, "lon": -77.01221983333333, "is_disabled": 0, "fusion_lat": 0.0, "lat": 38.8697555, "bike_id": "cae0f9b164fa8f25570b7136d64ce11a", "fusion_lon": 0.0}, {"rental_uris": {"ios": "https://dc.lft.to/lastmile_qr_scan", "android": "https://dc.lft.to/lastmile_qr_scan"}, "type": "electric_scooter", "name": "690e2f5e9be0f11d6fa44df073f2166f", "is_reserved": 0, "lon": -77.04060666666666, "is_disabled": 0, "fusion_lat": 0.0, "lat": 38.925400333333336, "bike_id": "690e2f5e9be0f11d6fa44df073f2166f", "fusion_lon": 0.0}, {"rental_uris": {"ios": "https://dc.lft.to/lastmile_qr_scan", "android": "https://dc.lft.to/lastmile_qr_scan"}, "type": "electric_scooter", "name": "df4f75f2c4fab3f5bc708acca472338b", "is_reserved": 0, "lon": -77.04867783333333, "is_disabled": 0, "fusion_lat": 0.0, "lat": 38.91058433333333, "bike_id": "df4f75f2c4fab3f5bc708acca472338b", "fusion_lon": 0.0}, {"rental_uris": {"ios": "https://dc.lft.to/lastmile_qr_scan", "android": "https://dc.lft.to/lastmile_qr_scan"}, "type": "electric_scooter", "name": "2be7ed71f9e8414814f202d49a6fe985", "is_reserved": 0, "lon": -77.06839066666667, "is_disabled": 0, "fusion_lat": 0.0, "lat": 38.917181, "bike_id": "2be7ed71f9e8414814f202d49a6fe985", "fusion_lon": 0.0}, {"rental_uris": {"ios": "https://dc.lft.to/lastmile_qr_scan", "android": "https://dc.lft.to/lastmile_qr_scan"}, "type": "electric_scooter", "name": "b7011000b3de69959d65a6983cb6e395", "is_reserved": 0, "lon": -76.9844745, "is_disabled": 0, "fusion_lat": 0.0, "lat": 38.914706333333335, "bike_id": "b7011000b3de69959d65a6983cb6e395", "fusion_lon": 0.0}, {"rental_uris": {"ios": "https://dc.lft.to/lastmile_qr_scan", "android": "https://dc.lft.to/lastmile_qr_scan"}, "type": "electric_scooter", "name": "05d0a1ca68a1f79c5b85812cd8bc483f", "is_reserved": 0, "lon": -77.0329185, "is_disabled": 0, "fusion_lat": 0.0, "lat": 38.904314, "bike_id": "05d0a1ca68a1f79c5b85812cd8bc483f", "fusion_lon": 0.0}, {"rental_uris": {"ios": "https://dc.lft.to/lastmile_qr_scan", "android": "https://dc.lft.to/lastmile_qr_scan"}, "type": "electric_bike", "name": "3659dad86b70b1c736097457d024a85c", "is_reserved": 0, "lon": -77.11410683333334, "is_disabled": 0, "fusion_lat": 0.0, "lat": 38.87319133333333, "bike_id": "3659dad86b70b1c736097457d024a85c", "fusion_lon": 0.0}, {"rental_uris": {"ios": "https://dc.lft.to/lastmile_qr_scan", "android": "https://dc.lft.to/lastmile_qr_scan"}, "type": "electric_scooter", "name": "0dd64f4a09c76a0313dc146c123be379", "is_reserved": 0, "lon": -77.04327166666667, "is_disabled": 0, "fusion_lat": 0.0, "lat": 38.93416066666666, "bike_id": "0dd64f4a09c76a0313dc146c123be379", "fusion_lon": 0.0}, {"rental_uris": {"ios": "https://dc.lft.to/lastmile_qr_scan", "android": "https://dc.lft.to/lastmile_qr_scan"}, "type": "electric_scooter", "name": "a24dd70e7363e3a37affcb2aaf35dd44", "is_reserved": 0, "lon": -77.0162085, "is_disabled": 0, "fusion_lat": 0.0, "lat": 38.89802683333333, "bike_id": "a24dd70e7363e3a37affcb2aaf35dd44", "fusion_lon": 0.0}, {"rental_uris": {"ios": "https://dc.lft.to/lastmile_qr_scan", "android": "https://dc.lft.to/lastmile_qr_scan"}, "type": "electric_scooter", "name": "2b8a74e4b35e16bcf12bd593344028f0", "is_reserved": 0, "lon": -77.04057266666666, "is_disabled": 0, "fusion_lat": 0.0, "lat": 38.917680833333335, "bike_id": "2b8a74e4b35e16bcf12bd593344028f0", "fusion_lon": 0.0}, {"rental_uris": {"ios": "https://dc.lft.to/lastmile_qr_scan", "android": "https://dc.lft.to/lastmile_qr_scan"}, "type": "electric_scooter", "name": "309e4b762abb5242a22acf793cca46bc", "is_reserved": 0, "lon": -77.0487115, "is_disabled": 0, "fusion_lat": 0.0, "lat": 38.912573, "bike_id": "309e4b762abb5242a22acf793cca46bc", "fusion_lon": 0.0}, {"rental_uris": {"ios": "https://dc.lft.to/lastmile_qr_scan", "android": "https://dc.lft.to/lastmile_qr_scan"}, "type": "electric_scooter", "name": "71dab4dea6b47cda803aa2e6df1d263a", "is_reserved": 0, "lon": -77.04350483333333, "is_disabled": 0, "fusion_lat": 0.0, "lat": 38.91042983333333, "bike_id": "71dab4dea6b47cda803aa2e6df1d263a", "fusion_lon": 0.0}, {"rental_uris": {"ios": "https://dc.lft.to/lastmile_qr_scan", "android": "https://dc.lft.to/lastmile_qr_scan"}, "type": "electric_scooter", "name": "38f026f3ebd8cd2dee5609a031c86545", "is_reserved": 0, "lon": -76.98368366666666, "is_disabled": 0, "fusion_lat": 0.0, "lat": 38.89138366666667, "bike_id": "38f026f3ebd8cd2dee5609a031c86545", "fusion_lon": 0.0}, {"rental_uris": {"ios": "https://dc.lft.to/lastmile_qr_scan", "android": "https://dc.lft.to/lastmile_qr_scan"}, "type": "electric_scooter", "name": "9a4a51f3f98820c884451107270afdc5", "is_reserved": 0, "lon": -77.02833883333334, "is_disabled": 0, "fusion_lat": 0.0, "lat": 38.95726766666667, "bike_id": "9a4a51f3f98820c884451107270afdc5", "fusion_lon": 0.0}, {"rental_uris": {"ios": "https://dc.lft.to/lastmile_qr_scan", "android": "https://dc.lft.to/lastmile_qr_scan"}, "type": "electric_scooter", "name": "9a952ca61f4ae080891d72a6917cd9be", "is_reserved": 0, "lon": -77.05435266666667, "is_disabled": 0, "fusion_lat": 0.0, "lat": 38.928373, "bike_id": "9a952ca61f4ae080891d72a6917cd9be", "fusion_lon": 0.0}, {"rental_uris": {"ios": "https://dc.lft.to/lastmile_qr_scan", "android": "https://dc.lft.to/lastmile_qr_scan"}, "type": "electric_scooter", "name": "6d26a1468d246f7f57ed1b1146f3a35b", "is_reserved": 0, "lon": -77.03968066666667, "is_disabled": 0, "fusion_lat": 0.0, "lat": 38.924671000000004, "bike_id": "6d26a1468d246f7f57ed1b1146f3a35b", "fusion_lon": 0.0}, {"rental_uris": {"ios": "https://dc.lft.to/lastmile_qr_scan", "android": "https://dc.lft.to/lastmile_qr_scan"}, "type": "electric_bike", "name": "161428f4efb82b16a940663f0ac3d16b", "is_reserved": 0, "lon": -76.9387115, "is_disabled": 0, "fusion_lat": 0.0, "lat": 38.97767366666667, "bike_id": "161428f4efb82b16a940663f0ac3d16b", "fusion_lon": 0.0}, {"rental_uris": {"ios": "https://dc.lft.to/lastmile_qr_scan", "android": "https://dc.lft.to/lastmile_qr_scan"}, "type": "electric_scooter", "name": "c21cfaaed087de2e0858c5f4cec33964", "is_reserved": 0, "lon": -77.00068666666667, "is_disabled": 0, "fusion_lat": 0.0, "lat": 38.894861, "bike_id": "c21cfaaed087de2e0858c5f4cec33964", "fusion_lon": 0.0}, {"rental_uris": {"ios": "https://dc.lft.to/lastmile_qr_scan", "android": "https://dc.lft.to/lastmile_qr_scan"}, "type": "electric_scooter", "name": "58a140768718f5350b25dd3a382b7212", "is_reserved": 0, "lon": -77.064335, "is_disabled": 0, "fusion_lat": 0.0, "lat": 38.909128833333334, "bike_id": "58a140768718f5350b25dd3a382b7212", "fusion_lon": 0.0}, {"rental_uris": {"ios": "https://dc.lft.to/lastmile_qr_scan", "android": "https://dc.lft.to/lastmile_qr_scan"}, "type": "electric_scooter", "name": "9e6c96874c9ebfd85e0f8ccf2f0b2fef", "is_reserved": 0, "lon": -77.01760133333333, "is_disabled": 0, "fusion_lat": 0.0, "lat": 38.87685033333333, "bike_id": "9e6c96874c9ebfd85e0f8ccf2f0b2fef", "fusion_lon": 0.0}, {"rental_uris": {"ios": "https://dc.lft.to/lastmile_qr_scan", "android": "https://dc.lft.to/lastmile_qr_scan"}, "type": "electric_scooter", "name": "893b2f23e08592e0ec0d5713e0e15fd5", "is_reserved": 0, "lon": -77.02961883333333, "is_disabled": 0, "fusion_lat": 0.0, "lat": 38.93558616666667, "bike_id": "893b2f23e08592e0ec0d5713e0e15fd5", "fusion_lon": 0.0}, {"rental_uris": {"ios": "https://dc.lft.to/lastmile_qr_scan", "android": "https://dc.lft.to/lastmile_qr_scan"}, "type": "electric_scooter", "name": "907373c65bcf7099debcb3e1adde2c07", "is_reserved": 0, "lon": -77.02386633333333, "is_disabled": 0, "fusion_lat": 0.0, "lat": 38.91711016666667, "bike_id": "907373c65bcf7099debcb3e1adde2c07", "fusion_lon": 0.0}, {"rental_uris": {"ios": "https://dc.lft.to/lastmile_qr_scan", "android": "https://dc.lft.to/lastmile_qr_scan"}, "type": "electric_scooter", "name": "8d8ac37ab8376335f104051da0d74805", "is_reserved": 0, "lon": -77.044371, "is_disabled": 0, "fusion_lat": 0.0, "lat": 38.9211935, "bike_id": "8d8ac37ab8376335f104051da0d74805", "fusion_lon": 0.0}, {"rental_uris": {"ios": "https://dc.lft.to/lastmile_qr_scan", "android": "https://dc.lft.to/lastmile_qr_scan"}, "type": "electric_bike", "name": "226d6accfb576a4a7b995696c435ba7b", "is_reserved": 0, "lon": -77.02930516666666, "is_disabled": 0, "fusion_lat": 0.0, "lat": 38.93884283333333, "bike_id": "226d6accfb576a4a7b995696c435ba7b", "fusion_lon": 0.0}, {"rental_uris": {"ios": "https://dc.lft.to/lastmile_qr_scan", "android": "https://dc.lft.to/lastmile_qr_scan"}, "type": "electric_scooter", "name": "999ab346aec7d744dd8bb9d0642076cf", "is_reserved": 0, "lon": -77.03057616666666, "is_disabled": 0, "fusion_lat": 0.0, "lat": 38.92378333333333, "bike_id": "999ab346aec7d744dd8bb9d0642076cf", "fusion_lon": 0.0}, {"rental_uris": {"ios": "https://dc.lft.to/lastmile_qr_scan", "android": "https://dc.lft.to/lastmile_qr_scan"}, "type": "electric_scooter", "name": "e714be2acb8db0f049ffeb3be1ac40d0", "is_reserved": 0, "lon": -77.02383116666667, "is_disabled": 0, "fusion_lat": 0.0, "lat": 38.920740333333335, "bike_id": "e714be2acb8db0f049ffeb3be1ac40d0", "fusion_lon": 0.0}, {"rental_uris": {"ios": "https://dc.lft.to/lastmile_qr_scan", "android": "https://dc.lft.to/lastmile_qr_scan"}, "type": "electric_scooter", "name": "97c7da37148098a857d7528a9754925f", "is_reserved": 0, "lon": -77.00480733333333, "is_disabled": 0, "fusion_lat": 0.0, "lat": 38.8744975, "bike_id": "97c7da37148098a857d7528a9754925f", "fusion_lon": 0.0}, {"rental_uris": {"ios": "https://dc.lft.to/lastmile_qr_scan", "android": "https://dc.lft.to/lastmile_qr_scan"}, "type": "electric_scooter", "name": "945620f67c4d8e21f90b59f8751934d4", "is_reserved": 0, "lon": -77.03787483333333, "is_disabled": 0, "fusion_lat": 0.0, "lat": 38.92567433333333, "bike_id": "945620f67c4d8e21f90b59f8751934d4", "fusion_lon": 0.0}, {"rental_uris": {"ios": "https://dc.lft.to/lastmile_qr_scan", "android": "https://dc.lft.to/lastmile_qr_scan"}, "type": "electric_scooter", "name": "af8ca966da3d20665f478e9cf9e9035c", "is_reserved": 0, "lon": -76.99006666666666, "is_disabled": 0, "fusion_lat": 0.0, "lat": 38.90395216666667, "bike_id": "af8ca966da3d20665f478e9cf9e9035c", "fusion_lon": 0.0}, {"rental_uris": {"ios": "https://dc.lft.to/lastmile_qr_scan", "android": "https://dc.lft.to/lastmile_qr_scan"}, "type": "electric_scooter", "name": "50f6a8e896760663f4c1cd679046d120", "is_reserved": 0, "lon": -77.04242366666666, "is_disabled": 0, "fusion_lat": 0.0, "lat": 38.91062983333333, "bike_id": "50f6a8e896760663f4c1cd679046d120", "fusion_lon": 0.0}, {"rental_uris": {"ios": "https://dc.lft.to/lastmile_qr_scan", "android": "https://dc.lft.to/lastmile_qr_scan"}, "type": "electric_scooter", "name": "17ad1e0b09a7cf7b2e4cd421d21c7b94", "is_reserved": 0, "lon": -77.026016, "is_disabled": 0, "fusion_lat": 0.0, "lat": 38.90165966666667, "bike_id": "17ad1e0b09a7cf7b2e4cd421d21c7b94", "fusion_lon": 0.0}, {"rental_uris": {"ios": "https://dc.lft.to/lastmile_qr_scan", "android": "https://dc.lft.to/lastmile_qr_scan"}, "type": "electric_bike", "name": "fd87e30269498aad6c8f0f45e4b4544a", "is_reserved": 0, "lon": -77.0723845, "is_disabled": 0, "fusion_lat": 0.0, "lat": 38.81364133333334, "bike_id": "fd87e30269498aad6c8f0f45e4b4544a", "fusion_lon": 0.0}, {"rental_uris": {"ios": "https://dc.lft.to/lastmile_qr_scan", "android": "https://dc.lft.to/lastmile_qr_scan"}, "type": "electric_scooter", "name": "3bd91ea2b65965e906a83d1b32997e9c", "is_reserved": 0, "lon": -77.03799416666666, "is_disabled": 0, "fusion_lat": 0.0, "lat": 38.9103395, "bike_id": "3bd91ea2b65965e906a83d1b32997e9c", "fusion_lon": 0.0}, {"rental_uris": {"ios": "https://dc.lft.to/lastmile_qr_scan", "android": "https://dc.lft.to/lastmile_qr_scan"}, "type": "electric_scooter", "name": "e54d8ae3a5118ea8a56c3b54376e24a0", "is_reserved": 0, "lon": -77.01499766666667, "is_disabled": 0, "fusion_lat": 0.0, "lat": 38.901525, "bike_id": "e54d8ae3a5118ea8a56c3b54376e24a0", "fusion_lon": 0.0}, {"rental_uris": {"ios": "https://dc.lft.to/lastmile_qr_scan", "android": "https://dc.lft.to/lastmile_qr_scan"}, "type": "electric_scooter", "name": "5d43654f6502826f4c0f56d021c3bb58", "is_reserved": 0, "lon": -77.04240466666667, "is_disabled": 0, "fusion_lat": 0.0, "lat": 38.92274783333333, "bike_id": "5d43654f6502826f4c0f56d021c3bb58", "fusion_lon": 0.0}, {"rental_uris": {"ios": "https://dc.lft.to/lastmile_qr_scan", "android": "https://dc.lft.to/lastmile_qr_scan"}, "type": "electric_scooter", "name": "c11f4154ee6122238256502eb0a812b7", "is_reserved": 0, "lon": -77.009064, "is_disabled": 0, "fusion_lat": 0.0, "lat": 38.896020166666666, "bike_id": "c11f4154ee6122238256502eb0a812b7", "fusion_lon": 0.0}, {"rental_uris": {"ios": "https://dc.lft.to/lastmile_qr_scan", "android": "https://dc.lft.to/lastmile_qr_scan"}, "type": "electric_scooter", "name": "4db24ce64cac7236b78105e3bec512c6", "is_reserved": 0, "lon": -77.03215766666666, "is_disabled": 0, "fusion_lat": 0.0, "lat": 38.9248645, "bike_id": "4db24ce64cac7236b78105e3bec512c6", "fusion_lon": 0.0}, {"rental_uris": {"ios": "https://dc.lft.to/lastmile_qr_scan", "android": "https://dc.lft.to/lastmile_qr_scan"}, "type": "electric_scooter", "name": "aa3574eaf462f7d9e7d5b65ba7e5e002", "is_reserved": 0, "lon": -77.0005545, "is_disabled": 0, "fusion_lat": 0.0, "lat": 38.87685966666667, "bike_id": "aa3574eaf462f7d9e7d5b65ba7e5e002", "fusion_lon": 0.0}, {"rental_uris": {"ios": "https://dc.lft.to/lastmile_qr_scan", "android": "https://dc.lft.to/lastmile_qr_scan"}, "type": "electric_scooter", "name": "abf032d8f4356d6790ae87e1437650a6", "is_reserved": 0, "lon": -77.05201166666667, "is_disabled": 0, "fusion_lat": 0.0, "lat": 38.924634, "bike_id": "abf032d8f4356d6790ae87e1437650a6", "fusion_lon": 0.0}, {"rental_uris": {"ios": "https://dc.lft.to/lastmile_qr_scan", "android": "https://dc.lft.to/lastmile_qr_scan"}, "type": "electric_bike", "name": "735663228896bf0db691f9f484c6c178", "is_reserved": 0, "lon": -76.95061166666666, "is_disabled": 0, "fusion_lat": 0.0, "lat": 39.08509733333333, "bike_id": "735663228896bf0db691f9f484c6c178", "fusion_lon": 0.0}, {"rental_uris": {"ios": "https://dc.lft.to/lastmile_qr_scan", "android": "https://dc.lft.to/lastmile_qr_scan"}, "type": "electric_scooter", "name": "6f4a2e5a8d2ba8338c16da681d1f7f87", "is_reserved": 0, "lon": -77.04476283333334, "is_disabled": 0, "fusion_lat": 0.0, "lat": 38.909398833333334, "bike_id": "6f4a2e5a8d2ba8338c16da681d1f7f87", "fusion_lon": 0.0}, {"rental_uris": {"ios": "https://dc.lft.to/lastmile_qr_scan", "android": "https://dc.lft.to/lastmile_qr_scan"}, "type": "electric_scooter", "name": "188095c2ff3ed84062bc995defb15d60", "is_reserved": 0, "lon": -77.02403916666667, "is_disabled": 0, "fusion_lat": 0.0, "lat": 38.9275555, "bike_id": "188095c2ff3ed84062bc995defb15d60", "fusion_lon": 0.0}, {"rental_uris": {"ios": "https://dc.lft.to/lastmile_qr_scan", "android": "https://dc.lft.to/lastmile_qr_scan"}, "type": "electric_scooter", "name": "4c4ec8d642ed9defbb1a371c1bf407f4", "is_reserved": 0, "lon": -77.039939, "is_disabled": 0, "fusion_lat": 0.0, "lat": 38.91414533333333, "bike_id": "4c4ec8d642ed9defbb1a371c1bf407f4", "fusion_lon": 0.0}, {"rental_uris": {"ios": "https://dc.lft.to/lastmile_qr_scan", "android": "https://dc.lft.to/lastmile_qr_scan"}, "type": "electric_scooter", "name": "a7c9cf35d66822581e6099fd85901c0a", "is_reserved": 0, "lon": -77.02963216666667, "is_disabled": 0, "fusion_lat": 0.0, "lat": 38.90497533333333, "bike_id": "a7c9cf35d66822581e6099fd85901c0a", "fusion_lon": 0.0}, {"rental_uris": {"ios": "https://dc.lft.to/lastmile_qr_scan", "android": "https://dc.lft.to/lastmile_qr_scan"}, "type": "electric_scooter", "name": "bad43ddc8d60ca7518f9d77eff8c0894", "is_reserved": 0, "lon": -77.01987633333333, "is_disabled": 0, "fusion_lat": 0.0, "lat": 38.93050783333333, "bike_id": "bad43ddc8d60ca7518f9d77eff8c0894", "fusion_lon": 0.0}, {"rental_uris": {"ios": "https://dc.lft.to/lastmile_qr_scan", "android": "https://dc.lft.to/lastmile_qr_scan"}, "type": "electric_scooter", "name": "a30a50c413962dab7274953a61ef6b2e", "is_reserved": 0, "lon": -77.03266383333333, "is_disabled": 0, "fusion_lat": 0.0, "lat": 38.93875, "bike_id": "a30a50c413962dab7274953a61ef6b2e", "fusion_lon": 0.0}, {"rental_uris": {"ios": "https://dc.lft.to/lastmile_qr_scan", "android": "https://dc.lft.to/lastmile_qr_scan"}, "type": "electric_scooter", "name": "7bfbbc461d787c104cafc78986047a31", "is_reserved": 0, "lon": -76.981809, "is_disabled": 0, "fusion_lat": 0.0, "lat": 38.9058295, "bike_id": "7bfbbc461d787c104cafc78986047a31", "fusion_lon": 0.0}, {"rental_uris": {"ios": "https://dc.lft.to/lastmile_qr_scan", "android": "https://dc.lft.to/lastmile_qr_scan"}, "type": "electric_scooter", "name": "a7c21206916267ef6cbea11c78dc97c8", "is_reserved": 0, "lon": -77.07404566666666, "is_disabled": 0, "fusion_lat": 0.0, "lat": 38.93747, "bike_id": "a7c21206916267ef6cbea11c78dc97c8", "fusion_lon": 0.0}, {"rental_uris": {"ios": "https://dc.lft.to/lastmile_qr_scan", "android": "https://dc.lft.to/lastmile_qr_scan"}, "type": "electric_scooter", "name": "438256e79ffdc683a0746f9ce5d7384b", "is_reserved": 0, "lon": -77.02397016666667, "is_disabled": 0, "fusion_lat": 0.0, "lat": 38.917136, "bike_id": "438256e79ffdc683a0746f9ce5d7384b", "fusion_lon": 0.0}, {"rental_uris": {"ios": "https://dc.lft.to/lastmile_qr_scan", "android": "https://dc.lft.to/lastmile_qr_scan"}, "type": "electric_scooter", "name": "c5582deae9281f0f5f50e6bdc8c33398", "is_reserved": 0, "lon": -76.99300066666666, "is_disabled": 0, "fusion_lat": 0.0, "lat": 38.92003116666667, "bike_id": "c5582deae9281f0f5f50e6bdc8c33398", "fusion_lon": 0.0}, {"rental_uris": {"ios": "https://dc.lft.to/lastmile_qr_scan", "android": "https://dc.lft.to/lastmile_qr_scan"}, "type": "electric_scooter", "name": "9c222676e30fab1fe51b50f845448192", "is_reserved": 0, "lon": -77.03127433333333, "is_disabled": 0, "fusion_lat": 0.0, "lat": 38.92381833333334, "bike_id": "9c222676e30fab1fe51b50f845448192", "fusion_lon": 0.0}, {"rental_uris": {"ios": "https://dc.lft.to/lastmile_qr_scan", "android": "https://dc.lft.to/lastmile_qr_scan"}, "type": "electric_scooter", "name": "b9f7cb1dbcb240c49e6d43641db3f6b5", "is_reserved": 0, "lon": -77.02354666666666, "is_disabled": 0, "fusion_lat": 0.0, "lat": 38.9452135, "bike_id": "b9f7cb1dbcb240c49e6d43641db3f6b5", "fusion_lon": 0.0}, {"rental_uris": {"ios": "https://dc.lft.to/lastmile_qr_scan", "android": "https://dc.lft.to/lastmile_qr_scan"}, "type": "electric_scooter", "name": "1d7174c0f73a043b7107f5791a174fe2", "is_reserved": 0, "lon": -76.995675, "is_disabled": 0, "fusion_lat": 0.0, "lat": 38.8921315, "bike_id": "1d7174c0f73a043b7107f5791a174fe2", "fusion_lon": 0.0}, {"rental_uris": {"ios": "https://dc.lft.to/lastmile_qr_scan", "android": "https://dc.lft.to/lastmile_qr_scan"}, "type": "electric_bike", "name": "1e2b787821ff0add0fb47ebbcc46c7fd", "is_reserved": 0, "lon": -77.23174616666667, "is_disabled": 0, "fusion_lat": 0.0, "lat": 38.928942, "bike_id": "1e2b787821ff0add0fb47ebbcc46c7fd", "fusion_lon": 0.0}, {"rental_uris": {"ios": "https://dc.lft.to/lastmile_qr_scan", "android": "https://dc.lft.to/lastmile_qr_scan"}, "type": "electric_scooter", "name": "0612f15546903d12596766abbbfcca65", "is_reserved": 0, "lon": -77.02591033333333, "is_disabled": 0, "fusion_lat": 0.0, "lat": 38.906963833333336, "bike_id": "0612f15546903d12596766abbbfcca65", "fusion_lon": 0.0}, {"rental_uris": {"ios": "https://dc.lft.to/lastmile_qr_scan", "android": "https://dc.lft.to/lastmile_qr_scan"}, "type": "electric_scooter", "name": "820759603e54962a301f268a2511a846", "is_reserved": 0, "lon": -77.04177116666666, "is_disabled": 0, "fusion_lat": 0.0, "lat": 38.91853033333334, "bike_id": "820759603e54962a301f268a2511a846", "fusion_lon": 0.0}, {"rental_uris": {"ios": "https://dc.lft.to/lastmile_qr_scan", "android": "https://dc.lft.to/lastmile_qr_scan"}, "type": "electric_scooter", "name": "8fc7b434b9a82b61f73e3208b0f0024b", "is_reserved": 0, "lon": -77.02005916666667, "is_disabled": 0, "fusion_lat": 0.0, "lat": 38.92806566666667, "bike_id": "8fc7b434b9a82b61f73e3208b0f0024b", "fusion_lon": 0.0}, {"rental_uris": {"ios": "https://dc.lft.to/lastmile_qr_scan", "android": "https://dc.lft.to/lastmile_qr_scan"}, "type": "electric_bike", "name": "fddc2b3a12f4b21ffebb9825b7e08cc1", "is_reserved": 0, "lon": -77.102889, "is_disabled": 0, "fusion_lat": 0.0, "lat": 38.85249, "bike_id": "fddc2b3a12f4b21ffebb9825b7e08cc1", "fusion_lon": 0.0}, {"rental_uris": {"ios": "https://dc.lft.to/lastmile_qr_scan", "android": "https://dc.lft.to/lastmile_qr_scan"}, "type": "electric_scooter", "name": "5d8e20f489fd540387cf03908c439d37", "is_reserved": 0, "lon": -77.026426, "is_disabled": 0, "fusion_lat": 0.0, "lat": 38.9309685, "bike_id": "5d8e20f489fd540387cf03908c439d37", "fusion_lon": 0.0}, {"rental_uris": {"ios": "https://dc.lft.to/lastmile_qr_scan", "android": "https://dc.lft.to/lastmile_qr_scan"}, "type": "electric_bike", "name": "0ac5bf190f6668662b43a23cc239cdbc", "is_reserved": 0, "lon": -76.979507, "is_disabled": 0, "fusion_lat": 0.0, "lat": 38.9203605, "bike_id": "0ac5bf190f6668662b43a23cc239cdbc", "fusion_lon": 0.0}, {"rental_uris": {"ios": "https://dc.lft.to/lastmile_qr_scan", "android": "https://dc.lft.to/lastmile_qr_scan"}, "type": "electric_scooter", "name": "0a61731b2d6dbc6aa9a5be7c793a3960", "is_reserved": 0, "lon": -76.94635316666667, "is_disabled": 0, "fusion_lat": 0.0, "lat": 38.89867383333333, "bike_id": "0a61731b2d6dbc6aa9a5be7c793a3960", "fusion_lon": 0.0}, {"rental_uris": {"ios": "https://dc.lft.to/lastmile_qr_scan", "android": "https://dc.lft.to/lastmile_qr_scan"}, "type": "electric_scooter", "name": "857ae6505e2302ac04aab08fdc1fc1a8", "is_reserved": 0, "lon": -77.0383985, "is_disabled": 0, "fusion_lat": 0.0, "lat": 38.910292, "bike_id": "857ae6505e2302ac04aab08fdc1fc1a8", "fusion_lon": 0.0}, {"rental_uris": {"ios": "https://dc.lft.to/lastmile_qr_scan", "android": "https://dc.lft.to/lastmile_qr_scan"}, "type": "electric_scooter", "name": "ec8770e627e8386c2b39cfc6d75a19b4", "is_reserved": 0, "lon": -77.02574133333333, "is_disabled": 0, "fusion_lat": 0.0, "lat": 38.948433333333334, "bike_id": "ec8770e627e8386c2b39cfc6d75a19b4", "fusion_lon": 0.0}, {"rental_uris": {"ios": "https://dc.lft.to/lastmile_qr_scan", "android": "https://dc.lft.to/lastmile_qr_scan"}, "type": "electric_scooter", "name": "6bf2853141397c22d6802b52405cab9d", "is_reserved": 0, "lon": -77.03405133333334, "is_disabled": 0, "fusion_lat": 0.0, "lat": 38.9015175, "bike_id": "6bf2853141397c22d6802b52405cab9d", "fusion_lon": 0.0}, {"rental_uris": {"ios": "https://dc.lft.to/lastmile_qr_scan", "android": "https://dc.lft.to/lastmile_qr_scan"}, "type": "electric_scooter", "name": "eac8d0fa7ef01fa622f0df6bc7f45134", "is_reserved": 0, "lon": -77.01495533333333, "is_disabled": 0, "fusion_lat": 0.0, "lat": 38.906504, "bike_id": "eac8d0fa7ef01fa622f0df6bc7f45134", "fusion_lon": 0.0}, {"rental_uris": {"ios": "https://dc.lft.to/lastmile_qr_scan", "android": "https://dc.lft.to/lastmile_qr_scan"}, "type": "electric_scooter", "name": "db05e8fbd53bb28498f4b99154c9d5d5", "is_reserved": 0, "lon": -77.06379316666667, "is_disabled": 0, "fusion_lat": 0.0, "lat": 38.90525783333333, "bike_id": "db05e8fbd53bb28498f4b99154c9d5d5", "fusion_lon": 0.0}, {"rental_uris": {"ios": "https://dc.lft.to/lastmile_qr_scan", "android": "https://dc.lft.to/lastmile_qr_scan"}, "type": "electric_scooter", "name": "178b0374721920817ecc3d8e4296dcee", "is_reserved": 0, "lon": -77.03196816666667, "is_disabled": 0, "fusion_lat": 0.0, "lat": 38.9215615, "bike_id": "178b0374721920817ecc3d8e4296dcee", "fusion_lon": 0.0}, {"rental_uris": {"ios": "https://dc.lft.to/lastmile_qr_scan", "android": "https://dc.lft.to/lastmile_qr_scan"}, "type": "electric_scooter", "name": "39386ff12ff1058d9392a9419729e335", "is_reserved": 0, "lon": -76.92303233333334, "is_disabled": 0, "fusion_lat": 0.0, "lat": 38.89387116666666, "bike_id": "39386ff12ff1058d9392a9419729e335", "fusion_lon": 0.0}, {"rental_uris": {"ios": "https://dc.lft.to/lastmile_qr_scan", "android": "https://dc.lft.to/lastmile_qr_scan"}, "type": "electric_scooter", "name": "f068d98345698e5b9b0efe2ca7d5bf4e", "is_reserved": 0, "lon": -77.00544583333334, "is_disabled": 0, "fusion_lat": 0.0, "lat": 38.87661033333333, "bike_id": "f068d98345698e5b9b0efe2ca7d5bf4e", "fusion_lon": 0.0}, {"rental_uris": {"ios": "https://dc.lft.to/lastmile_qr_scan", "android": "https://dc.lft.to/lastmile_qr_scan"}, "type": "electric_scooter", "name": "d3c63b0cf3a49c21538d3ba92f44798a", "is_reserved": 0, "lon": -77.02331916666667, "is_disabled": 0, "fusion_lat": 0.0, "lat": 38.93289466666667, "bike_id": "d3c63b0cf3a49c21538d3ba92f44798a", "fusion_lon": 0.0}, {"rental_uris": {"ios": "https://dc.lft.to/lastmile_qr_scan", "android": "https://dc.lft.to/lastmile_qr_scan"}, "type": "electric_scooter", "name": "f16278270a9f3e99d839fa3e54871a20", "is_reserved": 0, "lon": -77.02226583333334, "is_disabled": 0, "fusion_lat": 0.0, "lat": 38.892207, "bike_id": "f16278270a9f3e99d839fa3e54871a20", "fusion_lon": 0.0}, {"rental_uris": {"ios": "https://dc.lft.to/lastmile_qr_scan", "android": "https://dc.lft.to/lastmile_qr_scan"}, "type": "electric_bike", "name": "f90d8c0cdf2052f7e9410f5628c87e53", "is_reserved": 0, "lon": -77.0250225, "is_disabled": 0, "fusion_lat": 0.0, "lat": 38.93415916666667, "bike_id": "f90d8c0cdf2052f7e9410f5628c87e53", "fusion_lon": 0.0}, {"rental_uris": {"ios": "https://dc.lft.to/lastmile_qr_scan", "android": "https://dc.lft.to/lastmile_qr_scan"}, "type": "electric_scooter", "name": "f8078e91402b1947e16d478409183c40", "is_reserved": 0, "lon": -77.01631183333333, "is_disabled": 0, "fusion_lat": 0.0, "lat": 38.90369, "bike_id": "f8078e91402b1947e16d478409183c40", "fusion_lon": 0.0}, {"rental_uris": {"ios": "https://dc.lft.to/lastmile_qr_scan", "android": "https://dc.lft.to/lastmile_qr_scan"}, "type": "electric_bike", "name": "b464f757c6d5a670a606f071b66a9a4a", "is_reserved": 0, "lon": -77.11285333333333, "is_disabled": 0, "fusion_lat": 0.0, "lat": 38.83103366666667, "bike_id": "b464f757c6d5a670a606f071b66a9a4a", "fusion_lon": 0.0}, {"rental_uris": {"ios": "https://dc.lft.to/lastmile_qr_scan", "android": "https://dc.lft.to/lastmile_qr_scan"}, "type": "electric_scooter", "name": "2a93465b7cdd90f6cfc51212f07c30a8", "is_reserved": 0, "lon": -77.03928733333333, "is_disabled": 0, "fusion_lat": 0.0, "lat": 38.89867116666667, "bike_id": "2a93465b7cdd90f6cfc51212f07c30a8", "fusion_lon": 0.0}, {"rental_uris": {"ios": "https://dc.lft.to/lastmile_qr_scan", "android": "https://dc.lft.to/lastmile_qr_scan"}, "type": "electric_scooter", "name": "a0f479166c5a29df246da9eb4ff083f6", "is_reserved": 0, "lon": -77.08773083333334, "is_disabled": 0, "fusion_lat": 0.0, "lat": 38.93557366666667, "bike_id": "a0f479166c5a29df246da9eb4ff083f6", "fusion_lon": 0.0}, {"rental_uris": {"ios": "https://dc.lft.to/lastmile_qr_scan", "android": "https://dc.lft.to/lastmile_qr_scan"}, "type": "electric_bike", "name": "81f3f5621c1746e9b05f7997ea40fe41", "is_reserved": 0, "lon": -77.04461366666666, "is_disabled": 0, "fusion_lat": 0.0, "lat": 38.92311, "bike_id": "81f3f5621c1746e9b05f7997ea40fe41", "fusion_lon": 0.0}, {"rental_uris": {"ios": "https://dc.lft.to/lastmile_qr_scan", "android": "https://dc.lft.to/lastmile_qr_scan"}, "type": "electric_scooter", "name": "7e2d7e8ba71e16319f32a325d4adeddd", "is_reserved": 0, "lon": -77.00822466666666, "is_disabled": 0, "fusion_lat": 0.0, "lat": 38.915643, "bike_id": "7e2d7e8ba71e16319f32a325d4adeddd", "fusion_lon": 0.0}, {"rental_uris": {"ios": "https://dc.lft.to/lastmile_qr_scan", "android": "https://dc.lft.to/lastmile_qr_scan"}, "type": "electric_scooter", "name": "c549ee4899fc847fa31c2d65109cd129", "is_reserved": 0, "lon": -77.06321816666667, "is_disabled": 0, "fusion_lat": 0.0, "lat": 38.913379, "bike_id": "c549ee4899fc847fa31c2d65109cd129", "fusion_lon": 0.0}, {"rental_uris": {"ios": "https://dc.lft.to/lastmile_qr_scan", "android": "https://dc.lft.to/lastmile_qr_scan"}, "type": "electric_bike", "name": "b59b76287f8c32e524d7a88a6cf0ed4d", "is_reserved": 0, "lon": -77.02007, "is_disabled": 0, "fusion_lat": 0.0, "lat": 39.026227166666665, "bike_id": "b59b76287f8c32e524d7a88a6cf0ed4d", "fusion_lon": 0.0}, {"rental_uris": {"ios": "https://dc.lft.to/lastmile_qr_scan", "android": "https://dc.lft.to/lastmile_qr_scan"}, "type": "electric_scooter", "name": "f9efe254e5756b8a3cfb5ccf05ba3413", "is_reserved": 0, "lon": -77.04335116666667, "is_disabled": 0, "fusion_lat": 0.0, "lat": 38.911230333333336, "bike_id": "f9efe254e5756b8a3cfb5ccf05ba3413", "fusion_lon": 0.0}, {"rental_uris": {"ios": "https://dc.lft.to/lastmile_qr_scan", "android": "https://dc.lft.to/lastmile_qr_scan"}, "type": "electric_scooter", "name": "7e79e888f7231e10b8e8454297e18323", "is_reserved": 0, "lon": -77.02183466666666, "is_disabled": 0, "fusion_lat": 0.0, "lat": 38.92913866666667, "bike_id": "7e79e888f7231e10b8e8454297e18323", "fusion_lon": 0.0}, {"rental_uris": {"ios": "https://dc.lft.to/lastmile_qr_scan", "android": "https://dc.lft.to/lastmile_qr_scan"}, "type": "electric_scooter", "name": "351773dc1fc4bb867a34ac5aeead75fe", "is_reserved": 0, "lon": -77.03052283333334, "is_disabled": 0, "fusion_lat": 0.0, "lat": 38.92381533333333, "bike_id": "351773dc1fc4bb867a34ac5aeead75fe", "fusion_lon": 0.0}, {"rental_uris": {"ios": "https://dc.lft.to/lastmile_qr_scan", "android": "https://dc.lft.to/lastmile_qr_scan"}, "type": "electric_scooter", "name": "fa84ac9295edfe3030baec7bbaa0f9d6", "is_reserved": 0, "lon": -77.011953, "is_disabled": 0, "fusion_lat": 0.0, "lat": 38.9000855, "bike_id": "fa84ac9295edfe3030baec7bbaa0f9d6", "fusion_lon": 0.0}, {"rental_uris": {"ios": "https://dc.lft.to/lastmile_qr_scan", "android": "https://dc.lft.to/lastmile_qr_scan"}, "type": "electric_scooter", "name": "b9ad401ef4c69cede5c39ced42f66447", "is_reserved": 0, "lon": -77.021241, "is_disabled": 0, "fusion_lat": 0.0, "lat": 38.927969833333336, "bike_id": "b9ad401ef4c69cede5c39ced42f66447", "fusion_lon": 0.0}, {"rental_uris": {"ios": "https://dc.lft.to/lastmile_qr_scan", "android": "https://dc.lft.to/lastmile_qr_scan"}, "type": "electric_scooter", "name": "2c0269484ac94f1aebeb861c807b5f72", "is_reserved": 0, "lon": -77.01741833333334, "is_disabled": 0, "fusion_lat": 0.0, "lat": 38.8872965, "bike_id": "2c0269484ac94f1aebeb861c807b5f72", "fusion_lon": 0.0}, {"rental_uris": {"ios": "https://dc.lft.to/lastmile_qr_scan", "android": "https://dc.lft.to/lastmile_qr_scan"}, "type": "electric_scooter", "name": "42e18f6b940af0bd4c307359c0ac93f8", "is_reserved": 0, "lon": -77.0685335, "is_disabled": 0, "fusion_lat": 0.0, "lat": 38.90404233333334, "bike_id": "42e18f6b940af0bd4c307359c0ac93f8", "fusion_lon": 0.0}, {"rental_uris": {"ios": "https://dc.lft.to/lastmile_qr_scan", "android": "https://dc.lft.to/lastmile_qr_scan"}, "type": "electric_scooter", "name": "514af7346eeea7d2e9e5da3e338900b6", "is_reserved": 0, "lon": -77.017593, "is_disabled": 0, "fusion_lat": 0.0, "lat": 38.87686883333333, "bike_id": "514af7346eeea7d2e9e5da3e338900b6", "fusion_lon": 0.0}, {"rental_uris": {"ios": "https://dc.lft.to/lastmile_qr_scan", "android": "https://dc.lft.to/lastmile_qr_scan"}, "type": "electric_bike", "name": "8c23be11d440aa888114ea6e4efb9ce5", "is_reserved": 0, "lon": -77.012288, "is_disabled": 0, "fusion_lat": 0.0, "lat": 38.95084216666667, "bike_id": "8c23be11d440aa888114ea6e4efb9ce5", "fusion_lon": 0.0}, {"rental_uris": {"ios": "https://dc.lft.to/lastmile_qr_scan", "android": "https://dc.lft.to/lastmile_qr_scan"}, "type": "electric_scooter", "name": "2f07a442f2f23c0aeaf5122661b33b61", "is_reserved": 0, "lon": -77.03467, "is_disabled": 0, "fusion_lat": 0.0, "lat": 38.921599666666665, "bike_id": "2f07a442f2f23c0aeaf5122661b33b61", "fusion_lon": 0.0}, {"rental_uris": {"ios": "https://dc.lft.to/lastmile_qr_scan", "android": "https://dc.lft.to/lastmile_qr_scan"}, "type": "electric_scooter", "name": "5cd2ee691e7c3b52df01d40ccfcc9e31", "is_reserved": 0, "lon": -77.033826, "is_disabled": 0, "fusion_lat": 0.0, "lat": 38.89915583333333, "bike_id": "5cd2ee691e7c3b52df01d40ccfcc9e31", "fusion_lon": 0.0}, {"rental_uris": {"ios": "https://dc.lft.to/lastmile_qr_scan", "android": "https://dc.lft.to/lastmile_qr_scan"}, "type": "electric_scooter", "name": "58826aab324d89eb6bc9e861f6f5e99a", "is_reserved": 0, "lon": -77.024346, "is_disabled": 0, "fusion_lat": 0.0, "lat": 38.9371545, "bike_id": "58826aab324d89eb6bc9e861f6f5e99a", "fusion_lon": 0.0}, {"rental_uris": {"ios": "https://dc.lft.to/lastmile_qr_scan", "android": "https://dc.lft.to/lastmile_qr_scan"}, "type": "electric_scooter", "name": "4ea74c10c646fc3e112907ac32d18ec3", "is_reserved": 0, "lon": -77.03281583333333, "is_disabled": 0, "fusion_lat": 0.0, "lat": 38.907205166666664, "bike_id": "4ea74c10c646fc3e112907ac32d18ec3", "fusion_lon": 0.0}, {"rental_uris": {"ios": "https://dc.lft.to/lastmile_qr_scan", "android": "https://dc.lft.to/lastmile_qr_scan"}, "type": "electric_scooter", "name": "17e4b2f5240479bb766127b0e303ad6b", "is_reserved": 0, "lon": -77.02830516666667, "is_disabled": 0, "fusion_lat": 0.0, "lat": 38.91015383333333, "bike_id": "17e4b2f5240479bb766127b0e303ad6b", "fusion_lon": 0.0}, {"rental_uris": {"ios": "https://dc.lft.to/lastmile_qr_scan", "android": "https://dc.lft.to/lastmile_qr_scan"}, "type": "electric_scooter", "name": "aea89a7a2377a6dafcebcbc31449598b", "is_reserved": 0, "lon": -76.99592383333334, "is_disabled": 0, "fusion_lat": 0.0, "lat": 38.90001216666667, "bike_id": "aea89a7a2377a6dafcebcbc31449598b", "fusion_lon": 0.0}, {"rental_uris": {"ios": "https://dc.lft.to/lastmile_qr_scan", "android": "https://dc.lft.to/lastmile_qr_scan"}, "type": "electric_scooter", "name": "019963e2e891847dde119d20876f2dd0", "is_reserved": 0, "lon": -77.02477183333333, "is_disabled": 0, "fusion_lat": 0.0, "lat": 38.903216666666665, "bike_id": "019963e2e891847dde119d20876f2dd0", "fusion_lon": 0.0}, {"rental_uris": {"ios": "https://dc.lft.to/lastmile_qr_scan", "android": "https://dc.lft.to/lastmile_qr_scan"}, "type": "electric_bike", "name": "628e237e388f5cceeaaeda511e2e1b39", "is_reserved": 0, "lon": -76.96883966666667, "is_disabled": 0, "fusion_lat": 0.0, "lat": 38.869842166666665, "bike_id": "628e237e388f5cceeaaeda511e2e1b39", "fusion_lon": 0.0}, {"rental_uris": {"ios": "https://dc.lft.to/lastmile_qr_scan", "android": "https://dc.lft.to/lastmile_qr_scan"},