{"data": {"bikes": [{"bike_id": "aaf959fd6d3cd64670aa3dbcb084263b", "type": "electric_scooter", "is_disabled": 0, "lat": 38.89307683333333, "rental_uris": {"ios": "https://dc.lft.to/lastmile_qr_scan", "android": "https://dc.lft.to/lastmile_qr_scan"}, "is_reserved": 0, "fusion_lon": 0.0, "fusion_lat": 0.0, "lon": -77.03182283333334, "name": "aaf959fd6d3cd64670aa3dbcb084263b"}, {"bike_id": "4ac7594ef77ed914ac580716169dc573", "type": "electric_scooter", "is_disabled": 0, "lat": 38.904756166666665, "rental_uris": {"ios": "https://dc.lft.to/lastmile_qr_scan", "android": "https://dc.lft.to/lastmile_qr_scan"}, "is_reserved": 0, "fusion_lon": 0.0, "fusion_lat": 0.0, "lon": -76.99619133333333, "name": "4ac7594ef77ed914ac580716169dc573"}, {"bike_id": "eded8749b1d94210aa47c8b291a3cbc9", "type": "electric_scooter", "is_disabled": 0, "lat": 38.94787316666667, "rental_uris": {"ios": "https://dc.lft.to/lastmile_qr_scan", "android": "https://dc.lft.to/lastmile_qr_scan"}, "is_reserved": 0, "fusion_lon": 0.0, "fusion_lat": 0.0, "lon": -77.02137783333333, "name": "eded8749b1d94210aa47c8b291a3cbc9"}, {"bike_id": "24d6306a25576510cf8f3048b6ede457", "type": "electric_scooter", "is_disabled": 0, "lat": 38.92218316666667, "rental_uris": {"ios": "https://dc.lft.to/lastmile_qr_scan", "android": "https://dc.lft.to/lastmile_qr_scan"}, "is_reserved": 0, "fusion_lon": 0.0, "fusion_lat": 0.0, "lon": -77.04332933333333, "name": "24d6306a25576510cf8f3048b6ede457"}, {"bike_id": "63a4c7dedb28fa45caa36393b17d6145", "type": "electric_scooter", "is_disabled": 0, "lat": 38.91777833333333, "rental_uris": {"ios": "https://dc.lft.to/lastmile_qr_scan", "android": "https://dc.lft.to/lastmile_qr_scan"}, "is_reserved": 0, "fusion_lon": 0.0, "fusion_lat": 0.0, "lon": -77.02309566666666, "name": "63a4c7dedb28fa45caa36393b17d6145"}, {"bike_id": "1c4b0ef9836c5ce937411e22ff5e0f67", "type": "electric_scooter", "is_disabled": 0, "lat": 38.89223633333334, "rental_uris": {"ios": "https://dc.lft.to/lastmile_qr_scan", "android": "https://dc.lft.to/lastmile_qr_scan"}, "is_reserved": 0, "fusion_lon": 0.0, "fusion_lat": 0.0, "lon": -77.04012666666667, "name": "1c4b0ef9836c5ce937411e22ff5e0f67"}, {"bike_id": "85c5274deef838b703fbdcb94d11f3b1", "type": "electric_scooter", "is_disabled": 0, "lat": 38.926121333333334, "rental_uris": {"ios": "https://dc.lft.to/lastmile_qr_scan", "android": "https://dc.lft.to/lastmile_qr_scan"}, "is_reserved": 0, "fusion_lon": 0.0, "fusion_lat": 0.0, "lon": -77.02161383333333, "name": "85c5274deef838b703fbdcb94d11f3b1"}, {"bike_id": "4778bcc99413026e9011a2f02dde11f6", "type": "electric_bike", "is_disabled": 0, "lat": 38.84522, "rental_uris": {"ios": "https://dc.lft.to/lastmile_qr_scan", "android": "https://dc.lft.to/lastmile_qr_scan"}, "is_reserved": 0, "fusion_lon": 0.0, "fusion_lat": 0.0, "lon": -76.97394733333333, "name": "4778bcc99413026e9011a2f02dde11f6"}, {"bike_id": "9df3c876c71393ecb7b7d8972ffa3019", "type": "electric_scooter", "is_disabled": 0, "lat": 38.925237833333334, "rental_uris": {"ios": "https://dc.lft.to/lastmile_qr_scan", "android": "https://dc.lft.to/lastmile_qr_scan"}, "is_reserved": 0, "fusion_lon": 0.0, "fusion_lat": 0.0, "lon": -77.07633133333333, "name": "9df3c876c71393ecb7b7d8972ffa3019"}, {"bike_id": "04bab5e24b6081ad4bd6456c7ad4e26a", "type": "electric_scooter", "is_disabled": 0, "lat": 38.91665166666667, "rental_uris": {"ios": "https://dc.lft.to/lastmile_qr_scan", "android": "https://dc.lft.to/lastmile_qr_scan"}, "is_reserved": 0, "fusion_lon": 0.0, "fusion_lat": 0.0, "lon": -77.02301766666666, "name": "04bab5e24b6081ad4bd6456c7ad4e26a"}, {"bike_id": "77eefaa7fddb1c01be00add1d2d2467e", "type": "electric_scooter", "is_disabled": 0, "lat": 38.92034533333333, "rental_uris": {"ios": "https://dc.lft.to/lastmile_qr_scan", "android": "https://dc.lft.to/lastmile_qr_scan"}, "is_reserved": 0, "fusion_lon": 0.0, "fusion_lat": 0.0, "lon": -77.031354, "name": "77eefaa7fddb1c01be00add1d2d2467e"}, {"bike_id": "d05df16714505974b87e6737dd426c25", "type": "electric_scooter", "is_disabled": 0, "lat": 38.91233316666667, "rental_uris": {"ios": "https://dc.lft.to/lastmile_qr_scan", "android": "https://dc.lft.to/lastmile_qr_scan"}, "is_reserved": 0, "fusion_lon": 0.0, "fusion_lat": 0.0, "lon": -77.0450105, "name": "d05df16714505974b87e6737dd426c25"}, {"bike_id": "4157d23eb1bc1cc8913a14aaa776973b", "type": "electric_scooter", "is_disabled": 0, "lat": 38.88714516666667, "rental_uris": {"ios": "https://dc.lft.to/lastmile_qr_scan", "android": "https://dc.lft.to/lastmile_qr_scan"}, "is_reserved": 0, "fusion_lon": 0.0, "fusion_lat": 0.0, "lon": -76.9962745, "name": "4157d23eb1bc1cc8913a14aaa776973b"}, {"bike_id": "a3e47c3899354a9f98bdd05f3b749e8c", "type": "electric_scooter", "is_disabled": 0, "lat": 38.8768645, "rental_uris": {"ios": "https://dc.lft.to/lastmile_qr_scan", "android": "https://dc.lft.to/lastmile_qr_scan"}, "is_reserved": 0, "fusion_lon": 0.0, "fusion_lat": 0.0, "lon": -77.01752633333334, "name": "a3e47c3899354a9f98bdd05f3b749e8c"}, {"bike_id": "e009a25d7c6f7dcbec9fa29ef16f7401", "type": "electric_scooter", "is_disabled": 0, "lat": 38.89737083333333, "rental_uris": {"ios": "https://dc.lft.to/lastmile_qr_scan", "android": "https://dc.lft.to/lastmile_qr_scan"}, "is_reserved": 0, "fusion_lon": 0.0, "fusion_lat": 0.0, "lon": -77.04673116666666, "name": "e009a25d7c6f7dcbec9fa29ef16f7401"}, {"bike_id": "3d9445f29d4fffbb41634827ad1e935c", "type": "electric_scooter", "is_disabled": 0, "lat": 38.89294366666667, "rental_uris": {"ios": "https://dc.lft.to/lastmile_qr_scan", "android": "https://dc.lft.to/lastmile_qr_scan"}, "is_reserved": 0, "fusion_lon": 0.0, "fusion_lat": 0.0, "lon": -77.0487755, "name": "3d9445f29d4fffbb41634827ad1e935c"}, {"bike_id": "ac537a7bf8381431e38119c413c335da", "type": "electric_scooter", "is_disabled": 0, "lat": 38.9056765, "rental_uris": {"ios": "https://dc.lft.to/lastmile_qr_scan", "android": "https://dc.lft.to/lastmile_qr_scan"}, "is_reserved": 0, "fusion_lon": 0.0, "fusion_lat": 0.0, "lon": -77.04514616666667, "name": "ac537a7bf8381431e38119c413c335da"}, {"bike_id": "a96b7772f4b2a724c3d6fb197a4a0b8f", "type": "electric_scooter", "is_disabled": 0, "lat": 38.929116666666665, "rental_uris": {"ios": "https://dc.lft.to/lastmile_qr_scan", "android": "https://dc.lft.to/lastmile_qr_scan"}, "is_reserved": 0, "fusion_lon": 0.0, "fusion_lat": 0.0, "lon": -77.03744616666667, "name": "a96b7772f4b2a724c3d6fb197a4a0b8f"}, {"bike_id": "70705727474c1fda04fb2922a0cbd8bb", "type": "electric_scooter", "is_disabled": 0, "lat": 38.897194999999996, "rental_uris": {"ios": "https://dc.lft.to/lastmile_qr_scan", "android": "https://dc.lft.to/lastmile_qr_scan"}, "is_reserved": 0, "fusion_lon": 0.0, "fusion_lat": 0.0, "lon": -77.02707566666666, "name": "70705727474c1fda04fb2922a0cbd8bb"}, {"bike_id": "0537fd626dfcd3f80b2f6eaaef04c168", "type": "electric_scooter", "is_disabled": 0, "lat": 38.87915183333333, "rental_uris": {"ios": "https://dc.lft.to/lastmile_qr_scan", "android": "https://dc.lft.to/lastmile_qr_scan"}, "is_reserved": 0, "fusion_lon": 0.0, "fusion_lat": 0.0, "lon": -77.00568316666667, "name": "0537fd626dfcd3f80b2f6eaaef04c168"}, {"bike_id": "5767733f4fc5a6bc357f7f7b72f6dc2b", "type": "electric_scooter", "is_disabled": 0, "lat": 38.906514333333334, "rental_uris": {"ios": "https://dc.lft.to/lastmile_qr_scan", "android": "https://dc.lft.to/lastmile_qr_scan"}, "is_reserved": 0, "fusion_lon": 0.0, "fusion_lat": 0.0, "lon": -77.01835516666667, "name": "5767733f4fc5a6bc357f7f7b72f6dc2b"}, {"bike_id": "28793638c97606aaadbb3e610ee4bc09", "type": "electric_scooter", "is_disabled": 0, "lat": 38.896350166666664, "rental_uris": {"ios": "https://dc.lft.to/lastmile_qr_scan", "android": "https://dc.lft.to/lastmile_qr_scan"}, "is_reserved": 0, "fusion_lon": 0.0, "fusion_lat": 0.0, "lon": -77.02377, "name": "28793638c97606aaadbb3e610ee4bc09"}, {"bike_id": "9bf660ce7be5cef293bab3f983a2523c", "type": "electric_scooter", "is_disabled": 0, "lat": 38.89255216666667, "rental_uris": {"ios": "https://dc.lft.to/lastmile_qr_scan", "android": "https://dc.lft.to/lastmile_qr_scan"}, "is_reserved": 0, "fusion_lon": 0.0, "fusion_lat": 0.0, "lon": -76.92571733333334, "name": "9bf660ce7be5cef293bab3f983a2523c"}, {"bike_id": "6cb775155f49b6c1436a3b8c4b97c68e", "type": "electric_scooter", "is_disabled": 0, "lat": 38.89739183333333, "rental_uris": {"ios": "https://dc.lft.to/lastmile_qr_scan", "android": "https://dc.lft.to/lastmile_qr_scan"}, "is_reserved": 0, "fusion_lon": 0.0, "fusion_lat": 0.0, "lon": -77.04675333333333, "name": "6cb775155f49b6c1436a3b8c4b97c68e"}, {"bike_id": "fe578cdbe0b1886ee6f56e25a056a696", "type": "electric_scooter", "is_disabled": 0, "lat": 38.909672666666665, "rental_uris": {"ios": "https://dc.lft.to/lastmile_qr_scan", "android": "https://dc.lft.to/lastmile_qr_scan"}, "is_reserved": 0, "fusion_lon": 0.0, "fusion_lat": 0.0, "lon": -77.034534, "name": "fe578cdbe0b1886ee6f56e25a056a696"}, {"bike_id": "c707c9b5e6c65cc0b559c68e1efc5552", "type": "electric_scooter", "is_disabled": 0, "lat": 38.86438033333334, "rental_uris": {"ios": "https://dc.lft.to/lastmile_qr_scan", "android": "https://dc.lft.to/lastmile_qr_scan"}, "is_reserved": 0, "fusion_lon": 0.0, "fusion_lat": 0.0, "lon": -76.9799715, "name": "c707c9b5e6c65cc0b559c68e1efc5552"}, {"bike_id": "df208957d45d524f7767fe61bf060224", "type": "electric_scooter", "is_disabled": 0, "lat": 38.884181166666664, "rental_uris": {"ios": "https://dc.lft.to/lastmile_qr_scan", "android": "https://dc.lft.to/lastmile_qr_scan"}, "is_reserved": 0, "fusion_lon": 0.0, "fusion_lat": 0.0, "lon": -77.00068333333333, "name": "df208957d45d524f7767fe61bf060224"}, {"bike_id": "95150e86f6ffaf6e030f89da581bd486", "type": "electric_scooter", "is_disabled": 0, "lat": 38.89225616666667, "rental_uris": {"ios": "https://dc.lft.to/lastmile_qr_scan", "android": "https://dc.lft.to/lastmile_qr_scan"}, "is_reserved": 0, "fusion_lon": 0.0, "fusion_lat": 0.0, "lon": -77.04951466666667, "name": "95150e86f6ffaf6e030f89da581bd486"}, {"bike_id": "1893517d76ce5bb34258248e98ebefea", "type": "electric_scooter", "is_disabled": 0, "lat": 38.90566716666667, "rental_uris": {"ios": "https://dc.lft.to/lastmile_qr_scan", "android": "https://dc.lft.to/lastmile_qr_scan"}, "is_reserved": 0, "fusion_lon": 0.0, "fusion_lat": 0.0, "lon": -77.0343325, "name": "1893517d76ce5bb34258248e98ebefea"}, {"bike_id": "32a360ab0dfbcbfabe4fe0b9a9cb1f23", "type": "electric_scooter", "is_disabled": 0, "lat": 38.905631, "rental_uris": {"ios": "https://dc.lft.to/lastmile_qr_scan", "android": "https://dc.lft.to/lastmile_qr_scan"}, "is_reserved": 0, "fusion_lon": 0.0, "fusion_lat": 0.0, "lon": -77.00261066666667, "name": "32a360ab0dfbcbfabe4fe0b9a9cb1f23"}, {"bike_id": "42bf9e534accd7481ab9f5d92cbc2d89", "type": "electric_scooter", "is_disabled": 0, "lat": 38.906185, "rental_uris": {"ios": "https://dc.lft.to/lastmile_qr_scan", "android": "https://dc.lft.to/lastmile_qr_scan"}, "is_reserved": 0, "fusion_lon": 0.0, "fusion_lat": 0.0, "lon": -77.02816216666666, "name": "42bf9e534accd7481ab9f5d92cbc2d89"}, {"bike_id": "a35cfa11d64f979a6f71b0ae1fc84669", "type": "electric_scooter", "is_disabled": 0, "lat": 38.896158166666666, "rental_uris": {"ios": "https://dc.lft.to/lastmile_qr_scan", "android": "https://dc.lft.to/lastmile_qr_scan"}, "is_reserved": 0, "fusion_lon": 0.0, "fusion_lat": 0.0, "lon": -77.04428883333334, "name": "a35cfa11d64f979a6f71b0ae1fc84669"}, {"bike_id": "c80851a42fde8af190239a5a2729eb0f", "type": "electric_scooter", "is_disabled": 0, "lat": 38.9026685, "rental_uris": {"ios": "https://dc.lft.to/lastmile_qr_scan", "android": "https://dc.lft.to/lastmile_qr_scan"}, "is_reserved": 0, "fusion_lon": 0.0, "fusion_lat": 0.0, "lon": -77.01884766666667, "name": "c80851a42fde8af190239a5a2729eb0f"}, {"bike_id": "034fdb45cda3b6a5dfe53314f18fceec", "type": "electric_scooter", "is_disabled": 0, "lat": 38.95649783333333, "rental_uris": {"ios": "https://dc.lft.to/lastmile_qr_scan", "android": "https://dc.lft.to/lastmile_qr_scan"}, "is_reserved": 0, "fusion_lon": 0.0, "fusion_lat": 0.0, "lon": -77.02398633333334, "name": "034fdb45cda3b6a5dfe53314f18fceec"}, {"bike_id": "a26aaf32e57c2cd18bf12f3e51833886", "type": "electric_scooter", "is_disabled": 0, "lat": 38.896215, "rental_uris": {"ios": "https://dc.lft.to/lastmile_qr_scan", "android": "https://dc.lft.to/lastmile_qr_scan"}, "is_reserved": 0, "fusion_lon": 0.0, "fusion_lat": 0.0, "lon": -77.0238635, "name": "a26aaf32e57c2cd18bf12f3e51833886"}, {"bike_id": "4afc30ef59577fd27b7e77d3de48f9c9", "type": "electric_scooter", "is_disabled": 0, "lat": 38.91573433333333, "rental_uris": {"ios": "https://dc.lft.to/lastmile_qr_scan", "android": "https://dc.lft.to/lastmile_qr_scan"}, "is_reserved": 0, "fusion_lon": 0.0, "fusion_lat": 0.0, "lon": -77.0195705, "name": "4afc30ef59577fd27b7e77d3de48f9c9"}, {"bike_id": "895aa253ba3c33130df2914a6ba45c7f", "type": "electric_scooter", "is_disabled": 0, "lat": 38.914202833333334, "rental_uris": {"ios": "https://dc.lft.to/lastmile_qr_scan", "android": "https://dc.lft.to/lastmile_qr_scan"}, "is_reserved": 0, "fusion_lon": 0.0, "fusion_lat": 0.0, "lon": -77.02406766666667, "name": "895aa253ba3c33130df2914a6ba45c7f"}, {"bike_id": "16b37ed0503a75524da1c9703ee1c1f0", "type": "electric_scooter", "is_disabled": 0, "lat": 38.9418355, "rental_uris": {"ios": "https://dc.lft.to/lastmile_qr_scan", "android": "https://dc.lft.to/lastmile_qr_scan"}, "is_reserved": 0, "fusion_lon": 0.0, "fusion_lat": 0.0, "lon": -77.02488833333334, "name": "16b37ed0503a75524da1c9703ee1c1f0"}, {"bike_id": "ccc80f7427d23a9fa55117a1941da548", "type": "electric_scooter", "is_disabled": 0, "lat": 38.90127833333333, "rental_uris": {"ios": "https://dc.lft.to/lastmile_qr_scan", "android": "https://dc.lft.to/lastmile_qr_scan"}, "is_reserved": 0, "fusion_lon": 0.0, "fusion_lat": 0.0, "lon": -77.04342833333334, "name": "ccc80f7427d23a9fa55117a1941da548"}, {"bike_id": "3f8d6705b2bbc7cf696a6c96cc5b7005", "type": "electric_scooter", "is_disabled": 0, "lat": 38.86681383333333, "rental_uris": {"ios": "https://dc.lft.to/lastmile_qr_scan", "android": "https://dc.lft.to/lastmile_qr_scan"}, "is_reserved": 0, "fusion_lon": 0.0, "fusion_lat": 0.0, "lon": -76.98527016666667, "name": "3f8d6705b2bbc7cf696a6c96cc5b7005"}, {"bike_id": "3bc8590c6ad9410d946e88096f76c459", "type": "electric_scooter", "is_disabled": 0, "lat": 38.89779383333333, "rental_uris": {"ios": "https://dc.lft.to/lastmile_qr_scan", "android": "https://dc.lft.to/lastmile_qr_scan"}, "is_reserved": 0, "fusion_lon": 0.0, "fusion_lat": 0.0, "lon": -76.94743016666666, "name": "3bc8590c6ad9410d946e88096f76c459"}, {"bike_id": "dbfdb2b10ae3819a06c72a6d76ae7221", "type": "electric_scooter", "is_disabled": 0, "lat": 38.92701533333333, "rental_uris": {"ios": "https://dc.lft.to/lastmile_qr_scan", "android": "https://dc.lft.to/lastmile_qr_scan"}, "is_reserved": 0, "fusion_lon": 0.0, "fusion_lat": 0.0, "lon": -77.020764, "name": "dbfdb2b10ae3819a06c72a6d76ae7221"}, {"bike_id": "240f8124257fa5ee3dbd21380b62f118", "type": "electric_scooter", "is_disabled": 0, "lat": 38.91407983333333, "rental_uris": {"ios": "https://dc.lft.to/lastmile_qr_scan", "android": "https://dc.lft.to/lastmile_qr_scan"}, "is_reserved": 0, "fusion_lon": 0.0, "fusion_lat": 0.0, "lon": -77.03835483333333, "name": "240f8124257fa5ee3dbd21380b62f118"}, {"bike_id": "2bc101cab172a0d417d151d8feb4930a", "type": "electric_scooter", "is_disabled": 0, "lat": 38.908631, "rental_uris": {"ios": "https://dc.lft.to/lastmile_qr_scan", "android": "https://dc.lft.to/lastmile_qr_scan"}, "is_reserved": 0, "fusion_lon": 0.0, "fusion_lat": 0.0, "lon": -77.04253983333334, "name": "2bc101cab172a0d417d151d8feb4930a"}, {"bike_id": "2338bc4a2921e9afd9c04438de8d5747", "type": "electric_scooter", "is_disabled": 0, "lat": 38.92478233333333, "rental_uris": {"ios": "https://dc.lft.to/lastmile_qr_scan", "android": "https://dc.lft.to/lastmile_qr_scan"}, "is_reserved": 0, "fusion_lon": 0.0, "fusion_lat": 0.0, "lon": -77.02837516666666, "name": "2338bc4a2921e9afd9c04438de8d5747"}, {"bike_id": "c33b965215c3e10eddf645d33622867f", "type": "electric_scooter", "is_disabled": 0, "lat": 38.918155, "rental_uris": {"ios": "https://dc.lft.to/lastmile_qr_scan", "android": "https://dc.lft.to/lastmile_qr_scan"}, "is_reserved": 0, "fusion_lon": 0.0, "fusion_lat": 0.0, "lon": -77.03250016666667, "name": "c33b965215c3e10eddf645d33622867f"}, {"bike_id": "175d7683ea430fd12ce18e72f8155b3b", "type": "electric_scooter", "is_disabled": 0, "lat": 38.89614266666667, "rental_uris": {"ios": "https://dc.lft.to/lastmile_qr_scan", "android": "https://dc.lft.to/lastmile_qr_scan"}, "is_reserved": 0, "fusion_lon": 0.0, "fusion_lat": 0.0, "lon": -77.04431116666666, "name": "175d7683ea430fd12ce18e72f8155b3b"}, {"bike_id": "265340feebd419de20ac0ced0ae53388", "type": "electric_scooter", "is_disabled": 0, "lat": 38.900200166666664, "rental_uris": {"ios": "https://dc.lft.to/lastmile_qr_scan", "android": "https://dc.lft.to/lastmile_qr_scan"}, "is_reserved": 0, "fusion_lon": 0.0, "fusion_lat": 0.0, "lon": -77.01175416666666, "name": "265340feebd419de20ac0ced0ae53388"}, {"bike_id": "699810021b82b628e1e960f2ef5e3f78", "type": "electric_scooter", "is_disabled": 0, "lat": 38.862437, "rental_uris": {"ios": "https://dc.lft.to/lastmile_qr_scan", "android": "https://dc.lft.to/lastmile_qr_scan"}, "is_reserved": 0, "fusion_lon": 0.0, "fusion_lat": 0.0, "lon": -76.994979, "name": "699810021b82b628e1e960f2ef5e3f78"}, {"bike_id": "3d5702ff4107c1b3fb41c928b94893e8", "type": "electric_bike", "is_disabled": 0, "lat": 38.99529116666667, "rental_uris": {"ios": "https://dc.lft.to/lastmile_qr_scan", "android": "https://dc.lft.to/lastmile_qr_scan"}, "is_reserved": 0, "fusion_lon": 0.0, "fusion_lat": 0.0, "lon": -77.06943516666666, "name": "3d5702ff4107c1b3fb41c928b94893e8"}, {"bike_id": "a9b748518b324b998bc28a937ce99a5c", "type": "electric_scooter", "is_disabled": 0, "lat": 38.924573, "rental_uris": {"ios": "https://dc.lft.to/lastmile_qr_scan", "android": "https://dc.lft.to/lastmile_qr_scan"}, "is_reserved": 0, "fusion_lon": 0.0, "fusion_lat": 0.0, "lon": -77.05223116666667, "name": "a9b748518b324b998bc28a937ce99a5c"}, {"bike_id": "b7bd12dd25e4f0fec8b87e2c5181918f", "type": "electric_scooter", "is_disabled": 0, "lat": 38.900253166666666, "rental_uris": {"ios": "https://dc.lft.to/lastmile_qr_scan", "android": "https://dc.lft.to/lastmile_qr_scan"}, "is_reserved": 0, "fusion_lon": 0.0, "fusion_lat": 0.0, "lon": -77.002027, "name": "b7bd12dd25e4f0fec8b87e2c5181918f"}, {"bike_id": "84624bcd7c01a4a55372e40bb0612aef", "type": "electric_scooter", "is_disabled": 0, "lat": 38.89607016666667, "rental_uris": {"ios": "https://dc.lft.to/lastmile_qr_scan", "android": "https://dc.lft.to/lastmile_qr_scan"}, "is_reserved": 0, "fusion_lon": 0.0, "fusion_lat": 0.0, "lon": -77.0219615, "name": "84624bcd7c01a4a55372e40bb0612aef"}, {"bike_id": "8bfff770d248bade9d7e5f3af9b31137", "type": "electric_scooter", "is_disabled": 0, "lat": 38.968497666666664, "rental_uris": {"ios": "https://dc.lft.to/lastmile_qr_scan", "android": "https://dc.lft.to/lastmile_qr_scan"}, "is_reserved": 0, "fusion_lon": 0.0, "fusion_lat": 0.0, "lon": -77.02727566666667, "name": "8bfff770d248bade9d7e5f3af9b31137"}, {"bike_id": "3d999885ef92ccb7465ea0f5b1de1a0f", "type": "electric_scooter", "is_disabled": 0, "lat": 38.900291, "rental_uris": {"ios": "https://dc.lft.to/lastmile_qr_scan", "android": "https://dc.lft.to/lastmile_qr_scan"}, "is_reserved": 0, "fusion_lon": 0.0, "fusion_lat": 0.0, "lon": -76.98854866666667, "name": "3d999885ef92ccb7465ea0f5b1de1a0f"}, {"bike_id": "154f02e4a2ebf94e62085d30e1cd0709", "type": "electric_scooter", "is_disabled": 0, "lat": 38.8764765, "rental_uris": {"ios": "https://dc.lft.to/lastmile_qr_scan", "android": "https://dc.lft.to/lastmile_qr_scan"}, "is_reserved": 0, "fusion_lon": 0.0, "fusion_lat": 0.0, "lon": -76.965065, "name": "154f02e4a2ebf94e62085d30e1cd0709"}, {"bike_id": "b5acf8ca9b73b49ac83fc5d0a3850fa3", "type": "electric_scooter", "is_disabled": 0, "lat": 38.86191133333333, "rental_uris": {"ios": "https://dc.lft.to/lastmile_qr_scan", "android": "https://dc.lft.to/lastmile_qr_scan"}, "is_reserved": 0, "fusion_lon": 0.0, "fusion_lat": 0.0, "lon": -76.95955, "name": "b5acf8ca9b73b49ac83fc5d0a3850fa3"}, {"bike_id": "b94c51c3fc75c785a39d2c6da88dc1ea", "type": "electric_scooter", "is_disabled": 0, "lat": 38.8775255, "rental_uris": {"ios": "https://dc.lft.to/lastmile_qr_scan", "android": "https://dc.lft.to/lastmile_qr_scan"}, "is_reserved": 0, "fusion_lon": 0.0, "fusion_lat": 0.0, "lon": -76.9868295, "name": "b94c51c3fc75c785a39d2c6da88dc1ea"}, {"bike_id": "2f1df9551a8afb27c89c7bed9f5417a6", "type": "electric_scooter", "is_disabled": 0, "lat": 38.8956815, "rental_uris": {"ios": "https://dc.lft.to/lastmile_qr_scan", "android": "https://dc.lft.to/lastmile_qr_scan"}, "is_reserved": 0, "fusion_lon": 0.0, "fusion_lat": 0.0, "lon": -76.93027383333333, "name": "2f1df9551a8afb27c89c7bed9f5417a6"}, {"bike_id": "fa214487a903a1bd4ea95fe58be6aa99", "type": "electric_scooter", "is_disabled": 0, "lat": 38.91106633333333, "rental_uris": {"ios": "https://dc.lft.to/lastmile_qr_scan", "android": "https://dc.lft.to/lastmile_qr_scan"}, "is_reserved": 0, "fusion_lon": 0.0, "fusion_lat": 0.0, "lon": -77.04206133333334, "name": "fa214487a903a1bd4ea95fe58be6aa99"}, {"bike_id": "0d31de50edc4534aa8c760380c9ae9a8", "type": "electric_scooter", "is_disabled": 0, "lat": 38.900168666666666, "rental_uris": {"ios": "https://dc.lft.to/lastmile_qr_scan", "android": "https://dc.lft.to/lastmile_qr_scan"}, "is_reserved": 0, "fusion_lon": 0.0, "fusion_lat": 0.0, "lon": -77.03813, "name": "0d31de50edc4534aa8c760380c9ae9a8"}, {"bike_id": "a2b6a0e924704391fbf1ac09f03a3f6a", "type": "electric_scooter", "is_disabled": 0, "lat": 38.91998616666667, "rental_uris": {"ios": "https://dc.lft.to/lastmile_qr_scan", "android": "https://dc.lft.to/lastmile_qr_scan"}, "is_reserved": 0, "fusion_lon": 0.0, "fusion_lat": 0.0, "lon": -77.03205366666667, "name": "a2b6a0e924704391fbf1ac09f03a3f6a"}, {"bike_id": "59d576e1d0e7e3211e1317669c15763f", "type": "electric_scooter", "is_disabled": 0, "lat": 38.914175166666666, "rental_uris": {"ios": "https://dc.lft.to/lastmile_qr_scan", "android": "https://dc.lft.to/lastmile_qr_scan"}, "is_reserved": 0, "fusion_lon": 0.0, "fusion_lat": 0.0, "lon": -77.0240845, "name": "59d576e1d0e7e3211e1317669c15763f"}, {"bike_id": "01b1e6eaee40aeeb66b120eb3d58784f", "type": "electric_scooter", "is_disabled": 0, "lat": 38.92180283333333, "rental_uris": {"ios": "https://dc.lft.to/lastmile_qr_scan", "android": "https://dc.lft.to/lastmile_qr_scan"}, "is_reserved": 0, "fusion_lon": 0.0, "fusion_lat": 0.0, "lon": -77.0266235, "name": "01b1e6eaee40aeeb66b120eb3d58784f"}, {"bike_id": "46aaf61884ed6ff613e74624f1ee137c", "type": "electric_scooter", "is_disabled": 0, "lat": 38.939952, "rental_uris": {"ios": "https://dc.lft.to/lastmile_qr_scan", "android": "https://dc.lft.to/lastmile_qr_scan"}, "is_reserved": 0, "fusion_lon": 0.0, "fusion_lat": 0.0, "lon": -77.01696116666666, "name": "46aaf61884ed6ff613e74624f1ee137c"}, {"bike_id": "c98a231165a68d051eb8d3ef2c634814", "type": "electric_scooter", "is_disabled": 0, "lat": 38.92007533333334, "rental_uris": {"ios": "https://dc.lft.to/lastmile_qr_scan", "android": "https://dc.lft.to/lastmile_qr_scan"}, "is_reserved": 0, "fusion_lon": 0.0, "fusion_lat": 0.0, "lon": -77.03174216666666, "name": "c98a231165a68d051eb8d3ef2c634814"}, {"bike_id": "cdbe3946c4440060cfac0fa96096ef36", "type": "electric_scooter", "is_disabled": 0, "lat": 38.900366, "rental_uris": {"ios": "https://dc.lft.to/lastmile_qr_scan", "android": "https://dc.lft.to/lastmile_qr_scan"}, "is_reserved": 0, "fusion_lon": 0.0, "fusion_lat": 0.0, "lon": -77.0019535, "name": "cdbe3946c4440060cfac0fa96096ef36"}, {"bike_id": "9c344131977b62951ac1cebe622ce34e", "type": "electric_scooter", "is_disabled": 0, "lat": 38.898616, "rental_uris": {"ios": "https://dc.lft.to/lastmile_qr_scan", "android": "https://dc.lft.to/lastmile_qr_scan"}, "is_reserved": 0, "fusion_lon": 0.0, "fusion_lat": 0.0, "lon": -77.03067366666667, "name": "9c344131977b62951ac1cebe622ce34e"}, {"bike_id": "ddfd0fced7d271f4bb81e635570fbafb", "type": "electric_scooter", "is_disabled": 0, "lat": 38.91482633333333, "rental_uris": {"ios": "https://dc.lft.to/lastmile_qr_scan", "android": "https://dc.lft.to/lastmile_qr_scan"}, "is_reserved": 0, "fusion_lon": 0.0, "fusion_lat": 0.0, "lon": -77.0217925, "name": "ddfd0fced7d271f4bb81e635570fbafb"}, {"bike_id": "44122a7a17ef81e71a64fffb5c4ca399", "type": "electric_scooter", "is_disabled": 0, "lat": 38.905653666666666, "rental_uris": {"ios": "https://dc.lft.to/lastmile_qr_scan", "android": "https://dc.lft.to/lastmile_qr_scan"}, "is_reserved": 0, "fusion_lon": 0.0, "fusion_lat": 0.0, "lon": -77.00594633333333, "name": "44122a7a17ef81e71a64fffb5c4ca399"}, {"bike_id": "ac66acfb9f38b4d3696da959dc75843d", "type": "electric_scooter", "is_disabled": 0, "lat": 38.927025666666665, "rental_uris": {"ios": "https://dc.lft.to/lastmile_qr_scan", "android": "https://dc.lft.to/lastmile_qr_scan"}, "is_reserved": 0, "fusion_lon": 0.0, "fusion_lat": 0.0, "lon": -77.02084933333333, "name": "ac66acfb9f38b4d3696da959dc75843d"}, {"bike_id": "63b6ba43c10765ecaabfebb506604f4d", "type": "electric_bike", "is_disabled": 0, "lat": 38.832460166666664, "rental_uris": {"ios": "https://dc.lft.to/lastmile_qr_scan", "android": "https://dc.lft.to/lastmile_qr_scan"}, "is_reserved": 0, "fusion_lon": 0.0, "fusion_lat": 0.0, "lon": -76.9463425, "name": "63b6ba43c10765ecaabfebb506604f4d"}, {"bike_id": "77d3eacdc04935dd6fde1f2298a056e6", "type": "electric_bike", "is_disabled": 0, "lat": 39.0342855, "rental_uris": {"ios": "https://dc.lft.to/lastmile_qr_scan", "android": "https://dc.lft.to/lastmile_qr_scan"}, "is_reserved": 0, "fusion_lon": 0.0, "fusion_lat": 0.0, "lon": -77.043225, "name": "77d3eacdc04935dd6fde1f2298a056e6"}, {"bike_id": "08b72768dc1c4efa316deb189b236cee", "type": "electric_scooter", "is_disabled": 0, "lat": 38.91542033333333, "rental_uris": {"ios": "https://dc.lft.to/lastmile_qr_scan", "android": "https://dc.lft.to/lastmile_qr_scan"}, "is_reserved": 0, "fusion_lon": 0.0, "fusion_lat": 0.0, "lon": -77.0385865, "name": "08b72768dc1c4efa316deb189b236cee"}, {"bike_id": "7ac6c2ba43480f9a235ad6fcd22c181c", "type": "electric_scooter", "is_disabled": 0, "lat": 38.90565816666667, "rental_uris": {"ios": "https://dc.lft.to/lastmile_qr_scan", "android": "https://dc.lft.to/lastmile_qr_scan"}, "is_reserved": 0, "fusion_lon": 0.0, "fusion_lat": 0.0, "lon": -76.977861, "name": "7ac6c2ba43480f9a235ad6fcd22c181c"}, {"bike_id": "b32554d82a452eb256e9acf7217a531f", "type": "electric_scooter", "is_disabled": 0, "lat": 38.9356085, "rental_uris": {"ios": "https://dc.lft.to/lastmile_qr_scan", "android": "https://dc.lft.to/lastmile_qr_scan"}, "is_reserved": 0, "fusion_lon": 0.0, "fusion_lat": 0.0, "lon": -77.03263966666667, "name": "b32554d82a452eb256e9acf7217a531f"}, {"bike_id": "4ed5eaf3a560c4e504b1aa40cd9f859d", "type": "electric_scooter", "is_disabled": 0, "lat": 38.91928933333333, "rental_uris": {"ios": "https://dc.lft.to/lastmile_qr_scan", "android": "https://dc.lft.to/lastmile_qr_scan"}, "is_reserved": 0, "fusion_lon": 0.0, "fusion_lat": 0.0, "lon": -77.0240845, "name": "4ed5eaf3a560c4e504b1aa40cd9f859d"}, {"bike_id": "bcc0431a8d519d385ecf368167e766e4", "type": "electric_bike", "is_disabled": 0, "lat": 38.89611216666667, "rental_uris": {"ios": "https://dc.lft.to/lastmile_qr_scan", "android": "https://dc.lft.to/lastmile_qr_scan"}, "is_reserved": 0, "fusion_lon": 0.0, "fusion_lat": 0.0, "lon": -76.907373, "name": "bcc0431a8d519d385ecf368167e766e4"}, {"bike_id": "6c4ba02e055a81196af5c6b89b6be6f7", "type": "electric_scooter", "is_disabled": 0, "lat": 38.912652, "rental_uris": {"ios": "https://dc.lft.to/lastmile_qr_scan", "android": "https://dc.lft.to/lastmile_qr_scan"}, "is_reserved": 0, "fusion_lon": 0.0, "fusion_lat": 0.0, "lon": -77.045022, "name": "6c4ba02e055a81196af5c6b89b6be6f7"}, {"bike_id": "c7b8c6b0854e435b4c9e8cedbe728ab3", "type": "electric_scooter", "is_disabled": 0, "lat": 38.90284333333334, "rental_uris": {"ios": "https://dc.lft.to/lastmile_qr_scan", "android": "https://dc.lft.to/lastmile_qr_scan"}, "is_reserved": 0, "fusion_lon": 0.0, "fusion_lat": 0.0, "lon": -77.03332733333333, "name": "c7b8c6b0854e435b4c9e8cedbe728ab3"}, {"bike_id": "41f0a7d5b6700eb231a04ac6446d320b", "type": "electric_scooter", "is_disabled": 0, "lat": 38.896111833333336, "rental_uris": {"ios": "https://dc.lft.to/lastmile_qr_scan", "android": "https://dc.lft.to/lastmile_qr_scan"}, "is_reserved": 0, "fusion_lon": 0.0, "fusion_lat": 0.0, "lon": -77.02201116666667, "name": "41f0a7d5b6700eb231a04ac6446d320b"}, {"bike_id": "228946e408e52a533426f3ab0fb7082e", "type": "electric_scooter", "is_disabled": 0, "lat": 38.92417233333333, "rental_uris": {"ios": "https://dc.lft.to/lastmile_qr_scan", "android": "https://dc.lft.to/lastmile_qr_scan"}, "is_reserved": 0, "fusion_lon": 0.0, "fusion_lat": 0.0, "lon": -77.02006183333333, "name": "228946e408e52a533426f3ab0fb7082e"}, {"bike_id": "ec09da986c343cb0fb178e3a57cb31dd", "type": "electric_scooter", "is_disabled": 0, "lat": 38.9041235, "rental_uris": {"ios": "https://dc.lft.to/lastmile_qr_scan", "android": "https://dc.lft.to/lastmile_qr_scan"}, "is_reserved": 0, "fusion_lon": 0.0, "fusion_lat": 0.0, "lon": -77.02432566666667, "name": "ec09da986c343cb0fb178e3a57cb31dd"}, {"bike_id": "6ebedba7a60cca36a0e901aa03d48c1c", "type": "electric_scooter", "is_disabled": 0, "lat": 38.9156045, "rental_uris": {"ios": "https://dc.lft.to/lastmile_qr_scan", "android": "https://dc.lft.to/lastmile_qr_scan"}, "is_reserved": 0, "fusion_lon": 0.0, "fusion_lat": 0.0, "lon": -77.0312165, "name": "6ebedba7a60cca36a0e901aa03d48c1c"}, {"bike_id": "b3c06b44986a3414f1650a19cc07fe04", "type": "electric_scooter", "is_disabled": 0, "lat": 38.926207166666664, "rental_uris": {"ios": "https://dc.lft.to/lastmile_qr_scan", "android": "https://dc.lft.to/lastmile_qr_scan"}, "is_reserved": 0, "fusion_lon": 0.0, "fusion_lat": 0.0, "lon": -77.03705716666667, "name": "b3c06b44986a3414f1650a19cc07fe04"}, {"bike_id": "6f0921c6c4b9512abca8564eafdbc0f3", "type": "electric_bike", "is_disabled": 0, "lat": 38.96166016666667, "rental_uris": {"ios": "https://dc.lft.to/lastmile_qr_scan", "android": "https://dc.lft.to/lastmile_qr_scan"}, "is_reserved": 0, "fusion_lon": 0.0, "fusion_lat": 0.0, "lon": -77.07356733333333, "name": "6f0921c6c4b9512abca8564eafdbc0f3"}, {"bike_id": "4ed8056f9a7efa9a741e1a2bdf1f6e77", "type": "electric_scooter", "is_disabled": 0, "lat": 38.904117666666664, "rental_uris": {"ios": "https://dc.lft.to/lastmile_qr_scan", "android": "https://dc.lft.to/lastmile_qr_scan"}, "is_reserved": 0, "fusion_lon": 0.0, "fusion_lat": 0.0, "lon": -76.973314, "name": "4ed8056f9a7efa9a741e1a2bdf1f6e77"}, {"bike_id": "210a77dbdb7c6ff1682a49f1f311c3eb", "type": "electric_scooter", "is_disabled": 0, "lat": 38.93511266666667, "rental_uris": {"ios": "https://dc.lft.to/lastmile_qr_scan", "android": "https://dc.lft.to/lastmile_qr_scan"}, "is_reserved": 0, "fusion_lon": 0.0, "fusion_lat": 0.0, "lon": -77.032862, "name": "210a77dbdb7c6ff1682a49f1f311c3eb"}, {"bike_id": "e848fda00b7e15a9b3158758fc6f91e4", "type": "electric_scooter", "is_disabled": 0, "lat": 38.9170185, "rental_uris": {"ios": "https://dc.lft.to/lastmile_qr_scan", "android": "https://dc.lft.to/lastmile_qr_scan"}, "is_reserved": 0, "fusion_lon": 0.0, "fusion_lat": 0.0, "lon": -77.03003083333333, "name": "e848fda00b7e15a9b3158758fc6f91e4"}, {"bike_id": "cac108e331b8f39211477198783c877c", "type": "electric_scooter", "is_disabled": 0, "lat": 38.905346333333334, "rental_uris": {"ios": "https://dc.lft.to/lastmile_qr_scan", "android": "https://dc.lft.to/lastmile_qr_scan"}, "is_reserved": 0, "fusion_lon": 0.0, "fusion_lat": 0.0, "lon": -76.98628116666667, "name": "cac108e331b8f39211477198783c877c"}, {"bike_id": "5274f0ec8bbf81a4d52ec14a1985ae1a", "type": "electric_scooter", "is_disabled": 0, "lat": 38.89719066666667, "rental_uris": {"ios": "https://dc.lft.to/lastmile_qr_scan", "android": "https://dc.lft.to/lastmile_qr_scan"}, "is_reserved": 0, "fusion_lon": 0.0, "fusion_lat": 0.0, "lon": -76.988372, "name": "5274f0ec8bbf81a4d52ec14a1985ae1a"}, {"bike_id": "066432b83deb8db4a8320dffaa44fdd3", "type": "electric_scooter", "is_disabled": 0, "lat": 38.90586283333333, "rental_uris": {"ios": "https://dc.lft.to/lastmile_qr_scan", "android": "https://dc.lft.to/lastmile_qr_scan"}, "is_reserved": 0, "fusion_lon": 0.0, "fusion_lat": 0.0, "lon": -77.040127, "name": "066432b83deb8db4a8320dffaa44fdd3"}, {"bike_id": "7e961a738f0ccf933f86782f440cdade", "type": "electric_scooter", "is_disabled": 0, "lat": 38.934685333333334, "rental_uris": {"ios": "https://dc.lft.to/lastmile_qr_scan", "android": "https://dc.lft.to/lastmile_qr_scan"}, "is_reserved": 0, "fusion_lon": 0.0, "fusion_lat": 0.0, "lon": -77.07259333333333, "name": "7e961a738f0ccf933f86782f440cdade"}, {"bike_id": "64a43bddd1c8c6e083afcff022c35b19", "type": "electric_scooter", "is_disabled": 0, "lat": 38.92162733333333, "rental_uris": {"ios": "https://dc.lft.to/lastmile_qr_scan", "android": "https://dc.lft.to/lastmile_qr_scan"}, "is_reserved": 0, "fusion_lon": 0.0, "fusion_lat": 0.0, "lon": -77.03847233333333, "name": "64a43bddd1c8c6e083afcff022c35b19"}, {"bike_id": "4cd7101259c8ca305fd524a0cd1b159b", "type": "electric_scooter", "is_disabled": 0, "lat": 38.85834966666667, "rental_uris": {"ios": "https://dc.lft.to/lastmile_qr_scan", "android": "https://dc.lft.to/lastmile_qr_scan"}, "is_reserved": 0, "fusion_lon": 0.0, "fusion_lat": 0.0, "lon": -76.98732666666666, "name": "4cd7101259c8ca305fd524a0cd1b159b"}, {"bike_id": "d631ffc0cf5cbeadc430c3ef689ffc6b", "type": "electric_scooter", "is_disabled": 0, "lat": 38.9463145, "rental_uris": {"ios": "https://dc.lft.to/lastmile_qr_scan", "android": "https://dc.lft.to/lastmile_qr_scan"}, "is_reserved": 0, "fusion_lon": 0.0, "fusion_lat": 0.0, "lon": -77.01848, "name": "d631ffc0cf5cbeadc430c3ef689ffc6b"}, {"bike_id": "8eea500e0104d564562473b742e7e9b1", "type": "electric_scooter", "is_disabled": 0, "lat": 38.894899, "rental_uris": {"ios": "https://dc.lft.to/lastmile_qr_scan", "android": "https://dc.lft.to/lastmile_qr_scan"}, "is_reserved": 0, "fusion_lon": 0.0, "fusion_lat": 0.0, "lon": -77.02282583333333, "name": "8eea500e0104d564562473b742e7e9b1"}, {"bike_id": "fe72c3b92ae0b5893b7139e5044c0f19", "type": "electric_scooter", "is_disabled": 0, "lat": 38.91806, "rental_uris": {"ios": "https://dc.lft.to/lastmile_qr_scan", "android": "https://dc.lft.to/lastmile_qr_scan"}, "is_reserved": 0, "fusion_lon": 0.0, "fusion_lat": 0.0, "lon": -77.02721083333333, "name": "fe72c3b92ae0b5893b7139e5044c0f19"}, {"bike_id": "2dacfd78512bf6dbad871fc342eba099", "type": "electric_scooter", "is_disabled": 0, "lat": 38.93347416666667, "rental_uris": {"ios": "https://dc.lft.to/lastmile_qr_scan", "android": "https://dc.lft.to/lastmile_qr_scan"}, "is_reserved": 0, "fusion_lon": 0.0, "fusion_lat": 0.0, "lon": -77.06202333333333, "name": "2dacfd78512bf6dbad871fc342eba099"}, {"bike_id": "3c09b78c6aa59321f1a38542ff033efb", "type": "electric_scooter", "is_disabled": 0, "lat": 38.92397483333333, "rental_uris": {"ios": "https://dc.lft.to/lastmile_qr_scan", "android": "https://dc.lft.to/lastmile_qr_scan"}, "is_reserved": 0, "fusion_lon": 0.0, "fusion_lat": 0.0, "lon": -77.025437, "name": "3c09b78c6aa59321f1a38542ff033efb"}, {"bike_id": "7087f50cca1fb8692189b99642cc26e9", "type": "electric_scooter", "is_disabled": 0, "lat": 38.894773666666666, "rental_uris": {"ios": "https://dc.lft.to/lastmile_qr_scan", "android": "https://dc.lft.to/lastmile_qr_scan"}, "is_reserved": 0, "fusion_lon": 0.0, "fusion_lat": 0.0, "lon": -76.99515983333333, "name": "7087f50cca1fb8692189b99642cc26e9"}, {"bike_id": "2c62cd77ce617c17e0e2b3c89e011d71", "type": "electric_bike", "is_disabled": 0, "lat": 38.8493275, "rental_uris": {"ios": "https://dc.lft.to/lastmile_qr_scan", "android": "https://dc.lft.to/lastmile_qr_scan"}, "is_reserved": 0, "fusion_lon": 0.0, "fusion_lat": 0.0, "lon": -77.1001535, "name": "2c62cd77ce617c17e0e2b3c89e011d71"}, {"bike_id": "fbb232f9be3fdfbf475f206ac2164653", "type": "electric_scooter", "is_disabled": 0, "lat": 38.91546816666666, "rental_uris": {"ios": "https://dc.lft.to/lastmile_qr_scan", "android": "https://dc.lft.to/lastmile_qr_scan"}, "is_reserved": 0, "fusion_lon": 0.0, "fusion_lat": 0.0, "lon": -77.03857016666667, "name": "fbb232f9be3fdfbf475f206ac2164653"}, {"bike_id": "5d0aa59a42b961236a9a9bb1725367d8", "type": "electric_scooter", "is_disabled": 0, "lat": 38.8669725, "rental_uris": {"ios": "https://dc.lft.to/lastmile_qr_scan", "android": "https://dc.lft.to/lastmile_qr_scan"}, "is_reserved": 0, "fusion_lon": 0.0, "fusion_lat": 0.0, "lon": -76.98716966666667, "name": "5d0aa59a42b961236a9a9bb1725367d8"}, {"bike_id": "743cc6f55df8a5bc7f6c223f11994c02", "type": "electric_bike", "is_disabled": 0, "lat": 38.941243166666666, "rental_uris": {"ios": "https://dc.lft.to/lastmile_qr_scan", "android": "https://dc.lft.to/lastmile_qr_scan"}, "is_reserved": 0, "fusion_lon": 0.0, "fusion_lat": 0.0, "lon": -77.00069633333334, "name": "743cc6f55df8a5bc7f6c223f11994c02"}, {"bike_id": "45d7d23877c483b3eddced48522eb766", "type": "electric_scooter", "is_disabled": 0, "lat": 38.85756333333333, "rental_uris": {"ios": "https://dc.lft.to/lastmile_qr_scan", "android": "https://dc.lft.to/lastmile_qr_scan"}, "is_reserved": 0, "fusion_lon": 0.0, "fusion_lat": 0.0, "lon": -76.99304383333333, "name": "45d7d23877c483b3eddced48522eb766"}, {"bike_id": "a0329bfafddbe0baa02fc0cddce24cc8", "type": "electric_scooter", "is_disabled": 0, "lat": 38.92396033333333, "rental_uris": {"ios": "https://dc.lft.to/lastmile_qr_scan", "android": "https://dc.lft.to/lastmile_qr_scan"}, "is_reserved": 0, "fusion_lon": 0.0, "fusion_lat": 0.0, "lon": -77.040657, "name": "a0329bfafddbe0baa02fc0cddce24cc8"}, {"bike_id": "49ad77463dfc4a3fca83905eaed793af", "type": "electric_scooter", "is_disabled": 0, "lat": 38.931100666666666, "rental_uris": {"ios": "https://dc.lft.to/lastmile_qr_scan", "android": "https://dc.lft.to/lastmile_qr_scan"}, "is_reserved": 0, "fusion_lon": 0.0, "fusion_lat": 0.0, "lon": -77.03031283333333, "name": "49ad77463dfc4a3fca83905eaed793af"}, {"bike_id": "26c545aefdeee9fabda7eb26e96bea92", "type": "electric_scooter", "is_disabled": 0, "lat": 38.915433666666665, "rental_uris": {"ios": "https://dc.lft.to/lastmile_qr_scan", "android": "https://dc.lft.to/lastmile_qr_scan"}, "is_reserved": 0, "fusion_lon": 0.0, "fusion_lat": 0.0, "lon": -77.012218, "name": "26c545aefdeee9fabda7eb26e96bea92"}, {"bike_id": "6018aa02ebde20476b6f16b89f93e9b5", "type": "electric_scooter", "is_disabled": 0, "lat": 38.873554166666665, "rental_uris": {"ios": "https://dc.lft.to/lastmile_qr_scan", "android": "https://dc.lft.to/lastmile_qr_scan"}, "is_reserved": 0, "fusion_lon": 0.0, "fusion_lat": 0.0, "lon": -77.00103266666666, "name": "6018aa02ebde20476b6f16b89f93e9b5"}, {"bike_id": "dae6667a250074f61365388611e08b3d", "type": "electric_scooter", "is_disabled": 0, "lat": 38.907253833333336, "rental_uris": {"ios": "https://dc.lft.to/lastmile_qr_scan", "android": "https://dc.lft.to/lastmile_qr_scan"}, "is_reserved": 0, "fusion_lon": 0.0, "fusion_lat": 0.0, "lon": -77.02389816666667, "name": "dae6667a250074f61365388611e08b3d"}, {"bike_id": "b78b8206a45e4434b0c68191ee96968e", "type": "electric_scooter", "is_disabled": 0, "lat": 38.867343166666664, "rental_uris": {"ios": "https://dc.lft.to/lastmile_qr_scan", "android": "https://dc.lft.to/lastmile_qr_scan"}, "is_reserved": 0, "fusion_lon": 0.0, "fusion_lat": 0.0, "lon": -76.97855966666667, "name": "b78b8206a45e4434b0c68191ee96968e"}, {"bike_id": "bf294092e40093022dc625067833c656", "type": "electric_scooter", "is_disabled": 0, "lat": 38.9213835, "rental_uris": {"ios": "https://dc.lft.to/lastmile_qr_scan", "android": "https://dc.lft.to/lastmile_qr_scan"}, "is_reserved": 0, "fusion_lon": 0.0, "fusion_lat": 0.0, "lon": -77.036585, "name": "bf294092e40093022dc625067833c656"}, {"bike_id": "b6e745a3b77592627efa7e3f1fb3f814", "type": "electric_scooter", "is_disabled": 0, "lat": 38.9094215, "rental_uris": {"ios": "https://dc.lft.to/lastmile_qr_scan", "android": "https://dc.lft.to/lastmile_qr_scan"}, "is_reserved": 0, "fusion_lon": 0.0, "fusion_lat": 0.0, "lon": -77.055635, "name": "b6e745a3b77592627efa7e3f1fb3f814"}, {"bike_id": "02f1ffbf53db9747dd3f074c3a6dd250", "type": "electric_scooter", "is_disabled": 0, "lat": 38.950745166666664, "rental_uris": {"ios": "https://dc.lft.to/lastmile_qr_scan", "android": "https://dc.lft.to/lastmile_qr_scan"}, "is_reserved": 0, "fusion_lon": 0.0, "fusion_lat": 0.0, "lon": -77.02985016666666, "name": "02f1ffbf53db9747dd3f074c3a6dd250"}, {"bike_id": "64d9689942bdb5017faf3143390dd373", "type": "electric_scooter", "is_disabled": 0, "lat": 38.925966, "rental_uris": {"ios": "https://dc.lft.to/lastmile_qr_scan", "android": "https://dc.lft.to/lastmile_qr_scan"}, "is_reserved": 0, "fusion_lon": 0.0, "fusion_lat": 0.0, "lon": -77.0239215, "name": "64d9689942bdb5017faf3143390dd373"}, {"bike_id": "88f470b134c9678b6c46e11e9acce358", "type": "electric_scooter", "is_disabled": 0, "lat": 38.914226166666666, "rental_uris": {"ios": "https://dc.lft.to/lastmile_qr_scan", "android": "https://dc.lft.to/lastmile_qr_scan"}, "is_reserved": 0, "fusion_lon": 0.0, "fusion_lat": 0.0, "lon": -77.0180815, "name": "88f470b134c9678b6c46e11e9acce358"}, {"bike_id": "2cdcb57f21dcdc3cf9c7ae58b726a105", "type": "electric_scooter", "is_disabled": 0, "lat": 38.92317416666667, "rental_uris": {"ios": "https://dc.lft.to/lastmile_qr_scan", "android": "https://dc.lft.to/lastmile_qr_scan"}, "is_reserved": 0, "fusion_lon": 0.0, "fusion_lat": 0.0, "lon": -77.03819166666666, "name": "2cdcb57f21dcdc3cf9c7ae58b726a105"}, {"bike_id": "fe8381324f18c01b0202b7d1312762be", "type": "electric_scooter", "is_disabled": 0, "lat": 38.90299866666667, "rental_uris": {"ios": "https://dc.lft.to/lastmile_qr_scan", "android": "https://dc.lft.to/lastmile_qr_scan"}, "is_reserved": 0, "fusion_lon": 0.0, "fusion_lat": 0.0, "lon": -77.033741, "name": "fe8381324f18c01b0202b7d1312762be"}, {"bike_id": "712a05da481823a0a8b054d348a2a5be", "type": "electric_scooter", "is_disabled": 0, "lat": 38.934623, "rental_uris": {"ios": "https://dc.lft.to/lastmile_qr_scan", "android": "https://dc.lft.to/lastmile_qr_scan"}, "is_reserved": 0, "fusion_lon": 0.0, "fusion_lat": 0.0, "lon": -77.027766, "name": "712a05da481823a0a8b054d348a2a5be"}, {"bike_id": "ccb04605e3b8c64f74c3f2dfcecd8eb8", "type": "electric_scooter", "is_disabled": 0, "lat": 38.91919716666666, "rental_uris": {"ios": "https://dc.lft.to/lastmile_qr_scan", "android": "https://dc.lft.to/lastmile_qr_scan"}, "is_reserved": 0, "fusion_lon": 0.0, "fusion_lat": 0.0, "lon": -77.03435133333333, "name": "ccb04605e3b8c64f74c3f2dfcecd8eb8"}, {"bike_id": "a9225b1bf4810ad7d19750b23805f992", "type": "electric_scooter", "is_disabled": 0, "lat": 38.92763266666667, "rental_uris": {"ios": "https://dc.lft.to/lastmile_qr_scan", "android": "https://dc.lft.to/lastmile_qr_scan"}, "is_reserved": 0, "fusion_lon": 0.0, "fusion_lat": 0.0, "lon": -76.96098216666667, "name": "a9225b1bf4810ad7d19750b23805f992"}, {"bike_id": "8cda8ba686adbb1c89510f2368050b85", "type": "electric_scooter", "is_disabled": 0, "lat": 38.921526166666666, "rental_uris": {"ios": "https://dc.lft.to/lastmile_qr_scan", "android": "https://dc.lft.to/lastmile_qr_scan"}, "is_reserved": 0, "fusion_lon": 0.0, "fusion_lat": 0.0, "lon": -77.03521816666667, "name": "8cda8ba686adbb1c89510f2368050b85"}, {"bike_id": "37fbe1f24792d521c06dc545aeb31b38", "type": "electric_scooter", "is_disabled": 0, "lat": 38.93031783333333, "rental_uris": {"ios": "https://dc.lft.to/lastmile_qr_scan", "android": "https://dc.lft.to/lastmile_qr_scan"}, "is_reserved": 0, "fusion_lon": 0.0, "fusion_lat": 0.0, "lon": -77.037893, "name": "37fbe1f24792d521c06dc545aeb31b38"}, {"bike_id": "8ec581437401308fa339dbceb569063c", "type": "electric_scooter", "is_disabled": 0, "lat": 38.910349, "rental_uris": {"ios": "https://dc.lft.to/lastmile_qr_scan", "android": "https://dc.lft.to/lastmile_qr_scan"}, "is_reserved": 0, "fusion_lon": 0.0, "fusion_lat": 0.0, "lon": -77.03797916666667, "name": "8ec581437401308fa339dbceb569063c"}, {"bike_id": "f8c01f8688eb478956857f333fe4aeca", "type": "electric_scooter", "is_disabled": 0, "lat": 38.89618, "rental_uris": {"ios": "https://dc.lft.to/lastmile_qr_scan", "android": "https://dc.lft.to/lastmile_qr_scan"}, "is_reserved": 0, "fusion_lon": 0.0, "fusion_lat": 0.0, "lon": -77.02649766666667, "name": "f8c01f8688eb478956857f333fe4aeca"}, {"bike_id": "e754286c01f0f0960e0494b3aa4be191", "type": "electric_scooter", "is_disabled": 0, "lat": 38.8946775, "rental_uris": {"ios": "https://dc.lft.to/lastmile_qr_scan", "android": "https://dc.lft.to/lastmile_qr_scan"}, "is_reserved": 0, "fusion_lon": 0.0, "fusion_lat": 0.0, "lon": -77.01100983333333, "name": "e754286c01f0f0960e0494b3aa4be191"}, {"bike_id": "2f5e3cf09b9eeae203de789915fb3af2", "type": "electric_scooter", "is_disabled": 0, "lat": 38.92800066666667, "rental_uris": {"ios": "https://dc.lft.to/lastmile_qr_scan", "android": "https://dc.lft.to/lastmile_qr_scan"}, "is_reserved": 0, "fusion_lon": 0.0, "fusion_lat": 0.0, "lon": -77.05356566666667, "name": "2f5e3cf09b9eeae203de789915fb3af2"}, {"bike_id": "60b9df32615b62540f4d628fdf682dee", "type": "electric_scooter", "is_disabled": 0, "lat": 38.91112316666667, "rental_uris": {"ios": "https://dc.lft.to/lastmile_qr_scan", "android": "https://dc.lft.to/lastmile_qr_scan"}, "is_reserved": 0, "fusion_lon": 0.0, "fusion_lat": 0.0, "lon": -77.03284833333333, "name": "60b9df32615b62540f4d628fdf682dee"}, {"bike_id": "a3ca21a85d82dd9742094b99c7bd8cd1", "type": "electric_scooter", "is_disabled": 0, "lat": 38.922971, "rental_uris": {"ios": "https://dc.lft.to/lastmile_qr_scan", "android": "https://dc.lft.to/lastmile_qr_scan"}, "is_reserved": 0, "fusion_lon": 0.0, "fusion_lat": 0.0, "lon": -77.04458766666667, "name": "a3ca21a85d82dd9742094b99c7bd8cd1"}, {"bike_id": "e22038f56133e973bd0322cc70f85edb", "type": "electric_scooter", "is_disabled": 0, "lat": 38.890761499999996, "rental_uris": {"ios": "https://dc.lft.to/lastmile_qr_scan", "android": "https://dc.lft.to/lastmile_qr_scan"}, "is_reserved": 0, "fusion_lon": 0.0, "fusion_lat": 0.0, "lon": -76.98822133333333, "name": "e22038f56133e973bd0322cc70f85edb"}, {"bike_id": "cc311757cd40dbd10b69397311f5681c", "type": "electric_scooter", "is_disabled": 0, "lat": 38.8871685, "rental_uris": {"ios": "https://dc.lft.to/lastmile_qr_scan", "android": "https://dc.lft.to/lastmile_qr_scan"}, "is_reserved": 0, "fusion_lon": 0.0, "fusion_lat": 0.0, "lon": -76.99627083333333, "name": "cc311757cd40dbd10b69397311f5681c"}, {"bike_id": "0fee8b00bf93209e52e2e5ca5798633a", "type": "electric_scooter", "is_disabled": 0, "lat": 38.90981033333333, "rental_uris": {"ios": "https://dc.lft.to/lastmile_qr_scan", "android": "https://dc.lft.to/lastmile_qr_scan"}, "is_reserved": 0, "fusion_lon": 0.0, "fusion_lat": 0.0, "lon": -77.03857516666666, "name": "0fee8b00bf93209e52e2e5ca5798633a"}, {"bike_id": "b348f6043a86e177a3577fea877b0357", "type": "electric_scooter", "is_disabled": 0, "lat": 38.9072725, "rental_uris": {"ios": "https://dc.lft.to/lastmile_qr_scan", "android": "https://dc.lft.to/lastmile_qr_scan"}, "is_reserved": 0, "fusion_lon": 0.0, "fusion_lat": 0.0, "lon": -77.04094916666666, "name": "b348f6043a86e177a3577fea877b0357"}, {"bike_id": "0b8a2424bb7266511bba62dababf0572", "type": "electric_scooter", "is_disabled": 0, "lat": 38.94290133333333, "rental_uris": {"ios": "https://dc.lft.to/lastmile_qr_scan", "android": "https://dc.lft.to/lastmile_qr_scan"}, "is_reserved": 0, "fusion_lon": 0.0, "fusion_lat": 0.0, "lon": -77.02164166666667, "name": "0b8a2424bb7266511bba62dababf0572"}, {"bike_id": "ebf557c5c7efcad17e1233e21913f0a2", "type": "electric_bike", "is_disabled": 0, "lat": 38.89739516666667, "rental_uris": {"ios": "https://dc.lft.to/lastmile_qr_scan", "android": "https://dc.lft.to/lastmile_qr_scan"}, "is_reserved": 0, "fusion_lon": 0.0, "fusion_lat": 0.0, "lon": -76.942476, "name": "ebf557c5c7efcad17e1233e21913f0a2"}, {"bike_id": "6348235b731a44a3e2791ca4b1e67967", "type": "electric_scooter", "is_disabled": 0, "lat": 38.90777083333333, "rental_uris": {"ios": "https://dc.lft.to/lastmile_qr_scan", "android": "https://dc.lft.to/lastmile_qr_scan"}, "is_reserved": 0, "fusion_lon": 0.0, "fusion_lat": 0.0, "lon": -77.041668, "name": "6348235b731a44a3e2791ca4b1e67967"}, {"bike_id": "75764401e50ca4c0375d120307f8537e", "type": "electric_scooter", "is_disabled": 0, "lat": 38.915496166666664, "rental_uris": {"ios": "https://dc.lft.to/lastmile_qr_scan", "android": "https://dc.lft.to/lastmile_qr_scan"}, "is_reserved": 0, "fusion_lon": 0.0, "fusion_lat": 0.0, "lon": -77.00360333333333, "name": "75764401e50ca4c0375d120307f8537e"}, {"bike_id": "5a941bf4f1356532f6409dd707d7cd9b", "type": "electric_scooter", "is_disabled": 0, "lat": 38.91562416666667, "rental_uris": {"ios": "https://dc.lft.to/lastmile_qr_scan", "android": "https://dc.lft.to/lastmile_qr_scan"}, "is_reserved": 0, "fusion_lon": 0.0, "fusion_lat": 0.0, "lon": -77.03827266666667, "name": "5a941bf4f1356532f6409dd707d7cd9b"}, {"bike_id": "a08a6e81a5d6d03903bac4970b2830f4", "type": "electric_scooter", "is_disabled": 0, "lat": 38.90690816666667, "rental_uris": {"ios": "https://dc.lft.to/lastmile_qr_scan", "android": "https://dc.lft.to/lastmile_qr_scan"}, "is_reserved": 0, "fusion_lon": 0.0, "fusion_lat": 0.0, "lon": -77.0259045, "name": "a08a6e81a5d6d03903bac4970b2830f4"}, {"bike_id": "0df225dc5c677d3b7af29400615e694c", "type": "electric_scooter", "is_disabled": 0, "lat": 38.923583, "rental_uris": {"ios": "https://dc.lft.to/lastmile_qr_scan", "android": "https://dc.lft.to/lastmile_qr_scan"}, "is_reserved": 0, "fusion_lon": 0.0, "fusion_lat": 0.0, "lon": -77.034934, "name": "0df225dc5c677d3b7af29400615e694c"}, {"bike_id": "cfcff1c5b3f3198c7d1b0d16b13a9897", "type": "electric_scooter", "is_disabled": 0, "lat": 38.947145666666664, "rental_uris": {"ios": "https://dc.lft.to/lastmile_qr_scan", "android": "https://dc.lft.to/lastmile_qr_scan"}, "is_reserved": 0, "fusion_lon": 0.0, "fusion_lat": 0.0, "lon": -77.0653695, "name": "cfcff1c5b3f3198c7d1b0d16b13a9897"}, {"bike_id": "68f48b7139559b57c900d751642c6268", "type": "electric_scooter", "is_disabled": 0, "lat": 38.917708166666664, "rental_uris": {"ios": "https://dc.lft.to/lastmile_qr_scan", "android": "https://dc.lft.to/lastmile_qr_scan"}, "is_reserved": 0, "fusion_lon": 0.0, "fusion_lat": 0.0, "lon": -77.025071, "name": "68f48b7139559b57c900d751642c6268"}, {"bike_id": "55463203c554b5f1357f4b874cddac59", "type": "electric_bike", "is_disabled": 0, "lat": 38.99220783333333, "rental_uris": {"ios": "https://dc.lft.to/lastmile_qr_scan", "android": "https://dc.lft.to/lastmile_qr_scan"}, "is_reserved": 0, "fusion_lon": 0.0, "fusion_lat": 0.0, "lon": -76.9442135, "name": "55463203c554b5f1357f4b874cddac59"}, {"bike_id": "553ea9ab7b7ab97987525a5c115369db", "type": "electric_bike", "is_disabled": 0, "lat": 38.85531733333333, "rental_uris": {"ios": "https://dc.lft.to/lastmile_qr_scan", "android": "https://dc.lft.to/lastmile_qr_scan"}, "is_reserved": 0, "fusion_lon": 0.0, "fusion_lat": 0.0, "lon": -77.12014083333334, "name": "553ea9ab7b7ab97987525a5c115369db"}, {"bike_id": "0c0c96b25c7e5e4bf335a077a1562f1f", "type": "electric_bike", "is_disabled": 0, "lat": 38.8548035, "rental_uris": {"ios": "https://dc.lft.to/lastmile_qr_scan", "android": "https://dc.lft.to/lastmile_qr_scan"}, "is_reserved": 0, "fusion_lon": 0.0, "fusion_lat": 0.0, "lon": -77.11606966666666, "name": "0c0c96b25c7e5e4bf335a077a1562f1f"}, {"bike_id": "8afaef21cb33d4354295cfb50a3f7edb", "type": "electric_scooter", "is_disabled": 0, "lat": 38.927622, "rental_uris": {"ios": "https://dc.lft.to/lastmile_qr_scan", "android": "https://dc.lft.to/lastmile_qr_scan"}, "is_reserved": 0, "fusion_lon": 0.0, "fusion_lat": 0.0, "lon": -77.02732683333333, "name": "8afaef21cb33d4354295cfb50a3f7edb"}, {"bike_id": "0ed85fc5dee9e7e675c7b3e12cba0540", "type": "electric_scooter", "is_disabled": 0, "lat": 38.9055905, "rental_uris": {"ios": "https://dc.lft.to/lastmile_qr_scan", "android": "https://dc.lft.to/lastmile_qr_scan"}, "is_reserved": 0, "fusion_lon": 0.0, "fusion_lat": 0.0, "lon": -77.00589333333333, "name": "0ed85fc5dee9e7e675c7b3e12cba0540"}, {"bike_id": "c8bccc93878a4190b979e37086560c59", "type": "electric_bike", "is_disabled": 0, "lat": 38.85561166666667, "rental_uris": {"ios": "https://dc.lft.to/lastmile_qr_scan", "android": "https://dc.lft.to/lastmile_qr_scan"}, "is_reserved": 0, "fusion_lon": 0.0, "fusion_lat": 0.0, "lon": -77.113169, "name": "c8bccc93878a4190b979e37086560c59"}, {"bike_id": "69f09fee8c88fb7bf011d133e9c76c8f", "type": "electric_scooter", "is_disabled": 0, "lat": 38.912463333333335, "rental_uris": {"ios": "https://dc.lft.to/lastmile_qr_scan", "android": "https://dc.lft.to/lastmile_qr_scan"}, "is_reserved": 0, "fusion_lon": 0.0, "fusion_lat": 0.0, "lon": -77.05877766666667, "name": "69f09fee8c88fb7bf011d133e9c76c8f"}, {"bike_id": "2907d01540e9e2d709d15ab0abcba4d7", "type": "electric_scooter", "is_disabled": 0, "lat": 38.9023555, "rental_uris": {"ios": "https://dc.lft.to/lastmile_qr_scan", "android": "https://dc.lft.to/lastmile_qr_scan"}, "is_reserved": 0, "fusion_lon": 0.0, "fusion_lat": 0.0, "lon": -77.00210583333333, "name": "2907d01540e9e2d709d15ab0abcba4d7"}, {"bike_id": "9927155a68d476ccbbc083497bd8ca00", "type": "electric_scooter", "is_disabled": 0, "lat": 38.9169595, "rental_uris": {"ios": "https://dc.lft.to/lastmile_qr_scan", "android": "https://dc.lft.to/lastmile_qr_scan"}, "is_reserved": 0, "fusion_lon": 0.0, "fusion_lat": 0.0, "lon": -77.0116165, "name": "9927155a68d476ccbbc083497bd8ca00"}, {"bike_id": "c0b53d00baf6aeba2616c09ca22b8b81", "type": "electric_scooter", "is_disabled": 0, "lat": 38.9055685, "rental_uris": {"ios": "https://dc.lft.to/lastmile_qr_scan", "android": "https://dc.lft.to/lastmile_qr_scan"}, "is_reserved": 0, "fusion_lon": 0.0, "fusion_lat": 0.0, "lon": -77.016783, "name": "c0b53d00baf6aeba2616c09ca22b8b81"}, {"bike_id": "4eb9c8a42009e1c2b7ef90b729dfcd52", "type": "electric_scooter", "is_disabled": 0, "lat": 38.89883783333333, "rental_uris": {"ios": "https://dc.lft.to/lastmile_qr_scan", "android": "https://dc.lft.to/lastmile_qr_scan"}, "is_reserved": 0, "fusion_lon": 0.0, "fusion_lat": 0.0, "lon": -76.931753, "name": "4eb9c8a42009e1c2b7ef90b729dfcd52"}, {"bike_id": "9a2130a21d67584c7f28dada99d6202f", "type": "electric_scooter", "is_disabled": 0, "lat": 38.91557933333333, "rental_uris": {"ios": "https://dc.lft.to/lastmile_qr_scan", "android": "https://dc.lft.to/lastmile_qr_scan"}, "is_reserved": 0, "fusion_lon": 0.0, "fusion_lat": 0.0, "lon": -77.024189, "name": "9a2130a21d67584c7f28dada99d6202f"}, {"bike_id": "6e179bd87f3cd32a2550a4a8831a2e9f", "type": "electric_bike", "is_disabled": 0, "lat": 38.98455333333333, "rental_uris": {"ios": "https://dc.lft.to/lastmile_qr_scan", "android": "https://dc.lft.to/lastmile_qr_scan"}, "is_reserved": 0, "fusion_lon": 0.0, "fusion_lat": 0.0, "lon": -77.09236366666667, "name": "6e179bd87f3cd32a2550a4a8831a2e9f"}, {"bike_id": "052c3a9952ada3e229380c5ced4b4e7e", "type": "electric_scooter", "is_disabled": 0, "lat": 38.89355716666667, "rental_uris": {"ios": "https://dc.lft.to/lastmile_qr_scan", "android": "https://dc.lft.to/lastmile_qr_scan"}, "is_reserved": 0, "fusion_lon": 0.0, "fusion_lat": 0.0, "lon": -77.02223033333334, "name": "052c3a9952ada3e229380c5ced4b4e7e"}, {"bike_id": "c707747e2f3e923e434a1d9063b160d9", "type": "electric_bike", "is_disabled": 0, "lat": 38.84828233333333, "rental_uris": {"ios": "https://dc.lft.to/lastmile_qr_scan", "android": "https://dc.lft.to/lastmile_qr_scan"}, "is_reserved": 0, "fusion_lon": 0.0, "fusion_lat": 0.0, "lon": -77.07906883333334, "name": "c707747e2f3e923e434a1d9063b160d9"}, {"bike_id": "30fefdbf1cf45626efc37f9c5a22b17b", "type": "electric_scooter", "is_disabled": 0, "lat": 38.93609216666667, "rental_uris": {"ios": "https://dc.lft.to/lastmile_qr_scan", "android": "https://dc.lft.to/lastmile_qr_scan"}, "is_reserved": 0, "fusion_lon": 0.0, "fusion_lat": 0.0, "lon": -77.05887633333333, "name": "30fefdbf1cf45626efc37f9c5a22b17b"}, {"bike_id": "9e33fd868dfc5804d9cafc32350ebccd", "type": "electric_scooter", "is_disabled": 0, "lat": 38.91545683333333, "rental_uris": {"ios": "https://dc.lft.to/lastmile_qr_scan", "android": "https://dc.lft.to/lastmile_qr_scan"}, "is_reserved": 0, "fusion_lon": 0.0, "fusion_lat": 0.0, "lon": -77.03847966666666, "name": "9e33fd868dfc5804d9cafc32350ebccd"}, {"bike_id": "8cf3d3c05a5c4c804d1b6d96489caa4a", "type": "electric_scooter", "is_disabled": 0, "lat": 38.902695666666666, "rental_uris": {"ios": "https://dc.lft.to/lastmile_qr_scan", "android": "https://dc.lft.to/lastmile_qr_scan"}, "is_reserved": 0, "fusion_lon": 0.0, "fusion_lat": 0.0, "lon": -77.01753833333333, "name": "8cf3d3c05a5c4c804d1b6d96489caa4a"}, {"bike_id": "339c169dfdddba517b12c1eb3dc73a29", "type": "electric_scooter", "is_disabled": 0, "lat": 38.86671466666667, "rental_uris": {"ios": "https://dc.lft.to/lastmile_qr_scan", "android": "https://dc.lft.to/lastmile_qr_scan"}, "is_reserved": 0, "fusion_lon": 0.0, "fusion_lat": 0.0, "lon": -76.98540066666666, "name": "339c169dfdddba517b12c1eb3dc73a29"}, {"bike_id": "d2e02d40e2c935d98c0206846ea0c2c8", "type": "electric_scooter", "is_disabled": 0, "lat": 38.9123345, "rental_uris": {"ios": "https://dc.lft.to/lastmile_qr_scan", "android": "https://dc.lft.to/lastmile_qr_scan"}, "is_reserved": 0, "fusion_lon": 0.0, "fusion_lat": 0.0, "lon": -77.03841916666667, "name": "d2e02d40e2c935d98c0206846ea0c2c8"}, {"bike_id": "6e5b250ee8480e6c60e643fffd4d607e", "type": "electric_scooter", "is_disabled": 0, "lat": 38.92814683333334, "rental_uris": {"ios": "https://dc.lft.to/lastmile_qr_scan", "android": "https://dc.lft.to/lastmile_qr_scan"}, "is_reserved": 0, "fusion_lon": 0.0, "fusion_lat": 0.0, "lon": -77.02259116666667, "name": "6e5b250ee8480e6c60e643fffd4d607e"}, {"bike_id": "d8d81dfd6fc459cb4c737feb7742042d", "type": "electric_bike", "is_disabled": 0, "lat": 38.834245, "rental_uris": {"ios": "https://dc.lft.to/lastmile_qr_scan", "android": "https://dc.lft.to/lastmile_qr_scan"}, "is_reserved": 0, "fusion_lon": 0.0, "fusion_lat": 0.0, "lon": -77.058827, "name": "d8d81dfd6fc459cb4c737feb7742042d"}, {"bike_id": "0838cecb2fa68ff754bb4beab6b7df02", "type": "electric_scooter", "is_disabled": 0, "lat": 38.919351, "rental_uris": {"ios": "https://dc.lft.to/lastmile_qr_scan", "android": "https://dc.lft.to/lastmile_qr_scan"}, "is_reserved": 0, "fusion_lon": 0.0, "fusion_lat": 0.0, "lon": -77.02430533333333, "name": "0838cecb2fa68ff754bb4beab6b7df02"}, {"bike_id": "8323f5430467ee573215de9c379cc698", "type": "electric_scooter", "is_disabled": 0, "lat": 38.9008425, "rental_uris": {"ios": "https://dc.lft.to/lastmile_qr_scan", "android": "https://dc.lft.to/lastmile_qr_scan"}, "is_reserved": 0, "fusion_lon": 0.0, "fusion_lat": 0.0, "lon": -76.98333716666667, "name": "8323f5430467ee573215de9c379cc698"}, {"bike_id": "604253c86f8042376c4b2bde8fbd76f1", "type": "electric_scooter", "is_disabled": 0, "lat": 38.9282575, "rental_uris": {"ios": "https://dc.lft.to/lastmile_qr_scan", "android": "https://dc.lft.to/lastmile_qr_scan"}, "is_reserved": 0, "fusion_lon": 0.0, "fusion_lat": 0.0, "lon": -77.054165, "name": "604253c86f8042376c4b2bde8fbd76f1"}, {"bike_id": "5fe2e9516eb7804bed699b8e44e1aaeb", "type": "electric_scooter", "is_disabled": 0, "lat": 38.8933035, "rental_uris": {"ios": "https://dc.lft.to/lastmile_qr_scan", "android": "https://dc.lft.to/lastmile_qr_scan"}, "is_reserved": 0, "fusion_lon": 0.0, "fusion_lat": 0.0, "lon": -76.95053633333333, "name": "5fe2e9516eb7804bed699b8e44e1aaeb"}, {"bike_id": "efdd682afb9ca8b068f3ce39a21a8ccf", "type": "electric_scooter", "is_disabled": 0, "lat": 38.87385183333333, "rental_uris": {"ios": "https://dc.lft.to/lastmile_qr_scan", "android": "https://dc.lft.to/lastmile_qr_scan"}, "is_reserved": 0, "fusion_lon": 0.0, "fusion_lat": 0.0, "lon": -77.04329316666667, "name": "efdd682afb9ca8b068f3ce39a21a8ccf"}, {"bike_id": "98c3d184b6f8fda9ac8d9ffd336cb608", "type": "electric_scooter", "is_disabled": 0, "lat": 38.918553333333335, "rental_uris": {"ios": "https://dc.lft.to/lastmile_qr_scan", "android": "https://dc.lft.to/lastmile_qr_scan"}, "is_reserved": 0, "fusion_lon": 0.0, "fusion_lat": 0.0, "lon": -77.04104116666667, "name": "98c3d184b6f8fda9ac8d9ffd336cb608"}, {"bike_id": "6ed34c3357e956f746ac543629b92de6", "type": "electric_scooter", "is_disabled": 0, "lat": 38.90176066666667, "rental_uris": {"ios": "https://dc.lft.to/lastmile_qr_scan", "android": "https://dc.lft.to/lastmile_qr_scan"}, "is_reserved": 0, "fusion_lon": 0.0, "fusion_lat": 0.0, "lon": -77.02176466666667, "name": "6ed34c3357e956f746ac543629b92de6"}, {"bike_id": "042288faf55f3a5ab489a83a6a3103c1", "type": "electric_scooter", "is_disabled": 0, "lat": 38.887390333333336, "rental_uris": {"ios": "https://dc.lft.to/lastmile_qr_scan", "android": "https://dc.lft.to/lastmile_qr_scan"}, "is_reserved": 0, "fusion_lon": 0.0, "fusion_lat": 0.0, "lon": -77.02846616666666, "name": "042288faf55f3a5ab489a83a6a3103c1"}, {"bike_id": "c239326850c012d1f987ca468e9b9fed", "type": "electric_scooter", "is_disabled": 0, "lat": 38.90599316666667, "rental_uris": {"ios": "https://dc.lft.to/lastmile_qr_scan", "android": "https://dc.lft.to/lastmile_qr_scan"}, "is_reserved": 0, "fusion_lon": 0.0, "fusion_lat": 0.0, "lon": -77.025803, "name": "c239326850c012d1f987ca468e9b9fed"}, {"bike_id": "a6da170d79c2c9b7f17b4877ea02099e", "type": "electric_scooter", "is_disabled": 0, "lat": 38.9013475, "rental_uris": {"ios": "https://dc.lft.to/lastmile_qr_scan", "android": "https://dc.lft.to/lastmile_qr_scan"}, "is_reserved": 0, "fusion_lon": 0.0, "fusion_lat": 0.0, "lon": -77.0607225, "name": "a6da170d79c2c9b7f17b4877ea02099e"}, {"bike_id": "c1714f59c1b3caf99043cb59776cba44", "type": "electric_scooter", "is_disabled": 0, "lat": 38.87116316666667, "rental_uris": {"ios": "https://dc.lft.to/lastmile_qr_scan", "android": "https://dc.lft.to/lastmile_qr_scan"}, "is_reserved": 0, "fusion_lon": 0.0, "fusion_lat": 0.0, "lon": -76.98242666666667, "name": "c1714f59c1b3caf99043cb59776cba44"}, {"bike_id": "e3c5c8d8bd05396b1059c73fb557b1ec", "type": "electric_scooter", "is_disabled": 0, "lat": 38.9325255, "rental_uris": {"ios": "https://dc.lft.to/lastmile_qr_scan", "android": "https://dc.lft.to/lastmile_qr_scan"}, "is_reserved": 0, "fusion_lon": 0.0, "fusion_lat": 0.0, "lon": -77.03280833333334, "name": "e3c5c8d8bd05396b1059c73fb557b1ec"}, {"bike_id": "dc22c753bb1a843954a262645df6ff9f", "type": "electric_scooter", "is_disabled": 0, "lat": 38.85716016666667, "rental_uris": {"ios": "https://dc.lft.to/lastmile_qr_scan", "android": "https://dc.lft.to/lastmile_qr_scan"}, "is_reserved": 0, "fusion_lon": 0.0, "fusion_lat": 0.0, "lon": -76.98979233333333, "name": "dc22c753bb1a843954a262645df6ff9f"}, {"bike_id": "7eb67e2f06acd9c7e4aa756e46b250bd", "type": "electric_scooter", "is_disabled": 0, "lat": 38.90557116666667, "rental_uris": {"ios": "https://dc.lft.to/lastmile_qr_scan", "android": "https://dc.lft.to/lastmile_qr_scan"}, "is_reserved": 0, "fusion_lon": 0.0, "fusion_lat": 0.0, "lon": -77.022112, "name": "7eb67e2f06acd9c7e4aa756e46b250bd"}, {"bike_id": "530cd422dddd1a3e5b89976a3564f353", "type": "electric_scooter", "is_disabled": 0, "lat": 38.905978, "rental_uris": {"ios": "https://dc.lft.to/lastmile_qr_scan", "android": "https://dc.lft.to/lastmile_qr_scan"}, "is_reserved": 0, "fusion_lon": 0.0, "fusion_lat": 0.0, "lon": -77.05712316666667, "name": "530cd422dddd1a3e5b89976a3564f353"}, {"bike_id": "3302ead59883cf354d7361b8bf624d4e", "type": "electric_scooter", "is_disabled": 0, "lat": 38.8960725, "rental_uris": {"ios": "https://dc.lft.to/lastmile_qr_scan", "android": "https://dc.lft.to/lastmile_qr_scan"}, "is_reserved": 0, "fusion_lon": 0.0, "fusion_lat": 0.0, "lon": -77.05034966666666, "name": "3302ead59883cf354d7361b8bf624d4e"}, {"bike_id": "7f11b390f6548ae4a90d1a0251d05584", "type": "electric_scooter", "is_disabled": 0, "lat": 38.911096666666666, "rental_uris": {"ios": "https://dc.lft.to/lastmile_qr_scan", "android": "https://dc.lft.to/lastmile_qr_scan"}, "is_reserved": 0, "fusion_lon": 0.0, "fusion_lat": 0.0, "lon": -77.044704, "name": "7f11b390f6548ae4a90d1a0251d05584"}, {"bike_id": "2e8475795138fa513d126246bbce3056", "type": "electric_scooter", "is_disabled": 0, "lat": 38.90523483333333, "rental_uris": {"ios": "https://dc.lft.to/lastmile_qr_scan", "android": "https://dc.lft.to/lastmile_qr_scan"}, "is_reserved": 0, "fusion_lon": 0.0, "fusion_lat": 0.0, "lon": -77.05019766666666, "name": "2e8475795138fa513d126246bbce3056"}, {"bike_id": "59cfeddf03a943ce2ad68c750e64c24b", "type": "electric_scooter", "is_disabled": 0, "lat": 38.902012166666665, "rental_uris": {"ios": "https://dc.lft.to/lastmile_qr_scan", "android": "https://dc.lft.to/lastmile_qr_scan"}, "is_reserved": 0, "fusion_lon": 0.0, "fusion_lat": 0.0, "lon": -77.0504485, "name": "59cfeddf03a943ce2ad68c750e64c24b"}, {"bike_id": "1e4af3f25fc4e8f4a4f8937137510b3c", "type": "electric_bike", "is_disabled": 0, "lat": 39.05787933333333, "rental_uris": {"ios": "https://dc.lft.to/lastmile_qr_scan", "android": "https://dc.lft.to/lastmile_qr_scan"}, "is_reserved": 0, "fusion_lon": 0.0, "fusion_lat": 0.0, "lon": -77.15024483333333, "name": "1e4af3f25fc4e8f4a4f8937137510b3c"}, {"bike_id": "5f473216020a40c5deb93a17dc3d82dd", "type": "electric_bike", "is_disabled": 0, "lat": 38.819768833333335, "rental_uris": {"ios": "https://dc.lft.to/lastmile_qr_scan", "android": "https://dc.lft.to/lastmile_qr_scan"}, "is_reserved": 0, "fusion_lon": 0.0, "fusion_lat": 0.0, "lon": -76.9980685, "name": "5f473216020a40c5deb93a17dc3d82dd"}, {"bike_id": "12d8ed6386f5b32e294a1dcf79467af3", "type": "electric_scooter", "is_disabled": 0, "lat": 38.915971, "rental_uris": {"ios": "https://dc.lft.to/lastmile_qr_scan", "android": "https://dc.lft.to/lastmile_qr_scan"}, "is_reserved": 0, "fusion_lon": 0.0, "fusion_lat": 0.0, "lon": -77.02387766666666, "name": "12d8ed6386f5b32e294a1dcf79467af3"}, {"bike_id": "c371632c3a248af4af59d9ba425c3777", "type": "electric_scooter", "is_disabled": 0, "lat": 38.89012983333333, "rental_uris": {"ios": "https://dc.lft.to/lastmile_qr_scan", "android": "https://dc.lft.to/lastmile_qr_scan"}, "is_reserved": 0, "fusion_lon": 0.0, "fusion_lat": 0.0, "lon": -76.93738183333333, "name": "c371632c3a248af4af59d9ba425c3777"}, {"bike_id": "4f5b60a9e63868e96c8fb6c75ce0d245", "type": "electric_scooter", "is_disabled": 0, "lat": 38.90249033333333, "rental_uris": {"ios": "https://dc.lft.to/lastmile_qr_scan", "android": "https://dc.lft.to/lastmile_qr_scan"}, "is_reserved": 0, "fusion_lon": 0.0, "fusion_lat": 0.0, "lon": -77.03652883333334, "name": "4f5b60a9e63868e96c8fb6c75ce0d245"}, {"bike_id": "cd61e68a04f67f49f314131c1255e8a5", "type": "electric_scooter", "is_disabled": 0, "lat": 38.90067466666667, "rental_uris": {"ios": "https://dc.lft.to/lastmile_qr_scan", "android": "https://dc.lft.to/lastmile_qr_scan"}, "is_reserved": 0, "fusion_lon": 0.0, "fusion_lat": 0.0, "lon": -76.99014316666667, "name": "cd61e68a04f67f49f314131c1255e8a5"}, {"bike_id": "8dfdc647340974b7c0af928c54416c6e", "type": "electric_scooter", "is_disabled": 0, "lat": 38.916898333333336, "rental_uris": {"ios": "https://dc.lft.to/lastmile_qr_scan", "android": "https://dc.lft.to/lastmile_qr_scan"}, "is_reserved": 0, "fusion_lon": 0.0, "fusion_lat": 0.0, "lon": -77.03842683333333, "name": "8dfdc647340974b7c0af928c54416c6e"}, {"bike_id": "34430d079864e6f301e295e92510137f", "type": "electric_scooter", "is_disabled": 0, "lat": 38.9388095, "rental_uris": {"ios": "https://dc.lft.to/lastmile_qr_scan", "android": "https://dc.lft.to/lastmile_qr_scan"}, "is_reserved": 0, "fusion_lon": 0.0, "fusion_lat": 0.0, "lon": -77.0332415, "name": "34430d079864e6f301e295e92510137f"}, {"bike_id": "cc168b1fd6315232f1d9baa292f71d8d", "type": "electric_scooter", "is_disabled": 0, "lat": 38.905784833333335, "rental_uris": {"ios": "https://dc.lft.to/lastmile_qr_scan", "android": "https://dc.lft.to/lastmile_qr_scan"}, "is_reserved": 0, "fusion_lon": 0.0, "fusion_lat": 0.0, "lon": -77.04587533333333, "name": "cc168b1fd6315232f1d9baa292f71d8d"}, {"bike_id": "298c5c529d7120a0b6c29e0a6703701b", "type": "electric_scooter", "is_disabled": 0, "lat": 38.90820016666667, "rental_uris": {"ios": "https://dc.lft.to/lastmile_qr_scan", "android": "https://dc.lft.to/lastmile_qr_scan"}, "is_reserved": 0, "fusion_lon": 0.0, "fusion_lat": 0.0, "lon": -77.04348783333333, "name": "298c5c529d7120a0b6c29e0a6703701b"}, {"bike_id": "9a1b1dfde845df995e826bff4052f3d0", "type": "electric_scooter", "is_disabled": 0, "lat": 38.91617266666667, "rental_uris": {"ios": "https://dc.lft.to/lastmile_qr_scan", "android": "https://dc.lft.to/lastmile_qr_scan"}, "is_reserved": 0, "fusion_lon": 0.0, "fusion_lat": 0.0, "lon": -77.03037866666666, "name": "9a1b1dfde845df995e826bff4052f3d0"}, {"bike_id": "842701b7fd6b772b16aa057db79b6b90", "type": "electric_scooter", "is_disabled": 0, "lat": 38.93513, "rental_uris": {"ios": "https://dc.lft.to/lastmile_qr_scan", "android": "https://dc.lft.to/lastmile_qr_scan"}, "is_reserved": 0, "fusion_lon": 0.0, "fusion_lat": 0.0, "lon": -77.01962583333334, "name": "842701b7fd6b772b16aa057db79b6b90"}, {"bike_id": "c44f67e7280f77c89b422da25ea61305", "type": "electric_scooter", "is_disabled": 0, "lat": 38.920667333333334, "rental_uris": {"ios": "https://dc.lft.to/lastmile_qr_scan", "android": "https://dc.lft.to/lastmile_qr_scan"}, "is_reserved": 0, "fusion_lon": 0.0, "fusion_lat": 0.0, "lon": -77.01486533333333, "name": "c44f67e7280f77c89b422da25ea61305"}, {"bike_id": "d1f91f095177967ce7071e6605486269", "type": "electric_scooter", "is_disabled": 0, "lat": 38.892342, "rental_uris": {"ios": "https://dc.lft.to/lastmile_qr_scan", "android": "https://dc.lft.to/lastmile_qr_scan"}, "is_reserved": 0, "fusion_lon": 0.0, "fusion_lat": 0.0, "lon": -77.0416115, "name": "d1f91f095177967ce7071e6605486269"}, {"bike_id": "36db739e0c125fcb94d9de1dc08ca7c5", "type": "electric_scooter", "is_disabled": 0, "lat": 38.92204866666667, "rental_uris": {"ios": "https://dc.lft.to/lastmile_qr_scan", "android": "https://dc.lft.to/lastmile_qr_scan"}, "is_reserved": 0, "fusion_lon": 0.0, "fusion_lat": 0.0, "lon": -77.03401533333333, "name": "36db739e0c125fcb94d9de1dc08ca7c5"}, {"bike_id": "cf9a0aa7aa6a02d56bdb93e72d16f4a8", "type": "electric_scooter", "is_disabled": 0, "lat": 38.917077666666664, "rental_uris": {"ios": "https://dc.lft.to/lastmile_qr_scan", "android": "https://dc.lft.to/lastmile_qr_scan"}, "is_reserved": 0, "fusion_lon": 0.0, "fusion_lat": 0.0, "lon": -77.03865866666666, "name": "cf9a0aa7aa6a02d56bdb93e72d16f4a8"}, {"bike_id": "181d0a36269ebb51752edaf42e9ae52a", "type": "electric_bike", "is_disabled": 0, "lat": 38.9087135, "rental_uris": {"ios": "https://dc.lft.to/lastmile_qr_scan", "android": "https://dc.lft.to/lastmile_qr_scan"}, "is_reserved": 0, "fusion_lon": 0.0, "fusion_lat": 0.0, "lon": -76.99143416666666, "name": "181d0a36269ebb51752edaf42e9ae52a"}, {"bike_id": "958ece981c522c511e16f94851486c0d", "type": "electric_scooter", "is_disabled": 0, "lat": 38.910669666666664, "rental_uris": {"ios": "https://dc.lft.to/lastmile_qr_scan", "android": "https://dc.lft.to/lastmile_qr_scan"}, "is_reserved": 0, "fusion_lon": 0.0, "fusion_lat": 0.0, "lon": -77.021939, "name": "958ece981c522c511e16f94851486c0d"}, {"bike_id": "f73d19ad6abbb0c915bbe600ecb5ca51", "type": "electric_scooter", "is_disabled": 0, "lat": 38.92816883333333, "rental_uris": {"ios": "https://dc.lft.to/lastmile_qr_scan", "android": "https://dc.lft.to/lastmile_qr_scan"}, "is_reserved": 0, "fusion_lon": 0.0, "fusion_lat": 0.0, "lon": -77.01414966666667, "name": "f73d19ad6abbb0c915bbe600ecb5ca51"}, {"bike_id": "7d5e0c98c9385a02999867bb0158872f", "type": "electric_scooter", "is_disabled": 0, "lat": 38.915597166666664, "rental_uris": {"ios": "https://dc.lft.to/lastmile_qr_scan", "android": "https://dc.lft.to/lastmile_qr_scan"}, "is_reserved": 0, "fusion_lon": 0.0, "fusion_lat": 0.0, "lon": -77.03343933333333, "name": "7d5e0c98c9385a02999867bb0158872f"}, {"bike_id": "12d1f9a1e6a6ac9b49d6f36cd118a432", "type": "electric_scooter", "is_disabled": 0, "lat": 38.876492166666665, "rental_uris": {"ios": "https://dc.lft.to/lastmile_qr_scan", "android": "https://dc.lft.to/lastmile_qr_scan"}, "is_reserved": 0, "fusion_lon": 0.0, "fusion_lat": 0.0, "lon": -76.9650855, "name": "12d1f9a1e6a6ac9b49d6f36cd118a432"}, {"bike_id": "87d1f141acd69452dfae0ed136eeafff", "type": "electric_scooter", "is_disabled": 0, "lat": 38.928416166666665, "rental_uris": {"ios": "https://dc.lft.to/lastmile_qr_scan", "android": "https://dc.lft.to/lastmile_qr_scan"}, "is_reserved": 0, "fusion_lon": 0.0, "fusion_lat": 0.0, "lon": -77.01388833333333, "name": "87d1f141acd69452dfae0ed136eeafff"}, {"bike_id": "f55682c989e0726738e335a32f7450ed", "type": "electric_scooter", "is_disabled": 0, "lat": 38.902341166666666, "rental_uris": {"ios": "https://dc.lft.to/lastmile_qr_scan", "android": "https://dc.lft.to/lastmile_qr_scan"}, "is_reserved": 0, "fusion_lon": 0.0, "fusion_lat": 0.0, "lon": -77.00209016666666, "name": "f55682c989e0726738e335a32f7450ed"}, {"bike_id": "51a83207d2ef0b2c4cebddc489efe9de", "type": "electric_scooter", "is_disabled": 0, "lat": 38.91662733333333, "rental_uris": {"ios": "https://dc.lft.to/lastmile_qr_scan", "android": "https://dc.lft.to/lastmile_qr_scan"}, "is_reserved": 0, "fusion_lon": 0.0, "fusion_lat": 0.0, "lon": -77.03853516666666, "name": "51a83207d2ef0b2c4cebddc489efe9de"}, {"bike_id": "02d12395290817ac39b95414fd2d6359", "type": "electric_scooter", "is_disabled": 0, "lat": 38.880284, "rental_uris": {"ios": "https://dc.lft.to/lastmile_qr_scan", "android": "https://dc.lft.to/lastmile_qr_scan"}, "is_reserved": 0, "fusion_lon": 0.0, "fusion_lat": 0.0, "lon": -77.01007866666667, "name": "02d12395290817ac39b95414fd2d6359"}, {"bike_id": "98b3740c5a6266ca14913546b5f15e3f", "type": "electric_scooter", "is_disabled": 0, "lat": 38.905530666666664, "rental_uris": {"ios": "https://dc.lft.to/lastmile_qr_scan", "android": "https://dc.lft.to/lastmile_qr_scan"}, "is_reserved": 0, "fusion_lon": 0.0, "fusion_lat": 0.0, "lon": -77.02726083333333, "name": "98b3740c5a6266ca14913546b5f15e3f"}, {"bike_id": "795e488c3e1cb4e9bc5fb31e8becb36a", "type": "electric_scooter", "is_disabled": 0, "lat": 38.913851333333334, "rental_uris": {"ios": "https://dc.lft.to/lastmile_qr_scan", "android": "https://dc.lft.to/lastmile_qr_scan"}, "is_reserved": 0, "fusion_lon": 0.0, "fusion_lat": 0.0, "lon": -77.01707966666666, "name": "795e488c3e1cb4e9bc5fb31e8becb36a"}, {"bike_id": "152ed0646f90d3d76c5bcb136ba315c4", "type": "electric_scooter", "is_disabled": 0, "lat": 38.9274325, "rental_uris": {"ios": "https://dc.lft.to/lastmile_qr_scan", "android": "https://dc.lft.to/lastmile_qr_scan"}, "is_reserved": 0, "fusion_lon": 0.0, "fusion_lat": 0.0, "lon": -77.03434633333333, "name": "152ed0646f90d3d76c5bcb136ba315c4"}, {"bike_id": "bed6f01ecc88b81bfee19cb723b927e7", "type": "electric_scooter", "is_disabled": 0, "lat": 38.90416366666667, "rental_uris": {"ios": "https://dc.lft.to/lastmile_qr_scan", "android": "https://dc.lft.to/lastmile_qr_scan"}, "is_reserved": 0, "fusion_lon": 0.0, "fusion_lat": 0.0, "lon": -77.04858916666667, "name": "bed6f01ecc88b81bfee19cb723b927e7"}, {"bike_id": "86dcfc5dc9740e9a52f86b1ebe45701f", "type": "electric_scooter", "is_disabled": 0, "lat": 38.900868, "rental_uris": {"ios": "https://dc.lft.to/lastmile_qr_scan", "android": "https://dc.lft.to/lastmile_qr_scan"}, "is_reserved": 0, "fusion_lon": 0.0, "fusion_lat": 0.0, "lon": -77.05007983333333, "name": "86dcfc5dc9740e9a52f86b1ebe45701f"}, {"bike_id": "355a727b41edf97705d472d7626be92b", "type": "electric_scooter", "is_disabled": 0, "lat": 38.91827816666667, "rental_uris": {"ios": "https://dc.lft.to/lastmile_qr_scan", "android": "https://dc.lft.to/lastmile_qr_scan"}, "is_reserved": 0, "fusion_lon": 0.0, "fusion_lat": 0.0, "lon": -77.03938266666667, "name": "355a727b41edf97705d472d7626be92b"}, {"bike_id": "ad3d74227511f528026fc87d39ea9067", "type": "electric_scooter", "is_disabled": 0, "lat": 38.92214033333333, "rental_uris": {"ios": "https://dc.lft.to/lastmile_qr_scan", "android": "https://dc.lft.to/lastmile_qr_scan"}, "is_reserved": 0, "fusion_lon": 0.0, "fusion_lat": 0.0, "lon": -77.04239983333333, "name": "ad3d74227511f528026fc87d39ea9067"}, {"bike_id": "b92590ee5505559e8384c717323b673c", "type": "electric_scooter", "is_disabled": 0, "lat": 38.911051666666665, "rental_uris": {"ios": "https://dc.lft.to/lastmile_qr_scan", "android": "https://dc.lft.to/lastmile_qr_scan"}, "is_reserved": 0, "fusion_lon": 0.0, "fusion_lat": 0.0, "lon": -77.00215633333333, "name": "b92590ee5505559e8384c717323b673c"}, {"bike_id": "86d1f6a9ace3353f1d4e8fad69fd261f", "type": "electric_scooter", "is_disabled": 0, "lat": 38.93822266666667, "rental_uris": {"ios": "https://dc.lft.to/lastmile_qr_scan", "android": "https://dc.lft.to/lastmile_qr_scan"}, "is_reserved": 0, "fusion_lon": 0.0, "fusion_lat": 0.0, "lon": -77.059957, "name": "86d1f6a9ace3353f1d4e8fad69fd261f"}, {"bike_id": "0d4bb6f2d1281eed410cc45d0cc62f57", "type": "electric_scooter", "is_disabled": 0, "lat": 38.9198605, "rental_uris": {"ios": "https://dc.lft.to/lastmile_qr_scan", "android": "https://dc.lft.to/lastmile_qr_scan"}, "is_reserved": 0, "fusion_lon": 0.0, "fusion_lat": 0.0, "lon": -77.01822433333334, "name": "0d4bb6f2d1281eed410cc45d0cc62f57"}, {"bike_id": "d8f3b44796797686f3cc6c5ab60a5464", "type": "electric_bike", "is_disabled": 0, "lat": 38.9641725, "rental_uris": {"ios": "https://dc.lft.to/lastmile_qr_scan", "android": "https://dc.lft.to/lastmile_qr_scan"}, "is_reserved": 0, "fusion_lon": 0.0, "fusion_lat": 0.0, "lon": -76.999972, "name": "d8f3b44796797686f3cc6c5ab60a5464"}, {"bike_id": "5d211f5fe7fdb521cbedf2beaeca40b0", "type": "electric_scooter", "is_disabled": 0, "lat": 38.884851166666664, "rental_uris": {"ios": "https://dc.lft.to/lastmile_qr_scan", "android": "https://dc.lft.to/lastmile_qr_scan"}, "is_reserved": 0, "fusion_lon": 0.0, "fusion_lat": 0.0, "lon": -77.03475433333334, "name": "5d211f5fe7fdb521cbedf2beaeca40b0"}, {"bike_id": "0d01a733627fbbf93510167ad0336194", "type": "electric_scooter", "is_disabled": 0, "lat": 38.905756833333335, "rental_uris": {"ios": "https://dc.lft.to/lastmile_qr_scan", "android": "https://dc.lft.to/lastmile_qr_scan"}, "is_reserved": 0, "fusion_lon": 0.0, "fusion_lat": 0.0, "lon": -77.0512605, "name": "0d01a733627fbbf93510167ad0336194"}, {"bike_id": "8abaa190bdeef469a5ac40b44c8788a5", "type": "electric_scooter", "is_disabled": 0, "lat": 38.922845833333334, "rental_uris": {"ios": "https://dc.lft.to/lastmile_qr_scan", "android": "https://dc.lft.to/lastmile_qr_scan"}, "is_reserved": 0, "fusion_lon": 0.0, "fusion_lat": 0.0, "lon": -77.07302616666666, "name": "8abaa190bdeef469a5ac40b44c8788a5"}, {"bike_id": "c36e0d717d1b04ba21cb340fd1c183de", "type": "electric_scooter", "is_disabled": 0, "lat": 38.932373, "rental_uris": {"ios": "https://dc.lft.to/lastmile_qr_scan", "android": "https://dc.lft.to/lastmile_qr_scan"}, "is_reserved": 0, "fusion_lon": 0.0, "fusion_lat": 0.0, "lon": -77.02966216666667, "name": "c36e0d717d1b04ba21cb340fd1c183de"}, {"bike_id": "a37cc7625ff0a8936ecd71acdd951131", "type": "electric_scooter", "is_disabled": 0, "lat": 38.913827166666664, "rental_uris": {"ios": "https://dc.lft.to/lastmile_qr_scan", "android": "https://dc.lft.to/lastmile_qr_scan"}, "is_reserved": 0, "fusion_lon": 0.0, "fusion_lat": 0.0, "lon": -77.03207033333334, "name": "a37cc7625ff0a8936ecd71acdd951131"}, {"bike_id": "96dfcd55780210b4d827d3e3d9df8120", "type": "electric_scooter", "is_disabled": 0, "lat": 38.922589333333335, "rental_uris": {"ios": "https://dc.lft.to/lastmile_qr_scan", "android": "https://dc.lft.to/lastmile_qr_scan"}, "is_reserved": 0, "fusion_lon": 0.0, "fusion_lat": 0.0, "lon": -77.020408, "name": "96dfcd55780210b4d827d3e3d9df8120"}, {"bike_id": "61b4718542bf0a9678542b98f27539a2", "type": "electric_scooter", "is_disabled": 0, "lat": 38.896049166666664, "rental_uris": {"ios": "https://dc.lft.to/lastmile_qr_scan", "android": "https://dc.lft.to/lastmile_qr_scan"}, "is_reserved": 0, "fusion_lon": 0.0, "fusion_lat": 0.0, "lon": -77.00928333333333, "name": "61b4718542bf0a9678542b98f27539a2"}, {"bike_id": "d8e229e8a588789c0236a484886df99d", "type": "electric_scooter", "is_disabled": 0, "lat": 38.91697683333334, "rental_uris": {"ios": "https://dc.lft.to/lastmile_qr_scan", "android": "https://dc.lft.to/lastmile_qr_scan"}, "is_reserved": 0, "fusion_lon": 0.0, "fusion_lat": 0.0, "lon": -77.03769183333333, "name": "d8e229e8a588789c0236a484886df99d"}, {"bike_id": "1bd37e2c66684f0809ead6acf52dbe80", "type": "electric_bike", "is_disabled": 0, "lat": 38.92138766666667, "rental_uris": {"ios": "https://dc.lft.to/lastmile_qr_scan", "android": "https://dc.lft.to/lastmile_qr_scan"}, "is_reserved": 0, "fusion_lon": 0.0, "fusion_lat": 0.0, "lon": -77.0364545, "name": "1bd37e2c66684f0809ead6acf52dbe80"}, {"bike_id": "5d09c67cdebc698db672960cde189f3c", "type": "electric_scooter", "is_disabled": 0, "lat": 38.91773116666667, "rental_uris": {"ios": "https://dc.lft.to/lastmile_qr_scan", "android": "https://dc.lft.to/lastmile_qr_scan"}, "is_reserved": 0, "fusion_lon": 0.0, "fusion_lat": 0.0, "lon": -77.029512, "name": "5d09c67cdebc698db672960cde189f3c"}, {"bike_id": "5b1b42eaffd1cc6e0c51787144f767e1", "type": "electric_scooter", "is_disabled": 0, "lat": 38.88534116666666, "rental_uris": {"ios": "https://dc.lft.to/lastmile_qr_scan", "android": "https://dc.lft.to/lastmile_qr_scan"}, "is_reserved": 0, "fusion_lon": 0.0, "fusion_lat": 0.0, "lon": -77.00580266666667, "name": "5b1b42eaffd1cc6e0c51787144f767e1"}, {"bike_id": "bfeba3954a710b13917b34143ca69f00", "type": "electric_scooter", "is_disabled": 0, "lat": 38.92401316666667, "rental_uris": {"ios": "https://dc.lft.to/lastmile_qr_scan", "android": "https://dc.lft.to/lastmile_qr_scan"}, "is_reserved": 0, "fusion_lon": 0.0, "fusion_lat": 0.0, "lon": -76.99371633333334, "name": "bfeba3954a710b13917b34143ca69f00"}, {"bike_id": "0de804fe1cc86ebeae29e2704ea7f235", "type": "electric_scooter", "is_disabled": 0, "lat": 38.914227, "rental_uris": {"ios": "https://dc.lft.to/lastmile_qr_scan", "android": "https://dc.lft.to/lastmile_qr_scan"}, "is_reserved": 0, "fusion_lon": 0.0, "fusion_lat": 0.0, "lon": -77.01984583333333, "name": "0de804fe1cc86ebeae29e2704ea7f235"}, {"bike_id": "447b4e8f5826b9bc6377636166ec76be", "type": "electric_scooter", "is_disabled": 0, "lat": 38.9111335, "rental_uris": {"ios": "https://dc.lft.to/lastmile_qr_scan", "android": "https://dc.lft.to/lastmile_qr_scan"}, "is_reserved": 0, "fusion_lon": 0.0, "fusion_lat": 0.0, "lon": -77.0421985, "name": "447b4e8f5826b9bc6377636166ec76be"}, {"bike_id": "1d0608fdba12d725ccdd36610ca1c7d1", "type": "electric_scooter", "is_disabled": 0, "lat": 38.92099, "rental_uris": {"ios": "https://dc.lft.to/lastmile_qr_scan", "android": "https://dc.lft.to/lastmile_qr_scan"}, "is_reserved": 0, "fusion_lon": 0.0, "fusion_lat": 0.0, "lon": -77.0416845, "name": "1d0608fdba12d725ccdd36610ca1c7d1"}, {"bike_id": "e841448ef65f0918a06cfad47cfd5838", "type": "electric_scooter", "is_disabled": 0, "lat": 38.88708416666667, "rental_uris": {"ios": "https://dc.lft.to/lastmile_qr_scan", "android": "https://dc.lft.to/lastmile_qr_scan"}, "is_reserved": 0, "fusion_lon": 0.0, "fusion_lat": 0.0, "lon": -77.01771966666666, "name": "e841448ef65f0918a06cfad47cfd5838"}, {"bike_id": "1a0d1857f521d75505d54b429af165e9", "type": "electric_scooter", "is_disabled": 0, "lat": 38.917044, "rental_uris": {"ios": "https://dc.lft.to/lastmile_qr_scan", "android": "https://dc.lft.to/lastmile_qr_scan"}, "is_reserved": 0, "fusion_lon": 0.0, "fusion_lat": 0.0, "lon": -77.0241235, "name": "1a0d1857f521d75505d54b429af165e9"}, {"bike_id": "fd718b00ef86185c915e82d34747440c", "type": "electric_bike", "is_disabled": 0, "lat": 39.01371266666666, "rental_uris": {"ios": "https://dc.lft.to/lastmile_qr_scan", "android": "https://dc.lft.to/lastmile_qr_scan"}, "is_reserved": 0, "fusion_lon": 0.0, "fusion_lat": 0.0, "lon": -76.92135283333333, "name": "fd718b00ef86185c915e82d34747440c"}, {"bike_id": "54dcac6de3b8e6d997b902da9a8a58cd", "type": "electric_scooter", "is_disabled": 0, "lat": 38.90819916666667, "rental_uris": {"ios": "https://dc.lft.to/lastmile_qr_scan", "android": "https://dc.lft.to/lastmile_qr_scan"}, "is_reserved": 0, "fusion_lon": 0.0, "fusion_lat": 0.0, "lon": -76.997113, "name": "54dcac6de3b8e6d997b902da9a8a58cd"}, {"bike_id": "bbb8c620b2d5624a7929ee1da3fd2e6e", "type": "electric_scooter", "is_disabled": 0, "lat": 38.912783, "rental_uris": {"ios": "https://dc.lft.to/lastmile_qr_scan", "android": "https://dc.lft.to/lastmile_qr_scan"}, "is_reserved": 0, "fusion_lon": 0.0, "fusion_lat": 0.0, "lon": -77.03196483333333, "name": "bbb8c620b2d5624a7929ee1da3fd2e6e"}, {"bike_id": "e9e70884d61c5d13f6b10bd222e57a9d", "type": "electric_bike", "is_disabled": 0, "lat": 38.915491, "rental_uris": {"ios": "https://dc.lft.to/lastmile_qr_scan", "android": "https://dc.lft.to/lastmile_qr_scan"}, "is_reserved": 0, "fusion_lon": 0.0, "fusion_lat": 0.0, "lon": -77.06671916666667, "name": "e9e70884d61c5d13f6b10bd222e57a9d"}, {"bike_id": "5e0e9795189c59769b126d0113a5da8d", "type": "electric_scooter", "is_disabled": 0, "lat": 38.9095775, "rental_uris": {"ios": "https://dc.lft.to/lastmile_qr_scan", "android": "https://dc.lft.to/lastmile_qr_scan"}, "is_reserved": 0, "fusion_lon": 0.0, "fusion_lat": 0.0, "lon": -77.04871883333334, "name": "5e0e9795189c59769b126d0113a5da8d"}, {"bike_id": "cdc9a34632d9ac066c35f6397e04849f", "type": "electric_scooter", "is_disabled": 0, "lat": 38.91188266666666, "rental_uris": {"ios": "https://dc.lft.to/lastmile_qr_scan", "android": "https://dc.lft.to/lastmile_qr_scan"}, "is_reserved": 0, "fusion_lon": 0.0, "fusion_lat": 0.0, "lon": -77.03835383333333, "name": "cdc9a34632d9ac066c35f6397e04849f"}, {"bike_id": "79b1e627325cb3d5f6239cf6173e2f24", "type": "electric_scooter", "is_disabled": 0, "lat": 38.949262, "rental_uris": {"ios": "https://dc.lft.to/lastmile_qr_scan", "android": "https://dc.lft.to/lastmile_qr_scan"}, "is_reserved": 0, "fusion_lon": 0.0, "fusion_lat": 0.0, "lon": -77.01864333333333, "name": "79b1e627325cb3d5f6239cf6173e2f24"}, {"bike_id": "247a15059808d1432d50f043e83a208b", "type": "electric_scooter", "is_disabled": 0, "lat": 38.905275, "rental_uris": {"ios": "https://dc.lft.to/lastmile_qr_scan", "android": "https://dc.lft.to/lastmile_qr_scan"}, "is_reserved": 0, "fusion_lon": 0.0, "fusion_lat": 0.0, "lon": -77.05159, "name": "247a15059808d1432d50f043e83a208b"}, {"bike_id": "a0e5d2d9776674d2fc42f9d9991f3a5d", "type": "electric_scooter", "is_disabled": 0, "lat": 38.915588, "rental_uris": {"ios": "https://dc.lft.to/lastmile_qr_scan", "android": "https://dc.lft.to/lastmile_qr_scan"}, "is_reserved": 0, "fusion_lon": 0.0, "fusion_lat": 0.0, "lon": -77.01045483333333, "name": "a0e5d2d9776674d2fc42f9d9991f3a5d"}, {"bike_id": "b361204b104a14af09fa5f9dc0abce6a", "type": "electric_scooter", "is_disabled": 0, "lat": 38.9208515, "rental_uris": {"ios": "https://dc.lft.to/lastmile_qr_scan", "android": "https://dc.lft.to/lastmile_qr_scan"}, "is_reserved": 0, "fusion_lon": 0.0, "fusion_lat": 0.0, "lon": -77.0316395, "name": "b361204b104a14af09fa5f9dc0abce6a"}, {"bike_id": "a58286bdc703b1f406474676b0b8432c", "type": "electric_scooter", "is_disabled": 0, "lat": 38.920791333333334, "rental_uris": {"ios": "https://dc.lft.to/lastmile_qr_scan", "android": "https://dc.lft.to/lastmile_qr_scan"}, "is_reserved": 0, "fusion_lon": 0.0, "fusion_lat": 0.0, "lon": -77.02302516666667, "name": "a58286bdc703b1f406474676b0b8432c"}, {"bike_id": "a9720b42ed2282b6be228cd17964240a", "type": "electric_scooter", "is_disabled": 0, "lat": 38.89240866666667, "rental_uris": {"ios": "https://dc.lft.to/lastmile_qr_scan", "android": "https://dc.lft.to/lastmile_qr_scan"}, "is_reserved": 0, "fusion_lon": 0.0, "fusion_lat": 0.0, "lon": -77.04500183333333, "name": "a9720b42ed2282b6be228cd17964240a"}, {"bike_id": "242684bbbf57307c4f8dfcc8fc960dac", "type": "electric_scooter", "is_disabled": 0, "lat": 38.90127583333334, "rental_uris": {"ios": "https://dc.lft.to/lastmile_qr_scan", "android": "https://dc.lft.to/lastmile_qr_scan"}, "is_reserved": 0, "fusion_lon": 0.0, "fusion_lat": 0.0, "lon": -77.01821283333334, "name": "242684bbbf57307c4f8dfcc8fc960dac"}, {"bike_id": "b3d3b40a2a1c3c464f05ee69330dceef", "type": "electric_scooter", "is_disabled": 0, "lat": 38.923208833333334, "rental_uris": {"ios": "https://dc.lft.to/lastmile_qr_scan", "android": "https://dc.lft.to/lastmile_qr_scan"}, "is_reserved": 0, "fusion_lon": 0.0, "fusion_lat": 0.0, "lon": -77.03765783333333, "name": "b3d3b40a2a1c3c464f05ee69330dceef"}, {"bike_id": "313396a402447205c70404e02204e2c8", "type": "electric_scooter", "is_disabled": 0, "lat": 38.930750333333336, "rental_uris": {"ios": "https://dc.lft.to/lastmile_qr_scan", "android": "https://dc.lft.to/lastmile_qr_scan"}, "is_reserved": 0, "fusion_lon": 0.0, "fusion_lat": 0.0, "lon": -77.02795466666667, "name": "313396a402447205c70404e02204e2c8"}, {"bike_id": "c13e10d385c89f30beb152aa3d6f0e59", "type": "electric_scooter", "is_disabled": 0, "lat": 38.9150065, "rental_uris": {"ios": "https://dc.lft.to/lastmile_qr_scan", "android": "https://dc.lft.to/lastmile_qr_scan"}, "is_reserved": 0, "fusion_lon": 0.0, "fusion_lat": 0.0, "lon": -77.01771283333333, "name": "c13e10d385c89f30beb152aa3d6f0e59"}, {"bike_id": "91bb6d3d2ed6840c68a8803ec2b84c32", "type": "electric_scooter", "is_disabled": 0, "lat": 38.91547833333333, "rental_uris": {"ios": "https://dc.lft.to/lastmile_qr_scan", "android": "https://dc.lft.to/lastmile_qr_scan"}, "is_reserved": 0, "fusion_lon": 0.0, "fusion_lat": 0.0, "lon": -77.01231416666667, "name": "91bb6d3d2ed6840c68a8803ec2b84c32"}, {"bike_id": "1da5737a985cbe4e87a3ffea23e1e56b", "type": "electric_scooter", "is_disabled": 0, "lat": 38.90303016666667, "rental_uris": {"ios": "https://dc.lft.to/lastmile_qr_scan", "android": "https://dc.lft.to/lastmile_qr_scan"}, "is_reserved": 0, "fusion_lon": 0.0, "fusion_lat": 0.0, "lon": -77.0326485, "name": "1da5737a985cbe4e87a3ffea23e1e56b"}, {"bike_id": "50562d4581e2e8b4fc671c850a199151", "type": "electric_bike", "is_disabled": 0, "lat": 38.97401283333333, "rental_uris": {"ios": "https://dc.lft.to/lastmile_qr_scan", "android": "https://dc.lft.to/lastmile_qr_scan"}, "is_reserved": 0, "fusion_lon": 0.0, "fusion_lat": 0.0, "lon": -77.06454266666667, "name": "50562d4581e2e8b4fc671c850a199151"}, {"bike_id": "53ce89bfa3b9ec77a03ba88029d79ae9", "type": "electric_scooter", "is_disabled": 0, "lat": 38.92330883333333, "rental_uris": {"ios": "https://dc.lft.to/lastmile_qr_scan", "android": "https://dc.lft.to/lastmile_qr_scan"}, "is_reserved": 0, "fusion_lon": 0.0, "fusion_lat": 0.0, "lon": -77.03785433333333, "name": "53ce89bfa3b9ec77a03ba88029d79ae9"}, {"bike_id": "ba9385b016f81acd27e8409bcb1cd014", "type": "electric_scooter", "is_disabled": 0, "lat": 38.89726616666667, "rental_uris": {"ios": "https://dc.lft.to/lastmile_qr_scan", "android": "https://dc.lft.to/lastmile_qr_scan"}, "is_reserved": 0, "fusion_lon": 0.0, "fusion_lat": 0.0, "lon": -77.01765233333333, "name": "ba9385b016f81acd27e8409bcb1cd014"}, {"bike_id": "3fa254314602ab30a948b425f92d048d", "type": "electric_scooter", "is_disabled": 0, "lat": 38.91032883333333, "rental_uris": {"ios": "https://dc.lft.to/lastmile_qr_scan", "android": "https://dc.lft.to/lastmile_qr_scan"}, "is_reserved": 0, "fusion_lon": 0.0, "fusion_lat": 0.0, "lon": -77.03801583333333, "name": "3fa254314602ab30a948b425f92d048d"}, {"bike_id": "cd6e157d29cf809d2deaf3ec2498a00c", "type": "electric_scooter", "is_disabled": 0, "lat": 38.923336666666664, "rental_uris": {"ios": "https://dc.lft.to/lastmile_qr_scan", "android": "https://dc.lft.to/lastmile_qr_scan"}, "is_reserved": 0, "fusion_lon": 0.0, "fusion_lat": 0.0, "lon": -77.05371833333334, "name": "cd6e157d29cf809d2deaf3ec2498a00c"}, {"bike_id": "0e5cf65359ba8d3abb59e17aae2e32d7", "type": "electric_scooter", "is_disabled": 0, "lat": 38.908607, "rental_uris": {"ios": "https://dc.lft.to/lastmile_qr_scan", "android": "https://dc.lft.to/lastmile_qr_scan"}, "is_reserved": 0, "fusion_lon": 0.0, "fusion_lat": 0.0, "lon": -77.02679383333333, "name": "0e5cf65359ba8d3abb59e17aae2e32d7"}, {"bike_id": "83a97cdcf9047d8b3bd9882175f16605", "type": "electric_scooter", "is_disabled": 0, "lat": 38.92080333333333, "rental_uris": {"ios": "https://dc.lft.to/lastmile_qr_scan", "android": "https://dc.lft.to/lastmile_qr_scan"}, "is_reserved": 0, "fusion_lon": 0.0, "fusion_lat": 0.0, "lon": -77.023443, "name": "83a97cdcf9047d8b3bd9882175f16605"}, {"bike_id": "9c41c0f2a5f8737f543349a06fe19cb2", "type": "electric_scooter", "is_disabled": 0, "lat": 38.872423833333336, "rental_uris": {"ios": "https://dc.lft.to/lastmile_qr_scan", "android": "https://dc.lft.to/lastmile_qr_scan"}, "is_reserved": 0, "fusion_lon": 0.0, "fusion_lat": 0.0, "lon": -76.97730833333334, "name": "9c41c0f2a5f8737f543349a06fe19cb2"}, {"bike_id": "cc294bead7886c8a9767bb314083492f", "type": "electric_scooter", "is_disabled": 0, "lat": 38.918200666666664, "rental_uris": {"ios": "https://dc.lft.to/lastmile_qr_scan", "android": "https://dc.lft.to/lastmile_qr_scan"}, "is_reserved": 0, "fusion_lon": 0.0, "fusion_lat": 0.0, "lon": -77.01203516666666, "name": "cc294bead7886c8a9767bb314083492f"}, {"bike_id": "e397907f4045b00355fb43660146bf3a", "type": "electric_scooter", "is_disabled": 0, "lat": 38.9117545, "rental_uris": {"ios": "https://dc.lft.to/lastmile_qr_scan", "android": "https://dc.lft.to/lastmile_qr_scan"}, "is_reserved": 0, "fusion_lon": 0.0, "fusion_lat": 0.0, "lon": -77.012086, "name": "e397907f4045b00355fb43660146bf3a"}, {"bike_id": "346e4b6c6d42572b9c700425a67703a7", "type": "electric_scooter", "is_disabled": 0, "lat": 38.919216666666664, "rental_uris": {"ios": "https://dc.lft.to/lastmile_qr_scan", "android": "https://dc.lft.to/lastmile_qr_scan"}, "is_reserved": 0, "fusion_lon": 0.0, "fusion_lat": 0.0, "lon": -77.031942, "name": "346e4b6c6d42572b9c700425a67703a7"}, {"bike_id": "8b7b43e4c877a6ae16710e93c5fb3283", "type": "electric_scooter", "is_disabled": 0, "lat": 38.88536833333333, "rental_uris": {"ios": "https://dc.lft.to/lastmile_qr_scan", "android": "https://dc.lft.to/lastmile_qr_scan"}, "is_reserved": 0, "fusion_lon": 0.0, "fusion_lat": 0.0, "lon": -76.99825433333334, "name": "8b7b43e4c877a6ae16710e93c5fb3283"}, {"bike_id": "a1373e9bb21c562e6fc1aea401f0e6aa", "type": "electric_scooter", "is_disabled": 0, "lat": 38.957868166666664, "rental_uris": {"ios": "https://dc.lft.to/lastmile_qr_scan", "android": "https://dc.lft.to/lastmile_qr_scan"}, "is_reserved": 0, "fusion_lon": 0.0, "fusion_lat": 0.0, "lon": -77.03218016666666, "name": "a1373e9bb21c562e6fc1aea401f0e6aa"}, {"bike_id": "9e2e5d54f1d71a3884ad214dd2905b3a", "type": "electric_scooter", "is_disabled": 0, "lat": 38.9234345, "rental_uris": {"ios": "https://dc.lft.to/lastmile_qr_scan", "android": "https://dc.lft.to/lastmile_qr_scan"}, "is_reserved": 0, "fusion_lon": 0.0, "fusion_lat": 0.0, "lon": -77.051204, "name": "9e2e5d54f1d71a3884ad214dd2905b3a"}, {"bike_id": "0ac8434dad1466dc67a8d5c56bfb9794", "type": "electric_scooter", "is_disabled": 0, "lat": 38.923784, "rental_uris": {"ios": "https://dc.lft.to/lastmile_qr_scan", "android": "https://dc.lft.to/lastmile_qr_scan"}, "is_reserved": 0, "fusion_lon": 0.0, "fusion_lat": 0.0, "lon": -77.02979433333333, "name": "0ac8434dad1466dc67a8d5c56bfb9794"}, {"bike_id": "20fbe74a8295d37ca07797859cc03e6d", "type": "electric_scooter", "is_disabled": 0, "lat": 38.9224835, "rental_uris": {"ios": "https://dc.lft.to/lastmile_qr_scan", "android": "https://dc.lft.to/lastmile_qr_scan"}, "is_reserved": 0, "fusion_lon": 0.0, "fusion_lat": 0.0, "lon": -77.03083566666666, "name": "20fbe74a8295d37ca07797859cc03e6d"}, {"bike_id": "74020e036903a234332c3c64a05c3526", "type": "electric_scooter", "is_disabled": 0, "lat": 38.92234633333333, "rental_uris": {"ios": "https://dc.lft.to/lastmile_qr_scan", "android": "https://dc.lft.to/lastmile_qr_scan"}, "is_reserved": 0, "fusion_lon": 0.0, "fusion_lat": 0.0, "lon": -77.04009683333334, "name": "74020e036903a234332c3c64a05c3526"}, {"bike_id": "a704c89f62507e3e80e3b707a5741fe6", "type": "electric_scooter", "is_disabled": 0, "lat": 38.915721833333336, "rental_uris": {"ios": "https://dc.lft.to/lastmile_qr_scan", "android": "https://dc.lft.to/lastmile_qr_scan"}, "is_reserved": 0, "fusion_lon": 0.0, "fusion_lat": 0.0, "lon": -77.01872683333333, "name": "a704c89f62507e3e80e3b707a5741fe6"}, {"bike_id": "97f3219f249a14188180cfe986cf9faf", "type": "electric_scooter", "is_disabled": 0, "lat": 38.90426566666667, "rental_uris": {"ios": "https://dc.lft.to/lastmile_qr_scan", "android": "https://dc.lft.to/lastmile_qr_scan"}, "is_reserved": 0, "fusion_lon": 0.0, "fusion_lat": 0.0, "lon": -77.05137016666667, "name": "97f3219f249a14188180cfe986cf9faf"}, {"bike_id": "ad22deb550057c825b9eab93ef128087", "type": "electric_scooter", "is_disabled": 0, "lat": 38.903788666666664, "rental_uris": {"ios": "https://dc.lft.to/lastmile_qr_scan", "android": "https://dc.lft.to/lastmile_qr_scan"}, "is_reserved": 0, "fusion_lon": 0.0, "fusion_lat": 0.0, "lon": -76.98204183333333, "name": "ad22deb550057c825b9eab93ef128087"}, {"bike_id": "6f870bd3838863beb04fb21bbac05b60", "type": "electric_scooter", "is_disabled": 0, "lat": 38.930822, "rental_uris": {"ios": "https://dc.lft.to/lastmile_qr_scan", "android": "https://dc.lft.to/lastmile_qr_scan"}, "is_reserved": 0, "fusion_lon": 0.0, "fusion_lat": 0.0, "lon": -77.02156566666666, "name": "6f870bd3838863beb04fb21bbac05b60"}, {"bike_id": "f4c0e1eb835cd0495dd576e09eff93e0", "type": "electric_scooter", "is_disabled": 0, "lat": 38.91422566666667, "rental_uris": {"ios": "https://dc.lft.to/lastmile_qr_scan", "android": "https://dc.lft.to/lastmile_qr_scan"}, "is_reserved": 0, "fusion_lon": 0.0, "fusion_lat": 0.0, "lon": -77.0318005, "name": "f4c0e1eb835cd0495dd576e09eff93e0"}, {"bike_id": "36dc5bcb879b1f7940a0648f5669961c", "type": "electric_scooter", "is_disabled": 0, "lat": 38.9157765, "rental_uris": {"ios": "https://dc.lft.to/lastmile_qr_scan", "android": "https://dc.lft.to/lastmile_qr_scan"}, "is_reserved": 0, "fusion_lon": 0.0, "fusion_lat": 0.0, "lon": -77.01232083333333, "name": "36dc5bcb879b1f7940a0648f5669961c"}, {"bike_id": "5ddd56982e9dd7cddf9d2f611d8d2f65", "type": "electric_scooter", "is_disabled": 0, "lat": 38.90657083333333, "rental_uris": {"ios": "https://dc.lft.to/lastmile_qr_scan", "android": "https://dc.lft.to/lastmile_qr_scan"}, "is_reserved": 0, "fusion_lon": 0.0, "fusion_lat": 0.0, "lon": -77.04297533333333, "name": "5ddd56982e9dd7cddf9d2f611d8d2f65"}, {"bike_id": "6c7207386d187c0a9086096f773b1673", "type": "electric_scooter", "is_disabled": 0, "lat": 38.89131233333333, "rental_uris": {"ios": "https://dc.lft.to/lastmile_qr_scan", "android": "https://dc.lft.to/lastmile_qr_scan"}, "is_reserved": 0, "fusion_lon": 0.0, "fusion_lat": 0.0, "lon": -76.95185316666667, "name": "6c7207386d187c0a9086096f773b1673"}, {"bike_id": "f1f53e8ef77b4cde249b2ccacff2b14a", "type": "electric_scooter", "is_disabled": 0, "lat": 38.911139166666665, "rental_uris": {"ios": "https://dc.lft.to/lastmile_qr_scan", "android": "https://dc.lft.to/lastmile_qr_scan"}, "is_reserved": 0, "fusion_lon": 0.0, "fusion_lat": 0.0, "lon": -77.03863133333333, "name": "f1f53e8ef77b4cde249b2ccacff2b14a"}, {"bike_id": "6eceaed2ce24f480feb95ee1a88a831e", "type": "electric_scooter", "is_disabled": 0, "lat": 38.927608666666664, "rental_uris": {"ios": "https://dc.lft.to/lastmile_qr_scan", "android": "https://dc.lft.to/lastmile_qr_scan"}, "is_reserved": 0, "fusion_lon": 0.0, "fusion_lat": 0.0, "lon": -77.05640516666666, "name": "6eceaed2ce24f480feb95ee1a88a831e"},