{"data": {"bikes": [{"type": "electric_scooter", "fusion_lon": 0.0, "bike_id": "0ed8b24be2b1d15a41618a8fb21b9cad", "is_disabled": 0, "lat": 38.933043166666664, "rental_uris": {"ios": "https://dc.lft.to/lastmile_qr_scan", "android": "https://dc.lft.to/lastmile_qr_scan"}, "is_reserved": 0, "lon": -77.03273916666667, "fusion_lat": 0.0, "name": "0ed8b24be2b1d15a41618a8fb21b9cad"}, {"type": "electric_bike", "fusion_lon": 0.0, "bike_id": "c0dae0b8271e2aa5de378b9d5182df02", "is_disabled": 0, "lat": 38.807377, "rental_uris": {"ios": "https://dc.lft.to/lastmile_qr_scan", "android": "https://dc.lft.to/lastmile_qr_scan"}, "is_reserved": 0, "lon": -77.09724316666667, "fusion_lat": 0.0, "name": "c0dae0b8271e2aa5de378b9d5182df02"}, {"type": "electric_scooter", "fusion_lon": 0.0, "bike_id": "4b3a1314efd2aa161e8fe563d1f9c0cc", "is_disabled": 0, "lat": 38.91696833333334, "rental_uris": {"ios": "https://dc.lft.to/lastmile_qr_scan", "android": "https://dc.lft.to/lastmile_qr_scan"}, "is_reserved": 0, "lon": -77.034765, "fusion_lat": 0.0, "name": "4b3a1314efd2aa161e8fe563d1f9c0cc"}, {"type": "electric_scooter", "fusion_lon": 0.0, "bike_id": "15e2d1b74e64498692715b6b28166a75", "is_disabled": 0, "lat": 38.9160505, "rental_uris": {"ios": "https://dc.lft.to/lastmile_qr_scan", "android": "https://dc.lft.to/lastmile_qr_scan"}, "is_reserved": 0, "lon": -77.04878, "fusion_lat": 0.0, "name": "15e2d1b74e64498692715b6b28166a75"}, {"type": "electric_scooter", "fusion_lon": 0.0, "bike_id": "e90868bb45f03587c15cb908b1da3d43", "is_disabled": 0, "lat": 38.881853, "rental_uris": {"ios": "https://dc.lft.to/lastmile_qr_scan", "android": "https://dc.lft.to/lastmile_qr_scan"}, "is_reserved": 0, "lon": -77.02210316666667, "fusion_lat": 0.0, "name": "e90868bb45f03587c15cb908b1da3d43"}, {"type": "electric_bike", "fusion_lon": 0.0, "bike_id": "e82e3638fcb9240e12df4a22d71ef4a8", "is_disabled": 0, "lat": 38.862598166666665, "rental_uris": {"ios": "https://dc.lft.to/lastmile_qr_scan", "android": "https://dc.lft.to/lastmile_qr_scan"}, "is_reserved": 0, "lon": -76.983478, "fusion_lat": 0.0, "name": "e82e3638fcb9240e12df4a22d71ef4a8"}, {"type": "electric_scooter", "fusion_lon": 0.0, "bike_id": "c03a3ecbceabe9166079c7bd8edaa79a", "is_disabled": 0, "lat": 38.901432, "rental_uris": {"ios": "https://dc.lft.to/lastmile_qr_scan", "android": "https://dc.lft.to/lastmile_qr_scan"}, "is_reserved": 0, "lon": -77.039794, "fusion_lat": 0.0, "name": "c03a3ecbceabe9166079c7bd8edaa79a"}, {"type": "electric_scooter", "fusion_lon": 0.0, "bike_id": "01b6d4336166537478ce30a3bde18665", "is_disabled": 0, "lat": 38.92065433333333, "rental_uris": {"ios": "https://dc.lft.to/lastmile_qr_scan", "android": "https://dc.lft.to/lastmile_qr_scan"}, "is_reserved": 0, "lon": -77.02305166666666, "fusion_lat": 0.0, "name": "01b6d4336166537478ce30a3bde18665"}, {"type": "electric_scooter", "fusion_lon": 0.0, "bike_id": "8399c96a20c9caae1da5407443061cea", "is_disabled": 0, "lat": 38.8903385, "rental_uris": {"ios": "https://dc.lft.to/lastmile_qr_scan", "android": "https://dc.lft.to/lastmile_qr_scan"}, "is_reserved": 0, "lon": -76.937563, "fusion_lat": 0.0, "name": "8399c96a20c9caae1da5407443061cea"}, {"type": "electric_scooter", "fusion_lon": 0.0, "bike_id": "75c38b77381d9fe9c6524e390e02eff7", "is_disabled": 0, "lat": 38.89225483333333, "rental_uris": {"ios": "https://dc.lft.to/lastmile_qr_scan", "android": "https://dc.lft.to/lastmile_qr_scan"}, "is_reserved": 0, "lon": -77.03211883333333, "fusion_lat": 0.0, "name": "75c38b77381d9fe9c6524e390e02eff7"}, {"type": "electric_scooter", "fusion_lon": 0.0, "bike_id": "cab861f71ae2d351b00abf3fa7dbd8c5", "is_disabled": 0, "lat": 38.93471316666667, "rental_uris": {"ios": "https://dc.lft.to/lastmile_qr_scan", "android": "https://dc.lft.to/lastmile_qr_scan"}, "is_reserved": 0, "lon": -77.07280133333333, "fusion_lat": 0.0, "name": "cab861f71ae2d351b00abf3fa7dbd8c5"}, {"type": "electric_scooter", "fusion_lon": 0.0, "bike_id": "d4394f9c6500386f170d5a5fae338dd0", "is_disabled": 0, "lat": 38.89599966666667, "rental_uris": {"ios": "https://dc.lft.to/lastmile_qr_scan", "android": "https://dc.lft.to/lastmile_qr_scan"}, "is_reserved": 0, "lon": -77.019601, "fusion_lat": 0.0, "name": "d4394f9c6500386f170d5a5fae338dd0"}, {"type": "electric_scooter", "fusion_lon": 0.0, "bike_id": "effb4ed51d62ff04bc073d80267a753f", "is_disabled": 0, "lat": 38.921558166666664, "rental_uris": {"ios": "https://dc.lft.to/lastmile_qr_scan", "android": "https://dc.lft.to/lastmile_qr_scan"}, "is_reserved": 0, "lon": -77.0329345, "fusion_lat": 0.0, "name": "effb4ed51d62ff04bc073d80267a753f"}, {"type": "electric_scooter", "fusion_lon": 0.0, "bike_id": "1995f8f7dd146eed106866a396a096d0", "is_disabled": 0, "lat": 38.924396333333334, "rental_uris": {"ios": "https://dc.lft.to/lastmile_qr_scan", "android": "https://dc.lft.to/lastmile_qr_scan"}, "is_reserved": 0, "lon": -77.0203405, "fusion_lat": 0.0, "name": "1995f8f7dd146eed106866a396a096d0"}, {"type": "electric_scooter", "fusion_lon": 0.0, "bike_id": "13091f8a61fd0ffe9eb30d3b243248cf", "is_disabled": 0, "lat": 38.907891666666664, "rental_uris": {"ios": "https://dc.lft.to/lastmile_qr_scan", "android": "https://dc.lft.to/lastmile_qr_scan"}, "is_reserved": 0, "lon": -77.009653, "fusion_lat": 0.0, "name": "13091f8a61fd0ffe9eb30d3b243248cf"}, {"type": "electric_scooter", "fusion_lon": 0.0, "bike_id": "bee773284b2bc6f139d0c0bc53491cea", "is_disabled": 0, "lat": 38.9310905, "rental_uris": {"ios": "https://dc.lft.to/lastmile_qr_scan", "android": "https://dc.lft.to/lastmile_qr_scan"}, "is_reserved": 0, "lon": -77.05606266666666, "fusion_lat": 0.0, "name": "bee773284b2bc6f139d0c0bc53491cea"}, {"type": "electric_scooter", "fusion_lon": 0.0, "bike_id": "6339d2abf62a45c23b44542589ebd788", "is_disabled": 0, "lat": 38.910181666666666, "rental_uris": {"ios": "https://dc.lft.to/lastmile_qr_scan", "android": "https://dc.lft.to/lastmile_qr_scan"}, "is_reserved": 0, "lon": -77.03852183333333, "fusion_lat": 0.0, "name": "6339d2abf62a45c23b44542589ebd788"}, {"type": "electric_scooter", "fusion_lon": 0.0, "bike_id": "5f5d2de7432f2ea41647a47a4f58824f", "is_disabled": 0, "lat": 38.91269533333333, "rental_uris": {"ios": "https://dc.lft.to/lastmile_qr_scan", "android": "https://dc.lft.to/lastmile_qr_scan"}, "is_reserved": 0, "lon": -77.02965683333333, "fusion_lat": 0.0, "name": "5f5d2de7432f2ea41647a47a4f58824f"}, {"type": "electric_scooter", "fusion_lon": 0.0, "bike_id": "feaf5125e5d9cd0154870374c260bb8c", "is_disabled": 0, "lat": 38.892260666666665, "rental_uris": {"ios": "https://dc.lft.to/lastmile_qr_scan", "android": "https://dc.lft.to/lastmile_qr_scan"}, "is_reserved": 0, "lon": -77.02827866666667, "fusion_lat": 0.0, "name": "feaf5125e5d9cd0154870374c260bb8c"}, {"type": "electric_scooter", "fusion_lon": 0.0, "bike_id": "6626caa923fa2a434f86b1742895425f", "is_disabled": 0, "lat": 38.93556783333333, "rental_uris": {"ios": "https://dc.lft.to/lastmile_qr_scan", "android": "https://dc.lft.to/lastmile_qr_scan"}, "is_reserved": 0, "lon": -77.07461166666667, "fusion_lat": 0.0, "name": "6626caa923fa2a434f86b1742895425f"}, {"type": "electric_scooter", "fusion_lon": 0.0, "bike_id": "cf851407006a06ca7d4aeb27efc6d9db", "is_disabled": 0, "lat": 38.89138333333333, "rental_uris": {"ios": "https://dc.lft.to/lastmile_qr_scan", "android": "https://dc.lft.to/lastmile_qr_scan"}, "is_reserved": 0, "lon": -76.9889485, "fusion_lat": 0.0, "name": "cf851407006a06ca7d4aeb27efc6d9db"}, {"type": "electric_scooter", "fusion_lon": 0.0, "bike_id": "531ccaea5c1657630b78bfe108090f80", "is_disabled": 0, "lat": 38.922929833333335, "rental_uris": {"ios": "https://dc.lft.to/lastmile_qr_scan", "android": "https://dc.lft.to/lastmile_qr_scan"}, "is_reserved": 0, "lon": -77.03193133333333, "fusion_lat": 0.0, "name": "531ccaea5c1657630b78bfe108090f80"}, {"type": "electric_scooter", "fusion_lon": 0.0, "bike_id": "3162bee9941ae0372bd0a7ac2ab60299", "is_disabled": 0, "lat": 38.89990066666667, "rental_uris": {"ios": "https://dc.lft.to/lastmile_qr_scan", "android": "https://dc.lft.to/lastmile_qr_scan"}, "is_reserved": 0, "lon": -77.02601333333334, "fusion_lat": 0.0, "name": "3162bee9941ae0372bd0a7ac2ab60299"}, {"type": "electric_scooter", "fusion_lon": 0.0, "bike_id": "22ce3cc28e2c0d7d72824093bb599a04", "is_disabled": 0, "lat": 38.92683683333333, "rental_uris": {"ios": "https://dc.lft.to/lastmile_qr_scan", "android": "https://dc.lft.to/lastmile_qr_scan"}, "is_reserved": 0, "lon": -77.0225495, "fusion_lat": 0.0, "name": "22ce3cc28e2c0d7d72824093bb599a04"}, {"type": "electric_scooter", "fusion_lon": 0.0, "bike_id": "855ae24b40c8e0d084abc1f4f40dcbb5", "is_disabled": 0, "lat": 38.9055025, "rental_uris": {"ios": "https://dc.lft.to/lastmile_qr_scan", "android": "https://dc.lft.to/lastmile_qr_scan"}, "is_reserved": 0, "lon": -77.007166, "fusion_lat": 0.0, "name": "855ae24b40c8e0d084abc1f4f40dcbb5"}, {"type": "electric_scooter", "fusion_lon": 0.0, "bike_id": "e0834331fadedd764d5e48596c2d4154", "is_disabled": 0, "lat": 38.92029183333333, "rental_uris": {"ios": "https://dc.lft.to/lastmile_qr_scan", "android": "https://dc.lft.to/lastmile_qr_scan"}, "is_reserved": 0, "lon": -77.01226266666667, "fusion_lat": 0.0, "name": "e0834331fadedd764d5e48596c2d4154"}, {"type": "electric_scooter", "fusion_lon": 0.0, "bike_id": "a09aaded27eb7df0ccbe2f1dfc3fbee2", "is_disabled": 0, "lat": 38.89221716666667, "rental_uris": {"ios": "https://dc.lft.to/lastmile_qr_scan", "android": "https://dc.lft.to/lastmile_qr_scan"}, "is_reserved": 0, "lon": -77.0480855, "fusion_lat": 0.0, "name": "a09aaded27eb7df0ccbe2f1dfc3fbee2"}, {"type": "electric_scooter", "fusion_lon": 0.0, "bike_id": "03c7271efa51b72efa3a05b02f3859e9", "is_disabled": 0, "lat": 38.935326833333335, "rental_uris": {"ios": "https://dc.lft.to/lastmile_qr_scan", "android": "https://dc.lft.to/lastmile_qr_scan"}, "is_reserved": 0, "lon": -77.02351733333333, "fusion_lat": 0.0, "name": "03c7271efa51b72efa3a05b02f3859e9"}, {"type": "electric_scooter", "fusion_lon": 0.0, "bike_id": "0a63901393d42e9824cdd47a6309f31c", "is_disabled": 0, "lat": 38.91829166666667, "rental_uris": {"ios": "https://dc.lft.to/lastmile_qr_scan", "android": "https://dc.lft.to/lastmile_qr_scan"}, "is_reserved": 0, "lon": -77.03678216666667, "fusion_lat": 0.0, "name": "0a63901393d42e9824cdd47a6309f31c"}, {"type": "electric_scooter", "fusion_lon": 0.0, "bike_id": "d033cb84213dc72ea5a5cce857f4d152", "is_disabled": 0, "lat": 38.905551333333335, "rental_uris": {"ios": "https://dc.lft.to/lastmile_qr_scan", "android": "https://dc.lft.to/lastmile_qr_scan"}, "is_reserved": 0, "lon": -77.034778, "fusion_lat": 0.0, "name": "d033cb84213dc72ea5a5cce857f4d152"}, {"type": "electric_scooter", "fusion_lon": 0.0, "bike_id": "90faa28469415cb768bf45832cdf3ea3", "is_disabled": 0, "lat": 38.865027166666664, "rental_uris": {"ios": "https://dc.lft.to/lastmile_qr_scan", "android": "https://dc.lft.to/lastmile_qr_scan"}, "is_reserved": 0, "lon": -76.9898415, "fusion_lat": 0.0, "name": "90faa28469415cb768bf45832cdf3ea3"}, {"type": "electric_scooter", "fusion_lon": 0.0, "bike_id": "4a81ed7e2b352d3eb6682260e4d5601c", "is_disabled": 0, "lat": 38.934270833333336, "rental_uris": {"ios": "https://dc.lft.to/lastmile_qr_scan", "android": "https://dc.lft.to/lastmile_qr_scan"}, "is_reserved": 0, "lon": -77.0400355, "fusion_lat": 0.0, "name": "4a81ed7e2b352d3eb6682260e4d5601c"}, {"type": "electric_scooter", "fusion_lon": 0.0, "bike_id": "b9dce0ae8a82b0e7d7b0698d04d70441", "is_disabled": 0, "lat": 38.91291283333333, "rental_uris": {"ios": "https://dc.lft.to/lastmile_qr_scan", "android": "https://dc.lft.to/lastmile_qr_scan"}, "is_reserved": 0, "lon": -77.04513333333334, "fusion_lat": 0.0, "name": "b9dce0ae8a82b0e7d7b0698d04d70441"}, {"type": "electric_scooter", "fusion_lon": 0.0, "bike_id": "ebd06baea9f0082e2e9e16071fdf7958", "is_disabled": 0, "lat": 38.906677, "rental_uris": {"ios": "https://dc.lft.to/lastmile_qr_scan", "android": "https://dc.lft.to/lastmile_qr_scan"}, "is_reserved": 0, "lon": -77.02948866666667, "fusion_lat": 0.0, "name": "ebd06baea9f0082e2e9e16071fdf7958"}, {"type": "electric_scooter", "fusion_lon": 0.0, "bike_id": "2905f41445fef8ed2a22b5deb072bd6b", "is_disabled": 0, "lat": 38.911208, "rental_uris": {"ios": "https://dc.lft.to/lastmile_qr_scan", "android": "https://dc.lft.to/lastmile_qr_scan"}, "is_reserved": 0, "lon": -77.02198316666667, "fusion_lat": 0.0, "name": "2905f41445fef8ed2a22b5deb072bd6b"}, {"type": "electric_scooter", "fusion_lon": 0.0, "bike_id": "547b813081f5c16c57cfc161fbf259ca", "is_disabled": 0, "lat": 38.9148085, "rental_uris": {"ios": "https://dc.lft.to/lastmile_qr_scan", "android": "https://dc.lft.to/lastmile_qr_scan"}, "is_reserved": 0, "lon": -77.03246766666666, "fusion_lat": 0.0, "name": "547b813081f5c16c57cfc161fbf259ca"}, {"type": "electric_scooter", "fusion_lon": 0.0, "bike_id": "39f627382eb3e6993610ee34060698f9", "is_disabled": 0, "lat": 38.887719, "rental_uris": {"ios": "https://dc.lft.to/lastmile_qr_scan", "android": "https://dc.lft.to/lastmile_qr_scan"}, "is_reserved": 0, "lon": -77.033543, "fusion_lat": 0.0, "name": "39f627382eb3e6993610ee34060698f9"}, {"type": "electric_scooter", "fusion_lon": 0.0, "bike_id": "070f95f56d6a5e2450689ac2b9f4f9af", "is_disabled": 0, "lat": 38.951801833333334, "rental_uris": {"ios": "https://dc.lft.to/lastmile_qr_scan", "android": "https://dc.lft.to/lastmile_qr_scan"}, "is_reserved": 0, "lon": -77.02619383333334, "fusion_lat": 0.0, "name": "070f95f56d6a5e2450689ac2b9f4f9af"}, {"type": "electric_scooter", "fusion_lon": 0.0, "bike_id": "89214ad23ff524706e7e1e2a48aeebc4", "is_disabled": 0, "lat": 38.9023705, "rental_uris": {"ios": "https://dc.lft.to/lastmile_qr_scan", "android": "https://dc.lft.to/lastmile_qr_scan"}, "is_reserved": 0, "lon": -77.02657816666667, "fusion_lat": 0.0, "name": "89214ad23ff524706e7e1e2a48aeebc4"}, {"type": "electric_scooter", "fusion_lon": 0.0, "bike_id": "c3c5a9939af894a53157c39a901ff748", "is_disabled": 0, "lat": 38.91837966666667, "rental_uris": {"ios": "https://dc.lft.to/lastmile_qr_scan", "android": "https://dc.lft.to/lastmile_qr_scan"}, "is_reserved": 0, "lon": -77.04181183333333, "fusion_lat": 0.0, "name": "c3c5a9939af894a53157c39a901ff748"}, {"type": "electric_scooter", "fusion_lon": 0.0, "bike_id": "e414511a23f1e2fbc814ccec789d01e6", "is_disabled": 0, "lat": 38.89223616666666, "rental_uris": {"ios": "https://dc.lft.to/lastmile_qr_scan", "android": "https://dc.lft.to/lastmile_qr_scan"}, "is_reserved": 0, "lon": -77.02420233333333, "fusion_lat": 0.0, "name": "e414511a23f1e2fbc814ccec789d01e6"}, {"type": "electric_scooter", "fusion_lon": 0.0, "bike_id": "39f00a3f9e706ccf9512ef86a1e9b431", "is_disabled": 0, "lat": 38.9051605, "rental_uris": {"ios": "https://dc.lft.to/lastmile_qr_scan", "android": "https://dc.lft.to/lastmile_qr_scan"}, "is_reserved": 0, "lon": -77.02938483333334, "fusion_lat": 0.0, "name": "39f00a3f9e706ccf9512ef86a1e9b431"}, {"type": "electric_scooter", "fusion_lon": 0.0, "bike_id": "77ac1789728729aa937a3611efa5a371", "is_disabled": 0, "lat": 38.93100466666667, "rental_uris": {"ios": "https://dc.lft.to/lastmile_qr_scan", "android": "https://dc.lft.to/lastmile_qr_scan"}, "is_reserved": 0, "lon": -77.02479, "fusion_lat": 0.0, "name": "77ac1789728729aa937a3611efa5a371"}, {"type": "electric_scooter", "fusion_lon": 0.0, "bike_id": "f13180aaf000d8672c24196e71c3d9da", "is_disabled": 0, "lat": 38.90881483333333, "rental_uris": {"ios": "https://dc.lft.to/lastmile_qr_scan", "android": "https://dc.lft.to/lastmile_qr_scan"}, "is_reserved": 0, "lon": -77.06775483333334, "fusion_lat": 0.0, "name": "f13180aaf000d8672c24196e71c3d9da"}, {"type": "electric_scooter", "fusion_lon": 0.0, "bike_id": "545d08d1d1556b7c2fe07b6f6aed8e4e", "is_disabled": 0, "lat": 38.92025966666667, "rental_uris": {"ios": "https://dc.lft.to/lastmile_qr_scan", "android": "https://dc.lft.to/lastmile_qr_scan"}, "is_reserved": 0, "lon": -77.01430283333333, "fusion_lat": 0.0, "name": "545d08d1d1556b7c2fe07b6f6aed8e4e"}, {"type": "electric_scooter", "fusion_lon": 0.0, "bike_id": "6ca5a0722e53dbfbac29c1c3cb5b803e", "is_disabled": 0, "lat": 38.90518266666667, "rental_uris": {"ios": "https://dc.lft.to/lastmile_qr_scan", "android": "https://dc.lft.to/lastmile_qr_scan"}, "is_reserved": 0, "lon": -77.04763833333334, "fusion_lat": 0.0, "name": "6ca5a0722e53dbfbac29c1c3cb5b803e"}, {"type": "electric_scooter", "fusion_lon": 0.0, "bike_id": "c574f01fbff055cbe34b11eb27852f77", "is_disabled": 0, "lat": 38.92321866666666, "rental_uris": {"ios": "https://dc.lft.to/lastmile_qr_scan", "android": "https://dc.lft.to/lastmile_qr_scan"}, "is_reserved": 0, "lon": -77.0195545, "fusion_lat": 0.0, "name": "c574f01fbff055cbe34b11eb27852f77"}, {"type": "electric_scooter", "fusion_lon": 0.0, "bike_id": "a8ca8ec696733b1f3a4a6856f75829f6", "is_disabled": 0, "lat": 38.932193833333336, "rental_uris": {"ios": "https://dc.lft.to/lastmile_qr_scan", "android": "https://dc.lft.to/lastmile_qr_scan"}, "is_reserved": 0, "lon": -77.03517866666667, "fusion_lat": 0.0, "name": "a8ca8ec696733b1f3a4a6856f75829f6"}, {"type": "electric_scooter", "fusion_lon": 0.0, "bike_id": "3d7d17fd014bdce6a1497b2c04f36cb3", "is_disabled": 0, "lat": 38.87938366666667, "rental_uris": {"ios": "https://dc.lft.to/lastmile_qr_scan", "android": "https://dc.lft.to/lastmile_qr_scan"}, "is_reserved": 0, "lon": -77.01468466666667, "fusion_lat": 0.0, "name": "3d7d17fd014bdce6a1497b2c04f36cb3"}, {"type": "electric_scooter", "fusion_lon": 0.0, "bike_id": "c88c34f9ceb34b994b10b8be777673ae", "is_disabled": 0, "lat": 38.862159, "rental_uris": {"ios": "https://dc.lft.to/lastmile_qr_scan", "android": "https://dc.lft.to/lastmile_qr_scan"}, "is_reserved": 0, "lon": -76.99481683333333, "fusion_lat": 0.0, "name": "c88c34f9ceb34b994b10b8be777673ae"}, {"type": "electric_scooter", "fusion_lon": 0.0, "bike_id": "67ba559e4c8f554cc5f209bef0b76b24", "is_disabled": 0, "lat": 38.92549533333333, "rental_uris": {"ios": "https://dc.lft.to/lastmile_qr_scan", "android": "https://dc.lft.to/lastmile_qr_scan"}, "is_reserved": 0, "lon": -77.00075966666667, "fusion_lat": 0.0, "name": "67ba559e4c8f554cc5f209bef0b76b24"}, {"type": "electric_bike", "fusion_lon": 0.0, "bike_id": "1b0f66b5099dfa3b72d92ad559397472", "is_disabled": 0, "lat": 38.92665733333333, "rental_uris": {"ios": "https://dc.lft.to/lastmile_qr_scan", "android": "https://dc.lft.to/lastmile_qr_scan"}, "is_reserved": 0, "lon": -77.09010816666667, "fusion_lat": 0.0, "name": "1b0f66b5099dfa3b72d92ad559397472"}, {"type": "electric_scooter", "fusion_lon": 0.0, "bike_id": "916b013ea87cbc042e5d244d872330a0", "is_disabled": 0, "lat": 38.91987016666667, "rental_uris": {"ios": "https://dc.lft.to/lastmile_qr_scan", "android": "https://dc.lft.to/lastmile_qr_scan"}, "is_reserved": 0, "lon": -77.0250525, "fusion_lat": 0.0, "name": "916b013ea87cbc042e5d244d872330a0"}, {"type": "electric_scooter", "fusion_lon": 0.0, "bike_id": "cb1436ae9cad6927a3b268fa0c48e0a2", "is_disabled": 0, "lat": 38.899515666666666, "rental_uris": {"ios": "https://dc.lft.to/lastmile_qr_scan", "android": "https://dc.lft.to/lastmile_qr_scan"}, "is_reserved": 0, "lon": -77.0200475, "fusion_lat": 0.0, "name": "cb1436ae9cad6927a3b268fa0c48e0a2"}, {"type": "electric_bike", "fusion_lon": 0.0, "bike_id": "0209a11d9a34c1e970ceca4218b35d70", "is_disabled": 0, "lat": 38.980906833333336, "rental_uris": {"ios": "https://dc.lft.to/lastmile_qr_scan", "android": "https://dc.lft.to/lastmile_qr_scan"}, "is_reserved": 0, "lon": -77.00765283333334, "fusion_lat": 0.0, "name": "0209a11d9a34c1e970ceca4218b35d70"}, {"type": "electric_scooter", "fusion_lon": 0.0, "bike_id": "7ad34108a97aaa65492e68e38f54230f", "is_disabled": 0, "lat": 38.96437566666667, "rental_uris": {"ios": "https://dc.lft.to/lastmile_qr_scan", "android": "https://dc.lft.to/lastmile_qr_scan"}, "is_reserved": 0, "lon": -77.02003566666667, "fusion_lat": 0.0, "name": "7ad34108a97aaa65492e68e38f54230f"}, {"type": "electric_scooter", "fusion_lon": 0.0, "bike_id": "879c2b178228e9e7e3e24e0e57ff60c9", "is_disabled": 0, "lat": 38.9181775, "rental_uris": {"ios": "https://dc.lft.to/lastmile_qr_scan", "android": "https://dc.lft.to/lastmile_qr_scan"}, "is_reserved": 0, "lon": -77.025339, "fusion_lat": 0.0, "name": "879c2b178228e9e7e3e24e0e57ff60c9"}, {"type": "electric_scooter", "fusion_lon": 0.0, "bike_id": "cc3f6f4de13a6ac9435180a4576c6d4d", "is_disabled": 0, "lat": 38.886358666666666, "rental_uris": {"ios": "https://dc.lft.to/lastmile_qr_scan", "android": "https://dc.lft.to/lastmile_qr_scan"}, "is_reserved": 0, "lon": -77.02135216666667, "fusion_lat": 0.0, "name": "cc3f6f4de13a6ac9435180a4576c6d4d"}, {"type": "electric_bike", "fusion_lon": 0.0, "bike_id": "078cb4cc0aa8e62eefc92a1ab7782cd2", "is_disabled": 0, "lat": 38.850931, "rental_uris": {"ios": "https://dc.lft.to/lastmile_qr_scan", "android": "https://dc.lft.to/lastmile_qr_scan"}, "is_reserved": 0, "lon": -76.95697533333333, "fusion_lat": 0.0, "name": "078cb4cc0aa8e62eefc92a1ab7782cd2"}, {"type": "electric_scooter", "fusion_lon": 0.0, "bike_id": "aaa24cecf5fb84dd641246494c74cde7", "is_disabled": 0, "lat": 38.91119066666667, "rental_uris": {"ios": "https://dc.lft.to/lastmile_qr_scan", "android": "https://dc.lft.to/lastmile_qr_scan"}, "is_reserved": 0, "lon": -77.020855, "fusion_lat": 0.0, "name": "aaa24cecf5fb84dd641246494c74cde7"}, {"type": "electric_scooter", "fusion_lon": 0.0, "bike_id": "b2075c6fc1a15f61ccc3a6a6d5c6b15c", "is_disabled": 0, "lat": 38.92885533333333, "rental_uris": {"ios": "https://dc.lft.to/lastmile_qr_scan", "android": "https://dc.lft.to/lastmile_qr_scan"}, "is_reserved": 0, "lon": -77.03250483333333, "fusion_lat": 0.0, "name": "b2075c6fc1a15f61ccc3a6a6d5c6b15c"}, {"type": "electric_bike", "fusion_lon": 0.0, "bike_id": "8cbf249c0b63341e8a792bc6c734a21d", "is_disabled": 0, "lat": 38.92647483333333, "rental_uris": {"ios": "https://dc.lft.to/lastmile_qr_scan", "android": "https://dc.lft.to/lastmile_qr_scan"}, "is_reserved": 0, "lon": -77.03321416666667, "fusion_lat": 0.0, "name": "8cbf249c0b63341e8a792bc6c734a21d"}, {"type": "electric_scooter", "fusion_lon": 0.0, "bike_id": "0ca321de273fdd77c9824563abadcc89", "is_disabled": 0, "lat": 38.9608805, "rental_uris": {"ios": "https://dc.lft.to/lastmile_qr_scan", "android": "https://dc.lft.to/lastmile_qr_scan"}, "is_reserved": 0, "lon": -77.02894716666667, "fusion_lat": 0.0, "name": "0ca321de273fdd77c9824563abadcc89"}, {"type": "electric_scooter", "fusion_lon": 0.0, "bike_id": "fcd540aa3ba61f8264f7897c4cdc8518", "is_disabled": 0, "lat": 38.915660333333335, "rental_uris": {"ios": "https://dc.lft.to/lastmile_qr_scan", "android": "https://dc.lft.to/lastmile_qr_scan"}, "is_reserved": 0, "lon": -77.020096, "fusion_lat": 0.0, "name": "fcd540aa3ba61f8264f7897c4cdc8518"}, {"type": "electric_scooter", "fusion_lon": 0.0, "bike_id": "c81661af397514a0b43e585e8f821e47", "is_disabled": 0, "lat": 38.918162833333334, "rental_uris": {"ios": "https://dc.lft.to/lastmile_qr_scan", "android": "https://dc.lft.to/lastmile_qr_scan"}, "is_reserved": 0, "lon": -77.02704683333333, "fusion_lat": 0.0, "name": "c81661af397514a0b43e585e8f821e47"}, {"type": "electric_scooter", "fusion_lon": 0.0, "bike_id": "927ee542c25129f65309881d3224b99f", "is_disabled": 0, "lat": 38.92065066666667, "rental_uris": {"ios": "https://dc.lft.to/lastmile_qr_scan", "android": "https://dc.lft.to/lastmile_qr_scan"}, "is_reserved": 0, "lon": -77.032649, "fusion_lat": 0.0, "name": "927ee542c25129f65309881d3224b99f"}, {"type": "electric_scooter", "fusion_lon": 0.0, "bike_id": "72afe10d78adb045f7a463e7fe5aa54c", "is_disabled": 0, "lat": 38.892227, "rental_uris": {"ios": "https://dc.lft.to/lastmile_qr_scan", "android": "https://dc.lft.to/lastmile_qr_scan"}, "is_reserved": 0, "lon": -77.04338533333333, "fusion_lat": 0.0, "name": "72afe10d78adb045f7a463e7fe5aa54c"}, {"type": "electric_scooter", "fusion_lon": 0.0, "bike_id": "850655c010855448f0b7f7736c40a33a", "is_disabled": 0, "lat": 38.923501, "rental_uris": {"ios": "https://dc.lft.to/lastmile_qr_scan", "android": "https://dc.lft.to/lastmile_qr_scan"}, "is_reserved": 0, "lon": -77.0363305, "fusion_lat": 0.0, "name": "850655c010855448f0b7f7736c40a33a"}, {"type": "electric_bike", "fusion_lon": 0.0, "bike_id": "33be35ccf7b6b0812b606246109442d9", "is_disabled": 0, "lat": 38.896194, "rental_uris": {"ios": "https://dc.lft.to/lastmile_qr_scan", "android": "https://dc.lft.to/lastmile_qr_scan"}, "is_reserved": 0, "lon": -76.90743133333334, "fusion_lat": 0.0, "name": "33be35ccf7b6b0812b606246109442d9"}, {"type": "electric_scooter", "fusion_lon": 0.0, "bike_id": "b2dffad0bfb8b04f8d8af485a3c67567", "is_disabled": 0, "lat": 38.9215045, "rental_uris": {"ios": "https://dc.lft.to/lastmile_qr_scan", "android": "https://dc.lft.to/lastmile_qr_scan"}, "is_reserved": 0, "lon": -77.03513416666667, "fusion_lat": 0.0, "name": "b2dffad0bfb8b04f8d8af485a3c67567"}, {"type": "electric_bike", "fusion_lon": 0.0, "bike_id": "18b61a243749ef2db741d4ca2dde7617", "is_disabled": 0, "lat": 38.95749083333333, "rental_uris": {"ios": "https://dc.lft.to/lastmile_qr_scan", "android": "https://dc.lft.to/lastmile_qr_scan"}, "is_reserved": 0, "lon": -76.98024433333333, "fusion_lat": 0.0, "name": "18b61a243749ef2db741d4ca2dde7617"}, {"type": "electric_scooter", "fusion_lon": 0.0, "bike_id": "a9d62e1a614b8e7856fef4f0f6159927", "is_disabled": 0, "lat": 38.9224395, "rental_uris": {"ios": "https://dc.lft.to/lastmile_qr_scan", "android": "https://dc.lft.to/lastmile_qr_scan"}, "is_reserved": 0, "lon": -77.038816, "fusion_lat": 0.0, "name": "a9d62e1a614b8e7856fef4f0f6159927"}, {"type": "electric_scooter", "fusion_lon": 0.0, "bike_id": "2f6859d923c8551c754a3d45e1ca4f8c", "is_disabled": 0, "lat": 38.90833583333333, "rental_uris": {"ios": "https://dc.lft.to/lastmile_qr_scan", "android": "https://dc.lft.to/lastmile_qr_scan"}, "is_reserved": 0, "lon": -77.043475, "fusion_lat": 0.0, "name": "2f6859d923c8551c754a3d45e1ca4f8c"}, {"type": "electric_bike", "fusion_lon": 0.0, "bike_id": "7363747df21a5e22614edbaabd4632a3", "is_disabled": 0, "lat": 38.9415105, "rental_uris": {"ios": "https://dc.lft.to/lastmile_qr_scan", "android": "https://dc.lft.to/lastmile_qr_scan"}, "is_reserved": 0, "lon": -77.002029, "fusion_lat": 0.0, "name": "7363747df21a5e22614edbaabd4632a3"}, {"type": "electric_scooter", "fusion_lon": 0.0, "bike_id": "278e9245678c239ac10ecb2f3bc06cad", "is_disabled": 0, "lat": 38.901917166666664, "rental_uris": {"ios": "https://dc.lft.to/lastmile_qr_scan", "android": "https://dc.lft.to/lastmile_qr_scan"}, "is_reserved": 0, "lon": -76.92639066666666, "fusion_lat": 0.0, "name": "278e9245678c239ac10ecb2f3bc06cad"}, {"type": "electric_scooter", "fusion_lon": 0.0, "bike_id": "44e32fe3b10f15f9aa3e9dee675e9cdd", "is_disabled": 0, "lat": 38.91635766666667, "rental_uris": {"ios": "https://dc.lft.to/lastmile_qr_scan", "android": "https://dc.lft.to/lastmile_qr_scan"}, "is_reserved": 0, "lon": -77.04273216666667, "fusion_lat": 0.0, "name": "44e32fe3b10f15f9aa3e9dee675e9cdd"}, {"type": "electric_scooter", "fusion_lon": 0.0, "bike_id": "b94aafe092c5a1a9a55ed76859742598", "is_disabled": 0, "lat": 38.92473583333334, "rental_uris": {"ios": "https://dc.lft.to/lastmile_qr_scan", "android": "https://dc.lft.to/lastmile_qr_scan"}, "is_reserved": 0, "lon": -77.02219083333334, "fusion_lat": 0.0, "name": "b94aafe092c5a1a9a55ed76859742598"}, {"type": "electric_scooter", "fusion_lon": 0.0, "bike_id": "16ba2663726f9165df78b3c3638e9343", "is_disabled": 0, "lat": 38.9071535, "rental_uris": {"ios": "https://dc.lft.to/lastmile_qr_scan", "android": "https://dc.lft.to/lastmile_qr_scan"}, "is_reserved": 0, "lon": -77.04151133333333, "fusion_lat": 0.0, "name": "16ba2663726f9165df78b3c3638e9343"}, {"type": "electric_scooter", "fusion_lon": 0.0, "bike_id": "177cc7c42f94dbce5307575acfeb13f2", "is_disabled": 0, "lat": 38.903911, "rental_uris": {"ios": "https://dc.lft.to/lastmile_qr_scan", "android": "https://dc.lft.to/lastmile_qr_scan"}, "is_reserved": 0, "lon": -76.98497583333334, "fusion_lat": 0.0, "name": "177cc7c42f94dbce5307575acfeb13f2"}, {"type": "electric_scooter", "fusion_lon": 0.0, "bike_id": "30a9011f43c719f5adf4c86af6d0596f", "is_disabled": 0, "lat": 38.919307333333336, "rental_uris": {"ios": "https://dc.lft.to/lastmile_qr_scan", "android": "https://dc.lft.to/lastmile_qr_scan"}, "is_reserved": 0, "lon": -77.0246905, "fusion_lat": 0.0, "name": "30a9011f43c719f5adf4c86af6d0596f"}, {"type": "electric_scooter", "fusion_lon": 0.0, "bike_id": "04ac95b4880f21542e7b54da767c40cf", "is_disabled": 0, "lat": 38.915555833333336, "rental_uris": {"ios": "https://dc.lft.to/lastmile_qr_scan", "android": "https://dc.lft.to/lastmile_qr_scan"}, "is_reserved": 0, "lon": -77.0325155, "fusion_lat": 0.0, "name": "04ac95b4880f21542e7b54da767c40cf"}, {"type": "electric_scooter", "fusion_lon": 0.0, "bike_id": "240f62a6393e2e0d97d35571fc66c750", "is_disabled": 0, "lat": 38.869403166666665, "rental_uris": {"ios": "https://dc.lft.to/lastmile_qr_scan", "android": "https://dc.lft.to/lastmile_qr_scan"}, "is_reserved": 0, "lon": -77.01380333333333, "fusion_lat": 0.0, "name": "240f62a6393e2e0d97d35571fc66c750"}, {"type": "electric_scooter", "fusion_lon": 0.0, "bike_id": "cd6d00d036d81554b8fa6bff410b31fd", "is_disabled": 0, "lat": 38.86469866666667, "rental_uris": {"ios": "https://dc.lft.to/lastmile_qr_scan", "android": "https://dc.lft.to/lastmile_qr_scan"}, "is_reserved": 0, "lon": -76.98230466666666, "fusion_lat": 0.0, "name": "cd6d00d036d81554b8fa6bff410b31fd"}, {"type": "electric_bike", "fusion_lon": 0.0, "bike_id": "8bbf25c0a670d7fb59e60e60fe8226f6", "is_disabled": 0, "lat": 38.92288883333333, "rental_uris": {"ios": "https://dc.lft.to/lastmile_qr_scan", "android": "https://dc.lft.to/lastmile_qr_scan"}, "is_reserved": 0, "lon": -76.99768633333333, "fusion_lat": 0.0, "name": "8bbf25c0a670d7fb59e60e60fe8226f6"}, {"type": "electric_scooter", "fusion_lon": 0.0, "bike_id": "79bacd190e7970cbc4ef3ebacfbda9a6", "is_disabled": 0, "lat": 38.92104233333333, "rental_uris": {"ios": "https://dc.lft.to/lastmile_qr_scan", "android": "https://dc.lft.to/lastmile_qr_scan"}, "is_reserved": 0, "lon": -77.04690266666667, "fusion_lat": 0.0, "name": "79bacd190e7970cbc4ef3ebacfbda9a6"}, {"type": "electric_scooter", "fusion_lon": 0.0, "bike_id": "64ea429c012dd251fc22dfcbcd85e1a0", "is_disabled": 0, "lat": 38.91840066666666, "rental_uris": {"ios": "https://dc.lft.to/lastmile_qr_scan", "android": "https://dc.lft.to/lastmile_qr_scan"}, "is_reserved": 0, "lon": -77.01788183333333, "fusion_lat": 0.0, "name": "64ea429c012dd251fc22dfcbcd85e1a0"}, {"type": "electric_scooter", "fusion_lon": 0.0, "bike_id": "1d78e8d1724e588f87781e136c60ab99", "is_disabled": 0, "lat": 38.91779016666667, "rental_uris": {"ios": "https://dc.lft.to/lastmile_qr_scan", "android": "https://dc.lft.to/lastmile_qr_scan"}, "is_reserved": 0, "lon": -77.0231045, "fusion_lat": 0.0, "name": "1d78e8d1724e588f87781e136c60ab99"}, {"type": "electric_scooter", "fusion_lon": 0.0, "bike_id": "2ff9792f905a55b0f03252fb4f30a1c5", "is_disabled": 0, "lat": 38.8961005, "rental_uris": {"ios": "https://dc.lft.to/lastmile_qr_scan", "android": "https://dc.lft.to/lastmile_qr_scan"}, "is_reserved": 0, "lon": -76.98099633333334, "fusion_lat": 0.0, "name": "2ff9792f905a55b0f03252fb4f30a1c5"}, {"type": "electric_scooter", "fusion_lon": 0.0, "bike_id": "abd900a04ffc11e503a5bb63354db452", "is_disabled": 0, "lat": 38.912695, "rental_uris": {"ios": "https://dc.lft.to/lastmile_qr_scan", "android": "https://dc.lft.to/lastmile_qr_scan"}, "is_reserved": 0, "lon": -77.02215333333334, "fusion_lat": 0.0, "name": "abd900a04ffc11e503a5bb63354db452"}, {"type": "electric_scooter", "fusion_lon": 0.0, "bike_id": "beafdca6b34fb742d6b76fef3241bdf1", "is_disabled": 0, "lat": 38.905492333333335, "rental_uris": {"ios": "https://dc.lft.to/lastmile_qr_scan", "android": "https://dc.lft.to/lastmile_qr_scan"}, "is_reserved": 0, "lon": -77.00710866666667, "fusion_lat": 0.0, "name": "beafdca6b34fb742d6b76fef3241bdf1"}, {"type": "electric_scooter", "fusion_lon": 0.0, "bike_id": "12392366ea44fe6cf22854f59dbb78de", "is_disabled": 0, "lat": 38.9232635, "rental_uris": {"ios": "https://dc.lft.to/lastmile_qr_scan", "android": "https://dc.lft.to/lastmile_qr_scan"}, "is_reserved": 0, "lon": -77.00056283333333, "fusion_lat": 0.0, "name": "12392366ea44fe6cf22854f59dbb78de"}, {"type": "electric_scooter", "fusion_lon": 0.0, "bike_id": "8fddad6a5b042c838e4005f9b78cf543", "is_disabled": 0, "lat": 38.93059383333333, "rental_uris": {"ios": "https://dc.lft.to/lastmile_qr_scan", "android": "https://dc.lft.to/lastmile_qr_scan"}, "is_reserved": 0, "lon": -77.032143, "fusion_lat": 0.0, "name": "8fddad6a5b042c838e4005f9b78cf543"}, {"type": "electric_scooter", "fusion_lon": 0.0, "bike_id": "99838e3ce03a73c8daf94d0a494bfe23", "is_disabled": 0, "lat": 38.916998166666666, "rental_uris": {"ios": "https://dc.lft.to/lastmile_qr_scan", "android": "https://dc.lft.to/lastmile_qr_scan"}, "is_reserved": 0, "lon": -77.03470383333334, "fusion_lat": 0.0, "name": "99838e3ce03a73c8daf94d0a494bfe23"}, {"type": "electric_scooter", "fusion_lon": 0.0, "bike_id": "d889a798944d29164e7b8b26e41a3290", "is_disabled": 0, "lat": 38.89732566666667, "rental_uris": {"ios": "https://dc.lft.to/lastmile_qr_scan", "android": "https://dc.lft.to/lastmile_qr_scan"}, "is_reserved": 0, "lon": -77.031572, "fusion_lat": 0.0, "name": "d889a798944d29164e7b8b26e41a3290"}, {"type": "electric_scooter", "fusion_lon": 0.0, "bike_id": "0bf0cb6990c76be7a271882e1b3cab01", "is_disabled": 0, "lat": 38.90027416666667, "rental_uris": {"ios": "https://dc.lft.to/lastmile_qr_scan", "android": "https://dc.lft.to/lastmile_qr_scan"}, "is_reserved": 0, "lon": -77.04854466666667, "fusion_lat": 0.0, "name": "0bf0cb6990c76be7a271882e1b3cab01"}, {"type": "electric_bike", "fusion_lon": 0.0, "bike_id": "3c6d550ea2d879c1928f2a2e58855e03", "is_disabled": 0, "lat": 38.95085733333333, "rental_uris": {"ios": "https://dc.lft.to/lastmile_qr_scan", "android": "https://dc.lft.to/lastmile_qr_scan"}, "is_reserved": 0, "lon": -77.012358, "fusion_lat": 0.0, "name": "3c6d550ea2d879c1928f2a2e58855e03"}, {"type": "electric_scooter", "fusion_lon": 0.0, "bike_id": "9818d22a1f3f36fce1032db0cc1058a1", "is_disabled": 0, "lat": 38.90719083333333, "rental_uris": {"ios": "https://dc.lft.to/lastmile_qr_scan", "android": "https://dc.lft.to/lastmile_qr_scan"}, "is_reserved": 0, "lon": -77.041529, "fusion_lat": 0.0, "name": "9818d22a1f3f36fce1032db0cc1058a1"}, {"type": "electric_scooter", "fusion_lon": 0.0, "bike_id": "8a7735a37a31b9ac0a88c82e84729504", "is_disabled": 0, "lat": 38.89954633333333, "rental_uris": {"ios": "https://dc.lft.to/lastmile_qr_scan", "android": "https://dc.lft.to/lastmile_qr_scan"}, "is_reserved": 0, "lon": -77.016183, "fusion_lat": 0.0, "name": "8a7735a37a31b9ac0a88c82e84729504"}, {"type": "electric_scooter", "fusion_lon": 0.0, "bike_id": "037086563b508d2a7ec2256fb88aa3d2", "is_disabled": 0, "lat": 38.796116833333336, "rental_uris": {"ios": "https://dc.lft.to/lastmile_qr_scan", "android": "https://dc.lft.to/lastmile_qr_scan"}, "is_reserved": 0, "lon": -77.07488366666666, "fusion_lat": 0.0, "name": "037086563b508d2a7ec2256fb88aa3d2"}, {"type": "electric_scooter", "fusion_lon": 0.0, "bike_id": "a4b381e75aa3e48064b7942d4da8a22a", "is_disabled": 0, "lat": 38.922873833333334, "rental_uris": {"ios": "https://dc.lft.to/lastmile_qr_scan", "android": "https://dc.lft.to/lastmile_qr_scan"}, "is_reserved": 0, "lon": -77.03195316666667, "fusion_lat": 0.0, "name": "a4b381e75aa3e48064b7942d4da8a22a"}, {"type": "electric_scooter", "fusion_lon": 0.0, "bike_id": "0548056975a24ea992bfd474a6ebcf4a", "is_disabled": 0, "lat": 38.8768055, "rental_uris": {"ios": "https://dc.lft.to/lastmile_qr_scan", "android": "https://dc.lft.to/lastmile_qr_scan"}, "is_reserved": 0, "lon": -77.006628, "fusion_lat": 0.0, "name": "0548056975a24ea992bfd474a6ebcf4a"}, {"type": "electric_scooter", "fusion_lon": 0.0, "bike_id": "ac79df3ed060916f0dec365c04576dff", "is_disabled": 0, "lat": 38.897090166666665, "rental_uris": {"ios": "https://dc.lft.to/lastmile_qr_scan", "android": "https://dc.lft.to/lastmile_qr_scan"}, "is_reserved": 0, "lon": -77.027014, "fusion_lat": 0.0, "name": "ac79df3ed060916f0dec365c04576dff"}, {"type": "electric_scooter", "fusion_lon": 0.0, "bike_id": "656a9978acff5b1002f2981682c5ceb8", "is_disabled": 0, "lat": 38.902362333333336, "rental_uris": {"ios": "https://dc.lft.to/lastmile_qr_scan", "android": "https://dc.lft.to/lastmile_qr_scan"}, "is_reserved": 0, "lon": -77.03740633333334, "fusion_lat": 0.0, "name": "656a9978acff5b1002f2981682c5ceb8"}, {"type": "electric_bike", "fusion_lon": 0.0, "bike_id": "55af3d3ecd9397d0a6ae161984a20ea2", "is_disabled": 0, "lat": 38.857655, "rental_uris": {"ios": "https://dc.lft.to/lastmile_qr_scan", "android": "https://dc.lft.to/lastmile_qr_scan"}, "is_reserved": 0, "lon": -76.9876975, "fusion_lat": 0.0, "name": "55af3d3ecd9397d0a6ae161984a20ea2"}, {"type": "electric_scooter", "fusion_lon": 0.0, "bike_id": "2009e8762e47f6b13b40f25706fdf0a8", "is_disabled": 0, "lat": 38.918865, "rental_uris": {"ios": "https://dc.lft.to/lastmile_qr_scan", "android": "https://dc.lft.to/lastmile_qr_scan"}, "is_reserved": 0, "lon": -77.02448916666667, "fusion_lat": 0.0, "name": "2009e8762e47f6b13b40f25706fdf0a8"}, {"type": "electric_scooter", "fusion_lon": 0.0, "bike_id": "0e131cdf3fa18e6e188fa84fbcbb38a6", "is_disabled": 0, "lat": 38.9111885, "rental_uris": {"ios": "https://dc.lft.to/lastmile_qr_scan", "android": "https://dc.lft.to/lastmile_qr_scan"}, "is_reserved": 0, "lon": -77.00459716666667, "fusion_lat": 0.0, "name": "0e131cdf3fa18e6e188fa84fbcbb38a6"}, {"type": "electric_bike", "fusion_lon": 0.0, "bike_id": "b581abb9e86485e06393e4e6818becbd", "is_disabled": 0, "lat": 38.914817166666666, "rental_uris": {"ios": "https://dc.lft.to/lastmile_qr_scan", "android": "https://dc.lft.to/lastmile_qr_scan"}, "is_reserved": 0, "lon": -76.98573916666666, "fusion_lat": 0.0, "name": "b581abb9e86485e06393e4e6818becbd"}, {"type": "electric_bike", "fusion_lon": 0.0, "bike_id": "c175a28751c6cc4799c00585e38e9f20", "is_disabled": 0, "lat": 38.88128666666667, "rental_uris": {"ios": "https://dc.lft.to/lastmile_qr_scan", "android": "https://dc.lft.to/lastmile_qr_scan"}, "is_reserved": 0, "lon": -76.998019, "fusion_lat": 0.0, "name": "c175a28751c6cc4799c00585e38e9f20"}, {"type": "electric_scooter", "fusion_lon": 0.0, "bike_id": "6ae4a2552c95a4c7eeb914efd87ceda8", "is_disabled": 0, "lat": 38.9164605, "rental_uris": {"ios": "https://dc.lft.to/lastmile_qr_scan", "android": "https://dc.lft.to/lastmile_qr_scan"}, "is_reserved": 0, "lon": -77.02272033333334, "fusion_lat": 0.0, "name": "6ae4a2552c95a4c7eeb914efd87ceda8"}, {"type": "electric_scooter", "fusion_lon": 0.0, "bike_id": "a3c952fa9097a46ec2e5b770bac0a9d0", "is_disabled": 0, "lat": 38.89257083333333, "rental_uris": {"ios": "https://dc.lft.to/lastmile_qr_scan", "android": "https://dc.lft.to/lastmile_qr_scan"}, "is_reserved": 0, "lon": -77.04509266666666, "fusion_lat": 0.0, "name": "a3c952fa9097a46ec2e5b770bac0a9d0"}, {"type": "electric_scooter", "fusion_lon": 0.0, "bike_id": "824eee488306d9b01f5fcbac26c6939f", "is_disabled": 0, "lat": 38.937028166666664, "rental_uris": {"ios": "https://dc.lft.to/lastmile_qr_scan", "android": "https://dc.lft.to/lastmile_qr_scan"}, "is_reserved": 0, "lon": -77.05603383333333, "fusion_lat": 0.0, "name": "824eee488306d9b01f5fcbac26c6939f"}, {"type": "electric_scooter", "fusion_lon": 0.0, "bike_id": "27299f99710ac95310c62d8853499970", "is_disabled": 0, "lat": 38.887775, "rental_uris": {"ios": "https://dc.lft.to/lastmile_qr_scan", "android": "https://dc.lft.to/lastmile_qr_scan"}, "is_reserved": 0, "lon": -77.03326383333334, "fusion_lat": 0.0, "name": "27299f99710ac95310c62d8853499970"}, {"type": "electric_scooter", "fusion_lon": 0.0, "bike_id": "841a1142dc6fc219d334c5af1eae647e", "is_disabled": 0, "lat": 38.90565383333333, "rental_uris": {"ios": "https://dc.lft.to/lastmile_qr_scan", "android": "https://dc.lft.to/lastmile_qr_scan"}, "is_reserved": 0, "lon": -77.02213966666666, "fusion_lat": 0.0, "name": "841a1142dc6fc219d334c5af1eae647e"}, {"type": "electric_scooter", "fusion_lon": 0.0, "bike_id": "8f31581aa8cbe831e3849803b5a9dc16", "is_disabled": 0, "lat": 38.90023166666667, "rental_uris": {"ios": "https://dc.lft.to/lastmile_qr_scan", "android": "https://dc.lft.to/lastmile_qr_scan"}, "is_reserved": 0, "lon": -76.99868966666666, "fusion_lat": 0.0, "name": "8f31581aa8cbe831e3849803b5a9dc16"}, {"type": "electric_scooter", "fusion_lon": 0.0, "bike_id": "b8f11f82291e972fd359f708f33cf0f6", "is_disabled": 0, "lat": 38.90559116666667, "rental_uris": {"ios": "https://dc.lft.to/lastmile_qr_scan", "android": "https://dc.lft.to/lastmile_qr_scan"}, "is_reserved": 0, "lon": -77.02215, "fusion_lat": 0.0, "name": "b8f11f82291e972fd359f708f33cf0f6"}, {"type": "electric_scooter", "fusion_lon": 0.0, "bike_id": "36a67b5797192e47aa52637979b63c96", "is_disabled": 0, "lat": 38.91001716666667, "rental_uris": {"ios": "https://dc.lft.to/lastmile_qr_scan", "android": "https://dc.lft.to/lastmile_qr_scan"}, "is_reserved": 0, "lon": -77.0401015, "fusion_lat": 0.0, "name": "36a67b5797192e47aa52637979b63c96"}, {"type": "electric_bike", "fusion_lon": 0.0, "bike_id": "a808d405c434e74d0a3dc4c48714e250", "is_disabled": 0, "lat": 38.95647133333333, "rental_uris": {"ios": "https://dc.lft.to/lastmile_qr_scan", "android": "https://dc.lft.to/lastmile_qr_scan"}, "is_reserved": 0, "lon": -76.997441, "fusion_lat": 0.0, "name": "a808d405c434e74d0a3dc4c48714e250"}, {"type": "electric_scooter", "fusion_lon": 0.0, "bike_id": "9b4cb9625fc4d7b3e5dde5f1cf10315f", "is_disabled": 0, "lat": 38.9315505, "rental_uris": {"ios": "https://dc.lft.to/lastmile_qr_scan", "android": "https://dc.lft.to/lastmile_qr_scan"}, "is_reserved": 0, "lon": -77.05605266666667, "fusion_lat": 0.0, "name": "9b4cb9625fc4d7b3e5dde5f1cf10315f"}, {"type": "electric_scooter", "fusion_lon": 0.0, "bike_id": "c3f2f285608b05be8866ae3dd1b02666", "is_disabled": 0, "lat": 38.957616333333334, "rental_uris": {"ios": "https://dc.lft.to/lastmile_qr_scan", "android": "https://dc.lft.to/lastmile_qr_scan"}, "is_reserved": 0, "lon": -77.01494416666667, "fusion_lat": 0.0, "name": "c3f2f285608b05be8866ae3dd1b02666"}, {"type": "electric_scooter", "fusion_lon": 0.0, "bike_id": "bb47f0747ecdec8e864f63fac10eda7a", "is_disabled": 0, "lat": 38.921252833333334, "rental_uris": {"ios": "https://dc.lft.to/lastmile_qr_scan", "android": "https://dc.lft.to/lastmile_qr_scan"}, "is_reserved": 0, "lon": -77.04388683333333, "fusion_lat": 0.0, "name": "bb47f0747ecdec8e864f63fac10eda7a"}, {"type": "electric_bike", "fusion_lon": 0.0, "bike_id": "d92661ec6a7bc44a5502f23ffd09c45b", "is_disabled": 0, "lat": 38.84282433333333, "rental_uris": {"ios": "https://dc.lft.to/lastmile_qr_scan", "android": "https://dc.lft.to/lastmile_qr_scan"}, "is_reserved": 0, "lon": -77.07526466666667, "fusion_lat": 0.0, "name": "d92661ec6a7bc44a5502f23ffd09c45b"}, {"type": "electric_scooter", "fusion_lon": 0.0, "bike_id": "b413611510032b8f3d38796989370c0c", "is_disabled": 0, "lat": 38.923856, "rental_uris": {"ios": "https://dc.lft.to/lastmile_qr_scan", "android": "https://dc.lft.to/lastmile_qr_scan"}, "is_reserved": 0, "lon": -77.03660166666667, "fusion_lat": 0.0, "name": "b413611510032b8f3d38796989370c0c"}, {"type": "electric_bike", "fusion_lon": 0.0, "bike_id": "d3e10f9d17a8c588cf6562b1836ac959", "is_disabled": 0, "lat": 38.84272283333333, "rental_uris": {"ios": "https://dc.lft.to/lastmile_qr_scan", "android": "https://dc.lft.to/lastmile_qr_scan"}, "is_reserved": 0, "lon": -76.988212, "fusion_lat": 0.0, "name": "d3e10f9d17a8c588cf6562b1836ac959"}, {"type": "electric_scooter", "fusion_lon": 0.0, "bike_id": "01f63877b7481f574de881b3786dcb62", "is_disabled": 0, "lat": 38.883365166666664, "rental_uris": {"ios": "https://dc.lft.to/lastmile_qr_scan", "android": "https://dc.lft.to/lastmile_qr_scan"}, "is_reserved": 0, "lon": -77.0064445, "fusion_lat": 0.0, "name": "01f63877b7481f574de881b3786dcb62"}, {"type": "electric_scooter", "fusion_lon": 0.0, "bike_id": "94736eda3fff5a85bd7e634b0774b2cd", "is_disabled": 0, "lat": 38.902695333333334, "rental_uris": {"ios": "https://dc.lft.to/lastmile_qr_scan", "android": "https://dc.lft.to/lastmile_qr_scan"}, "is_reserved": 0, "lon": -77.0384605, "fusion_lat": 0.0, "name": "94736eda3fff5a85bd7e634b0774b2cd"}, {"type": "electric_scooter", "fusion_lon": 0.0, "bike_id": "c72f189dac604dd46fd03a2ee69e44bf", "is_disabled": 0, "lat": 38.90801616666667, "rental_uris": {"ios": "https://dc.lft.to/lastmile_qr_scan", "android": "https://dc.lft.to/lastmile_qr_scan"}, "is_reserved": 0, "lon": -77.042312, "fusion_lat": 0.0, "name": "c72f189dac604dd46fd03a2ee69e44bf"}, {"type": "electric_scooter", "fusion_lon": 0.0, "bike_id": "612baf3859aea620fb399ec3dbba49ac", "is_disabled": 0, "lat": 38.8757815, "rental_uris": {"ios": "https://dc.lft.to/lastmile_qr_scan", "android": "https://dc.lft.to/lastmile_qr_scan"}, "is_reserved": 0, "lon": -77.00600016666667, "fusion_lat": 0.0, "name": "612baf3859aea620fb399ec3dbba49ac"}, {"type": "electric_scooter", "fusion_lon": 0.0, "bike_id": "cc909bd5824ebf08b24892471ac97b5a", "is_disabled": 0, "lat": 38.887714333333335, "rental_uris": {"ios": "https://dc.lft.to/lastmile_qr_scan", "android": "https://dc.lft.to/lastmile_qr_scan"}, "is_reserved": 0, "lon": -77.02846133333334, "fusion_lat": 0.0, "name": "cc909bd5824ebf08b24892471ac97b5a"}, {"type": "electric_scooter", "fusion_lon": 0.0, "bike_id": "27d9537a41694a5b28205d911efcc19f", "is_disabled": 0, "lat": 38.936744833333336, "rental_uris": {"ios": "https://dc.lft.to/lastmile_qr_scan", "android": "https://dc.lft.to/lastmile_qr_scan"}, "is_reserved": 0, "lon": -77.036282, "fusion_lat": 0.0, "name": "27d9537a41694a5b28205d911efcc19f"}, {"type": "electric_scooter", "fusion_lon": 0.0, "bike_id": "3bab5d161efc12a96e4f27d1adb3333c", "is_disabled": 0, "lat": 38.90136233333333, "rental_uris": {"ios": "https://dc.lft.to/lastmile_qr_scan", "android": "https://dc.lft.to/lastmile_qr_scan"}, "is_reserved": 0, "lon": -76.94569416666667, "fusion_lat": 0.0, "name": "3bab5d161efc12a96e4f27d1adb3333c"}, {"type": "electric_scooter", "fusion_lon": 0.0, "bike_id": "cd8455c5cc24beff8238ddd5e059cfbf", "is_disabled": 0, "lat": 38.886531, "rental_uris": {"ios": "https://dc.lft.to/lastmile_qr_scan", "android": "https://dc.lft.to/lastmile_qr_scan"}, "is_reserved": 0, "lon": -77.028209, "fusion_lat": 0.0, "name": "cd8455c5cc24beff8238ddd5e059cfbf"}, {"type": "electric_bike", "fusion_lon": 0.0, "bike_id": "666d26b4dd9a300f30d440b15abe03ba", "is_disabled": 0, "lat": 38.87306983333333, "rental_uris": {"ios": "https://dc.lft.to/lastmile_qr_scan", "android": "https://dc.lft.to/lastmile_qr_scan"}, "is_reserved": 0, "lon": -77.01098933333333, "fusion_lat": 0.0, "name": "666d26b4dd9a300f30d440b15abe03ba"}, {"type": "electric_scooter", "fusion_lon": 0.0, "bike_id": "2ea81b2e281cd308b7fd1d0fba604656", "is_disabled": 0, "lat": 38.8973545, "rental_uris": {"ios": "https://dc.lft.to/lastmile_qr_scan", "android": "https://dc.lft.to/lastmile_qr_scan"}, "is_reserved": 0, "lon": -77.04348216666666, "fusion_lat": 0.0, "name": "2ea81b2e281cd308b7fd1d0fba604656"}, {"type": "electric_scooter", "fusion_lon": 0.0, "bike_id": "412d613ee99391cb5e9f040de5d78b44", "is_disabled": 0, "lat": 38.89610283333333, "rental_uris": {"ios": "https://dc.lft.to/lastmile_qr_scan", "android": "https://dc.lft.to/lastmile_qr_scan"}, "is_reserved": 0, "lon": -77.009311, "fusion_lat": 0.0, "name": "412d613ee99391cb5e9f040de5d78b44"}, {"type": "electric_scooter", "fusion_lon": 0.0, "bike_id": "2c0abccbdc01cc1939faa07d91b6fff8", "is_disabled": 0, "lat": 38.89969716666667, "rental_uris": {"ios": "https://dc.lft.to/lastmile_qr_scan", "android": "https://dc.lft.to/lastmile_qr_scan"}, "is_reserved": 0, "lon": -77.0510215, "fusion_lat": 0.0, "name": "2c0abccbdc01cc1939faa07d91b6fff8"}, {"type": "electric_scooter", "fusion_lon": 0.0, "bike_id": "a0b02e048d3dc85c5558b75ed2257b27", "is_disabled": 0, "lat": 38.89990383333333, "rental_uris": {"ios": "https://dc.lft.to/lastmile_qr_scan", "android": "https://dc.lft.to/lastmile_qr_scan"}, "is_reserved": 0, "lon": -76.99483066666667, "fusion_lat": 0.0, "name": "a0b02e048d3dc85c5558b75ed2257b27"}, {"type": "electric_scooter", "fusion_lon": 0.0, "bike_id": "b4b9172efe19aef49d0904546318ffa1", "is_disabled": 0, "lat": 38.926192666666665, "rental_uris": {"ios": "https://dc.lft.to/lastmile_qr_scan", "android": "https://dc.lft.to/lastmile_qr_scan"}, "is_reserved": 0, "lon": -77.041989, "fusion_lat": 0.0, "name": "b4b9172efe19aef49d0904546318ffa1"}, {"type": "electric_scooter", "fusion_lon": 0.0, "bike_id": "5b6df9d427f9a7b2ab1d6cf5f841fd28", "is_disabled": 0, "lat": 38.838397666666665, "rental_uris": {"ios": "https://dc.lft.to/lastmile_qr_scan", "android": "https://dc.lft.to/lastmile_qr_scan"}, "is_reserved": 0, "lon": -76.99839883333334, "fusion_lat": 0.0, "name": "5b6df9d427f9a7b2ab1d6cf5f841fd28"}, {"type": "electric_scooter", "fusion_lon": 0.0, "bike_id": "f915b43c59c0ffc26c81753aff0f7e66", "is_disabled": 0, "lat": 38.9059485, "rental_uris": {"ios": "https://dc.lft.to/lastmile_qr_scan", "android": "https://dc.lft.to/lastmile_qr_scan"}, "is_reserved": 0, "lon": -77.01610283333333, "fusion_lat": 0.0, "name": "f915b43c59c0ffc26c81753aff0f7e66"}, {"type": "electric_scooter", "fusion_lon": 0.0, "bike_id": "d968bf593193d0df2c72d35a080de19a", "is_disabled": 0, "lat": 38.916396, "rental_uris": {"ios": "https://dc.lft.to/lastmile_qr_scan", "android": "https://dc.lft.to/lastmile_qr_scan"}, "is_reserved": 0, "lon": -77.0318895, "fusion_lat": 0.0, "name": "d968bf593193d0df2c72d35a080de19a"}, {"type": "electric_scooter", "fusion_lon": 0.0, "bike_id": "e2d4fcf4aea137260ab7c81b5c79ac90", "is_disabled": 0, "lat": 38.9126305, "rental_uris": {"ios": "https://dc.lft.to/lastmile_qr_scan", "android": "https://dc.lft.to/lastmile_qr_scan"}, "is_reserved": 0, "lon": -77.03869616666667, "fusion_lat": 0.0, "name": "e2d4fcf4aea137260ab7c81b5c79ac90"}, {"type": "electric_scooter", "fusion_lon": 0.0, "bike_id": "77e44ac1ac24d03291ac4447e50a24ca", "is_disabled": 0, "lat": 38.90413683333333, "rental_uris": {"ios": "https://dc.lft.to/lastmile_qr_scan", "android": "https://dc.lft.to/lastmile_qr_scan"}, "is_reserved": 0, "lon": -76.97335183333334, "fusion_lat": 0.0, "name": "77e44ac1ac24d03291ac4447e50a24ca"}, {"type": "electric_scooter", "fusion_lon": 0.0, "bike_id": "b4f2a33408f429dd79f9277fbc2a81e5", "is_disabled": 0, "lat": 38.8940575, "rental_uris": {"ios": "https://dc.lft.to/lastmile_qr_scan", "android": "https://dc.lft.to/lastmile_qr_scan"}, "is_reserved": 0, "lon": -77.02199616666667, "fusion_lat": 0.0, "name": "b4f2a33408f429dd79f9277fbc2a81e5"}, {"type": "electric_scooter", "fusion_lon": 0.0, "bike_id": "d72aa04f986eec861f646079578f6674", "is_disabled": 0, "lat": 38.91113033333333, "rental_uris": {"ios": "https://dc.lft.to/lastmile_qr_scan", "android": "https://dc.lft.to/lastmile_qr_scan"}, "is_reserved": 0, "lon": -77.04545383333334, "fusion_lat": 0.0, "name": "d72aa04f986eec861f646079578f6674"}, {"type": "electric_scooter", "fusion_lon": 0.0, "bike_id": "1cfbe4449406b60479ee6d70ace1a804", "is_disabled": 0, "lat": 38.9019615, "rental_uris": {"ios": "https://dc.lft.to/lastmile_qr_scan", "android": "https://dc.lft.to/lastmile_qr_scan"}, "is_reserved": 0, "lon": -77.02188666666666, "fusion_lat": 0.0, "name": "1cfbe4449406b60479ee6d70ace1a804"}, {"type": "electric_scooter", "fusion_lon": 0.0, "bike_id": "41d5da1fd051031b0ca4341752540fef", "is_disabled": 0, "lat": 38.91344633333333, "rental_uris": {"ios": "https://dc.lft.to/lastmile_qr_scan", "android": "https://dc.lft.to/lastmile_qr_scan"}, "is_reserved": 0, "lon": -77.02545416666666, "fusion_lat": 0.0, "name": "41d5da1fd051031b0ca4341752540fef"}, {"type": "electric_scooter", "fusion_lon": 0.0, "bike_id": "90bab48ef27fcec5db72d1f38ed7ac23", "is_disabled": 0, "lat": 38.90980966666667, "rental_uris": {"ios": "https://dc.lft.to/lastmile_qr_scan", "android": "https://dc.lft.to/lastmile_qr_scan"}, "is_reserved": 0, "lon": -77.0487475, "fusion_lat": 0.0, "name": "90bab48ef27fcec5db72d1f38ed7ac23"}, {"type": "electric_scooter", "fusion_lon": 0.0, "bike_id": "1d8e76ed0fcd700b891c780760d390c9", "is_disabled": 0, "lat": 38.92444716666667, "rental_uris": {"ios": "https://dc.lft.to/lastmile_qr_scan", "android": "https://dc.lft.to/lastmile_qr_scan"}, "is_reserved": 0, "lon": -76.9906775, "fusion_lat": 0.0, "name": "1d8e76ed0fcd700b891c780760d390c9"}, {"type": "electric_scooter", "fusion_lon": 0.0, "bike_id": "8a8305bd55f0a14843c06044cec57ca0", "is_disabled": 0, "lat": 38.93777766666667, "rental_uris": {"ios": "https://dc.lft.to/lastmile_qr_scan", "android": "https://dc.lft.to/lastmile_qr_scan"}, "is_reserved": 0, "lon": -77.02452683333334, "fusion_lat": 0.0, "name": "8a8305bd55f0a14843c06044cec57ca0"}, {"type": "electric_scooter", "fusion_lon": 0.0, "bike_id": "cc840a2f4bc37195fc9eec530f6fdc7d", "is_disabled": 0, "lat": 38.9142055, "rental_uris": {"ios": "https://dc.lft.to/lastmile_qr_scan", "android": "https://dc.lft.to/lastmile_qr_scan"}, "is_reserved": 0, "lon": -77.038978, "fusion_lat": 0.0, "name": "cc840a2f4bc37195fc9eec530f6fdc7d"}, {"type": "electric_scooter", "fusion_lon": 0.0, "bike_id": "b9074bcce74cd29926f99d581071d85f", "is_disabled": 0, "lat": 38.924261333333334, "rental_uris": {"ios": "https://dc.lft.to/lastmile_qr_scan", "android": "https://dc.lft.to/lastmile_qr_scan"}, "is_reserved": 0, "lon": -77.04244083333333, "fusion_lat": 0.0, "name": "b9074bcce74cd29926f99d581071d85f"}, {"type": "electric_bike", "fusion_lon": 0.0, "bike_id": "0cfbc38bf2d0fce0d4796a5ff44f4dfa", "is_disabled": 0, "lat": 38.94401966666667, "rental_uris": {"ios": "https://dc.lft.to/lastmile_qr_scan", "android": "https://dc.lft.to/lastmile_qr_scan"}, "is_reserved": 0, "lon": -77.05512433333334, "fusion_lat": 0.0, "name": "0cfbc38bf2d0fce0d4796a5ff44f4dfa"}, {"type": "electric_scooter", "fusion_lon": 0.0, "bike_id": "167fd043ccc0fe13cd50663db54fce69", "is_disabled": 0, "lat": 38.90774733333333, "rental_uris": {"ios": "https://dc.lft.to/lastmile_qr_scan", "android": "https://dc.lft.to/lastmile_qr_scan"}, "is_reserved": 0, "lon": -77.03767533333334, "fusion_lat": 0.0, "name": "167fd043ccc0fe13cd50663db54fce69"}, {"type": "electric_scooter", "fusion_lon": 0.0, "bike_id": "6033f96a8ac2a32cca218cce676761a0", "is_disabled": 0, "lat": 38.90129816666666, "rental_uris": {"ios": "https://dc.lft.to/lastmile_qr_scan", "android": "https://dc.lft.to/lastmile_qr_scan"}, "is_reserved": 0, "lon": -77.02292933333334, "fusion_lat": 0.0, "name": "6033f96a8ac2a32cca218cce676761a0"}, {"type": "electric_scooter", "fusion_lon": 0.0, "bike_id": "badfff92fb4ba1db53e2e3d59e1371ed", "is_disabled": 0, "lat": 38.922403833333334, "rental_uris": {"ios": "https://dc.lft.to/lastmile_qr_scan", "android": "https://dc.lft.to/lastmile_qr_scan"}, "is_reserved": 0, "lon": -77.04492383333333, "fusion_lat": 0.0, "name": "badfff92fb4ba1db53e2e3d59e1371ed"}, {"type": "electric_scooter", "fusion_lon": 0.0, "bike_id": "8a6ca271fa985205c343ecff129b8871", "is_disabled": 0, "lat": 38.89288716666667, "rental_uris": {"ios": "https://dc.lft.to/lastmile_qr_scan", "android": "https://dc.lft.to/lastmile_qr_scan"}, "is_reserved": 0, "lon": -77.04670633333333, "fusion_lat": 0.0, "name": "8a6ca271fa985205c343ecff129b8871"}, {"type": "electric_scooter", "fusion_lon": 0.0, "bike_id": "b32b55cec340b7fce3b360a3f8e5d543", "is_disabled": 0, "lat": 38.861163, "rental_uris": {"ios": "https://dc.lft.to/lastmile_qr_scan", "android": "https://dc.lft.to/lastmile_qr_scan"}, "is_reserved": 0, "lon": -76.98883833333333, "fusion_lat": 0.0, "name": "b32b55cec340b7fce3b360a3f8e5d543"}, {"type": "electric_scooter", "fusion_lon": 0.0, "bike_id": "25f74d34085ac9d6dd8fde4dfa0bdfd0", "is_disabled": 0, "lat": 38.837923333333336, "rental_uris": {"ios": "https://dc.lft.to/lastmile_qr_scan", "android": "https://dc.lft.to/lastmile_qr_scan"}, "is_reserved": 0, "lon": -77.00455233333334, "fusion_lat": 0.0, "name": "25f74d34085ac9d6dd8fde4dfa0bdfd0"}, {"type": "electric_scooter", "fusion_lon": 0.0, "bike_id": "a19dd36abe49ad665e0b6ffca07fb635", "is_disabled": 0, "lat": 38.8877795, "rental_uris": {"ios": "https://dc.lft.to/lastmile_qr_scan", "android": "https://dc.lft.to/lastmile_qr_scan"}, "is_reserved": 0, "lon": -77.033265, "fusion_lat": 0.0, "name": "a19dd36abe49ad665e0b6ffca07fb635"}, {"type": "electric_scooter", "fusion_lon": 0.0, "bike_id": "870071abf271fb42bf897eabf721de46", "is_disabled": 0, "lat": 38.915385666666666, "rental_uris": {"ios": "https://dc.lft.to/lastmile_qr_scan", "android": "https://dc.lft.to/lastmile_qr_scan"}, "is_reserved": 0, "lon": -77.04445916666667, "fusion_lat": 0.0, "name": "870071abf271fb42bf897eabf721de46"}, {"type": "electric_bike", "fusion_lon": 0.0, "bike_id": "7a1cb5709e13fb3bd3e29e5316911355", "is_disabled": 0, "lat": 38.908639, "rental_uris": {"ios": "https://dc.lft.to/lastmile_qr_scan", "android": "https://dc.lft.to/lastmile_qr_scan"}, "is_reserved": 0, "lon": -77.08079533333333, "fusion_lat": 0.0, "name": "7a1cb5709e13fb3bd3e29e5316911355"}, {"type": "electric_bike", "fusion_lon": 0.0, "bike_id": "6663e42d9849f3836f9aff10c1799ca6", "is_disabled": 0, "lat": 39.000291, "rental_uris": {"ios": "https://dc.lft.to/lastmile_qr_scan", "android": "https://dc.lft.to/lastmile_qr_scan"}, "is_reserved": 0, "lon": -77.04744466666666, "fusion_lat": 0.0, "name": "6663e42d9849f3836f9aff10c1799ca6"}, {"type": "electric_scooter", "fusion_lon": 0.0, "bike_id": "60501a7b1768b56daed20ade9644a4d8", "is_disabled": 0, "lat": 38.938467833333334, "rental_uris": {"ios": "https://dc.lft.to/lastmile_qr_scan", "android": "https://dc.lft.to/lastmile_qr_scan"}, "is_reserved": 0, "lon": -77.0723095, "fusion_lat": 0.0, "name": "60501a7b1768b56daed20ade9644a4d8"}, {"type": "electric_scooter", "fusion_lon": 0.0, "bike_id": "72ea4f4cf5e33d08cd1159ee80974885", "is_disabled": 0, "lat": 38.9661155, "rental_uris": {"ios": "https://dc.lft.to/lastmile_qr_scan", "android": "https://dc.lft.to/lastmile_qr_scan"}, "is_reserved": 0, "lon": -77.02754983333334, "fusion_lat": 0.0, "name": "72ea4f4cf5e33d08cd1159ee80974885"}, {"type": "electric_scooter", "fusion_lon": 0.0, "bike_id": "c0208cb52835bf653ea745e0a79481df", "is_disabled": 0, "lat": 38.923369666666666, "rental_uris": {"ios": "https://dc.lft.to/lastmile_qr_scan", "android": "https://dc.lft.to/lastmile_qr_scan"}, "is_reserved": 0, "lon": -77.0568605, "fusion_lat": 0.0, "name": "c0208cb52835bf653ea745e0a79481df"}, {"type": "electric_scooter", "fusion_lon": 0.0, "bike_id": "16bbb228c17e22e639ca9878adb00b51", "is_disabled": 0, "lat": 38.8963395, "rental_uris": {"ios": "https://dc.lft.to/lastmile_qr_scan", "android": "https://dc.lft.to/lastmile_qr_scan"}, "is_reserved": 0, "lon": -77.05025, "fusion_lat": 0.0, "name": "16bbb228c17e22e639ca9878adb00b51"}, {"type": "electric_scooter", "fusion_lon": 0.0, "bike_id": "4fcd885250a460097aea7efacfecf02c", "is_disabled": 0, "lat": 38.92336383333333, "rental_uris": {"ios": "https://dc.lft.to/lastmile_qr_scan", "android": "https://dc.lft.to/lastmile_qr_scan"}, "is_reserved": 0, "lon": -77.04153366666667, "fusion_lat": 0.0, "name": "4fcd885250a460097aea7efacfecf02c"}, {"type": "electric_scooter", "fusion_lon": 0.0, "bike_id": "5094e9b3fcca9da08ab346e2d8690a96", "is_disabled": 0, "lat": 38.91286683333333, "rental_uris": {"ios": "https://dc.lft.to/lastmile_qr_scan", "android": "https://dc.lft.to/lastmile_qr_scan"}, "is_reserved": 0, "lon": -77.04515516666666, "fusion_lat": 0.0, "name": "5094e9b3fcca9da08ab346e2d8690a96"}, {"type": "electric_scooter", "fusion_lon": 0.0, "bike_id": "1ae58774d080de846d78627bc02e8384", "is_disabled": 0, "lat": 38.898469666666664, "rental_uris": {"ios": "https://dc.lft.to/lastmile_qr_scan", "android": "https://dc.lft.to/lastmile_qr_scan"}, "is_reserved": 0, "lon": -77.04892133333334, "fusion_lat": 0.0, "name": "1ae58774d080de846d78627bc02e8384"}, {"type": "electric_scooter", "fusion_lon": 0.0, "bike_id": "41caca79fde6cda0a34276ee0b0d96fe", "is_disabled": 0, "lat": 38.908401, "rental_uris": {"ios": "https://dc.lft.to/lastmile_qr_scan", "android": "https://dc.lft.to/lastmile_qr_scan"}, "is_reserved": 0, "lon": -77.04001533333333, "fusion_lat": 0.0, "name": "41caca79fde6cda0a34276ee0b0d96fe"}, {"type": "electric_scooter", "fusion_lon": 0.0, "bike_id": "b42adf95b13345e8d02249249ef5015c", "is_disabled": 0, "lat": 38.919468333333334, "rental_uris": {"ios": "https://dc.lft.to/lastmile_qr_scan", "android": "https://dc.lft.to/lastmile_qr_scan"}, "is_reserved": 0, "lon": -77.03173883333334, "fusion_lat": 0.0, "name": "b42adf95b13345e8d02249249ef5015c"}, {"type": "electric_scooter", "fusion_lon": 0.0, "bike_id": "1b6ef003e7fd51ea0854aa790d2d87f3", "is_disabled": 0, "lat": 38.90845233333334, "rental_uris": {"ios": "https://dc.lft.to/lastmile_qr_scan", "android": "https://dc.lft.to/lastmile_qr_scan"}, "is_reserved": 0, "lon": -76.99684566666667, "fusion_lat": 0.0, "name": "1b6ef003e7fd51ea0854aa790d2d87f3"}, {"type": "electric_scooter", "fusion_lon": 0.0, "bike_id": "3ff1dc4c3e5be23ef8146652d8022460", "is_disabled": 0, "lat": 38.910347, "rental_uris": {"ios": "https://dc.lft.to/lastmile_qr_scan", "android": "https://dc.lft.to/lastmile_qr_scan"}, "is_reserved": 0, "lon": -77.03407416666667, "fusion_lat": 0.0, "name": "3ff1dc4c3e5be23ef8146652d8022460"}, {"type": "electric_scooter", "fusion_lon": 0.0, "bike_id": "45c88a3e1e920e22a2ae5606c4e5e02f", "is_disabled": 0, "lat": 38.8948255, "rental_uris": {"ios": "https://dc.lft.to/lastmile_qr_scan", "android": "https://dc.lft.to/lastmile_qr_scan"}, "is_reserved": 0, "lon": -77.00071916666667, "fusion_lat": 0.0, "name": "45c88a3e1e920e22a2ae5606c4e5e02f"}, {"type": "electric_scooter", "fusion_lon": 0.0, "bike_id": "d045ddd1da52adcdba23fb9a87cd0317", "is_disabled": 0, "lat": 38.90058716666667, "rental_uris": {"ios": "https://dc.lft.to/lastmile_qr_scan", "android": "https://dc.lft.to/lastmile_qr_scan"}, "is_reserved": 0, "lon": -77.018, "fusion_lat": 0.0, "name": "d045ddd1da52adcdba23fb9a87cd0317"}, {"type": "electric_scooter", "fusion_lon": 0.0, "bike_id": "33a1547b51e8039ccc1d0483cd6b0529", "is_disabled": 0, "lat": 38.91610033333333, "rental_uris": {"ios": "https://dc.lft.to/lastmile_qr_scan", "android": "https://dc.lft.to/lastmile_qr_scan"}, "is_reserved": 0, "lon": -77.04887883333333, "fusion_lat": 0.0, "name": "33a1547b51e8039ccc1d0483cd6b0529"}, {"type": "electric_scooter", "fusion_lon": 0.0, "bike_id": "c797b8618de1a97bf09a44aebf1d859f", "is_disabled": 0, "lat": 38.85269516666666, "rental_uris": {"ios": "https://dc.lft.to/lastmile_qr_scan", "android": "https://dc.lft.to/lastmile_qr_scan"}, "is_reserved": 0, "lon": -76.9699385, "fusion_lat": 0.0, "name": "c797b8618de1a97bf09a44aebf1d859f"}, {"type": "electric_scooter", "fusion_lon": 0.0, "bike_id": "1bc0f4258f0d9b928c8a61108bedc040", "is_disabled": 0, "lat": 38.92080966666666, "rental_uris": {"ios": "https://dc.lft.to/lastmile_qr_scan", "android": "https://dc.lft.to/lastmile_qr_scan"}, "is_reserved": 0, "lon": -77.02499483333334, "fusion_lat": 0.0, "name": "1bc0f4258f0d9b928c8a61108bedc040"}, {"type": "electric_bike", "fusion_lon": 0.0, "bike_id": "1147a4d4e7c1ba686ae4b0306ab3af32", "is_disabled": 0, "lat": 38.8419385, "rental_uris": {"ios": "https://dc.lft.to/lastmile_qr_scan", "android": "https://dc.lft.to/lastmile_qr_scan"}, "is_reserved": 0, "lon": -77.11355966666666, "fusion_lat": 0.0, "name": "1147a4d4e7c1ba686ae4b0306ab3af32"}, {"type": "electric_bike", "fusion_lon": 0.0, "bike_id": "b6a030cc4ac2d41f5fea6057be0fef90", "is_disabled": 0, "lat": 39.03429166666667, "rental_uris": {"ios": "https://dc.lft.to/lastmile_qr_scan", "android": "https://dc.lft.to/lastmile_qr_scan"}, "is_reserved": 0, "lon": -77.04308133333333, "fusion_lat": 0.0, "name": "b6a030cc4ac2d41f5fea6057be0fef90"}, {"type": "electric_scooter", "fusion_lon": 0.0, "bike_id": "9ddff92075039b94ef744643f4989c13", "is_disabled": 0, "lat": 38.92616316666667, "rental_uris": {"ios": "https://dc.lft.to/lastmile_qr_scan", "android": "https://dc.lft.to/lastmile_qr_scan"}, "is_reserved": 0, "lon": -77.02175266666667, "fusion_lat": 0.0, "name": "9ddff92075039b94ef744643f4989c13"}, {"type": "electric_scooter", "fusion_lon": 0.0, "bike_id": "4a40530e19488ccf1c66a1d09a9af1b6", "is_disabled": 0, "lat": 38.894987, "rental_uris": {"ios": "https://dc.lft.to/lastmile_qr_scan", "android": "https://dc.lft.to/lastmile_qr_scan"}, "is_reserved": 0, "lon": -77.02177683333333, "fusion_lat": 0.0, "name": "4a40530e19488ccf1c66a1d09a9af1b6"}, {"type": "electric_scooter", "fusion_lon": 0.0, "bike_id": "46ee13875b98a491ec75776357f009c1", "is_disabled": 0, "lat": 38.91957816666667, "rental_uris": {"ios": "https://dc.lft.to/lastmile_qr_scan", "android": "https://dc.lft.to/lastmile_qr_scan"}, "is_reserved": 0, "lon": -77.01677983333333, "fusion_lat": 0.0, "name": "46ee13875b98a491ec75776357f009c1"}, {"type": "electric_scooter", "fusion_lon": 0.0, "bike_id": "d6ea4ad22ca6f93dc471639add0e8e17", "is_disabled": 0, "lat": 38.927130166666664, "rental_uris": {"ios": "https://dc.lft.to/lastmile_qr_scan", "android": "https://dc.lft.to/lastmile_qr_scan"}, "is_reserved": 0, "lon": -77.02341033333333, "fusion_lat": 0.0, "name": "d6ea4ad22ca6f93dc471639add0e8e17"}, {"type": "electric_scooter", "fusion_lon": 0.0, "bike_id": "e546bd498e69724f6556426ac096d7dd", "is_disabled": 0, "lat": 38.92714466666666, "rental_uris": {"ios": "https://dc.lft.to/lastmile_qr_scan", "android": "https://dc.lft.to/lastmile_qr_scan"}, "is_reserved": 0, "lon": -77.0208535, "fusion_lat": 0.0, "name": "e546bd498e69724f6556426ac096d7dd"}, {"type": "electric_scooter", "fusion_lon": 0.0, "bike_id": "ce783fb6e6e2f12d6d4eafa8db59ab35", "is_disabled": 0, "lat": 38.91764633333333, "rental_uris": {"ios": "https://dc.lft.to/lastmile_qr_scan", "android": "https://dc.lft.to/lastmile_qr_scan"}, "is_reserved": 0, "lon": -77.023415, "fusion_lat": 0.0, "name": "ce783fb6e6e2f12d6d4eafa8db59ab35"}, {"type": "electric_scooter", "fusion_lon": 0.0, "bike_id": "443142754712df21225a5a4e4851879f", "is_disabled": 0, "lat": 38.923830333333335, "rental_uris": {"ios": "https://dc.lft.to/lastmile_qr_scan", "android": "https://dc.lft.to/lastmile_qr_scan"}, "is_reserved": 0, "lon": -77.04112233333333, "fusion_lat": 0.0, "name": "443142754712df21225a5a4e4851879f"}, {"type": "electric_scooter", "fusion_lon": 0.0, "bike_id": "1c30503379dc5b2912229d36299e45c1", "is_disabled": 0, "lat": 38.9104665, "rental_uris": {"ios": "https://dc.lft.to/lastmile_qr_scan", "android": "https://dc.lft.to/lastmile_qr_scan"}, "is_reserved": 0, "lon": -77.01514366666666, "fusion_lat": 0.0, "name": "1c30503379dc5b2912229d36299e45c1"}, {"type": "electric_scooter", "fusion_lon": 0.0, "bike_id": "64e1165b5aaa8d1ef6d68e91fed757b8", "is_disabled": 0, "lat": 38.907255166666666, "rental_uris": {"ios": "https://dc.lft.to/lastmile_qr_scan", "android": "https://dc.lft.to/lastmile_qr_scan"}, "is_reserved": 0, "lon": -77.04152316666666, "fusion_lat": 0.0, "name": "64e1165b5aaa8d1ef6d68e91fed757b8"}, {"type": "electric_scooter", "fusion_lon": 0.0, "bike_id": "9e34c5461531b734dbb08c9ecb302892", "is_disabled": 0, "lat": 38.935316666666665, "rental_uris": {"ios": "https://dc.lft.to/lastmile_qr_scan", "android": "https://dc.lft.to/lastmile_qr_scan"}, "is_reserved": 0, "lon": -77.02350583333333, "fusion_lat": 0.0, "name": "9e34c5461531b734dbb08c9ecb302892"}, {"type": "electric_scooter", "fusion_lon": 0.0, "bike_id": "3e235bc035590ea59cb9befb28fe980f", "is_disabled": 0, "lat": 38.924724833333336, "rental_uris": {"ios": "https://dc.lft.to/lastmile_qr_scan", "android": "https://dc.lft.to/lastmile_qr_scan"}, "is_reserved": 0, "lon": -77.0222175, "fusion_lat": 0.0, "name": "3e235bc035590ea59cb9befb28fe980f"}, {"type": "electric_scooter", "fusion_lon": 0.0, "bike_id": "58bead63f956c7ecf8b821f82b43a133", "is_disabled": 0, "lat": 38.90100966666667, "rental_uris": {"ios": "https://dc.lft.to/lastmile_qr_scan", "android": "https://dc.lft.to/lastmile_qr_scan"}, "is_reserved": 0, "lon": -77.057917, "fusion_lat": 0.0, "name": "58bead63f956c7ecf8b821f82b43a133"}, {"type": "electric_scooter", "fusion_lon": 0.0, "bike_id": "08cbc3fc298c3049c6d621deb5059cac", "is_disabled": 0, "lat": 38.9239645, "rental_uris": {"ios": "https://dc.lft.to/lastmile_qr_scan", "android": "https://dc.lft.to/lastmile_qr_scan"}, "is_reserved": 0, "lon": -77.04224333333333, "fusion_lat": 0.0, "name": "08cbc3fc298c3049c6d621deb5059cac"}, {"type": "electric_scooter", "fusion_lon": 0.0, "bike_id": "54e34e15e2ae55d2cdde4ffb10fb46a2", "is_disabled": 0, "lat": 38.90715933333333, "rental_uris": {"ios": "https://dc.lft.to/lastmile_qr_scan", "android": "https://dc.lft.to/lastmile_qr_scan"}, "is_reserved": 0, "lon": -77.0321115, "fusion_lat": 0.0, "name": "54e34e15e2ae55d2cdde4ffb10fb46a2"}, {"type": "electric_scooter", "fusion_lon": 0.0, "bike_id": "54ba8c72e7da4ff1af798548de12b388", "is_disabled": 0, "lat": 38.91188416666667, "rental_uris": {"ios": "https://dc.lft.to/lastmile_qr_scan", "android": "https://dc.lft.to/lastmile_qr_scan"}, "is_reserved": 0, "lon": -77.0393585, "fusion_lat": 0.0, "name": "54ba8c72e7da4ff1af798548de12b388"}, {"type": "electric_scooter", "fusion_lon": 0.0, "bike_id": "322050089715f727c1865b40000666cf", "is_disabled": 0, "lat": 38.92340083333333, "rental_uris": {"ios": "https://dc.lft.to/lastmile_qr_scan", "android": "https://dc.lft.to/lastmile_qr_scan"}, "is_reserved": 0, "lon": -77.0271445, "fusion_lat": 0.0, "name": "322050089715f727c1865b40000666cf"}, {"type": "electric_scooter", "fusion_lon": 0.0, "bike_id": "0f0a4911e40b118a9adca3430193f850", "is_disabled": 0, "lat": 38.907272, "rental_uris": {"ios": "https://dc.lft.to/lastmile_qr_scan", "android": "https://dc.lft.to/lastmile_qr_scan"}, "is_reserved": 0, "lon": -77.05331416666667, "fusion_lat": 0.0, "name": "0f0a4911e40b118a9adca3430193f850"}, {"type": "electric_scooter", "fusion_lon": 0.0, "bike_id": "8cf9967c7a895d46e9577919a60fdebb", "is_disabled": 0, "lat": 38.923237, "rental_uris": {"ios": "https://dc.lft.to/lastmile_qr_scan", "android": "https://dc.lft.to/lastmile_qr_scan"}, "is_reserved": 0, "lon": -77.03579883333333, "fusion_lat": 0.0, "name": "8cf9967c7a895d46e9577919a60fdebb"}, {"type": "electric_scooter", "fusion_lon": 0.0, "bike_id": "88577eb5fb89ad7d89e3ab52476d0844", "is_disabled": 0, "lat": 38.902746666666665, "rental_uris": {"ios": "https://dc.lft.to/lastmile_qr_scan", "android": "https://dc.lft.to/lastmile_qr_scan"}, "is_reserved": 0, "lon": -77.01764833333333, "fusion_lat": 0.0, "name": "88577eb5fb89ad7d89e3ab52476d0844"}, {"type": "electric_scooter", "fusion_lon": 0.0, "bike_id": "c985075a00af9ac575e26c134e2a3788", "is_disabled": 0, "lat": 38.9543755, "rental_uris": {"ios": "https://dc.lft.to/lastmile_qr_scan", "android": "https://dc.lft.to/lastmile_qr_scan"}, "is_reserved": 0, "lon": -77.01855666666667, "fusion_lat": 0.0, "name": "c985075a00af9ac575e26c134e2a3788"}, {"type": "electric_scooter", "fusion_lon": 0.0, "bike_id": "49afd1fc883bcc5667250908c1762950", "is_disabled": 0, "lat": 38.914465166666666, "rental_uris": {"ios": "https://dc.lft.to/lastmile_qr_scan", "android": "https://dc.lft.to/lastmile_qr_scan"}, "is_reserved": 0, "lon": -77.04178016666667, "fusion_lat": 0.0, "name": "49afd1fc883bcc5667250908c1762950"}, {"type": "electric_scooter", "fusion_lon": 0.0, "bike_id": "c196f401ffb3513ebf2458edcfee521f", "is_disabled": 0, "lat": 38.8921895, "rental_uris": {"ios": "https://dc.lft.to/lastmile_qr_scan", "android": "https://dc.lft.to/lastmile_qr_scan"}, "is_reserved": 0, "lon": -77.02218533333334, "fusion_lat": 0.0, "name": "c196f401ffb3513ebf2458edcfee521f"}, {"type": "electric_scooter", "fusion_lon": 0.0, "bike_id": "4cdb814aa284756b4879851d530c8dca", "is_disabled": 0, "lat": 38.92747383333333, "rental_uris": {"ios": "https://dc.lft.to/lastmile_qr_scan", "android": "https://dc.lft.to/lastmile_qr_scan"}, "is_reserved": 0, "lon": -77.02707933333333, "fusion_lat": 0.0, "name": "4cdb814aa284756b4879851d530c8dca"}, {"type": "electric_scooter", "fusion_lon": 0.0, "bike_id": "7646d107928e23b521f9657f100ad944", "is_disabled": 0, "lat": 38.920739833333336, "rental_uris": {"ios": "https://dc.lft.to/lastmile_qr_scan", "android": "https://dc.lft.to/lastmile_qr_scan"}, "is_reserved": 0, "lon": -77.014503, "fusion_lat": 0.0, "name": "7646d107928e23b521f9657f100ad944"}, {"type": "electric_scooter", "fusion_lon": 0.0, "bike_id": "597938d03c794aa5cd9d3b372025495c", "is_disabled": 0, "lat": 38.8963955, "rental_uris": {"ios": "https://dc.lft.to/lastmile_qr_scan", "android": "https://dc.lft.to/lastmile_qr_scan"}, "is_reserved": 0, "lon": -77.00341816666666, "fusion_lat": 0.0, "name": "597938d03c794aa5cd9d3b372025495c"}, {"type": "electric_scooter", "fusion_lon": 0.0, "bike_id": "d250b8fdca9ceb4fb41a963857dffe9b", "is_disabled": 0, "lat": 38.90157983333334, "rental_uris": {"ios": "https://dc.lft.to/lastmile_qr_scan", "android": "https://dc.lft.to/lastmile_qr_scan"}, "is_reserved": 0, "lon": -77.03934633333333, "fusion_lat": 0.0, "name": "d250b8fdca9ceb4fb41a963857dffe9b"}, {"type": "electric_scooter", "fusion_lon": 0.0, "bike_id": "aeca88b6ec8a892e3663415f528ccb60", "is_disabled": 0, "lat": 38.91808116666667, "rental_uris": {"ios": "https://dc.lft.to/lastmile_qr_scan", "android": "https://dc.lft.to/lastmile_qr_scan"}, "is_reserved": 0, "lon": -77.03188983333334, "fusion_lat": 0.0, "name": "aeca88b6ec8a892e3663415f528ccb60"}, {"type": "electric_scooter", "fusion_lon": 0.0, "bike_id": "91f35b4575b90e291a1adfbe71e78b59", "is_disabled": 0, "lat": 38.91715383333333, "rental_uris": {"ios": "https://dc.lft.to/lastmile_qr_scan", "android": "https://dc.lft.to/lastmile_qr_scan"}, "is_reserved": 0, "lon": -77.02395966666667, "fusion_lat": 0.0, "name": "91f35b4575b90e291a1adfbe71e78b59"}, {"type": "electric_scooter", "fusion_lon": 0.0, "bike_id": "deb69693b1aba264db365c1b9e9243d2", "is_disabled": 0, "lat": 38.91707916666667, "rental_uris": {"ios": "https://dc.lft.to/lastmile_qr_scan", "android": "https://dc.lft.to/lastmile_qr_scan"}, "is_reserved": 0, "lon": -77.0333765, "fusion_lat": 0.0, "name": "deb69693b1aba264db365c1b9e9243d2"}, {"type": "electric_scooter", "fusion_lon": 0.0, "bike_id": "3f4dec342e525617d66aeffeb9c62c39", "is_disabled": 0, "lat": 38.9378655, "rental_uris": {"ios": "https://dc.lft.to/lastmile_qr_scan", "android": "https://dc.lft.to/lastmile_qr_scan"}, "is_reserved": 0, "lon": -77.03282166666666, "fusion_lat": 0.0, "name": "3f4dec342e525617d66aeffeb9c62c39"}, {"type": "electric_scooter", "fusion_lon": 0.0, "bike_id": "d9aab6b0cf76c857c491fc4c48e0da5a", "is_disabled": 0, "lat": 38.917931833333334, "rental_uris": {"ios": "https://dc.lft.to/lastmile_qr_scan", "android": "https://dc.lft.to/lastmile_qr_scan"}, "is_reserved": 0, "lon": -77.03194633333334, "fusion_lat": 0.0, "name": "d9aab6b0cf76c857c491fc4c48e0da5a"}, {"type": "electric_scooter", "fusion_lon": 0.0, "bike_id": "c33facd16d619856ccb6edb9f17fe2eb", "is_disabled": 0, "lat": 38.9001295, "rental_uris": {"ios": "https://dc.lft.to/lastmile_qr_scan", "android": "https://dc.lft.to/lastmile_qr_scan"}, "is_reserved": 0, "lon": -77.00401383333333, "fusion_lat": 0.0, "name": "c33facd16d619856ccb6edb9f17fe2eb"}, {"type": "electric_scooter", "fusion_lon": 0.0, "bike_id": "9616a9889caa58f5dcba1cd353f90cba", "is_disabled": 0, "lat": 38.922641, "rental_uris": {"ios": "https://dc.lft.to/lastmile_qr_scan", "android": "https://dc.lft.to/lastmile_qr_scan"}, "is_reserved": 0, "lon": -77.01955316666667, "fusion_lat": 0.0, "name": "9616a9889caa58f5dcba1cd353f90cba"}, {"type": "electric_scooter", "fusion_lon": 0.0, "bike_id": "83c5a7c249835ff24edca7d14cb886d5", "is_disabled": 0, "lat": 38.926067833333335, "rental_uris": {"ios": "https://dc.lft.to/lastmile_qr_scan", "android": "https://dc.lft.to/lastmile_qr_scan"}, "is_reserved": 0, "lon": -77.03956416666666, "fusion_lat": 0.0, "name": "83c5a7c249835ff24edca7d14cb886d5"}, {"type": "electric_scooter", "fusion_lon": 0.0, "bike_id": "16c8008e775425982469cfbc9e1a3fbc", "is_disabled": 0, "lat": 38.952905, "rental_uris": {"ios": "https://dc.lft.to/lastmile_qr_scan", "android": "https://dc.lft.to/lastmile_qr_scan"}, "is_reserved": 0, "lon": -77.068483, "fusion_lat": 0.0, "name": "16c8008e775425982469cfbc9e1a3fbc"}, {"type": "electric_scooter", "fusion_lon": 0.0, "bike_id": "54d083cc957eefb0f9e2ddafbb382e2a", "is_disabled": 0, "lat": 38.88717916666667, "rental_uris": {"ios": "https://dc.lft.to/lastmile_qr_scan", "android": "https://dc.lft.to/lastmile_qr_scan"}, "is_reserved": 0, "lon": -77.022031, "fusion_lat": 0.0, "name": "54d083cc957eefb0f9e2ddafbb382e2a"}, {"type": "electric_scooter", "fusion_lon": 0.0, "bike_id": "52e75bcf63dae1362ab1e992c4443e36", "is_disabled": 0, "lat": 38.8872325, "rental_uris": {"ios": "https://dc.lft.to/lastmile_qr_scan", "android": "https://dc.lft.to/lastmile_qr_scan"}, "is_reserved": 0, "lon": -76.98356266666667, "fusion_lat": 0.0, "name": "52e75bcf63dae1362ab1e992c4443e36"}, {"type": "electric_scooter", "fusion_lon": 0.0, "bike_id": "c82f866f2b8a975645b70b287635ee4a", "is_disabled": 0, "lat": 38.895421166666665, "rental_uris": {"ios": "https://dc.lft.to/lastmile_qr_scan", "android": "https://dc.lft.to/lastmile_qr_scan"}, "is_reserved": 0, "lon": -76.94927683333333, "fusion_lat": 0.0, "name": "c82f866f2b8a975645b70b287635ee4a"}, {"type": "electric_scooter", "fusion_lon": 0.0, "bike_id": "77873a3defdb7eafb1187aa37a6a352d", "is_disabled": 0, "lat": 38.865046666666665, "rental_uris": {"ios": "https://dc.lft.to/lastmile_qr_scan", "android": "https://dc.lft.to/lastmile_qr_scan"}, "is_reserved": 0, "lon": -76.9899255, "fusion_lat": 0.0, "name": "77873a3defdb7eafb1187aa37a6a352d"}, {"type": "electric_bike", "fusion_lon": 0.0, "bike_id": "68918b9661a0fe9469c2c08fb281341c", "is_disabled": 0, "lat": 38.9653155, "rental_uris": {"ios": "https://dc.lft.to/lastmile_qr_scan", "android": "https://dc.lft.to/lastmile_qr_scan"}, "is_reserved": 0, "lon": -77.02822266666666, "fusion_lat": 0.0, "name": "68918b9661a0fe9469c2c08fb281341c"}, {"type": "electric_scooter", "fusion_lon": 0.0, "bike_id": "510dc1df3d4da73a1777edac1720a1f0", "is_disabled": 0, "lat": 38.93288583333333, "rental_uris": {"ios": "https://dc.lft.to/lastmile_qr_scan", "android": "https://dc.lft.to/lastmile_qr_scan"}, "is_reserved": 0, "lon": -77.02513933333333, "fusion_lat": 0.0, "name": "510dc1df3d4da73a1777edac1720a1f0"}, {"type": "electric_scooter", "fusion_lon": 0.0, "bike_id": "3ba954341aa12a12e4300cd8dd314919", "is_disabled": 0, "lat": 38.90767133333333, "rental_uris": {"ios": "https://dc.lft.to/lastmile_qr_scan", "android": "https://dc.lft.to/lastmile_qr_scan"}, "is_reserved": 0, "lon": -77.04496733333333, "fusion_lat": 0.0, "name": "3ba954341aa12a12e4300cd8dd314919"}, {"type": "electric_scooter", "fusion_lon": 0.0, "bike_id": "0330bfa1f0909e19542f997b4b7648a4", "is_disabled": 0, "lat": 38.927979666666666, "rental_uris": {"ios": "https://dc.lft.to/lastmile_qr_scan", "android": "https://dc.lft.to/lastmile_qr_scan"}, "is_reserved": 0, "lon": -77.0369505, "fusion_lat": 0.0, "name": "0330bfa1f0909e19542f997b4b7648a4"}, {"type": "electric_scooter", "fusion_lon": 0.0, "bike_id": "332631d9dc13bd8714a4e6cecc735bbf", "is_disabled": 0, "lat": 38.920891166666664, "rental_uris": {"ios": "https://dc.lft.to/lastmile_qr_scan", "android": "https://dc.lft.to/lastmile_qr_scan"}, "is_reserved": 0, "lon": -77.07553616666667, "fusion_lat": 0.0, "name": "332631d9dc13bd8714a4e6cecc735bbf"}, {"type": "electric_scooter", "fusion_lon": 0.0, "bike_id": "486f7eb59f822c931b72d85d63b76a87", "is_disabled": 0, "lat": 38.876037833333335, "rental_uris": {"ios": "https://dc.lft.to/lastmile_qr_scan", "android": "https://dc.lft.to/lastmile_qr_scan"}, "is_reserved": 0, "lon": -77.000763, "fusion_lat": 0.0, "name": "486f7eb59f822c931b72d85d63b76a87"}, {"type": "electric_scooter", "fusion_lon": 0.0, "bike_id": "2891cc5781919ea1214d8868de641e9f", "is_disabled": 0, "lat": 38.9022715, "rental_uris": {"ios": "https://dc.lft.to/lastmile_qr_scan", "android": "https://dc.lft.to/lastmile_qr_scan"}, "is_reserved": 0, "lon": -76.94198766666666, "fusion_lat": 0.0, "name": "2891cc5781919ea1214d8868de641e9f"}, {"type": "electric_scooter", "fusion_lon": 0.0, "bike_id": "4c52434d5c5511caf6a8e1dc586838a0", "is_disabled": 0, "lat": 38.90814483333333, "rental_uris": {"ios": "https://dc.lft.to/lastmile_qr_scan", "android": "https://dc.lft.to/lastmile_qr_scan"}, "is_reserved": 0, "lon": -77.04336466666666, "fusion_lat": 0.0, "name": "4c52434d5c5511caf6a8e1dc586838a0"}, {"type": "electric_scooter", "fusion_lon": 0.0, "bike_id": "f80facb387885036eb7bc5a608eb55d6", "is_disabled": 0, "lat": 38.9055235, "rental_uris": {"ios": "https://dc.lft.to/lastmile_qr_scan", "android": "https://dc.lft.to/lastmile_qr_scan"}, "is_reserved": 0, "lon": -76.99467233333333, "fusion_lat": 0.0, "name": "f80facb387885036eb7bc5a608eb55d6"}, {"type": "electric_scooter", "fusion_lon": 0.0, "bike_id": "9cffd97c0edc6a50d00bbf16588c2603", "is_disabled": 0, "lat": 38.88722516666667, "rental_uris": {"ios": "https://dc.lft.to/lastmile_qr_scan", "android": "https://dc.lft.to/lastmile_qr_scan"}, "is_reserved": 0, "lon": -76.98358666666667, "fusion_lat": 0.0, "name": "9cffd97c0edc6a50d00bbf16588c2603"}, {"type": "electric_scooter", "fusion_lon": 0.0, "bike_id": "0665862e2b27c45fb3817d500c66c260", "is_disabled": 0, "lat": 38.9156095, "rental_uris": {"ios": "https://dc.lft.to/lastmile_qr_scan", "android": "https://dc.lft.to/lastmile_qr_scan"}, "is_reserved": 0, "lon": -77.03835183333334, "fusion_lat": 0.0, "name": "0665862e2b27c45fb3817d500c66c260"}, {"type": "electric_scooter", "fusion_lon": 0.0, "bike_id": "81b90860bd3382ebc2f371cc15ae16fc", "is_disabled": 0, "lat": 38.914452, "rental_uris": {"ios": "https://dc.lft.to/lastmile_qr_scan", "android": "https://dc.lft.to/lastmile_qr_scan"}, "is_reserved": 0, "lon": -77.04182566666667, "fusion_lat": 0.0, "name": "81b90860bd3382ebc2f371cc15ae16fc"}, {"type": "electric_scooter", "fusion_lon": 0.0, "bike_id": "60416dee2589352106a680982e72aab3", "is_disabled": 0, "lat": 38.92509416666667, "rental_uris": {"ios": "https://dc.lft.to/lastmile_qr_scan", "android": "https://dc.lft.to/lastmile_qr_scan"}, "is_reserved": 0, "lon": -77.02259566666666, "fusion_lat": 0.0, "name": "60416dee2589352106a680982e72aab3"}, {"type": "electric_scooter", "fusion_lon": 0.0, "bike_id": "d489a53e7dc7801e03e8be8413e375e1", "is_disabled": 0, "lat": 38.887210333333336, "rental_uris": {"ios": "https://dc.lft.to/lastmile_qr_scan", "android": "https://dc.lft.to/lastmile_qr_scan"}, "is_reserved": 0, "lon": -77.0220345, "fusion_lat": 0.0, "name": "d489a53e7dc7801e03e8be8413e375e1"}, {"type": "electric_scooter", "fusion_lon": 0.0, "bike_id": "6633e3926b68af7f9cbfafc9fac75f71", "is_disabled": 0, "lat": 38.908415166666664, "rental_uris": {"ios": "https://dc.lft.to/lastmile_qr_scan", "android": "https://dc.lft.to/lastmile_qr_scan"}, "is_reserved": 0, "lon": -77.038452, "fusion_lat": 0.0, "name": "6633e3926b68af7f9cbfafc9fac75f71"}, {"type": "electric_scooter", "fusion_lon": 0.0, "bike_id": "c7750a4e253587f224fc26ad18b4fb08", "is_disabled": 0, "lat": 38.9065465, "rental_uris": {"ios": "https://dc.lft.to/lastmile_qr_scan", "android": "https://dc.lft.to/lastmile_qr_scan"}, "is_reserved": 0, "lon": -76.98378533333333, "fusion_lat": 0.0, "name": "c7750a4e253587f224fc26ad18b4fb08"}, {"type": "electric_scooter", "fusion_lon": 0.0, "bike_id": "1c9e4b18f472cefec539b610aac04619", "is_disabled": 0, "lat": 38.895882666666665, "rental_uris": {"ios": "https://dc.lft.to/lastmile_qr_scan", "android": "https://dc.lft.to/lastmile_qr_scan"}, "is_reserved": 0, "lon": -77.04756133333333, "fusion_lat": 0.0, "name": "1c9e4b18f472cefec539b610aac04619"}, {"type": "electric_scooter", "fusion_lon": 0.0, "bike_id": "c44c6c3376852b1524da32f67615bfaf", "is_disabled": 0, "lat": 38.92871433333333, "rental_uris": {"ios": "https://dc.lft.to/lastmile_qr_scan", "android": "https://dc.lft.to/lastmile_qr_scan"}, "is_reserved": 0, "lon": -77.03109466666666, "fusion_lat": 0.0, "name": "c44c6c3376852b1524da32f67615bfaf"}, {"type": "electric_scooter", "fusion_lon": 0.0, "bike_id": "6b5724596fe3da8d51b467563d5d3402", "is_disabled": 0, "lat": 38.89175816666667, "rental_uris": {"ios": "https://dc.lft.to/lastmile_qr_scan", "android": "https://dc.lft.to/lastmile_qr_scan"}, "is_reserved": 0, "lon": -76.92664033333334, "fusion_lat": 0.0, "name": "6b5724596fe3da8d51b467563d5d3402"}, {"type": "electric_scooter", "fusion_lon": 0.0, "bike_id": "99fce93e342488e76c967175e76095e3", "is_disabled": 0, "lat": 38.89221833333333, "rental_uris": {"ios": "https://dc.lft.to/lastmile_qr_scan", "android": "https://dc.lft.to/lastmile_qr_scan"}, "is_reserved": 0, "lon": -77.03338383333333, "fusion_lat": 0.0, "name": "99fce93e342488e76c967175e76095e3"}, {"type": "electric_scooter", "fusion_lon": 0.0, "bike_id": "6f025d69a7495ed7b64d0700d3646fe2", "is_disabled": 0, "lat": 38.91203333333333, "rental_uris": {"ios": "https://dc.lft.to/lastmile_qr_scan", "android": "https://dc.lft.to/lastmile_qr_scan"}, "is_reserved": 0, "lon": -76.9876635, "fusion_lat": 0.0, "name": "6f025d69a7495ed7b64d0700d3646fe2"}, {"type": "electric_bike", "fusion_lon": 0.0, "bike_id": "b9db1884ba52eeb7ff61ba538cd12ffb", "is_disabled": 0, "lat": 38.81983783333333, "rental_uris": {"ios": "https://dc.lft.to/lastmile_qr_scan", "android": "https://dc.lft.to/lastmile_qr_scan"}, "is_reserved": 0, "lon": -76.99826583333333, "fusion_lat": 0.0, "name": "b9db1884ba52eeb7ff61ba538cd12ffb"}, {"type": "electric_scooter", "fusion_lon": 0.0, "bike_id": "729c72cf88e0a601963fab282b4e1a66", "is_disabled": 0, "lat": 38.87174733333333, "rental_uris": {"ios": "https://dc.lft.to/lastmile_qr_scan", "android": "https://dc.lft.to/lastmile_qr_scan"}, "is_reserved": 0, "lon": -77.00584283333333, "fusion_lat": 0.0, "name": "729c72cf88e0a601963fab282b4e1a66"}, {"type": "electric_scooter", "fusion_lon": 0.0, "bike_id": "d8970a2a8240b614a6cfabee9eb3017b", "is_disabled": 0, "lat": 38.92447283333333, "rental_uris": {"ios": "https://dc.lft.to/lastmile_qr_scan", "android": "https://dc.lft.to/lastmile_qr_scan"}, "is_reserved": 0, "lon": -76.98986083333334, "fusion_lat": 0.0, "name": "d8970a2a8240b614a6cfabee9eb3017b"}, {"type": "electric_scooter", "fusion_lon": 0.0, "bike_id": "fd0d6eb329e79954270258256a81c9d6", "is_disabled": 0, "lat": 38.902282166666666, "rental_uris": {"ios": "https://dc.lft.to/lastmile_qr_scan", "android": "https://dc.lft.to/lastmile_qr_scan"}, "is_reserved": 0, "lon": -77.03778666666666, "fusion_lat": 0.0, "name": "fd0d6eb329e79954270258256a81c9d6"}, {"type": "electric_bike", "fusion_lon": 0.0, "bike_id": "6bc07569601f6428b81400852d5f23c1", "is_disabled": 0, "lat": 38.90397083333333, "rental_uris": {"ios": "https://dc.lft.to/lastmile_qr_scan", "android": "https://dc.lft.to/lastmile_qr_scan"}, "is_reserved": 0, "lon": -77.01799633333333, "fusion_lat": 0.0, "name": "6bc07569601f6428b81400852d5f23c1"}, {"type": "electric_scooter", "fusion_lon": 0.0, "bike_id": "0d4bb54ec9361e3acc642272db36e236", "is_disabled": 0, "lat": 38.91857916666667, "rental_uris": {"ios": "https://dc.lft.to/lastmile_qr_scan", "android": "https://dc.lft.to/lastmile_qr_scan"}, "is_reserved": 0, "lon": -77.09005083333334, "fusion_lat": 0.0, "name": "0d4bb54ec9361e3acc642272db36e236"}, {"type": "electric_scooter", "fusion_lon": 0.0, "bike_id": "e34a23ea2020da23d153458e961767b5", "is_disabled": 0, "lat": 38.917779, "rental_uris": {"ios": "https://dc.lft.to/lastmile_qr_scan", "android": "https://dc.lft.to/lastmile_qr_scan"}, "is_reserved": 0, "lon": -77.02309933333333, "fusion_lat": 0.0, "name": "e34a23ea2020da23d153458e961767b5"}, {"type": "electric_scooter", "fusion_lon": 0.0, "bike_id": "5888fe7be37d1513c508bd48a42d9603", "is_disabled": 0, "lat": 38.9032585, "rental_uris": {"ios": "https://dc.lft.to/lastmile_qr_scan", "android": "https://dc.lft.to/lastmile_qr_scan"}, "is_reserved": 0, "lon": -77.02457566666666, "fusion_lat": 0.0, "name": "5888fe7be37d1513c508bd48a42d9603"}, {"type": "electric_scooter", "fusion_lon": 0.0, "bike_id": "cef3b74a167f49b8ea44a9db19345c76", "is_disabled": 0, "lat": 38.9431165, "rental_uris": {"ios": "https://dc.lft.to/lastmile_qr_scan", "android": "https://dc.lft.to/lastmile_qr_scan"}, "is_reserved": 0, "lon": -77.06169416666667, "fusion_lat": 0.0, "name": "cef3b74a167f49b8ea44a9db19345c76"}, {"type": "electric_scooter", "fusion_lon": 0.0, "bike_id": "e6eb988ef0fe147a65422036a174c6ad", "is_disabled": 0, "lat": 38.903559666666666, "rental_uris": {"ios": "https://dc.lft.to/lastmile_qr_scan", "android": "https://dc.lft.to/lastmile_qr_scan"}, "is_reserved": 0, "lon": -77.04334866666666, "fusion_lat": 0.0, "name": "e6eb988ef0fe147a65422036a174c6ad"}, {"type": "electric_scooter", "fusion_lon": 0.0, "bike_id": "b58214c9daae0fcc53082115f95d2bc4", "is_disabled": 0, "lat": 38.86368733333333, "rental_uris": {"ios": "https://dc.lft.to/lastmile_qr_scan", "android": "https://dc.lft.to/lastmile_qr_scan"}, "is_reserved": 0, "lon": -76.99050583333333, "fusion_lat": 0.0, "name": "b58214c9daae0fcc53082115f95d2bc4"}, {"type": "electric_scooter", "fusion_lon": 0.0, "bike_id": "b8a3631f643b434024419886f8a0d7d0", "is_disabled": 0, "lat": 38.878597666666664, "rental_uris": {"ios": "https://dc.lft.to/lastmile_qr_scan", "android": "https://dc.lft.to/lastmile_qr_scan"}, "is_reserved": 0, "lon": -76.98930383333334, "fusion_lat": 0.0, "name": "b8a3631f643b434024419886f8a0d7d0"}, {"type": "electric_scooter", "fusion_lon": 0.0, "bike_id": "6299ae2c8aafa23ac7ec7d800ca025ea", "is_disabled": 0, "lat": 38.92659483333333, "rental_uris": {"ios": "https://dc.lft.to/lastmile_qr_scan", "android": "https://dc.lft.to/lastmile_qr_scan"}, "is_reserved": 0, "lon": -77.03717233333333, "fusion_lat": 0.0, "name": "6299ae2c8aafa23ac7ec7d800ca025ea"}, {"type": "electric_scooter", "fusion_lon": 0.0, "bike_id": "6b5517032451b375a0a18d8109463753", "is_disabled": 0, "lat": 38.92398633333333, "rental_uris": {"ios": "https://dc.lft.to/lastmile_qr_scan", "android": "https://dc.lft.to/lastmile_qr_scan"}, "is_reserved": 0, "lon": -77.029819, "fusion_lat": 0.0, "name": "6b5517032451b375a0a18d8109463753"}, {"type": "electric_scooter", "fusion_lon": 0.0, "bike_id": "5aca17b9a3b70a3f1bfd07d9c6944759", "is_disabled": 0, "lat": 38.906744333333336, "rental_uris": {"ios": "https://dc.lft.to/lastmile_qr_scan", "android": "https://dc.lft.to/lastmile_qr_scan"}, "is_reserved": 0, "lon": -77.02205466666666, "fusion_lat": 0.0, "name": "5aca17b9a3b70a3f1bfd07d9c6944759"}, {"type": "electric_scooter", "fusion_lon": 0.0, "bike_id": "2e55f3e5837448a14841c360e368e800", "is_disabled": 0, "lat": 38.908067833333334, "rental_uris": {"ios": "https://dc.lft.to/lastmile_qr_scan", "android": "https://dc.lft.to/lastmile_qr_scan"}, "is_reserved": 0, "lon": -77.0002635, "fusion_lat": 0.0, "name": "2e55f3e5837448a14841c360e368e800"}, {"type": "electric_scooter", "fusion_lon": 0.0, "bike_id": "b01418bba3bd3849db8a89776750408d", "is_disabled": 0, "lat": 38.892215666666665, "rental_uris": {"ios": "https://dc.lft.to/lastmile_qr_scan", "android": "https://dc.lft.to/lastmile_qr_scan"}, "is_reserved": 0, "lon": -77.0450845, "fusion_lat": 0.0, "name": "b01418bba3bd3849db8a89776750408d"}, {"type": "electric_scooter", "fusion_lon": 0.0, "bike_id": "eb011e963516d55f9296bc9de6a54207", "is_disabled": 0, "lat": 38.899231666666665, "rental_uris": {"ios": "https://dc.lft.to/lastmile_qr_scan", "android": "https://dc.lft.to/lastmile_qr_scan"}, "is_reserved": 0, "lon": -77.027815, "fusion_lat": 0.0, "name": "eb011e963516d55f9296bc9de6a54207"}, {"type": "electric_scooter", "fusion_lon": 0.0, "bike_id": "426564cc2a5ab99e8a0a5281085ac6d5", "is_disabled": 0, "lat": 38.8995505, "rental_uris": {"ios": "https://dc.lft.to/lastmile_qr_scan", "android": "https://dc.lft.to/lastmile_qr_scan"}, "is_reserved": 0, "lon": -77.0450125, "fusion_lat": 0.0, "name": "426564cc2a5ab99e8a0a5281085ac6d5"}, {"type": "electric_scooter", "fusion_lon": 0.0, "bike_id": "b68632e72d1a5d4f9b0f98776f8e38fe", "is_disabled": 0, "lat": 38.91812766666666, "rental_uris": {"ios": "https://dc.lft.to/lastmile_qr_scan", "android": "https://dc.lft.to/lastmile_qr_scan"}, "is_reserved": 0, "lon": -77.03449716666667, "fusion_lat": 0.0, "name": "b68632e72d1a5d4f9b0f98776f8e38fe"}, {"type": "electric_scooter", "fusion_lon": 0.0, "bike_id": "833b3b16552cd73a74ff4b4cb63ee8c7", "is_disabled": 0, "lat": 38.920524, "rental_uris": {"ios": "https://dc.lft.to/lastmile_qr_scan", "android": "https://dc.lft.to/lastmile_qr_scan"}, "is_reserved": 0, "lon": -77.04183833333333, "fusion_lat": 0.0, "name": "833b3b16552cd73a74ff4b4cb63ee8c7"}, {"type": "electric_scooter", "fusion_lon": 0.0, "bike_id": "3086fb966ce20a3f10c23c25e6079162", "is_disabled": 0, "lat": 38.897601333333334, "rental_uris": {"ios": "https://dc.lft.to/lastmile_qr_scan", "android": "https://dc.lft.to/lastmile_qr_scan"}, "is_reserved": 0, "lon": -77.02715483333333, "fusion_lat": 0.0, "name": "3086fb966ce20a3f10c23c25e6079162"}, {"type": "electric_scooter", "fusion_lon": 0.0, "bike_id": "9ab0fdc87e04080152d35485383921b5", "is_disabled": 0, "lat": 38.93474366666667, "rental_uris": {"ios": "https://dc.lft.to/lastmile_qr_scan", "android": "https://dc.lft.to/lastmile_qr_scan"}, "is_reserved": 0, "lon": -77.04128266666666, "fusion_lat": 0.0, "name": "9ab0fdc87e04080152d35485383921b5"}, {"type": "electric_scooter", "fusion_lon": 0.0, "bike_id": "396a0e8cc0dd5301a5f92b7d9a24e7a2", "is_disabled": 0, "lat": 38.90967716666667, "rental_uris": {"ios": "https://dc.lft.to/lastmile_qr_scan", "android": "https://dc.lft.to/lastmile_qr_scan"}, "is_reserved": 0, "lon": -77.04801066666667, "fusion_lat": 0.0, "name": "396a0e8cc0dd5301a5f92b7d9a24e7a2"}, {"type": "electric_scooter", "fusion_lon": 0.0, "bike_id": "ec0702064c3c91e58071fc7fafea8f2e", "is_disabled": 0, "lat": 38.9008835, "rental_uris": {"ios": "https://dc.lft.to/lastmile_qr_scan", "android": "https://dc.lft.to/lastmile_qr_scan"}, "is_reserved": 0, "lon": -77.05011716666667, "fusion_lat": 0.0, "name": "ec0702064c3c91e58071fc7fafea8f2e"}, {"type": "electric_scooter", "fusion_lon": 0.0, "bike_id": "39cb0a5f3e93fb7558c5d6aa4d60c0e8", "is_disabled": 0, "lat": 38.91102733333334, "rental_uris": {"ios": "https://dc.lft.to/lastmile_qr_scan", "android": "https://dc.lft.to/lastmile_qr_scan"}, "is_reserved": 0, "lon": -77.00755916666667, "fusion_lat": 0.0, "name": "39cb0a5f3e93fb7558c5d6aa4d60c0e8"}, {"type": "electric_scooter", "fusion_lon": 0.0, "bike_id": "483121ab1acbddb79fc9f35cbe36779d", "is_disabled": 0, "lat": 38.906995, "rental_uris": {"ios": "https://dc.lft.to/lastmile_qr_scan", "android": "https://dc.lft.to/lastmile_qr_scan"}, "is_reserved": 0, "lon": -77.00575183333333, "fusion_lat": 0.0, "name": "483121ab1acbddb79fc9f35cbe36779d"}, {"type": "electric_scooter", "fusion_lon": 0.0, "bike_id": "c4317998ed844695db09e30599d519c7", "is_disabled": 0, "lat": 38.88017583333333, "rental_uris": {"ios": "https://dc.lft.to/lastmile_qr_scan", "android": "https://dc.lft.to/lastmile_qr_scan"}, "is_reserved": 0, "lon": -76.98075066666667, "fusion_lat": 0.0, "name": "c4317998ed844695db09e30599d519c7"}, {"type": "electric_scooter", "fusion_lon": 0.0, "bike_id": "7b38258183ac36b9bb0edbfe0a965c95", "is_disabled": 0, "lat": 38.92650616666667, "rental_uris": {"ios": "https://dc.lft.to/lastmile_qr_scan", "android": "https://dc.lft.to/lastmile_qr_scan"}, "is_reserved": 0, "lon": -77.02431666666666, "fusion_lat": 0.0, "name": "7b38258183ac36b9bb0edbfe0a965c95"}, {"type": "electric_scooter", "fusion_lon": 0.0, "bike_id": "062fc55138da010523c8d8fba92c6e9c", "is_disabled": 0, "lat": 38.90560683333333, "rental_uris": {"ios": "https://dc.lft.to/lastmile_qr_scan", "android": "https://dc.lft.to/lastmile_qr_scan"}, "is_reserved": 0, "lon": -77.0241415, "fusion_lat": 0.0, "name": "062fc55138da010523c8d8fba92c6e9c"}, {"type": "electric_scooter", "fusion_lon": 0.0, "bike_id": "b969a6b589019eb524801113b6363144", "is_disabled": 0, "lat": 38.91947583333334, "rental_uris": {"ios": "https://dc.lft.to/lastmile_qr_scan", "android": "https://dc.lft.to/lastmile_qr_scan"}, "is_reserved": 0, "lon": -77.04154633333333, "fusion_lat": 0.0, "name": "b969a6b589019eb524801113b6363144"}, {"type": "electric_scooter", "fusion_lon": 0.0, "bike_id": "a014b96f7684a8e80b488606af5bd142", "is_disabled": 0, "lat": 38.94979883333333, "rental_uris": {"ios": "https://dc.lft.to/lastmile_qr_scan", "android": "https://dc.lft.to/lastmile_qr_scan"}, "is_reserved": 0, "lon": -77.024477, "fusion_lat": 0.0, "name": "a014b96f7684a8e80b488606af5bd142"}, {"type": "electric_scooter", "fusion_lon": 0.0, "bike_id": "928210d8d1be8ea52eb4d757b3144d5c", "is_disabled": 0, "lat": 38.935173666666664, "rental_uris": {"ios": "https://dc.lft.to/lastmile_qr_scan", "android": "https://dc.lft.to/lastmile_qr_scan"}, "is_reserved": 0, "lon": -77.054456, "fusion_lat": 0.0, "name": "928210d8d1be8ea52eb4d757b3144d5c"}, {"type": "electric_scooter", "fusion_lon": 0.0, "bike_id": "ada1acf98ad2309607652b300b47204d", "is_disabled": 0, "lat": 38.901735, "rental_uris": {"ios": "https://dc.lft.to/lastmile_qr_scan", "android": "https://dc.lft.to/lastmile_qr_scan"}, "is_reserved": 0, "lon": -77.02491833333333, "fusion_lat": 0.0, "name": "ada1acf98ad2309607652b300b47204d"}, {"type": "electric_bike", "fusion_lon": 0.0, "bike_id": "994d314fcc1f21d3f9992d6e99ec6d18", "is_disabled": 0, "lat": 38.94334833333333, "rental_uris": {"ios": "https://dc.lft.to/lastmile_qr_scan", "android": "https://dc.lft.to/lastmile_qr_scan"}, "is_reserved": 0, "lon": -77.060599, "fusion_lat": 0.0, "name": "994d314fcc1f21d3f9992d6e99ec6d18"}, {"type": "electric_scooter", "fusion_lon": 0.0, "bike_id": "52e148424eb3f3e7e22cd2d4319dcf73", "is_disabled": 0, "lat": 38.92263533333333, "rental_uris": {"ios": "https://dc.lft.to/lastmile_qr_scan", "android": "https://dc.lft.to/lastmile_qr_scan"}, "is_reserved": 0, "lon": -77.0303485, "fusion_lat": 0.0, "name": "52e148424eb3f3e7e22cd2d4319dcf73"}, {"type": "electric_scooter", "fusion_lon": 0.0, "bike_id": "368f413e73a2a41a41ae51cc09d13eca", "is_disabled": 0, "lat": 38.90410983333334, "rental_uris": {"ios": "https://dc.lft.to/lastmile_qr_scan", "android": "https://dc.lft.to/lastmile_qr_scan"}, "is_reserved": 0, "lon": -77.06766916666666, "fusion_lat": 0.0, "name": "368f413e73a2a41a41ae51cc09d13eca"}, {"type": "electric_scooter", "fusion_lon": 0.0, "bike_id": "0d34afdc9462e3ea70441021f5eb43f6", "is_disabled": 0, "lat": 38.937396166666666, "rental_uris": {"ios": "https://dc.lft.to/lastmile_qr_scan", "android": "https://dc.lft.to/lastmile_qr_scan"}, "is_reserved": 0, "lon": -77.059544, "fusion_lat": 0.0, "name": "0d34afdc9462e3ea70441021f5eb43f6"}, {"type": "electric_scooter", "fusion_lon": 0.0, "bike_id": "60ef59302fc71122abc763ec015a1173", "is_disabled": 0, "lat": 38.87673216666666, "rental_uris": {"ios": "https://dc.lft.to/lastmile_qr_scan", "android": "https://dc.lft.to/lastmile_qr_scan"}, "is_reserved": 0, "lon": -76.93127766666667, "fusion_lat": 0.0, "name": "60ef59302fc71122abc763ec015a1173"}, {"type": "electric_scooter", "fusion_lon": 0.0, "bike_id": "66ceb4f9fe2dfbf1e7be8cfb7dd822aa", "is_disabled": 0, "lat": 38.957713, "rental_uris": {"ios": "https://dc.lft.to/lastmile_qr_scan", "android": "https://dc.lft.to/lastmile_qr_scan"}, "is_reserved": 0, "lon": -77.01497083333334, "fusion_lat": 0.0, "name": "66ceb4f9fe2dfbf1e7be8cfb7dd822aa"}, {"type": "electric_scooter", "fusion_lon": 0.0, "bike_id": "4d40e36b5c4b661a815e2bb95b60069e", "is_disabled": 0, "lat": 38.8792835, "rental_uris": {"ios": "https://dc.lft.to/lastmile_qr_scan", "android": "https://dc.lft.to/lastmile_qr_scan"}, "is_reserved": 0, "lon": -76.998891, "fusion_lat": 0.0, "name": "4d40e36b5c4b661a815e2bb95b60069e"}, {"type": "electric_scooter", "fusion_lon": 0.0, "bike_id": "9b23dc9a97e2e376b187a368f7aa1a14", "is_disabled": 0, "lat": 38.924333, "rental_uris": {"ios": "https://dc.lft.to/lastmile_qr_scan", "android": "https://dc.lft.to/lastmile_qr_scan"}, "is_reserved": 0, "lon": -77.03917766666666, "fusion_lat": 0.0, "name": "9b23dc9a97e2e376b187a368f7aa1a14"},