{"data": {"bikes": [{"is_disabled": 0, "rental_uris": {"android": "https://dc.lft.to/lastmile_qr_scan", "ios": "https://dc.lft.to/lastmile_qr_scan"}, "is_reserved": 0, "name": "f6101d447addb66fff371bb5f6b32077", "lon": -77.03869616666667, "type": "electric_scooter", "bike_id": "f6101d447addb66fff371bb5f6b32077", "fusion_lon": 0.0, "lat": 38.921505833333335, "fusion_lat": 0.0}, {"is_disabled": 0, "rental_uris": {"android": "https://dc.lft.to/lastmile_qr_scan", "ios": "https://dc.lft.to/lastmile_qr_scan"}, "is_reserved": 0, "name": "029a47b6d7949b942724b1c5399d23c8", "lon": -77.051643, "type": "electric_scooter", "bike_id": "029a47b6d7949b942724b1c5399d23c8", "fusion_lon": 0.0, "lat": 38.8976225, "fusion_lat": 0.0}, {"is_disabled": 0, "rental_uris": {"android": "https://dc.lft.to/lastmile_qr_scan", "ios": "https://dc.lft.to/lastmile_qr_scan"}, "is_reserved": 0, "name": "07c60217e5c8ea68f6be45e085744df1", "lon": -77.03172283333333, "type": "electric_scooter", "bike_id": "07c60217e5c8ea68f6be45e085744df1", "fusion_lon": 0.0, "lat": 38.89387133333334, "fusion_lat": 0.0}, {"is_disabled": 0, "rental_uris": {"android": "https://dc.lft.to/lastmile_qr_scan", "ios": "https://dc.lft.to/lastmile_qr_scan"}, "is_reserved": 0, "name": "33810cb176b950f58da6ac8fc84993ce", "lon": -77.03848583333334, "type": "electric_scooter", "bike_id": "33810cb176b950f58da6ac8fc84993ce", "fusion_lon": 0.0, "lat": 38.921691333333335, "fusion_lat": 0.0}, {"is_disabled": 0, "rental_uris": {"android": "https://dc.lft.to/lastmile_qr_scan", "ios": "https://dc.lft.to/lastmile_qr_scan"}, "is_reserved": 0, "name": "05ddf209be5827be19b10d6481ced193", "lon": -77.04194116666666, "type": "electric_scooter", "bike_id": "05ddf209be5827be19b10d6481ced193", "fusion_lon": 0.0, "lat": 38.92621, "fusion_lat": 0.0}, {"is_disabled": 0, "rental_uris": {"android": "https://dc.lft.to/lastmile_qr_scan", "ios": "https://dc.lft.to/lastmile_qr_scan"}, "is_reserved": 0, "name": "c491b23d284c42abcb19435b779880f8", "lon": -77.04310716666667, "type": "electric_scooter", "bike_id": "c491b23d284c42abcb19435b779880f8", "fusion_lon": 0.0, "lat": 38.9187725, "fusion_lat": 0.0}, {"is_disabled": 0, "rental_uris": {"android": "https://dc.lft.to/lastmile_qr_scan", "ios": "https://dc.lft.to/lastmile_qr_scan"}, "is_reserved": 0, "name": "c96b811e3e5dcc94c9e899aa96b101db", "lon": -77.03117383333333, "type": "electric_scooter", "bike_id": "c96b811e3e5dcc94c9e899aa96b101db", "fusion_lon": 0.0, "lat": 38.92387633333333, "fusion_lat": 0.0}, {"is_disabled": 0, "rental_uris": {"android": "https://dc.lft.to/lastmile_qr_scan", "ios": "https://dc.lft.to/lastmile_qr_scan"}, "is_reserved": 0, "name": "607368908848a9489dd441a8226974f4", "lon": -77.05764266666667, "type": "electric_bike", "bike_id": "607368908848a9489dd441a8226974f4", "fusion_lon": 0.0, "lat": 38.92430366666667, "fusion_lat": 0.0}, {"is_disabled": 0, "rental_uris": {"android": "https://dc.lft.to/lastmile_qr_scan", "ios": "https://dc.lft.to/lastmile_qr_scan"}, "is_reserved": 0, "name": "cfcb7b7444b0ea87c0b60e8cf9fdef9d", "lon": -77.024159, "type": "electric_scooter", "bike_id": "cfcb7b7444b0ea87c0b60e8cf9fdef9d", "fusion_lon": 0.0, "lat": 38.91259483333333, "fusion_lat": 0.0}, {"is_disabled": 0, "rental_uris": {"android": "https://dc.lft.to/lastmile_qr_scan", "ios": "https://dc.lft.to/lastmile_qr_scan"}, "is_reserved": 0, "name": "c3ab11e0490e6e3fc21abe303d373ff6", "lon": -77.04998566666667, "type": "electric_scooter", "bike_id": "c3ab11e0490e6e3fc21abe303d373ff6", "fusion_lon": 0.0, "lat": 38.897262, "fusion_lat": 0.0}, {"is_disabled": 0, "rental_uris": {"android": "https://dc.lft.to/lastmile_qr_scan", "ios": "https://dc.lft.to/lastmile_qr_scan"}, "is_reserved": 0, "name": "a955f91d2fd7350be8531452d909eb58", "lon": -76.94634516666666, "type": "electric_scooter", "bike_id": "a955f91d2fd7350be8531452d909eb58", "fusion_lon": 0.0, "lat": 38.898422833333335, "fusion_lat": 0.0}, {"is_disabled": 0, "rental_uris": {"android": "https://dc.lft.to/lastmile_qr_scan", "ios": "https://dc.lft.to/lastmile_qr_scan"}, "is_reserved": 0, "name": "876b993d2a0561595f19e80184f95764", "lon": -77.0505015, "type": "electric_scooter", "bike_id": "876b993d2a0561595f19e80184f95764", "fusion_lon": 0.0, "lat": 38.9166745, "fusion_lat": 0.0}, {"is_disabled": 0, "rental_uris": {"android": "https://dc.lft.to/lastmile_qr_scan", "ios": "https://dc.lft.to/lastmile_qr_scan"}, "is_reserved": 0, "name": "8d794905ab883cf7a102b2f07eeb9b91", "lon": -77.03313216666666, "type": "electric_scooter", "bike_id": "8d794905ab883cf7a102b2f07eeb9b91", "fusion_lon": 0.0, "lat": 38.918093166666665, "fusion_lat": 0.0}, {"is_disabled": 0, "rental_uris": {"android": "https://dc.lft.to/lastmile_qr_scan", "ios": "https://dc.lft.to/lastmile_qr_scan"}, "is_reserved": 0, "name": "b9ffcbbcc5f64c8b9325f9858ffe9be6", "lon": -76.99610816666667, "type": "electric_scooter", "bike_id": "b9ffcbbcc5f64c8b9325f9858ffe9be6", "fusion_lon": 0.0, "lat": 38.90035866666667, "fusion_lat": 0.0}, {"is_disabled": 0, "rental_uris": {"android": "https://dc.lft.to/lastmile_qr_scan", "ios": "https://dc.lft.to/lastmile_qr_scan"}, "is_reserved": 0, "name": "766033eede698f13f9f2f812f8e00810", "lon": -77.026942, "type": "electric_scooter", "bike_id": "766033eede698f13f9f2f812f8e00810", "fusion_lon": 0.0, "lat": 38.936349666666665, "fusion_lat": 0.0}, {"is_disabled": 0, "rental_uris": {"android": "https://dc.lft.to/lastmile_qr_scan", "ios": "https://dc.lft.to/lastmile_qr_scan"}, "is_reserved": 0, "name": "1a5a3dda0f5e1db70035905cbc5d73d5", "lon": -77.0091875, "type": "electric_bike", "bike_id": "1a5a3dda0f5e1db70035905cbc5d73d5", "fusion_lon": 0.0, "lat": 38.978465666666665, "fusion_lat": 0.0}, {"is_disabled": 0, "rental_uris": {"android": "https://dc.lft.to/lastmile_qr_scan", "ios": "https://dc.lft.to/lastmile_qr_scan"}, "is_reserved": 0, "name": "41c72aacf1901ab87341951f507873b9", "lon": -77.04503483333333, "type": "electric_scooter", "bike_id": "41c72aacf1901ab87341951f507873b9", "fusion_lon": 0.0, "lat": 38.92134883333333, "fusion_lat": 0.0}, {"is_disabled": 0, "rental_uris": {"android": "https://dc.lft.to/lastmile_qr_scan", "ios": "https://dc.lft.to/lastmile_qr_scan"}, "is_reserved": 0, "name": "52e8fe038c319e112f0c5794a2722c97", "lon": -76.98992283333334, "type": "electric_scooter", "bike_id": "52e8fe038c319e112f0c5794a2722c97", "fusion_lon": 0.0, "lat": 38.86436166666667, "fusion_lat": 0.0}, {"is_disabled": 0, "rental_uris": {"android": "https://dc.lft.to/lastmile_qr_scan", "ios": "https://dc.lft.to/lastmile_qr_scan"}, "is_reserved": 0, "name": "4cf2c42740bd563aa381fae6ed74f5e9", "lon": -77.035208, "type": "electric_bike", "bike_id": "4cf2c42740bd563aa381fae6ed74f5e9", "fusion_lon": 0.0, "lat": 38.93598333333333, "fusion_lat": 0.0}, {"is_disabled": 0, "rental_uris": {"android": "https://dc.lft.to/lastmile_qr_scan", "ios": "https://dc.lft.to/lastmile_qr_scan"}, "is_reserved": 0, "name": "21100f0d674f493df37f5a642d333482", "lon": -76.979418, "type": "electric_scooter", "bike_id": "21100f0d674f493df37f5a642d333482", "fusion_lon": 0.0, "lat": 38.905048666666666, "fusion_lat": 0.0}, {"is_disabled": 0, "rental_uris": {"android": "https://dc.lft.to/lastmile_qr_scan", "ios": "https://dc.lft.to/lastmile_qr_scan"}, "is_reserved": 0, "name": "5770a7c166dd19e2d94d6913c4e07155", "lon": -77.02002916666666, "type": "electric_scooter", "bike_id": "5770a7c166dd19e2d94d6913c4e07155", "fusion_lon": 0.0, "lat": 38.924115666666665, "fusion_lat": 0.0}, {"is_disabled": 0, "rental_uris": {"android": "https://dc.lft.to/lastmile_qr_scan", "ios": "https://dc.lft.to/lastmile_qr_scan"}, "is_reserved": 0, "name": "7b6c74ca86e35dfa81fdd6c610a0fe43", "lon": -77.04008066666667, "type": "electric_scooter", "bike_id": "7b6c74ca86e35dfa81fdd6c610a0fe43", "fusion_lon": 0.0, "lat": 38.920952666666665, "fusion_lat": 0.0}, {"is_disabled": 0, "rental_uris": {"android": "https://dc.lft.to/lastmile_qr_scan", "ios": "https://dc.lft.to/lastmile_qr_scan"}, "is_reserved": 0, "name": "8432ecf9a94e0458b3070c3be5cecac5", "lon": -77.04552483333333, "type": "electric_scooter", "bike_id": "8432ecf9a94e0458b3070c3be5cecac5", "fusion_lon": 0.0, "lat": 38.903823333333335, "fusion_lat": 0.0}, {"is_disabled": 0, "rental_uris": {"android": "https://dc.lft.to/lastmile_qr_scan", "ios": "https://dc.lft.to/lastmile_qr_scan"}, "is_reserved": 0, "name": "b5aeb4497403113b2cc4442a415ebe24", "lon": -77.03469783333334, "type": "electric_scooter", "bike_id": "b5aeb4497403113b2cc4442a415ebe24", "fusion_lon": 0.0, "lat": 38.907495, "fusion_lat": 0.0}, {"is_disabled": 0, "rental_uris": {"android": "https://dc.lft.to/lastmile_qr_scan", "ios": "https://dc.lft.to/lastmile_qr_scan"}, "is_reserved": 0, "name": "672356797d9dea8704d0f8a51323de9c", "lon": -77.025134, "type": "electric_scooter", "bike_id": "672356797d9dea8704d0f8a51323de9c", "fusion_lon": 0.0, "lat": 38.921400166666665, "fusion_lat": 0.0}, {"is_disabled": 0, "rental_uris": {"android": "https://dc.lft.to/lastmile_qr_scan", "ios": "https://dc.lft.to/lastmile_qr_scan"}, "is_reserved": 0, "name": "25851db751b5bbaf5cc45512f140dcea", "lon": -77.0162665, "type": "electric_scooter", "bike_id": "25851db751b5bbaf5cc45512f140dcea", "fusion_lon": 0.0, "lat": 38.90361466666667, "fusion_lat": 0.0}, {"is_disabled": 0, "rental_uris": {"android": "https://dc.lft.to/lastmile_qr_scan", "ios": "https://dc.lft.to/lastmile_qr_scan"}, "is_reserved": 0, "name": "01c62c75cb832d69b5e4e7f9a097fe82", "lon": -77.02786216666667, "type": "electric_scooter", "bike_id": "01c62c75cb832d69b5e4e7f9a097fe82", "fusion_lon": 0.0, "lat": 38.8842265, "fusion_lat": 0.0}, {"is_disabled": 0, "rental_uris": {"android": "https://dc.lft.to/lastmile_qr_scan", "ios": "https://dc.lft.to/lastmile_qr_scan"}, "is_reserved": 0, "name": "79432de6ca68c56325301aadf0ba154f", "lon": -77.041935, "type": "electric_scooter", "bike_id": "79432de6ca68c56325301aadf0ba154f", "fusion_lon": 0.0, "lat": 38.91669816666667, "fusion_lat": 0.0}, {"is_disabled": 0, "rental_uris": {"android": "https://dc.lft.to/lastmile_qr_scan", "ios": "https://dc.lft.to/lastmile_qr_scan"}, "is_reserved": 0, "name": "c1d774b368429619eaf22b72f687b278", "lon": -77.05980966666667, "type": "electric_scooter", "bike_id": "c1d774b368429619eaf22b72f687b278", "fusion_lon": 0.0, "lat": 38.862238833333336, "fusion_lat": 0.0}, {"is_disabled": 0, "rental_uris": {"android": "https://dc.lft.to/lastmile_qr_scan", "ios": "https://dc.lft.to/lastmile_qr_scan"}, "is_reserved": 0, "name": "638f272d722a06da2298f1b33338ca23", "lon": -77.02208266666666, "type": "electric_scooter", "bike_id": "638f272d722a06da2298f1b33338ca23", "fusion_lon": 0.0, "lat": 38.909819, "fusion_lat": 0.0}, {"is_disabled": 0, "rental_uris": {"android": "https://dc.lft.to/lastmile_qr_scan", "ios": "https://dc.lft.to/lastmile_qr_scan"}, "is_reserved": 0, "name": "302fe77ced7b583c621a777bf5ab23ab", "lon": -76.97729133333333, "type": "electric_scooter", "bike_id": "302fe77ced7b583c621a777bf5ab23ab", "fusion_lon": 0.0, "lat": 38.894881166666664, "fusion_lat": 0.0}, {"is_disabled": 0, "rental_uris": {"android": "https://dc.lft.to/lastmile_qr_scan", "ios": "https://dc.lft.to/lastmile_qr_scan"}, "is_reserved": 0, "name": "237e6dd2254959d3024eb06926d0957b", "lon": -77.03867466666667, "type": "electric_scooter", "bike_id": "237e6dd2254959d3024eb06926d0957b", "fusion_lon": 0.0, "lat": 38.90382433333333, "fusion_lat": 0.0}, {"is_disabled": 0, "rental_uris": {"android": "https://dc.lft.to/lastmile_qr_scan", "ios": "https://dc.lft.to/lastmile_qr_scan"}, "is_reserved": 0, "name": "36ad130a5c4d2cc1196855f48f1cb48f", "lon": -76.979969, "type": "electric_scooter", "bike_id": "36ad130a5c4d2cc1196855f48f1cb48f", "fusion_lon": 0.0, "lat": 38.88871433333333, "fusion_lat": 0.0}, {"is_disabled": 0, "rental_uris": {"android": "https://dc.lft.to/lastmile_qr_scan", "ios": "https://dc.lft.to/lastmile_qr_scan"}, "is_reserved": 0, "name": "d62d8ae3132ebd29f151e951e204304f", "lon": -77.0218585, "type": "electric_scooter", "bike_id": "d62d8ae3132ebd29f151e951e204304f", "fusion_lon": 0.0, "lat": 38.901469166666665, "fusion_lat": 0.0}, {"is_disabled": 0, "rental_uris": {"android": "https://dc.lft.to/lastmile_qr_scan", "ios": "https://dc.lft.to/lastmile_qr_scan"}, "is_reserved": 0, "name": "06a35cb1207a6b8b24917c2b46470e5a", "lon": -77.1151875, "type": "electric_bike", "bike_id": "06a35cb1207a6b8b24917c2b46470e5a", "fusion_lon": 0.0, "lat": 38.8818925, "fusion_lat": 0.0}, {"is_disabled": 0, "rental_uris": {"android": "https://dc.lft.to/lastmile_qr_scan", "ios": "https://dc.lft.to/lastmile_qr_scan"}, "is_reserved": 0, "name": "aace7a12c0cba6568904f283ef24166a", "lon": -77.03230983333333, "type": "electric_scooter", "bike_id": "aace7a12c0cba6568904f283ef24166a", "fusion_lon": 0.0, "lat": 38.909566, "fusion_lat": 0.0}, {"is_disabled": 0, "rental_uris": {"android": "https://dc.lft.to/lastmile_qr_scan", "ios": "https://dc.lft.to/lastmile_qr_scan"}, "is_reserved": 0, "name": "01338dcd789b8b0cc797bdcc6e37052a", "lon": -76.9847425, "type": "electric_scooter", "bike_id": "01338dcd789b8b0cc797bdcc6e37052a", "fusion_lon": 0.0, "lat": 38.893521, "fusion_lat": 0.0}, {"is_disabled": 0, "rental_uris": {"android": "https://dc.lft.to/lastmile_qr_scan", "ios": "https://dc.lft.to/lastmile_qr_scan"}, "is_reserved": 0, "name": "328fb34bc5445398c3fb8ee85e8acfea", "lon": -77.03866783333334, "type": "electric_scooter", "bike_id": "328fb34bc5445398c3fb8ee85e8acfea", "fusion_lon": 0.0, "lat": 38.91256933333333, "fusion_lat": 0.0}, {"is_disabled": 0, "rental_uris": {"android": "https://dc.lft.to/lastmile_qr_scan", "ios": "https://dc.lft.to/lastmile_qr_scan"}, "is_reserved": 0, "name": "ea96a14e5a4b5b169e39a0fc8248d372", "lon": -77.03088733333334, "type": "electric_scooter", "bike_id": "ea96a14e5a4b5b169e39a0fc8248d372", "fusion_lon": 0.0, "lat": 38.922306666666664, "fusion_lat": 0.0}, {"is_disabled": 0, "rental_uris": {"android": "https://dc.lft.to/lastmile_qr_scan", "ios": "https://dc.lft.to/lastmile_qr_scan"}, "is_reserved": 0, "name": "a97e504fdd97c49dbccedc11a9487614", "lon": -77.02951066666667, "type": "electric_scooter", "bike_id": "a97e504fdd97c49dbccedc11a9487614", "fusion_lon": 0.0, "lat": 38.911985666666666, "fusion_lat": 0.0}, {"is_disabled": 0, "rental_uris": {"android": "https://dc.lft.to/lastmile_qr_scan", "ios": "https://dc.lft.to/lastmile_qr_scan"}, "is_reserved": 0, "name": "29f831e9d600c921059f12e4b4b98f79", "lon": -77.06535916666667, "type": "electric_scooter", "bike_id": "29f831e9d600c921059f12e4b4b98f79", "fusion_lon": 0.0, "lat": 38.90516233333334, "fusion_lat": 0.0}, {"is_disabled": 0, "rental_uris": {"android": "https://dc.lft.to/lastmile_qr_scan", "ios": "https://dc.lft.to/lastmile_qr_scan"}, "is_reserved": 0, "name": "949f989ab986ed5597b677e7a3d4f0f2", "lon": -77.03529983333334, "type": "electric_scooter", "bike_id": "949f989ab986ed5597b677e7a3d4f0f2", "fusion_lon": 0.0, "lat": 38.922385166666665, "fusion_lat": 0.0}, {"is_disabled": 0, "rental_uris": {"android": "https://dc.lft.to/lastmile_qr_scan", "ios": "https://dc.lft.to/lastmile_qr_scan"}, "is_reserved": 0, "name": "2a72673ad07c23b72d192b87cf82108d", "lon": -77.0540295, "type": "electric_scooter", "bike_id": "2a72673ad07c23b72d192b87cf82108d", "fusion_lon": 0.0, "lat": 38.927684, "fusion_lat": 0.0}, {"is_disabled": 0, "rental_uris": {"android": "https://dc.lft.to/lastmile_qr_scan", "ios": "https://dc.lft.to/lastmile_qr_scan"}, "is_reserved": 0, "name": "ec6969b19aa4617934f3ab65902ae116", "lon": -77.04190366666667, "type": "electric_scooter", "bike_id": "ec6969b19aa4617934f3ab65902ae116", "fusion_lon": 0.0, "lat": 38.91668266666667, "fusion_lat": 0.0}, {"is_disabled": 0, "rental_uris": {"android": "https://dc.lft.to/lastmile_qr_scan", "ios": "https://dc.lft.to/lastmile_qr_scan"}, "is_reserved": 0, "name": "700fbe82c59eb32895ce47720db35ee6", "lon": -77.02944816666667, "type": "electric_scooter", "bike_id": "700fbe82c59eb32895ce47720db35ee6", "fusion_lon": 0.0, "lat": 38.917021166666665, "fusion_lat": 0.0}, {"is_disabled": 0, "rental_uris": {"android": "https://dc.lft.to/lastmile_qr_scan", "ios": "https://dc.lft.to/lastmile_qr_scan"}, "is_reserved": 0, "name": "2a536597912f6dd888cf49caf6ec6b3a", "lon": -76.96555516666666, "type": "electric_scooter", "bike_id": "2a536597912f6dd888cf49caf6ec6b3a", "fusion_lon": 0.0, "lat": 38.918380666666664, "fusion_lat": 0.0}, {"is_disabled": 0, "rental_uris": {"android": "https://dc.lft.to/lastmile_qr_scan", "ios": "https://dc.lft.to/lastmile_qr_scan"}, "is_reserved": 0, "name": "1f8ba5811388cfbbdf73cc28e01ec101", "lon": -77.04000233333333, "type": "electric_scooter", "bike_id": "1f8ba5811388cfbbdf73cc28e01ec101", "fusion_lon": 0.0, "lat": 38.918169166666665, "fusion_lat": 0.0}, {"is_disabled": 0, "rental_uris": {"android": "https://dc.lft.to/lastmile_qr_scan", "ios": "https://dc.lft.to/lastmile_qr_scan"}, "is_reserved": 0, "name": "ca94183b8eabfc8d74dbad574319e4f8", "lon": -77.0346275, "type": "electric_scooter", "bike_id": "ca94183b8eabfc8d74dbad574319e4f8", "fusion_lon": 0.0, "lat": 38.90635283333334, "fusion_lat": 0.0}, {"is_disabled": 0, "rental_uris": {"android": "https://dc.lft.to/lastmile_qr_scan", "ios": "https://dc.lft.to/lastmile_qr_scan"}, "is_reserved": 0, "name": "4c3e85c8da57dbc85e92e82a1ee62f53", "lon": -77.032193, "type": "electric_scooter", "bike_id": "4c3e85c8da57dbc85e92e82a1ee62f53", "fusion_lon": 0.0, "lat": 38.9066025, "fusion_lat": 0.0}, {"is_disabled": 0, "rental_uris": {"android": "https://dc.lft.to/lastmile_qr_scan", "ios": "https://dc.lft.to/lastmile_qr_scan"}, "is_reserved": 0, "name": "21fdaeba498c443053b681216a66519e", "lon": -77.02975566666667, "type": "electric_scooter", "bike_id": "21fdaeba498c443053b681216a66519e", "fusion_lon": 0.0, "lat": 38.89823166666667, "fusion_lat": 0.0}, {"is_disabled": 0, "rental_uris": {"android": "https://dc.lft.to/lastmile_qr_scan", "ios": "https://dc.lft.to/lastmile_qr_scan"}, "is_reserved": 0, "name": "45e777ca7c2b5711d4fc8b4b16937697", "lon": -77.02706716666667, "type": "electric_scooter", "bike_id": "45e777ca7c2b5711d4fc8b4b16937697", "fusion_lon": 0.0, "lat": 38.902441333333336, "fusion_lat": 0.0}, {"is_disabled": 0, "rental_uris": {"android": "https://dc.lft.to/lastmile_qr_scan", "ios": "https://dc.lft.to/lastmile_qr_scan"}, "is_reserved": 0, "name": "433b780ee714941d11c82bdda496ce38", "lon": -77.0086565, "type": "electric_bike", "bike_id": "433b780ee714941d11c82bdda496ce38", "fusion_lon": 0.0, "lat": 38.827281666666664, "fusion_lat": 0.0}, {"is_disabled": 0, "rental_uris": {"android": "https://dc.lft.to/lastmile_qr_scan", "ios": "https://dc.lft.to/lastmile_qr_scan"}, "is_reserved": 0, "name": "00e8f22492b777f4f0476707bc4de05d", "lon": -77.01294633333333, "type": "electric_scooter", "bike_id": "00e8f22492b777f4f0476707bc4de05d", "fusion_lon": 0.0, "lat": 38.8997645, "fusion_lat": 0.0}, {"is_disabled": 0, "rental_uris": {"android": "https://dc.lft.to/lastmile_qr_scan", "ios": "https://dc.lft.to/lastmile_qr_scan"}, "is_reserved": 0, "name": "469b5b3d5dd506617c7c70fc9e06ab6d", "lon": -76.98850716666666, "type": "electric_scooter", "bike_id": "469b5b3d5dd506617c7c70fc9e06ab6d", "fusion_lon": 0.0, "lat": 38.88581633333333, "fusion_lat": 0.0}, {"is_disabled": 0, "rental_uris": {"android": "https://dc.lft.to/lastmile_qr_scan", "ios": "https://dc.lft.to/lastmile_qr_scan"}, "is_reserved": 0, "name": "ee9e276a32227cdbb9616e953d2de763", "lon": -76.96518833333333, "type": "electric_scooter", "bike_id": "ee9e276a32227cdbb9616e953d2de763", "fusion_lon": 0.0, "lat": 38.850799, "fusion_lat": 0.0}, {"is_disabled": 0, "rental_uris": {"android": "https://dc.lft.to/lastmile_qr_scan", "ios": "https://dc.lft.to/lastmile_qr_scan"}, "is_reserved": 0, "name": "becdd1d0b2fb9a131e9269afd6bafcd7", "lon": -77.00758483333334, "type": "electric_scooter", "bike_id": "becdd1d0b2fb9a131e9269afd6bafcd7", "fusion_lon": 0.0, "lat": 38.910251, "fusion_lat": 0.0}, {"is_disabled": 0, "rental_uris": {"android": "https://dc.lft.to/lastmile_qr_scan", "ios": "https://dc.lft.to/lastmile_qr_scan"}, "is_reserved": 0, "name": "afa6019c94ef1fd862eccb34b40f6872", "lon": -77.03812766666667, "type": "electric_scooter", "bike_id": "afa6019c94ef1fd862eccb34b40f6872", "fusion_lon": 0.0, "lat": 38.90975783333333, "fusion_lat": 0.0}, {"is_disabled": 0, "rental_uris": {"android": "https://dc.lft.to/lastmile_qr_scan", "ios": "https://dc.lft.to/lastmile_qr_scan"}, "is_reserved": 0, "name": "84522f1799a57b5f198ce82a050e2214", "lon": -77.01769366666667, "type": "electric_scooter", "bike_id": "84522f1799a57b5f198ce82a050e2214", "fusion_lon": 0.0, "lat": 38.87716316666667, "fusion_lat": 0.0}, {"is_disabled": 0, "rental_uris": {"android": "https://dc.lft.to/lastmile_qr_scan", "ios": "https://dc.lft.to/lastmile_qr_scan"}, "is_reserved": 0, "name": "a2562e8ea31940147d8ba83da6d69ceb", "lon": -76.983386, "type": "electric_scooter", "bike_id": "a2562e8ea31940147d8ba83da6d69ceb", "fusion_lon": 0.0, "lat": 38.895459, "fusion_lat": 0.0}, {"is_disabled": 0, "rental_uris": {"android": "https://dc.lft.to/lastmile_qr_scan", "ios": "https://dc.lft.to/lastmile_qr_scan"}, "is_reserved": 0, "name": "b5d40a7a35c2f677ed291cd9435cab20", "lon": -77.02697216666667, "type": "electric_scooter", "bike_id": "b5d40a7a35c2f677ed291cd9435cab20", "fusion_lon": 0.0, "lat": 38.911344, "fusion_lat": 0.0}, {"is_disabled": 0, "rental_uris": {"android": "https://dc.lft.to/lastmile_qr_scan", "ios": "https://dc.lft.to/lastmile_qr_scan"}, "is_reserved": 0, "name": "5d5e389e71a7682adb4d82ca9e117ac4", "lon": -77.04166883333333, "type": "electric_scooter", "bike_id": "5d5e389e71a7682adb4d82ca9e117ac4", "fusion_lon": 0.0, "lat": 38.90139716666667, "fusion_lat": 0.0}, {"is_disabled": 0, "rental_uris": {"android": "https://dc.lft.to/lastmile_qr_scan", "ios": "https://dc.lft.to/lastmile_qr_scan"}, "is_reserved": 0, "name": "410f1361518bc70761bd170970baf521", "lon": -77.05331266666667, "type": "electric_scooter", "bike_id": "410f1361518bc70761bd170970baf521", "fusion_lon": 0.0, "lat": 38.9231345, "fusion_lat": 0.0}, {"is_disabled": 0, "rental_uris": {"android": "https://dc.lft.to/lastmile_qr_scan", "ios": "https://dc.lft.to/lastmile_qr_scan"}, "is_reserved": 0, "name": "a3da765b09ee938935c6a8f4e5fa5c03", "lon": -77.005768, "type": "electric_scooter", "bike_id": "a3da765b09ee938935c6a8f4e5fa5c03", "fusion_lon": 0.0, "lat": 38.87656533333333, "fusion_lat": 0.0}, {"is_disabled": 0, "rental_uris": {"android": "https://dc.lft.to/lastmile_qr_scan", "ios": "https://dc.lft.to/lastmile_qr_scan"}, "is_reserved": 0, "name": "392d05ac189374bf2a32f76da9ea88da", "lon": -77.02931633333333, "type": "electric_scooter", "bike_id": "392d05ac189374bf2a32f76da9ea88da", "fusion_lon": 0.0, "lat": 38.882199166666666, "fusion_lat": 0.0}, {"is_disabled": 0, "rental_uris": {"android": "https://dc.lft.to/lastmile_qr_scan", "ios": "https://dc.lft.to/lastmile_qr_scan"}, "is_reserved": 0, "name": "36323e271d87dd8c3c09e587b6fd43da", "lon": -77.04318616666667, "type": "electric_bike", "bike_id": "36323e271d87dd8c3c09e587b6fd43da", "fusion_lon": 0.0, "lat": 38.831221166666666, "fusion_lat": 0.0}, {"is_disabled": 0, "rental_uris": {"android": "https://dc.lft.to/lastmile_qr_scan", "ios": "https://dc.lft.to/lastmile_qr_scan"}, "is_reserved": 0, "name": "34d9cc3504c1f3da179d781130b40eaf", "lon": -77.03859133333333, "type": "electric_scooter", "bike_id": "34d9cc3504c1f3da179d781130b40eaf", "fusion_lon": 0.0, "lat": 38.9171615, "fusion_lat": 0.0}, {"is_disabled": 0, "rental_uris": {"android": "https://dc.lft.to/lastmile_qr_scan", "ios": "https://dc.lft.to/lastmile_qr_scan"}, "is_reserved": 0, "name": "8d41511a18b0803800b3743631d646d2", "lon": -77.03549733333334, "type": "electric_scooter", "bike_id": "8d41511a18b0803800b3743631d646d2", "fusion_lon": 0.0, "lat": 38.923546333333334, "fusion_lat": 0.0}, {"is_disabled": 0, "rental_uris": {"android": "https://dc.lft.to/lastmile_qr_scan", "ios": "https://dc.lft.to/lastmile_qr_scan"}, "is_reserved": 0, "name": "a7ed9571581e81582d8bf76d4ca962f5", "lon": -77.03481666666667, "type": "electric_scooter", "bike_id": "a7ed9571581e81582d8bf76d4ca962f5", "fusion_lon": 0.0, "lat": 38.924782666666665, "fusion_lat": 0.0}, {"is_disabled": 0, "rental_uris": {"android": "https://dc.lft.to/lastmile_qr_scan", "ios": "https://dc.lft.to/lastmile_qr_scan"}, "is_reserved": 0, "name": "b152bb70aa2a22b6079533ce606d717e", "lon": -77.0285025, "type": "electric_scooter", "bike_id": "b152bb70aa2a22b6079533ce606d717e", "fusion_lon": 0.0, "lat": 38.90140383333333, "fusion_lat": 0.0}, {"is_disabled": 0, "rental_uris": {"android": "https://dc.lft.to/lastmile_qr_scan", "ios": "https://dc.lft.to/lastmile_qr_scan"}, "is_reserved": 0, "name": "15476618bc2b39b2eb899d08c8d8dc70", "lon": -76.99645183333334, "type": "electric_scooter", "bike_id": "15476618bc2b39b2eb899d08c8d8dc70", "fusion_lon": 0.0, "lat": 38.887208, "fusion_lat": 0.0}, {"is_disabled": 0, "rental_uris": {"android": "https://dc.lft.to/lastmile_qr_scan", "ios": "https://dc.lft.to/lastmile_qr_scan"}, "is_reserved": 0, "name": "b1c1809e5bf5eb5ad86c6290b6c89720", "lon": -76.97795483333333, "type": "electric_bike", "bike_id": "b1c1809e5bf5eb5ad86c6290b6c89720", "fusion_lon": 0.0, "lat": 38.8961275, "fusion_lat": 0.0}, {"is_disabled": 0, "rental_uris": {"android": "https://dc.lft.to/lastmile_qr_scan", "ios": "https://dc.lft.to/lastmile_qr_scan"}, "is_reserved": 0, "name": "fa0eb968582ece24a577e5f36a849812", "lon": -77.048062, "type": "electric_scooter", "bike_id": "fa0eb968582ece24a577e5f36a849812", "fusion_lon": 0.0, "lat": 38.920316166666666, "fusion_lat": 0.0}, {"is_disabled": 0, "rental_uris": {"android": "https://dc.lft.to/lastmile_qr_scan", "ios": "https://dc.lft.to/lastmile_qr_scan"}, "is_reserved": 0, "name": "5559a7243a2e3363ad8b095e124375e9", "lon": -77.023855, "type": "electric_bike", "bike_id": "5559a7243a2e3363ad8b095e124375e9", "fusion_lon": 0.0, "lat": 38.990744166666666, "fusion_lat": 0.0}, {"is_disabled": 0, "rental_uris": {"android": "https://dc.lft.to/lastmile_qr_scan", "ios": "https://dc.lft.to/lastmile_qr_scan"}, "is_reserved": 0, "name": "89d1e7ee05eb030ae91cfe39b02675ad", "lon": -77.0415015, "type": "electric_scooter", "bike_id": "89d1e7ee05eb030ae91cfe39b02675ad", "fusion_lon": 0.0, "lat": 38.9127315, "fusion_lat": 0.0}, {"is_disabled": 0, "rental_uris": {"android": "https://dc.lft.to/lastmile_qr_scan", "ios": "https://dc.lft.to/lastmile_qr_scan"}, "is_reserved": 0, "name": "478a820c9f447c32288889964fa451cd", "lon": -77.020766, "type": "electric_scooter", "bike_id": "478a820c9f447c32288889964fa451cd", "fusion_lon": 0.0, "lat": 38.881183, "fusion_lat": 0.0}, {"is_disabled": 0, "rental_uris": {"android": "https://dc.lft.to/lastmile_qr_scan", "ios": "https://dc.lft.to/lastmile_qr_scan"}, "is_reserved": 0, "name": "d881bfaf28b48d354672c5f155b79e2e", "lon": -77.0296855, "type": "electric_scooter", "bike_id": "d881bfaf28b48d354672c5f155b79e2e", "fusion_lon": 0.0, "lat": 38.92258016666667, "fusion_lat": 0.0}, {"is_disabled": 0, "rental_uris": {"android": "https://dc.lft.to/lastmile_qr_scan", "ios": "https://dc.lft.to/lastmile_qr_scan"}, "is_reserved": 0, "name": "bacec6aa304645a8bdbc9b42d9782191", "lon": -77.02696166666666, "type": "electric_scooter", "bike_id": "bacec6aa304645a8bdbc9b42d9782191", "fusion_lon": 0.0, "lat": 38.89639666666667, "fusion_lat": 0.0}, {"is_disabled": 0, "rental_uris": {"android": "https://dc.lft.to/lastmile_qr_scan", "ios": "https://dc.lft.to/lastmile_qr_scan"}, "is_reserved": 0, "name": "d634d6e41e22bd75da0dfe32db637492", "lon": -76.98880766666667, "type": "electric_scooter", "bike_id": "d634d6e41e22bd75da0dfe32db637492", "fusion_lon": 0.0, "lat": 38.86658516666667, "fusion_lat": 0.0}, {"is_disabled": 0, "rental_uris": {"android": "https://dc.lft.to/lastmile_qr_scan", "ios": "https://dc.lft.to/lastmile_qr_scan"}, "is_reserved": 0, "name": "885253b8425538a36c8f996425d572f4", "lon": -77.08824133333333, "type": "electric_bike", "bike_id": "885253b8425538a36c8f996425d572f4", "fusion_lon": 0.0, "lat": 38.909733333333335, "fusion_lat": 0.0}, {"is_disabled": 0, "rental_uris": {"android": "https://dc.lft.to/lastmile_qr_scan", "ios": "https://dc.lft.to/lastmile_qr_scan"}, "is_reserved": 0, "name": "913a0c6e82f187b727686835e196db01", "lon": -77.04279633333333, "type": "electric_scooter", "bike_id": "913a0c6e82f187b727686835e196db01", "fusion_lon": 0.0, "lat": 38.93412083333333, "fusion_lat": 0.0}, {"is_disabled": 0, "rental_uris": {"android": "https://dc.lft.to/lastmile_qr_scan", "ios": "https://dc.lft.to/lastmile_qr_scan"}, "is_reserved": 0, "name": "f8dd16bdfd82755ee096f0be3ff0e3ee", "lon": -77.00533483333334, "type": "electric_scooter", "bike_id": "f8dd16bdfd82755ee096f0be3ff0e3ee", "fusion_lon": 0.0, "lat": 38.87468416666667, "fusion_lat": 0.0}, {"is_disabled": 0, "rental_uris": {"android": "https://dc.lft.to/lastmile_qr_scan", "ios": "https://dc.lft.to/lastmile_qr_scan"}, "is_reserved": 0, "name": "3e0bf29b2eaee27c28ed2f2e0d530ba6", "lon": -77.04402983333334, "type": "electric_scooter", "bike_id": "3e0bf29b2eaee27c28ed2f2e0d530ba6", "fusion_lon": 0.0, "lat": 38.89395616666667, "fusion_lat": 0.0}, {"is_disabled": 0, "rental_uris": {"android": "https://dc.lft.to/lastmile_qr_scan", "ios": "https://dc.lft.to/lastmile_qr_scan"}, "is_reserved": 0, "name": "155b59335ed46fde814c6ca8b34fd0ca", "lon": -77.03176533333334, "type": "electric_scooter", "bike_id": "155b59335ed46fde814c6ca8b34fd0ca", "fusion_lon": 0.0, "lat": 38.903175166666664, "fusion_lat": 0.0}, {"is_disabled": 0, "rental_uris": {"android": "https://dc.lft.to/lastmile_qr_scan", "ios": "https://dc.lft.to/lastmile_qr_scan"}, "is_reserved": 0, "name": "82ee499e712ac35a922a70355356dcf7", "lon": -77.066644, "type": "electric_scooter", "bike_id": "82ee499e712ac35a922a70355356dcf7", "fusion_lon": 0.0, "lat": 38.949606833333334, "fusion_lat": 0.0}, {"is_disabled": 0, "rental_uris": {"android": "https://dc.lft.to/lastmile_qr_scan", "ios": "https://dc.lft.to/lastmile_qr_scan"}, "is_reserved": 0, "name": "c559caf9c83d9069cae8d9ae66c5c61b", "lon": -77.0365555, "type": "electric_scooter", "bike_id": "c559caf9c83d9069cae8d9ae66c5c61b", "fusion_lon": 0.0, "lat": 38.935800666666665, "fusion_lat": 0.0}, {"is_disabled": 0, "rental_uris": {"android": "https://dc.lft.to/lastmile_qr_scan", "ios": "https://dc.lft.to/lastmile_qr_scan"}, "is_reserved": 0, "name": "42f666590953d8b8eec51fc8f5122de1", "lon": -77.04043283333333, "type": "electric_scooter", "bike_id": "42f666590953d8b8eec51fc8f5122de1", "fusion_lon": 0.0, "lat": 38.909571166666666, "fusion_lat": 0.0}, {"is_disabled": 0, "rental_uris": {"android": "https://dc.lft.to/lastmile_qr_scan", "ios": "https://dc.lft.to/lastmile_qr_scan"}, "is_reserved": 0, "name": "d7b7acbfcf48f38b7d97650941785739", "lon": -77.04168466666667, "type": "electric_scooter", "bike_id": "d7b7acbfcf48f38b7d97650941785739", "fusion_lon": 0.0, "lat": 38.916189, "fusion_lat": 0.0}, {"is_disabled": 0, "rental_uris": {"android": "https://dc.lft.to/lastmile_qr_scan", "ios": "https://dc.lft.to/lastmile_qr_scan"}, "is_reserved": 0, "name": "a9df61c7296d1272f53d2d4916521a2e", "lon": -76.9871425, "type": "electric_scooter", "bike_id": "a9df61c7296d1272f53d2d4916521a2e", "fusion_lon": 0.0, "lat": 38.866977166666665, "fusion_lat": 0.0}, {"is_disabled": 0, "rental_uris": {"android": "https://dc.lft.to/lastmile_qr_scan", "ios": "https://dc.lft.to/lastmile_qr_scan"}, "is_reserved": 0, "name": "6cf67ec9a4d6b6bbdead5ab13c35ad72", "lon": -76.98728583333333, "type": "electric_scooter", "bike_id": "6cf67ec9a4d6b6bbdead5ab13c35ad72", "fusion_lon": 0.0, "lat": 38.867137, "fusion_lat": 0.0}, {"is_disabled": 0, "rental_uris": {"android": "https://dc.lft.to/lastmile_qr_scan", "ios": "https://dc.lft.to/lastmile_qr_scan"}, "is_reserved": 0, "name": "0997652f0c148a4603935086a16a0d7e", "lon": -77.0291315, "type": "electric_scooter", "bike_id": "0997652f0c148a4603935086a16a0d7e", "fusion_lon": 0.0, "lat": 38.898452, "fusion_lat": 0.0}, {"is_disabled": 0, "rental_uris": {"android": "https://dc.lft.to/lastmile_qr_scan", "ios": "https://dc.lft.to/lastmile_qr_scan"}, "is_reserved": 0, "name": "a047f16c96c5868fcd0308cc60db3af8", "lon": -76.93154833333334, "type": "electric_scooter", "bike_id": "a047f16c96c5868fcd0308cc60db3af8", "fusion_lon": 0.0, "lat": 38.8984765, "fusion_lat": 0.0}, {"is_disabled": 0, "rental_uris": {"android": "https://dc.lft.to/lastmile_qr_scan", "ios": "https://dc.lft.to/lastmile_qr_scan"}, "is_reserved": 0, "name": "2d4dab446f423be4f6175745e901552d", "lon": -77.02210083333334, "type": "electric_scooter", "bike_id": "2d4dab446f423be4f6175745e901552d", "fusion_lon": 0.0, "lat": 38.88737283333333, "fusion_lat": 0.0}, {"is_disabled": 0, "rental_uris": {"android": "https://dc.lft.to/lastmile_qr_scan", "ios": "https://dc.lft.to/lastmile_qr_scan"}, "is_reserved": 0, "name": "d67ea186ed665a25b34d3110d4cf7c6d", "lon": -77.022489, "type": "electric_scooter", "bike_id": "d67ea186ed665a25b34d3110d4cf7c6d", "fusion_lon": 0.0, "lat": 38.9164305, "fusion_lat": 0.0}, {"is_disabled": 0, "rental_uris": {"android": "https://dc.lft.to/lastmile_qr_scan", "ios": "https://dc.lft.to/lastmile_qr_scan"}, "is_reserved": 0, "name": "0049f1f34673d7a60af2748452b39750", "lon": -77.02510916666667, "type": "electric_scooter", "bike_id": "0049f1f34673d7a60af2748452b39750", "fusion_lon": 0.0, "lat": 38.9387905, "fusion_lat": 0.0}, {"is_disabled": 0, "rental_uris": {"android": "https://dc.lft.to/lastmile_qr_scan", "ios": "https://dc.lft.to/lastmile_qr_scan"}, "is_reserved": 0, "name": "46e948c5bbcc366416c2cfbcb5a15fcf", "lon": -77.0413475, "type": "electric_scooter", "bike_id": "46e948c5bbcc366416c2cfbcb5a15fcf", "fusion_lon": 0.0, "lat": 38.92252466666667, "fusion_lat": 0.0}, {"is_disabled": 0, "rental_uris": {"android": "https://dc.lft.to/lastmile_qr_scan", "ios": "https://dc.lft.to/lastmile_qr_scan"}, "is_reserved": 0, "name": "0d718adf13be2a1904108c39aeb66488", "lon": -76.9835835, "type": "electric_scooter", "bike_id": "0d718adf13be2a1904108c39aeb66488", "fusion_lon": 0.0, "lat": 38.891711666666666, "fusion_lat": 0.0}, {"is_disabled": 0, "rental_uris": {"android": "https://dc.lft.to/lastmile_qr_scan", "ios": "https://dc.lft.to/lastmile_qr_scan"}, "is_reserved": 0, "name": "4e1b92493bdc6fdb4d87b62894bc67e8", "lon": -77.0399385, "type": "electric_scooter", "bike_id": "4e1b92493bdc6fdb4d87b62894bc67e8", "fusion_lon": 0.0, "lat": 38.9180835, "fusion_lat": 0.0}, {"is_disabled": 0, "rental_uris": {"android": "https://dc.lft.to/lastmile_qr_scan", "ios": "https://dc.lft.to/lastmile_qr_scan"}, "is_reserved": 0, "name": "12c8dd15a526ea85075fbf8c9fb66c41", "lon": -77.04774033333334, "type": "electric_scooter", "bike_id": "12c8dd15a526ea85075fbf8c9fb66c41", "fusion_lon": 0.0, "lat": 38.9176615, "fusion_lat": 0.0}, {"is_disabled": 0, "rental_uris": {"android": "https://dc.lft.to/lastmile_qr_scan", "ios": "https://dc.lft.to/lastmile_qr_scan"}, "is_reserved": 0, "name": "2dff7c7641d4b58409fb308e10030b9c", "lon": -77.02152833333334, "type": "electric_scooter", "bike_id": "2dff7c7641d4b58409fb308e10030b9c", "fusion_lon": 0.0, "lat": 38.87922616666667, "fusion_lat": 0.0}, {"is_disabled": 0, "rental_uris": {"android": "https://dc.lft.to/lastmile_qr_scan", "ios": "https://dc.lft.to/lastmile_qr_scan"}, "is_reserved": 0, "name": "1085f5d5bb0a365fb93a9db98d0ca558", "lon": -77.02761766666667, "type": "electric_scooter", "bike_id": "1085f5d5bb0a365fb93a9db98d0ca558", "fusion_lon": 0.0, "lat": 38.967324166666664, "fusion_lat": 0.0}, {"is_disabled": 0, "rental_uris": {"android": "https://dc.lft.to/lastmile_qr_scan", "ios": "https://dc.lft.to/lastmile_qr_scan"}, "is_reserved": 0, "name": "fefc3447e15e9556da1f69c09d0483e7", "lon": -77.033865, "type": "electric_scooter", "bike_id": "fefc3447e15e9556da1f69c09d0483e7", "fusion_lon": 0.0, "lat": 38.921586, "fusion_lat": 0.0}, {"is_disabled": 0, "rental_uris": {"android": "https://dc.lft.to/lastmile_qr_scan", "ios": "https://dc.lft.to/lastmile_qr_scan"}, "is_reserved": 0, "name": "e180b40eab4a68cdf687cb8b69fbecbb", "lon": -77.02845833333333, "type": "electric_bike", "bike_id": "e180b40eab4a68cdf687cb8b69fbecbb", "fusion_lon": 0.0, "lat": 38.91363833333333, "fusion_lat": 0.0}, {"is_disabled": 0, "rental_uris": {"android": "https://dc.lft.to/lastmile_qr_scan", "ios": "https://dc.lft.to/lastmile_qr_scan"}, "is_reserved": 0, "name": "7dac274490eb55fb6bc3888573b30da2", "lon": -77.02608866666667, "type": "electric_scooter", "bike_id": "7dac274490eb55fb6bc3888573b30da2", "fusion_lon": 0.0, "lat": 38.92439316666667, "fusion_lat": 0.0}, {"is_disabled": 0, "rental_uris": {"android": "https://dc.lft.to/lastmile_qr_scan", "ios": "https://dc.lft.to/lastmile_qr_scan"}, "is_reserved": 0, "name": "3e9a19750ec19f58096ed915398ae323", "lon": -77.0314575, "type": "electric_scooter", "bike_id": "3e9a19750ec19f58096ed915398ae323", "fusion_lon": 0.0, "lat": 38.90120483333333, "fusion_lat": 0.0}, {"is_disabled": 0, "rental_uris": {"android": "https://dc.lft.to/lastmile_qr_scan", "ios": "https://dc.lft.to/lastmile_qr_scan"}, "is_reserved": 0, "name": "b71960ba83e4fe71ff20b046df00e393", "lon": -77.05119733333333, "type": "electric_scooter", "bike_id": "b71960ba83e4fe71ff20b046df00e393", "fusion_lon": 0.0, "lat": 38.901231, "fusion_lat": 0.0}, {"is_disabled": 0, "rental_uris": {"android": "https://dc.lft.to/lastmile_qr_scan", "ios": "https://dc.lft.to/lastmile_qr_scan"}, "is_reserved": 0, "name": "e033b6fa579aa0ccc9591b861f5b7812", "lon": -77.02372066666666, "type": "electric_scooter", "bike_id": "e033b6fa579aa0ccc9591b861f5b7812", "fusion_lon": 0.0, "lat": 38.901942, "fusion_lat": 0.0}, {"is_disabled": 0, "rental_uris": {"android": "https://dc.lft.to/lastmile_qr_scan", "ios": "https://dc.lft.to/lastmile_qr_scan"}, "is_reserved": 0, "name": "967fe8b247086235ed70c6ab34d1206e", "lon": -77.05122116666666, "type": "electric_scooter", "bike_id": "967fe8b247086235ed70c6ab34d1206e", "fusion_lon": 0.0, "lat": 38.902189666666665, "fusion_lat": 0.0}, {"is_disabled": 0, "rental_uris": {"android": "https://dc.lft.to/lastmile_qr_scan", "ios": "https://dc.lft.to/lastmile_qr_scan"}, "is_reserved": 0, "name": "9c4ff8d5c328bd60cf26bfe22a898ad7", "lon": -77.00790633333334, "type": "electric_scooter", "bike_id": "9c4ff8d5c328bd60cf26bfe22a898ad7", "fusion_lon": 0.0, "lat": 38.9073925, "fusion_lat": 0.0}, {"is_disabled": 0, "rental_uris": {"android": "https://dc.lft.to/lastmile_qr_scan", "ios": "https://dc.lft.to/lastmile_qr_scan"}, "is_reserved": 0, "name": "ac7948bbeeb2355d47179c2db8054e59", "lon": -77.03208516666666, "type": "electric_scooter", "bike_id": "ac7948bbeeb2355d47179c2db8054e59", "fusion_lon": 0.0, "lat": 38.915889, "fusion_lat": 0.0}, {"is_disabled": 0, "rental_uris": {"android": "https://dc.lft.to/lastmile_qr_scan", "ios": "https://dc.lft.to/lastmile_qr_scan"}, "is_reserved": 0, "name": "c20ca0be8ed249941b3b0265b541f96c", "lon": -76.93838033333333, "type": "electric_scooter", "bike_id": "c20ca0be8ed249941b3b0265b541f96c", "fusion_lon": 0.0, "lat": 38.89015466666667, "fusion_lat": 0.0}, {"is_disabled": 0, "rental_uris": {"android": "https://dc.lft.to/lastmile_qr_scan", "ios": "https://dc.lft.to/lastmile_qr_scan"}, "is_reserved": 0, "name": "84a51fdb6d26efb85e6d0068fe4d495a", "lon": -77.0515075, "type": "electric_scooter", "bike_id": "84a51fdb6d26efb85e6d0068fe4d495a", "fusion_lon": 0.0, "lat": 38.9063385, "fusion_lat": 0.0}, {"is_disabled": 0, "rental_uris": {"android": "https://dc.lft.to/lastmile_qr_scan", "ios": "https://dc.lft.to/lastmile_qr_scan"}, "is_reserved": 0, "name": "95d9194e93e0b67e7022b2a5e80ad32e", "lon": -77.02313783333334, "type": "electric_scooter", "bike_id": "95d9194e93e0b67e7022b2a5e80ad32e", "fusion_lon": 0.0, "lat": 38.926675333333336, "fusion_lat": 0.0}, {"is_disabled": 0, "rental_uris": {"android": "https://dc.lft.to/lastmile_qr_scan", "ios": "https://dc.lft.to/lastmile_qr_scan"}, "is_reserved": 0, "name": "d73a7f7daeaaf2781c2ccd8f92b4b9d7", "lon": -77.02716666666667, "type": "electric_scooter", "bike_id": "d73a7f7daeaaf2781c2ccd8f92b4b9d7", "fusion_lon": 0.0, "lat": 38.910706, "fusion_lat": 0.0}, {"is_disabled": 0, "rental_uris": {"android": "https://dc.lft.to/lastmile_qr_scan", "ios": "https://dc.lft.to/lastmile_qr_scan"}, "is_reserved": 0, "name": "bf9c1d7b4147b4db41371269b1f343bb", "lon": -77.055979, "type": "electric_scooter", "bike_id": "bf9c1d7b4147b4db41371269b1f343bb", "fusion_lon": 0.0, "lat": 38.93698783333333, "fusion_lat": 0.0}, {"is_disabled": 0, "rental_uris": {"android": "https://dc.lft.to/lastmile_qr_scan", "ios": "https://dc.lft.to/lastmile_qr_scan"}, "is_reserved": 0, "name": "f1699a07cf9ffc09ecf63ace5246cb7b", "lon": -77.02543633333333, "type": "electric_scooter", "bike_id": "f1699a07cf9ffc09ecf63ace5246cb7b", "fusion_lon": 0.0, "lat": 38.98414616666667, "fusion_lat": 0.0}, {"is_disabled": 0, "rental_uris": {"android": "https://dc.lft.to/lastmile_qr_scan", "ios": "https://dc.lft.to/lastmile_qr_scan"}, "is_reserved": 0, "name": "52bcb3660833f94bbcb148f8716a74d1", "lon": -77.02940116666667, "type": "electric_scooter", "bike_id": "52bcb3660833f94bbcb148f8716a74d1", "fusion_lon": 0.0, "lat": 38.9171395, "fusion_lat": 0.0}, {"is_disabled": 0, "rental_uris": {"android": "https://dc.lft.to/lastmile_qr_scan", "ios": "https://dc.lft.to/lastmile_qr_scan"}, "is_reserved": 0, "name": "a0c33a3e4ba7b22b7a066557c893f5bb", "lon": -76.989698, "type": "electric_scooter", "bike_id": "a0c33a3e4ba7b22b7a066557c893f5bb", "fusion_lon": 0.0, "lat": 38.90242966666667, "fusion_lat": 0.0}, {"is_disabled": 0, "rental_uris": {"android": "https://dc.lft.to/lastmile_qr_scan", "ios": "https://dc.lft.to/lastmile_qr_scan"}, "is_reserved": 0, "name": "a88737f7dfe5ff3eaf8519df49c8d6b9", "lon": -77.004201, "type": "electric_scooter", "bike_id": "a88737f7dfe5ff3eaf8519df49c8d6b9", "fusion_lon": 0.0, "lat": 38.876504, "fusion_lat": 0.0}, {"is_disabled": 0, "rental_uris": {"android": "https://dc.lft.to/lastmile_qr_scan", "ios": "https://dc.lft.to/lastmile_qr_scan"}, "is_reserved": 0, "name": "09892bbeace59aa4584113558edb5ea3", "lon": -77.03910133333333, "type": "electric_scooter", "bike_id": "09892bbeace59aa4584113558edb5ea3", "fusion_lon": 0.0, "lat": 38.902462, "fusion_lat": 0.0}, {"is_disabled": 0, "rental_uris": {"android": "https://dc.lft.to/lastmile_qr_scan", "ios": "https://dc.lft.to/lastmile_qr_scan"}, "is_reserved": 0, "name": "ec601510177879c92732c2918b912c22", "lon": -77.03142433333333, "type": "electric_scooter", "bike_id": "ec601510177879c92732c2918b912c22", "fusion_lon": 0.0, "lat": 38.916230166666665, "fusion_lat": 0.0}, {"is_disabled": 0, "rental_uris": {"android": "https://dc.lft.to/lastmile_qr_scan", "ios": "https://dc.lft.to/lastmile_qr_scan"}, "is_reserved": 0, "name": "17f74b368004ac278dd56ba3cb3a22a4", "lon": -77.016276, "type": "electric_scooter", "bike_id": "17f74b368004ac278dd56ba3cb3a22a4", "fusion_lon": 0.0, "lat": 38.87243216666667, "fusion_lat": 0.0}, {"is_disabled": 0, "rental_uris": {"android": "https://dc.lft.to/lastmile_qr_scan", "ios": "https://dc.lft.to/lastmile_qr_scan"}, "is_reserved": 0, "name": "f1fd9a8a9887750a031cf656333d660f", "lon": -77.00433766666667, "type": "electric_scooter", "bike_id": "f1fd9a8a9887750a031cf656333d660f", "fusion_lon": 0.0, "lat": 38.83811716666666, "fusion_lat": 0.0}, {"is_disabled": 0, "rental_uris": {"android": "https://dc.lft.to/lastmile_qr_scan", "ios": "https://dc.lft.to/lastmile_qr_scan"}, "is_reserved": 0, "name": "b8bc86baa6bf2b4d11d9e80848b0687c", "lon": -77.03173066666666, "type": "electric_scooter", "bike_id": "b8bc86baa6bf2b4d11d9e80848b0687c", "fusion_lon": 0.0, "lat": 38.91925033333333, "fusion_lat": 0.0}, {"is_disabled": 0, "rental_uris": {"android": "https://dc.lft.to/lastmile_qr_scan", "ios": "https://dc.lft.to/lastmile_qr_scan"}, "is_reserved": 0, "name": "2cca7b98ea08795a63bf75fcd78079ec", "lon": -76.99960633333333, "type": "electric_scooter", "bike_id": "2cca7b98ea08795a63bf75fcd78079ec", "fusion_lon": 0.0, "lat": 38.842833666666664, "fusion_lat": 0.0}, {"is_disabled": 0, "rental_uris": {"android": "https://dc.lft.to/lastmile_qr_scan", "ios": "https://dc.lft.to/lastmile_qr_scan"}, "is_reserved": 0, "name": "68406082a1f73ecde70a534532bbd01e", "lon": -77.05004166666667, "type": "electric_scooter", "bike_id": "68406082a1f73ecde70a534532bbd01e", "fusion_lon": 0.0, "lat": 38.89230933333333, "fusion_lat": 0.0}, {"is_disabled": 0, "rental_uris": {"android": "https://dc.lft.to/lastmile_qr_scan", "ios": "https://dc.lft.to/lastmile_qr_scan"}, "is_reserved": 0, "name": "2e1df3f7f05e39aa35d1aa0590aa669f", "lon": -76.9495135, "type": "electric_bike", "bike_id": "2e1df3f7f05e39aa35d1aa0590aa669f", "fusion_lon": 0.0, "lat": 38.9350345, "fusion_lat": 0.0}, {"is_disabled": 0, "rental_uris": {"android": "https://dc.lft.to/lastmile_qr_scan", "ios": "https://dc.lft.to/lastmile_qr_scan"}, "is_reserved": 0, "name": "af353b692eb7c24a74fe0c61a3c94a57", "lon": -77.02661016666667, "type": "electric_scooter", "bike_id": "af353b692eb7c24a74fe0c61a3c94a57", "fusion_lon": 0.0, "lat": 38.921819666666664, "fusion_lat": 0.0}, {"is_disabled": 0, "rental_uris": {"android": "https://dc.lft.to/lastmile_qr_scan", "ios": "https://dc.lft.to/lastmile_qr_scan"}, "is_reserved": 0, "name": "2b4e065f61c9892aa0db14da8c9d17e4", "lon": -77.0380255, "type": "electric_scooter", "bike_id": "2b4e065f61c9892aa0db14da8c9d17e4", "fusion_lon": 0.0, "lat": 38.9321875, "fusion_lat": 0.0}, {"is_disabled": 0, "rental_uris": {"android": "https://dc.lft.to/lastmile_qr_scan", "ios": "https://dc.lft.to/lastmile_qr_scan"}, "is_reserved": 0, "name": "5a0cf2f51dc653ee99495e85a5eecedb", "lon": -77.046257, "type": "electric_scooter", "bike_id": "5a0cf2f51dc653ee99495e85a5eecedb", "fusion_lon": 0.0, "lat": 38.92315283333333, "fusion_lat": 0.0}, {"is_disabled": 0, "rental_uris": {"android": "https://dc.lft.to/lastmile_qr_scan", "ios": "https://dc.lft.to/lastmile_qr_scan"}, "is_reserved": 0, "name": "da04b3ebbb41d6545b1178605ba1d87b", "lon": -76.9859315, "type": "electric_scooter", "bike_id": "da04b3ebbb41d6545b1178605ba1d87b", "fusion_lon": 0.0, "lat": 38.860729666666664, "fusion_lat": 0.0}, {"is_disabled": 0, "rental_uris": {"android": "https://dc.lft.to/lastmile_qr_scan", "ios": "https://dc.lft.to/lastmile_qr_scan"}, "is_reserved": 0, "name": "e3be36b11ddfe1c7531542533d0201c7", "lon": -77.03939166666666, "type": "electric_scooter", "bike_id": "e3be36b11ddfe1c7531542533d0201c7", "fusion_lon": 0.0, "lat": 38.915530333333336, "fusion_lat": 0.0}, {"is_disabled": 0, "rental_uris": {"android": "https://dc.lft.to/lastmile_qr_scan", "ios": "https://dc.lft.to/lastmile_qr_scan"}, "is_reserved": 0, "name": "05058826c97bd20901777521840277c3", "lon": -77.04206266666667, "type": "electric_scooter", "bike_id": "05058826c97bd20901777521840277c3", "fusion_lon": 0.0, "lat": 38.917007166666664, "fusion_lat": 0.0}, {"is_disabled": 0, "rental_uris": {"android": "https://dc.lft.to/lastmile_qr_scan", "ios": "https://dc.lft.to/lastmile_qr_scan"}, "is_reserved": 0, "name": "21ec2030231951cce0bfc2ef64628526", "lon": -77.03191516666666, "type": "electric_scooter", "bike_id": "21ec2030231951cce0bfc2ef64628526", "fusion_lon": 0.0, "lat": 38.92286333333333, "fusion_lat": 0.0}, {"is_disabled": 0, "rental_uris": {"android": "https://dc.lft.to/lastmile_qr_scan", "ios": "https://dc.lft.to/lastmile_qr_scan"}, "is_reserved": 0, "name": "f01280fe79c96b511663b2755c83fd81", "lon": -77.03878516666667, "type": "electric_scooter", "bike_id": "f01280fe79c96b511663b2755c83fd81", "fusion_lon": 0.0, "lat": 38.90369233333333, "fusion_lat": 0.0}, {"is_disabled": 0, "rental_uris": {"android": "https://dc.lft.to/lastmile_qr_scan", "ios": "https://dc.lft.to/lastmile_qr_scan"}, "is_reserved": 0, "name": "3866fc80ea596135a2eb5903515bc38e", "lon": -77.0222665, "type": "electric_scooter", "bike_id": "3866fc80ea596135a2eb5903515bc38e", "fusion_lon": 0.0, "lat": 38.905574, "fusion_lat": 0.0}, {"is_disabled": 0, "rental_uris": {"android": "https://dc.lft.to/lastmile_qr_scan", "ios": "https://dc.lft.to/lastmile_qr_scan"}, "is_reserved": 0, "name": "36da9d94be38f9b68f81ee4f3727e51c", "lon": -77.02960666666667, "type": "electric_scooter", "bike_id": "36da9d94be38f9b68f81ee4f3727e51c", "fusion_lon": 0.0, "lat": 38.921445, "fusion_lat": 0.0}, {"is_disabled": 0, "rental_uris": {"android": "https://dc.lft.to/lastmile_qr_scan", "ios": "https://dc.lft.to/lastmile_qr_scan"}, "is_reserved": 0, "name": "c592a9318e35dce133b1e0a0222b7285", "lon": -76.9270025, "type": "electric_scooter", "bike_id": "c592a9318e35dce133b1e0a0222b7285", "fusion_lon": 0.0, "lat": 38.885290166666664, "fusion_lat": 0.0}, {"is_disabled": 0, "rental_uris": {"android": "https://dc.lft.to/lastmile_qr_scan", "ios": "https://dc.lft.to/lastmile_qr_scan"}, "is_reserved": 0, "name": "38083b415398db6a56527205f294879e", "lon": -77.0181095, "type": "electric_scooter", "bike_id": "38083b415398db6a56527205f294879e", "fusion_lon": 0.0, "lat": 38.9209555, "fusion_lat": 0.0}, {"is_disabled": 0, "rental_uris": {"android": "https://dc.lft.to/lastmile_qr_scan", "ios": "https://dc.lft.to/lastmile_qr_scan"}, "is_reserved": 0, "name": "0c2c849a72f8df052c96df12d00e9084", "lon": -76.98810116666667, "type": "electric_scooter", "bike_id": "0c2c849a72f8df052c96df12d00e9084", "fusion_lon": 0.0, "lat": 38.908224833333335, "fusion_lat": 0.0}, {"is_disabled": 0, "rental_uris": {"android": "https://dc.lft.to/lastmile_qr_scan", "ios": "https://dc.lft.to/lastmile_qr_scan"}, "is_reserved": 0, "name": "9193bbc9f76eddc1e8fbe00eaaa62bef", "lon": -76.98497116666667, "type": "electric_scooter", "bike_id": "9193bbc9f76eddc1e8fbe00eaaa62bef", "fusion_lon": 0.0, "lat": 38.910078666666664, "fusion_lat": 0.0}, {"is_disabled": 0, "rental_uris": {"android": "https://dc.lft.to/lastmile_qr_scan", "ios": "https://dc.lft.to/lastmile_qr_scan"}, "is_reserved": 0, "name": "eca490d77e2cd5fd6eb76d86ffc9714d", "lon": -77.03797383333334, "type": "electric_scooter", "bike_id": "eca490d77e2cd5fd6eb76d86ffc9714d", "fusion_lon": 0.0, "lat": 38.9359415, "fusion_lat": 0.0}, {"is_disabled": 0, "rental_uris": {"android": "https://dc.lft.to/lastmile_qr_scan", "ios": "https://dc.lft.to/lastmile_qr_scan"}, "is_reserved": 0, "name": "451fd33904b85f4848f7dd1bdeecc915", "lon": -77.06103933333333, "type": "electric_scooter", "bike_id": "451fd33904b85f4848f7dd1bdeecc915", "fusion_lon": 0.0, "lat": 38.937037833333335, "fusion_lat": 0.0}, {"is_disabled": 0, "rental_uris": {"android": "https://dc.lft.to/lastmile_qr_scan", "ios": "https://dc.lft.to/lastmile_qr_scan"}, "is_reserved": 0, "name": "5bdd326ebce872e5ab28ce211b354a1d", "lon": -77.01852816666667, "type": "electric_scooter", "bike_id": "5bdd326ebce872e5ab28ce211b354a1d", "fusion_lon": 0.0, "lat": 38.97367033333333, "fusion_lat": 0.0}, {"is_disabled": 0, "rental_uris": {"android": "https://dc.lft.to/lastmile_qr_scan", "ios": "https://dc.lft.to/lastmile_qr_scan"}, "is_reserved": 0, "name": "f4319778fe685a7767fe0f2da8d56fec", "lon": -76.91241816666667, "type": "electric_scooter", "bike_id": "f4319778fe685a7767fe0f2da8d56fec", "fusion_lon": 0.0, "lat": 38.893920666666666, "fusion_lat": 0.0}, {"is_disabled": 0, "rental_uris": {"android": "https://dc.lft.to/lastmile_qr_scan", "ios": "https://dc.lft.to/lastmile_qr_scan"}, "is_reserved": 0, "name": "72b4fe014867a1d65a9d51777d1a61d6", "lon": -77.0344215, "type": "electric_scooter", "bike_id": "72b4fe014867a1d65a9d51777d1a61d6", "fusion_lon": 0.0, "lat": 38.9077525, "fusion_lat": 0.0}, {"is_disabled": 0, "rental_uris": {"android": "https://dc.lft.to/lastmile_qr_scan", "ios": "https://dc.lft.to/lastmile_qr_scan"}, "is_reserved": 0, "name": "0ba79478c8821366b46b5c8003d5e264", "lon": -76.97804266666667, "type": "electric_scooter", "bike_id": "0ba79478c8821366b46b5c8003d5e264", "fusion_lon": 0.0, "lat": 38.92058683333333, "fusion_lat": 0.0}, {"is_disabled": 0, "rental_uris": {"android": "https://dc.lft.to/lastmile_qr_scan", "ios": "https://dc.lft.to/lastmile_qr_scan"}, "is_reserved": 0, "name": "0d9f96c02c2c2d7eb1de9d4af7b0124a", "lon": -77.003265, "type": "electric_scooter", "bike_id": "0d9f96c02c2c2d7eb1de9d4af7b0124a", "fusion_lon": 0.0, "lat": 38.90263566666667, "fusion_lat": 0.0}, {"is_disabled": 0, "rental_uris": {"android": "https://dc.lft.to/lastmile_qr_scan", "ios": "https://dc.lft.to/lastmile_qr_scan"}, "is_reserved": 0, "name": "dce48851f2825117e1e68cbd2253c3c4", "lon": -76.96886066666667, "type": "electric_bike", "bike_id": "dce48851f2825117e1e68cbd2253c3c4", "fusion_lon": 0.0, "lat": 38.846027666666664, "fusion_lat": 0.0}, {"is_disabled": 0, "rental_uris": {"android": "https://dc.lft.to/lastmile_qr_scan", "ios": "https://dc.lft.to/lastmile_qr_scan"}, "is_reserved": 0, "name": "cc044e58ad900a5e9053240c65b867b4", "lon": -76.99653783333333, "type": "electric_scooter", "bike_id": "cc044e58ad900a5e9053240c65b867b4", "fusion_lon": 0.0, "lat": 38.886104, "fusion_lat": 0.0}, {"is_disabled": 0, "rental_uris": {"android": "https://dc.lft.to/lastmile_qr_scan", "ios": "https://dc.lft.to/lastmile_qr_scan"}, "is_reserved": 0, "name": "4b76d66b0d83162f1fe8cbdeb47a782f", "lon": -77.0307815, "type": "electric_bike", "bike_id": "4b76d66b0d83162f1fe8cbdeb47a782f", "fusion_lon": 0.0, "lat": 38.88367233333334, "fusion_lat": 0.0}, {"is_disabled": 0, "rental_uris": {"android": "https://dc.lft.to/lastmile_qr_scan", "ios": "https://dc.lft.to/lastmile_qr_scan"}, "is_reserved": 0, "name": "b28e53157090d74c059ce0b699d0ad94", "lon": -77.034431, "type": "electric_scooter", "bike_id": "b28e53157090d74c059ce0b699d0ad94", "fusion_lon": 0.0, "lat": 38.91806716666667, "fusion_lat": 0.0}, {"is_disabled": 0, "rental_uris": {"android": "https://dc.lft.to/lastmile_qr_scan", "ios": "https://dc.lft.to/lastmile_qr_scan"}, "is_reserved": 0, "name": "6ae9e4afa27428ee4ffd98a022829aaa", "lon": -76.96559316666666, "type": "electric_scooter", "bike_id": "6ae9e4afa27428ee4ffd98a022829aaa", "fusion_lon": 0.0, "lat": 38.9183485, "fusion_lat": 0.0}, {"is_disabled": 0, "rental_uris": {"android": "https://dc.lft.to/lastmile_qr_scan", "ios": "https://dc.lft.to/lastmile_qr_scan"}, "is_reserved": 0, "name": "124a95bfe5dd9f6acc57690cd4b6bf97", "lon": -76.999011, "type": "electric_scooter", "bike_id": "124a95bfe5dd9f6acc57690cd4b6bf97", "fusion_lon": 0.0, "lat": 38.89203533333333, "fusion_lat": 0.0}, {"is_disabled": 0, "rental_uris": {"android": "https://dc.lft.to/lastmile_qr_scan", "ios": "https://dc.lft.to/lastmile_qr_scan"}, "is_reserved": 0, "name": "60314275ce17847980d8b734be76b91e", "lon": -76.97995716666667, "type": "electric_scooter", "bike_id": "60314275ce17847980d8b734be76b91e", "fusion_lon": 0.0, "lat": 38.90683166666667, "fusion_lat": 0.0}, {"is_disabled": 0, "rental_uris": {"android": "https://dc.lft.to/lastmile_qr_scan", "ios": "https://dc.lft.to/lastmile_qr_scan"}, "is_reserved": 0, "name": "d7205956872a12bca024aeabbdb0a519", "lon": -77.0203035, "type": "electric_scooter", "bike_id": "d7205956872a12bca024aeabbdb0a519", "fusion_lon": 0.0, "lat": 38.883216166666664, "fusion_lat": 0.0}, {"is_disabled": 0, "rental_uris": {"android": "https://dc.lft.to/lastmile_qr_scan", "ios": "https://dc.lft.to/lastmile_qr_scan"}, "is_reserved": 0, "name": "4288435fe52025524536676bfe828993", "lon": -77.02415416666666, "type": "electric_scooter", "bike_id": "4288435fe52025524536676bfe828993", "fusion_lon": 0.0, "lat": 38.9096015, "fusion_lat": 0.0}, {"is_disabled": 0, "rental_uris": {"android": "https://dc.lft.to/lastmile_qr_scan", "ios": "https://dc.lft.to/lastmile_qr_scan"}, "is_reserved": 0, "name": "5d34b94a35769c64901613997eb42b74", "lon": -77.017586, "type": "electric_scooter", "bike_id": "5d34b94a35769c64901613997eb42b74", "fusion_lon": 0.0, "lat": 38.8832395, "fusion_lat": 0.0}, {"is_disabled": 0, "rental_uris": {"android": "https://dc.lft.to/lastmile_qr_scan", "ios": "https://dc.lft.to/lastmile_qr_scan"}, "is_reserved": 0, "name": "5394f9a9f032aa311564307aea7c47a9", "lon": -77.01887683333334, "type": "electric_scooter", "bike_id": "5394f9a9f032aa311564307aea7c47a9", "fusion_lon": 0.0, "lat": 38.91322866666667, "fusion_lat": 0.0}, {"is_disabled": 0, "rental_uris": {"android": "https://dc.lft.to/lastmile_qr_scan", "ios": "https://dc.lft.to/lastmile_qr_scan"}, "is_reserved": 0, "name": "cf981a3ce97717ba164dac0b377c4325", "lon": -77.01594766666666, "type": "electric_scooter", "bike_id": "cf981a3ce97717ba164dac0b377c4325", "fusion_lon": 0.0, "lat": 38.885063, "fusion_lat": 0.0}, {"is_disabled": 0, "rental_uris": {"android": "https://dc.lft.to/lastmile_qr_scan", "ios": "https://dc.lft.to/lastmile_qr_scan"}, "is_reserved": 0, "name": "1c4e71bba417cc29de08efbb0f6b3950", "lon": -77.04540733333333, "type": "electric_scooter", "bike_id": "1c4e71bba417cc29de08efbb0f6b3950", "fusion_lon": 0.0, "lat": 38.91943716666667, "fusion_lat": 0.0}, {"is_disabled": 0, "rental_uris": {"android": "https://dc.lft.to/lastmile_qr_scan", "ios": "https://dc.lft.to/lastmile_qr_scan"}, "is_reserved": 0, "name": "65550bb9af57f5730c82f8477928f25d", "lon": -77.04350433333333, "type": "electric_scooter", "bike_id": "65550bb9af57f5730c82f8477928f25d", "fusion_lon": 0.0, "lat": 38.9086955, "fusion_lat": 0.0}, {"is_disabled": 0, "rental_uris": {"android": "https://dc.lft.to/lastmile_qr_scan", "ios": "https://dc.lft.to/lastmile_qr_scan"}, "is_reserved": 0, "name": "4688f0db989cbedd15e35053bc5f2993", "lon": -77.03965416666666, "type": "electric_scooter", "bike_id": "4688f0db989cbedd15e35053bc5f2993", "fusion_lon": 0.0, "lat": 38.931565666666664, "fusion_lat": 0.0}, {"is_disabled": 0, "rental_uris": {"android": "https://dc.lft.to/lastmile_qr_scan", "ios": "https://dc.lft.to/lastmile_qr_scan"}, "is_reserved": 0, "name": "93e9b5f89b06929d9c3dc3ff9b2e58bd", "lon": -77.01589233333333, "type": "electric_scooter", "bike_id": "93e9b5f89b06929d9c3dc3ff9b2e58bd", "fusion_lon": 0.0, "lat": 38.87658166666667, "fusion_lat": 0.0}, {"is_disabled": 0, "rental_uris": {"android": "https://dc.lft.to/lastmile_qr_scan", "ios": "https://dc.lft.to/lastmile_qr_scan"}, "is_reserved": 0, "name": "fbbf84f47bc1edeaced15c11a3982bca", "lon": -77.05970766666667, "type": "electric_scooter", "bike_id": "fbbf84f47bc1edeaced15c11a3982bca", "fusion_lon": 0.0, "lat": 38.905186, "fusion_lat": 0.0}, {"is_disabled": 0, "rental_uris": {"android": "https://dc.lft.to/lastmile_qr_scan", "ios": "https://dc.lft.to/lastmile_qr_scan"}, "is_reserved": 0, "name": "0f48518c0a32ea12e3c4a1f6f0fd9b9b", "lon": -76.934124, "type": "electric_bike", "bike_id": "0f48518c0a32ea12e3c4a1f6f0fd9b9b", "fusion_lon": 0.0, "lat": 38.9462155, "fusion_lat": 0.0}, {"is_disabled": 0, "rental_uris": {"android": "https://dc.lft.to/lastmile_qr_scan", "ios": "https://dc.lft.to/lastmile_qr_scan"}, "is_reserved": 0, "name": "e0e03ffeb572b48ff427c0155c1a0f10", "lon": -77.03733783333334, "type": "electric_scooter", "bike_id": "e0e03ffeb572b48ff427c0155c1a0f10", "fusion_lon": 0.0, "lat": 38.909712999999996, "fusion_lat": 0.0}, {"is_disabled": 0, "rental_uris": {"android": "https://dc.lft.to/lastmile_qr_scan", "ios": "https://dc.lft.to/lastmile_qr_scan"}, "is_reserved": 0, "name": "415596ba3f27e32848a9a2784a7cf245", "lon": -77.028445, "type": "electric_scooter", "bike_id": "415596ba3f27e32848a9a2784a7cf245", "fusion_lon": 0.0, "lat": 38.934184333333334, "fusion_lat": 0.0}, {"is_disabled": 0, "rental_uris": {"android": "https://dc.lft.to/lastmile_qr_scan", "ios": "https://dc.lft.to/lastmile_qr_scan"}, "is_reserved": 0, "name": "7097bf8f20b2cfc97cf1ab2835dc4a91", "lon": -77.01260233333333, "type": "electric_scooter", "bike_id": "7097bf8f20b2cfc97cf1ab2835dc4a91", "fusion_lon": 0.0, "lat": 38.876311333333334, "fusion_lat": 0.0}, {"is_disabled": 0, "rental_uris": {"android": "https://dc.lft.to/lastmile_qr_scan", "ios": "https://dc.lft.to/lastmile_qr_scan"}, "is_reserved": 0, "name": "bf06c12e956ae954881a53b36ef0ded4", "lon": -77.02920766666666, "type": "electric_scooter", "bike_id": "bf06c12e956ae954881a53b36ef0ded4", "fusion_lon": 0.0, "lat": 38.938766333333334, "fusion_lat": 0.0}, {"is_disabled": 0, "rental_uris": {"android": "https://dc.lft.to/lastmile_qr_scan", "ios": "https://dc.lft.to/lastmile_qr_scan"}, "is_reserved": 0, "name": "e5ec26a2d5819fc21fcb855cc65671ea", "lon": -77.02125383333333, "type": "electric_scooter", "bike_id": "e5ec26a2d5819fc21fcb855cc65671ea", "fusion_lon": 0.0, "lat": 38.8874835, "fusion_lat": 0.0}, {"is_disabled": 0, "rental_uris": {"android": "https://dc.lft.to/lastmile_qr_scan", "ios": "https://dc.lft.to/lastmile_qr_scan"}, "is_reserved": 0, "name": "386a2af603b01d32ac6777928d354a51", "lon": -77.0350605, "type": "electric_scooter", "bike_id": "386a2af603b01d32ac6777928d354a51", "fusion_lon": 0.0, "lat": 38.935904, "fusion_lat": 0.0}, {"is_disabled": 0, "rental_uris": {"android": "https://dc.lft.to/lastmile_qr_scan", "ios": "https://dc.lft.to/lastmile_qr_scan"}, "is_reserved": 0, "name": "e2804cf429ba822751a512c9f4f4a318", "lon": -77.02983033333334, "type": "electric_scooter", "bike_id": "e2804cf429ba822751a512c9f4f4a318", "fusion_lon": 0.0, "lat": 38.90765866666667, "fusion_lat": 0.0}, {"is_disabled": 0, "rental_uris": {"android": "https://dc.lft.to/lastmile_qr_scan", "ios": "https://dc.lft.to/lastmile_qr_scan"}, "is_reserved": 0, "name": "462830bb1170118b855161ea99f47da2", "lon": -77.0313205, "type": "electric_bike", "bike_id": "462830bb1170118b855161ea99f47da2", "fusion_lon": 0.0, "lat": 38.962805333333336, "fusion_lat": 0.0}, {"is_disabled": 0, "rental_uris": {"android": "https://dc.lft.to/lastmile_qr_scan", "ios": "https://dc.lft.to/lastmile_qr_scan"}, "is_reserved": 0, "name": "69a4eb75d4bb17a61ee8e4eab7801445", "lon": -77.0323115, "type": "electric_scooter", "bike_id": "69a4eb75d4bb17a61ee8e4eab7801445", "fusion_lon": 0.0, "lat": 38.924911333333334, "fusion_lat": 0.0}, {"is_disabled": 0, "rental_uris": {"android": "https://dc.lft.to/lastmile_qr_scan", "ios": "https://dc.lft.to/lastmile_qr_scan"}, "is_reserved": 0, "name": "e2c713bbdb9d8441a8a611b2dcc3fd4f", "lon": -77.022241, "type": "electric_scooter", "bike_id": "e2c713bbdb9d8441a8a611b2dcc3fd4f", "fusion_lon": 0.0, "lat": 38.914152333333334, "fusion_lat": 0.0}, {"is_disabled": 0, "rental_uris": {"android": "https://dc.lft.to/lastmile_qr_scan", "ios": "https://dc.lft.to/lastmile_qr_scan"}, "is_reserved": 0, "name": "0e7844bdff076c5e2c21b6e107e8848b", "lon": -77.02257183333333, "type": "electric_scooter", "bike_id": "0e7844bdff076c5e2c21b6e107e8848b", "fusion_lon": 0.0, "lat": 38.92824183333333, "fusion_lat": 0.0}, {"is_disabled": 0, "rental_uris": {"android": "https://dc.lft.to/lastmile_qr_scan", "ios": "https://dc.lft.to/lastmile_qr_scan"}, "is_reserved": 0, "name": "d6bbd92214310935eada0d64b3428f7c", "lon": -77.036623, "type": "electric_scooter", "bike_id": "d6bbd92214310935eada0d64b3428f7c", "fusion_lon": 0.0, "lat": 38.921322, "fusion_lat": 0.0}, {"is_disabled": 0, "rental_uris": {"android": "https://dc.lft.to/lastmile_qr_scan", "ios": "https://dc.lft.to/lastmile_qr_scan"}, "is_reserved": 0, "name": "a3d1c50a3018dea47336a984923b512f", "lon": -77.03781216666667, "type": "electric_scooter", "bike_id": "a3d1c50a3018dea47336a984923b512f", "fusion_lon": 0.0, "lat": 38.93602516666667, "fusion_lat": 0.0}, {"is_disabled": 0, "rental_uris": {"android": "https://dc.lft.to/lastmile_qr_scan", "ios": "https://dc.lft.to/lastmile_qr_scan"}, "is_reserved": 0, "name": "ad25263f19592fd2ff835737986b30a8", "lon": -77.05290833333333, "type": "electric_scooter", "bike_id": "ad25263f19592fd2ff835737986b30a8", "fusion_lon": 0.0, "lat": 38.90338583333333, "fusion_lat": 0.0}, {"is_disabled": 0, "rental_uris": {"android": "https://dc.lft.to/lastmile_qr_scan", "ios": "https://dc.lft.to/lastmile_qr_scan"}, "is_reserved": 0, "name": "ff5f5520508babe4c5720e24d9f27710", "lon": -77.010165, "type": "electric_scooter", "bike_id": "ff5f5520508babe4c5720e24d9f27710", "fusion_lon": 0.0, "lat": 38.8671975, "fusion_lat": 0.0}, {"is_disabled": 0, "rental_uris": {"android": "https://dc.lft.to/lastmile_qr_scan", "ios": "https://dc.lft.to/lastmile_qr_scan"}, "is_reserved": 0, "name": "cf58acf9875fe3932c4bd2a70c8bfc61", "lon": -77.0305955, "type": "electric_scooter", "bike_id": "cf58acf9875fe3932c4bd2a70c8bfc61", "fusion_lon": 0.0, "lat": 38.9012425, "fusion_lat": 0.0}, {"is_disabled": 0, "rental_uris": {"android": "https://dc.lft.to/lastmile_qr_scan", "ios": "https://dc.lft.to/lastmile_qr_scan"}, "is_reserved": 0, "name": "92b59634946d45e6abe59800d4694562", "lon": -77.06104916666666, "type": "electric_scooter", "bike_id": "92b59634946d45e6abe59800d4694562", "fusion_lon": 0.0, "lat": 38.943654, "fusion_lat": 0.0}, {"is_disabled": 0, "rental_uris": {"android": "https://dc.lft.to/lastmile_qr_scan", "ios": "https://dc.lft.to/lastmile_qr_scan"}, "is_reserved": 0, "name": "f31e0b4b301ddaa4df8d1838a01729ce", "lon": -77.05137383333333, "type": "electric_scooter", "bike_id": "f31e0b4b301ddaa4df8d1838a01729ce", "fusion_lon": 0.0, "lat": 38.9070905, "fusion_lat": 0.0}, {"is_disabled": 0, "rental_uris": {"android": "https://dc.lft.to/lastmile_qr_scan", "ios": "https://dc.lft.to/lastmile_qr_scan"}, "is_reserved": 0, "name": "872a5bae01c6f4c5645370cdea4cc204", "lon": -76.96557833333334, "type": "electric_scooter", "bike_id": "872a5bae01c6f4c5645370cdea4cc204", "fusion_lon": 0.0, "lat": 38.918342, "fusion_lat": 0.0}, {"is_disabled": 0, "rental_uris": {"android": "https://dc.lft.to/lastmile_qr_scan", "ios": "https://dc.lft.to/lastmile_qr_scan"}, "is_reserved": 0, "name": "ec55f5ce327d00a905cdf75935014f5d", "lon": -77.01420216666666, "type": "electric_scooter", "bike_id": "ec55f5ce327d00a905cdf75935014f5d", "fusion_lon": 0.0, "lat": 38.928623333333334, "fusion_lat": 0.0}, {"is_disabled": 0, "rental_uris": {"android": "https://dc.lft.to/lastmile_qr_scan", "ios": "https://dc.lft.to/lastmile_qr_scan"}, "is_reserved": 0, "name": "a8800d42102ac62000ac230a841aaca6", "lon": -76.90970666666666, "type": "electric_bike", "bike_id": "a8800d42102ac62000ac230a841aaca6", "fusion_lon": 0.0, "lat": 38.8542525, "fusion_lat": 0.0}, {"is_disabled": 0, "rental_uris": {"android": "https://dc.lft.to/lastmile_qr_scan", "ios": "https://dc.lft.to/lastmile_qr_scan"}, "is_reserved": 0, "name": "238ee8fc8c5cc64851cb907556447a0f", "lon": -77.02189216666666, "type": "electric_scooter", "bike_id": "238ee8fc8c5cc64851cb907556447a0f", "fusion_lon": 0.0, "lat": 38.91122716666667, "fusion_lat": 0.0}, {"is_disabled": 0, "rental_uris": {"android": "https://dc.lft.to/lastmile_qr_scan", "ios": "https://dc.lft.to/lastmile_qr_scan"}, "is_reserved": 0, "name": "99f6ca5a22e79dd87faa395c0cf4debf", "lon": -76.94157166666666, "type": "electric_scooter", "bike_id": "99f6ca5a22e79dd87faa395c0cf4debf", "fusion_lon": 0.0, "lat": 38.88362433333333, "fusion_lat": 0.0}, {"is_disabled": 0, "rental_uris": {"android": "https://dc.lft.to/lastmile_qr_scan", "ios": "https://dc.lft.to/lastmile_qr_scan"}, "is_reserved": 0, "name": "a0d58fe2920434205274a52ec363bed7", "lon": -76.93741316666667, "type": "electric_scooter", "bike_id": "a0d58fe2920434205274a52ec363bed7", "fusion_lon": 0.0, "lat": 38.89016866666667, "fusion_lat": 0.0}, {"is_disabled": 0, "rental_uris": {"android": "https://dc.lft.to/lastmile_qr_scan", "ios": "https://dc.lft.to/lastmile_qr_scan"}, "is_reserved": 0, "name": "d3983d41e4aef5c427349246c4af957e", "lon": -77.05325416666666, "type": "electric_scooter", "bike_id": "d3983d41e4aef5c427349246c4af957e", "fusion_lon": 0.0, "lat": 38.90307516666667, "fusion_lat": 0.0}, {"is_disabled": 0, "rental_uris": {"android": "https://dc.lft.to/lastmile_qr_scan", "ios": "https://dc.lft.to/lastmile_qr_scan"}, "is_reserved": 0, "name": "2d2e02b7d682d2efc7561b2d3c64ee99", "lon": -77.01116, "type": "electric_scooter", "bike_id": "2d2e02b7d682d2efc7561b2d3c64ee99", "fusion_lon": 0.0, "lat": 38.903525333333334, "fusion_lat": 0.0}, {"is_disabled": 0, "rental_uris": {"android": "https://dc.lft.to/lastmile_qr_scan", "ios": "https://dc.lft.to/lastmile_qr_scan"}, "is_reserved": 0, "name": "8e10d690ec270571ba286317f353f8f9", "lon": -77.0242905, "type": "electric_scooter", "bike_id": "8e10d690ec270571ba286317f353f8f9", "fusion_lon": 0.0, "lat": 38.912507, "fusion_lat": 0.0}, {"is_disabled": 0, "rental_uris": {"android": "https://dc.lft.to/lastmile_qr_scan", "ios": "https://dc.lft.to/lastmile_qr_scan"}, "is_reserved": 0, "name": "45c8615cfdd54d7a07839339a8c9c501", "lon": -77.08529183333333, "type": "electric_bike", "bike_id": "45c8615cfdd54d7a07839339a8c9c501", "fusion_lon": 0.0, "lat": 38.856466833333336, "fusion_lat": 0.0}, {"is_disabled": 0, "rental_uris": {"android": "https://dc.lft.to/lastmile_qr_scan", "ios": "https://dc.lft.to/lastmile_qr_scan"}, "is_reserved": 0, "name": "fe62fc4ebcd9242156d25c462dd1acef", "lon": -77.0314915, "type": "electric_scooter", "bike_id": "fe62fc4ebcd9242156d25c462dd1acef", "fusion_lon": 0.0, "lat": 38.88748733333333, "fusion_lat": 0.0}, {"is_disabled": 0, "rental_uris": {"android": "https://dc.lft.to/lastmile_qr_scan", "ios": "https://dc.lft.to/lastmile_qr_scan"}, "is_reserved": 0, "name": "5a57dfb911dcb5d76112f004215d71ce", "lon": -77.00206033333333, "type": "electric_scooter", "bike_id": "5a57dfb911dcb5d76112f004215d71ce", "fusion_lon": 0.0, "lat": 38.9003565, "fusion_lat": 0.0}, {"is_disabled": 0, "rental_uris": {"android": "https://dc.lft.to/lastmile_qr_scan", "ios": "https://dc.lft.to/lastmile_qr_scan"}, "is_reserved": 0, "name": "65439a580fe26dae5e76cb68dc456afc", "lon": -77.02719733333333, "type": "electric_scooter", "bike_id": "65439a580fe26dae5e76cb68dc456afc", "fusion_lon": 0.0, "lat": 38.90853966666667, "fusion_lat": 0.0}, {"is_disabled": 0, "rental_uris": {"android": "https://dc.lft.to/lastmile_qr_scan", "ios": "https://dc.lft.to/lastmile_qr_scan"}, "is_reserved": 0, "name": "b769d825fe26ad07f93a118564262353", "lon": -77.04166083333334, "type": "electric_scooter", "bike_id": "b769d825fe26ad07f93a118564262353", "fusion_lon": 0.0, "lat": 38.91506233333333, "fusion_lat": 0.0}, {"is_disabled": 0, "rental_uris": {"android": "https://dc.lft.to/lastmile_qr_scan", "ios": "https://dc.lft.to/lastmile_qr_scan"}, "is_reserved": 0, "name": "9d740bcba316d2c3af4e9e8ebbee06ea", "lon": -77.0227355, "type": "electric_scooter", "bike_id": "9d740bcba316d2c3af4e9e8ebbee06ea", "fusion_lon": 0.0, "lat": 38.91272033333333, "fusion_lat": 0.0}, {"is_disabled": 0, "rental_uris": {"android": "https://dc.lft.to/lastmile_qr_scan", "ios": "https://dc.lft.to/lastmile_qr_scan"}, "is_reserved": 0, "name": "7bf6932e21f50b9ea8712c8d6f86d991", "lon": -77.03055283333333, "type": "electric_scooter", "bike_id": "7bf6932e21f50b9ea8712c8d6f86d991", "fusion_lon": 0.0, "lat": 38.899860833333335, "fusion_lat": 0.0}, {"is_disabled": 0, "rental_uris": {"android": "https://dc.lft.to/lastmile_qr_scan", "ios": "https://dc.lft.to/lastmile_qr_scan"}, "is_reserved": 0, "name": "0f17398b62c163bf89d05350b78358a2", "lon": -77.023715, "type": "electric_scooter", "bike_id": "0f17398b62c163bf89d05350b78358a2", "fusion_lon": 0.0, "lat": 38.9326035, "fusion_lat": 0.0}, {"is_disabled": 0, "rental_uris": {"android": "https://dc.lft.to/lastmile_qr_scan", "ios": "https://dc.lft.to/lastmile_qr_scan"}, "is_reserved": 0, "name": "bafbe93964993863b7c743518817bcda", "lon": -77.02986433333334, "type": "electric_scooter", "bike_id": "bafbe93964993863b7c743518817bcda", "fusion_lon": 0.0, "lat": 38.90712533333333, "fusion_lat": 0.0}, {"is_disabled": 0, "rental_uris": {"android": "https://dc.lft.to/lastmile_qr_scan", "ios": "https://dc.lft.to/lastmile_qr_scan"}, "is_reserved": 0, "name": "987ee0161d5a364dafb3137b81028d71", "lon": -76.98330466666667, "type": "electric_bike", "bike_id": "987ee0161d5a364dafb3137b81028d71", "fusion_lon": 0.0, "lat": 38.96603616666667, "fusion_lat": 0.0}, {"is_disabled": 0, "rental_uris": {"android": "https://dc.lft.to/lastmile_qr_scan", "ios": "https://dc.lft.to/lastmile_qr_scan"}, "is_reserved": 0, "name": "9ad1a7769cce4584dce874986e2d30b4", "lon": -77.00918533333333, "type": "electric_scooter", "bike_id": "9ad1a7769cce4584dce874986e2d30b4", "fusion_lon": 0.0, "lat": 38.89555933333333, "fusion_lat": 0.0}, {"is_disabled": 0, "rental_uris": {"android": "https://dc.lft.to/lastmile_qr_scan", "ios": "https://dc.lft.to/lastmile_qr_scan"}, "is_reserved": 0, "name": "8353451d2a1ce13374d251efcf4031be", "lon": -76.9338395, "type": "electric_scooter", "bike_id": "8353451d2a1ce13374d251efcf4031be", "fusion_lon": 0.0, "lat": 38.89918, "fusion_lat": 0.0}, {"is_disabled": 0, "rental_uris": {"android": "https://dc.lft.to/lastmile_qr_scan", "ios": "https://dc.lft.to/lastmile_qr_scan"}, "is_reserved": 0, "name": "d6ff535fdfa0b93577a8fbbfbbd63966", "lon": -76.96526833333333, "type": "electric_scooter", "bike_id": "d6ff535fdfa0b93577a8fbbfbbd63966", "fusion_lon": 0.0, "lat": 38.87626083333333, "fusion_lat": 0.0}, {"is_disabled": 0, "rental_uris": {"android": "https://dc.lft.to/lastmile_qr_scan", "ios": "https://dc.lft.to/lastmile_qr_scan"}, "is_reserved": 0, "name": "480f39ebd8bd300ed89d221a80870f6e", "lon": -77.02501416666667, "type": "electric_scooter", "bike_id": "480f39ebd8bd300ed89d221a80870f6e", "fusion_lon": 0.0, "lat": 38.919378, "fusion_lat": 0.0}, {"is_disabled": 0, "rental_uris": {"android": "https://dc.lft.to/lastmile_qr_scan", "ios": "https://dc.lft.to/lastmile_qr_scan"}, "is_reserved": 0, "name": "9cbd5339780aeb0e0086f3bd3a205762", "lon": -77.03197366666667, "type": "electric_bike", "bike_id": "9cbd5339780aeb0e0086f3bd3a205762", "fusion_lon": 0.0, "lat": 38.91996666666667, "fusion_lat": 0.0}, {"is_disabled": 0, "rental_uris": {"android": "https://dc.lft.to/lastmile_qr_scan", "ios": "https://dc.lft.to/lastmile_qr_scan"}, "is_reserved": 0, "name": "c00e386ebe0e571c8dc1a713e519f4ad", "lon": -76.99003333333333, "type": "electric_scooter", "bike_id": "c00e386ebe0e571c8dc1a713e519f4ad", "fusion_lon": 0.0, "lat": 38.8650565, "fusion_lat": 0.0}, {"is_disabled": 0, "rental_uris": {"android": "https://dc.lft.to/lastmile_qr_scan", "ios": "https://dc.lft.to/lastmile_qr_scan"}, "is_reserved": 0, "name": "8710b720e686b47b409b8511947c3631", "lon": -77.028498, "type": "electric_scooter", "bike_id": "8710b720e686b47b409b8511947c3631", "fusion_lon": 0.0, "lat": 38.92244133333333, "fusion_lat": 0.0}, {"is_disabled": 0, "rental_uris": {"android": "https://dc.lft.to/lastmile_qr_scan", "ios": "https://dc.lft.to/lastmile_qr_scan"}, "is_reserved": 0, "name": "30016d54c70eff830ee382456b003196", "lon": -77.01256733333334, "type": "electric_scooter", "bike_id": "30016d54c70eff830ee382456b003196", "fusion_lon": 0.0, "lat": 38.9084425, "fusion_lat": 0.0}, {"is_disabled": 0, "rental_uris": {"android": "https://dc.lft.to/lastmile_qr_scan", "ios": "https://dc.lft.to/lastmile_qr_scan"}, "is_reserved": 0, "name": "f3a930d2f7da62bb622dc3f7c278b5a5", "lon": -76.99515066666666, "type": "electric_scooter", "bike_id": "f3a930d2f7da62bb622dc3f7c278b5a5", "fusion_lon": 0.0, "lat": 38.8948325, "fusion_lat": 0.0}, {"is_disabled": 0, "rental_uris": {"android": "https://dc.lft.to/lastmile_qr_scan", "ios": "https://dc.lft.to/lastmile_qr_scan"}, "is_reserved": 0, "name": "5f8b71b0120cae13f5b422041bdc92a0", "lon": -77.047887, "type": "electric_scooter", "bike_id": "5f8b71b0120cae13f5b422041bdc92a0", "fusion_lon": 0.0, "lat": 38.89972433333333, "fusion_lat": 0.0}, {"is_disabled": 0, "rental_uris": {"android": "https://dc.lft.to/lastmile_qr_scan", "ios": "https://dc.lft.to/lastmile_qr_scan"}, "is_reserved": 0, "name": "6c7bb54532facf0e36103a156fdf283b", "lon": -76.99417, "type": "electric_scooter", "bike_id": "6c7bb54532facf0e36103a156fdf283b", "fusion_lon": 0.0, "lat": 38.89484233333334, "fusion_lat": 0.0}, {"is_disabled": 0, "rental_uris": {"android": "https://dc.lft.to/lastmile_qr_scan", "ios": "https://dc.lft.to/lastmile_qr_scan"}, "is_reserved": 0, "name": "7743da773900117e48d49c6bdcac989d", "lon": -77.0322295, "type": "electric_scooter", "bike_id": "7743da773900117e48d49c6bdcac989d", "fusion_lon": 0.0, "lat": 38.900231833333336, "fusion_lat": 0.0}, {"is_disabled": 0, "rental_uris": {"android": "https://dc.lft.to/lastmile_qr_scan", "ios": "https://dc.lft.to/lastmile_qr_scan"}, "is_reserved": 0, "name": "32f40548c4313a85670446099a5d9668", "lon": -77.01190266666667, "type": "electric_scooter", "bike_id": "32f40548c4313a85670446099a5d9668", "fusion_lon": 0.0, "lat": 38.9002515, "fusion_lat": 0.0}, {"is_disabled": 0, "rental_uris": {"android": "https://dc.lft.to/lastmile_qr_scan", "ios": "https://dc.lft.to/lastmile_qr_scan"}, "is_reserved": 0, "name": "31ba98ecd104e2631ad2d2879b5952b7", "lon": -77.02224066666666, "type": "electric_scooter", "bike_id": "31ba98ecd104e2631ad2d2879b5952b7", "fusion_lon": 0.0, "lat": 38.89221466666667, "fusion_lat": 0.0}, {"is_disabled": 0, "rental_uris": {"android": "https://dc.lft.to/lastmile_qr_scan", "ios": "https://dc.lft.to/lastmile_qr_scan"}, "is_reserved": 0, "name": "3e640e4b12cc57f6dee46006bbef3f16", "lon": -77.0101565, "type": "electric_scooter", "bike_id": "3e640e4b12cc57f6dee46006bbef3f16", "fusion_lon": 0.0, "lat": 38.879658666666664, "fusion_lat": 0.0}, {"is_disabled": 0, "rental_uris": {"android": "https://dc.lft.to/lastmile_qr_scan", "ios": "https://dc.lft.to/lastmile_qr_scan"}, "is_reserved": 0, "name": "312aa092b8c42935474fc31bbaf1c41f", "lon": -76.99056233333333, "type": "electric_scooter", "bike_id": "312aa092b8c42935474fc31bbaf1c41f", "fusion_lon": 0.0, "lat": 38.863565, "fusion_lat": 0.0}, {"is_disabled": 0, "rental_uris": {"android": "https://dc.lft.to/lastmile_qr_scan", "ios": "https://dc.lft.to/lastmile_qr_scan"}, "is_reserved": 0, "name": "e27c1ce48a975c5ba7b63c6b5ffb5ba8", "lon": -77.00577333333334, "type": "electric_scooter", "bike_id": "e27c1ce48a975c5ba7b63c6b5ffb5ba8", "fusion_lon": 0.0, "lat": 38.928144833333334, "fusion_lat": 0.0}, {"is_disabled": 0, "rental_uris": {"android": "https://dc.lft.to/lastmile_qr_scan", "ios": "https://dc.lft.to/lastmile_qr_scan"}, "is_reserved": 0, "name": "31884207fbc26eb9241f553228c0e200", "lon": -77.05257733333333, "type": "electric_scooter", "bike_id": "31884207fbc26eb9241f553228c0e200", "fusion_lon": 0.0, "lat": 38.927305, "fusion_lat": 0.0}, {"is_disabled": 0, "rental_uris": {"android": "https://dc.lft.to/lastmile_qr_scan", "ios": "https://dc.lft.to/lastmile_qr_scan"}, "is_reserved": 0, "name": "0b401af0087a473b88d9ec4e235a4ced", "lon": -77.05293016666667, "type": "electric_scooter", "bike_id": "0b401af0087a473b88d9ec4e235a4ced", "fusion_lon": 0.0, "lat": 38.903351, "fusion_lat": 0.0}, {"is_disabled": 0, "rental_uris": {"android": "https://dc.lft.to/lastmile_qr_scan", "ios": "https://dc.lft.to/lastmile_qr_scan"}, "is_reserved": 0, "name": "94822dda09414dd8a80ed1c6b155af06", "lon": -77.02261683333333, "type": "electric_scooter", "bike_id": "94822dda09414dd8a80ed1c6b155af06", "fusion_lon": 0.0, "lat": 38.927375166666664, "fusion_lat": 0.0}, {"is_disabled": 0, "rental_uris": {"android": "https://dc.lft.to/lastmile_qr_scan", "ios": "https://dc.lft.to/lastmile_qr_scan"}, "is_reserved": 0, "name": "ff991175614138ec293624ac754ee250", "lon": -77.01658683333333, "type": "electric_bike", "bike_id": "ff991175614138ec293624ac754ee250", "fusion_lon": 0.0, "lat": 38.95430183333333, "fusion_lat": 0.0}, {"is_disabled": 0, "rental_uris": {"android": "https://dc.lft.to/lastmile_qr_scan", "ios": "https://dc.lft.to/lastmile_qr_scan"}, "is_reserved": 0, "name": "13d0d55129005547a780000a9b984f34", "lon": -77.03265033333334, "type": "electric_scooter", "bike_id": "13d0d55129005547a780000a9b984f34", "fusion_lon": 0.0, "lat": 38.933311833333335, "fusion_lat": 0.0}, {"is_disabled": 0, "rental_uris": {"android": "https://dc.lft.to/lastmile_qr_scan", "ios": "https://dc.lft.to/lastmile_qr_scan"}, "is_reserved": 0, "name": "7e55739ea38a2f54efaded6f663976e4", "lon": -76.987106, "type": "electric_scooter", "bike_id": "7e55739ea38a2f54efaded6f663976e4", "fusion_lon": 0.0, "lat": 38.866976, "fusion_lat": 0.0}, {"is_disabled": 0, "rental_uris": {"android": "https://dc.lft.to/lastmile_qr_scan", "ios": "https://dc.lft.to/lastmile_qr_scan"}, "is_reserved": 0, "name": "0571dbcc962b9a3f7c1f8ec36dd32e5c", "lon": -77.00602616666667, "type": "electric_scooter", "bike_id": "0571dbcc962b9a3f7c1f8ec36dd32e5c", "fusion_lon": 0.0, "lat": 38.905824833333334, "fusion_lat": 0.0}, {"is_disabled": 0, "rental_uris": {"android": "https://dc.lft.to/lastmile_qr_scan", "ios": "https://dc.lft.to/lastmile_qr_scan"}, "is_reserved": 0, "name": "d7e6858e3887a947adbcf5a84477f492", "lon": -77.00917333333334, "type": "electric_scooter", "bike_id": "d7e6858e3887a947adbcf5a84477f492", "fusion_lon": 0.0, "lat": 38.89775, "fusion_lat": 0.0}, {"is_disabled": 0, "rental_uris": {"android": "https://dc.lft.to/lastmile_qr_scan", "ios": "https://dc.lft.to/lastmile_qr_scan"}, "is_reserved": 0, "name": "f1c281a231e7683f3758a57bb1ebe4d4", "lon": -77.02691366666667, "type": "electric_scooter", "bike_id": "f1c281a231e7683f3758a57bb1ebe4d4", "fusion_lon": 0.0, "lat": 38.9073585, "fusion_lat": 0.0}, {"is_disabled": 0, "rental_uris": {"android": "https://dc.lft.to/lastmile_qr_scan", "ios": "https://dc.lft.to/lastmile_qr_scan"}, "is_reserved": 0, "name": "57de9889c74218896035b66ef0070501", "lon": -77.04200266666666, "type": "electric_scooter", "bike_id": "57de9889c74218896035b66ef0070501", "fusion_lon": 0.0, "lat": 38.92968283333333, "fusion_lat": 0.0}, {"is_disabled": 0, "rental_uris": {"android": "https://dc.lft.to/lastmile_qr_scan", "ios": "https://dc.lft.to/lastmile_qr_scan"}, "is_reserved": 0, "name": "edb11c09c3772e258b685f9fc10fa461", "lon": -77.04174816666666, "type": "electric_scooter", "bike_id": "edb11c09c3772e258b685f9fc10fa461", "fusion_lon": 0.0, "lat": 38.910263, "fusion_lat": 0.0}, {"is_disabled": 0, "rental_uris": {"android": "https://dc.lft.to/lastmile_qr_scan", "ios": "https://dc.lft.to/lastmile_qr_scan"}, "is_reserved": 0, "name": "ea4a3e1a532e006d0d76f00e582d2bc3", "lon": -77.034454, "type": "electric_scooter", "bike_id": "ea4a3e1a532e006d0d76f00e582d2bc3", "fusion_lon": 0.0, "lat": 38.91495616666667, "fusion_lat": 0.0}, {"is_disabled": 0, "rental_uris": {"android": "https://dc.lft.to/lastmile_qr_scan", "ios": "https://dc.lft.to/lastmile_qr_scan"}, "is_reserved": 0, "name": "fac99f943b783d966f8daa1251b81d8a", "lon": -76.90816383333333, "type": "electric_bike", "bike_id": "fac99f943b783d966f8daa1251b81d8a", "fusion_lon": 0.0, "lat": 38.99453883333334, "fusion_lat": 0.0}, {"is_disabled": 0, "rental_uris": {"android": "https://dc.lft.to/lastmile_qr_scan", "ios": "https://dc.lft.to/lastmile_qr_scan"}, "is_reserved": 0, "name": "dbfaf0ea0811023d2d75b05a1b3cf915", "lon": -76.979014, "type": "electric_bike", "bike_id": "dbfaf0ea0811023d2d75b05a1b3cf915", "fusion_lon": 0.0, "lat": 38.8549085, "fusion_lat": 0.0}, {"is_disabled": 0, "rental_uris": {"android": "https://dc.lft.to/lastmile_qr_scan", "ios": "https://dc.lft.to/lastmile_qr_scan"}, "is_reserved": 0, "name": "92dcfa2c739beee94c79f38ac9dfde62", "lon": -77.040225, "type": "electric_scooter", "bike_id": "92dcfa2c739beee94c79f38ac9dfde62", "fusion_lon": 0.0, "lat": 38.924145, "fusion_lat": 0.0}, {"is_disabled": 0, "rental_uris": {"android": "https://dc.lft.to/lastmile_qr_scan", "ios": "https://dc.lft.to/lastmile_qr_scan"}, "is_reserved": 0, "name": "2449319f94efcc36ba7726eaae134d8c", "lon": -77.00334766666667, "type": "electric_scooter", "bike_id": "2449319f94efcc36ba7726eaae134d8c", "fusion_lon": 0.0, "lat": 38.883153166666666, "fusion_lat": 0.0}, {"is_disabled": 0, "rental_uris": {"android": "https://dc.lft.to/lastmile_qr_scan", "ios": "https://dc.lft.to/lastmile_qr_scan"}, "is_reserved": 0, "name": "6c9d5df5e379ffcbd5665b867ebd788e", "lon": -77.03743066666667, "type": "electric_scooter", "bike_id": "6c9d5df5e379ffcbd5665b867ebd788e", "fusion_lon": 0.0, "lat": 38.911917333333335, "fusion_lat": 0.0}, {"is_disabled": 0, "rental_uris": {"android": "https://dc.lft.to/lastmile_qr_scan", "ios": "https://dc.lft.to/lastmile_qr_scan"}, "is_reserved": 0, "name": "796cc3aeeba33be55a6487f71f3025ac", "lon": -77.03643616666666, "type": "electric_scooter", "bike_id": "796cc3aeeba33be55a6487f71f3025ac", "fusion_lon": 0.0, "lat": 38.902953, "fusion_lat": 0.0}, {"is_disabled": 0, "rental_uris": {"android": "https://dc.lft.to/lastmile_qr_scan", "ios": "https://dc.lft.to/lastmile_qr_scan"}, "is_reserved": 0, "name": "36c9cc59e0887416853700b285bb057d", "lon": -77.0163465, "type": "electric_scooter", "bike_id": "36c9cc59e0887416853700b285bb057d", "fusion_lon": 0.0, "lat": 38.88322816666667, "fusion_lat": 0.0}, {"is_disabled": 0, "rental_uris": {"android": "https://dc.lft.to/lastmile_qr_scan", "ios": "https://dc.lft.to/lastmile_qr_scan"}, "is_reserved": 0, "name": "74d9c4a08ec19fa912a097746a7d81e1", "lon": -77.02698333333333, "type": "electric_scooter", "bike_id": "74d9c4a08ec19fa912a097746a7d81e1", "fusion_lon": 0.0, "lat": 38.89989416666667, "fusion_lat": 0.0}, {"is_disabled": 0, "rental_uris": {"android": "https://dc.lft.to/lastmile_qr_scan", "ios": "https://dc.lft.to/lastmile_qr_scan"}, "is_reserved": 0, "name": "4de3f1890a0aefee97d8cb4a8998c520", "lon": -77.032117, "type": "electric_scooter", "bike_id": "4de3f1890a0aefee97d8cb4a8998c520", "fusion_lon": 0.0, "lat": 38.92001883333333, "fusion_lat": 0.0}, {"is_disabled": 0, "rental_uris": {"android": "https://dc.lft.to/lastmile_qr_scan", "ios": "https://dc.lft.to/lastmile_qr_scan"}, "is_reserved": 0, "name": "18cc928c9ef7d50b1b429bc4fce8cfa4", "lon": -77.00767883333333, "type": "electric_scooter", "bike_id": "18cc928c9ef7d50b1b429bc4fce8cfa4", "fusion_lon": 0.0, "lat": 38.87114783333333, "fusion_lat": 0.0}, {"is_disabled": 0, "rental_uris": {"android": "https://dc.lft.to/lastmile_qr_scan", "ios": "https://dc.lft.to/lastmile_qr_scan"}, "is_reserved": 0, "name": "26265567f4b9cef092311f4dfeb63670", "lon": -76.99533266666667, "type": "electric_scooter", "bike_id": "26265567f4b9cef092311f4dfeb63670", "fusion_lon": 0.0, "lat": 38.86250966666667, "fusion_lat": 0.0}, {"is_disabled": 0, "rental_uris": {"android": "https://dc.lft.to/lastmile_qr_scan", "ios": "https://dc.lft.to/lastmile_qr_scan"}, "is_reserved": 0, "name": "a2cb6f4d82d4c678ef7300e57a8c447c", "lon": -76.98334433333333, "type": "electric_scooter", "bike_id": "a2cb6f4d82d4c678ef7300e57a8c447c", "fusion_lon": 0.0, "lat": 38.9127385, "fusion_lat": 0.0}, {"is_disabled": 0, "rental_uris": {"android": "https://dc.lft.to/lastmile_qr_scan", "ios": "https://dc.lft.to/lastmile_qr_scan"}, "is_reserved": 0, "name": "040a450ca1746bdfc018d8394fde51fa", "lon": -76.91595133333334, "type": "electric_bike", "bike_id": "040a450ca1746bdfc018d8394fde51fa", "fusion_lon": 0.0, "lat": 38.880101333333336, "fusion_lat": 0.0}, {"is_disabled": 0, "rental_uris": {"android": "https://dc.lft.to/lastmile_qr_scan", "ios": "https://dc.lft.to/lastmile_qr_scan"}, "is_reserved": 0, "name": "df7979ff030e97991ecab05eaa2c8332", "lon": -77.050968, "type": "electric_scooter", "bike_id": "df7979ff030e97991ecab05eaa2c8332", "fusion_lon": 0.0, "lat": 38.923395166666666, "fusion_lat": 0.0}, {"is_disabled": 0, "rental_uris": {"android": "https://dc.lft.to/lastmile_qr_scan", "ios": "https://dc.lft.to/lastmile_qr_scan"}, "is_reserved": 0, "name": "2ee5f5bd51fad04f48e6a1a36c163f03", "lon": -76.948948, "type": "electric_scooter", "bike_id": "2ee5f5bd51fad04f48e6a1a36c163f03", "fusion_lon": 0.0, "lat": 38.89527833333333, "fusion_lat": 0.0}, {"is_disabled": 0, "rental_uris": {"android": "https://dc.lft.to/lastmile_qr_scan", "ios": "https://dc.lft.to/lastmile_qr_scan"}, "is_reserved": 0, "name": "b7a9ad2b79a109a80ab77fcbcc4e8b41", "lon": -77.01937783333334, "type": "electric_scooter", "bike_id": "b7a9ad2b79a109a80ab77fcbcc4e8b41", "fusion_lon": 0.0, "lat": 38.946955833333334, "fusion_lat": 0.0}, {"is_disabled": 0, "rental_uris": {"android": "https://dc.lft.to/lastmile_qr_scan", "ios": "https://dc.lft.to/lastmile_qr_scan"}, "is_reserved": 0, "name": "66d1e26ff608b2f67e123050813c2d4b", "lon": -77.02932033333333, "type": "electric_scooter", "bike_id": "66d1e26ff608b2f67e123050813c2d4b", "fusion_lon": 0.0, "lat": 38.93753, "fusion_lat": 0.0}, {"is_disabled": 0, "rental_uris": {"android": "https://dc.lft.to/lastmile_qr_scan", "ios": "https://dc.lft.to/lastmile_qr_scan"}, "is_reserved": 0, "name": "5910cd51cf970ea31cad48b1da7810ad", "lon": -77.014019, "type": "electric_scooter", "bike_id": "5910cd51cf970ea31cad48b1da7810ad", "fusion_lon": 0.0, "lat": 38.928542, "fusion_lat": 0.0}, {"is_disabled": 0, "rental_uris": {"android": "https://dc.lft.to/lastmile_qr_scan", "ios": "https://dc.lft.to/lastmile_qr_scan"}, "is_reserved": 0, "name": "6880d3a18ac774bedf5813b9f0cc0f31", "lon": -77.00928733333333, "type": "electric_scooter", "bike_id": "6880d3a18ac774bedf5813b9f0cc0f31", "fusion_lon": 0.0, "lat": 38.8960205, "fusion_lat": 0.0}, {"is_disabled": 0, "rental_uris": {"android": "https://dc.lft.to/lastmile_qr_scan", "ios": "https://dc.lft.to/lastmile_qr_scan"}, "is_reserved": 0, "name": "773b94ce063a58b2f8a6918b3f0b533c", "lon": -77.02088616666667, "type": "electric_scooter", "bike_id": "773b94ce063a58b2f8a6918b3f0b533c", "fusion_lon": 0.0, "lat": 38.93013583333333, "fusion_lat": 0.0}, {"is_disabled": 0, "rental_uris": {"android": "https://dc.lft.to/lastmile_qr_scan", "ios": "https://dc.lft.to/lastmile_qr_scan"}, "is_reserved": 0, "name": "ebf08db8139ca16849024f43645ac6f7", "lon": -76.97169233333334, "type": "electric_bike", "bike_id": "ebf08db8139ca16849024f43645ac6f7", "fusion_lon": 0.0, "lat": 38.9767785, "fusion_lat": 0.0}, {"is_disabled": 0, "rental_uris": {"android": "https://dc.lft.to/lastmile_qr_scan", "ios": "https://dc.lft.to/lastmile_qr_scan"}, "is_reserved": 0, "name": "e020c3889f049cd848ba47e7e6d041dc", "lon": -77.002092, "type": "electric_scooter", "bike_id": "e020c3889f049cd848ba47e7e6d041dc", "fusion_lon": 0.0, "lat": 38.90055133333333, "fusion_lat": 0.0}, {"is_disabled": 0, "rental_uris": {"android": "https://dc.lft.to/lastmile_qr_scan", "ios": "https://dc.lft.to/lastmile_qr_scan"}, "is_reserved": 0, "name": "44d5d0f19983569251a226afff8f2200", "lon": -77.05417983333334, "type": "electric_scooter", "bike_id": "44d5d0f19983569251a226afff8f2200", "fusion_lon": 0.0, "lat": 38.899205333333335, "fusion_lat": 0.0}, {"is_disabled": 0, "rental_uris": {"android": "https://dc.lft.to/lastmile_qr_scan", "ios": "https://dc.lft.to/lastmile_qr_scan"}, "is_reserved": 0, "name": "2fa0396de59788d55d504196bcb196de", "lon": -77.0516645, "type": "electric_scooter", "bike_id": "2fa0396de59788d55d504196bcb196de", "fusion_lon": 0.0, "lat": 38.905765833333334, "fusion_lat": 0.0}, {"is_disabled": 0, "rental_uris": {"android": "https://dc.lft.to/lastmile_qr_scan", "ios": "https://dc.lft.to/lastmile_qr_scan"}, "is_reserved": 0, "name": "e80a66abb13fb4639b0b4d85181d0b13", "lon": -77.00729616666666, "type": "electric_bike", "bike_id": "e80a66abb13fb4639b0b4d85181d0b13", "fusion_lon": 0.0, "lat": 38.904684833333334, "fusion_lat": 0.0}, {"is_disabled": 0, "rental_uris": {"android": "https://dc.lft.to/lastmile_qr_scan", "ios": "https://dc.lft.to/lastmile_qr_scan"}, "is_reserved": 0, "name": "fc41a333585ca6221a0d81fa6700c89e", "lon": -77.00836783333334, "type": "electric_scooter", "bike_id": "fc41a333585ca6221a0d81fa6700c89e", "fusion_lon": 0.0, "lat": 38.912529166666666, "fusion_lat": 0.0}, {"is_disabled": 0, "rental_uris": {"android": "https://dc.lft.to/lastmile_qr_scan", "ios": "https://dc.lft.to/lastmile_qr_scan"}, "is_reserved": 0, "name": "91045968b865bbe0f5a6560fd28f17d9", "lon": -76.95222616666666, "type": "electric_bike", "bike_id": "91045968b865bbe0f5a6560fd28f17d9", "fusion_lon": 0.0, "lat": 38.89237633333333, "fusion_lat": 0.0}, {"is_disabled": 0, "rental_uris": {"android": "https://dc.lft.to/lastmile_qr_scan", "ios": "https://dc.lft.to/lastmile_qr_scan"}, "is_reserved": 0, "name": "09e1d74d940593aa580e950e7b497a4b", "lon": -77.01087083333333, "type": "electric_scooter", "bike_id": "09e1d74d940593aa580e950e7b497a4b", "fusion_lon": 0.0, "lat": 38.91819483333333, "fusion_lat": 0.0}, {"is_disabled": 0, "rental_uris": {"android": "https://dc.lft.to/lastmile_qr_scan", "ios": "https://dc.lft.to/lastmile_qr_scan"}, "is_reserved": 0, "name": "68f132d6e6921239d495e63e6db2f0d0", "lon": -77.03659016666667, "type": "electric_scooter", "bike_id": "68f132d6e6921239d495e63e6db2f0d0", "fusion_lon": 0.0, "lat": 38.917125, "fusion_lat": 0.0}, {"is_disabled": 0, "rental_uris": {"android": "https://dc.lft.to/lastmile_qr_scan", "ios": "https://dc.lft.to/lastmile_qr_scan"}, "is_reserved": 0, "name": "1f73294de3e1e70623140a1b6a9adc85", "lon": -76.8890815, "type": "electric_bike", "bike_id": "1f73294de3e1e70623140a1b6a9adc85", "fusion_lon": 0.0, "lat": 38.9259225, "fusion_lat": 0.0}, {"is_disabled": 0, "rental_uris": {"android": "https://dc.lft.to/lastmile_qr_scan", "ios": "https://dc.lft.to/lastmile_qr_scan"}, "is_reserved": 0, "name": "80a4a2fca7bed82a0a0aa5eee3715b7c", "lon": -77.02405383333334, "type": "electric_scooter", "bike_id": "80a4a2fca7bed82a0a0aa5eee3715b7c", "fusion_lon": 0.0, "lat": 38.931048833333335, "fusion_lat": 0.0}, {"is_disabled": 0, "rental_uris": {"android": "https://dc.lft.to/lastmile_qr_scan", "ios": "https://dc.lft.to/lastmile_qr_scan"}, "is_reserved": 0, "name": "db264670d97176d475544777c90bb963", "lon": -77.01026233333333, "type": "electric_scooter", "bike_id": "db264670d97176d475544777c90bb963", "fusion_lon": 0.0, "lat": 38.90615783333333, "fusion_lat": 0.0}, {"is_disabled": 0, "rental_uris": {"android": "https://dc.lft.to/lastmile_qr_scan", "ios": "https://dc.lft.to/lastmile_qr_scan"}, "is_reserved": 0, "name": "13bcf04ab54c0f532a9ed5789ae70abf", "lon": -77.023481, "type": "electric_scooter", "bike_id": "13bcf04ab54c0f532a9ed5789ae70abf", "fusion_lon": 0.0, "lat": 38.922640333333334, "fusion_lat": 0.0}, {"is_disabled": 0, "rental_uris": {"android": "https://dc.lft.to/lastmile_qr_scan", "ios": "https://dc.lft.to/lastmile_qr_scan"}, "is_reserved": 0, "name": "d1dcae69676820e68955208784c2ad80", "lon": -77.0281565, "type": "electric_scooter", "bike_id": "d1dcae69676820e68955208784c2ad80", "fusion_lon": 0.0, "lat": 38.93170333333333, "fusion_lat": 0.0}, {"is_disabled": 0, "rental_uris": {"android": "https://dc.lft.to/lastmile_qr_scan", "ios": "https://dc.lft.to/lastmile_qr_scan"}, "is_reserved": 0, "name": "b3071e7b468ea7013828779614653b44", "lon": -77.04350183333334, "type": "electric_scooter", "bike_id": "b3071e7b468ea7013828779614653b44", "fusion_lon": 0.0, "lat": 38.8983465, "fusion_lat": 0.0}, {"is_disabled": 0, "rental_uris": {"android": "https://dc.lft.to/lastmile_qr_scan", "ios": "https://dc.lft.to/lastmile_qr_scan"}, "is_reserved": 0, "name": "f196ed5c316667a908e93c38ebe9e789", "lon": -76.98724283333334, "type": "electric_scooter", "bike_id": "f196ed5c316667a908e93c38ebe9e789", "fusion_lon": 0.0, "lat": 38.8671405, "fusion_lat": 0.0}, {"is_disabled": 0, "rental_uris": {"android": "https://dc.lft.to/lastmile_qr_scan", "ios": "https://dc.lft.to/lastmile_qr_scan"}, "is_reserved": 0, "name": "3147cd2faba9ade3ed52082f0ca9bd38", "lon": -77.00120033333333, "type": "electric_scooter", "bike_id": "3147cd2faba9ade3ed52082f0ca9bd38", "fusion_lon": 0.0, "lat": 38.91244716666667, "fusion_lat": 0.0}, {"is_disabled": 0, "rental_uris": {"android": "https://dc.lft.to/lastmile_qr_scan", "ios": "https://dc.lft.to/lastmile_qr_scan"}, "is_reserved": 0, "name": "50663703e9e29d9d7154bda839a33120", "lon": -77.047562, "type": "electric_scooter", "bike_id": "50663703e9e29d9d7154bda839a33120", "fusion_lon": 0.0, "lat": 38.90720866666667, "fusion_lat": 0.0}, {"is_disabled": 0, "rental_uris": {"android": "https://dc.lft.to/lastmile_qr_scan", "ios": "https://dc.lft.to/lastmile_qr_scan"}, "is_reserved": 0, "name": "b0cf1321c6359875768ae3155e910179", "lon": -76.9520625, "type": "electric_bike", "bike_id": "b0cf1321c6359875768ae3155e910179", "fusion_lon": 0.0, "lat": 38.936735166666665, "fusion_lat": 0.0}, {"is_disabled": 0, "rental_uris": {"android": "https://dc.lft.to/lastmile_qr_scan", "ios": "https://dc.lft.to/lastmile_qr_scan"}, "is_reserved": 0, "name": "73226042e33920c33aa4909815f276c3", "lon": -77.0079315, "type": "electric_scooter", "bike_id": "73226042e33920c33aa4909815f276c3", "fusion_lon": 0.0, "lat": 38.907422333333336, "fusion_lat": 0.0}, {"is_disabled": 0, "rental_uris": {"android": "https://dc.lft.to/lastmile_qr_scan", "ios": "https://dc.lft.to/lastmile_qr_scan"}, "is_reserved": 0, "name": "b8ed52d65cf822ec404e3b9ec1512e2a", "lon": -77.0198805, "type": "electric_scooter", "bike_id": "b8ed52d65cf822ec404e3b9ec1512e2a", "fusion_lon": 0.0, "lat": 38.877842666666666, "fusion_lat": 0.0}, {"is_disabled": 0, "rental_uris": {"android": "https://dc.lft.to/lastmile_qr_scan", "ios": "https://dc.lft.to/lastmile_qr_scan"}, "is_reserved": 0, "name": "3ad0f87b62fe14ab411846b41d1be992", "lon": -77.02408216666667, "type": "electric_scooter", "bike_id": "3ad0f87b62fe14ab411846b41d1be992", "fusion_lon": 0.0, "lat": 38.91665033333334, "fusion_lat": 0.0}, {"is_disabled": 0, "rental_uris": {"android": "https://dc.lft.to/lastmile_qr_scan", "ios": "https://dc.lft.to/lastmile_qr_scan"}, "is_reserved": 0, "name": "635c95e72eb162842c207d47f2bb6fee", "lon": -77.03841416666667, "type": "electric_scooter", "bike_id": "635c95e72eb162842c207d47f2bb6fee", "fusion_lon": 0.0, "lat": 38.9265535, "fusion_lat": 0.0}, {"is_disabled": 0, "rental_uris": {"android": "https://dc.lft.to/lastmile_qr_scan", "ios": "https://dc.lft.to/lastmile_qr_scan"}, "is_reserved": 0, "name": "005be8688cdb2bc614af7fbbf0133e95", "lon": -77.03187283333334, "type": "electric_scooter", "bike_id": "005be8688cdb2bc614af7fbbf0133e95", "fusion_lon": 0.0, "lat": 38.91787583333333, "fusion_lat": 0.0}, {"is_disabled": 0, "rental_uris": {"android": "https://dc.lft.to/lastmile_qr_scan", "ios": "https://dc.lft.to/lastmile_qr_scan"}, "is_reserved": 0, "name": "c89314c6bb5cc64cfa49e2450e12bb01", "lon": -77.17802116666667, "type": "electric_bike", "bike_id": "c89314c6bb5cc64cfa49e2450e12bb01", "fusion_lon": 0.0, "lat": 39.08841983333333, "fusion_lat": 0.0}, {"is_disabled": 0, "rental_uris": {"android": "https://dc.lft.to/lastmile_qr_scan", "ios": "https://dc.lft.to/lastmile_qr_scan"}, "is_reserved": 0, "name": "762d68167f64df0734060821f61353fb", "lon": -77.05122766666666, "type": "electric_scooter", "bike_id": "762d68167f64df0734060821f61353fb", "fusion_lon": 0.0, "lat": 38.923397, "fusion_lat": 0.0}, {"is_disabled": 0, "rental_uris": {"android": "https://dc.lft.to/lastmile_qr_scan", "ios": "https://dc.lft.to/lastmile_qr_scan"}, "is_reserved": 0, "name": "0c01995c2a8dd299e5f3df5ab3f2f86e", "lon": -77.0499925, "type": "electric_scooter", "bike_id": "0c01995c2a8dd299e5f3df5ab3f2f86e", "fusion_lon": 0.0, "lat": 38.897704166666664, "fusion_lat": 0.0}, {"is_disabled": 0, "rental_uris": {"android": "https://dc.lft.to/lastmile_qr_scan", "ios": "https://dc.lft.to/lastmile_qr_scan"}, "is_reserved": 0, "name": "e947feba22c7a3c4749d4ed2d0319329", "lon": -76.988881, "type": "electric_scooter", "bike_id": "e947feba22c7a3c4749d4ed2d0319329", "fusion_lon": 0.0, "lat": 38.866745333333334, "fusion_lat": 0.0}, {"is_disabled": 0, "rental_uris": {"android": "https://dc.lft.to/lastmile_qr_scan", "ios": "https://dc.lft.to/lastmile_qr_scan"}, "is_reserved": 0, "name": "3c0f0d672cfa46cdd990f175228a3c1f", "lon": -77.02919216666666, "type": "electric_bike", "bike_id": "3c0f0d672cfa46cdd990f175228a3c1f", "fusion_lon": 0.0, "lat": 38.905717, "fusion_lat": 0.0}, {"is_disabled": 0, "rental_uris": {"android": "https://dc.lft.to/lastmile_qr_scan", "ios": "https://dc.lft.to/lastmile_qr_scan"}, "is_reserved": 0, "name": "a9ad7393d998232abc9d06fc61032039", "lon": -77.03253416666666, "type": "electric_scooter", "bike_id": "a9ad7393d998232abc9d06fc61032039", "fusion_lon": 0.0, "lat": 38.9133435, "fusion_lat": 0.0}, {"is_disabled": 0, "rental_uris": {"android": "https://dc.lft.to/lastmile_qr_scan", "ios": "https://dc.lft.to/lastmile_qr_scan"}, "is_reserved": 0, "name": "5e14f469febae574e860e846f84f1eb5", "lon": -77.03301083333334, "type": "electric_scooter", "bike_id": "5e14f469febae574e860e846f84f1eb5", "fusion_lon": 0.0, "lat": 38.92065266666667, "fusion_lat": 0.0}, {"is_disabled": 0, "rental_uris": {"android": "https://dc.lft.to/lastmile_qr_scan", "ios": "https://dc.lft.to/lastmile_qr_scan"},