{"data": {"bikes": [{"bike_id": "462c6c98f132e850545307d06ac9b5bd", "type": "electric_scooter", "is_disabled": 0, "lat": 38.91282233333333, "rental_uris": {"ios": "https://dc.lft.to/lastmile_qr_scan", "android": "https://dc.lft.to/lastmile_qr_scan"}, "is_reserved": 0, "fusion_lon": 0.0, "fusion_lat": 0.0, "lon": -77.02713433333334, "name": "462c6c98f132e850545307d06ac9b5bd"}, {"bike_id": "3e77b5219e0d539ef3393315ff647c64", "type": "electric_scooter", "is_disabled": 0, "lat": 38.941280666666664, "rental_uris": {"ios": "https://dc.lft.to/lastmile_qr_scan", "android": "https://dc.lft.to/lastmile_qr_scan"}, "is_reserved": 0, "fusion_lon": 0.0, "fusion_lat": 0.0, "lon": -77.0153925, "name": "3e77b5219e0d539ef3393315ff647c64"}, {"bike_id": "c5f122b9f001a260eddc77f5641a5b8d", "type": "electric_scooter", "is_disabled": 0, "lat": 38.915713333333336, "rental_uris": {"ios": "https://dc.lft.to/lastmile_qr_scan", "android": "https://dc.lft.to/lastmile_qr_scan"}, "is_reserved": 0, "fusion_lon": 0.0, "fusion_lat": 0.0, "lon": -77.04482116666667, "name": "c5f122b9f001a260eddc77f5641a5b8d"}, {"bike_id": "e57096bddced21d1cdb7a0875f2de293", "type": "electric_bike", "is_disabled": 0, "lat": 38.969600166666666, "rental_uris": {"ios": "https://dc.lft.to/lastmile_qr_scan", "android": "https://dc.lft.to/lastmile_qr_scan"}, "is_reserved": 0, "fusion_lon": 0.0, "fusion_lat": 0.0, "lon": -76.95751016666667, "name": "e57096bddced21d1cdb7a0875f2de293"}, {"bike_id": "e8d7725fb05931bf9624936a7870489f", "type": "electric_scooter", "is_disabled": 0, "lat": 38.899971666666666, "rental_uris": {"ios": "https://dc.lft.to/lastmile_qr_scan", "android": "https://dc.lft.to/lastmile_qr_scan"}, "is_reserved": 0, "fusion_lon": 0.0, "fusion_lat": 0.0, "lon": -77.04669733333333, "name": "e8d7725fb05931bf9624936a7870489f"}, {"bike_id": "99973c5e5d000571cbe102c885cd2c56", "type": "electric_scooter", "is_disabled": 0, "lat": 38.935429, "rental_uris": {"ios": "https://dc.lft.to/lastmile_qr_scan", "android": "https://dc.lft.to/lastmile_qr_scan"}, "is_reserved": 0, "fusion_lon": 0.0, "fusion_lat": 0.0, "lon": -77.05861866666666, "name": "99973c5e5d000571cbe102c885cd2c56"}, {"bike_id": "75a12ec612959cb44b3dd00629c514e3", "type": "electric_scooter", "is_disabled": 0, "lat": 38.90234483333333, "rental_uris": {"ios": "https://dc.lft.to/lastmile_qr_scan", "android": "https://dc.lft.to/lastmile_qr_scan"}, "is_reserved": 0, "fusion_lon": 0.0, "fusion_lat": 0.0, "lon": -77.00199883333333, "name": "75a12ec612959cb44b3dd00629c514e3"}, {"bike_id": "ba12575608105ea37d6b9084fec1c089", "type": "electric_scooter", "is_disabled": 0, "lat": 38.8830135, "rental_uris": {"ios": "https://dc.lft.to/lastmile_qr_scan", "android": "https://dc.lft.to/lastmile_qr_scan"}, "is_reserved": 0, "fusion_lon": 0.0, "fusion_lat": 0.0, "lon": -76.94853583333334, "name": "ba12575608105ea37d6b9084fec1c089"}, {"bike_id": "584e4511a4dff171b99591929ca17744", "type": "electric_scooter", "is_disabled": 0, "lat": 38.90073866666667, "rental_uris": {"ios": "https://dc.lft.to/lastmile_qr_scan", "android": "https://dc.lft.to/lastmile_qr_scan"}, "is_reserved": 0, "fusion_lon": 0.0, "fusion_lat": 0.0, "lon": -77.04666916666666, "name": "584e4511a4dff171b99591929ca17744"}, {"bike_id": "6751014bc2c4f63eec26df9a400281ca", "type": "electric_scooter", "is_disabled": 0, "lat": 38.924748666666666, "rental_uris": {"ios": "https://dc.lft.to/lastmile_qr_scan", "android": "https://dc.lft.to/lastmile_qr_scan"}, "is_reserved": 0, "fusion_lon": 0.0, "fusion_lat": 0.0, "lon": -77.02833, "name": "6751014bc2c4f63eec26df9a400281ca"}, {"bike_id": "5627714fdef56442e92915ef6671c0bb", "type": "electric_scooter", "is_disabled": 0, "lat": 38.9259055, "rental_uris": {"ios": "https://dc.lft.to/lastmile_qr_scan", "android": "https://dc.lft.to/lastmile_qr_scan"}, "is_reserved": 0, "fusion_lon": 0.0, "fusion_lat": 0.0, "lon": -77.04401933333334, "name": "5627714fdef56442e92915ef6671c0bb"}, {"bike_id": "ed8bb61f0e6b86fae005068089e279f7", "type": "electric_scooter", "is_disabled": 0, "lat": 38.86470466666667, "rental_uris": {"ios": "https://dc.lft.to/lastmile_qr_scan", "android": "https://dc.lft.to/lastmile_qr_scan"}, "is_reserved": 0, "fusion_lon": 0.0, "fusion_lat": 0.0, "lon": -76.97743016666666, "name": "ed8bb61f0e6b86fae005068089e279f7"}, {"bike_id": "b572046abcbe0df97ccdbe2deb266564", "type": "electric_scooter", "is_disabled": 0, "lat": 38.92150683333333, "rental_uris": {"ios": "https://dc.lft.to/lastmile_qr_scan", "android": "https://dc.lft.to/lastmile_qr_scan"}, "is_reserved": 0, "fusion_lon": 0.0, "fusion_lat": 0.0, "lon": -77.03531766666667, "name": "b572046abcbe0df97ccdbe2deb266564"}, {"bike_id": "f78d641f16e1a6982b0ae83919112dff", "type": "electric_scooter", "is_disabled": 0, "lat": 38.928614, "rental_uris": {"ios": "https://dc.lft.to/lastmile_qr_scan", "android": "https://dc.lft.to/lastmile_qr_scan"}, "is_reserved": 0, "fusion_lon": 0.0, "fusion_lat": 0.0, "lon": -77.0194935, "name": "f78d641f16e1a6982b0ae83919112dff"}, {"bike_id": "957ee8fda898380353abe525486321ea", "type": "electric_scooter", "is_disabled": 0, "lat": 38.92092433333333, "rental_uris": {"ios": "https://dc.lft.to/lastmile_qr_scan", "android": "https://dc.lft.to/lastmile_qr_scan"}, "is_reserved": 0, "fusion_lon": 0.0, "fusion_lat": 0.0, "lon": -77.02535516666667, "name": "957ee8fda898380353abe525486321ea"}, {"bike_id": "b3228fd1cad36db76b0025635d285f5b", "type": "electric_scooter", "is_disabled": 0, "lat": 38.90278433333334, "rental_uris": {"ios": "https://dc.lft.to/lastmile_qr_scan", "android": "https://dc.lft.to/lastmile_qr_scan"}, "is_reserved": 0, "fusion_lon": 0.0, "fusion_lat": 0.0, "lon": -77.00327633333333, "name": "b3228fd1cad36db76b0025635d285f5b"}, {"bike_id": "534500b4f20105ae6536cfcc41f81d26", "type": "electric_scooter", "is_disabled": 0, "lat": 38.906775333333336, "rental_uris": {"ios": "https://dc.lft.to/lastmile_qr_scan", "android": "https://dc.lft.to/lastmile_qr_scan"}, "is_reserved": 0, "fusion_lon": 0.0, "fusion_lat": 0.0, "lon": -77.05320283333333, "name": "534500b4f20105ae6536cfcc41f81d26"}, {"bike_id": "b4c61bd9db9de7561495e81cf7fb6909", "type": "electric_scooter", "is_disabled": 0, "lat": 38.95662, "rental_uris": {"ios": "https://dc.lft.to/lastmile_qr_scan", "android": "https://dc.lft.to/lastmile_qr_scan"}, "is_reserved": 0, "fusion_lon": 0.0, "fusion_lat": 0.0, "lon": -77.0103595, "name": "b4c61bd9db9de7561495e81cf7fb6909"}, {"bike_id": "684e0989f1272230e9b637825f7d2710", "type": "electric_scooter", "is_disabled": 0, "lat": 38.90155033333333, "rental_uris": {"ios": "https://dc.lft.to/lastmile_qr_scan", "android": "https://dc.lft.to/lastmile_qr_scan"}, "is_reserved": 0, "fusion_lon": 0.0, "fusion_lat": 0.0, "lon": -77.01521366666667, "name": "684e0989f1272230e9b637825f7d2710"}, {"bike_id": "77a216b188f1b95414935172b6a3d049", "type": "electric_scooter", "is_disabled": 0, "lat": 38.91118216666667, "rental_uris": {"ios": "https://dc.lft.to/lastmile_qr_scan", "android": "https://dc.lft.to/lastmile_qr_scan"}, "is_reserved": 0, "fusion_lon": 0.0, "fusion_lat": 0.0, "lon": -77.02235766666666, "name": "77a216b188f1b95414935172b6a3d049"}, {"bike_id": "1d787162be6316ef9d38a1ba09703c19", "type": "electric_scooter", "is_disabled": 0, "lat": 38.905574333333334, "rental_uris": {"ios": "https://dc.lft.to/lastmile_qr_scan", "android": "https://dc.lft.to/lastmile_qr_scan"}, "is_reserved": 0, "fusion_lon": 0.0, "fusion_lat": 0.0, "lon": -76.98860633333334, "name": "1d787162be6316ef9d38a1ba09703c19"}, {"bike_id": "5b777e94ed732b7a27c34a137fe6ecc3", "type": "electric_bike", "is_disabled": 0, "lat": 38.80903816666667, "rental_uris": {"ios": "https://dc.lft.to/lastmile_qr_scan", "android": "https://dc.lft.to/lastmile_qr_scan"}, "is_reserved": 0, "fusion_lon": 0.0, "fusion_lat": 0.0, "lon": -77.08657816666667, "name": "5b777e94ed732b7a27c34a137fe6ecc3"}, {"bike_id": "6b1454573a4069fcd9017a17a452d9e5", "type": "electric_scooter", "is_disabled": 0, "lat": 38.91779183333333, "rental_uris": {"ios": "https://dc.lft.to/lastmile_qr_scan", "android": "https://dc.lft.to/lastmile_qr_scan"}, "is_reserved": 0, "fusion_lon": 0.0, "fusion_lat": 0.0, "lon": -77.0233115, "name": "6b1454573a4069fcd9017a17a452d9e5"}, {"bike_id": "cd41fd096054e43a16c6b1c51315d367", "type": "electric_scooter", "is_disabled": 0, "lat": 38.9234125, "rental_uris": {"ios": "https://dc.lft.to/lastmile_qr_scan", "android": "https://dc.lft.to/lastmile_qr_scan"}, "is_reserved": 0, "fusion_lon": 0.0, "fusion_lat": 0.0, "lon": -77.01987566666666, "name": "cd41fd096054e43a16c6b1c51315d367"}, {"bike_id": "2a70c9b6001517916244de451bec8d55", "type": "electric_scooter", "is_disabled": 0, "lat": 38.915122833333335, "rental_uris": {"ios": "https://dc.lft.to/lastmile_qr_scan", "android": "https://dc.lft.to/lastmile_qr_scan"}, "is_reserved": 0, "fusion_lon": 0.0, "fusion_lat": 0.0, "lon": -77.022923, "name": "2a70c9b6001517916244de451bec8d55"}, {"bike_id": "a0f79b860817c1df1c6afacddc2268d3", "type": "electric_bike", "is_disabled": 0, "lat": 38.94269766666667, "rental_uris": {"ios": "https://dc.lft.to/lastmile_qr_scan", "android": "https://dc.lft.to/lastmile_qr_scan"}, "is_reserved": 0, "fusion_lon": 0.0, "fusion_lat": 0.0, "lon": -76.99072033333333, "name": "a0f79b860817c1df1c6afacddc2268d3"}, {"bike_id": "5316618f64ebd7ee36ee7d9fa52c4c35", "type": "electric_bike", "is_disabled": 0, "lat": 38.92412983333333, "rental_uris": {"ios": "https://dc.lft.to/lastmile_qr_scan", "android": "https://dc.lft.to/lastmile_qr_scan"}, "is_reserved": 0, "fusion_lon": 0.0, "fusion_lat": 0.0, "lon": -77.035466, "name": "5316618f64ebd7ee36ee7d9fa52c4c35"}, {"bike_id": "1dd3a1e4c64f71a39ba3d0649b0c8fe0", "type": "electric_scooter", "is_disabled": 0, "lat": 38.898348666666664, "rental_uris": {"ios": "https://dc.lft.to/lastmile_qr_scan", "android": "https://dc.lft.to/lastmile_qr_scan"}, "is_reserved": 0, "fusion_lon": 0.0, "fusion_lat": 0.0, "lon": -77.043275, "name": "1dd3a1e4c64f71a39ba3d0649b0c8fe0"}, {"bike_id": "baa857ccd8d152fa268468ac7aa93f79", "type": "electric_scooter", "is_disabled": 0, "lat": 38.935303166666664, "rental_uris": {"ios": "https://dc.lft.to/lastmile_qr_scan", "android": "https://dc.lft.to/lastmile_qr_scan"}, "is_reserved": 0, "fusion_lon": 0.0, "fusion_lat": 0.0, "lon": -77.05439166666666, "name": "baa857ccd8d152fa268468ac7aa93f79"}, {"bike_id": "bf9ef6844289f973d5aba15fb62bd77d", "type": "electric_scooter", "is_disabled": 0, "lat": 38.91192933333333, "rental_uris": {"ios": "https://dc.lft.to/lastmile_qr_scan", "android": "https://dc.lft.to/lastmile_qr_scan"}, "is_reserved": 0, "fusion_lon": 0.0, "fusion_lat": 0.0, "lon": -77.018923, "name": "bf9ef6844289f973d5aba15fb62bd77d"}, {"bike_id": "f4535d6f83e384ea96286a043f473530", "type": "electric_scooter", "is_disabled": 0, "lat": 38.91811966666667, "rental_uris": {"ios": "https://dc.lft.to/lastmile_qr_scan", "android": "https://dc.lft.to/lastmile_qr_scan"}, "is_reserved": 0, "fusion_lon": 0.0, "fusion_lat": 0.0, "lon": -77.03205466666667, "name": "f4535d6f83e384ea96286a043f473530"}, {"bike_id": "4923d12b1c68f2e0f7446502d19a633b", "type": "electric_scooter", "is_disabled": 0, "lat": 38.925523, "rental_uris": {"ios": "https://dc.lft.to/lastmile_qr_scan", "android": "https://dc.lft.to/lastmile_qr_scan"}, "is_reserved": 0, "fusion_lon": 0.0, "fusion_lat": 0.0, "lon": -77.03354416666667, "name": "4923d12b1c68f2e0f7446502d19a633b"}, {"bike_id": "13f995cd8279004c4803037cfc6024eb", "type": "electric_bike", "is_disabled": 0, "lat": 38.858704333333336, "rental_uris": {"ios": "https://dc.lft.to/lastmile_qr_scan", "android": "https://dc.lft.to/lastmile_qr_scan"}, "is_reserved": 0, "fusion_lon": 0.0, "fusion_lat": 0.0, "lon": -77.0956185, "name": "13f995cd8279004c4803037cfc6024eb"}, {"bike_id": "6ecc37febd1820783edf39e06a1b1c5c", "type": "electric_scooter", "is_disabled": 0, "lat": 38.95119483333333, "rental_uris": {"ios": "https://dc.lft.to/lastmile_qr_scan", "android": "https://dc.lft.to/lastmile_qr_scan"}, "is_reserved": 0, "fusion_lon": 0.0, "fusion_lat": 0.0, "lon": -77.0143265, "name": "6ecc37febd1820783edf39e06a1b1c5c"}, {"bike_id": "433a9c11a410322bc69a87763466907f", "type": "electric_scooter", "is_disabled": 0, "lat": 38.92617083333333, "rental_uris": {"ios": "https://dc.lft.to/lastmile_qr_scan", "android": "https://dc.lft.to/lastmile_qr_scan"}, "is_reserved": 0, "fusion_lon": 0.0, "fusion_lat": 0.0, "lon": -77.0432545, "name": "433a9c11a410322bc69a87763466907f"}, {"bike_id": "68a3ba60caec123eb9dfde17e09f09f9", "type": "electric_bike", "is_disabled": 0, "lat": 38.892102666666666, "rental_uris": {"ios": "https://dc.lft.to/lastmile_qr_scan", "android": "https://dc.lft.to/lastmile_qr_scan"}, "is_reserved": 0, "fusion_lon": 0.0, "fusion_lat": 0.0, "lon": -76.97680816666667, "name": "68a3ba60caec123eb9dfde17e09f09f9"}, {"bike_id": "1b9a9e12b0b4faa0a52c0807f5273b3e", "type": "electric_scooter", "is_disabled": 0, "lat": 38.895007666666665, "rental_uris": {"ios": "https://dc.lft.to/lastmile_qr_scan", "android": "https://dc.lft.to/lastmile_qr_scan"}, "is_reserved": 0, "fusion_lon": 0.0, "fusion_lat": 0.0, "lon": -76.93479766666667, "name": "1b9a9e12b0b4faa0a52c0807f5273b3e"}, {"bike_id": "b762ce4b298101f8fcd99bf9ebf6b430", "type": "electric_bike", "is_disabled": 0, "lat": 38.9953315, "rental_uris": {"ios": "https://dc.lft.to/lastmile_qr_scan", "android": "https://dc.lft.to/lastmile_qr_scan"}, "is_reserved": 0, "fusion_lon": 0.0, "fusion_lat": 0.0, "lon": -77.069495, "name": "b762ce4b298101f8fcd99bf9ebf6b430"}, {"bike_id": "24f48b76787f64e1d70e45b7496992a1", "type": "electric_scooter", "is_disabled": 0, "lat": 38.900717666666665, "rental_uris": {"ios": "https://dc.lft.to/lastmile_qr_scan", "android": "https://dc.lft.to/lastmile_qr_scan"}, "is_reserved": 0, "fusion_lon": 0.0, "fusion_lat": 0.0, "lon": -77.0512665, "name": "24f48b76787f64e1d70e45b7496992a1"}, {"bike_id": "e20ea320b661d4f21aba14a7c10fef49", "type": "electric_scooter", "is_disabled": 0, "lat": 38.8668655, "rental_uris": {"ios": "https://dc.lft.to/lastmile_qr_scan", "android": "https://dc.lft.to/lastmile_qr_scan"}, "is_reserved": 0, "fusion_lon": 0.0, "fusion_lat": 0.0, "lon": -76.9856955, "name": "e20ea320b661d4f21aba14a7c10fef49"}, {"bike_id": "5840f7cc003dc7f2b56c97dfe5ab6de0", "type": "electric_bike", "is_disabled": 0, "lat": 38.9086145, "rental_uris": {"ios": "https://dc.lft.to/lastmile_qr_scan", "android": "https://dc.lft.to/lastmile_qr_scan"}, "is_reserved": 0, "fusion_lon": 0.0, "fusion_lat": 0.0, "lon": -76.99960433333334, "name": "5840f7cc003dc7f2b56c97dfe5ab6de0"}, {"bike_id": "8b327e657cd30d8ea2f691414187bb94", "type": "electric_scooter", "is_disabled": 0, "lat": 38.903561333333336, "rental_uris": {"ios": "https://dc.lft.to/lastmile_qr_scan", "android": "https://dc.lft.to/lastmile_qr_scan"}, "is_reserved": 0, "fusion_lon": 0.0, "fusion_lat": 0.0, "lon": -77.019529, "name": "8b327e657cd30d8ea2f691414187bb94"}, {"bike_id": "e37e3b61a61aee8ef25b5049986a7083", "type": "electric_scooter", "is_disabled": 0, "lat": 38.9328925, "rental_uris": {"ios": "https://dc.lft.to/lastmile_qr_scan", "android": "https://dc.lft.to/lastmile_qr_scan"}, "is_reserved": 0, "fusion_lon": 0.0, "fusion_lat": 0.0, "lon": -77.03538083333333, "name": "e37e3b61a61aee8ef25b5049986a7083"}, {"bike_id": "eb33319dee2bebe4b8b619f97a5acfb7", "type": "electric_scooter", "is_disabled": 0, "lat": 38.9179775, "rental_uris": {"ios": "https://dc.lft.to/lastmile_qr_scan", "android": "https://dc.lft.to/lastmile_qr_scan"}, "is_reserved": 0, "fusion_lon": 0.0, "fusion_lat": 0.0, "lon": -77.034406, "name": "eb33319dee2bebe4b8b619f97a5acfb7"}, {"bike_id": "d07f66da1fcde0da18d3bf4183502cb6", "type": "electric_scooter", "is_disabled": 0, "lat": 38.9104905, "rental_uris": {"ios": "https://dc.lft.to/lastmile_qr_scan", "android": "https://dc.lft.to/lastmile_qr_scan"}, "is_reserved": 0, "fusion_lon": 0.0, "fusion_lat": 0.0, "lon": -77.00919433333334, "name": "d07f66da1fcde0da18d3bf4183502cb6"}, {"bike_id": "1e55e9e207c4f06d73abf17ca89fbf02", "type": "electric_scooter", "is_disabled": 0, "lat": 38.90489733333333, "rental_uris": {"ios": "https://dc.lft.to/lastmile_qr_scan", "android": "https://dc.lft.to/lastmile_qr_scan"}, "is_reserved": 0, "fusion_lon": 0.0, "fusion_lat": 0.0, "lon": -77.0323015, "name": "1e55e9e207c4f06d73abf17ca89fbf02"}, {"bike_id": "50efe8471e12a459b7c369f591cf4f8a", "type": "electric_scooter", "is_disabled": 0, "lat": 38.92148783333333, "rental_uris": {"ios": "https://dc.lft.to/lastmile_qr_scan", "android": "https://dc.lft.to/lastmile_qr_scan"}, "is_reserved": 0, "fusion_lon": 0.0, "fusion_lat": 0.0, "lon": -77.04370733333333, "name": "50efe8471e12a459b7c369f591cf4f8a"}, {"bike_id": "f1b57b71846f4f7f425728f60f3fa31d", "type": "electric_scooter", "is_disabled": 0, "lat": 38.87953183333333, "rental_uris": {"ios": "https://dc.lft.to/lastmile_qr_scan", "android": "https://dc.lft.to/lastmile_qr_scan"}, "is_reserved": 0, "fusion_lon": 0.0, "fusion_lat": 0.0, "lon": -77.02363083333333, "name": "f1b57b71846f4f7f425728f60f3fa31d"}, {"bike_id": "305f3cfc06107e3c718bb5ffcdeb805e", "type": "electric_scooter", "is_disabled": 0, "lat": 38.86191633333333, "rental_uris": {"ios": "https://dc.lft.to/lastmile_qr_scan", "android": "https://dc.lft.to/lastmile_qr_scan"}, "is_reserved": 0, "fusion_lon": 0.0, "fusion_lat": 0.0, "lon": -77.088201, "name": "305f3cfc06107e3c718bb5ffcdeb805e"}, {"bike_id": "2cb98e99dd03040fdf1868f171aec23d", "type": "electric_scooter", "is_disabled": 0, "lat": 38.8994985, "rental_uris": {"ios": "https://dc.lft.to/lastmile_qr_scan", "android": "https://dc.lft.to/lastmile_qr_scan"}, "is_reserved": 0, "fusion_lon": 0.0, "fusion_lat": 0.0, "lon": -77.04787533333334, "name": "2cb98e99dd03040fdf1868f171aec23d"}, {"bike_id": "440c844bc8ff295a4640e5504ab0f1df", "type": "electric_scooter", "is_disabled": 0, "lat": 38.8443935, "rental_uris": {"ios": "https://dc.lft.to/lastmile_qr_scan", "android": "https://dc.lft.to/lastmile_qr_scan"}, "is_reserved": 0, "fusion_lon": 0.0, "fusion_lat": 0.0, "lon": -76.99778416666666, "name": "440c844bc8ff295a4640e5504ab0f1df"}, {"bike_id": "be6db55e72b14e6552a908c6e6f44aa2", "type": "electric_scooter", "is_disabled": 0, "lat": 38.8935705, "rental_uris": {"ios": "https://dc.lft.to/lastmile_qr_scan", "android": "https://dc.lft.to/lastmile_qr_scan"}, "is_reserved": 0, "fusion_lon": 0.0, "fusion_lat": 0.0, "lon": -76.94933316666666, "name": "be6db55e72b14e6552a908c6e6f44aa2"}, {"bike_id": "b542626bd4482f893d66e9979a337ff4", "type": "electric_scooter", "is_disabled": 0, "lat": 38.921889, "rental_uris": {"ios": "https://dc.lft.to/lastmile_qr_scan", "android": "https://dc.lft.to/lastmile_qr_scan"}, "is_reserved": 0, "fusion_lon": 0.0, "fusion_lat": 0.0, "lon": -76.9936185, "name": "b542626bd4482f893d66e9979a337ff4"}, {"bike_id": "51aef5fd06b307e3500d359f562c0efa", "type": "electric_scooter", "is_disabled": 0, "lat": 38.9280205, "rental_uris": {"ios": "https://dc.lft.to/lastmile_qr_scan", "android": "https://dc.lft.to/lastmile_qr_scan"}, "is_reserved": 0, "fusion_lon": 0.0, "fusion_lat": 0.0, "lon": -77.03206283333333, "name": "51aef5fd06b307e3500d359f562c0efa"}, {"bike_id": "521618af3c18a180d12b4d01d5bac57c", "type": "electric_bike", "is_disabled": 0, "lat": 39.043087, "rental_uris": {"ios": "https://dc.lft.to/lastmile_qr_scan", "android": "https://dc.lft.to/lastmile_qr_scan"}, "is_reserved": 0, "fusion_lon": 0.0, "fusion_lat": 0.0, "lon": -77.0516145, "name": "521618af3c18a180d12b4d01d5bac57c"}, {"bike_id": "b6020dbb1863bfdd74ffa06245a30441", "type": "electric_scooter", "is_disabled": 0, "lat": 38.90270183333333, "rental_uris": {"ios": "https://dc.lft.to/lastmile_qr_scan", "android": "https://dc.lft.to/lastmile_qr_scan"}, "is_reserved": 0, "fusion_lon": 0.0, "fusion_lat": 0.0, "lon": -77.0185895, "name": "b6020dbb1863bfdd74ffa06245a30441"}, {"bike_id": "4ca90b2a9f3c9bb0df29d79af4889a52", "type": "electric_scooter", "is_disabled": 0, "lat": 38.900051500000004, "rental_uris": {"ios": "https://dc.lft.to/lastmile_qr_scan", "android": "https://dc.lft.to/lastmile_qr_scan"}, "is_reserved": 0, "fusion_lon": 0.0, "fusion_lat": 0.0, "lon": -76.99616266666666, "name": "4ca90b2a9f3c9bb0df29d79af4889a52"}, {"bike_id": "213548a2222a205080f772c07399a859", "type": "electric_scooter", "is_disabled": 0, "lat": 38.93717866666667, "rental_uris": {"ios": "https://dc.lft.to/lastmile_qr_scan", "android": "https://dc.lft.to/lastmile_qr_scan"}, "is_reserved": 0, "fusion_lon": 0.0, "fusion_lat": 0.0, "lon": -77.02462766666666, "name": "213548a2222a205080f772c07399a859"}, {"bike_id": "32ba95b8970d514635f5025d8f037183", "type": "electric_scooter", "is_disabled": 0, "lat": 38.91540333333333, "rental_uris": {"ios": "https://dc.lft.to/lastmile_qr_scan", "android": "https://dc.lft.to/lastmile_qr_scan"}, "is_reserved": 0, "fusion_lon": 0.0, "fusion_lat": 0.0, "lon": -76.970121, "name": "32ba95b8970d514635f5025d8f037183"}, {"bike_id": "4f7cb0e0616c34e72d83d9a06eef2fad", "type": "electric_scooter", "is_disabled": 0, "lat": 38.9104515, "rental_uris": {"ios": "https://dc.lft.to/lastmile_qr_scan", "android": "https://dc.lft.to/lastmile_qr_scan"}, "is_reserved": 0, "fusion_lon": 0.0, "fusion_lat": 0.0, "lon": -77.07352466666667, "name": "4f7cb0e0616c34e72d83d9a06eef2fad"}, {"bike_id": "1d66b0a8f05e9ea3623a11a7b0816234", "type": "electric_bike", "is_disabled": 0, "lat": 38.82377866666667, "rental_uris": {"ios": "https://dc.lft.to/lastmile_qr_scan", "android": "https://dc.lft.to/lastmile_qr_scan"}, "is_reserved": 0, "fusion_lon": 0.0, "fusion_lat": 0.0, "lon": -77.00225333333333, "name": "1d66b0a8f05e9ea3623a11a7b0816234"}, {"bike_id": "d6cbef420702f080c7c2ee4fda8367b5", "type": "electric_scooter", "is_disabled": 0, "lat": 38.9111565, "rental_uris": {"ios": "https://dc.lft.to/lastmile_qr_scan", "android": "https://dc.lft.to/lastmile_qr_scan"}, "is_reserved": 0, "fusion_lon": 0.0, "fusion_lat": 0.0, "lon": -77.0383125, "name": "d6cbef420702f080c7c2ee4fda8367b5"}, {"bike_id": "0b574058c1b389c0a3b499efe3e990d4", "type": "electric_scooter", "is_disabled": 0, "lat": 38.900653, "rental_uris": {"ios": "https://dc.lft.to/lastmile_qr_scan", "android": "https://dc.lft.to/lastmile_qr_scan"}, "is_reserved": 0, "fusion_lon": 0.0, "fusion_lat": 0.0, "lon": -77.0453875, "name": "0b574058c1b389c0a3b499efe3e990d4"}, {"bike_id": "220b9ece0aa8b529e837be726d5ef3ae", "type": "electric_bike", "is_disabled": 0, "lat": 38.905117833333335, "rental_uris": {"ios": "https://dc.lft.to/lastmile_qr_scan", "android": "https://dc.lft.to/lastmile_qr_scan"}, "is_reserved": 0, "fusion_lon": 0.0, "fusion_lat": 0.0, "lon": -76.98722966666666, "name": "220b9ece0aa8b529e837be726d5ef3ae"}, {"bike_id": "926557bfc4fc20a589bf84f1980f3438", "type": "electric_bike", "is_disabled": 0, "lat": 38.88246316666667, "rental_uris": {"ios": "https://dc.lft.to/lastmile_qr_scan", "android": "https://dc.lft.to/lastmile_qr_scan"}, "is_reserved": 0, "fusion_lon": 0.0, "fusion_lat": 0.0, "lon": -76.96253666666667, "name": "926557bfc4fc20a589bf84f1980f3438"}, {"bike_id": "cd7ed5494c59fca28cd1647451b8ec7c", "type": "electric_scooter", "is_disabled": 0, "lat": 38.90361466666667, "rental_uris": {"ios": "https://dc.lft.to/lastmile_qr_scan", "android": "https://dc.lft.to/lastmile_qr_scan"}, "is_reserved": 0, "fusion_lon": 0.0, "fusion_lat": 0.0, "lon": -77.02689016666666, "name": "cd7ed5494c59fca28cd1647451b8ec7c"}, {"bike_id": "e30f30441f80a9b265dfcae3c841922d", "type": "electric_scooter", "is_disabled": 0, "lat": 38.92453733333333, "rental_uris": {"ios": "https://dc.lft.to/lastmile_qr_scan", "android": "https://dc.lft.to/lastmile_qr_scan"}, "is_reserved": 0, "fusion_lon": 0.0, "fusion_lat": 0.0, "lon": -77.03342383333333, "name": "e30f30441f80a9b265dfcae3c841922d"}, {"bike_id": "d430be2579df72b637f6538f5bcd7013", "type": "electric_bike", "is_disabled": 0, "lat": 38.79606916666667, "rental_uris": {"ios": "https://dc.lft.to/lastmile_qr_scan", "android": "https://dc.lft.to/lastmile_qr_scan"}, "is_reserved": 0, "fusion_lon": 0.0, "fusion_lat": 0.0, "lon": -76.997434, "name": "d430be2579df72b637f6538f5bcd7013"}, {"bike_id": "c5ea948e1413e6c029f3587e3fb0799f", "type": "electric_scooter", "is_disabled": 0, "lat": 38.90389416666667, "rental_uris": {"ios": "https://dc.lft.to/lastmile_qr_scan", "android": "https://dc.lft.to/lastmile_qr_scan"}, "is_reserved": 0, "fusion_lon": 0.0, "fusion_lat": 0.0, "lon": -77.04480933333333, "name": "c5ea948e1413e6c029f3587e3fb0799f"}, {"bike_id": "ea905a7bacb80245983692cc6408da09", "type": "electric_scooter", "is_disabled": 0, "lat": 38.88683666666667, "rental_uris": {"ios": "https://dc.lft.to/lastmile_qr_scan", "android": "https://dc.lft.to/lastmile_qr_scan"}, "is_reserved": 0, "fusion_lon": 0.0, "fusion_lat": 0.0, "lon": -76.99135833333334, "name": "ea905a7bacb80245983692cc6408da09"}, {"bike_id": "e9cf1957ef7d13ced163e6afcbb23368", "type": "electric_scooter", "is_disabled": 0, "lat": 38.90012733333333, "rental_uris": {"ios": "https://dc.lft.to/lastmile_qr_scan", "android": "https://dc.lft.to/lastmile_qr_scan"}, "is_reserved": 0, "fusion_lon": 0.0, "fusion_lat": 0.0, "lon": -77.0118825, "name": "e9cf1957ef7d13ced163e6afcbb23368"}, {"bike_id": "69eb60ffb2ea73c3dc982a2da403eae6", "type": "electric_scooter", "is_disabled": 0, "lat": 38.88032233333333, "rental_uris": {"ios": "https://dc.lft.to/lastmile_qr_scan", "android": "https://dc.lft.to/lastmile_qr_scan"}, "is_reserved": 0, "fusion_lon": 0.0, "fusion_lat": 0.0, "lon": -77.0248315, "name": "69eb60ffb2ea73c3dc982a2da403eae6"}, {"bike_id": "161982017374be18773c8389ea757825", "type": "electric_scooter", "is_disabled": 0, "lat": 38.9210355, "rental_uris": {"ios": "https://dc.lft.to/lastmile_qr_scan", "android": "https://dc.lft.to/lastmile_qr_scan"}, "is_reserved": 0, "fusion_lon": 0.0, "fusion_lat": 0.0, "lon": -77.02695566666667, "name": "161982017374be18773c8389ea757825"}, {"bike_id": "74544feb8d4372f04626397aba671c3f", "type": "electric_scooter", "is_disabled": 0, "lat": 38.9057415, "rental_uris": {"ios": "https://dc.lft.to/lastmile_qr_scan", "android": "https://dc.lft.to/lastmile_qr_scan"}, "is_reserved": 0, "fusion_lon": 0.0, "fusion_lat": 0.0, "lon": -77.01641733333334, "name": "74544feb8d4372f04626397aba671c3f"}, {"bike_id": "907184aa70b3c3dd8288c29da4246653", "type": "electric_scooter", "is_disabled": 0, "lat": 38.888862333333336, "rental_uris": {"ios": "https://dc.lft.to/lastmile_qr_scan", "android": "https://dc.lft.to/lastmile_qr_scan"}, "is_reserved": 0, "fusion_lon": 0.0, "fusion_lat": 0.0, "lon": -76.947789, "name": "907184aa70b3c3dd8288c29da4246653"}, {"bike_id": "1cf0cf36f421f0ac16cc2407b40f8aba", "type": "electric_scooter", "is_disabled": 0, "lat": 38.883897833333336, "rental_uris": {"ios": "https://dc.lft.to/lastmile_qr_scan", "android": "https://dc.lft.to/lastmile_qr_scan"}, "is_reserved": 0, "fusion_lon": 0.0, "fusion_lat": 0.0, "lon": -76.954471, "name": "1cf0cf36f421f0ac16cc2407b40f8aba"}, {"bike_id": "ec4cda9b7f0629d4f82ba5e316aa2d6e", "type": "electric_scooter", "is_disabled": 0, "lat": 38.9049035, "rental_uris": {"ios": "https://dc.lft.to/lastmile_qr_scan", "android": "https://dc.lft.to/lastmile_qr_scan"}, "is_reserved": 0, "fusion_lon": 0.0, "fusion_lat": 0.0, "lon": -77.02586383333333, "name": "ec4cda9b7f0629d4f82ba5e316aa2d6e"}, {"bike_id": "88064ee9733bf389191d97b0ea01a109", "type": "electric_bike", "is_disabled": 0, "lat": 38.83787433333333, "rental_uris": {"ios": "https://dc.lft.to/lastmile_qr_scan", "android": "https://dc.lft.to/lastmile_qr_scan"}, "is_reserved": 0, "fusion_lon": 0.0, "fusion_lat": 0.0, "lon": -77.09346333333333, "name": "88064ee9733bf389191d97b0ea01a109"}, {"bike_id": "95165b67c30781a4e119360648d23743", "type": "electric_scooter", "is_disabled": 0, "lat": 38.892231333333335, "rental_uris": {"ios": "https://dc.lft.to/lastmile_qr_scan", "android": "https://dc.lft.to/lastmile_qr_scan"}, "is_reserved": 0, "fusion_lon": 0.0, "fusion_lat": 0.0, "lon": -77.04863433333334, "name": "95165b67c30781a4e119360648d23743"}, {"bike_id": "4ace2b3821202af60ddd597510e54fb9", "type": "electric_scooter", "is_disabled": 0, "lat": 38.900890833333335, "rental_uris": {"ios": "https://dc.lft.to/lastmile_qr_scan", "android": "https://dc.lft.to/lastmile_qr_scan"}, "is_reserved": 0, "fusion_lon": 0.0, "fusion_lat": 0.0, "lon": -77.00923766666666, "name": "4ace2b3821202af60ddd597510e54fb9"}, {"bike_id": "d1b03574638ff84dfcc8fb29b1a8e7db", "type": "electric_bike", "is_disabled": 0, "lat": 38.873028166666664, "rental_uris": {"ios": "https://dc.lft.to/lastmile_qr_scan", "android": "https://dc.lft.to/lastmile_qr_scan"}, "is_reserved": 0, "fusion_lon": 0.0, "fusion_lat": 0.0, "lon": -77.1392705, "name": "d1b03574638ff84dfcc8fb29b1a8e7db"}, {"bike_id": "6bdb47fb0c0cffc0605a94a7201886a7", "type": "electric_scooter", "is_disabled": 0, "lat": 38.924014, "rental_uris": {"ios": "https://dc.lft.to/lastmile_qr_scan", "android": "https://dc.lft.to/lastmile_qr_scan"}, "is_reserved": 0, "fusion_lon": 0.0, "fusion_lat": 0.0, "lon": -76.99372866666667, "name": "6bdb47fb0c0cffc0605a94a7201886a7"}, {"bike_id": "2b16f8533bc4c3f90369d82b827f2bae", "type": "electric_scooter", "is_disabled": 0, "lat": 38.922563333333336, "rental_uris": {"ios": "https://dc.lft.to/lastmile_qr_scan", "android": "https://dc.lft.to/lastmile_qr_scan"}, "is_reserved": 0, "fusion_lon": 0.0, "fusion_lat": 0.0, "lon": -77.03891433333334, "name": "2b16f8533bc4c3f90369d82b827f2bae"}, {"bike_id": "dfadacaa6c3402c1a3c8aa9d386d83a2", "type": "electric_scooter", "is_disabled": 0, "lat": 38.91935333333333, "rental_uris": {"ios": "https://dc.lft.to/lastmile_qr_scan", "android": "https://dc.lft.to/lastmile_qr_scan"}, "is_reserved": 0, "fusion_lon": 0.0, "fusion_lat": 0.0, "lon": -77.01408183333334, "name": "dfadacaa6c3402c1a3c8aa9d386d83a2"}, {"bike_id": "b6207ac90f30d49efa4217d9f190c595", "type": "electric_scooter", "is_disabled": 0, "lat": 38.877951833333334, "rental_uris": {"ios": "https://dc.lft.to/lastmile_qr_scan", "android": "https://dc.lft.to/lastmile_qr_scan"}, "is_reserved": 0, "fusion_lon": 0.0, "fusion_lat": 0.0, "lon": -77.01747216666666, "name": "b6207ac90f30d49efa4217d9f190c595"}, {"bike_id": "7b13fc950f74015d031763849fb6c81c", "type": "electric_scooter", "is_disabled": 0, "lat": 38.942122166666664, "rental_uris": {"ios": "https://dc.lft.to/lastmile_qr_scan", "android": "https://dc.lft.to/lastmile_qr_scan"}, "is_reserved": 0, "fusion_lon": 0.0, "fusion_lat": 0.0, "lon": -77.01742616666667, "name": "7b13fc950f74015d031763849fb6c81c"}, {"bike_id": "426df96a881b4f71d708e83efc6c39b4", "type": "electric_scooter", "is_disabled": 0, "lat": 38.9000545, "rental_uris": {"ios": "https://dc.lft.to/lastmile_qr_scan", "android": "https://dc.lft.to/lastmile_qr_scan"}, "is_reserved": 0, "fusion_lon": 0.0, "fusion_lat": 0.0, "lon": -77.00197616666667, "name": "426df96a881b4f71d708e83efc6c39b4"}, {"bike_id": "8ee50d8e58bad6a333b09ecfc6982c47", "type": "electric_scooter", "is_disabled": 0, "lat": 38.905464, "rental_uris": {"ios": "https://dc.lft.to/lastmile_qr_scan", "android": "https://dc.lft.to/lastmile_qr_scan"}, "is_reserved": 0, "fusion_lon": 0.0, "fusion_lat": 0.0, "lon": -77.00589616666667, "name": "8ee50d8e58bad6a333b09ecfc6982c47"}, {"bike_id": "3eb3847305fe30e477b4412c6f28039a", "type": "electric_scooter", "is_disabled": 0, "lat": 38.919116, "rental_uris": {"ios": "https://dc.lft.to/lastmile_qr_scan", "android": "https://dc.lft.to/lastmile_qr_scan"}, "is_reserved": 0, "fusion_lon": 0.0, "fusion_lat": 0.0, "lon": -77.03447733333333, "name": "3eb3847305fe30e477b4412c6f28039a"}, {"bike_id": "3e4c63e4af66ea1c3bf7492a9abec3c9", "type": "electric_scooter", "is_disabled": 0, "lat": 38.916327833333334, "rental_uris": {"ios": "https://dc.lft.to/lastmile_qr_scan", "android": "https://dc.lft.to/lastmile_qr_scan"}, "is_reserved": 0, "fusion_lon": 0.0, "fusion_lat": 0.0, "lon": -77.02550983333333, "name": "3e4c63e4af66ea1c3bf7492a9abec3c9"}, {"bike_id": "fa85a33a1dab546ccb579c36de5995e9", "type": "electric_scooter", "is_disabled": 0, "lat": 38.902888, "rental_uris": {"ios": "https://dc.lft.to/lastmile_qr_scan", "android": "https://dc.lft.to/lastmile_qr_scan"}, "is_reserved": 0, "fusion_lon": 0.0, "fusion_lat": 0.0, "lon": -77.04386483333333, "name": "fa85a33a1dab546ccb579c36de5995e9"}, {"bike_id": "4da8a507c67d4c9d9f50a4ceba2047e1", "type": "electric_scooter", "is_disabled": 0, "lat": 38.903927833333334, "rental_uris": {"ios": "https://dc.lft.to/lastmile_qr_scan", "android": "https://dc.lft.to/lastmile_qr_scan"}, "is_reserved": 0, "fusion_lon": 0.0, "fusion_lat": 0.0, "lon": -76.982028, "name": "4da8a507c67d4c9d9f50a4ceba2047e1"}, {"bike_id": "01ab6332530fe83707394e9972df3e22", "type": "electric_scooter", "is_disabled": 0, "lat": 38.932774333333334, "rental_uris": {"ios": "https://dc.lft.to/lastmile_qr_scan", "android": "https://dc.lft.to/lastmile_qr_scan"}, "is_reserved": 0, "fusion_lon": 0.0, "fusion_lat": 0.0, "lon": -77.04536766666666, "name": "01ab6332530fe83707394e9972df3e22"}, {"bike_id": "b36ee280f455cf99ef562d92c194361b", "type": "electric_scooter", "is_disabled": 0, "lat": 38.933614166666665, "rental_uris": {"ios": "https://dc.lft.to/lastmile_qr_scan", "android": "https://dc.lft.to/lastmile_qr_scan"}, "is_reserved": 0, "fusion_lon": 0.0, "fusion_lat": 0.0, "lon": -77.08856733333333, "name": "b36ee280f455cf99ef562d92c194361b"}, {"bike_id": "08e8848a616e9ce0b766c10691f52e39", "type": "electric_scooter", "is_disabled": 0, "lat": 38.9238175, "rental_uris": {"ios": "https://dc.lft.to/lastmile_qr_scan", "android": "https://dc.lft.to/lastmile_qr_scan"}, "is_reserved": 0, "fusion_lon": 0.0, "fusion_lat": 0.0, "lon": -77.01949533333334, "name": "08e8848a616e9ce0b766c10691f52e39"}, {"bike_id": "8075e847079214f44abb0d8317098fec", "type": "electric_scooter", "is_disabled": 0, "lat": 38.903993666666665, "rental_uris": {"ios": "https://dc.lft.to/lastmile_qr_scan", "android": "https://dc.lft.to/lastmile_qr_scan"}, "is_reserved": 0, "fusion_lon": 0.0, "fusion_lat": 0.0, "lon": -77.0239935, "name": "8075e847079214f44abb0d8317098fec"}, {"bike_id": "56dcf8dafaa0cf912e3079647a1de64b", "type": "electric_scooter", "is_disabled": 0, "lat": 38.91686816666667, "rental_uris": {"ios": "https://dc.lft.to/lastmile_qr_scan", "android": "https://dc.lft.to/lastmile_qr_scan"}, "is_reserved": 0, "fusion_lon": 0.0, "fusion_lat": 0.0, "lon": -77.03205283333334, "name": "56dcf8dafaa0cf912e3079647a1de64b"}, {"bike_id": "e8e70a6aad662d9c1c8d1243a04f292d", "type": "electric_scooter", "is_disabled": 0, "lat": 38.89016083333333, "rental_uris": {"ios": "https://dc.lft.to/lastmile_qr_scan", "android": "https://dc.lft.to/lastmile_qr_scan"}, "is_reserved": 0, "fusion_lon": 0.0, "fusion_lat": 0.0, "lon": -77.03327616666667, "name": "e8e70a6aad662d9c1c8d1243a04f292d"}, {"bike_id": "ba26fa03f69126a79003a5dead471997", "type": "electric_scooter", "is_disabled": 0, "lat": 38.92660716666666, "rental_uris": {"ios": "https://dc.lft.to/lastmile_qr_scan", "android": "https://dc.lft.to/lastmile_qr_scan"}, "is_reserved": 0, "fusion_lon": 0.0, "fusion_lat": 0.0, "lon": -77.03729566666667, "name": "ba26fa03f69126a79003a5dead471997"}, {"bike_id": "be6f037816c4f26d318ebb8bafdd5f85", "type": "electric_scooter", "is_disabled": 0, "lat": 38.91563216666667, "rental_uris": {"ios": "https://dc.lft.to/lastmile_qr_scan", "android": "https://dc.lft.to/lastmile_qr_scan"}, "is_reserved": 0, "fusion_lon": 0.0, "fusion_lat": 0.0, "lon": -77.04509483333334, "name": "be6f037816c4f26d318ebb8bafdd5f85"}, {"bike_id": "747b2832a0a020dc72fefe4c1d76dfb5", "type": "electric_scooter", "is_disabled": 0, "lat": 38.91127616666667, "rental_uris": {"ios": "https://dc.lft.to/lastmile_qr_scan", "android": "https://dc.lft.to/lastmile_qr_scan"}, "is_reserved": 0, "fusion_lon": 0.0, "fusion_lat": 0.0, "lon": -77.03213633333333, "name": "747b2832a0a020dc72fefe4c1d76dfb5"}, {"bike_id": "17372b9985e1a81eefebb4f90e391e42", "type": "electric_scooter", "is_disabled": 0, "lat": 38.90778266666667, "rental_uris": {"ios": "https://dc.lft.to/lastmile_qr_scan", "android": "https://dc.lft.to/lastmile_qr_scan"}, "is_reserved": 0, "fusion_lon": 0.0, "fusion_lat": 0.0, "lon": -77.03823216666666, "name": "17372b9985e1a81eefebb4f90e391e42"}, {"bike_id": "03f530d3892ac90cf94849a6e3fd3149", "type": "electric_scooter", "is_disabled": 0, "lat": 38.9023795, "rental_uris": {"ios": "https://dc.lft.to/lastmile_qr_scan", "android": "https://dc.lft.to/lastmile_qr_scan"}, "is_reserved": 0, "fusion_lon": 0.0, "fusion_lat": 0.0, "lon": -77.00200333333333, "name": "03f530d3892ac90cf94849a6e3fd3149"}, {"bike_id": "d7542b05a0b38c12f45279be464c6230", "type": "electric_scooter", "is_disabled": 0, "lat": 38.89734083333333, "rental_uris": {"ios": "https://dc.lft.to/lastmile_qr_scan", "android": "https://dc.lft.to/lastmile_qr_scan"}, "is_reserved": 0, "fusion_lon": 0.0, "fusion_lat": 0.0, "lon": -77.054729, "name": "d7542b05a0b38c12f45279be464c6230"}, {"bike_id": "6cab241151565e95d2e044ccac5ac9c6", "type": "electric_bike", "is_disabled": 0, "lat": 39.039936, "rental_uris": {"ios": "https://dc.lft.to/lastmile_qr_scan", "android": "https://dc.lft.to/lastmile_qr_scan"}, "is_reserved": 0, "fusion_lon": 0.0, "fusion_lat": 0.0, "lon": -76.9992675, "name": "6cab241151565e95d2e044ccac5ac9c6"}, {"bike_id": "03a6a88677e275e208ad6aca4bb5d286", "type": "electric_scooter", "is_disabled": 0, "lat": 38.9179715, "rental_uris": {"ios": "https://dc.lft.to/lastmile_qr_scan", "android": "https://dc.lft.to/lastmile_qr_scan"}, "is_reserved": 0, "fusion_lon": 0.0, "fusion_lat": 0.0, "lon": -77.02711916666667, "name": "03a6a88677e275e208ad6aca4bb5d286"}, {"bike_id": "427aaa684ad086642e8699b53be20ece", "type": "electric_scooter", "is_disabled": 0, "lat": 38.90651416666667, "rental_uris": {"ios": "https://dc.lft.to/lastmile_qr_scan", "android": "https://dc.lft.to/lastmile_qr_scan"}, "is_reserved": 0, "fusion_lon": 0.0, "fusion_lat": 0.0, "lon": -76.98589366666667, "name": "427aaa684ad086642e8699b53be20ece"}, {"bike_id": "b97b908fc0ba9a25ad32a6774fb14da6", "type": "electric_scooter", "is_disabled": 0, "lat": 38.922177, "rental_uris": {"ios": "https://dc.lft.to/lastmile_qr_scan", "android": "https://dc.lft.to/lastmile_qr_scan"}, "is_reserved": 0, "fusion_lon": 0.0, "fusion_lat": 0.0, "lon": -77.03467066666667, "name": "b97b908fc0ba9a25ad32a6774fb14da6"}, {"bike_id": "a86ee65d7f2c0732fbc015310f6d9508", "type": "electric_scooter", "is_disabled": 0, "lat": 38.9614, "rental_uris": {"ios": "https://dc.lft.to/lastmile_qr_scan", "android": "https://dc.lft.to/lastmile_qr_scan"}, "is_reserved": 0, "fusion_lon": 0.0, "fusion_lat": 0.0, "lon": -77.02990116666666, "name": "a86ee65d7f2c0732fbc015310f6d9508"}, {"bike_id": "59c93342d702f204246ff46f8957a11d", "type": "electric_scooter", "is_disabled": 0, "lat": 38.90259783333333, "rental_uris": {"ios": "https://dc.lft.to/lastmile_qr_scan", "android": "https://dc.lft.to/lastmile_qr_scan"}, "is_reserved": 0, "fusion_lon": 0.0, "fusion_lat": 0.0, "lon": -76.97550316666667, "name": "59c93342d702f204246ff46f8957a11d"}, {"bike_id": "08956aac45fe552fe7c595db8bad93b3", "type": "electric_scooter", "is_disabled": 0, "lat": 38.90960666666667, "rental_uris": {"ios": "https://dc.lft.to/lastmile_qr_scan", "android": "https://dc.lft.to/lastmile_qr_scan"}, "is_reserved": 0, "fusion_lon": 0.0, "fusion_lat": 0.0, "lon": -77.02685683333333, "name": "08956aac45fe552fe7c595db8bad93b3"}, {"bike_id": "1ccbdc3ce58e3055df697ad6338fef51", "type": "electric_scooter", "is_disabled": 0, "lat": 38.885287166666664, "rental_uris": {"ios": "https://dc.lft.to/lastmile_qr_scan", "android": "https://dc.lft.to/lastmile_qr_scan"}, "is_reserved": 0, "fusion_lon": 0.0, "fusion_lat": 0.0, "lon": -77.0113685, "name": "1ccbdc3ce58e3055df697ad6338fef51"}, {"bike_id": "ddbedeaa8e9770a44367b2462cce11b7", "type": "electric_scooter", "is_disabled": 0, "lat": 38.919178333333335, "rental_uris": {"ios": "https://dc.lft.to/lastmile_qr_scan", "android": "https://dc.lft.to/lastmile_qr_scan"}, "is_reserved": 0, "fusion_lon": 0.0, "fusion_lat": 0.0, "lon": -77.03422366666666, "name": "ddbedeaa8e9770a44367b2462cce11b7"}, {"bike_id": "f646d899ababce39938c1c4f418aacfb", "type": "electric_bike", "is_disabled": 0, "lat": 38.85356083333333, "rental_uris": {"ios": "https://dc.lft.to/lastmile_qr_scan", "android": "https://dc.lft.to/lastmile_qr_scan"}, "is_reserved": 0, "fusion_lon": 0.0, "fusion_lat": 0.0, "lon": -77.08686333333333, "name": "f646d899ababce39938c1c4f418aacfb"}, {"bike_id": "dccc6d8c1a809871c74f71d4cafe431f", "type": "electric_scooter", "is_disabled": 0, "lat": 38.8987015, "rental_uris": {"ios": "https://dc.lft.to/lastmile_qr_scan", "android": "https://dc.lft.to/lastmile_qr_scan"}, "is_reserved": 0, "fusion_lon": 0.0, "fusion_lat": 0.0, "lon": -76.946643, "name": "dccc6d8c1a809871c74f71d4cafe431f"}, {"bike_id": "eaadade0397bfca1ac51524aa21debd0", "type": "electric_scooter", "is_disabled": 0, "lat": 38.865059333333335, "rental_uris": {"ios": "https://dc.lft.to/lastmile_qr_scan", "android": "https://dc.lft.to/lastmile_qr_scan"}, "is_reserved": 0, "fusion_lon": 0.0, "fusion_lat": 0.0, "lon": -76.99002366666667, "name": "eaadade0397bfca1ac51524aa21debd0"}, {"bike_id": "4dd7b47bfd45cee45ec9559d28525ccf", "type": "electric_scooter", "is_disabled": 0, "lat": 38.91570266666667, "rental_uris": {"ios": "https://dc.lft.to/lastmile_qr_scan", "android": "https://dc.lft.to/lastmile_qr_scan"}, "is_reserved": 0, "fusion_lon": 0.0, "fusion_lat": 0.0, "lon": -77.0313975, "name": "4dd7b47bfd45cee45ec9559d28525ccf"}, {"bike_id": "2c6e7722c62d28a82bf7bc829a50083b", "type": "electric_scooter", "is_disabled": 0, "lat": 38.871770166666664, "rental_uris": {"ios": "https://dc.lft.to/lastmile_qr_scan", "android": "https://dc.lft.to/lastmile_qr_scan"}, "is_reserved": 0, "fusion_lon": 0.0, "fusion_lat": 0.0, "lon": -77.00624933333333, "name": "2c6e7722c62d28a82bf7bc829a50083b"}, {"bike_id": "087f6f8c1c1629a720de80e3c57d9135", "type": "electric_scooter", "is_disabled": 0, "lat": 38.914945833333334, "rental_uris": {"ios": "https://dc.lft.to/lastmile_qr_scan", "android": "https://dc.lft.to/lastmile_qr_scan"}, "is_reserved": 0, "fusion_lon": 0.0, "fusion_lat": 0.0, "lon": -77.01858683333333, "name": "087f6f8c1c1629a720de80e3c57d9135"}, {"bike_id": "8ff44d55d40beed768da74cd95644398", "type": "electric_scooter", "is_disabled": 0, "lat": 38.889912833333334, "rental_uris": {"ios": "https://dc.lft.to/lastmile_qr_scan", "android": "https://dc.lft.to/lastmile_qr_scan"}, "is_reserved": 0, "fusion_lon": 0.0, "fusion_lat": 0.0, "lon": -77.00038083333334, "name": "8ff44d55d40beed768da74cd95644398"}, {"bike_id": "e3ff37412a607a1d949b12f7cb73948f", "type": "electric_scooter", "is_disabled": 0, "lat": 38.92363483333333, "rental_uris": {"ios": "https://dc.lft.to/lastmile_qr_scan", "android": "https://dc.lft.to/lastmile_qr_scan"}, "is_reserved": 0, "fusion_lon": 0.0, "fusion_lat": 0.0, "lon": -77.05129033333333, "name": "e3ff37412a607a1d949b12f7cb73948f"}, {"bike_id": "ca3de5d19a341e80f4b1351fed344102", "type": "electric_scooter", "is_disabled": 0, "lat": 38.932506333333336, "rental_uris": {"ios": "https://dc.lft.to/lastmile_qr_scan", "android": "https://dc.lft.to/lastmile_qr_scan"}, "is_reserved": 0, "fusion_lon": 0.0, "fusion_lat": 0.0, "lon": -77.03642816666667, "name": "ca3de5d19a341e80f4b1351fed344102"}, {"bike_id": "df2293611871693c43bd8e64487345e6", "type": "electric_bike", "is_disabled": 0, "lat": 38.84528516666666, "rental_uris": {"ios": "https://dc.lft.to/lastmile_qr_scan", "android": "https://dc.lft.to/lastmile_qr_scan"}, "is_reserved": 0, "fusion_lon": 0.0, "fusion_lat": 0.0, "lon": -76.97397233333334, "name": "df2293611871693c43bd8e64487345e6"}, {"bike_id": "0b7c06b925dc5b9b9c7d21ec8cb0dcc8", "type": "electric_scooter", "is_disabled": 0, "lat": 38.88761983333333, "rental_uris": {"ios": "https://dc.lft.to/lastmile_qr_scan", "android": "https://dc.lft.to/lastmile_qr_scan"}, "is_reserved": 0, "fusion_lon": 0.0, "fusion_lat": 0.0, "lon": -76.95598583333333, "name": "0b7c06b925dc5b9b9c7d21ec8cb0dcc8"}, {"bike_id": "950431da10c1bbdeac09436647daac25", "type": "electric_scooter", "is_disabled": 0, "lat": 38.9115495, "rental_uris": {"ios": "https://dc.lft.to/lastmile_qr_scan", "android": "https://dc.lft.to/lastmile_qr_scan"}, "is_reserved": 0, "fusion_lon": 0.0, "fusion_lat": 0.0, "lon": -77.04425366666666, "name": "950431da10c1bbdeac09436647daac25"}, {"bike_id": "d494245f849aac10762e167a26587d41", "type": "electric_scooter", "is_disabled": 0, "lat": 38.90221116666667, "rental_uris": {"ios": "https://dc.lft.to/lastmile_qr_scan", "android": "https://dc.lft.to/lastmile_qr_scan"}, "is_reserved": 0, "fusion_lon": 0.0, "fusion_lat": 0.0, "lon": -77.04763816666667, "name": "d494245f849aac10762e167a26587d41"}, {"bike_id": "7e81236b245f5b1405e46a2dcc1a375b", "type": "electric_scooter", "is_disabled": 0, "lat": 38.9321285, "rental_uris": {"ios": "https://dc.lft.to/lastmile_qr_scan", "android": "https://dc.lft.to/lastmile_qr_scan"}, "is_reserved": 0, "fusion_lon": 0.0, "fusion_lat": 0.0, "lon": -77.03512616666667, "name": "7e81236b245f5b1405e46a2dcc1a375b"}, {"bike_id": "1654ee07bec95f85724440e333f47efa", "type": "electric_scooter", "is_disabled": 0, "lat": 38.92322633333333, "rental_uris": {"ios": "https://dc.lft.to/lastmile_qr_scan", "android": "https://dc.lft.to/lastmile_qr_scan"}, "is_reserved": 0, "fusion_lon": 0.0, "fusion_lat": 0.0, "lon": -77.02149566666667, "name": "1654ee07bec95f85724440e333f47efa"}, {"bike_id": "bb587c452b2cbf74894a7f568ee13234", "type": "electric_scooter", "is_disabled": 0, "lat": 38.9500015, "rental_uris": {"ios": "https://dc.lft.to/lastmile_qr_scan", "android": "https://dc.lft.to/lastmile_qr_scan"}, "is_reserved": 0, "fusion_lon": 0.0, "fusion_lat": 0.0, "lon": -77.00871983333333, "name": "bb587c452b2cbf74894a7f568ee13234"}, {"bike_id": "37ba3542fd8063ef61ef6b2a8e40e01d", "type": "electric_scooter", "is_disabled": 0, "lat": 38.90076883333333, "rental_uris": {"ios": "https://dc.lft.to/lastmile_qr_scan", "android": "https://dc.lft.to/lastmile_qr_scan"}, "is_reserved": 0, "fusion_lon": 0.0, "fusion_lat": 0.0, "lon": -77.04688083333333, "name": "37ba3542fd8063ef61ef6b2a8e40e01d"}, {"bike_id": "b228cdc0c4a42713cb810d28ea95b2e2", "type": "electric_scooter", "is_disabled": 0, "lat": 38.90574633333333, "rental_uris": {"ios": "https://dc.lft.to/lastmile_qr_scan", "android": "https://dc.lft.to/lastmile_qr_scan"}, "is_reserved": 0, "fusion_lon": 0.0, "fusion_lat": 0.0, "lon": -77.00479433333334, "name": "b228cdc0c4a42713cb810d28ea95b2e2"}, {"bike_id": "df413d20e678751d16b1bf34d5280cc3", "type": "electric_scooter", "is_disabled": 0, "lat": 38.916046333333334, "rental_uris": {"ios": "https://dc.lft.to/lastmile_qr_scan", "android": "https://dc.lft.to/lastmile_qr_scan"}, "is_reserved": 0, "fusion_lon": 0.0, "fusion_lat": 0.0, "lon": -77.03386483333334, "name": "df413d20e678751d16b1bf34d5280cc3"}, {"bike_id": "f3e2a0fac83249fd7a34d5cc03d500a6", "type": "electric_scooter", "is_disabled": 0, "lat": 38.8780835, "rental_uris": {"ios": "https://dc.lft.to/lastmile_qr_scan", "android": "https://dc.lft.to/lastmile_qr_scan"}, "is_reserved": 0, "fusion_lon": 0.0, "fusion_lat": 0.0, "lon": -77.01746433333334, "name": "f3e2a0fac83249fd7a34d5cc03d500a6"}, {"bike_id": "48cb3e2370e89971e53d74256434c4dc", "type": "electric_bike", "is_disabled": 0, "lat": 38.80763533333333, "rental_uris": {"ios": "https://dc.lft.to/lastmile_qr_scan", "android": "https://dc.lft.to/lastmile_qr_scan"}, "is_reserved": 0, "fusion_lon": 0.0, "fusion_lat": 0.0, "lon": -77.09467866666667, "name": "48cb3e2370e89971e53d74256434c4dc"}, {"bike_id": "e3acbaea1ff6010e8f70e47b33d55a4d", "type": "electric_scooter", "is_disabled": 0, "lat": 38.91885883333333, "rental_uris": {"ios": "https://dc.lft.to/lastmile_qr_scan", "android": "https://dc.lft.to/lastmile_qr_scan"}, "is_reserved": 0, "fusion_lon": 0.0, "fusion_lat": 0.0, "lon": -77.03485783333333, "name": "e3acbaea1ff6010e8f70e47b33d55a4d"}, {"bike_id": "a0406c008ac83d59e7ff99f86a86daff", "type": "electric_scooter", "is_disabled": 0, "lat": 38.92967766666666, "rental_uris": {"ios": "https://dc.lft.to/lastmile_qr_scan", "android": "https://dc.lft.to/lastmile_qr_scan"}, "is_reserved": 0, "fusion_lon": 0.0, "fusion_lat": 0.0, "lon": -77.03135783333333, "name": "a0406c008ac83d59e7ff99f86a86daff"}, {"bike_id": "58e527cab10543a442c6cf60554d7bc0", "type": "electric_scooter", "is_disabled": 0, "lat": 38.909805166666665, "rental_uris": {"ios": "https://dc.lft.to/lastmile_qr_scan", "android": "https://dc.lft.to/lastmile_qr_scan"}, "is_reserved": 0, "fusion_lon": 0.0, "fusion_lat": 0.0, "lon": -77.03440666666667, "name": "58e527cab10543a442c6cf60554d7bc0"}, {"bike_id": "74fb39f87014a44691743ad0330967cc", "type": "electric_scooter", "is_disabled": 0, "lat": 38.865032166666666, "rental_uris": {"ios": "https://dc.lft.to/lastmile_qr_scan", "android": "https://dc.lft.to/lastmile_qr_scan"}, "is_reserved": 0, "fusion_lon": 0.0, "fusion_lat": 0.0, "lon": -76.99001833333334, "name": "74fb39f87014a44691743ad0330967cc"}, {"bike_id": "22c7831d54d205921d58594f30a31224", "type": "electric_scooter", "is_disabled": 0, "lat": 38.914031333333334, "rental_uris": {"ios": "https://dc.lft.to/lastmile_qr_scan", "android": "https://dc.lft.to/lastmile_qr_scan"}, "is_reserved": 0, "fusion_lon": 0.0, "fusion_lat": 0.0, "lon": -77.03449916666666, "name": "22c7831d54d205921d58594f30a31224"}, {"bike_id": "290be44c917d7d12a05b374151b33248", "type": "electric_scooter", "is_disabled": 0, "lat": 38.9205985, "rental_uris": {"ios": "https://dc.lft.to/lastmile_qr_scan", "android": "https://dc.lft.to/lastmile_qr_scan"}, "is_reserved": 0, "fusion_lon": 0.0, "fusion_lat": 0.0, "lon": -77.044082, "name": "290be44c917d7d12a05b374151b33248"}, {"bike_id": "119fcc38cd3773fa052a2ef4c2bff01a", "type": "electric_scooter", "is_disabled": 0, "lat": 38.9232125, "rental_uris": {"ios": "https://dc.lft.to/lastmile_qr_scan", "android": "https://dc.lft.to/lastmile_qr_scan"}, "is_reserved": 0, "fusion_lon": 0.0, "fusion_lat": 0.0, "lon": -77.04041066666667, "name": "119fcc38cd3773fa052a2ef4c2bff01a"}, {"bike_id": "0987ca91183d4d0b9004932201ba9e2f", "type": "electric_scooter", "is_disabled": 0, "lat": 38.903260833333334, "rental_uris": {"ios": "https://dc.lft.to/lastmile_qr_scan", "android": "https://dc.lft.to/lastmile_qr_scan"}, "is_reserved": 0, "fusion_lon": 0.0, "fusion_lat": 0.0, "lon": -76.98287183333333, "name": "0987ca91183d4d0b9004932201ba9e2f"}, {"bike_id": "2747c12e1fca86dcf1d18a287b926205", "type": "electric_bike", "is_disabled": 0, "lat": 38.99347183333333, "rental_uris": {"ios": "https://dc.lft.to/lastmile_qr_scan", "android": "https://dc.lft.to/lastmile_qr_scan"}, "is_reserved": 0, "fusion_lon": 0.0, "fusion_lat": 0.0, "lon": -77.11577716666666, "name": "2747c12e1fca86dcf1d18a287b926205"}, {"bike_id": "981328a344d129966983e8bc2da5852f", "type": "electric_scooter", "is_disabled": 0, "lat": 38.93582266666667, "rental_uris": {"ios": "https://dc.lft.to/lastmile_qr_scan", "android": "https://dc.lft.to/lastmile_qr_scan"}, "is_reserved": 0, "fusion_lon": 0.0, "fusion_lat": 0.0, "lon": -77.03359483333334, "name": "981328a344d129966983e8bc2da5852f"}, {"bike_id": "0fb2d3b4cbc43d44348b8235300bdff1", "type": "electric_scooter", "is_disabled": 0, "lat": 38.90611883333333, "rental_uris": {"ios": "https://dc.lft.to/lastmile_qr_scan", "android": "https://dc.lft.to/lastmile_qr_scan"}, "is_reserved": 0, "fusion_lon": 0.0, "fusion_lat": 0.0, "lon": -77.04148933333333, "name": "0fb2d3b4cbc43d44348b8235300bdff1"}, {"bike_id": "1167193cbb1d00c6e70af1a415499fe5", "type": "electric_scooter", "is_disabled": 0, "lat": 38.90028983333333, "rental_uris": {"ios": "https://dc.lft.to/lastmile_qr_scan", "android": "https://dc.lft.to/lastmile_qr_scan"}, "is_reserved": 0, "fusion_lon": 0.0, "fusion_lat": 0.0, "lon": -77.03514166666666, "name": "1167193cbb1d00c6e70af1a415499fe5"}, {"bike_id": "6a0b2a404a4c3bfcf1b4467e976c211e", "type": "electric_scooter", "is_disabled": 0, "lat": 38.9220505, "rental_uris": {"ios": "https://dc.lft.to/lastmile_qr_scan", "android": "https://dc.lft.to/lastmile_qr_scan"}, "is_reserved": 0, "fusion_lon": 0.0, "fusion_lat": 0.0, "lon": -77.03901833333333, "name": "6a0b2a404a4c3bfcf1b4467e976c211e"}, {"bike_id": "0a676da457905897bf88ded1299b21a0", "type": "electric_scooter", "is_disabled": 0, "lat": 38.90177633333333, "rental_uris": {"ios": "https://dc.lft.to/lastmile_qr_scan", "android": "https://dc.lft.to/lastmile_qr_scan"}, "is_reserved": 0, "fusion_lon": 0.0, "fusion_lat": 0.0, "lon": -77.02485416666667, "name": "0a676da457905897bf88ded1299b21a0"}, {"bike_id": "dff80571f017acba911c54dd7bb0bc4c", "type": "electric_scooter", "is_disabled": 0, "lat": 38.92890333333333, "rental_uris": {"ios": "https://dc.lft.to/lastmile_qr_scan", "android": "https://dc.lft.to/lastmile_qr_scan"}, "is_reserved": 0, "fusion_lon": 0.0, "fusion_lat": 0.0, "lon": -77.03249983333333, "name": "dff80571f017acba911c54dd7bb0bc4c"}, {"bike_id": "3f4567a306e60e7815c861287793fd6e", "type": "electric_scooter", "is_disabled": 0, "lat": 38.905735166666666, "rental_uris": {"ios": "https://dc.lft.to/lastmile_qr_scan", "android": "https://dc.lft.to/lastmile_qr_scan"}, "is_reserved": 0, "fusion_lon": 0.0, "fusion_lat": 0.0, "lon": -77.03028466666666, "name": "3f4567a306e60e7815c861287793fd6e"}, {"bike_id": "b2b0b3759b73f93876a436d2c5210b9a", "type": "electric_scooter", "is_disabled": 0, "lat": 38.90269816666667, "rental_uris": {"ios": "https://dc.lft.to/lastmile_qr_scan", "android": "https://dc.lft.to/lastmile_qr_scan"}, "is_reserved": 0, "fusion_lon": 0.0, "fusion_lat": 0.0, "lon": -77.03848933333333, "name": "b2b0b3759b73f93876a436d2c5210b9a"}, {"bike_id": "f69b88c79292c2fbc481d356f39e2b16", "type": "electric_scooter", "is_disabled": 0, "lat": 38.892550666666665, "rental_uris": {"ios": "https://dc.lft.to/lastmile_qr_scan", "android": "https://dc.lft.to/lastmile_qr_scan"}, "is_reserved": 0, "fusion_lon": 0.0, "fusion_lat": 0.0, "lon": -77.04673533333333, "name": "f69b88c79292c2fbc481d356f39e2b16"}, {"bike_id": "34fc411281fa8774b8a42ef37298cbc3", "type": "electric_scooter", "is_disabled": 0, "lat": 38.909754666666664, "rental_uris": {"ios": "https://dc.lft.to/lastmile_qr_scan", "android": "https://dc.lft.to/lastmile_qr_scan"}, "is_reserved": 0, "fusion_lon": 0.0, "fusion_lat": 0.0, "lon": -77.03211366666666, "name": "34fc411281fa8774b8a42ef37298cbc3"}, {"bike_id": "08d43627cf4a41fd0b2bbad972b63d01", "type": "electric_scooter", "is_disabled": 0, "lat": 38.9211515, "rental_uris": {"ios": "https://dc.lft.to/lastmile_qr_scan", "android": "https://dc.lft.to/lastmile_qr_scan"}, "is_reserved": 0, "fusion_lon": 0.0, "fusion_lat": 0.0, "lon": -77.012199, "name": "08d43627cf4a41fd0b2bbad972b63d01"}, {"bike_id": "e99752967874207e0584c3bda39ef423", "type": "electric_scooter", "is_disabled": 0, "lat": 38.9114275, "rental_uris": {"ios": "https://dc.lft.to/lastmile_qr_scan", "android": "https://dc.lft.to/lastmile_qr_scan"}, "is_reserved": 0, "fusion_lon": 0.0, "fusion_lat": 0.0, "lon": -77.02802383333334, "name": "e99752967874207e0584c3bda39ef423"}, {"bike_id": "a42825c36fa2d1fd94defb574392205e", "type": "electric_scooter", "is_disabled": 0, "lat": 38.895340833333336, "rental_uris": {"ios": "https://dc.lft.to/lastmile_qr_scan", "android": "https://dc.lft.to/lastmile_qr_scan"}, "is_reserved": 0, "fusion_lon": 0.0, "fusion_lat": 0.0, "lon": -76.94887433333334, "name": "a42825c36fa2d1fd94defb574392205e"}, {"bike_id": "51ef0f14a3aed509e9840569c4512671", "type": "electric_scooter", "is_disabled": 0, "lat": 38.906581, "rental_uris": {"ios": "https://dc.lft.to/lastmile_qr_scan", "android": "https://dc.lft.to/lastmile_qr_scan"}, "is_reserved": 0, "fusion_lon": 0.0, "fusion_lat": 0.0, "lon": -77.01414666666666, "name": "51ef0f14a3aed509e9840569c4512671"}, {"bike_id": "2ee8a22d1dab854622332f55390f51a7", "type": "electric_scooter", "is_disabled": 0, "lat": 38.93538483333333, "rental_uris": {"ios": "https://dc.lft.to/lastmile_qr_scan", "android": "https://dc.lft.to/lastmile_qr_scan"}, "is_reserved": 0, "fusion_lon": 0.0, "fusion_lat": 0.0, "lon": -77.03889183333334, "name": "2ee8a22d1dab854622332f55390f51a7"}, {"bike_id": "c5bec418507965c53c91c391f5330c62", "type": "electric_scooter", "is_disabled": 0, "lat": 38.92617116666667, "rental_uris": {"ios": "https://dc.lft.to/lastmile_qr_scan", "android": "https://dc.lft.to/lastmile_qr_scan"}, "is_reserved": 0, "fusion_lon": 0.0, "fusion_lat": 0.0, "lon": -77.04326116666667, "name": "c5bec418507965c53c91c391f5330c62"}, {"bike_id": "53a86f1436f8d820d35e1c255582d608", "type": "electric_scooter", "is_disabled": 0, "lat": 38.90002833333333, "rental_uris": {"ios": "https://dc.lft.to/lastmile_qr_scan", "android": "https://dc.lft.to/lastmile_qr_scan"}, "is_reserved": 0, "fusion_lon": 0.0, "fusion_lat": 0.0, "lon": -77.00209883333333, "name": "53a86f1436f8d820d35e1c255582d608"}, {"bike_id": "017c97c6cfb9cd26b2928cd00508a9a9", "type": "electric_scooter", "is_disabled": 0, "lat": 38.90797933333333, "rental_uris": {"ios": "https://dc.lft.to/lastmile_qr_scan", "android": "https://dc.lft.to/lastmile_qr_scan"}, "is_reserved": 0, "fusion_lon": 0.0, "fusion_lat": 0.0, "lon": -77.03123583333333, "name": "017c97c6cfb9cd26b2928cd00508a9a9"}, {"bike_id": "9e8444ee8e406b50a08a06ff6dcd714d", "type": "electric_bike", "is_disabled": 0, "lat": 38.94651533333333, "rental_uris": {"ios": "https://dc.lft.to/lastmile_qr_scan", "android": "https://dc.lft.to/lastmile_qr_scan"}, "is_reserved": 0, "fusion_lon": 0.0, "fusion_lat": 0.0, "lon": -76.99490016666667, "name": "9e8444ee8e406b50a08a06ff6dcd714d"}, {"bike_id": "de77cf427a09b66b7b8bd6a8a7858f8a", "type": "electric_scooter", "is_disabled": 0, "lat": 38.91008866666667, "rental_uris": {"ios": "https://dc.lft.to/lastmile_qr_scan", "android": "https://dc.lft.to/lastmile_qr_scan"}, "is_reserved": 0, "fusion_lon": 0.0, "fusion_lat": 0.0, "lon": -77.01624483333333, "name": "de77cf427a09b66b7b8bd6a8a7858f8a"}, {"bike_id": "e596ad1b8e5b2dac81a41f61657fb61a", "type": "electric_scooter", "is_disabled": 0, "lat": 38.918155, "rental_uris": {"ios": "https://dc.lft.to/lastmile_qr_scan", "android": "https://dc.lft.to/lastmile_qr_scan"}, "is_reserved": 0, "fusion_lon": 0.0, "fusion_lat": 0.0, "lon": -77.03251033333333, "name": "e596ad1b8e5b2dac81a41f61657fb61a"}, {"bike_id": "2e949e8412eed27341566ce86d1b12d0", "type": "electric_scooter", "is_disabled": 0, "lat": 38.914184666666664, "rental_uris": {"ios": "https://dc.lft.to/lastmile_qr_scan", "android": "https://dc.lft.to/lastmile_qr_scan"}, "is_reserved": 0, "fusion_lon": 0.0, "fusion_lat": 0.0, "lon": -77.02289066666667, "name": "2e949e8412eed27341566ce86d1b12d0"}, {"bike_id": "19681974f796f42966cff4664d7ac477", "type": "electric_scooter", "is_disabled": 0, "lat": 38.905145, "rental_uris": {"ios": "https://dc.lft.to/lastmile_qr_scan", "android": "https://dc.lft.to/lastmile_qr_scan"}, "is_reserved": 0, "fusion_lon": 0.0, "fusion_lat": 0.0, "lon": -77.02978833333333, "name": "19681974f796f42966cff4664d7ac477"}, {"bike_id": "ee8db5fc8406c1d2a24feecd6528278f", "type": "electric_scooter", "is_disabled": 0, "lat": 38.885623, "rental_uris": {"ios": "https://dc.lft.to/lastmile_qr_scan", "android": "https://dc.lft.to/lastmile_qr_scan"}, "is_reserved": 0, "fusion_lon": 0.0, "fusion_lat": 0.0, "lon": -77.00210133333333, "name": "ee8db5fc8406c1d2a24feecd6528278f"}, {"bike_id": "05333641a9217e13b5f7f8c746241b7c", "type": "electric_scooter", "is_disabled": 0, "lat": 38.92861416666667, "rental_uris": {"ios": "https://dc.lft.to/lastmile_qr_scan", "android": "https://dc.lft.to/lastmile_qr_scan"}, "is_reserved": 0, "fusion_lon": 0.0, "fusion_lat": 0.0, "lon": -77.03715733333334, "name": "05333641a9217e13b5f7f8c746241b7c"}, {"bike_id": "c61bade1d35e080811b35472754cfee8", "type": "electric_scooter", "is_disabled": 0, "lat": 38.904919666666665, "rental_uris": {"ios": "https://dc.lft.to/lastmile_qr_scan", "android": "https://dc.lft.to/lastmile_qr_scan"}, "is_reserved": 0, "fusion_lon": 0.0, "fusion_lat": 0.0, "lon": -77.0071885, "name": "c61bade1d35e080811b35472754cfee8"}, {"bike_id": "619bf82dceb2210a6a4c688d9eec568b", "type": "electric_scooter", "is_disabled": 0, "lat": 38.900818, "rental_uris": {"ios": "https://dc.lft.to/lastmile_qr_scan", "android": "https://dc.lft.to/lastmile_qr_scan"}, "is_reserved": 0, "fusion_lon": 0.0, "fusion_lat": 0.0, "lon": -77.04756783333333, "name": "619bf82dceb2210a6a4c688d9eec568b"}, {"bike_id": "3ad9d4064345e16410ade90453b04deb", "type": "electric_scooter", "is_disabled": 0, "lat": 38.942929166666666, "rental_uris": {"ios": "https://dc.lft.to/lastmile_qr_scan", "android": "https://dc.lft.to/lastmile_qr_scan"}, "is_reserved": 0, "fusion_lon": 0.0, "fusion_lat": 0.0, "lon": -77.02171233333334, "name": "3ad9d4064345e16410ade90453b04deb"}, {"bike_id": "59fd210e029e1dc1d3526755fcabe786", "type": "electric_scooter", "is_disabled": 0, "lat": 38.91748583333333, "rental_uris": {"ios": "https://dc.lft.to/lastmile_qr_scan", "android": "https://dc.lft.to/lastmile_qr_scan"}, "is_reserved": 0, "fusion_lon": 0.0, "fusion_lat": 0.0, "lon": -77.01708533333333, "name": "59fd210e029e1dc1d3526755fcabe786"}, {"bike_id": "f2e2f2b64842af0e388d9bcfb7e4c58e", "type": "electric_scooter", "is_disabled": 0, "lat": 38.92727716666667, "rental_uris": {"ios": "https://dc.lft.to/lastmile_qr_scan", "android": "https://dc.lft.to/lastmile_qr_scan"}, "is_reserved": 0, "fusion_lon": 0.0, "fusion_lat": 0.0, "lon": -77.03991966666666, "name": "f2e2f2b64842af0e388d9bcfb7e4c58e"}, {"bike_id": "85977ad2bd4f140dd1db2463438b2b7c", "type": "electric_scooter", "is_disabled": 0, "lat": 38.917488166666665, "rental_uris": {"ios": "https://dc.lft.to/lastmile_qr_scan", "android": "https://dc.lft.to/lastmile_qr_scan"}, "is_reserved": 0, "fusion_lon": 0.0, "fusion_lat": 0.0, "lon": -77.02285283333333, "name": "85977ad2bd4f140dd1db2463438b2b7c"}, {"bike_id": "80a94e60b371a55d9c847d8386a8d7a9", "type": "electric_scooter", "is_disabled": 0, "lat": 38.9137165, "rental_uris": {"ios": "https://dc.lft.to/lastmile_qr_scan", "android": "https://dc.lft.to/lastmile_qr_scan"}, "is_reserved": 0, "fusion_lon": 0.0, "fusion_lat": 0.0, "lon": -77.0413795, "name": "80a94e60b371a55d9c847d8386a8d7a9"}, {"bike_id": "0d71a7ff59fbaaf7adbcca43b75b15f1", "type": "electric_scooter", "is_disabled": 0, "lat": 38.908259, "rental_uris": {"ios": "https://dc.lft.to/lastmile_qr_scan", "android": "https://dc.lft.to/lastmile_qr_scan"}, "is_reserved": 0, "fusion_lon": 0.0, "fusion_lat": 0.0, "lon": -76.94159583333334, "name": "0d71a7ff59fbaaf7adbcca43b75b15f1"}, {"bike_id": "d620eeee61fe5a891aab0e1a8b5b9a0c", "type": "electric_bike", "is_disabled": 0, "lat": 38.872754666666665, "rental_uris": {"ios": "https://dc.lft.to/lastmile_qr_scan", "android": "https://dc.lft.to/lastmile_qr_scan"}, "is_reserved": 0, "fusion_lon": 0.0, "fusion_lat": 0.0, "lon": -77.23329733333334, "name": "d620eeee61fe5a891aab0e1a8b5b9a0c"}, {"bike_id": "fcf8b18027f8ee758a5fedb335ef786b", "type": "electric_scooter", "is_disabled": 0, "lat": 38.91413133333333, "rental_uris": {"ios": "https://dc.lft.to/lastmile_qr_scan", "android": "https://dc.lft.to/lastmile_qr_scan"}, "is_reserved": 0, "fusion_lon": 0.0, "fusion_lat": 0.0, "lon": -77.04134266666667, "name": "fcf8b18027f8ee758a5fedb335ef786b"}, {"bike_id": "c256974e8c2700fe11a06c0505f853c9", "type": "electric_bike", "is_disabled": 0, "lat": 38.964750333333335, "rental_uris": {"ios": "https://dc.lft.to/lastmile_qr_scan", "android": "https://dc.lft.to/lastmile_qr_scan"}, "is_reserved": 0, "fusion_lon": 0.0, "fusion_lat": 0.0, "lon": -77.03562766666667, "name": "c256974e8c2700fe11a06c0505f853c9"}, {"bike_id": "d3b7ed106caa61e6846ba6ab818ac634", "type": "electric_scooter", "is_disabled": 0, "lat": 38.89853333333333, "rental_uris": {"ios": "https://dc.lft.to/lastmile_qr_scan", "android": "https://dc.lft.to/lastmile_qr_scan"}, "is_reserved": 0, "fusion_lon": 0.0, "fusion_lat": 0.0, "lon": -76.99035183333334, "name": "d3b7ed106caa61e6846ba6ab818ac634"}, {"bike_id": "dfd50fb9fde3a4f961489eaa705ac227", "type": "electric_scooter", "is_disabled": 0, "lat": 38.91117933333334, "rental_uris": {"ios": "https://dc.lft.to/lastmile_qr_scan", "android": "https://dc.lft.to/lastmile_qr_scan"}, "is_reserved": 0, "fusion_lon": 0.0, "fusion_lat": 0.0, "lon": -77.03832816666667, "name": "dfd50fb9fde3a4f961489eaa705ac227"}, {"bike_id": "671d549cf2394e6a8fd1bf3a674b0c4b", "type": "electric_bike", "is_disabled": 0, "lat": 38.885912166666664, "rental_uris": {"ios": "https://dc.lft.to/lastmile_qr_scan", "android": "https://dc.lft.to/lastmile_qr_scan"}, "is_reserved": 0, "fusion_lon": 0.0, "fusion_lat": 0.0, "lon": -77.000637, "name": "671d549cf2394e6a8fd1bf3a674b0c4b"}, {"bike_id": "898f0deb510b068aee42f6893d14d2e1", "type": "electric_scooter", "is_disabled": 0, "lat": 38.912911, "rental_uris": {"ios": "https://dc.lft.to/lastmile_qr_scan", "android": "https://dc.lft.to/lastmile_qr_scan"}, "is_reserved": 0, "fusion_lon": 0.0, "fusion_lat": 0.0, "lon": -77.019745, "name": "898f0deb510b068aee42f6893d14d2e1"}, {"bike_id": "7fea522a78362e5d5f8a5bfab1b15278", "type": "electric_scooter", "is_disabled": 0, "lat": 38.917044833333335, "rental_uris": {"ios": "https://dc.lft.to/lastmile_qr_scan", "android": "https://dc.lft.to/lastmile_qr_scan"}, "is_reserved": 0, "fusion_lon": 0.0, "fusion_lat": 0.0, "lon": -77.01070633333333, "name": "7fea522a78362e5d5f8a5bfab1b15278"}, {"bike_id": "579e7700fb7ff45909b209de7863a49e", "type": "electric_scooter", "is_disabled": 0, "lat": 38.90780566666667, "rental_uris": {"ios": "https://dc.lft.to/lastmile_qr_scan", "android": "https://dc.lft.to/lastmile_qr_scan"}, "is_reserved": 0, "fusion_lon": 0.0, "fusion_lat": 0.0, "lon": -77.0204655, "name": "579e7700fb7ff45909b209de7863a49e"}, {"bike_id": "2d922c90a563686995cd5b3e278bcb0a", "type": "electric_scooter", "is_disabled": 0, "lat": 38.86252616666667, "rental_uris": {"ios": "https://dc.lft.to/lastmile_qr_scan", "android": "https://dc.lft.to/lastmile_qr_scan"}, "is_reserved": 0, "fusion_lon": 0.0, "fusion_lat": 0.0, "lon": -76.992638, "name": "2d922c90a563686995cd5b3e278bcb0a"}, {"bike_id": "54d2b4eca09095b56c1caf50d700dbdb", "type": "electric_scooter", "is_disabled": 0, "lat": 38.86377266666667, "rental_uris": {"ios": "https://dc.lft.to/lastmile_qr_scan", "android": "https://dc.lft.to/lastmile_qr_scan"}, "is_reserved": 0, "fusion_lon": 0.0, "fusion_lat": 0.0, "lon": -76.990558, "name": "54d2b4eca09095b56c1caf50d700dbdb"}, {"bike_id": "d59669b28924ec19755ada734aa97908", "type": "electric_bike", "is_disabled": 0, "lat": 38.908303, "rental_uris": {"ios": "https://dc.lft.to/lastmile_qr_scan", "android": "https://dc.lft.to/lastmile_qr_scan"}, "is_reserved": 0, "fusion_lon": 0.0, "fusion_lat": 0.0, "lon": -76.94157066666666, "name": "d59669b28924ec19755ada734aa97908"}, {"bike_id": "2f7e3cab9fdb9ca0c8db04058b558245", "type": "electric_scooter", "is_disabled": 0, "lat": 38.8979845, "rental_uris": {"ios": "https://dc.lft.to/lastmile_qr_scan", "android": "https://dc.lft.to/lastmile_qr_scan"}, "is_reserved": 0, "fusion_lon": 0.0, "fusion_lat": 0.0, "lon": -77.02409883333333, "name": "2f7e3cab9fdb9ca0c8db04058b558245"}, {"bike_id": "7175a57a6564f901c50e977eaf885e8a", "type": "electric_scooter", "is_disabled": 0, "lat": 38.87917766666666, "rental_uris": {"ios": "https://dc.lft.to/lastmile_qr_scan", "android": "https://dc.lft.to/lastmile_qr_scan"}, "is_reserved": 0, "fusion_lon": 0.0, "fusion_lat": 0.0, "lon": -76.99506416666667, "name": "7175a57a6564f901c50e977eaf885e8a"}, {"bike_id": "d5e3228981de9af938550eacb1b4ffd8", "type": "electric_scooter", "is_disabled": 0, "lat": 38.9069025, "rental_uris": {"ios": "https://dc.lft.to/lastmile_qr_scan", "android": "https://dc.lft.to/lastmile_qr_scan"}, "is_reserved": 0, "fusion_lon": 0.0, "fusion_lat": 0.0, "lon": -77.0533345, "name": "d5e3228981de9af938550eacb1b4ffd8"}, {"bike_id": "5202d2bcd0e7b7408fe1776cc5f00943", "type": "electric_scooter", "is_disabled": 0, "lat": 38.93114683333334, "rental_uris": {"ios": "https://dc.lft.to/lastmile_qr_scan", "android": "https://dc.lft.to/lastmile_qr_scan"}, "is_reserved": 0, "fusion_lon": 0.0, "fusion_lat": 0.0, "lon": -77.02098016666666, "name": "5202d2bcd0e7b7408fe1776cc5f00943"}, {"bike_id": "62cc4dd3a59d29e537a1e96432a4a157", "type": "electric_bike", "is_disabled": 0, "lat": 38.871990333333336, "rental_uris": {"ios": "https://dc.lft.to/lastmile_qr_scan", "android": "https://dc.lft.to/lastmile_qr_scan"}, "is_reserved": 0, "fusion_lon": 0.0, "fusion_lat": 0.0, "lon": -77.01223833333333, "name": "62cc4dd3a59d29e537a1e96432a4a157"}, {"bike_id": "656dd44c6441c2da5daeda15f1f9b556", "type": "electric_scooter", "is_disabled": 0, "lat": 38.916882, "rental_uris": {"ios": "https://dc.lft.to/lastmile_qr_scan", "android": "https://dc.lft.to/lastmile_qr_scan"}, "is_reserved": 0, "fusion_lon": 0.0, "fusion_lat": 0.0, "lon": -77.02954183333334, "name": "656dd44c6441c2da5daeda15f1f9b556"}, {"bike_id": "0f3a59a1a80839649dd1166672423eeb", "type": "electric_scooter", "is_disabled": 0, "lat": 38.907789333333334, "rental_uris": {"ios": "https://dc.lft.to/lastmile_qr_scan", "android": "https://dc.lft.to/lastmile_qr_scan"}, "is_reserved": 0, "fusion_lon": 0.0, "fusion_lat": 0.0, "lon": -77.0110695, "name": "0f3a59a1a80839649dd1166672423eeb"}, {"bike_id": "311b7d86926d82465548569a927e280a", "type": "electric_bike", "is_disabled": 0, "lat": 38.895667833333334, "rental_uris": {"ios": "https://dc.lft.to/lastmile_qr_scan", "android": "https://dc.lft.to/lastmile_qr_scan"}, "is_reserved": 0, "fusion_lon": 0.0, "fusion_lat": 0.0, "lon": -77.12738416666667, "name": "311b7d86926d82465548569a927e280a"}, {"bike_id": "7eaf23416e75a3185123827fd54f26c4", "type": "electric_bike", "is_disabled": 0, "lat": 38.868799, "rental_uris": {"ios": "https://dc.lft.to/lastmile_qr_scan", "android": "https://dc.lft.to/lastmile_qr_scan"}, "is_reserved": 0, "fusion_lon": 0.0, "fusion_lat": 0.0, "lon": -76.95778833333334, "name": "7eaf23416e75a3185123827fd54f26c4"}, {"bike_id": "6e11da6562b62901237f953599a8b2a0", "type": "electric_scooter", "is_disabled": 0, "lat": 38.889334833333336, "rental_uris": {"ios": "https://dc.lft.to/lastmile_qr_scan", "android": "https://dc.lft.to/lastmile_qr_scan"}, "is_reserved": 0, "fusion_lon": 0.0, "fusion_lat": 0.0, "lon": -77.01505316666666, "name": "6e11da6562b62901237f953599a8b2a0"}, {"bike_id": "0ee5ee8b880563772bccc7e967ee7abe", "type": "electric_scooter", "is_disabled": 0, "lat": 38.90759633333333, "rental_uris": {"ios": "https://dc.lft.to/lastmile_qr_scan", "android": "https://dc.lft.to/lastmile_qr_scan"}, "is_reserved": 0, "fusion_lon": 0.0, "fusion_lat": 0.0, "lon": -77.032036, "name": "0ee5ee8b880563772bccc7e967ee7abe"}, {"bike_id": "595a6247dc448ab86b11d5a2e0acc029", "type": "electric_scooter", "is_disabled": 0, "lat": 38.912711333333334, "rental_uris": {"ios": "https://dc.lft.to/lastmile_qr_scan", "android": "https://dc.lft.to/lastmile_qr_scan"}, "is_reserved": 0, "fusion_lon": 0.0, "fusion_lat": 0.0, "lon": -77.022097, "name": "595a6247dc448ab86b11d5a2e0acc029"}, {"bike_id": "c2a8ab6718966d5e5747f319bba91745", "type": "electric_scooter", "is_disabled": 0, "lat": 38.90792, "rental_uris": {"ios": "https://dc.lft.to/lastmile_qr_scan", "android": "https://dc.lft.to/lastmile_qr_scan"}, "is_reserved": 0, "fusion_lon": 0.0, "fusion_lat": 0.0, "lon": -77.031983, "name": "c2a8ab6718966d5e5747f319bba91745"}, {"bike_id": "4effcf529eb72d9dc249090e900fb81f", "type": "electric_bike", "is_disabled": 0, "lat": 38.996022833333335, "rental_uris": {"ios": "https://dc.lft.to/lastmile_qr_scan", "android": "https://dc.lft.to/lastmile_qr_scan"}, "is_reserved": 0, "fusion_lon": 0.0, "fusion_lat": 0.0, "lon": -77.0267505, "name": "4effcf529eb72d9dc249090e900fb81f"}, {"bike_id": "d7a2c1c9e6b1a9faedf5bbd976d4476c", "type": "electric_scooter", "is_disabled": 0, "lat": 38.907637666666666, "rental_uris": {"ios": "https://dc.lft.to/lastmile_qr_scan", "android": "https://dc.lft.to/lastmile_qr_scan"}, "is_reserved": 0, "fusion_lon": 0.0, "fusion_lat": 0.0, "lon": -77.031866, "name": "d7a2c1c9e6b1a9faedf5bbd976d4476c"}, {"bike_id": "9e327f94e310a23f6db686032bb8106d", "type": "electric_scooter", "is_disabled": 0, "lat": 38.91765016666667, "rental_uris": {"ios": "https://dc.lft.to/lastmile_qr_scan", "android": "https://dc.lft.to/lastmile_qr_scan"}, "is_reserved": 0, "fusion_lon": 0.0, "fusion_lat": 0.0, "lon": -77.03438916666667, "name": "9e327f94e310a23f6db686032bb8106d"}, {"bike_id": "0e2854608d9a04f50a0b54797366996e", "type": "electric_scooter", "is_disabled": 0, "lat": 38.867337, "rental_uris": {"ios": "https://dc.lft.to/lastmile_qr_scan", "android": "https://dc.lft.to/lastmile_qr_scan"}, "is_reserved": 0, "fusion_lon": 0.0, "fusion_lat": 0.0, "lon": -76.97861733333333, "name": "0e2854608d9a04f50a0b54797366996e"}, {"bike_id": "1bc7472af9a5f6f47924ab7630e06abf", "type": "electric_scooter", "is_disabled": 0, "lat": 38.923939833333336, "rental_uris": {"ios": "https://dc.lft.to/lastmile_qr_scan", "android": "https://dc.lft.to/lastmile_qr_scan"}, "is_reserved": 0, "fusion_lon": 0.0, "fusion_lat": 0.0, "lon": -77.0249315, "name": "1bc7472af9a5f6f47924ab7630e06abf"}, {"bike_id": "1fdfcfe660ea41a51e61be55ac245e73", "type": "electric_scooter", "is_disabled": 0, "lat": 38.907353, "rental_uris": {"ios": "https://dc.lft.to/lastmile_qr_scan", "android": "https://dc.lft.to/lastmile_qr_scan"}, "is_reserved": 0, "fusion_lon": 0.0, "fusion_lat": 0.0, "lon": -76.97969316666666, "name": "1fdfcfe660ea41a51e61be55ac245e73"}, {"bike_id": "f72cb53126f4298df87ea0c788deb9e6", "type": "electric_scooter", "is_disabled": 0, "lat": 38.831493, "rental_uris": {"ios": "https://dc.lft.to/lastmile_qr_scan", "android": "https://dc.lft.to/lastmile_qr_scan"}, "is_reserved": 0, "fusion_lon": 0.0, "fusion_lat": 0.0, "lon": -77.05128466666666, "name": "f72cb53126f4298df87ea0c788deb9e6"}, {"bike_id": "256c8efb686db02ba8f8f7b46d3ba5a4", "type": "electric_scooter", "is_disabled": 0, "lat": 38.909618333333334, "rental_uris": {"ios": "https://dc.lft.to/lastmile_qr_scan", "android": "https://dc.lft.to/lastmile_qr_scan"}, "is_reserved": 0, "fusion_lon": 0.0, "fusion_lat": 0.0, "lon": -77.02684033333334, "name": "256c8efb686db02ba8f8f7b46d3ba5a4"}, {"bike_id": "2ad5a2341e956b9697dc798b0a8aff8f", "type": "electric_scooter", "is_disabled": 0, "lat": 38.923405333333335, "rental_uris": {"ios": "https://dc.lft.to/lastmile_qr_scan", "android": "https://dc.lft.to/lastmile_qr_scan"}, "is_reserved": 0, "fusion_lon": 0.0, "fusion_lat": 0.0, "lon": -77.05049933333333, "name": "2ad5a2341e956b9697dc798b0a8aff8f"}, {"bike_id": "0436c006370ce94cca2fd36d7b1e7cfb", "type": "electric_scooter", "is_disabled": 0, "lat": 38.92119783333333, "rental_uris": {"ios": "https://dc.lft.to/lastmile_qr_scan", "android": "https://dc.lft.to/lastmile_qr_scan"}, "is_reserved": 0, "fusion_lon": 0.0, "fusion_lat": 0.0, "lon": -77.04427066666666, "name": "0436c006370ce94cca2fd36d7b1e7cfb"}, {"bike_id": "84079d6b2027bfffdea7447776098625", "type": "electric_bike", "is_disabled": 0, "lat": 38.9562155, "rental_uris": {"ios": "https://dc.lft.to/lastmile_qr_scan", "android": "https://dc.lft.to/lastmile_qr_scan"}, "is_reserved": 0, "fusion_lon": 0.0, "fusion_lat": 0.0, "lon": -77.02592416666667, "name": "84079d6b2027bfffdea7447776098625"}, {"bike_id": "f0f238e6a41adf3d12c2e8c5d813feb2", "type": "electric_scooter", "is_disabled": 0, "lat": 38.870977333333336, "rental_uris": {"ios": "https://dc.lft.to/lastmile_qr_scan", "android": "https://dc.lft.to/lastmile_qr_scan"}, "is_reserved": 0, "fusion_lon": 0.0, "fusion_lat": 0.0, "lon": -77.008044, "name": "f0f238e6a41adf3d12c2e8c5d813feb2"}, {"bike_id": "f864162d41e2c27677e8dbabd7709c78", "type": "electric_scooter", "is_disabled": 0, "lat": 38.900297, "rental_uris": {"ios": "https://dc.lft.to/lastmile_qr_scan", "android": "https://dc.lft.to/lastmile_qr_scan"}, "is_reserved": 0, "fusion_lon": 0.0, "fusion_lat": 0.0, "lon": -77.00703816666666, "name": "f864162d41e2c27677e8dbabd7709c78"}, {"bike_id": "2b706da92cc927a50e624a64b95dfb56", "type": "electric_scooter", "is_disabled": 0, "lat": 38.90603683333333, "rental_uris": {"ios": "https://dc.lft.to/lastmile_qr_scan", "android": "https://dc.lft.to/lastmile_qr_scan"}, "is_reserved": 0, "fusion_lon": 0.0, "fusion_lat": 0.0, "lon": -77.06292833333333, "name": "2b706da92cc927a50e624a64b95dfb56"}, {"bike_id": "b59e9e529358ed02a2771ff34a629543", "type": "electric_scooter", "is_disabled": 0, "lat": 38.862128, "rental_uris": {"ios": "https://dc.lft.to/lastmile_qr_scan", "android": "https://dc.lft.to/lastmile_qr_scan"}, "is_reserved": 0, "fusion_lon": 0.0, "fusion_lat": 0.0, "lon": -76.99480733333333, "name": "b59e9e529358ed02a2771ff34a629543"}, {"bike_id": "6abf98b7e8985ea0dfa43bcac7e5eda2", "type": "electric_scooter", "is_disabled": 0, "lat": 38.91367483333333, "rental_uris": {"ios": "https://dc.lft.to/lastmile_qr_scan", "android": "https://dc.lft.to/lastmile_qr_scan"}, "is_reserved": 0, "fusion_lon": 0.0, "fusion_lat": 0.0, "lon": -77.0301305, "name": "6abf98b7e8985ea0dfa43bcac7e5eda2"}, {"bike_id": "b48a4d6dc66972f84ca1d50d370dd61c", "type": "electric_scooter", "is_disabled": 0, "lat": 38.88516116666667, "rental_uris": {"ios": "https://dc.lft.to/lastmile_qr_scan", "android": "https://dc.lft.to/lastmile_qr_scan"}, "is_reserved": 0, "fusion_lon": 0.0, "fusion_lat": 0.0, "lon": -77.02824133333333, "name": "b48a4d6dc66972f84ca1d50d370dd61c"}, {"bike_id": "ab43efe9af0f5435fccdfca9b2501be7", "type": "electric_bike", "is_disabled": 0, "lat": 38.8361315, "rental_uris": {"ios": "https://dc.lft.to/lastmile_qr_scan", "android": "https://dc.lft.to/lastmile_qr_scan"}, "is_reserved": 0, "fusion_lon": 0.0, "fusion_lat": 0.0, "lon": -77.00383, "name": "ab43efe9af0f5435fccdfca9b2501be7"}, {"bike_id": "66963b1402e2ee07b62ac2411f696762", "type": "electric_scooter", "is_disabled": 0, "lat": 38.90298, "rental_uris": {"ios": "https://dc.lft.to/lastmile_qr_scan", "android": "https://dc.lft.to/lastmile_qr_scan"}, "is_reserved": 0, "fusion_lon": 0.0, "fusion_lat": 0.0, "lon": -77.02374116666667, "name": "66963b1402e2ee07b62ac2411f696762"}, {"bike_id": "6b9f6fabac30b407a7a59215560af79e", "type": "electric_bike", "is_disabled": 0, "lat": 38.85936133333333, "rental_uris": {"ios": "https://dc.lft.to/lastmile_qr_scan", "android": "https://dc.lft.to/lastmile_qr_scan"}, "is_reserved": 0, "fusion_lon": 0.0, "fusion_lat": 0.0, "lon": -77.118294, "name": "6b9f6fabac30b407a7a59215560af79e"}, {"bike_id": "2e40d56037af55ec81c7710efadcd197", "type": "electric_bike", "is_disabled": 0, "lat": 38.823670166666666, "rental_uris": {"ios": "https://dc.lft.to/lastmile_qr_scan", "android": "https://dc.lft.to/lastmile_qr_scan"}, "is_reserved": 0, "fusion_lon": 0.0, "fusion_lat": 0.0, "lon": -77.00215683333333, "name": "2e40d56037af55ec81c7710efadcd197"}, {"bike_id": "97112c1e09690ef848bb3f04e5ce607c", "type": "electric_scooter", "is_disabled": 0, "lat": 38.932121, "rental_uris": {"ios": "https://dc.lft.to/lastmile_qr_scan", "android": "https://dc.lft.to/lastmile_qr_scan"}, "is_reserved": 0, "fusion_lon": 0.0, "fusion_lat": 0.0, "lon": -77.0368155, "name": "97112c1e09690ef848bb3f04e5ce607c"}, {"bike_id": "96c8cf6e5b57f35982ccdf2990e25c09", "type": "electric_bike", "is_disabled": 0, "lat": 38.8981515, "rental_uris": {"ios": "https://dc.lft.to/lastmile_qr_scan", "android": "https://dc.lft.to/lastmile_qr_scan"}, "is_reserved": 0, "fusion_lon": 0.0, "fusion_lat": 0.0, "lon": -76.9906425, "name": "96c8cf6e5b57f35982ccdf2990e25c09"}, {"bike_id": "f284f4b3efb40782e82410551ba310ef", "type": "electric_scooter", "is_disabled": 0, "lat": 38.905878, "rental_uris": {"ios": "https://dc.lft.to/lastmile_qr_scan", "android": "https://dc.lft.to/lastmile_qr_scan"}, "is_reserved": 0, "fusion_lon": 0.0, "fusion_lat": 0.0, "lon": -77.06802983333333, "name": "f284f4b3efb40782e82410551ba310ef"}, {"bike_id": "017d682383df48a825613ce3c7c91874", "type": "electric_scooter", "is_disabled": 0, "lat": 38.89234, "rental_uris": {"ios": "https://dc.lft.to/lastmile_qr_scan", "android": "https://dc.lft.to/lastmile_qr_scan"}, "is_reserved": 0, "fusion_lon": 0.0, "fusion_lat": 0.0, "lon": -77.02382533333333, "name": "017d682383df48a825613ce3c7c91874"}, {"bike_id": "946e1b267890d548ff0d318de5e76209", "type": "electric_scooter", "is_disabled": 0, "lat": 38.922352833333335, "rental_uris": {"ios": "https://dc.lft.to/lastmile_qr_scan", "android": "https://dc.lft.to/lastmile_qr_scan"}, "is_reserved": 0, "fusion_lon": 0.0, "fusion_lat": 0.0, "lon": -77.0471475, "name": "946e1b267890d548ff0d318de5e76209"}, {"bike_id": "7f0a8bcec6fa3d81a3cfe92a6057fb49", "type": "electric_scooter", "is_disabled": 0, "lat": 38.92078733333334, "rental_uris": {"ios": "https://dc.lft.to/lastmile_qr_scan", "android": "https://dc.lft.to/lastmile_qr_scan"}, "is_reserved": 0, "fusion_lon": 0.0, "fusion_lat": 0.0, "lon": -77.00453, "name": "7f0a8bcec6fa3d81a3cfe92a6057fb49"}, {"bike_id": "35cd21ec0303d1bc860d3fa32540b21b", "type": "electric_scooter", "is_disabled": 0, "lat": 38.90153733333333, "rental_uris": {"ios": "https://dc.lft.to/lastmile_qr_scan", "android": "https://dc.lft.to/lastmile_qr_scan"}, "is_reserved": 0, "fusion_lon": 0.0, "fusion_lat": 0.0, "lon": -76.99027583333333, "name": "35cd21ec0303d1bc860d3fa32540b21b"}, {"bike_id": "36d8ff7a59fa264e0833addd75fe5ba9", "type": "electric_scooter", "is_disabled": 0, "lat": 38.91816933333333, "rental_uris": {"ios": "https://dc.lft.to/lastmile_qr_scan", "android": "https://dc.lft.to/lastmile_qr_scan"}, "is_reserved": 0, "fusion_lon": 0.0, "fusion_lat": 0.0, "lon": -77.00768283333333, "name": "36d8ff7a59fa264e0833addd75fe5ba9"}, {"bike_id": "3718ec5f61b6b5804cee6977c6ef9d0f", "type": "electric_scooter", "is_disabled": 0, "lat": 38.926802333333335, "rental_uris": {"ios": "https://dc.lft.to/lastmile_qr_scan", "android": "https://dc.lft.to/lastmile_qr_scan"}, "is_reserved": 0, "fusion_lon": 0.0, "fusion_lat": 0.0, "lon": -77.0146335, "name": "3718ec5f61b6b5804cee6977c6ef9d0f"}, {"bike_id": "57ec23e91ec3a3c51dcd82cd235092c7", "type": "electric_scooter", "is_disabled": 0, "lat": 38.907611, "rental_uris": {"ios": "https://dc.lft.to/lastmile_qr_scan", "android": "https://dc.lft.to/lastmile_qr_scan"}, "is_reserved": 0, "fusion_lon": 0.0, "fusion_lat": 0.0, "lon": -77.03181, "name": "57ec23e91ec3a3c51dcd82cd235092c7"}, {"bike_id": "186628985cd31244d8fdd7f6cc5e35c0", "type": "electric_scooter", "is_disabled": 0, "lat": 38.9226305, "rental_uris": {"ios": "https://dc.lft.to/lastmile_qr_scan", "android": "https://dc.lft.to/lastmile_qr_scan"}, "is_reserved": 0, "fusion_lon": 0.0, "fusion_lat": 0.0, "lon": -77.04292916666667, "name": "186628985cd31244d8fdd7f6cc5e35c0"}, {"bike_id": "c69652e522dd24b1fed998952d7c0e40", "type": "electric_scooter", "is_disabled": 0, "lat": 38.909485833333335, "rental_uris": {"ios": "https://dc.lft.to/lastmile_qr_scan", "android": "https://dc.lft.to/lastmile_qr_scan"}, "is_reserved": 0, "fusion_lon": 0.0, "fusion_lat": 0.0, "lon": -77.04491716666666, "name": "c69652e522dd24b1fed998952d7c0e40"}, {"bike_id": "c8517e17be46182453391668d8374fba", "type": "electric_scooter", "is_disabled": 0, "lat": 38.9034145, "rental_uris": {"ios": "https://dc.lft.to/lastmile_qr_scan", "android": "https://dc.lft.to/lastmile_qr_scan"}, "is_reserved": 0, "fusion_lon": 0.0, "fusion_lat": 0.0, "lon": -77.05292633333333, "name": "c8517e17be46182453391668d8374fba"}, {"bike_id": "a0d37fc6fa28b3c66407eca7b4d2cfe4", "type": "electric_scooter", "is_disabled": 0, "lat": 38.90814983333333, "rental_uris": {"ios": "https://dc.lft.to/lastmile_qr_scan", "android": "https://dc.lft.to/lastmile_qr_scan"}, "is_reserved": 0, "fusion_lon": 0.0, "fusion_lat": 0.0, "lon": -77.03465266666667, "name": "a0d37fc6fa28b3c66407eca7b4d2cfe4"}, {"bike_id": "01ae13a79ed812cccd29ecf23b800c58", "type": "electric_scooter", "is_disabled": 0, "lat": 38.90538566666667, "rental_uris": {"ios": "https://dc.lft.to/lastmile_qr_scan", "android": "https://dc.lft.to/lastmile_qr_scan"}, "is_reserved": 0, "fusion_lon": 0.0, "fusion_lat": 0.0, "lon": -77.059367, "name": "01ae13a79ed812cccd29ecf23b800c58"}, {"bike_id": "6c6d8ec42e80c8daddda6661b5c096b4", "type": "electric_scooter", "is_disabled": 0, "lat": 38.884336166666664, "rental_uris": {"ios": "https://dc.lft.to/lastmile_qr_scan", "android": "https://dc.lft.to/lastmile_qr_scan"}, "is_reserved": 0, "fusion_lon": 0.0, "fusion_lat": 0.0, "lon": -76.957586, "name": "6c6d8ec42e80c8daddda6661b5c096b4"}, {"bike_id": "9d70128c062cdb01bdf479d4d67fa931", "type": "electric_scooter", "is_disabled": 0, "lat": 38.898272166666665, "rental_uris": {"ios": "https://dc.lft.to/lastmile_qr_scan", "android": "https://dc.lft.to/lastmile_qr_scan"}, "is_reserved": 0, "fusion_lon": 0.0, "fusion_lat": 0.0, "lon": -77.0253095, "name": "9d70128c062cdb01bdf479d4d67fa931"}, {"bike_id": "0eba78545cff0bb0aab7eecb7f72d260", "type": "electric_scooter", "is_disabled": 0, "lat": 38.8970355, "rental_uris": {"ios": "https://dc.lft.to/lastmile_qr_scan", "android": "https://dc.lft.to/lastmile_qr_scan"}, "is_reserved": 0, "fusion_lon": 0.0, "fusion_lat": 0.0, "lon": -76.93002766666666, "name": "0eba78545cff0bb0aab7eecb7f72d260"}, {"bike_id": "8509bba6212294424a6a9763837a6c04", "type": "electric_scooter", "is_disabled": 0, "lat": 38.901587, "rental_uris": {"ios": "https://dc.lft.to/lastmile_qr_scan", "android": "https://dc.lft.to/lastmile_qr_scan"}, "is_reserved": 0, "fusion_lon": 0.0, "fusion_lat": 0.0, "lon": -77.02422016666667, "name": "8509bba6212294424a6a9763837a6c04"}, {"bike_id": "f084c631ad29fbf05bbaf75c41dcdcbf", "type": "electric_scooter", "is_disabled": 0, "lat": 38.9024195, "rental_uris": {"ios": "https://dc.lft.to/lastmile_qr_scan", "android": "https://dc.lft.to/lastmile_qr_scan"}, "is_reserved": 0, "fusion_lon": 0.0, "fusion_lat": 0.0, "lon": -76.99627366666667, "name": "f084c631ad29fbf05bbaf75c41dcdcbf"}, {"bike_id": "503ca505ae7d4c9aee9a751bfc159bf1", "type": "electric_scooter", "is_disabled": 0, "lat": 38.9161135, "rental_uris": {"ios": "https://dc.lft.to/lastmile_qr_scan", "android": "https://dc.lft.to/lastmile_qr_scan"}, "is_reserved": 0, "fusion_lon": 0.0, "fusion_lat": 0.0, "lon": -77.02292483333333, "name": "503ca505ae7d4c9aee9a751bfc159bf1"}, {"bike_id": "7881665aeaea76a1cfc3f9f970294f0a", "type": "electric_scooter", "is_disabled": 0, "lat": 38.9248305, "rental_uris": {"ios": "https://dc.lft.to/lastmile_qr_scan", "android": "https://dc.lft.to/lastmile_qr_scan"}, "is_reserved": 0, "fusion_lon": 0.0, "fusion_lat": 0.0, "lon": -77.028408, "name": "7881665aeaea76a1cfc3f9f970294f0a"}, {"bike_id": "b32337d6bee269c8c1a46512be031bd0", "type": "electric_scooter", "is_disabled": 0, "lat": 38.9073735, "rental_uris": {"ios": "https://dc.lft.to/lastmile_qr_scan", "android": "https://dc.lft.to/lastmile_qr_scan"}, "is_reserved": 0, "fusion_lon": 0.0, "fusion_lat": 0.0, "lon": -77.013174, "name": "b32337d6bee269c8c1a46512be031bd0"}, {"bike_id": "464965c23696bbc1bfd5a07d533d1eb0", "type": "electric_scooter", "is_disabled": 0, "lat": 38.903429833333334, "rental_uris": {"ios": "https://dc.lft.to/lastmile_qr_scan", "android": "https://dc.lft.to/lastmile_qr_scan"}, "is_reserved": 0, "fusion_lon": 0.0, "fusion_lat": 0.0, "lon": -77.0365565, "name": "464965c23696bbc1bfd5a07d533d1eb0"}, {"bike_id": "1812ea2502186366c7699f727137500e", "type": "electric_scooter", "is_disabled": 0, "lat": 38.94187766666667, "rental_uris": {"ios": "https://dc.lft.to/lastmile_qr_scan", "android": "https://dc.lft.to/lastmile_qr_scan"}, "is_reserved": 0, "fusion_lon": 0.0, "fusion_lat": 0.0, "lon": -77.02488316666667, "name": "1812ea2502186366c7699f727137500e"}, {"bike_id": "fa5fa7ef24ceae0816793da8951c9586", "type": "electric_scooter", "is_disabled": 0, "lat": 38.9149635, "rental_uris": {"ios": "https://dc.lft.to/lastmile_qr_scan", "android": "https://dc.lft.to/lastmile_qr_scan"}, "is_reserved": 0, "fusion_lon": 0.0, "fusion_lat": 0.0, "lon": -77.02497583333333, "name": "fa5fa7ef24ceae0816793da8951c9586"}, {"bike_id": "582dbd52c55bd3abc49a9b471bac9f56", "type": "electric_scooter", "is_disabled": 0, "lat": 38.9222155, "rental_uris": {"ios": "https://dc.lft.to/lastmile_qr_scan", "android": "https://dc.lft.to/lastmile_qr_scan"}, "is_reserved": 0, "fusion_lon": 0.0, "fusion_lat": 0.0, "lon": -77.03455766666667, "name": "582dbd52c55bd3abc49a9b471bac9f56"}, {"bike_id": "4a4eadbf6e075fae733e08fe731b3ed8", "type": "electric_scooter", "is_disabled": 0, "lat": 38.9003105, "rental_uris": {"ios": "https://dc.lft.to/lastmile_qr_scan", "android": "https://dc.lft.to/lastmile_qr_scan"}, "is_reserved": 0, "fusion_lon": 0.0, "fusion_lat": 0.0, "lon": -76.99419416666667, "name": "4a4eadbf6e075fae733e08fe731b3ed8"}, {"bike_id": "92a72ad11149d8914bdd400d8ac9de76", "type": "electric_bike", "is_disabled": 0, "lat": 38.80755583333333, "rental_uris": {"ios": "https://dc.lft.to/lastmile_qr_scan", "android": "https://dc.lft.to/lastmile_qr_scan"}, "is_reserved": 0, "fusion_lon": 0.0, "fusion_lat": 0.0, "lon": -77.09455066666666, "name": "92a72ad11149d8914bdd400d8ac9de76"}, {"bike_id": "68fd87c371be92d2c6698469de3c62c6", "type": "electric_scooter", "is_disabled": 0, "lat": 38.8707605, "rental_uris": {"ios": "https://dc.lft.to/lastmile_qr_scan", "android": "https://dc.lft.to/lastmile_qr_scan"}, "is_reserved": 0, "fusion_lon": 0.0, "fusion_lat": 0.0, "lon": -76.98129716666666, "name": "68fd87c371be92d2c6698469de3c62c6"}, {"bike_id": "a0d7a7dbf9994c3b88c9c76cc1e45790", "type": "electric_scooter", "is_disabled": 0, "lat": 38.8951555, "rental_uris": {"ios": "https://dc.lft.to/lastmile_qr_scan", "android": "https://dc.lft.to/lastmile_qr_scan"}, "is_reserved": 0, "fusion_lon": 0.0, "fusion_lat": 0.0, "lon": -77.011055, "name": "a0d7a7dbf9994c3b88c9c76cc1e45790"}, {"bike_id": "6b6701fae2b1fc4467dcf06bf5446ee7", "type": "electric_scooter", "is_disabled": 0, "lat": 38.85813616666667, "rental_uris": {"ios": "https://dc.lft.to/lastmile_qr_scan", "android": "https://dc.lft.to/lastmile_qr_scan"}, "is_reserved": 0, "fusion_lon": 0.0, "fusion_lat": 0.0, "lon": -76.98924016666666, "name": "6b6701fae2b1fc4467dcf06bf5446ee7"}, {"bike_id": "89a45ae0bd55dce8cbcee29d9659a190", "type": "electric_scooter", "is_disabled": 0, "lat": 38.900311333333335, "rental_uris": {"ios": "https://dc.lft.to/lastmile_qr_scan", "android": "https://dc.lft.to/lastmile_qr_scan"}, "is_reserved": 0, "fusion_lon": 0.0, "fusion_lat": 0.0, "lon": -76.998639, "name": "89a45ae0bd55dce8cbcee29d9659a190"}, {"bike_id": "2cf0fd6a51a2b3eba61bd68c41c0dc71", "type": "electric_scooter", "is_disabled": 0, "lat": 38.934267166666665, "rental_uris": {"ios": "https://dc.lft.to/lastmile_qr_scan", "android": "https://dc.lft.to/lastmile_qr_scan"}, "is_reserved": 0, "fusion_lon": 0.0, "fusion_lat": 0.0, "lon": -77.0400255, "name": "2cf0fd6a51a2b3eba61bd68c41c0dc71"}, {"bike_id": "b4ab62f98b8c8845a8a3d79c07130b42", "type": "electric_scooter", "is_disabled": 0, "lat": 38.92623066666667, "rental_uris": {"ios": "https://dc.lft.to/lastmile_qr_scan", "android": "https://dc.lft.to/lastmile_qr_scan"}, "is_reserved": 0, "fusion_lon": 0.0, "fusion_lat": 0.0, "lon": -77.04194866666667, "name": "b4ab62f98b8c8845a8a3d79c07130b42"}, {"bike_id": "81242077630ffa6e19a3bcdefd2f6b71", "type": "electric_scooter", "is_disabled": 0, "lat": 38.93253716666667, "rental_uris": {"ios": "https://dc.lft.to/lastmile_qr_scan", "android": "https://dc.lft.to/lastmile_qr_scan"}, "is_reserved": 0, "fusion_lon": 0.0, "fusion_lat": 0.0, "lon": -77.03283483333334, "name": "81242077630ffa6e19a3bcdefd2f6b71"}, {"bike_id": "bef5f42b9e7d9102e942443b1e273aec", "type": "electric_scooter", "is_disabled": 0, "lat": 38.887449833333335, "rental_uris": {"ios": "https://dc.lft.to/lastmile_qr_scan", "android": "https://dc.lft.to/lastmile_qr_scan"}, "is_reserved": 0, "fusion_lon": 0.0, "fusion_lat": 0.0, "lon": -77.02728666666667, "name": "bef5f42b9e7d9102e942443b1e273aec"}, {"bike_id": "0b9ceb69e01a29a18cb117391143ef10", "type": "electric_scooter", "is_disabled": 0, "lat": 38.880152833333334, "rental_uris": {"ios": "https://dc.lft.to/lastmile_qr_scan", "android": "https://dc.lft.to/lastmile_qr_scan"}, "is_reserved": 0, "fusion_lon": 0.0, "fusion_lat": 0.0, "lon": -77.0248385, "name": "0b9ceb69e01a29a18cb117391143ef10"}, {"bike_id": "44da79b28c61ffc66c16aa0aa2ccc6e1", "type": "electric_scooter", "is_disabled": 0, "lat": 38.928015, "rental_uris": {"ios": "https://dc.lft.to/lastmile_qr_scan", "android": "https://dc.lft.to/lastmile_qr_scan"}, "is_reserved": 0, "fusion_lon": 0.0, "fusion_lat": 0.0, "lon": -77.01387916666667, "name": "44da79b28c61ffc66c16aa0aa2ccc6e1"}, {"bike_id": "829d63507c3923d7070c174c28ed8b7f", "type": "electric_bike", "is_disabled": 0, "lat": 38.8648545, "rental_uris": {"ios": "https://dc.lft.to/lastmile_qr_scan", "android": "https://dc.lft.to/lastmile_qr_scan"}, "is_reserved": 0, "fusion_lon": 0.0, "fusion_lat": 0.0, "lon": -76.97745366666666, "name": "829d63507c3923d7070c174c28ed8b7f"}, {"bike_id": "47712d1f5bf127167695378a13d40851", "type": "electric_scooter", "is_disabled": 0, "lat": 38.89974566666667, "rental_uris": {"ios": "https://dc.lft.to/lastmile_qr_scan", "android": "https://dc.lft.to/lastmile_qr_scan"}, "is_reserved": 0, "fusion_lon": 0.0, "fusion_lat": 0.0, "lon": -77.04764883333333, "name": "47712d1f5bf127167695378a13d40851"}, {"bike_id": "b32aa86e225b2f40bfb3f64f84f50d0c", "type": "electric_scooter", "is_disabled": 0, "lat": 38.939018833333336, "rental_uris": {"ios": "https://dc.lft.to/lastmile_qr_scan", "android": "https://dc.lft.to/lastmile_qr_scan"}, "is_reserved": 0, "fusion_lon": 0.0, "fusion_lat": 0.0, "lon": -77.03329233333334, "name": "b32aa86e225b2f40bfb3f64f84f50d0c"}, {"bike_id": "ee04d6721636e35b4db5130e89ce7ed5", "type": "electric_scooter", "is_disabled": 0, "lat": 38.921211666666665, "rental_uris": {"ios": "https://dc.lft.to/lastmile_qr_scan", "android": "https://dc.lft.to/lastmile_qr_scan"}, "is_reserved": 0, "fusion_lon": 0.0, "fusion_lat": 0.0, "lon": -77.01226433333333, "name": "ee04d6721636e35b4db5130e89ce7ed5"}, {"bike_id": "50e9efa5cd1d26917f0077e490e62099", "type": "electric_scooter", "is_disabled": 0, "lat": 38.85894433333333, "rental_uris": {"ios": "https://dc.lft.to/lastmile_qr_scan", "android": "https://dc.lft.to/lastmile_qr_scan"}, "is_reserved": 0, "fusion_lon": 0.0, "fusion_lat": 0.0, "lon": -76.99730483333333, "name": "50e9efa5cd1d26917f0077e490e62099"}, {"bike_id": "69f5293340f1bb3bd6ccea7d9dbef2b7", "type": "electric_scooter", "is_disabled": 0, "lat": 38.90280716666667, "rental_uris": {"ios": "https://dc.lft.to/lastmile_qr_scan", "android": "https://dc.lft.to/lastmile_qr_scan"}, "is_reserved": 0, "fusion_lon": 0.0, "fusion_lat": 0.0, "lon": -77.00323283333333, "name": "69f5293340f1bb3bd6ccea7d9dbef2b7"}, {"bike_id": "5a65beaf02a820a82cb5b6b539df162b", "type": "electric_scooter", "is_disabled": 0, "lat": 38.916311, "rental_uris": {"ios": "https://dc.lft.to/lastmile_qr_scan", "android": "https://dc.lft.to/lastmile_qr_scan"}, "is_reserved": 0, "fusion_lon": 0.0, "fusion_lat": 0.0, "lon": -77.03972316666666, "name": "5a65beaf02a820a82cb5b6b539df162b"}, {"bike_id": "70a73df16ec2ed5d593a928b24c86764", "type": "electric_scooter", "is_disabled": 0, "lat": 38.911898, "rental_uris": {"ios": "https://dc.lft.to/lastmile_qr_scan", "android": "https://dc.lft.to/lastmile_qr_scan"}, "is_reserved": 0, "fusion_lon": 0.0, "fusion_lat": 0.0, "lon": -77.00387133333334, "name": "70a73df16ec2ed5d593a928b24c86764"}, {"bike_id": "bd2b42466a20b7c9ad97926a7ecdb733", "type": "electric_scooter", "is_disabled": 0, "lat": 38.89982216666667, "rental_uris": {"ios": "https://dc.lft.to/lastmile_qr_scan", "android": "https://dc.lft.to/lastmile_qr_scan"}, "is_reserved": 0, "fusion_lon": 0.0, "fusion_lat": 0.0, "lon": -76.98561133333334, "name": "bd2b42466a20b7c9ad97926a7ecdb733"}, {"bike_id": "cd92bb3fd146e05562fcd5b51b82df38", "type": "electric_scooter", "is_disabled": 0, "lat": 38.918539, "rental_uris": {"ios": "https://dc.lft.to/lastmile_qr_scan", "android": "https://dc.lft.to/lastmile_qr_scan"}, "is_reserved": 0, "fusion_lon": 0.0, "fusion_lat": 0.0, "lon": -77.0387915, "name": "cd92bb3fd146e05562fcd5b51b82df38"}, {"bike_id": "1f13daa196660a73831cb786a7d7c1fa", "type": "electric_bike", "is_disabled": 0, "lat": 38.863363666666665, "rental_uris": {"ios": "https://dc.lft.to/lastmile_qr_scan", "android": "https://dc.lft.to/lastmile_qr_scan"}, "is_reserved": 0, "fusion_lon": 0.0, "fusion_lat": 0.0, "lon": -76.987201, "name": "1f13daa196660a73831cb786a7d7c1fa"}, {"bike_id": "0cd8cf442b7aa46b00594d89b80e98a5", "type": "electric_scooter", "is_disabled": 0, "lat": 38.89985983333333, "rental_uris": {"ios": "https://dc.lft.to/lastmile_qr_scan", "android": "https://dc.lft.to/lastmile_qr_scan"}, "is_reserved": 0, "fusion_lon": 0.0, "fusion_lat": 0.0, "lon": -76.9499985, "name": "0cd8cf442b7aa46b00594d89b80e98a5"}, {"bike_id": "b9bd515176a570213ea4478f68cd0be5", "type": "electric_scooter", "is_disabled": 0, "lat": 38.893464, "rental_uris": {"ios": "https://dc.lft.to/lastmile_qr_scan", "android": "https://dc.lft.to/lastmile_qr_scan"}, "is_reserved": 0, "fusion_lon": 0.0, "fusion_lat": 0.0, "lon": -76.9937435, "name": "b9bd515176a570213ea4478f68cd0be5"}, {"bike_id": "89ff88a32dc4b1dffd4521c9e3997eea", "type": "electric_scooter", "is_disabled": 0, "lat": 38.931714, "rental_uris": {"ios": "https://dc.lft.to/lastmile_qr_scan", "android": "https://dc.lft.to/lastmile_qr_scan"}, "is_reserved": 0, "fusion_lon": 0.0, "fusion_lat": 0.0, "lon": -77.02818116666667, "name": "89ff88a32dc4b1dffd4521c9e3997eea"}, {"bike_id": "91d0b1c5a4ddaaed48b7bb69806bddca", "type": "electric_scooter", "is_disabled": 0, "lat": 38.91634483333333, "rental_uris": {"ios": "https://dc.lft.to/lastmile_qr_scan", "android": "https://dc.lft.to/lastmile_qr_scan"}, "is_reserved": 0, "fusion_lon": 0.0, "fusion_lat": 0.0, "lon": -77.029552, "name": "91d0b1c5a4ddaaed48b7bb69806bddca"}, {"bike_id": "6cb5d986a32407c7e5a6fe610feaec48", "type": "electric_scooter", "is_disabled": 0, "lat": 38.9125365, "rental_uris": {"ios": "https://dc.lft.to/lastmile_qr_scan", "android": "https://dc.lft.to/lastmile_qr_scan"}, "is_reserved": 0, "fusion_lon": 0.0, "fusion_lat": 0.0, "lon": -77.04433866666666, "name": "6cb5d986a32407c7e5a6fe610feaec48"}, {"bike_id": "32b4f38940f4571fbb585918b889fb6c", "type": "electric_scooter", "is_disabled": 0, "lat": 38.92464483333333, "rental_uris": {"ios": "https://dc.lft.to/lastmile_qr_scan", "android": "https://dc.lft.to/lastmile_qr_scan"}, "is_reserved": 0, "fusion_lon": 0.0, "fusion_lat": 0.0, "lon": -77.04378916666667, "name": "32b4f38940f4571fbb585918b889fb6c"}, {"bike_id": "dcf06bab2bc16940124576c39faaf169", "type": "electric_scooter", "is_disabled": 0, "lat": 38.937699, "rental_uris": {"ios": "https://dc.lft.to/lastmile_qr_scan", "android": "https://dc.lft.to/lastmile_qr_scan"}, "is_reserved": 0, "fusion_lon": 0.0, "fusion_lat": 0.0, "lon": -77.01969583333333, "name": "dcf06bab2bc16940124576c39faaf169"}, {"bike_id": "99a8c8a1bf0a53809d670292d93d4bf0", "type": "electric_scooter", "is_disabled": 0, "lat": 38.900147, "rental_uris": {"ios": "https://dc.lft.to/lastmile_qr_scan", "android": "https://dc.lft.to/lastmile_qr_scan"}, "is_reserved": 0, "fusion_lon": 0.0, "fusion_lat": 0.0, "lon": -77.04157366666666, "name": "99a8c8a1bf0a53809d670292d93d4bf0"}, {"bike_id": "acb6f367e9cc09a696c5c4abec2084bd", "type": "electric_scooter", "is_disabled": 0, "lat": 38.917045333333334, "rental_uris": {"ios": "https://dc.lft.to/lastmile_qr_scan", "android": "https://dc.lft.to/lastmile_qr_scan"}, "is_reserved": 0, "fusion_lon": 0.0, "fusion_lat": 0.0, "lon": -77.00656066666667, "name": "acb6f367e9cc09a696c5c4abec2084bd"}, {"bike_id": "b470c1c028eafad8d0e50da4aa82e70b", "type": "electric_scooter", "is_disabled": 0, "lat": 38.9068195, "rental_uris": {"ios": "https://dc.lft.to/lastmile_qr_scan", "android": "https://dc.lft.to/lastmile_qr_scan"}, "is_reserved": 0, "fusion_lon": 0.0, "fusion_lat": 0.0, "lon": -77.038301, "name": "b470c1c028eafad8d0e50da4aa82e70b"},