{"data": {"bikes": [{"rental_uris": {"ios": "https://dc.lft.to/lastmile_qr_scan", "android": "https://dc.lft.to/lastmile_qr_scan"}, "lon": -77.02882583333333, "type": "electric_scooter", "fusion_lat": 0.0, "lat": 38.916898833333335, "name": "46bd981346bff2e9c3961833b04ba1fc", "fusion_lon": 0.0, "bike_id": "46bd981346bff2e9c3961833b04ba1fc", "is_disabled": 0, "is_reserved": 0}, {"rental_uris": {"ios": "https://dc.lft.to/lastmile_qr_scan", "android": "https://dc.lft.to/lastmile_qr_scan"}, "lon": -77.05591316666667, "type": "electric_scooter", "fusion_lat": 0.0, "lat": 38.9277725, "name": "608ff1b617a677e54dbe647eead632a3", "fusion_lon": 0.0, "bike_id": "608ff1b617a677e54dbe647eead632a3", "is_disabled": 0, "is_reserved": 0}, {"rental_uris": {"ios": "https://dc.lft.to/lastmile_qr_scan", "android": "https://dc.lft.to/lastmile_qr_scan"}, "lon": -77.03735466666667, "type": "electric_scooter", "fusion_lat": 0.0, "lat": 38.925952833333334, "name": "0b2774789039525ee7439dfac3bc8ea5", "fusion_lon": 0.0, "bike_id": "0b2774789039525ee7439dfac3bc8ea5", "is_disabled": 0, "is_reserved": 0}, {"rental_uris": {"ios": "https://dc.lft.to/lastmile_qr_scan", "android": "https://dc.lft.to/lastmile_qr_scan"}, "lon": -77.0309845, "type": "electric_scooter", "fusion_lat": 0.0, "lat": 38.917990833333334, "name": "017bdafcc6ecaf1986260d37d13c8844", "fusion_lon": 0.0, "bike_id": "017bdafcc6ecaf1986260d37d13c8844", "is_disabled": 0, "is_reserved": 0}, {"rental_uris": {"ios": "https://dc.lft.to/lastmile_qr_scan", "android": "https://dc.lft.to/lastmile_qr_scan"}, "lon": -77.026918, "type": "electric_scooter", "fusion_lat": 0.0, "lat": 38.92525333333333, "name": "74a3c673c78eb64dbc08887066022007", "fusion_lon": 0.0, "bike_id": "74a3c673c78eb64dbc08887066022007", "is_disabled": 0, "is_reserved": 0}, {"rental_uris": {"ios": "https://dc.lft.to/lastmile_qr_scan", "android": "https://dc.lft.to/lastmile_qr_scan"}, "lon": -77.03250766666666, "type": "electric_scooter", "fusion_lat": 0.0, "lat": 38.91814216666667, "name": "169f03e6d246242cf2d2d2c9280b5122", "fusion_lon": 0.0, "bike_id": "169f03e6d246242cf2d2d2c9280b5122", "is_disabled": 0, "is_reserved": 0}, {"rental_uris": {"ios": "https://dc.lft.to/lastmile_qr_scan", "android": "https://dc.lft.to/lastmile_qr_scan"}, "lon": -77.0952315, "type": "electric_bike", "fusion_lat": 0.0, "lat": 38.838123333333336, "name": "d7e58692936f100c1c03cad015786f3e", "fusion_lon": 0.0, "bike_id": "d7e58692936f100c1c03cad015786f3e", "is_disabled": 0, "is_reserved": 0}, {"rental_uris": {"ios": "https://dc.lft.to/lastmile_qr_scan", "android": "https://dc.lft.to/lastmile_qr_scan"}, "lon": -77.04118566666666, "type": "electric_scooter", "fusion_lat": 0.0, "lat": 38.92163816666667, "name": "10ba172b083e9c8be21f15006d490c8e", "fusion_lon": 0.0, "bike_id": "10ba172b083e9c8be21f15006d490c8e", "is_disabled": 0, "is_reserved": 0}, {"rental_uris": {"ios": "https://dc.lft.to/lastmile_qr_scan", "android": "https://dc.lft.to/lastmile_qr_scan"}, "lon": -76.9861725, "type": "electric_scooter", "fusion_lat": 0.0, "lat": 38.868049, "name": "74ae9154eaa8ec5de219db6135506bd8", "fusion_lon": 0.0, "bike_id": "74ae9154eaa8ec5de219db6135506bd8", "is_disabled": 0, "is_reserved": 0}, {"rental_uris": {"ios": "https://dc.lft.to/lastmile_qr_scan", "android": "https://dc.lft.to/lastmile_qr_scan"}, "lon": -77.02155133333333, "type": "electric_scooter", "fusion_lat": 0.0, "lat": 38.89621283333334, "name": "b534729aa63b17c61dadbd1f66756c91", "fusion_lon": 0.0, "bike_id": "b534729aa63b17c61dadbd1f66756c91", "is_disabled": 0, "is_reserved": 0}, {"rental_uris": {"ios": "https://dc.lft.to/lastmile_qr_scan", "android": "https://dc.lft.to/lastmile_qr_scan"}, "lon": -76.95818883333334, "type": "electric_scooter", "fusion_lat": 0.0, "lat": 38.890490666666665, "name": "00a49ccb37576ac10ca736ff5b839090", "fusion_lon": 0.0, "bike_id": "00a49ccb37576ac10ca736ff5b839090", "is_disabled": 0, "is_reserved": 0}, {"rental_uris": {"ios": "https://dc.lft.to/lastmile_qr_scan", "android": "https://dc.lft.to/lastmile_qr_scan"}, "lon": -77.0318395, "type": "electric_scooter", "fusion_lat": 0.0, "lat": 38.91735583333333, "name": "c55b59b86c75677fb699dcdc897b716f", "fusion_lon": 0.0, "bike_id": "c55b59b86c75677fb699dcdc897b716f", "is_disabled": 0, "is_reserved": 0}, {"rental_uris": {"ios": "https://dc.lft.to/lastmile_qr_scan", "android": "https://dc.lft.to/lastmile_qr_scan"}, "lon": -77.06291583333334, "type": "electric_scooter", "fusion_lat": 0.0, "lat": 38.903923, "name": "3e4062aa1f4b0a5b51b21d32604c5507", "fusion_lon": 0.0, "bike_id": "3e4062aa1f4b0a5b51b21d32604c5507", "is_disabled": 0, "is_reserved": 0}, {"rental_uris": {"ios": "https://dc.lft.to/lastmile_qr_scan", "android": "https://dc.lft.to/lastmile_qr_scan"}, "lon": -77.04811983333333, "type": "electric_scooter", "fusion_lat": 0.0, "lat": 38.91328266666667, "name": "30a57631a2f2432563cee09f9c0c8d55", "fusion_lon": 0.0, "bike_id": "30a57631a2f2432563cee09f9c0c8d55", "is_disabled": 0, "is_reserved": 0}, {"rental_uris": {"ios": "https://dc.lft.to/lastmile_qr_scan", "android": "https://dc.lft.to/lastmile_qr_scan"}, "lon": -77.011401, "type": "electric_scooter", "fusion_lat": 0.0, "lat": 38.895239333333336, "name": "93d8df71fde9a0a072900a90f0e3e597", "fusion_lon": 0.0, "bike_id": "93d8df71fde9a0a072900a90f0e3e597", "is_disabled": 0, "is_reserved": 0}, {"rental_uris": {"ios": "https://dc.lft.to/lastmile_qr_scan", "android": "https://dc.lft.to/lastmile_qr_scan"}, "lon": -77.0382105, "type": "electric_scooter", "fusion_lat": 0.0, "lat": 38.92540266666666, "name": "0c89301e0f512ec9de446ee9ab9d5919", "fusion_lon": 0.0, "bike_id": "0c89301e0f512ec9de446ee9ab9d5919", "is_disabled": 0, "is_reserved": 0}, {"rental_uris": {"ios": "https://dc.lft.to/lastmile_qr_scan", "android": "https://dc.lft.to/lastmile_qr_scan"}, "lon": -77.032261, "type": "electric_scooter", "fusion_lat": 0.0, "lat": 38.92009383333333, "name": "52ea8c045cfdfa36f352773d796a61e8", "fusion_lon": 0.0, "bike_id": "52ea8c045cfdfa36f352773d796a61e8", "is_disabled": 0, "is_reserved": 0}, {"rental_uris": {"ios": "https://dc.lft.to/lastmile_qr_scan", "android": "https://dc.lft.to/lastmile_qr_scan"}, "lon": -77.02825283333334, "type": "electric_scooter", "fusion_lat": 0.0, "lat": 38.887289833333334, "name": "55490c3b4ccb68ef6ba9cb87d6731afb", "fusion_lon": 0.0, "bike_id": "55490c3b4ccb68ef6ba9cb87d6731afb", "is_disabled": 0, "is_reserved": 0}, {"rental_uris": {"ios": "https://dc.lft.to/lastmile_qr_scan", "android": "https://dc.lft.to/lastmile_qr_scan"}, "lon": -76.960635, "type": "electric_bike", "fusion_lat": 0.0, "lat": 38.884014666666666, "name": "ea65698b85164aa6bafc86212a019f81", "fusion_lon": 0.0, "bike_id": "ea65698b85164aa6bafc86212a019f81", "is_disabled": 0, "is_reserved": 0}, {"rental_uris": {"ios": "https://dc.lft.to/lastmile_qr_scan", "android": "https://dc.lft.to/lastmile_qr_scan"}, "lon": -77.08258933333333, "type": "electric_scooter", "fusion_lat": 0.0, "lat": 38.935867333333334, "name": "dfcd740af8f0674173fbee1ffda8681d", "fusion_lon": 0.0, "bike_id": "dfcd740af8f0674173fbee1ffda8681d", "is_disabled": 0, "is_reserved": 0}, {"rental_uris": {"ios": "https://dc.lft.to/lastmile_qr_scan", "android": "https://dc.lft.to/lastmile_qr_scan"}, "lon": -76.90817633333333, "type": "electric_bike", "fusion_lat": 0.0, "lat": 38.99448866666667, "name": "566d7374561d4a32b1c1c276776efbcd", "fusion_lon": 0.0, "bike_id": "566d7374561d4a32b1c1c276776efbcd", "is_disabled": 0, "is_reserved": 0}, {"rental_uris": {"ios": "https://dc.lft.to/lastmile_qr_scan", "android": "https://dc.lft.to/lastmile_qr_scan"}, "lon": -77.04256416666666, "type": "electric_scooter", "fusion_lat": 0.0, "lat": 38.92214, "name": "f5e811117342c910581b05d9aa1bdcd4", "fusion_lon": 0.0, "bike_id": "f5e811117342c910581b05d9aa1bdcd4", "is_disabled": 0, "is_reserved": 0}, {"rental_uris": {"ios": "https://dc.lft.to/lastmile_qr_scan", "android": "https://dc.lft.to/lastmile_qr_scan"}, "lon": -77.046285, "type": "electric_scooter", "fusion_lat": 0.0, "lat": 38.90145416666667, "name": "92d1843b5f0ed14b01a022e8e33fc147", "fusion_lon": 0.0, "bike_id": "92d1843b5f0ed14b01a022e8e33fc147", "is_disabled": 0, "is_reserved": 0}, {"rental_uris": {"ios": "https://dc.lft.to/lastmile_qr_scan", "android": "https://dc.lft.to/lastmile_qr_scan"}, "lon": -77.0020235, "type": "electric_scooter", "fusion_lat": 0.0, "lat": 38.899826, "name": "191a9e911be2809fee7e0e9c972d05e6", "fusion_lon": 0.0, "bike_id": "191a9e911be2809fee7e0e9c972d05e6", "is_disabled": 0, "is_reserved": 0}, {"rental_uris": {"ios": "https://dc.lft.to/lastmile_qr_scan", "android": "https://dc.lft.to/lastmile_qr_scan"}, "lon": -77.12959133333334, "type": "electric_bike", "fusion_lat": 0.0, "lat": 38.85218733333333, "name": "18152e2c4e776bbaf756a8cd05a8595b", "fusion_lon": 0.0, "bike_id": "18152e2c4e776bbaf756a8cd05a8595b", "is_disabled": 0, "is_reserved": 0}, {"rental_uris": {"ios": "https://dc.lft.to/lastmile_qr_scan", "android": "https://dc.lft.to/lastmile_qr_scan"}, "lon": -76.983743, "type": "electric_scooter", "fusion_lat": 0.0, "lat": 38.89541966666667, "name": "bff30c6f5ed28ea8913f7d9d9542a85f", "fusion_lon": 0.0, "bike_id": "bff30c6f5ed28ea8913f7d9d9542a85f", "is_disabled": 0, "is_reserved": 0}, {"rental_uris": {"ios": "https://dc.lft.to/lastmile_qr_scan", "android": "https://dc.lft.to/lastmile_qr_scan"}, "lon": -76.96848316666667, "type": "electric_scooter", "fusion_lat": 0.0, "lat": 38.874665, "name": "2d9253ab2ea0aba968ee1a3d10671f9f", "fusion_lon": 0.0, "bike_id": "2d9253ab2ea0aba968ee1a3d10671f9f", "is_disabled": 0, "is_reserved": 0}, {"rental_uris": {"ios": "https://dc.lft.to/lastmile_qr_scan", "android": "https://dc.lft.to/lastmile_qr_scan"}, "lon": -76.99690116666666, "type": "electric_scooter", "fusion_lat": 0.0, "lat": 38.90063966666666, "name": "8401fc2bcbb5bbc79d40b8173cad50ab", "fusion_lon": 0.0, "bike_id": "8401fc2bcbb5bbc79d40b8173cad50ab", "is_disabled": 0, "is_reserved": 0}, {"rental_uris": {"ios": "https://dc.lft.to/lastmile_qr_scan", "android": "https://dc.lft.to/lastmile_qr_scan"}, "lon": -77.0296075, "type": "electric_scooter", "fusion_lat": 0.0, "lat": 38.9227585, "name": "da88b16f41db0f23ad38822e11c0a268", "fusion_lon": 0.0, "bike_id": "da88b16f41db0f23ad38822e11c0a268", "is_disabled": 0, "is_reserved": 0}, {"rental_uris": {"ios": "https://dc.lft.to/lastmile_qr_scan", "android": "https://dc.lft.to/lastmile_qr_scan"}, "lon": -77.0147915, "type": "electric_scooter", "fusion_lat": 0.0, "lat": 38.8763235, "name": "07d41449a868affa2d1eec45c53633a8", "fusion_lon": 0.0, "bike_id": "07d41449a868affa2d1eec45c53633a8", "is_disabled": 0, "is_reserved": 0}, {"rental_uris": {"ios": "https://dc.lft.to/lastmile_qr_scan", "android": "https://dc.lft.to/lastmile_qr_scan"}, "lon": -77.02604566666666, "type": "electric_bike", "fusion_lat": 0.0, "lat": 38.96259666666667, "name": "f73593a54280648746ce360989fa9ee9", "fusion_lon": 0.0, "bike_id": "f73593a54280648746ce360989fa9ee9", "is_disabled": 0, "is_reserved": 0}, {"rental_uris": {"ios": "https://dc.lft.to/lastmile_qr_scan", "android": "https://dc.lft.to/lastmile_qr_scan"}, "lon": -76.949937, "type": "electric_scooter", "fusion_lat": 0.0, "lat": 38.89369516666667, "name": "d6fc66ee4a14ac571049db13d98504bd", "fusion_lon": 0.0, "bike_id": "d6fc66ee4a14ac571049db13d98504bd", "is_disabled": 0, "is_reserved": 0}, {"rental_uris": {"ios": "https://dc.lft.to/lastmile_qr_scan", "android": "https://dc.lft.to/lastmile_qr_scan"}, "lon": -76.9729015, "type": "electric_scooter", "fusion_lat": 0.0, "lat": 38.9033605, "name": "319aaa7aad2e667c71afda2a6116fdb5", "fusion_lon": 0.0, "bike_id": "319aaa7aad2e667c71afda2a6116fdb5", "is_disabled": 0, "is_reserved": 0}, {"rental_uris": {"ios": "https://dc.lft.to/lastmile_qr_scan", "android": "https://dc.lft.to/lastmile_qr_scan"}, "lon": -77.05474666666667, "type": "electric_scooter", "fusion_lat": 0.0, "lat": 38.89390516666667, "name": "a8ad9a98435293a01027550c96a01482", "fusion_lon": 0.0, "bike_id": "a8ad9a98435293a01027550c96a01482", "is_disabled": 0, "is_reserved": 0}, {"rental_uris": {"ios": "https://dc.lft.to/lastmile_qr_scan", "android": "https://dc.lft.to/lastmile_qr_scan"}, "lon": -76.93230533333333, "type": "electric_bike", "fusion_lat": 0.0, "lat": 38.86588316666667, "name": "d5fd022777d39a2ee086245b8ba59c80", "fusion_lon": 0.0, "bike_id": "d5fd022777d39a2ee086245b8ba59c80", "is_disabled": 0, "is_reserved": 0}, {"rental_uris": {"ios": "https://dc.lft.to/lastmile_qr_scan", "android": "https://dc.lft.to/lastmile_qr_scan"}, "lon": -77.03262816666667, "type": "electric_scooter", "fusion_lat": 0.0, "lat": 38.9332685, "name": "4ecd0165ad738936f4ece7943173b6a8", "fusion_lon": 0.0, "bike_id": "4ecd0165ad738936f4ece7943173b6a8", "is_disabled": 0, "is_reserved": 0}, {"rental_uris": {"ios": "https://dc.lft.to/lastmile_qr_scan", "android": "https://dc.lft.to/lastmile_qr_scan"}, "lon": -77.092056, "type": "electric_scooter", "fusion_lat": 0.0, "lat": 38.94130666666667, "name": "bdbc04dafdc6072a70f119b59695b3bc", "fusion_lon": 0.0, "bike_id": "bdbc04dafdc6072a70f119b59695b3bc", "is_disabled": 0, "is_reserved": 0}, {"rental_uris": {"ios": "https://dc.lft.to/lastmile_qr_scan", "android": "https://dc.lft.to/lastmile_qr_scan"}, "lon": -77.03225666666667, "type": "electric_scooter", "fusion_lat": 0.0, "lat": 38.8963885, "name": "b227e5b80f763cc483631d67ce8097e7", "fusion_lon": 0.0, "bike_id": "b227e5b80f763cc483631d67ce8097e7", "is_disabled": 0, "is_reserved": 0}, {"rental_uris": {"ios": "https://dc.lft.to/lastmile_qr_scan", "android": "https://dc.lft.to/lastmile_qr_scan"}, "lon": -77.04254683333333, "type": "electric_bike", "fusion_lat": 0.0, "lat": 38.9241875, "name": "8c399302f48429ded63b352a26c4cd62", "fusion_lon": 0.0, "bike_id": "8c399302f48429ded63b352a26c4cd62", "is_disabled": 0, "is_reserved": 0}, {"rental_uris": {"ios": "https://dc.lft.to/lastmile_qr_scan", "android": "https://dc.lft.to/lastmile_qr_scan"}, "lon": -76.99044066666667, "type": "electric_bike", "fusion_lat": 0.0, "lat": 38.924816, "name": "a1bbc1af8f559dd4fd44d2f3c4ebdc26", "fusion_lon": 0.0, "bike_id": "a1bbc1af8f559dd4fd44d2f3c4ebdc26", "is_disabled": 0, "is_reserved": 0}, {"rental_uris": {"ios": "https://dc.lft.to/lastmile_qr_scan", "android": "https://dc.lft.to/lastmile_qr_scan"}, "lon": -77.03468733333334, "type": "electric_scooter", "fusion_lat": 0.0, "lat": 38.902626166666664, "name": "7889785b5c73960dc1ae37c24036e215", "fusion_lon": 0.0, "bike_id": "7889785b5c73960dc1ae37c24036e215", "is_disabled": 0, "is_reserved": 0}, {"rental_uris": {"ios": "https://dc.lft.to/lastmile_qr_scan", "android": "https://dc.lft.to/lastmile_qr_scan"}, "lon": -77.07086583333333, "type": "electric_bike", "fusion_lat": 0.0, "lat": 38.955561333333335, "name": "5406e5af79b33791380e34d455f2c14e", "fusion_lon": 0.0, "bike_id": "5406e5af79b33791380e34d455f2c14e", "is_disabled": 0, "is_reserved": 0}, {"rental_uris": {"ios": "https://dc.lft.to/lastmile_qr_scan", "android": "https://dc.lft.to/lastmile_qr_scan"}, "lon": -77.02393483333333, "type": "electric_scooter", "fusion_lat": 0.0, "lat": 38.91672283333333, "name": "4038439b2f5efc97236df0db1dcd4d06", "fusion_lon": 0.0, "bike_id": "4038439b2f5efc97236df0db1dcd4d06", "is_disabled": 0, "is_reserved": 0}, {"rental_uris": {"ios": "https://dc.lft.to/lastmile_qr_scan", "android": "https://dc.lft.to/lastmile_qr_scan"}, "lon": -76.92371516666667, "type": "electric_bike", "fusion_lat": 0.0, "lat": 38.8837545, "name": "333765c88109d88f8631abc5263e75dd", "fusion_lon": 0.0, "bike_id": "333765c88109d88f8631abc5263e75dd", "is_disabled": 0, "is_reserved": 0}, {"rental_uris": {"ios": "https://dc.lft.to/lastmile_qr_scan", "android": "https://dc.lft.to/lastmile_qr_scan"}, "lon": -77.023511, "type": "electric_scooter", "fusion_lat": 0.0, "lat": 38.93177283333333, "name": "15514892c4ceb6488ba7472d78982de1", "fusion_lon": 0.0, "bike_id": "15514892c4ceb6488ba7472d78982de1", "is_disabled": 0, "is_reserved": 0}, {"rental_uris": {"ios": "https://dc.lft.to/lastmile_qr_scan", "android": "https://dc.lft.to/lastmile_qr_scan"}, "lon": -77.0487545, "type": "electric_scooter", "fusion_lat": 0.0, "lat": 38.90983633333333, "name": "e2500c58ef503e0d94cc96a171d6ecec", "fusion_lon": 0.0, "bike_id": "e2500c58ef503e0d94cc96a171d6ecec", "is_disabled": 0, "is_reserved": 0}, {"rental_uris": {"ios": "https://dc.lft.to/lastmile_qr_scan", "android": "https://dc.lft.to/lastmile_qr_scan"}, "lon": -77.02269933333334, "type": "electric_scooter", "fusion_lat": 0.0, "lat": 38.898428833333334, "name": "c972d8c73bba835ffc80ddf861471ed7", "fusion_lon": 0.0, "bike_id": "c972d8c73bba835ffc80ddf861471ed7", "is_disabled": 0, "is_reserved": 0}, {"rental_uris": {"ios": "https://dc.lft.to/lastmile_qr_scan", "android": "https://dc.lft.to/lastmile_qr_scan"}, "lon": -76.93175, "type": "electric_scooter", "fusion_lat": 0.0, "lat": 38.89885366666667, "name": "ed060c29561d8cc46fcd4c42d46b689d", "fusion_lon": 0.0, "bike_id": "ed060c29561d8cc46fcd4c42d46b689d", "is_disabled": 0, "is_reserved": 0}, {"rental_uris": {"ios": "https://dc.lft.to/lastmile_qr_scan", "android": "https://dc.lft.to/lastmile_qr_scan"}, "lon": -77.02202633333333, "type": "electric_scooter", "fusion_lat": 0.0, "lat": 38.92153166666667, "name": "07e168e59b7f57ef300abb8fca0d5b95", "fusion_lon": 0.0, "bike_id": "07e168e59b7f57ef300abb8fca0d5b95", "is_disabled": 0, "is_reserved": 0}, {"rental_uris": {"ios": "https://dc.lft.to/lastmile_qr_scan", "android": "https://dc.lft.to/lastmile_qr_scan"}, "lon": -77.003351, "type": "electric_scooter", "fusion_lat": 0.0, "lat": 38.8749345, "name": "50f5a9bd77acb8fc96ab8ae910d717a2", "fusion_lon": 0.0, "bike_id": "50f5a9bd77acb8fc96ab8ae910d717a2", "is_disabled": 0, "is_reserved": 0}, {"rental_uris": {"ios": "https://dc.lft.to/lastmile_qr_scan", "android": "https://dc.lft.to/lastmile_qr_scan"}, "lon": -77.04064483333333, "type": "electric_scooter", "fusion_lat": 0.0, "lat": 38.923829, "name": "e9827b1928ab53a19dac6dea26e15ddf", "fusion_lon": 0.0, "bike_id": "e9827b1928ab53a19dac6dea26e15ddf", "is_disabled": 0, "is_reserved": 0}, {"rental_uris": {"ios": "https://dc.lft.to/lastmile_qr_scan", "android": "https://dc.lft.to/lastmile_qr_scan"}, "lon": -77.03312633333333, "type": "electric_scooter", "fusion_lat": 0.0, "lat": 38.90141966666667, "name": "f2871bffdbe177d3860d175f2dd3b01c", "fusion_lon": 0.0, "bike_id": "f2871bffdbe177d3860d175f2dd3b01c", "is_disabled": 0, "is_reserved": 0}, {"rental_uris": {"ios": "https://dc.lft.to/lastmile_qr_scan", "android": "https://dc.lft.to/lastmile_qr_scan"}, "lon": -77.04712816666667, "type": "electric_scooter", "fusion_lat": 0.0, "lat": 38.903860333333334, "name": "e0896a8dca383a124c3b95efcf3e776c", "fusion_lon": 0.0, "bike_id": "e0896a8dca383a124c3b95efcf3e776c", "is_disabled": 0, "is_reserved": 0}, {"rental_uris": {"ios": "https://dc.lft.to/lastmile_qr_scan", "android": "https://dc.lft.to/lastmile_qr_scan"}, "lon": -77.03206366666667, "type": "electric_scooter", "fusion_lat": 0.0, "lat": 38.900438333333334, "name": "5372f6e5f5b536b23e8ecbfafb78c377", "fusion_lon": 0.0, "bike_id": "5372f6e5f5b536b23e8ecbfafb78c377", "is_disabled": 0, "is_reserved": 0}, {"rental_uris": {"ios": "https://dc.lft.to/lastmile_qr_scan", "android": "https://dc.lft.to/lastmile_qr_scan"}, "lon": -76.95464766666667, "type": "electric_bike", "fusion_lat": 0.0, "lat": 38.88639583333333, "name": "3992b11976694a3fc54f0aa936a1f24c", "fusion_lon": 0.0, "bike_id": "3992b11976694a3fc54f0aa936a1f24c", "is_disabled": 0, "is_reserved": 0}, {"rental_uris": {"ios": "https://dc.lft.to/lastmile_qr_scan", "android": "https://dc.lft.to/lastmile_qr_scan"}, "lon": -76.97442933333333, "type": "electric_scooter", "fusion_lat": 0.0, "lat": 38.865265, "name": "4d2491339e7e7eaf09345f527b8d9bcf", "fusion_lon": 0.0, "bike_id": "4d2491339e7e7eaf09345f527b8d9bcf", "is_disabled": 0, "is_reserved": 0}, {"rental_uris": {"ios": "https://dc.lft.to/lastmile_qr_scan", "android": "https://dc.lft.to/lastmile_qr_scan"}, "lon": -77.01395283333333, "type": "electric_scooter", "fusion_lat": 0.0, "lat": 38.91948083333333, "name": "ecd7ff829fff5718516fdf3474f3487d", "fusion_lon": 0.0, "bike_id": "ecd7ff829fff5718516fdf3474f3487d", "is_disabled": 0, "is_reserved": 0}, {"rental_uris": {"ios": "https://dc.lft.to/lastmile_qr_scan", "android": "https://dc.lft.to/lastmile_qr_scan"}, "lon": -77.01510183333333, "type": "electric_scooter", "fusion_lat": 0.0, "lat": 38.88734816666667, "name": "e1e5a040c479f7c5da4255235ccf4344", "fusion_lon": 0.0, "bike_id": "e1e5a040c479f7c5da4255235ccf4344", "is_disabled": 0, "is_reserved": 0}, {"rental_uris": {"ios": "https://dc.lft.to/lastmile_qr_scan", "android": "https://dc.lft.to/lastmile_qr_scan"}, "lon": -77.0243195, "type": "electric_scooter", "fusion_lat": 0.0, "lat": 38.922554, "name": "585e24ed518392f88d931b33670da52a", "fusion_lon": 0.0, "bike_id": "585e24ed518392f88d931b33670da52a", "is_disabled": 0, "is_reserved": 0}, {"rental_uris": {"ios": "https://dc.lft.to/lastmile_qr_scan", "android": "https://dc.lft.to/lastmile_qr_scan"}, "lon": -76.98365866666667, "type": "electric_scooter", "fusion_lat": 0.0, "lat": 38.915102833333336, "name": "63806d6ad3400a0c8e5a5f2d6183cdb9", "fusion_lon": 0.0, "bike_id": "63806d6ad3400a0c8e5a5f2d6183cdb9", "is_disabled": 0, "is_reserved": 0}, {"rental_uris": {"ios": "https://dc.lft.to/lastmile_qr_scan", "android": "https://dc.lft.to/lastmile_qr_scan"}, "lon": -76.99066783333333, "type": "electric_scooter", "fusion_lat": 0.0, "lat": 38.863627666666666, "name": "1ffca604392e82d83b7fa57235f4a5b6", "fusion_lon": 0.0, "bike_id": "1ffca604392e82d83b7fa57235f4a5b6", "is_disabled": 0, "is_reserved": 0}, {"rental_uris": {"ios": "https://dc.lft.to/lastmile_qr_scan", "android": "https://dc.lft.to/lastmile_qr_scan"}, "lon": -77.03848616666667, "type": "electric_scooter", "fusion_lat": 0.0, "lat": 38.926450833333334, "name": "0111665b5a5e7ae9246884b8902c3881", "fusion_lon": 0.0, "bike_id": "0111665b5a5e7ae9246884b8902c3881", "is_disabled": 0, "is_reserved": 0}, {"rental_uris": {"ios": "https://dc.lft.to/lastmile_qr_scan", "android": "https://dc.lft.to/lastmile_qr_scan"}, "lon": -77.0598045, "type": "electric_scooter", "fusion_lat": 0.0, "lat": 38.93546416666667, "name": "7fe3a02be39bfdc81b13716b0534d33e", "fusion_lon": 0.0, "bike_id": "7fe3a02be39bfdc81b13716b0534d33e", "is_disabled": 0, "is_reserved": 0}, {"rental_uris": {"ios": "https://dc.lft.to/lastmile_qr_scan", "android": "https://dc.lft.to/lastmile_qr_scan"}, "lon": -77.031771, "type": "electric_scooter", "fusion_lat": 0.0, "lat": 38.909011666666665, "name": "2b4b71bfcd5adde4f900eed3ec107f50", "fusion_lon": 0.0, "bike_id": "2b4b71bfcd5adde4f900eed3ec107f50", "is_disabled": 0, "is_reserved": 0}, {"rental_uris": {"ios": "https://dc.lft.to/lastmile_qr_scan", "android": "https://dc.lft.to/lastmile_qr_scan"}, "lon": -77.05525716666666, "type": "electric_scooter", "fusion_lat": 0.0, "lat": 38.89735233333333, "name": "052275aed2077791e317cb4af73e2dff", "fusion_lon": 0.0, "bike_id": "052275aed2077791e317cb4af73e2dff", "is_disabled": 0, "is_reserved": 0}, {"rental_uris": {"ios": "https://dc.lft.to/lastmile_qr_scan", "android": "https://dc.lft.to/lastmile_qr_scan"}, "lon": -77.02379833333333, "type": "electric_scooter", "fusion_lat": 0.0, "lat": 38.908935166666666, "name": "5ba263ebf2120a7c0b069e58effa404f", "fusion_lon": 0.0, "bike_id": "5ba263ebf2120a7c0b069e58effa404f", "is_disabled": 0, "is_reserved": 0}, {"rental_uris": {"ios": "https://dc.lft.to/lastmile_qr_scan", "android": "https://dc.lft.to/lastmile_qr_scan"}, "lon": -77.0473325, "type": "electric_scooter", "fusion_lat": 0.0, "lat": 38.897222166666666, "name": "c41ab669dcecca8daac027d1dcaa5bf1", "fusion_lon": 0.0, "bike_id": "c41ab669dcecca8daac027d1dcaa5bf1", "is_disabled": 0, "is_reserved": 0}, {"rental_uris": {"ios": "https://dc.lft.to/lastmile_qr_scan", "android": "https://dc.lft.to/lastmile_qr_scan"}, "lon": -77.02967216666667, "type": "electric_scooter", "fusion_lat": 0.0, "lat": 38.9048065, "name": "0f5b8a23b507caf9c6fd6a8d1f4b15c5", "fusion_lon": 0.0, "bike_id": "0f5b8a23b507caf9c6fd6a8d1f4b15c5", "is_disabled": 0, "is_reserved": 0}, {"rental_uris": {"ios": "https://dc.lft.to/lastmile_qr_scan", "android": "https://dc.lft.to/lastmile_qr_scan"}, "lon": -77.0093905, "type": "electric_scooter", "fusion_lat": 0.0, "lat": 38.871952666666665, "name": "5c68b7291e0fd9eaa1853f56f7f324f2", "fusion_lon": 0.0, "bike_id": "5c68b7291e0fd9eaa1853f56f7f324f2", "is_disabled": 0, "is_reserved": 0}, {"rental_uris": {"ios": "https://dc.lft.to/lastmile_qr_scan", "android": "https://dc.lft.to/lastmile_qr_scan"}, "lon": -77.0320095, "type": "electric_scooter", "fusion_lat": 0.0, "lat": 38.8935655, "name": "408a4a78a331b74809c605c7be93706c", "fusion_lon": 0.0, "bike_id": "408a4a78a331b74809c605c7be93706c", "is_disabled": 0, "is_reserved": 0}, {"rental_uris": {"ios": "https://dc.lft.to/lastmile_qr_scan", "android": "https://dc.lft.to/lastmile_qr_scan"}, "lon": -76.98885216666666, "type": "electric_scooter", "fusion_lat": 0.0, "lat": 38.866511333333335, "name": "6fa369b91837729369d30d4c5bbc27c2", "fusion_lon": 0.0, "bike_id": "6fa369b91837729369d30d4c5bbc27c2", "is_disabled": 0, "is_reserved": 0}, {"rental_uris": {"ios": "https://dc.lft.to/lastmile_qr_scan", "android": "https://dc.lft.to/lastmile_qr_scan"}, "lon": -77.04165016666667, "type": "electric_scooter", "fusion_lat": 0.0, "lat": 38.91396833333334, "name": "b09f935356c1b44ef7fa37bae3ed29e5", "fusion_lon": 0.0, "bike_id": "b09f935356c1b44ef7fa37bae3ed29e5", "is_disabled": 0, "is_reserved": 0}, {"rental_uris": {"ios": "https://dc.lft.to/lastmile_qr_scan", "android": "https://dc.lft.to/lastmile_qr_scan"}, "lon": -77.051199, "type": "electric_bike", "fusion_lat": 0.0, "lat": 38.99962816666667, "name": "6a2e9a872cdb450b618473ae25c3558d", "fusion_lon": 0.0, "bike_id": "6a2e9a872cdb450b618473ae25c3558d", "is_disabled": 0, "is_reserved": 0}, {"rental_uris": {"ios": "https://dc.lft.to/lastmile_qr_scan", "android": "https://dc.lft.to/lastmile_qr_scan"}, "lon": -77.05353983333333, "type": "electric_scooter", "fusion_lat": 0.0, "lat": 38.9025745, "name": "4b779a1939706f67140962f42d26792d", "fusion_lon": 0.0, "bike_id": "4b779a1939706f67140962f42d26792d", "is_disabled": 0, "is_reserved": 0}, {"rental_uris": {"ios": "https://dc.lft.to/lastmile_qr_scan", "android": "https://dc.lft.to/lastmile_qr_scan"}, "lon": -76.93095233333334, "type": "electric_scooter", "fusion_lat": 0.0, "lat": 38.901373166666666, "name": "6524f71a44d7e658d9d56984f77cb3d6", "fusion_lon": 0.0, "bike_id": "6524f71a44d7e658d9d56984f77cb3d6", "is_disabled": 0, "is_reserved": 0}, {"rental_uris": {"ios": "https://dc.lft.to/lastmile_qr_scan", "android": "https://dc.lft.to/lastmile_qr_scan"}, "lon": -76.98543083333334, "type": "electric_scooter", "fusion_lat": 0.0, "lat": 38.87852483333333, "name": "858ce2d3f5b069964be3119307f16533", "fusion_lon": 0.0, "bike_id": "858ce2d3f5b069964be3119307f16533", "is_disabled": 0, "is_reserved": 0}, {"rental_uris": {"ios": "https://dc.lft.to/lastmile_qr_scan", "android": "https://dc.lft.to/lastmile_qr_scan"}, "lon": -77.04903933333334, "type": "electric_scooter", "fusion_lat": 0.0, "lat": 38.888403, "name": "12f1c71bc1224e0378e17471c6c4ea3d", "fusion_lon": 0.0, "bike_id": "12f1c71bc1224e0378e17471c6c4ea3d", "is_disabled": 0, "is_reserved": 0}, {"rental_uris": {"ios": "https://dc.lft.to/lastmile_qr_scan", "android": "https://dc.lft.to/lastmile_qr_scan"}, "lon": -77.03338, "type": "electric_scooter", "fusion_lat": 0.0, "lat": 38.91911966666667, "name": "b26171d1263a3e71c879ead1a636e9b4", "fusion_lon": 0.0, "bike_id": "b26171d1263a3e71c879ead1a636e9b4", "is_disabled": 0, "is_reserved": 0}, {"rental_uris": {"ios": "https://dc.lft.to/lastmile_qr_scan", "android": "https://dc.lft.to/lastmile_qr_scan"}, "lon": -77.135948, "type": "electric_bike", "fusion_lat": 0.0, "lat": 39.053448, "name": "f699a8b00956654d2cc307b27429f019", "fusion_lon": 0.0, "bike_id": "f699a8b00956654d2cc307b27429f019", "is_disabled": 0, "is_reserved": 0}, {"rental_uris": {"ios": "https://dc.lft.to/lastmile_qr_scan", "android": "https://dc.lft.to/lastmile_qr_scan"}, "lon": -76.99372666666666, "type": "electric_scooter", "fusion_lat": 0.0, "lat": 38.86299966666667, "name": "ce1dc52f3041a7759f6bc5e68b690000", "fusion_lon": 0.0, "bike_id": "ce1dc52f3041a7759f6bc5e68b690000", "is_disabled": 0, "is_reserved": 0}, {"rental_uris": {"ios": "https://dc.lft.to/lastmile_qr_scan", "android": "https://dc.lft.to/lastmile_qr_scan"}, "lon": -77.04190216666667, "type": "electric_scooter", "fusion_lat": 0.0, "lat": 38.90039433333333, "name": "52fb8bef63d12438b307cd10456ce886", "fusion_lon": 0.0, "bike_id": "52fb8bef63d12438b307cd10456ce886", "is_disabled": 0, "is_reserved": 0}, {"rental_uris": {"ios": "https://dc.lft.to/lastmile_qr_scan", "android": "https://dc.lft.to/lastmile_qr_scan"}, "lon": -77.01255283333333, "type": "electric_scooter", "fusion_lat": 0.0, "lat": 38.899646, "name": "dc0529f6a789f2893109f0dac5b13557", "fusion_lon": 0.0, "bike_id": "dc0529f6a789f2893109f0dac5b13557", "is_disabled": 0, "is_reserved": 0}, {"rental_uris": {"ios": "https://dc.lft.to/lastmile_qr_scan", "android": "https://dc.lft.to/lastmile_qr_scan"}, "lon": -76.99002216666666, "type": "electric_scooter", "fusion_lat": 0.0, "lat": 38.865029, "name": "fe4a48afcbb9636b29cd606dc389dde5", "fusion_lon": 0.0, "bike_id": "fe4a48afcbb9636b29cd606dc389dde5", "is_disabled": 0, "is_reserved": 0}, {"rental_uris": {"ios": "https://dc.lft.to/lastmile_qr_scan", "android": "https://dc.lft.to/lastmile_qr_scan"}, "lon": -77.040823, "type": "electric_scooter", "fusion_lat": 0.0, "lat": 38.917257, "name": "5d3b48c438799239b69af5379b41e778", "fusion_lon": 0.0, "bike_id": "5d3b48c438799239b69af5379b41e778", "is_disabled": 0, "is_reserved": 0}, {"rental_uris": {"ios": "https://dc.lft.to/lastmile_qr_scan", "android": "https://dc.lft.to/lastmile_qr_scan"}, "lon": -76.998254, "type": "electric_scooter", "fusion_lat": 0.0, "lat": 38.88530516666667, "name": "d95e2a3b23bc5a6a3742868a5bdc2c3b", "fusion_lon": 0.0, "bike_id": "d95e2a3b23bc5a6a3742868a5bdc2c3b", "is_disabled": 0, "is_reserved": 0}, {"rental_uris": {"ios": "https://dc.lft.to/lastmile_qr_scan", "android": "https://dc.lft.to/lastmile_qr_scan"}, "lon": -77.02679016666667, "type": "electric_scooter", "fusion_lat": 0.0, "lat": 38.899848, "name": "7da8289472839c0479e1ace2acf29d16", "fusion_lon": 0.0, "bike_id": "7da8289472839c0479e1ace2acf29d16", "is_disabled": 0, "is_reserved": 0}, {"rental_uris": {"ios": "https://dc.lft.to/lastmile_qr_scan", "android": "https://dc.lft.to/lastmile_qr_scan"}, "lon": -77.0080895, "type": "electric_scooter", "fusion_lat": 0.0, "lat": 38.877521, "name": "eb77b3020fca344053e4e5884496e101", "fusion_lon": 0.0, "bike_id": "eb77b3020fca344053e4e5884496e101", "is_disabled": 0, "is_reserved": 0}, {"rental_uris": {"ios": "https://dc.lft.to/lastmile_qr_scan", "android": "https://dc.lft.to/lastmile_qr_scan"}, "lon": -77.04860883333333, "type": "electric_scooter", "fusion_lat": 0.0, "lat": 38.9068735, "name": "eb1a5dc06f48130e7ca9ea25a63cab49", "fusion_lon": 0.0, "bike_id": "eb1a5dc06f48130e7ca9ea25a63cab49", "is_disabled": 0, "is_reserved": 0}, {"rental_uris": {"ios": "https://dc.lft.to/lastmile_qr_scan", "android": "https://dc.lft.to/lastmile_qr_scan"}, "lon": -77.033259, "type": "electric_scooter", "fusion_lat": 0.0, "lat": 38.8982025, "name": "e9ece5556cc3e9ec8538db08246d4419", "fusion_lon": 0.0, "bike_id": "e9ece5556cc3e9ec8538db08246d4419", "is_disabled": 0, "is_reserved": 0}, {"rental_uris": {"ios": "https://dc.lft.to/lastmile_qr_scan", "android": "https://dc.lft.to/lastmile_qr_scan"}, "lon": -77.02429566666666, "type": "electric_scooter", "fusion_lat": 0.0, "lat": 38.90724516666667, "name": "f8ba796acc3e367e4bb230444213cedd", "fusion_lon": 0.0, "bike_id": "f8ba796acc3e367e4bb230444213cedd", "is_disabled": 0, "is_reserved": 0}, {"rental_uris": {"ios": "https://dc.lft.to/lastmile_qr_scan", "android": "https://dc.lft.to/lastmile_qr_scan"}, "lon": -76.97668483333334, "type": "electric_scooter", "fusion_lat": 0.0, "lat": 38.898830833333335, "name": "05176a1575c782d68134bc7f0b637d73", "fusion_lon": 0.0, "bike_id": "05176a1575c782d68134bc7f0b637d73", "is_disabled": 0, "is_reserved": 0}, {"rental_uris": {"ios": "https://dc.lft.to/lastmile_qr_scan", "android": "https://dc.lft.to/lastmile_qr_scan"}, "lon": -77.043313, "type": "electric_scooter", "fusion_lat": 0.0, "lat": 38.892269666666664, "name": "9bf38137e340a77d4092101b47facf12", "fusion_lon": 0.0, "bike_id": "9bf38137e340a77d4092101b47facf12", "is_disabled": 0, "is_reserved": 0}, {"rental_uris": {"ios": "https://dc.lft.to/lastmile_qr_scan", "android": "https://dc.lft.to/lastmile_qr_scan"}, "lon": -77.02378866666666, "type": "electric_scooter", "fusion_lat": 0.0, "lat": 38.952446333333334, "name": "ab003552ee0014f53aa905c19f072986", "fusion_lon": 0.0, "bike_id": "ab003552ee0014f53aa905c19f072986", "is_disabled": 0, "is_reserved": 0}, {"rental_uris": {"ios": "https://dc.lft.to/lastmile_qr_scan", "android": "https://dc.lft.to/lastmile_qr_scan"}, "lon": -76.94760333333333, "type": "electric_scooter", "fusion_lat": 0.0, "lat": 38.90058283333333, "name": "5d110e3250e87bc5a5f8fb5b0eba6232", "fusion_lon": 0.0, "bike_id": "5d110e3250e87bc5a5f8fb5b0eba6232", "is_disabled": 0, "is_reserved": 0}, {"rental_uris": {"ios": "https://dc.lft.to/lastmile_qr_scan", "android": "https://dc.lft.to/lastmile_qr_scan"}, "lon": -77.03072766666666, "type": "electric_scooter", "fusion_lat": 0.0, "lat": 38.8996515, "name": "794635179fdb294dfb335ec976898cf1", "fusion_lon": 0.0, "bike_id": "794635179fdb294dfb335ec976898cf1", "is_disabled": 0, "is_reserved": 0}, {"rental_uris": {"ios": "https://dc.lft.to/lastmile_qr_scan", "android": "https://dc.lft.to/lastmile_qr_scan"}, "lon": -77.04000516666666, "type": "electric_scooter", "fusion_lat": 0.0, "lat": 38.93426266666667, "name": "35b16835ed1466f31bbc80a460b7695b", "fusion_lon": 0.0, "bike_id": "35b16835ed1466f31bbc80a460b7695b", "is_disabled": 0, "is_reserved": 0}, {"rental_uris": {"ios": "https://dc.lft.to/lastmile_qr_scan", "android": "https://dc.lft.to/lastmile_qr_scan"}, "lon": -77.04006516666666, "type": "electric_scooter", "fusion_lat": 0.0, "lat": 38.900556, "name": "2d1fff8c2c83fbda05262c8dc5d3c4b8", "fusion_lon": 0.0, "bike_id": "2d1fff8c2c83fbda05262c8dc5d3c4b8", "is_disabled": 0, "is_reserved": 0}, {"rental_uris": {"ios": "https://dc.lft.to/lastmile_qr_scan", "android": "https://dc.lft.to/lastmile_qr_scan"}, "lon": -76.98826983333333, "type": "electric_scooter", "fusion_lat": 0.0, "lat": 38.880307, "name": "802b3c294c948b0e53ba88bab8f8b0b5", "fusion_lon": 0.0, "bike_id": "802b3c294c948b0e53ba88bab8f8b0b5", "is_disabled": 0, "is_reserved": 0}, {"rental_uris": {"ios": "https://dc.lft.to/lastmile_qr_scan", "android": "https://dc.lft.to/lastmile_qr_scan"}, "lon": -77.12375866666666, "type": "electric_bike", "fusion_lat": 0.0, "lat": 38.84740466666667, "name": "6570f57580cc6e46cbd4088b9ae755ea", "fusion_lon": 0.0, "bike_id": "6570f57580cc6e46cbd4088b9ae755ea", "is_disabled": 0, "is_reserved": 0}, {"rental_uris": {"ios": "https://dc.lft.to/lastmile_qr_scan", "android": "https://dc.lft.to/lastmile_qr_scan"}, "lon": -77.03247583333334, "type": "electric_scooter", "fusion_lat": 0.0, "lat": 38.92905833333333, "name": "55a8a246adb041df27d922c9d030b0e6", "fusion_lon": 0.0, "bike_id": "55a8a246adb041df27d922c9d030b0e6", "is_disabled": 0, "is_reserved": 0}, {"rental_uris": {"ios": "https://dc.lft.to/lastmile_qr_scan", "android": "https://dc.lft.to/lastmile_qr_scan"}, "lon": -77.0551885, "type": "electric_scooter", "fusion_lat": 0.0, "lat": 38.89942283333333, "name": "13520c0030a84d36fdfb0a39524ca821", "fusion_lon": 0.0, "bike_id": "13520c0030a84d36fdfb0a39524ca821", "is_disabled": 0, "is_reserved": 0}, {"rental_uris": {"ios": "https://dc.lft.to/lastmile_qr_scan", "android": "https://dc.lft.to/lastmile_qr_scan"}, "lon": -77.02750433333334, "type": "electric_scooter", "fusion_lat": 0.0, "lat": 38.89485833333333, "name": "be73931a4dd58786fc7dca91895be309", "fusion_lon": 0.0, "bike_id": "be73931a4dd58786fc7dca91895be309", "is_disabled": 0, "is_reserved": 0}, {"rental_uris": {"ios": "https://dc.lft.to/lastmile_qr_scan", "android": "https://dc.lft.to/lastmile_qr_scan"}, "lon": -77.04474933333333, "type": "electric_scooter", "fusion_lat": 0.0, "lat": 38.900727, "name": "0a8657cdb3f948ed8da0a429c6047d87", "fusion_lon": 0.0, "bike_id": "0a8657cdb3f948ed8da0a429c6047d87", "is_disabled": 0, "is_reserved": 0}, {"rental_uris": {"ios": "https://dc.lft.to/lastmile_qr_scan", "android": "https://dc.lft.to/lastmile_qr_scan"}, "lon": -77.07060083333333, "type": "electric_scooter", "fusion_lat": 0.0, "lat": 38.901111, "name": "ec8a1f47243ccbd5f53395a4611e0f2a", "fusion_lon": 0.0, "bike_id": "ec8a1f47243ccbd5f53395a4611e0f2a", "is_disabled": 0, "is_reserved": 0}, {"rental_uris": {"ios": "https://dc.lft.to/lastmile_qr_scan", "android": "https://dc.lft.to/lastmile_qr_scan"}, "lon": -77.03358533333333, "type": "electric_scooter", "fusion_lat": 0.0, "lat": 38.89947883333333, "name": "fd22d312a9827bfcd632830b21ab5aa6", "fusion_lon": 0.0, "bike_id": "fd22d312a9827bfcd632830b21ab5aa6", "is_disabled": 0, "is_reserved": 0}, {"rental_uris": {"ios": "https://dc.lft.to/lastmile_qr_scan", "android": "https://dc.lft.to/lastmile_qr_scan"}, "lon": -77.02827666666667, "type": "electric_scooter", "fusion_lat": 0.0, "lat": 38.931915833333335, "name": "2f278d2d98b8ad8a102eb62c07860b7a", "fusion_lon": 0.0, "bike_id": "2f278d2d98b8ad8a102eb62c07860b7a", "is_disabled": 0, "is_reserved": 0}, {"rental_uris": {"ios": "https://dc.lft.to/lastmile_qr_scan", "android": "https://dc.lft.to/lastmile_qr_scan"}, "lon": -77.0054355, "type": "electric_scooter", "fusion_lat": 0.0, "lat": 38.87461166666667, "name": "2efd40ab7a9256d21fb563e2d3cfc584", "fusion_lon": 0.0, "bike_id": "2efd40ab7a9256d21fb563e2d3cfc584", "is_disabled": 0, "is_reserved": 0}, {"rental_uris": {"ios": "https://dc.lft.to/lastmile_qr_scan", "android": "https://dc.lft.to/lastmile_qr_scan"}, "lon": -77.01776083333333, "type": "electric_scooter", "fusion_lat": 0.0, "lat": 38.8871555, "name": "5602dedde10d90e38e53243625a97c89", "fusion_lon": 0.0, "bike_id": "5602dedde10d90e38e53243625a97c89", "is_disabled": 0, "is_reserved": 0}, {"rental_uris": {"ios": "https://dc.lft.to/lastmile_qr_scan", "android": "https://dc.lft.to/lastmile_qr_scan"}, "lon": -77.055014, "type": "electric_scooter", "fusion_lat": 0.0, "lat": 38.929752666666666, "name": "a1dbe167e1046fa35f6a2ef3dca1e3be", "fusion_lon": 0.0, "bike_id": "a1dbe167e1046fa35f6a2ef3dca1e3be", "is_disabled": 0, "is_reserved": 0}, {"rental_uris": {"ios": "https://dc.lft.to/lastmile_qr_scan", "android": "https://dc.lft.to/lastmile_qr_scan"}, "lon": -77.02504383333333, "type": "electric_scooter", "fusion_lat": 0.0, "lat": 38.8972695, "name": "d559faeb31b682f0cd93a7c6c9a3a3ca", "fusion_lon": 0.0, "bike_id": "d559faeb31b682f0cd93a7c6c9a3a3ca", "is_disabled": 0, "is_reserved": 0}, {"rental_uris": {"ios": "https://dc.lft.to/lastmile_qr_scan", "android": "https://dc.lft.to/lastmile_qr_scan"}, "lon": -77.011308, "type": "electric_scooter", "fusion_lat": 0.0, "lat": 38.90736, "name": "f80f241cdc8f0e9647c4dad21afd2e7e", "fusion_lon": 0.0, "bike_id": "f80f241cdc8f0e9647c4dad21afd2e7e", "is_disabled": 0, "is_reserved": 0}, {"rental_uris": {"ios": "https://dc.lft.to/lastmile_qr_scan", "android": "https://dc.lft.to/lastmile_qr_scan"}, "lon": -77.00630433333333, "type": "electric_scooter", "fusion_lat": 0.0, "lat": 38.829312333333334, "name": "084500b97182a55f84cc45efd53bc19f", "fusion_lon": 0.0, "bike_id": "084500b97182a55f84cc45efd53bc19f", "is_disabled": 0, "is_reserved": 0}, {"rental_uris": {"ios": "https://dc.lft.to/lastmile_qr_scan", "android": "https://dc.lft.to/lastmile_qr_scan"}, "lon": -77.02364466666667, "type": "electric_scooter", "fusion_lat": 0.0, "lat": 38.902989833333336, "name": "dd7b45a575fb91650ca91a1649f72e0d", "fusion_lon": 0.0, "bike_id": "dd7b45a575fb91650ca91a1649f72e0d", "is_disabled": 0, "is_reserved": 0}, {"rental_uris": {"ios": "https://dc.lft.to/lastmile_qr_scan", "android": "https://dc.lft.to/lastmile_qr_scan"}, "lon": -77.056713, "type": "electric_scooter", "fusion_lat": 0.0, "lat": 38.923291666666664, "name": "9d2fde192da13091560bbe680f0dfe6c", "fusion_lon": 0.0, "bike_id": "9d2fde192da13091560bbe680f0dfe6c", "is_disabled": 0, "is_reserved": 0}, {"rental_uris": {"ios": "https://dc.lft.to/lastmile_qr_scan", "android": "https://dc.lft.to/lastmile_qr_scan"}, "lon": -77.01927733333333, "type": "electric_scooter", "fusion_lat": 0.0, "lat": 38.95688116666667, "name": "86a0a4bdc3fd48bdcee28aafc6dd5e1b", "fusion_lon": 0.0, "bike_id": "86a0a4bdc3fd48bdcee28aafc6dd5e1b", "is_disabled": 0, "is_reserved": 0}, {"rental_uris": {"ios": "https://dc.lft.to/lastmile_qr_scan", "android": "https://dc.lft.to/lastmile_qr_scan"}, "lon": -77.03207866666666, "type": "electric_scooter", "fusion_lat": 0.0, "lat": 38.911999, "name": "aec32ec9fbc479df9ac3800410b3838f", "fusion_lon": 0.0, "bike_id": "aec32ec9fbc479df9ac3800410b3838f", "is_disabled": 0, "is_reserved": 0}, {"rental_uris": {"ios": "https://dc.lft.to/lastmile_qr_scan", "android": "https://dc.lft.to/lastmile_qr_scan"}, "lon": -77.03629233333334, "type": "electric_scooter", "fusion_lat": 0.0, "lat": 38.928434, "name": "d48f8650771f30bce5fe23737b901f55", "fusion_lon": 0.0, "bike_id": "d48f8650771f30bce5fe23737b901f55", "is_disabled": 0, "is_reserved": 0}, {"rental_uris": {"ios": "https://dc.lft.to/lastmile_qr_scan", "android": "https://dc.lft.to/lastmile_qr_scan"}, "lon": -77.039882, "type": "electric_scooter", "fusion_lat": 0.0, "lat": 38.892251, "name": "9edf923ad46d4934954dafca1d14aa27", "fusion_lon": 0.0, "bike_id": "9edf923ad46d4934954dafca1d14aa27", "is_disabled": 0, "is_reserved": 0}, {"rental_uris": {"ios": "https://dc.lft.to/lastmile_qr_scan", "android": "https://dc.lft.to/lastmile_qr_scan"}, "lon": -77.0366025, "type": "electric_scooter", "fusion_lat": 0.0, "lat": 38.9223825, "name": "8567ea2f3d98adffc5cde499bc775a5c", "fusion_lon": 0.0, "bike_id": "8567ea2f3d98adffc5cde499bc775a5c", "is_disabled": 0, "is_reserved": 0}, {"rental_uris": {"ios": "https://dc.lft.to/lastmile_qr_scan", "android": "https://dc.lft.to/lastmile_qr_scan"}, "lon": -77.02333816666666, "type": "electric_scooter", "fusion_lat": 0.0, "lat": 38.90853766666667, "name": "a07c1210817a82efbb9f6d9cd6d227bf", "fusion_lon": 0.0, "bike_id": "a07c1210817a82efbb9f6d9cd6d227bf", "is_disabled": 0, "is_reserved": 0}, {"rental_uris": {"ios": "https://dc.lft.to/lastmile_qr_scan", "android": "https://dc.lft.to/lastmile_qr_scan"}, "lon": -77.05001733333333, "type": "electric_scooter", "fusion_lat": 0.0, "lat": 38.900451833333335, "name": "940640019408b0ecfec0e887f32072c4", "fusion_lon": 0.0, "bike_id": "940640019408b0ecfec0e887f32072c4", "is_disabled": 0, "is_reserved": 0}, {"rental_uris": {"ios": "https://dc.lft.to/lastmile_qr_scan", "android": "https://dc.lft.to/lastmile_qr_scan"}, "lon": -77.04222233333333, "type": "electric_scooter", "fusion_lat": 0.0, "lat": 38.92098033333333, "name": "6b3f974e9215360e9df1489fdb227a74", "fusion_lon": 0.0, "bike_id": "6b3f974e9215360e9df1489fdb227a74", "is_disabled": 0, "is_reserved": 0}, {"rental_uris": {"ios": "https://dc.lft.to/lastmile_qr_scan", "android": "https://dc.lft.to/lastmile_qr_scan"}, "lon": -77.02191366666666, "type": "electric_scooter", "fusion_lat": 0.0, "lat": 38.91498816666667, "name": "235199227a9530f7c16d803829a87f26", "fusion_lon": 0.0, "bike_id": "235199227a9530f7c16d803829a87f26", "is_disabled": 0, "is_reserved": 0}, {"rental_uris": {"ios": "https://dc.lft.to/lastmile_qr_scan", "android": "https://dc.lft.to/lastmile_qr_scan"}, "lon": -77.032734, "type": "electric_scooter", "fusion_lat": 0.0, "lat": 38.916237, "name": "aea230e3f8e7a58925b4ce8dda08ee06", "fusion_lon": 0.0, "bike_id": "aea230e3f8e7a58925b4ce8dda08ee06", "is_disabled": 0, "is_reserved": 0}, {"rental_uris": {"ios": "https://dc.lft.to/lastmile_qr_scan", "android": "https://dc.lft.to/lastmile_qr_scan"}, "lon": -76.99802866666667, "type": "electric_scooter", "fusion_lat": 0.0, "lat": 38.90849083333333, "name": "679aa495b8753426fae72fad51f4979d", "fusion_lon": 0.0, "bike_id": "679aa495b8753426fae72fad51f4979d", "is_disabled": 0, "is_reserved": 0}, {"rental_uris": {"ios": "https://dc.lft.to/lastmile_qr_scan", "android": "https://dc.lft.to/lastmile_qr_scan"}, "lon": -77.02583166666666, "type": "electric_scooter", "fusion_lat": 0.0, "lat": 38.90501866666666, "name": "ca23742fd1736e4277b7c24af7d9e6b0", "fusion_lon": 0.0, "bike_id": "ca23742fd1736e4277b7c24af7d9e6b0", "is_disabled": 0, "is_reserved": 0}, {"rental_uris": {"ios": "https://dc.lft.to/lastmile_qr_scan", "android": "https://dc.lft.to/lastmile_qr_scan"}, "lon": -77.026065, "type": "electric_scooter", "fusion_lat": 0.0, "lat": 38.919941333333334, "name": "7dd4346abd712395f348ca4c41d7181f", "fusion_lon": 0.0, "bike_id": "7dd4346abd712395f348ca4c41d7181f", "is_disabled": 0, "is_reserved": 0}, {"rental_uris": {"ios": "https://dc.lft.to/lastmile_qr_scan", "android": "https://dc.lft.to/lastmile_qr_scan"}, "lon": -77.0074215, "type": "electric_scooter", "fusion_lat": 0.0, "lat": 38.87938833333333, "name": "ffb45de0f8747e03443e7357bce82ded", "fusion_lon": 0.0, "bike_id": "ffb45de0f8747e03443e7357bce82ded", "is_disabled": 0, "is_reserved": 0}, {"rental_uris": {"ios": "https://dc.lft.to/lastmile_qr_scan", "android": "https://dc.lft.to/lastmile_qr_scan"}, "lon": -77.04830783333334, "type": "electric_scooter", "fusion_lat": 0.0, "lat": 38.920371, "name": "9835620b46825a6426f317e5adbbf28f", "fusion_lon": 0.0, "bike_id": "9835620b46825a6426f317e5adbbf28f", "is_disabled": 0, "is_reserved": 0}, {"rental_uris": {"ios": "https://dc.lft.to/lastmile_qr_scan", "android": "https://dc.lft.to/lastmile_qr_scan"}, "lon": -76.990628, "type": "electric_scooter", "fusion_lat": 0.0, "lat": 38.8635105, "name": "209b5de0d1465b49861304cb23518f3c", "fusion_lon": 0.0, "bike_id": "209b5de0d1465b49861304cb23518f3c", "is_disabled": 0, "is_reserved": 0}, {"rental_uris": {"ios": "https://dc.lft.to/lastmile_qr_scan", "android": "https://dc.lft.to/lastmile_qr_scan"}, "lon": -77.0321635, "type": "electric_scooter", "fusion_lat": 0.0, "lat": 38.90376766666667, "name": "839ba106a012a1dda38dba53db21471b", "fusion_lon": 0.0, "bike_id": "839ba106a012a1dda38dba53db21471b", "is_disabled": 0, "is_reserved": 0}, {"rental_uris": {"ios": "https://dc.lft.to/lastmile_qr_scan", "android": "https://dc.lft.to/lastmile_qr_scan"}, "lon": -77.0319535, "type": "electric_scooter", "fusion_lat": 0.0, "lat": 38.91450916666667, "name": "a6e09ee66f4f8b36d60d4e4fdfbf4421", "fusion_lon": 0.0, "bike_id": "a6e09ee66f4f8b36d60d4e4fdfbf4421", "is_disabled": 0, "is_reserved": 0}, {"rental_uris": {"ios": "https://dc.lft.to/lastmile_qr_scan", "android": "https://dc.lft.to/lastmile_qr_scan"}, "lon": -76.90430766666667, "type": "electric_bike", "fusion_lat": 0.0, "lat": 38.897691, "name": "41d31ec2ca883a75dee0551194d27d56", "fusion_lon": 0.0, "bike_id": "41d31ec2ca883a75dee0551194d27d56", "is_disabled": 0, "is_reserved": 0}, {"rental_uris": {"ios": "https://dc.lft.to/lastmile_qr_scan", "android": "https://dc.lft.to/lastmile_qr_scan"}, "lon": -76.9487765, "type": "electric_scooter", "fusion_lat": 0.0, "lat": 38.89504983333333, "name": "b82ca51b0e4149df8132f219c995bbad", "fusion_lon": 0.0, "bike_id": "b82ca51b0e4149df8132f219c995bbad", "is_disabled": 0, "is_reserved": 0}, {"rental_uris": {"ios": "https://dc.lft.to/lastmile_qr_scan", "android": "https://dc.lft.to/lastmile_qr_scan"}, "lon": -77.037105, "type": "electric_bike", "fusion_lat": 0.0, "lat": 38.9355035, "name": "1b492ec851134d48b8d89c958afb94e3", "fusion_lon": 0.0, "bike_id": "1b492ec851134d48b8d89c958afb94e3", "is_disabled": 0, "is_reserved": 0}, {"rental_uris": {"ios": "https://dc.lft.to/lastmile_qr_scan", "android": "https://dc.lft.to/lastmile_qr_scan"}, "lon": -77.03946933333333, "type": "electric_scooter", "fusion_lat": 0.0, "lat": 38.89954816666667, "name": "e59536737bb1a0b7729985357b40b028", "fusion_lon": 0.0, "bike_id": "e59536737bb1a0b7729985357b40b028", "is_disabled": 0, "is_reserved": 0}, {"rental_uris": {"ios": "https://dc.lft.to/lastmile_qr_scan", "android": "https://dc.lft.to/lastmile_qr_scan"}, "lon": -77.00756416666667, "type": "electric_scooter", "fusion_lat": 0.0, "lat": 38.897296, "name": "a60dd72af995b1b86c7163058a394114", "fusion_lon": 0.0, "bike_id": "a60dd72af995b1b86c7163058a394114", "is_disabled": 0, "is_reserved": 0}, {"rental_uris": {"ios": "https://dc.lft.to/lastmile_qr_scan", "android": "https://dc.lft.to/lastmile_qr_scan"}, "lon": -77.0326215, "type": "electric_scooter", "fusion_lat": 0.0, "lat": 38.935249, "name": "91b6a17fc361b1afb526cada2f5d17b2", "fusion_lon": 0.0, "bike_id": "91b6a17fc361b1afb526cada2f5d17b2", "is_disabled": 0, "is_reserved": 0}, {"rental_uris": {"ios": "https://dc.lft.to/lastmile_qr_scan", "android": "https://dc.lft.to/lastmile_qr_scan"}, "lon": -77.0249555, "type": "electric_scooter", "fusion_lat": 0.0, "lat": 38.897319, "name": "a69885386849a80e4b7ef51aff1c4a23", "fusion_lon": 0.0, "bike_id": "a69885386849a80e4b7ef51aff1c4a23", "is_disabled": 0, "is_reserved": 0}, {"rental_uris": {"ios": "https://dc.lft.to/lastmile_qr_scan", "android": "https://dc.lft.to/lastmile_qr_scan"}, "lon": -77.106842, "type": "electric_bike", "fusion_lat": 0.0, "lat": 38.93577233333333, "name": "da4fc8c9adefff1f5deb99d980214cc8", "fusion_lon": 0.0, "bike_id": "da4fc8c9adefff1f5deb99d980214cc8", "is_disabled": 0, "is_reserved": 0}, {"rental_uris": {"ios": "https://dc.lft.to/lastmile_qr_scan", "android": "https://dc.lft.to/lastmile_qr_scan"}, "lon": -77.06643583333333, "type": "electric_bike", "fusion_lat": 0.0, "lat": 38.82045033333333, "name": "fb1a03f53a6cfbef9ca3fb966de9c89d", "fusion_lon": 0.0, "bike_id": "fb1a03f53a6cfbef9ca3fb966de9c89d", "is_disabled": 0, "is_reserved": 0}, {"rental_uris": {"ios": "https://dc.lft.to/lastmile_qr_scan", "android": "https://dc.lft.to/lastmile_qr_scan"}, "lon": -77.03224616666667, "type": "electric_scooter", "fusion_lat": 0.0, "lat": 38.9181715, "name": "155d6a939685f7d7ecce0eef35a64b5d", "fusion_lon": 0.0, "bike_id": "155d6a939685f7d7ecce0eef35a64b5d", "is_disabled": 0, "is_reserved": 0}, {"rental_uris": {"ios": "https://dc.lft.to/lastmile_qr_scan", "android": "https://dc.lft.to/lastmile_qr_scan"}, "lon": -77.06593583333333, "type": "electric_scooter", "fusion_lat": 0.0, "lat": 38.90526716666667, "name": "cef895943a8e06005019999721686ed2", "fusion_lon": 0.0, "bike_id": "cef895943a8e06005019999721686ed2", "is_disabled": 0, "is_reserved": 0}, {"rental_uris": {"ios": "https://dc.lft.to/lastmile_qr_scan", "android": "https://dc.lft.to/lastmile_qr_scan"}, "lon": -77.0465785, "type": "electric_scooter", "fusion_lat": 0.0, "lat": 38.8933705, "name": "4c3f8d1d3452cdae1ce4186c5121648e", "fusion_lon": 0.0, "bike_id": "4c3f8d1d3452cdae1ce4186c5121648e", "is_disabled": 0, "is_reserved": 0}, {"rental_uris": {"ios": "https://dc.lft.to/lastmile_qr_scan", "android": "https://dc.lft.to/lastmile_qr_scan"}, "lon": -77.046676, "type": "electric_scooter", "fusion_lat": 0.0, "lat": 38.9147775, "name": "938444cae2518bdc4921952433f2022f", "fusion_lon": 0.0, "bike_id": "938444cae2518bdc4921952433f2022f", "is_disabled": 0, "is_reserved": 0}, {"rental_uris": {"ios": "https://dc.lft.to/lastmile_qr_scan", "android": "https://dc.lft.to/lastmile_qr_scan"}, "lon": -77.042627, "type": "electric_scooter", "fusion_lat": 0.0, "lat": 38.90272816666667, "name": "0e7e8a866580fa4c8e7afe216a7452ef", "fusion_lon": 0.0, "bike_id": "0e7e8a866580fa4c8e7afe216a7452ef", "is_disabled": 0, "is_reserved": 0}, {"rental_uris": {"ios": "https://dc.lft.to/lastmile_qr_scan", "android": "https://dc.lft.to/lastmile_qr_scan"}, "lon": -76.9721695, "type": "electric_bike", "fusion_lat": 0.0, "lat": 38.84484616666667, "name": "78e84784829305b71b9d7a2c2a26a6b4", "fusion_lon": 0.0, "bike_id": "78e84784829305b71b9d7a2c2a26a6b4", "is_disabled": 0, "is_reserved": 0}, {"rental_uris": {"ios": "https://dc.lft.to/lastmile_qr_scan", "android": "https://dc.lft.to/lastmile_qr_scan"}, "lon": -77.03185766666667, "type": "electric_scooter", "fusion_lat": 0.0, "lat": 38.89429483333333, "name": "7b620b3685c24ac472a4eece9ddde354", "fusion_lon": 0.0, "bike_id": "7b620b3685c24ac472a4eece9ddde354", "is_disabled": 0, "is_reserved": 0}, {"rental_uris": {"ios": "https://dc.lft.to/lastmile_qr_scan", "android": "https://dc.lft.to/lastmile_qr_scan"}, "lon": -77.02183566666666, "type": "electric_scooter", "fusion_lat": 0.0, "lat": 38.89711116666667, "name": "c1139f5b762e9fbabcef6632887b5554", "fusion_lon": 0.0, "bike_id": "c1139f5b762e9fbabcef6632887b5554", "is_disabled": 0, "is_reserved": 0}, {"rental_uris": {"ios": "https://dc.lft.to/lastmile_qr_scan", "android": "https://dc.lft.to/lastmile_qr_scan"}, "lon": -77.024986, "type": "electric_scooter", "fusion_lat": 0.0, "lat": 38.903255333333334, "name": "b02fddc6e84dfc2c338294740f9940e9", "fusion_lon": 0.0, "bike_id": "b02fddc6e84dfc2c338294740f9940e9", "is_disabled": 0, "is_reserved": 0}, {"rental_uris": {"ios": "https://dc.lft.to/lastmile_qr_scan", "android": "https://dc.lft.to/lastmile_qr_scan"}, "lon": -77.01823516666667, "type": "electric_scooter", "fusion_lat": 0.0, "lat": 38.91925916666667, "name": "81cd1218f7bc1c9d500515721f083e53", "fusion_lon": 0.0, "bike_id": "81cd1218f7bc1c9d500515721f083e53", "is_disabled": 0, "is_reserved": 0}, {"rental_uris": {"ios": "https://dc.lft.to/lastmile_qr_scan", "android": "https://dc.lft.to/lastmile_qr_scan"}, "lon": -76.94437466666666, "type": "electric_bike", "fusion_lat": 0.0, "lat": 38.90297366666667, "name": "72c0246c085a0a6f8b9dc04c06919a86", "fusion_lon": 0.0, "bike_id": "72c0246c085a0a6f8b9dc04c06919a86", "is_disabled": 0, "is_reserved": 0}, {"rental_uris": {"ios": "https://dc.lft.to/lastmile_qr_scan", "android": "https://dc.lft.to/lastmile_qr_scan"}, "lon": -77.04734316666666, "type": "electric_scooter", "fusion_lat": 0.0, "lat": 38.912893333333336, "name": "5aad620e652741a8ea6ecced3bc078ee", "fusion_lon": 0.0, "bike_id": "5aad620e652741a8ea6ecced3bc078ee", "is_disabled": 0, "is_reserved": 0}, {"rental_uris": {"ios": "https://dc.lft.to/lastmile_qr_scan", "android": "https://dc.lft.to/lastmile_qr_scan"}, "lon": -76.98681216666667, "type": "electric_scooter", "fusion_lat": 0.0, "lat": 38.88195733333333, "name": "7004762f9d355f3518ce24730fd1169e", "fusion_lon": 0.0, "bike_id": "7004762f9d355f3518ce24730fd1169e", "is_disabled": 0, "is_reserved": 0}, {"rental_uris": {"ios": "https://dc.lft.to/lastmile_qr_scan", "android": "https://dc.lft.to/lastmile_qr_scan"}, "lon": -76.9795655, "type": "electric_scooter", "fusion_lat": 0.0, "lat": 38.903805166666665, "name": "c155a19c7e4e3c98ca77fca6ffed9f2f", "fusion_lon": 0.0, "bike_id": "c155a19c7e4e3c98ca77fca6ffed9f2f", "is_disabled": 0, "is_reserved": 0}, {"rental_uris": {"ios": "https://dc.lft.to/lastmile_qr_scan", "android": "https://dc.lft.to/lastmile_qr_scan"}, "lon": -77.03122333333333, "type": "electric_scooter", "fusion_lat": 0.0, "lat": 38.913362166666666, "name": "b0bdd11dffb8f9f4a67a6b45e1e6c807", "fusion_lon": 0.0, "bike_id": "b0bdd11dffb8f9f4a67a6b45e1e6c807", "is_disabled": 0, "is_reserved": 0}, {"rental_uris": {"ios": "https://dc.lft.to/lastmile_qr_scan", "android": "https://dc.lft.to/lastmile_qr_scan"}, "lon": -76.97623683333333, "type": "electric_scooter", "fusion_lat": 0.0, "lat": 38.90567933333333, "name": "d62811127c28144cf5b330dfe6b82508", "fusion_lon": 0.0, "bike_id": "d62811127c28144cf5b330dfe6b82508", "is_disabled": 0, "is_reserved": 0}, {"rental_uris": {"ios": "https://dc.lft.to/lastmile_qr_scan", "android": "https://dc.lft.to/lastmile_qr_scan"}, "lon": -77.012097, "type": "electric_scooter", "fusion_lat": 0.0, "lat": 38.91822116666667, "name": "a48d5af1497ed665da4a8042005b3098", "fusion_lon": 0.0, "bike_id": "a48d5af1497ed665da4a8042005b3098", "is_disabled": 0, "is_reserved": 0}, {"rental_uris": {"ios": "https://dc.lft.to/lastmile_qr_scan", "android": "https://dc.lft.to/lastmile_qr_scan"}, "lon": -77.04320883333334, "type": "electric_scooter", "fusion_lat": 0.0, "lat": 38.92351683333333, "name": "9fe0728095abb8d9f6ac7f4d37b846df", "fusion_lon": 0.0, "bike_id": "9fe0728095abb8d9f6ac7f4d37b846df", "is_disabled": 0, "is_reserved": 0}, {"rental_uris": {"ios": "https://dc.lft.to/lastmile_qr_scan", "android": "https://dc.lft.to/lastmile_qr_scan"}, "lon": -77.02198033333333, "type": "electric_scooter", "fusion_lat": 0.0, "lat": 38.89699183333333, "name": "c23faf4527cf5b97ad05d72e25dbfa21", "fusion_lon": 0.0, "bike_id": "c23faf4527cf5b97ad05d72e25dbfa21", "is_disabled": 0, "is_reserved": 0}, {"rental_uris": {"ios": "https://dc.lft.to/lastmile_qr_scan", "android": "https://dc.lft.to/lastmile_qr_scan"}, "lon": -77.02120433333333, "type": "electric_scooter", "fusion_lat": 0.0, "lat": 38.93104816666666, "name": "60b3990b4120116cbe7f8cffc1d2829b", "fusion_lon": 0.0, "bike_id": "60b3990b4120116cbe7f8cffc1d2829b", "is_disabled": 0, "is_reserved": 0}, {"rental_uris": {"ios": "https://dc.lft.to/lastmile_qr_scan", "android": "https://dc.lft.to/lastmile_qr_scan"}, "lon": -77.0629995, "type": "electric_scooter", "fusion_lat": 0.0, "lat": 38.91328083333333, "name": "9587ca5b339597463454b21eea792064", "fusion_lon": 0.0, "bike_id": "9587ca5b339597463454b21eea792064", "is_disabled": 0, "is_reserved": 0}, {"rental_uris": {"ios": "https://dc.lft.to/lastmile_qr_scan", "android": "https://dc.lft.to/lastmile_qr_scan"}, "lon": -77.05880816666667, "type": "electric_scooter", "fusion_lat": 0.0, "lat": 38.93629383333333, "name": "3ed266ad647ecc41c7e9a244f578575a", "fusion_lon": 0.0, "bike_id": "3ed266ad647ecc41c7e9a244f578575a", "is_disabled": 0, "is_reserved": 0}, {"rental_uris": {"ios": "https://dc.lft.to/lastmile_qr_scan", "android": "https://dc.lft.to/lastmile_qr_scan"}, "lon": -77.04659816666667, "type": "electric_scooter", "fusion_lat": 0.0, "lat": 38.91913483333333, "name": "f3c0048e4fa0688519bf53fec973ffe8", "fusion_lon": 0.0, "bike_id": "f3c0048e4fa0688519bf53fec973ffe8", "is_disabled": 0, "is_reserved": 0}, {"rental_uris": {"ios": "https://dc.lft.to/lastmile_qr_scan", "android": "https://dc.lft.to/lastmile_qr_scan"}, "lon": -76.98715716666666, "type": "electric_scooter", "fusion_lat": 0.0, "lat": 38.86248416666667, "name": "0c86f21052be0c1b6c5eeb4f31886585", "fusion_lon": 0.0, "bike_id": "0c86f21052be0c1b6c5eeb4f31886585", "is_disabled": 0, "is_reserved": 0}, {"rental_uris": {"ios": "https://dc.lft.to/lastmile_qr_scan", "android": "https://dc.lft.to/lastmile_qr_scan"}, "lon": -77.023036, "type": "electric_scooter", "fusion_lat": 0.0, "lat": 38.91670766666667, "name": "db22d2823caec092a7af646a9dd88a8c", "fusion_lon": 0.0, "bike_id": "db22d2823caec092a7af646a9dd88a8c", "is_disabled": 0, "is_reserved": 0}, {"rental_uris": {"ios": "https://dc.lft.to/lastmile_qr_scan", "android": "https://dc.lft.to/lastmile_qr_scan"}, "lon": -76.94173383333333, "type": "electric_scooter", "fusion_lat": 0.0, "lat": 38.882191666666664, "name": "3c0bfae4292bde3105c3174e233b19ba", "fusion_lon": 0.0, "bike_id": "3c0bfae4292bde3105c3174e233b19ba", "is_disabled": 0, "is_reserved": 0}, {"rental_uris": {"ios": "https://dc.lft.to/lastmile_qr_scan", "android": "https://dc.lft.to/lastmile_qr_scan"}, "lon": -77.027107, "type": "electric_scooter", "fusion_lat": 0.0, "lat": 38.94981766666667, "name": "e504456443bb7902c8835f0a7907ea88", "fusion_lon": 0.0, "bike_id": "e504456443bb7902c8835f0a7907ea88", "is_disabled": 0, "is_reserved": 0}, {"rental_uris": {"ios": "https://dc.lft.to/lastmile_qr_scan", "android": "https://dc.lft.to/lastmile_qr_scan"}, "lon": -77.061114, "type": "electric_scooter", "fusion_lat": 0.0, "lat": 38.91276583333333, "name": "7c40fed3ce8f774716a7e6da7cd65dd9", "fusion_lon": 0.0, "bike_id": "7c40fed3ce8f774716a7e6da7cd65dd9", "is_disabled": 0, "is_reserved": 0}, {"rental_uris": {"ios": "https://dc.lft.to/lastmile_qr_scan", "android": "https://dc.lft.to/lastmile_qr_scan"}, "lon": -77.05475133333333, "type": "electric_scooter", "fusion_lat": 0.0, "lat": 38.921027333333335, "name": "024ccb19e121d2f38bca0e18f427d9bb", "fusion_lon": 0.0, "bike_id": "024ccb19e121d2f38bca0e18f427d9bb", "is_disabled": 0, "is_reserved": 0}, {"rental_uris": {"ios": "https://dc.lft.to/lastmile_qr_scan", "android": "https://dc.lft.to/lastmile_qr_scan"}, "lon": -76.94721283333334, "type": "electric_scooter", "fusion_lat": 0.0, "lat": 38.89702916666667, "name": "2baed16c736a514639ddd1f9060a4c5a", "fusion_lon": 0.0, "bike_id": "2baed16c736a514639ddd1f9060a4c5a", "is_disabled": 0, "is_reserved": 0}, {"rental_uris": {"ios": "https://dc.lft.to/lastmile_qr_scan", "android": "https://dc.lft.to/lastmile_qr_scan"}, "lon": -77.04656333333334, "type": "electric_scooter", "fusion_lat": 0.0, "lat": 38.89250933333334, "name": "c5251e2a01062a840b39e66c17d25070", "fusion_lon": 0.0, "bike_id": "c5251e2a01062a840b39e66c17d25070", "is_disabled": 0, "is_reserved": 0}, {"rental_uris": {"ios": "https://dc.lft.to/lastmile_qr_scan", "android": "https://dc.lft.to/lastmile_qr_scan"}, "lon": -77.01621366666667, "type": "electric_scooter", "fusion_lat": 0.0, "lat": 38.88742533333333, "name": "18bfe992b8cc7a516c2257b575cf5141", "fusion_lon": 0.0, "bike_id": "18bfe992b8cc7a516c2257b575cf5141", "is_disabled": 0, "is_reserved": 0}, {"rental_uris": {"ios": "https://dc.lft.to/lastmile_qr_scan", "android": "https://dc.lft.to/lastmile_qr_scan"}, "lon": -77.10339166666667, "type": "electric_bike", "fusion_lat": 0.0, "lat": 38.85218016666666, "name": "6cd5d644bb75664f16317a089d2ca695", "fusion_lon": 0.0, "bike_id": "6cd5d644bb75664f16317a089d2ca695", "is_disabled": 0, "is_reserved": 0}, {"rental_uris": {"ios": "https://dc.lft.to/lastmile_qr_scan", "android": "https://dc.lft.to/lastmile_qr_scan"}, "lon": -77.0352, "type": "electric_scooter", "fusion_lat": 0.0, "lat": 38.92196533333333, "name": "3cafc0640fbc246dd6a28e1f855cd718", "fusion_lon": 0.0, "bike_id": "3cafc0640fbc246dd6a28e1f855cd718", "is_disabled": 0, "is_reserved": 0}, {"rental_uris": {"ios": "https://dc.lft.to/lastmile_qr_scan", "android": "https://dc.lft.to/lastmile_qr_scan"}, "lon": -77.0296925, "type": "electric_scooter", "fusion_lat": 0.0, "lat": 38.916783833333334, "name": "131b996079c4bacabde2eaa41ddbf8c6", "fusion_lon": 0.0, "bike_id": "131b996079c4bacabde2eaa41ddbf8c6", "is_disabled": 0, "is_reserved": 0}, {"rental_uris": {"ios": "https://dc.lft.to/lastmile_qr_scan", "android": "https://dc.lft.to/lastmile_qr_scan"}, "lon": -76.94793516666667, "type": "electric_scooter", "fusion_lat": 0.0, "lat": 38.89635333333333, "name": "771515cdc2c47a5da4bfa43a03e15b28", "fusion_lon": 0.0, "bike_id": "771515cdc2c47a5da4bfa43a03e15b28", "is_disabled": 0, "is_reserved": 0}, {"rental_uris": {"ios": "https://dc.lft.to/lastmile_qr_scan", "android": "https://dc.lft.to/lastmile_qr_scan"}, "lon": -77.02975416666666, "type": "electric_scooter", "fusion_lat": 0.0, "lat": 38.96227833333333, "name": "dc31dc9fde370560e874966c689186da", "fusion_lon": 0.0, "bike_id": "dc31dc9fde370560e874966c689186da", "is_disabled": 0, "is_reserved": 0}, {"rental_uris": {"ios": "https://dc.lft.to/lastmile_qr_scan", "android": "https://dc.lft.to/lastmile_qr_scan"}, "lon": -77.0088435, "type": "electric_scooter", "fusion_lat": 0.0, "lat": 38.9140435, "name": "12a4a1f35fe7da15acc002ae3b1c3efe", "fusion_lon": 0.0, "bike_id": "12a4a1f35fe7da15acc002ae3b1c3efe", "is_disabled": 0, "is_reserved": 0}, {"rental_uris": {"ios": "https://dc.lft.to/lastmile_qr_scan", "android": "https://dc.lft.to/lastmile_qr_scan"}, "lon": -77.00133083333333, "type": "electric_scooter", "fusion_lat": 0.0, "lat": 38.9040695, "name": "626ba05d82359bf2d933896d4fa84ccc", "fusion_lon": 0.0, "bike_id": "626ba05d82359bf2d933896d4fa84ccc", "is_disabled": 0, "is_reserved": 0}, {"rental_uris": {"ios": "https://dc.lft.to/lastmile_qr_scan", "android": "https://dc.lft.to/lastmile_qr_scan"}, "lon": -77.02389333333333, "type": "electric_scooter", "fusion_lat": 0.0, "lat": 38.915838, "name": "567d6a0c2c071913a5edd7d3a9639cb4", "fusion_lon": 0.0, "bike_id": "567d6a0c2c071913a5edd7d3a9639cb4", "is_disabled": 0, "is_reserved": 0}, {"rental_uris": {"ios": "https://dc.lft.to/lastmile_qr_scan", "android": "https://dc.lft.to/lastmile_qr_scan"}, "lon": -77.03325733333334, "type": "electric_scooter", "fusion_lat": 0.0, "lat": 38.898818, "name": "d5ce17d38e66f1888719ac63a3ef4c89", "fusion_lon": 0.0, "bike_id": "d5ce17d38e66f1888719ac63a3ef4c89", "is_disabled": 0, "is_reserved": 0}, {"rental_uris": {"ios": "https://dc.lft.to/lastmile_qr_scan", "android": "https://dc.lft.to/lastmile_qr_scan"}, "lon": -77.11224266666666, "type": "electric_bike", "fusion_lat": 0.0, "lat": 38.82869, "name": "7f5e8224e66301c9a54b0576b064a4b4", "fusion_lon": 0.0, "bike_id": "7f5e8224e66301c9a54b0576b064a4b4", "is_disabled": 0, "is_reserved": 0}, {"rental_uris": {"ios": "https://dc.lft.to/lastmile_qr_scan", "android": "https://dc.lft.to/lastmile_qr_scan"}, "lon": -77.04326983333333, "type": "electric_scooter", "fusion_lat": 0.0, "lat": 38.914873, "name": "71fe6174ab4be517f2b507513f745db9", "fusion_lon": 0.0, "bike_id": "71fe6174ab4be517f2b507513f745db9", "is_disabled": 0, "is_reserved": 0}, {"rental_uris": {"ios": "https://dc.lft.to/lastmile_qr_scan", "android": "https://dc.lft.to/lastmile_qr_scan"}, "lon": -77.03669683333334, "type": "electric_scooter", "fusion_lat": 0.0, "lat": 38.93647383333333, "name": "6e54176870551c533561bc35b0fb0c78", "fusion_lon": 0.0, "bike_id": "6e54176870551c533561bc35b0fb0c78", "is_disabled": 0, "is_reserved": 0}, {"rental_uris": {"ios": "https://dc.lft.to/lastmile_qr_scan", "android": "https://dc.lft.to/lastmile_qr_scan"}, "lon": -77.04811033333333, "type": "electric_scooter", "fusion_lat": 0.0, "lat": 38.89603316666667, "name": "ecc6512f430b47142b5a9d6214b19c17", "fusion_lon": 0.0, "bike_id": "ecc6512f430b47142b5a9d6214b19c17", "is_disabled": 0, "is_reserved": 0}, {"rental_uris": {"ios": "https://dc.lft.to/lastmile_qr_scan", "android": "https://dc.lft.to/lastmile_qr_scan"}, "lon": -77.0401345, "type": "electric_scooter", "fusion_lat": 0.0, "lat": 38.91802116666667, "name": "31f73bcf6476ecd1689ee2b4775a5aee", "fusion_lon": 0.0, "bike_id": "31f73bcf6476ecd1689ee2b4775a5aee", "is_disabled": 0, "is_reserved": 0}, {"rental_uris": {"ios": "https://dc.lft.to/lastmile_qr_scan", "android": "https://dc.lft.to/lastmile_qr_scan"}, "lon": -77.1120145, "type": "electric_bike", "fusion_lat": 0.0, "lat": 38.81308, "name": "6ac9320c24824d3cff4488c512908d87", "fusion_lon": 0.0, "bike_id": "6ac9320c24824d3cff4488c512908d87", "is_disabled": 0, "is_reserved": 0}, {"rental_uris": {"ios": "https://dc.lft.to/lastmile_qr_scan", "android": "https://dc.lft.to/lastmile_qr_scan"}, "lon": -76.9352955, "type": "electric_bike", "fusion_lat": 0.0, "lat": 38.95546916666667, "name": "ecca2852c43f43b046cdcfe54a651f99", "fusion_lon": 0.0, "bike_id": "ecca2852c43f43b046cdcfe54a651f99", "is_disabled": 0, "is_reserved": 0}, {"rental_uris": {"ios": "https://dc.lft.to/lastmile_qr_scan", "android": "https://dc.lft.to/lastmile_qr_scan"}, "lon": -77.032629, "type": "electric_scooter", "fusion_lat": 0.0, "lat": 38.92926583333333, "name": "33bcf59c3c241e2649a42be6ab9a0cde", "fusion_lon": 0.0, "bike_id": "33bcf59c3c241e2649a42be6ab9a0cde", "is_disabled": 0, "is_reserved": 0}, {"rental_uris": {"ios": "https://dc.lft.to/lastmile_qr_scan", "android": "https://dc.lft.to/lastmile_qr_scan"}, "lon": -77.1225615, "type": "electric_bike", "fusion_lat": 0.0, "lat": 38.89190266666667, "name": "b6d8f2dbde83c90d679469c4a2e92023", "fusion_lon": 0.0, "bike_id": "b6d8f2dbde83c90d679469c4a2e92023", "is_disabled": 0, "is_reserved": 0}, {"rental_uris": {"ios": "https://dc.lft.to/lastmile_qr_scan", "android": "https://dc.lft.to/lastmile_qr_scan"}, "lon": -77.0475955, "type": "electric_scooter", "fusion_lat": 0.0, "lat": 38.902322166666664, "name": "f2ea6f26c27c7820b3f9a069deec7d12", "fusion_lon": 0.0, "bike_id": "f2ea6f26c27c7820b3f9a069deec7d12", "is_disabled": 0, "is_reserved": 0}, {"rental_uris": {"ios": "https://dc.lft.to/lastmile_qr_scan", "android": "https://dc.lft.to/lastmile_qr_scan"}, "lon": -77.04385483333333, "type": "electric_scooter", "fusion_lat": 0.0, "lat": 38.92053083333333, "name": "f161e15bf20b2bcd9929f86d00cc495b", "fusion_lon": 0.0, "bike_id": "f161e15bf20b2bcd9929f86d00cc495b", "is_disabled": 0, "is_reserved": 0}, {"rental_uris": {"ios": "https://dc.lft.to/lastmile_qr_scan", "android": "https://dc.lft.to/lastmile_qr_scan"}, "lon": -76.95746216666667, "type": "electric_scooter", "fusion_lat": 0.0, "lat": 38.884379333333335, "name": "ab0dada737ef0e84961ae3c58f522e30", "fusion_lon": 0.0, "bike_id": "ab0dada737ef0e84961ae3c58f522e30", "is_disabled": 0, "is_reserved": 0}, {"rental_uris": {"ios": "https://dc.lft.to/lastmile_qr_scan", "android": "https://dc.lft.to/lastmile_qr_scan"}, "lon": -77.07682266666667, "type": "electric_bike", "fusion_lat": 0.0, "lat": 38.831906333333336, "name": "6e36363e105477c5836ea6a5c80ae7e1", "fusion_lon": 0.0, "bike_id": "6e36363e105477c5836ea6a5c80ae7e1", "is_disabled": 0, "is_reserved": 0}, {"rental_uris": {"ios": "https://dc.lft.to/lastmile_qr_scan", "android": "https://dc.lft.to/lastmile_qr_scan"}, "lon": -77.02914916666667, "type": "electric_scooter", "fusion_lat": 0.0, "lat": 38.898191833333335, "name": "1fc6c5c4b9c8d7d4d6356555f8f3f964", "fusion_lon": 0.0, "bike_id": "1fc6c5c4b9c8d7d4d6356555f8f3f964", "is_disabled": 0, "is_reserved": 0}, {"rental_uris": {"ios": "https://dc.lft.to/lastmile_qr_scan", "android": "https://dc.lft.to/lastmile_qr_scan"}, "lon": -77.072462, "type": "electric_scooter", "fusion_lat": 0.0, "lat": 38.933697333333335, "name": "9b02b887a4ff420a6962f5b01dd48299", "fusion_lon": 0.0, "bike_id": "9b02b887a4ff420a6962f5b01dd48299", "is_disabled": 0, "is_reserved": 0}, {"rental_uris": {"ios": "https://dc.lft.to/lastmile_qr_scan", "android": "https://dc.lft.to/lastmile_qr_scan"}, "lon": -77.0721305, "type": "electric_scooter", "fusion_lat": 0.0, "lat": 38.934678, "name": "9374da3d8498f609ac8b636263c25d48", "fusion_lon": 0.0, "bike_id": "9374da3d8498f609ac8b636263c25d48", "is_disabled": 0, "is_reserved": 0}, {"rental_uris": {"ios": "https://dc.lft.to/lastmile_qr_scan", "android": "https://dc.lft.to/lastmile_qr_scan"}, "lon": -77.017591, "type": "electric_scooter", "fusion_lat": 0.0, "lat": 38.885919666666666, "name": "973437dbc0b178942de2e1580950c8da", "fusion_lon": 0.0, "bike_id": "973437dbc0b178942de2e1580950c8da", "is_disabled": 0, "is_reserved": 0}, {"rental_uris": {"ios": "https://dc.lft.to/lastmile_qr_scan", "android": "https://dc.lft.to/lastmile_qr_scan"}, "lon": -77.0261165, "type": "electric_scooter", "fusion_lat": 0.0, "lat": 38.916756, "name": "7d3a3484962145a1adcc03bf50f9a5f1", "fusion_lon": 0.0, "bike_id": "7d3a3484962145a1adcc03bf50f9a5f1", "is_disabled": 0, "is_reserved": 0}, {"rental_uris": {"ios": "https://dc.lft.to/lastmile_qr_scan", "android": "https://dc.lft.to/lastmile_qr_scan"}, "lon": -77.0539205, "type": "electric_scooter", "fusion_lat": 0.0, "lat": 38.92792983333333, "name": "d4dcbd9d661f6d7cf3d9c89dfe396069", "fusion_lon": 0.0, "bike_id": "d4dcbd9d661f6d7cf3d9c89dfe396069", "is_disabled": 0, "is_reserved": 0}, {"rental_uris": {"ios": "https://dc.lft.to/lastmile_qr_scan", "android": "https://dc.lft.to/lastmile_qr_scan"}, "lon": -77.02224533333333, "type": "electric_bike", "fusion_lat": 0.0, "lat": 38.95685483333333, "name": "f6d56304428be7f2e829ec2caf267330", "fusion_lon": 0.0, "bike_id": "f6d56304428be7f2e829ec2caf267330", "is_disabled": 0, "is_reserved": 0}, {"rental_uris": {"ios": "https://dc.lft.to/lastmile_qr_scan", "android": "https://dc.lft.to/lastmile_qr_scan"}, "lon": -77.05917766666667, "type": "electric_scooter", "fusion_lat": 0.0, "lat": 38.904525166666666, "name": "5487c6a5a6eaf3335548fb4e2c420dbf", "fusion_lon": 0.0, "bike_id": "5487c6a5a6eaf3335548fb4e2c420dbf", "is_disabled": 0, "is_reserved": 0}, {"rental_uris": {"ios": "https://dc.lft.to/lastmile_qr_scan", "android": "https://dc.lft.to/lastmile_qr_scan"}, "lon": -76.99248916666667, "type": "electric_bike", "fusion_lat": 0.0, "lat": 38.925489, "name": "73080cf25bd6ce13a79f456546ba8cfe", "fusion_lon": 0.0, "bike_id": "73080cf25bd6ce13a79f456546ba8cfe", "is_disabled": 0, "is_reserved": 0}, {"rental_uris": {"ios": "https://dc.lft.to/lastmile_qr_scan", "android": "https://dc.lft.to/lastmile_qr_scan"}, "lon": -76.9802595, "type": "electric_scooter", "fusion_lat": 0.0, "lat": 38.887767333333336, "name": "8e212cd69c889bbd68bd905dee8d5fcf", "fusion_lon": 0.0, "bike_id": "8e212cd69c889bbd68bd905dee8d5fcf", "is_disabled": 0, "is_reserved": 0}, {"rental_uris": {"ios": "https://dc.lft.to/lastmile_qr_scan", "android": "https://dc.lft.to/lastmile_qr_scan"}, "lon": -77.0252465, "type": "electric_scooter", "fusion_lat": 0.0, "lat": 38.94298716666667, "name": "3bd8c3680006005778c77a060f2e17b5", "fusion_lon": 0.0, "bike_id": "3bd8c3680006005778c77a060f2e17b5", "is_disabled": 0, "is_reserved": 0}, {"rental_uris": {"ios": "https://dc.lft.to/lastmile_qr_scan", "android": "https://dc.lft.to/lastmile_qr_scan"}, "lon": -77.00312066666666, "type": "electric_scooter", "fusion_lat": 0.0, "lat": 38.907206, "name": "1ae1f524fc0d4941e4330af6de57d96d", "fusion_lon": 0.0, "bike_id": "1ae1f524fc0d4941e4330af6de57d96d", "is_disabled": 0, "is_reserved": 0}, {"rental_uris": {"ios": "https://dc.lft.to/lastmile_qr_scan", "android": "https://dc.lft.to/lastmile_qr_scan"}, "lon": -77.02644483333333, "type": "electric_scooter", "fusion_lat": 0.0, "lat": 38.9303405, "name": "1b3f4cb0a19639986b38a0db3b1ff48d", "fusion_lon": 0.0, "bike_id": "1b3f4cb0a19639986b38a0db3b1ff48d", "is_disabled": 0, "is_reserved": 0}, {"rental_uris": {"ios": "https://dc.lft.to/lastmile_qr_scan", "android": "https://dc.lft.to/lastmile_qr_scan"}, "lon": -77.04051583333333, "type": "electric_scooter", "fusion_lat": 0.0, "lat": 38.92464183333333, "name": "afa678ad1166828b3fc3bea7bbf7aaa8", "fusion_lon": 0.0, "bike_id": "afa678ad1166828b3fc3bea7bbf7aaa8", "is_disabled": 0, "is_reserved": 0}, {"rental_uris": {"ios": "https://dc.lft.to/lastmile_qr_scan", "android": "https://dc.lft.to/lastmile_qr_scan"}, "lon": -77.017441, "type": "electric_scooter", "fusion_lat": 0.0, "lat": 38.90559616666667, "name": "7693fc1eae11bc3a5a6af6bfdf2d6329", "fusion_lon": 0.0, "bike_id": "7693fc1eae11bc3a5a6af6bfdf2d6329", "is_disabled": 0, "is_reserved": 0}, {"rental_uris": {"ios": "https://dc.lft.to/lastmile_qr_scan", "android": "https://dc.lft.to/lastmile_qr_scan"}, "lon": -77.016563, "type": "electric_scooter", "fusion_lat": 0.0, "lat": 38.913933, "name": "618dcff779a12d847e16ce51ab62a8ba", "fusion_lon": 0.0, "bike_id": "618dcff779a12d847e16ce51ab62a8ba", "is_disabled": 0, "is_reserved": 0}, {"rental_uris": {"ios": "https://dc.lft.to/lastmile_qr_scan", "android": "https://dc.lft.to/lastmile_qr_scan"}, "lon": -77.02590633333334, "type": "electric_scooter", "fusion_lat": 0.0, "lat": 38.89960283333333, "name": "f0ed481ebe3cb4e302bf2690700524b0", "fusion_lon": 0.0, "bike_id": "f0ed481ebe3cb4e302bf2690700524b0", "is_disabled": 0, "is_reserved": 0}, {"rental_uris": {"ios": "https://dc.lft.to/lastmile_qr_scan", "android": "https://dc.lft.to/lastmile_qr_scan"}, "lon": -76.99018416666667, "type": "electric_scooter", "fusion_lat": 0.0, "lat": 38.85867866666667, "name": "7085be778e8191214c1ebae40e0714d9", "fusion_lon": 0.0, "bike_id": "7085be778e8191214c1ebae40e0714d9", "is_disabled": 0, "is_reserved": 0}, {"rental_uris": {"ios": "https://dc.lft.to/lastmile_qr_scan", "android": "https://dc.lft.to/lastmile_qr_scan"}, "lon": -77.18287383333333, "type": "electric_bike", "fusion_lat": 0.0, "lat": 38.883412166666666, "name": "9fff0c78c998ef2e148175fbeeddb450", "fusion_lon": 0.0, "bike_id": "9fff0c78c998ef2e148175fbeeddb450", "is_disabled": 0, "is_reserved": 0}, {"rental_uris": {"ios": "https://dc.lft.to/lastmile_qr_scan", "android": "https://dc.lft.to/lastmile_qr_scan"}, "lon": -76.94997766666667, "type": "electric_scooter", "fusion_lat": 0.0, "lat": 38.893687166666666, "name": "ac150ec872c7d4e71af0aa15d34953cf", "fusion_lon": 0.0, "bike_id": "ac150ec872c7d4e71af0aa15d34953cf", "is_disabled": 0, "is_reserved": 0}, {"rental_uris": {"ios": "https://dc.lft.to/lastmile_qr_scan", "android": "https://dc.lft.to/lastmile_qr_scan"}, "lon": -77.059014, "type": "electric_scooter", "fusion_lat": 0.0, "lat": 38.9361245, "name": "b044da625e6096c9e7b4bb192cfa2621", "fusion_lon": 0.0, "bike_id": "b044da625e6096c9e7b4bb192cfa2621", "is_disabled": 0, "is_reserved": 0}, {"rental_uris": {"ios": "https://dc.lft.to/lastmile_qr_scan", "android": "https://dc.lft.to/lastmile_qr_scan"}, "lon": -77.08264916666667, "type": "electric_scooter", "fusion_lat": 0.0, "lat": 38.930324166666665, "name": "30c594e6f8cf63d98c49a1dc4702c112", "fusion_lon": 0.0, "bike_id": "30c594e6f8cf63d98c49a1dc4702c112", "is_disabled": 0, "is_reserved": 0}, {"rental_uris": {"ios": "https://dc.lft.to/lastmile_qr_scan", "android": "https://dc.lft.to/lastmile_qr_scan"}, "lon": -77.03305833333333, "type": "electric_scooter", "fusion_lat": 0.0, "lat": 38.90112, "name": "a2ee6a67845da385958d77a6633d4864", "fusion_lon": 0.0, "bike_id": "a2ee6a67845da385958d77a6633d4864", "is_disabled": 0, "is_reserved": 0}, {"rental_uris": {"ios": "https://dc.lft.to/lastmile_qr_scan", "android": "https://dc.lft.to/lastmile_qr_scan"}, "lon": -77.03326933333334, "type": "electric_scooter", "fusion_lat": 0.0, "lat": 38.901380833333334, "name": "2584169d0163dd12b1eba61c81d98544", "fusion_lon": 0.0, "bike_id": "2584169d0163dd12b1eba61c81d98544", "is_disabled": 0, "is_reserved": 0}, {"rental_uris": {"ios": "https://dc.lft.to/lastmile_qr_scan", "android": "https://dc.lft.to/lastmile_qr_scan"}, "lon": -77.04493216666667, "type": "electric_scooter", "fusion_lat": 0.0, "lat": 38.906637333333336, "name": "5db00a9fd5a670a32fc4e69eb81c84b6", "fusion_lon": 0.0, "bike_id": "5db00a9fd5a670a32fc4e69eb81c84b6", "is_disabled": 0, "is_reserved": 0}, {"rental_uris": {"ios": "https://dc.lft.to/lastmile_qr_scan", "android": "https://dc.lft.to/lastmile_qr_scan"}, "lon": -77.05704016666667, "type": "electric_scooter", "fusion_lat": 0.0, "lat": 38.90537166666667, "name": "020fba4ec195daa1269adc63e886efa8", "fusion_lon": 0.0, "bike_id": "020fba4ec195daa1269adc63e886efa8", "is_disabled": 0, "is_reserved": 0}, {"rental_uris": {"ios": "https://dc.lft.to/lastmile_qr_scan", "android": "https://dc.lft.to/lastmile_qr_scan"}, "lon": -76.97823016666666, "type": "electric_scooter", "fusion_lat": 0.0, "lat": 38.8951415, "name": "dadaea1e2289091ce6fb65e4125f10df", "fusion_lon": 0.0, "bike_id": "dadaea1e2289091ce6fb65e4125f10df", "is_disabled": 0, "is_reserved": 0}, {"rental_uris": {"ios": "https://dc.lft.to/lastmile_qr_scan", "android": "https://dc.lft.to/lastmile_qr_scan"}, "lon": -77.02345583333333, "type": "electric_scooter", "fusion_lat": 0.0, "lat": 38.93374283333333, "name": "a4da257005fe3f4421c49c2b9b924f76", "fusion_lon": 0.0, "bike_id": "a4da257005fe3f4421c49c2b9b924f76", "is_disabled": 0, "is_reserved": 0}, {"rental_uris": {"ios": "https://dc.lft.to/lastmile_qr_scan", "android": "https://dc.lft.to/lastmile_qr_scan"}, "lon": -77.07901716666667, "type": "electric_bike", "fusion_lat": 0.0, "lat": 38.83930216666667, "name": "cb545d8c8ce57bb2644cdfd05dedd2fa", "fusion_lon": 0.0, "bike_id": "cb545d8c8ce57bb2644cdfd05dedd2fa", "is_disabled": 0, "is_reserved": 0}, {"rental_uris": {"ios": "https://dc.lft.to/lastmile_qr_scan", "android": "https://dc.lft.to/lastmile_qr_scan"}, "lon": -77.00539416666666, "type": "electric_scooter", "fusion_lat": 0.0, "lat": 38.874534833333335, "name": "c52ad1b44e7f5973a90f93edb6e0a3a9", "fusion_lon": 0.0, "bike_id": "c52ad1b44e7f5973a90f93edb6e0a3a9", "is_disabled": 0, "is_reserved": 0}, {"rental_uris": {"ios": "https://dc.lft.to/lastmile_qr_scan", "android": "https://dc.lft.to/lastmile_qr_scan"}, "lon": -77.02490333333333, "type": "electric_scooter", "fusion_lat": 0.0, "lat": 38.918063, "name": "c6f4f26cdade93923e36d6231b59b9c8", "fusion_lon": 0.0, "bike_id": "c6f4f26cdade93923e36d6231b59b9c8", "is_disabled": 0, "is_reserved": 0}, {"rental_uris": {"ios": "https://dc.lft.to/lastmile_qr_scan", "android": "https://dc.lft.to/lastmile_qr_scan"}, "lon": -76.98085233333333, "type": "electric_bike", "fusion_lat": 0.0, "lat": 38.902910166666665, "name": "4aed10b5f8596f5173148e00087df06b", "fusion_lon": 0.0, "bike_id": "4aed10b5f8596f5173148e00087df06b", "is_disabled": 0, "is_reserved": 0}, {"rental_uris": {"ios": "https://dc.lft.to/lastmile_qr_scan", "android": "https://dc.lft.to/lastmile_qr_scan"}, "lon": -77.01437, "type": "electric_scooter", "fusion_lat": 0.0, "lat": 38.91957816666667, "name": "af3f5c24e7446649ccb2b262c7c8b77d", "fusion_lon": 0.0, "bike_id": "af3f5c24e7446649ccb2b262c7c8b77d", "is_disabled": 0, "is_reserved": 0}, {"rental_uris": {"ios": "https://dc.lft.to/lastmile_qr_scan", "android": "https://dc.lft.to/lastmile_qr_scan"}, "lon": -77.1191755, "type": "electric_bike", "fusion_lat": 0.0, "lat": 38.840936, "name": "fdb86b09e40c16cb348230ea590f37f5", "fusion_lon": 0.0, "bike_id": "fdb86b09e40c16cb348230ea590f37f5", "is_disabled": 0, "is_reserved": 0}, {"rental_uris": {"ios": "https://dc.lft.to/lastmile_qr_scan", "android": "https://dc.lft.to/lastmile_qr_scan"}, "lon": -76.93612633333333, "type": "electric_bike", "fusion_lat": 0.0, "lat": 38.97057816666667, "name": "758f191313b7efb495148d2465043fb4", "fusion_lon": 0.0, "bike_id": "758f191313b7efb495148d2465043fb4", "is_disabled": 0, "is_reserved": 0}, {"rental_uris": {"ios": "https://dc.lft.to/lastmile_qr_scan", "android": "https://dc.lft.to/lastmile_qr_scan"}, "lon": -77.02977283333334, "type": "electric_scooter", "fusion_lat": 0.0, "lat": 38.895671666666665, "name": "7171003ee5833ddb59d9d55363ab7537", "fusion_lon": 0.0, "bike_id": "7171003ee5833ddb59d9d55363ab7537", "is_disabled": 0, "is_reserved": 0}, {"rental_uris": {"ios": "https://dc.lft.to/lastmile_qr_scan", "android": "https://dc.lft.to/lastmile_qr_scan"}, "lon": -77.04818866666666, "type": "electric_scooter", "fusion_lat": 0.0, "lat": 38.8962915, "name": "951658b1483661387cc44fa86578065c", "fusion_lon": 0.0, "bike_id": "951658b1483661387cc44fa86578065c", "is_disabled": 0, "is_reserved": 0}, {"rental_uris": {"ios": "https://dc.lft.to/lastmile_qr_scan", "android": "https://dc.lft.to/lastmile_qr_scan"}, "lon": -76.987695, "type": "electric_scooter", "fusion_lat": 0.0, "lat": 38.911695, "name": "6feb33cf179b444bafcb4333e662af15", "fusion_lon": 0.0, "bike_id": "6feb33cf179b444bafcb4333e662af15", "is_disabled": 0, "is_reserved": 0}, {"rental_uris": {"ios": "https://dc.lft.to/lastmile_qr_scan", "android": "https://dc.lft.to/lastmile_qr_scan"}, "lon": -76.978881, "type": "electric_scooter", "fusion_lat": 0.0, "lat": 38.916743833333335, "name": "37b39228153af85e1bdd616a6748fb5d", "fusion_lon": 0.0, "bike_id": "37b39228153af85e1bdd616a6748fb5d", "is_disabled": 0, "is_reserved": 0}, {"rental_uris": {"ios": "https://dc.lft.to/lastmile_qr_scan", "android": "https://dc.lft.to/lastmile_qr_scan"}, "lon": -77.02402233333333, "type": "electric_scooter", "fusion_lat": 0.0, "lat": 38.90652633333333, "name": "5541d9740bb13c5185749005c1a225e4", "fusion_lon": 0.0, "bike_id": "5541d9740bb13c5185749005c1a225e4", "is_disabled": 0, "is_reserved": 0}, {"rental_uris": {"ios": "https://dc.lft.to/lastmile_qr_scan", "android": "https://dc.lft.to/lastmile_qr_scan"}, "lon": -77.03273133333333, "type": "electric_scooter", "fusion_lat": 0.0, "lat": 38.937305, "name": "9fa6ed79f03fe92046b335ec7fe6d772", "fusion_lon": 0.0, "bike_id": "9fa6ed79f03fe92046b335ec7fe6d772", "is_disabled": 0, "is_reserved": 0}, {"rental_uris": {"ios": "https://dc.lft.to/lastmile_qr_scan", "android": "https://dc.lft.to/lastmile_qr_scan"}, "lon": -77.04950783333334, "type": "electric_scooter", "fusion_lat": 0.0, "lat": 38.8964755, "name": "fc3454c8d081f575cb20440994c3bb2b", "fusion_lon": 0.0, "bike_id": "fc3454c8d081f575cb20440994c3bb2b", "is_disabled": 0, "is_reserved": 0}, {"rental_uris": {"ios": "https://dc.lft.to/lastmile_qr_scan", "android": "https://dc.lft.to/lastmile_qr_scan"}, "lon": -77.04704066666666, "type": "electric_scooter", "fusion_lat": 0.0, "lat": 38.89732133333333, "name": "e113df7680cb655d689b1e27b6541bf3", "fusion_lon": 0.0, "bike_id": "e113df7680cb655d689b1e27b6541bf3", "is_disabled": 0, "is_reserved": 0}, {"rental_uris": {"ios": "https://dc.lft.to/lastmile_qr_scan", "android": "https://dc.lft.to/lastmile_qr_scan"}, "lon": -76.9380955, "type": "electric_scooter", "fusion_lat": 0.0, "lat": 38.912992333333335, "name": "54828bf535d710ce528bfb7ec1574f31", "fusion_lon": 0.0, "bike_id": "54828bf535d710ce528bfb7ec1574f31", "is_disabled": 0, "is_reserved": 0}, {"rental_uris": {"ios": "https://dc.lft.to/lastmile_qr_scan", "android": "https://dc.lft.to/lastmile_qr_scan"}, "lon": -77.04037983333333, "type": "electric_scooter", "fusion_lat": 0.0, "lat": 38.9255095, "name": "3b235675b1a565fcf793d46df08e81d1", "fusion_lon": 0.0, "bike_id": "3b235675b1a565fcf793d46df08e81d1", "is_disabled": 0, "is_reserved": 0}, {"rental_uris": {"ios": "https://dc.lft.to/lastmile_qr_scan", "android": "https://dc.lft.to/lastmile_qr_scan"}, "lon": -77.12747166666666, "type": "electric_bike", "fusion_lat": 0.0, "lat": 38.88825883333333, "name": "360696c83e0a1f5036142d9a6c8122af", "fusion_lon": 0.0, "bike_id": "360696c83e0a1f5036142d9a6c8122af", "is_disabled": 0, "is_reserved": 0}, {"rental_uris": {"ios": "https://dc.lft.to/lastmile_qr_scan", "android": "https://dc.lft.to/lastmile_qr_scan"}, "lon": -77.0230605, "type": "electric_scooter", "fusion_lat": 0.0, "lat": 38.91691733333333, "name": "5f99272b176a1f75f4e206c4ad6f080a", "fusion_lon": 0.0, "bike_id": "5f99272b176a1f75f4e206c4ad6f080a", "is_disabled": 0, "is_reserved": 0}, {"rental_uris": {"ios": "https://dc.lft.to/lastmile_qr_scan", "android": "https://dc.lft.to/lastmile_qr_scan"}, "lon": -77.0316665, "type": "electric_scooter", "fusion_lat": 0.0, "lat": 38.896067333333335, "name": "16821c42bd47c3da0f4e7b66aea5d4ec", "fusion_lon": 0.0, "bike_id": "16821c42bd47c3da0f4e7b66aea5d4ec", "is_disabled": 0, "is_reserved": 0}, {"rental_uris": {"ios": "https://dc.lft.to/lastmile_qr_scan", "android": "https://dc.lft.to/lastmile_qr_scan"}, "lon": -77.04319316666667, "type": "electric_scooter", "fusion_lat": 0.0, "lat": 38.895856333333334, "name": "3bee8d9f8c62b041633b03131f05ccb9", "fusion_lon": 0.0, "bike_id": "3bee8d9f8c62b041633b03131f05ccb9", "is_disabled": 0, "is_reserved": 0}, {"rental_uris": {"ios": "https://dc.lft.to/lastmile_qr_scan", "android": "https://dc.lft.to/lastmile_qr_scan"}, "lon": -77.0802275, "type": "electric_scooter", "fusion_lat": 0.0, "lat": 38.946064166666666, "name": "8e8ff9773ffe221510acc3eb06f44013", "fusion_lon": 0.0, "bike_id": "8e8ff9773ffe221510acc3eb06f44013", "is_disabled": 0, "is_reserved": 0}, {"rental_uris": {"ios": "https://dc.lft.to/lastmile_qr_scan", "android": "https://dc.lft.to/lastmile_qr_scan"}, "lon": -77.06161633333333, "type": "electric_scooter", "fusion_lat": 0.0, "lat": 38.942269833333334, "name": "c1c603ce7bfee02839981f956e2c24eb", "fusion_lon": 0.0, "bike_id": "c1c603ce7bfee02839981f956e2c24eb", "is_disabled": 0, "is_reserved": 0}, {"rental_uris": {"ios": "https://dc.lft.to/lastmile_qr_scan", "android": "https://dc.lft.to/lastmile_qr_scan"}, "lon": -77.02965333333333, "type": "electric_scooter", "fusion_lat": 0.0, "lat": 38.920289833333335, "name": "e695156f52613559c67af20f49d5720d", "fusion_lon": 0.0, "bike_id": "e695156f52613559c67af20f49d5720d", "is_disabled": 0, "is_reserved": 0}, {"rental_uris": {"ios": "https://dc.lft.to/lastmile_qr_scan", "android": "https://dc.lft.to/lastmile_qr_scan"}, "lon": -76.98992516666667, "type": "electric_scooter", "fusion_lat": 0.0, "lat": 38.903878166666665, "name": "146522dc5e9391cf25f827e833d9c89b", "fusion_lon": 0.0, "bike_id": "146522dc5e9391cf25f827e833d9c89b", "is_disabled": 0, "is_reserved": 0}, {"rental_uris": {"ios": "https://dc.lft.to/lastmile_qr_scan", "android": "https://dc.lft.to/lastmile_qr_scan"}, "lon": -77.04283283333334, "type": "electric_scooter", "fusion_lat": 0.0, "lat": 38.906528, "name": "68e2fab7d423b70b33ba827a768af2a1", "fusion_lon": 0.0, "bike_id": "68e2fab7d423b70b33ba827a768af2a1", "is_disabled": 0, "is_reserved": 0}, {"rental_uris": {"ios": "https://dc.lft.to/lastmile_qr_scan", "android": "https://dc.lft.to/lastmile_qr_scan"}, "lon": -76.99550966666666, "type": "electric_scooter", "fusion_lat": 0.0, "lat": 38.86234483333333, "name": "084137b780dc3039164e65c2ed81476d", "fusion_lon": 0.0, "bike_id": "084137b780dc3039164e65c2ed81476d", "is_disabled": 0, "is_reserved": 0}, {"rental_uris": {"ios": "https://dc.lft.to/lastmile_qr_scan", "android": "https://dc.lft.to/lastmile_qr_scan"}, "lon": -77.0320185, "type": "electric_scooter", "fusion_lat": 0.0, "lat": 38.9145565, "name": "280b1c9e31aeae49c5b26f53e5bba928", "fusion_lon": 0.0, "bike_id": "280b1c9e31aeae49c5b26f53e5bba928", "is_disabled": 0, "is_reserved": 0}, {"rental_uris": {"ios": "https://dc.lft.to/lastmile_qr_scan", "android": "https://dc.lft.to/lastmile_qr_scan"}, "lon": -77.01990183333334, "type": "electric_scooter", "fusion_lat": 0.0, "lat": 38.93777933333333, "name": "d8b49ce3567a4fe87011c8f0c56b1198", "fusion_lon": 0.0, "bike_id": "d8b49ce3567a4fe87011c8f0c56b1198", "is_disabled": 0, "is_reserved": 0}, {"rental_uris": {"ios": "https://dc.lft.to/lastmile_qr_scan", "android": "https://dc.lft.to/lastmile_qr_scan"}, "lon": -76.9831215, "type": "electric_scooter", "fusion_lat": 0.0, "lat": 38.899707, "name": "2ba048cb442131db1d0bc1c06287c565", "fusion_lon": 0.0, "bike_id": "2ba048cb442131db1d0bc1c06287c565", "is_disabled": 0, "is_reserved": 0}, {"rental_uris": {"ios": "https://dc.lft.to/lastmile_qr_scan", "android": "https://dc.lft.to/lastmile_qr_scan"}, "lon": -77.0314355, "type": "electric_scooter", "fusion_lat": 0.0, "lat": 38.912611166666665, "name": "0cf07a1de97bcf70d32ef6f65290bf38", "fusion_lon": 0.0, "bike_id": "0cf07a1de97bcf70d32ef6f65290bf38", "is_disabled": 0, "is_reserved": 0}, {"rental_uris": {"ios": "https://dc.lft.to/lastmile_qr_scan", "android": "https://dc.lft.to/lastmile_qr_scan"}, "lon": -77.06467516666666, "type": "electric_scooter", "fusion_lat": 0.0, "lat": 38.904995166666666, "name": "4446f6e4b9ac5547d52c4db5448b6ffc", "fusion_lon": 0.0, "bike_id": "4446f6e4b9ac5547d52c4db5448b6ffc", "is_disabled": 0, "is_reserved": 0}, {"rental_uris": {"ios": "https://dc.lft.to/lastmile_qr_scan", "android": "https://dc.lft.to/lastmile_qr_scan"}, "lon": -77.010139, "type": "electric_scooter", "fusion_lat": 0.0, "lat": 38.918077, "name": "6e25498df62ea3a9335b68368d5a5056", "fusion_lon": 0.0, "bike_id": "6e25498df62ea3a9335b68368d5a5056", "is_disabled": 0, "is_reserved": 0}, {"rental_uris": {"ios": "https://dc.lft.to/lastmile_qr_scan", "android": "https://dc.lft.to/lastmile_qr_scan"}, "lon": -77.06001, "type": "electric_scooter", "fusion_lat": 0.0, "lat": 38.90536216666667, "name": "8497997b321ab13403542246dc3fdd11", "fusion_lon": 0.0, "bike_id": "8497997b321ab13403542246dc3fdd11", "is_disabled": 0, "is_reserved": 0}, {"rental_uris": {"ios": "https://dc.lft.to/lastmile_qr_scan", "android": "https://dc.lft.to/lastmile_qr_scan"}, "lon": -76.96860883333333, "type": "electric_scooter", "fusion_lat": 0.0, "lat": 38.86063016666667, "name": "4683af4f0a699ab8cb26fbb5eac0500d", "fusion_lon": 0.0, "bike_id": "4683af4f0a699ab8cb26fbb5eac0500d", "is_disabled": 0, "is_reserved": 0}, {"rental_uris": {"ios": "https://dc.lft.to/lastmile_qr_scan", "android": "https://dc.lft.to/lastmile_qr_scan"}, "lon": -77.105086, "type": "electric_bike", "fusion_lat": 0.0, "lat": 38.928465833333334, "name": "d6b3852391e6e1aa3e6362706b0abdf4", "fusion_lon": 0.0, "bike_id": "d6b3852391e6e1aa3e6362706b0abdf4", "is_disabled": 0, "is_reserved": 0}, {"rental_uris": {"ios": "https://dc.lft.to/lastmile_qr_scan", "android": "https://dc.lft.to/lastmile_qr_scan"}, "lon": -77.01526733333333, "type": "electric_scooter", "fusion_lat": 0.0, "lat": 38.887393, "name": "4ab449eda0209dda271107e5d0a47655", "fusion_lon": 0.0, "bike_id": "4ab449eda0209dda271107e5d0a47655", "is_disabled": 0, "is_reserved": 0}, {"rental_uris": {"ios": "https://dc.lft.to/lastmile_qr_scan", "android": "https://dc.lft.to/lastmile_qr_scan"}, "lon": -77.05360666666667, "type": "electric_scooter", "fusion_lat": 0.0, "lat": 38.927052333333336, "name": "b4c98c4ca3e9ae0aff27ad3f85b01b19", "fusion_lon": 0.0, "bike_id": "b4c98c4ca3e9ae0aff27ad3f85b01b19", "is_disabled": 0, "is_reserved": 0}, {"rental_uris": {"ios": "https://dc.lft.to/lastmile_qr_scan", "android": "https://dc.lft.to/lastmile_qr_scan"}, "lon": -77.04129, "type": "electric_scooter", "fusion_lat": 0.0, "lat": 38.924303, "name": "6a8a28044f8daa17638e803f8f556dea", "fusion_lon": 0.0, "bike_id": "6a8a28044f8daa17638e803f8f556dea", "is_disabled": 0, "is_reserved": 0}, {"rental_uris": {"ios": "https://dc.lft.to/lastmile_qr_scan", "android": "https://dc.lft.to/lastmile_qr_scan"}, "lon": -77.0399925, "type": "electric_scooter", "fusion_lat": 0.0, "lat": 38.8922165, "name": "980d4f4ddf2afd35f9995cf5365fd2ec", "fusion_lon": 0.0, "bike_id": "980d4f4ddf2afd35f9995cf5365fd2ec", "is_disabled": 0, "is_reserved": 0}, {"rental_uris": {"ios": "https://dc.lft.to/lastmile_qr_scan", "android": "https://dc.lft.to/lastmile_qr_scan"}, "lon": -77.03702216666667, "type": "electric_scooter", "fusion_lat": 0.0, "lat": 38.915508333333335, "name": "ec78b2e0caaecbed9ce4168d271dd857", "fusion_lon": 0.0, "bike_id": "ec78b2e0caaecbed9ce4168d271dd857", "is_disabled": 0, "is_reserved": 0}, {"rental_uris": {"ios": "https://dc.lft.to/lastmile_qr_scan", "android": "https://dc.lft.to/lastmile_qr_scan"}, "lon": -77.00717983333334, "type": "electric_scooter", "fusion_lat": 0.0, "lat": 38.90033583333334, "name": "cfa5ae741a83a8a21ae4841fb0780240", "fusion_lon": 0.0, "bike_id": "cfa5ae741a83a8a21ae4841fb0780240", "is_disabled": 0, "is_reserved": 0}, {"rental_uris": {"ios": "https://dc.lft.to/lastmile_qr_scan", "android": "https://dc.lft.to/lastmile_qr_scan"}, "lon": -77.0028145, "type": "electric_scooter", "fusion_lat": 0.0, "lat": 38.89739483333334, "name": "74a31702b493c34ce6086597a7e4342a", "fusion_lon": 0.0, "bike_id": "74a31702b493c34ce6086597a7e4342a", "is_disabled": 0, "is_reserved": 0}, {"rental_uris": {"ios": "https://dc.lft.to/lastmile_qr_scan", "android": "https://dc.lft.to/lastmile_qr_scan"}, "lon": -77.0893985, "type": "electric_bike", "fusion_lat": 0.0, "lat": 38.8410235, "name": "5044503d61223581806684c162eaa03a", "fusion_lon": 0.0, "bike_id": "5044503d61223581806684c162eaa03a", "is_disabled": 0, "is_reserved": 0}, {"rental_uris": {"ios": "https://dc.lft.to/lastmile_qr_scan", "android": "https://dc.lft.to/lastmile_qr_scan"}, "lon": -77.0295485, "type": "electric_scooter", "fusion_lat": 0.0, "lat": 38.915841666666665, "name": "19a108133ad92a63363aaa5ad952a10d", "fusion_lon": 0.0, "bike_id": "19a108133ad92a63363aaa5ad952a10d", "is_disabled": 0, "is_reserved": 0}, {"rental_uris": {"ios": "https://dc.lft.to/lastmile_qr_scan", "android": "https://dc.lft.to/lastmile_qr_scan"}, "lon": -77.03182216666667, "type": "electric_scooter", "fusion_lat": 0.0, "lat": 38.91318366666667, "name": "8dab9ac9c3d6943c2319401456433259", "fusion_lon": 0.0, "bike_id": "8dab9ac9c3d6943c2319401456433259", "is_disabled": 0, "is_reserved": 0}, {"rental_uris": {"ios": "https://dc.lft.to/lastmile_qr_scan", "android": "https://dc.lft.to/lastmile_qr_scan"}, "lon": -77.04864466666666, "type": "electric_scooter", "fusion_lat": 0.0, "lat": 38.90382433333333, "name": "22728556c9a7456e2b1bee0fba794894", "fusion_lon": 0.0, "bike_id": "22728556c9a7456e2b1bee0fba794894", "is_disabled": 0, "is_reserved": 0}, {"rental_uris": {"ios": "https://dc.lft.to/lastmile_qr_scan", "android": "https://dc.lft.to/lastmile_qr_scan"}, "lon": -77.04444016666666, "type": "electric_scooter", "fusion_lat": 0.0, "lat": 38.918615833333334, "name": "892cfa2bb0835806f475710c2d52f986", "fusion_lon": 0.0, "bike_id": "892cfa2bb0835806f475710c2d52f986", "is_disabled": 0, "is_reserved": 0}, {"rental_uris": {"ios": "https://dc.lft.to/lastmile_qr_scan", "android": "https://dc.lft.to/lastmile_qr_scan"}, "lon": -77.04004733333333, "type": "electric_scooter", "fusion_lat": 0.0, "lat": 38.91818283333333, "name": "97cf612681552d0ea0aa202a67042e51", "fusion_lon": 0.0, "bike_id": "97cf612681552d0ea0aa202a67042e51", "is_disabled": 0, "is_reserved": 0}, {"rental_uris": {"ios": "https://dc.lft.to/lastmile_qr_scan", "android": "https://dc.lft.to/lastmile_qr_scan"}, "lon": -77.04368783333334, "type": "electric_scooter", "fusion_lat": 0.0, "lat": 38.920864, "name": "6fae619b39e2b769fd75d2386cc88759", "fusion_lon": 0.0, "bike_id": "6fae619b39e2b769fd75d2386cc88759", "is_disabled": 0, "is_reserved": 0}, {"rental_uris": {"ios": "https://dc.lft.to/lastmile_qr_scan", "android": "https://dc.lft.to/lastmile_qr_scan"}, "lon": -77.04704033333333, "type": "electric_scooter", "fusion_lat": 0.0, "lat": 38.897134, "name": "be54accd7250a1e7b09c6c48c205d162", "fusion_lon": 0.0, "bike_id": "be54accd7250a1e7b09c6c48c205d162", "is_disabled": 0, "is_reserved": 0}, {"rental_uris": {"ios": "https://dc.lft.to/lastmile_qr_scan", "android": "https://dc.lft.to/lastmile_qr_scan"}, "lon": -77.109661, "type": "electric_bike", "fusion_lat": 0.0, "lat": 38.81304466666667, "name": "65b73501d1703357e49311f292018741", "fusion_lon": 0.0, "bike_id": "65b73501d1703357e49311f292018741", "is_disabled": 0, "is_reserved": 0}, {"rental_uris": {"ios": "https://dc.lft.to/lastmile_qr_scan", "android": "https://dc.lft.to/lastmile_qr_scan"}, "lon": -76.97329416666666, "type": "electric_scooter", "fusion_lat": 0.0, "lat": 38.9047975, "name": "b5c477603f07ae48aece49a823978432", "fusion_lon": 0.0, "bike_id": "b5c477603f07ae48aece49a823978432", "is_disabled": 0, "is_reserved": 0}, {"rental_uris": {"ios": "https://dc.lft.to/lastmile_qr_scan", "android": "https://dc.lft.to/lastmile_qr_scan"}, "lon": -76.99145583333333, "type": "electric_scooter", "fusion_lat": 0.0, "lat": 38.89338266666667, "name": "f31e1378acd05a3944ebcbef9a4a530d", "fusion_lon": 0.0, "bike_id": "f31e1378acd05a3944ebcbef9a4a530d", "is_disabled": 0, "is_reserved": 0}, {"rental_uris": {"ios": "https://dc.lft.to/lastmile_qr_scan", "android": "https://dc.lft.to/lastmile_qr_scan"}, "lon": -77.0580855, "type": "electric_scooter", "fusion_lat": 0.0, "lat": 38.90295233333333, "name": "d3747a40b51d9a0fb3d5a571a4db67e7", "fusion_lon": 0.0, "bike_id": "d3747a40b51d9a0fb3d5a571a4db67e7", "is_disabled": 0, "is_reserved": 0}, {"rental_uris": {"ios": "https://dc.lft.to/lastmile_qr_scan", "android": "https://dc.lft.to/lastmile_qr_scan"}, "lon": -77.02527633333334, "type": "electric_scooter", "fusion_lat": 0.0, "lat": 38.92091033333333, "name": "002ef8067e5649e5515b23b224f447f2", "fusion_lon": 0.0, "bike_id": "002ef8067e5649e5515b23b224f447f2", "is_disabled": 0, "is_reserved": 0}, {"rental_uris": {"ios": "https://dc.lft.to/lastmile_qr_scan", "android": "https://dc.lft.to/lastmile_qr_scan"}, "lon": -77.02225983333334, "type": "electric_scooter", "fusion_lat": 0.0, "lat": 38.9141945, "name": "e4abc926bc196e503ec4584837368e2e", "fusion_lon": 0.0, "bike_id": "e4abc926bc196e503ec4584837368e2e", "is_disabled": 0, "is_reserved": 0}, {"rental_uris": {"ios": "https://dc.lft.to/lastmile_qr_scan", "android": "https://dc.lft.to/lastmile_qr_scan"}, "lon": -77.03365816666667, "type": "electric_scooter", "fusion_lat": 0.0, "lat": 38.91417, "name": "a95784746704a8dac2029f82f11e68b2", "fusion_lon": 0.0, "bike_id": "a95784746704a8dac2029f82f11e68b2", "is_disabled": 0, "is_reserved": 0}, {"rental_uris": {"ios": "https://dc.lft.to/lastmile_qr_scan", "android": "https://dc.lft.to/lastmile_qr_scan"}, "lon": -77.00561016666667, "type": "electric_scooter", "fusion_lat": 0.0, "lat": 38.871737833333334, "name": "45fad4575d3038da6d10a65be170a459", "fusion_lon": 0.0, "bike_id": "45fad4575d3038da6d10a65be170a459", "is_disabled": 0, "is_reserved": 0}, {"rental_uris": {"ios": "https://dc.lft.to/lastmile_qr_scan", "android": "https://dc.lft.to/lastmile_qr_scan"},