{"data": {"bikes": [{"fusion_lat": 0.0, "name": "6605086abed8b06ce27f906aab0dee10", "is_disabled": 0, "rental_uris": {"android": "https://dc.lft.to/lastmile_qr_scan", "ios": "https://dc.lft.to/lastmile_qr_scan"}, "fusion_lon": 0.0, "lat": 38.87383066666666, "bike_id": "6605086abed8b06ce27f906aab0dee10", "type": "electric_scooter", "is_reserved": 0, "lon": -77.00058133333333}, {"fusion_lat": 0.0, "name": "df07db89156de520473f4e1f07a564bb", "is_disabled": 0, "rental_uris": {"android": "https://dc.lft.to/lastmile_qr_scan", "ios": "https://dc.lft.to/lastmile_qr_scan"}, "fusion_lon": 0.0, "lat": 38.90147283333334, "bike_id": "df07db89156de520473f4e1f07a564bb", "type": "electric_scooter", "is_reserved": 0, "lon": -77.023213}, {"fusion_lat": 0.0, "name": "38b4effaa7422fa46c28700b23ba1290", "is_disabled": 0, "rental_uris": {"android": "https://dc.lft.to/lastmile_qr_scan", "ios": "https://dc.lft.to/lastmile_qr_scan"}, "fusion_lon": 0.0, "lat": 38.9162595, "bike_id": "38b4effaa7422fa46c28700b23ba1290", "type": "electric_scooter", "is_reserved": 0, "lon": -77.045879}, {"fusion_lat": 0.0, "name": "783bf09f362aaa9fed409b9e109e539c", "is_disabled": 0, "rental_uris": {"android": "https://dc.lft.to/lastmile_qr_scan", "ios": "https://dc.lft.to/lastmile_qr_scan"}, "fusion_lon": 0.0, "lat": 38.867613166666665, "bike_id": "783bf09f362aaa9fed409b9e109e539c", "type": "electric_scooter", "is_reserved": 0, "lon": -76.98268933333334}, {"fusion_lat": 0.0, "name": "3abab3779a5b249fe33ca21cdb589f5f", "is_disabled": 0, "rental_uris": {"android": "https://dc.lft.to/lastmile_qr_scan", "ios": "https://dc.lft.to/lastmile_qr_scan"}, "fusion_lon": 0.0, "lat": 38.90383666666666, "bike_id": "3abab3779a5b249fe33ca21cdb589f5f", "type": "electric_scooter", "is_reserved": 0, "lon": -77.04208616666666}, {"fusion_lat": 0.0, "name": "1a14f2c821abd6ea37af378feb15b814", "is_disabled": 0, "rental_uris": {"android": "https://dc.lft.to/lastmile_qr_scan", "ios": "https://dc.lft.to/lastmile_qr_scan"}, "fusion_lon": 0.0, "lat": 38.88905666666667, "bike_id": "1a14f2c821abd6ea37af378feb15b814", "type": "electric_scooter", "is_reserved": 0, "lon": -76.97732516666667}, {"fusion_lat": 0.0, "name": "42f336c36273a9aeb6311cc0d8cb7443", "is_disabled": 0, "rental_uris": {"android": "https://dc.lft.to/lastmile_qr_scan", "ios": "https://dc.lft.to/lastmile_qr_scan"}, "fusion_lon": 0.0, "lat": 38.9280265, "bike_id": "42f336c36273a9aeb6311cc0d8cb7443", "type": "electric_scooter", "is_reserved": 0, "lon": -77.02396433333334}, {"fusion_lat": 0.0, "name": "69505c2b60e2cd03c950b161bad7a018", "is_disabled": 0, "rental_uris": {"android": "https://dc.lft.to/lastmile_qr_scan", "ios": "https://dc.lft.to/lastmile_qr_scan"}, "fusion_lon": 0.0, "lat": 38.90579116666667, "bike_id": "69505c2b60e2cd03c950b161bad7a018", "type": "electric_scooter", "is_reserved": 0, "lon": -77.0344925}, {"fusion_lat": 0.0, "name": "c2f9df5c97bd385c29e549933d3951f1", "is_disabled": 0, "rental_uris": {"android": "https://dc.lft.to/lastmile_qr_scan", "ios": "https://dc.lft.to/lastmile_qr_scan"}, "fusion_lon": 0.0, "lat": 38.92742, "bike_id": "c2f9df5c97bd385c29e549933d3951f1", "type": "electric_scooter", "is_reserved": 0, "lon": -77.024299}, {"fusion_lat": 0.0, "name": "ee76ac426235e56b9598f7e5fc8a9150", "is_disabled": 0, "rental_uris": {"android": "https://dc.lft.to/lastmile_qr_scan", "ios": "https://dc.lft.to/lastmile_qr_scan"}, "fusion_lon": 0.0, "lat": 38.89920383333333, "bike_id": "ee76ac426235e56b9598f7e5fc8a9150", "type": "electric_scooter", "is_reserved": 0, "lon": -77.00365933333333}, {"fusion_lat": 0.0, "name": "0f34e1530a05c01db78063965e077a6a", "is_disabled": 0, "rental_uris": {"android": "https://dc.lft.to/lastmile_qr_scan", "ios": "https://dc.lft.to/lastmile_qr_scan"}, "fusion_lon": 0.0, "lat": 39.0525825, "bike_id": "0f34e1530a05c01db78063965e077a6a", "type": "electric_bike", "is_reserved": 0, "lon": -77.080673}, {"fusion_lat": 0.0, "name": "5a1172ae0aea352b9f3da3488dec0ab1", "is_disabled": 0, "rental_uris": {"android": "https://dc.lft.to/lastmile_qr_scan", "ios": "https://dc.lft.to/lastmile_qr_scan"}, "fusion_lon": 0.0, "lat": 38.883292, "bike_id": "5a1172ae0aea352b9f3da3488dec0ab1", "type": "electric_scooter", "is_reserved": 0, "lon": -77.01764033333333}, {"fusion_lat": 0.0, "name": "5f5956be6628ed4e1cbbfa1f2203e44f", "is_disabled": 0, "rental_uris": {"android": "https://dc.lft.to/lastmile_qr_scan", "ios": "https://dc.lft.to/lastmile_qr_scan"}, "fusion_lon": 0.0, "lat": 38.892228833333334, "bike_id": "5f5956be6628ed4e1cbbfa1f2203e44f", "type": "electric_scooter", "is_reserved": 0, "lon": -77.02407783333334}, {"fusion_lat": 0.0, "name": "9177f4149460457679a052e2bcc071d0", "is_disabled": 0, "rental_uris": {"android": "https://dc.lft.to/lastmile_qr_scan", "ios": "https://dc.lft.to/lastmile_qr_scan"}, "fusion_lon": 0.0, "lat": 38.908132333333334, "bike_id": "9177f4149460457679a052e2bcc071d0", "type": "electric_scooter", "is_reserved": 0, "lon": -77.03422783333333}, {"fusion_lat": 0.0, "name": "b51cf52fa1423dc65ca9ceda03631480", "is_disabled": 0, "rental_uris": {"android": "https://dc.lft.to/lastmile_qr_scan", "ios": "https://dc.lft.to/lastmile_qr_scan"}, "fusion_lon": 0.0, "lat": 38.91256383333333, "bike_id": "b51cf52fa1423dc65ca9ceda03631480", "type": "electric_scooter", "is_reserved": 0, "lon": -77.00152833333334}, {"fusion_lat": 0.0, "name": "5e18880bf7d4180677bafe03944e031d", "is_disabled": 0, "rental_uris": {"android": "https://dc.lft.to/lastmile_qr_scan", "ios": "https://dc.lft.to/lastmile_qr_scan"}, "fusion_lon": 0.0, "lat": 38.89620266666667, "bike_id": "5e18880bf7d4180677bafe03944e031d", "type": "electric_scooter", "is_reserved": 0, "lon": -77.0091745}, {"fusion_lat": 0.0, "name": "be1e3ef06ca5007da9a7eb5f48c724b0", "is_disabled": 0, "rental_uris": {"android": "https://dc.lft.to/lastmile_qr_scan", "ios": "https://dc.lft.to/lastmile_qr_scan"}, "fusion_lon": 0.0, "lat": 38.935189666666666, "bike_id": "be1e3ef06ca5007da9a7eb5f48c724b0", "type": "electric_scooter", "is_reserved": 0, "lon": -77.07257033333333}, {"fusion_lat": 0.0, "name": "62080d762f9fb0390d31aa6a195c0dd7", "is_disabled": 0, "rental_uris": {"android": "https://dc.lft.to/lastmile_qr_scan", "ios": "https://dc.lft.to/lastmile_qr_scan"}, "fusion_lon": 0.0, "lat": 38.898762166666664, "bike_id": "62080d762f9fb0390d31aa6a195c0dd7", "type": "electric_scooter", "is_reserved": 0, "lon": -76.93186066666667}, {"fusion_lat": 0.0, "name": "4a01f07192bfc0b3c5c89bd7adfc1a3d", "is_disabled": 0, "rental_uris": {"android": "https://dc.lft.to/lastmile_qr_scan", "ios": "https://dc.lft.to/lastmile_qr_scan"}, "fusion_lon": 0.0, "lat": 38.86243833333333, "bike_id": "4a01f07192bfc0b3c5c89bd7adfc1a3d", "type": "electric_scooter", "is_reserved": 0, "lon": -76.994998}, {"fusion_lat": 0.0, "name": "54bee74280155e972107386227599967", "is_disabled": 0, "rental_uris": {"android": "https://dc.lft.to/lastmile_qr_scan", "ios": "https://dc.lft.to/lastmile_qr_scan"}, "fusion_lon": 0.0, "lat": 38.8833155, "bike_id": "54bee74280155e972107386227599967", "type": "electric_scooter", "is_reserved": 0, "lon": -77.01718}, {"fusion_lat": 0.0, "name": "c08e195c9136b9a4e9dcdff7520d4fe7", "is_disabled": 0, "rental_uris": {"android": "https://dc.lft.to/lastmile_qr_scan", "ios": "https://dc.lft.to/lastmile_qr_scan"}, "fusion_lon": 0.0, "lat": 38.90267633333333, "bike_id": "c08e195c9136b9a4e9dcdff7520d4fe7", "type": "electric_scooter", "is_reserved": 0, "lon": -77.01973733333334}, {"fusion_lat": 0.0, "name": "b1f3a1c2f8af80e0555c40d9761590af", "is_disabled": 0, "rental_uris": {"android": "https://dc.lft.to/lastmile_qr_scan", "ios": "https://dc.lft.to/lastmile_qr_scan"}, "fusion_lon": 0.0, "lat": 38.8833735, "bike_id": "b1f3a1c2f8af80e0555c40d9761590af", "type": "electric_scooter", "is_reserved": 0, "lon": -77.01770833333333}, {"fusion_lat": 0.0, "name": "303aac2ef47ed2895fc6e5c16650643d", "is_disabled": 0, "rental_uris": {"android": "https://dc.lft.to/lastmile_qr_scan", "ios": "https://dc.lft.to/lastmile_qr_scan"}, "fusion_lon": 0.0, "lat": 38.92745166666667, "bike_id": "303aac2ef47ed2895fc6e5c16650643d", "type": "electric_scooter", "is_reserved": 0, "lon": -77.0216105}, {"fusion_lat": 0.0, "name": "50e25c3846585383f72c0861f97ad342", "is_disabled": 0, "rental_uris": {"android": "https://dc.lft.to/lastmile_qr_scan", "ios": "https://dc.lft.to/lastmile_qr_scan"}, "fusion_lon": 0.0, "lat": 38.980631, "bike_id": "50e25c3846585383f72c0861f97ad342", "type": "electric_bike", "is_reserved": 0, "lon": -77.09583566666667}, {"fusion_lat": 0.0, "name": "ff4144aeb75cbae206ab11c5f674d91e", "is_disabled": 0, "rental_uris": {"android": "https://dc.lft.to/lastmile_qr_scan", "ios": "https://dc.lft.to/lastmile_qr_scan"}, "fusion_lon": 0.0, "lat": 38.92096166666666, "bike_id": "ff4144aeb75cbae206ab11c5f674d91e", "type": "electric_scooter", "is_reserved": 0, "lon": -76.99457933333333}, {"fusion_lat": 0.0, "name": "e5e8fef7cd012f51beae89f22f53eef3", "is_disabled": 0, "rental_uris": {"android": "https://dc.lft.to/lastmile_qr_scan", "ios": "https://dc.lft.to/lastmile_qr_scan"}, "fusion_lon": 0.0, "lat": 38.903768166666666, "bike_id": "e5e8fef7cd012f51beae89f22f53eef3", "type": "electric_scooter", "is_reserved": 0, "lon": -77.04487783333333}, {"fusion_lat": 0.0, "name": "661332b0d29b74ebbdead6fc7711be16", "is_disabled": 0, "rental_uris": {"android": "https://dc.lft.to/lastmile_qr_scan", "ios": "https://dc.lft.to/lastmile_qr_scan"}, "fusion_lon": 0.0, "lat": 38.8974005, "bike_id": "661332b0d29b74ebbdead6fc7711be16", "type": "electric_scooter", "is_reserved": 0, "lon": -77.02709083333333}, {"fusion_lat": 0.0, "name": "808787cc5949449176202ba1e573a124", "is_disabled": 0, "rental_uris": {"android": "https://dc.lft.to/lastmile_qr_scan", "ios": "https://dc.lft.to/lastmile_qr_scan"}, "fusion_lon": 0.0, "lat": 38.9211995, "bike_id": "808787cc5949449176202ba1e573a124", "type": "electric_scooter", "is_reserved": 0, "lon": -77.01209416666667}, {"fusion_lat": 0.0, "name": "c115d5f28196256f12c248d7ecf4412f", "is_disabled": 0, "rental_uris": {"android": "https://dc.lft.to/lastmile_qr_scan", "ios": "https://dc.lft.to/lastmile_qr_scan"}, "fusion_lon": 0.0, "lat": 38.922367, "bike_id": "c115d5f28196256f12c248d7ecf4412f", "type": "electric_scooter", "is_reserved": 0, "lon": -77.04253433333334}, {"fusion_lat": 0.0, "name": "cfcf800f275095759e49c439835a80e0", "is_disabled": 0, "rental_uris": {"android": "https://dc.lft.to/lastmile_qr_scan", "ios": "https://dc.lft.to/lastmile_qr_scan"}, "fusion_lon": 0.0, "lat": 38.89238916666667, "bike_id": "cfcf800f275095759e49c439835a80e0", "type": "electric_scooter", "is_reserved": 0, "lon": -77.03351216666667}, {"fusion_lat": 0.0, "name": "6f119c734708cf50b04de8c39671af5f", "is_disabled": 0, "rental_uris": {"android": "https://dc.lft.to/lastmile_qr_scan", "ios": "https://dc.lft.to/lastmile_qr_scan"}, "fusion_lon": 0.0, "lat": 38.88610666666667, "bike_id": "6f119c734708cf50b04de8c39671af5f", "type": "electric_scooter", "is_reserved": 0, "lon": -77.0155615}, {"fusion_lat": 0.0, "name": "fb40f0d015cec677e03f921b7619ef05", "is_disabled": 0, "rental_uris": {"android": "https://dc.lft.to/lastmile_qr_scan", "ios": "https://dc.lft.to/lastmile_qr_scan"}, "fusion_lon": 0.0, "lat": 38.9056135, "bike_id": "fb40f0d015cec677e03f921b7619ef05", "type": "electric_scooter", "is_reserved": 0, "lon": -77.0059705}, {"fusion_lat": 0.0, "name": "e37fa5c50a8ec66ecb39de7975c74056", "is_disabled": 0, "rental_uris": {"android": "https://dc.lft.to/lastmile_qr_scan", "ios": "https://dc.lft.to/lastmile_qr_scan"}, "fusion_lon": 0.0, "lat": 38.9482375, "bike_id": "e37fa5c50a8ec66ecb39de7975c74056", "type": "electric_scooter", "is_reserved": 0, "lon": -77.0261595}, {"fusion_lat": 0.0, "name": "8964cbb46a63f107914133245ca6a227", "is_disabled": 0, "rental_uris": {"android": "https://dc.lft.to/lastmile_qr_scan", "ios": "https://dc.lft.to/lastmile_qr_scan"}, "fusion_lon": 0.0, "lat": 38.923893166666666, "bike_id": "8964cbb46a63f107914133245ca6a227", "type": "electric_scooter", "is_reserved": 0, "lon": -77.03658383333334}, {"fusion_lat": 0.0, "name": "d6b1cb3e0c8a77e4de124287445d58b9", "is_disabled": 0, "rental_uris": {"android": "https://dc.lft.to/lastmile_qr_scan", "ios": "https://dc.lft.to/lastmile_qr_scan"}, "fusion_lon": 0.0, "lat": 38.932576166666664, "bike_id": "d6b1cb3e0c8a77e4de124287445d58b9", "type": "electric_scooter", "is_reserved": 0, "lon": -77.034486}, {"fusion_lat": 0.0, "name": "6eb1c07c3192e45f79d1f29e9f2bd2b6", "is_disabled": 0, "rental_uris": {"android": "https://dc.lft.to/lastmile_qr_scan", "ios": "https://dc.lft.to/lastmile_qr_scan"}, "fusion_lon": 0.0, "lat": 38.8846645, "bike_id": "6eb1c07c3192e45f79d1f29e9f2bd2b6", "type": "electric_scooter", "is_reserved": 0, "lon": -76.9967365}, {"fusion_lat": 0.0, "name": "48ce834f974e68da9a772c04802bb860", "is_disabled": 0, "rental_uris": {"android": "https://dc.lft.to/lastmile_qr_scan", "ios": "https://dc.lft.to/lastmile_qr_scan"}, "fusion_lon": 0.0, "lat": 38.9211395, "bike_id": "48ce834f974e68da9a772c04802bb860", "type": "electric_scooter", "is_reserved": 0, "lon": -77.04206483333333}, {"fusion_lat": 0.0, "name": "c373c5b412dd4bea4c67ed16431cac75", "is_disabled": 0, "rental_uris": {"android": "https://dc.lft.to/lastmile_qr_scan", "ios": "https://dc.lft.to/lastmile_qr_scan"}, "fusion_lon": 0.0, "lat": 38.93432166666667, "bike_id": "c373c5b412dd4bea4c67ed16431cac75", "type": "electric_scooter", "is_reserved": 0, "lon": -77.0400325}, {"fusion_lat": 0.0, "name": "f071bbd8145988f0f67a81450637780c", "is_disabled": 0, "rental_uris": {"android": "https://dc.lft.to/lastmile_qr_scan", "ios": "https://dc.lft.to/lastmile_qr_scan"}, "fusion_lon": 0.0, "lat": 38.83546166666667, "bike_id": "f071bbd8145988f0f67a81450637780c", "type": "electric_bike", "is_reserved": 0, "lon": -76.98722483333333}, {"fusion_lat": 0.0, "name": "e982c370ef4ccc8bc6a8ef060e6e8f5a", "is_disabled": 0, "rental_uris": {"android": "https://dc.lft.to/lastmile_qr_scan", "ios": "https://dc.lft.to/lastmile_qr_scan"}, "fusion_lon": 0.0, "lat": 38.902897833333334, "bike_id": "e982c370ef4ccc8bc6a8ef060e6e8f5a", "type": "electric_scooter", "is_reserved": 0, "lon": -77.0467925}, {"fusion_lat": 0.0, "name": "9832f4b2d225ecf6612d99a4f572ba4c", "is_disabled": 0, "rental_uris": {"android": "https://dc.lft.to/lastmile_qr_scan", "ios": "https://dc.lft.to/lastmile_qr_scan"}, "fusion_lon": 0.0, "lat": 38.9006175, "bike_id": "9832f4b2d225ecf6612d99a4f572ba4c", "type": "electric_scooter", "is_reserved": 0, "lon": -76.9338505}, {"fusion_lat": 0.0, "name": "f818551ffb527e99a90b2e0a669c9da5", "is_disabled": 0, "rental_uris": {"android": "https://dc.lft.to/lastmile_qr_scan", "ios": "https://dc.lft.to/lastmile_qr_scan"}, "fusion_lon": 0.0, "lat": 38.901292833333336, "bike_id": "f818551ffb527e99a90b2e0a669c9da5", "type": "electric_scooter", "is_reserved": 0, "lon": -77.0032435}, {"fusion_lat": 0.0, "name": "4a07e3c1cc561b03505c1c2732ff4f8f", "is_disabled": 0, "rental_uris": {"android": "https://dc.lft.to/lastmile_qr_scan", "ios": "https://dc.lft.to/lastmile_qr_scan"}, "fusion_lon": 0.0, "lat": 38.899087, "bike_id": "4a07e3c1cc561b03505c1c2732ff4f8f", "type": "electric_scooter", "is_reserved": 0, "lon": -76.93349333333333}, {"fusion_lat": 0.0, "name": "d18f4bea50f24b3e8af855d803ecc37b", "is_disabled": 0, "rental_uris": {"android": "https://dc.lft.to/lastmile_qr_scan", "ios": "https://dc.lft.to/lastmile_qr_scan"}, "fusion_lon": 0.0, "lat": 38.912193, "bike_id": "d18f4bea50f24b3e8af855d803ecc37b", "type": "electric_scooter", "is_reserved": 0, "lon": -77.03191016666666}, {"fusion_lat": 0.0, "name": "1c172844665fd652335977cc0d5cbe47", "is_disabled": 0, "rental_uris": {"android": "https://dc.lft.to/lastmile_qr_scan", "ios": "https://dc.lft.to/lastmile_qr_scan"}, "fusion_lon": 0.0, "lat": 38.923280166666665, "bike_id": "1c172844665fd652335977cc0d5cbe47", "type": "electric_scooter", "is_reserved": 0, "lon": -77.02075733333334}, {"fusion_lat": 0.0, "name": "2cdfd2bbd08fe186c95fec62ec8edf54", "is_disabled": 0, "rental_uris": {"android": "https://dc.lft.to/lastmile_qr_scan", "ios": "https://dc.lft.to/lastmile_qr_scan"}, "fusion_lon": 0.0, "lat": 38.95755283333333, "bike_id": "2cdfd2bbd08fe186c95fec62ec8edf54", "type": "electric_bike", "is_reserved": 0, "lon": -76.980919}, {"fusion_lat": 0.0, "name": "8ca91b8994304ac6a219608890496a95", "is_disabled": 0, "rental_uris": {"android": "https://dc.lft.to/lastmile_qr_scan", "ios": "https://dc.lft.to/lastmile_qr_scan"}, "fusion_lon": 0.0, "lat": 38.88493916666667, "bike_id": "8ca91b8994304ac6a219608890496a95", "type": "electric_scooter", "is_reserved": 0, "lon": -77.007243}, {"fusion_lat": 0.0, "name": "3b6b82616c5d5c5231c1891dbd4b1292", "is_disabled": 0, "rental_uris": {"android": "https://dc.lft.to/lastmile_qr_scan", "ios": "https://dc.lft.to/lastmile_qr_scan"}, "fusion_lon": 0.0, "lat": 38.896489833333334, "bike_id": "3b6b82616c5d5c5231c1891dbd4b1292", "type": "electric_scooter", "is_reserved": 0, "lon": -77.04674983333334}, {"fusion_lat": 0.0, "name": "17aca1fae513491f19caa22782434224", "is_disabled": 0, "rental_uris": {"android": "https://dc.lft.to/lastmile_qr_scan", "ios": "https://dc.lft.to/lastmile_qr_scan"}, "fusion_lon": 0.0, "lat": 38.928593, "bike_id": "17aca1fae513491f19caa22782434224", "type": "electric_scooter", "is_reserved": 0, "lon": -77.030985}, {"fusion_lat": 0.0, "name": "737879e43de6ae048c17cff2e6511461", "is_disabled": 0, "rental_uris": {"android": "https://dc.lft.to/lastmile_qr_scan", "ios": "https://dc.lft.to/lastmile_qr_scan"}, "fusion_lon": 0.0, "lat": 38.92039916666667, "bike_id": "737879e43de6ae048c17cff2e6511461", "type": "electric_scooter", "is_reserved": 0, "lon": -77.04807016666666}, {"fusion_lat": 0.0, "name": "c75d6d7e37cbf46b093d856f529aba20", "is_disabled": 0, "rental_uris": {"android": "https://dc.lft.to/lastmile_qr_scan", "ios": "https://dc.lft.to/lastmile_qr_scan"}, "fusion_lon": 0.0, "lat": 38.929067, "bike_id": "c75d6d7e37cbf46b093d856f529aba20", "type": "electric_scooter", "is_reserved": 0, "lon": -77.06406916666667}, {"fusion_lat": 0.0, "name": "e10c8ec34e815b214e473fb6d05249ce", "is_disabled": 0, "rental_uris": {"android": "https://dc.lft.to/lastmile_qr_scan", "ios": "https://dc.lft.to/lastmile_qr_scan"}, "fusion_lon": 0.0, "lat": 38.95965983333333, "bike_id": "e10c8ec34e815b214e473fb6d05249ce", "type": "electric_bike", "is_reserved": 0, "lon": -76.98152683333333}, {"fusion_lat": 0.0, "name": "24d887613bc65ddb1fd3c0dc9c047d4e", "is_disabled": 0, "rental_uris": {"android": "https://dc.lft.to/lastmile_qr_scan", "ios": "https://dc.lft.to/lastmile_qr_scan"}, "fusion_lon": 0.0, "lat": 38.92253683333333, "bike_id": "24d887613bc65ddb1fd3c0dc9c047d4e", "type": "electric_scooter", "is_reserved": 0, "lon": -77.02974766666667}, {"fusion_lat": 0.0, "name": "1e24dcfce9f788d6b199c36d24be2270", "is_disabled": 0, "rental_uris": {"android": "https://dc.lft.to/lastmile_qr_scan", "ios": "https://dc.lft.to/lastmile_qr_scan"}, "fusion_lon": 0.0, "lat": 38.900338833333336, "bike_id": "1e24dcfce9f788d6b199c36d24be2270", "type": "electric_scooter", "is_reserved": 0, "lon": -77.0582465}, {"fusion_lat": 0.0, "name": "b8c88e01e0e15b8214a2762cdeb82486", "is_disabled": 0, "rental_uris": {"android": "https://dc.lft.to/lastmile_qr_scan", "ios": "https://dc.lft.to/lastmile_qr_scan"}, "fusion_lon": 0.0, "lat": 38.919012333333335, "bike_id": "b8c88e01e0e15b8214a2762cdeb82486", "type": "electric_scooter", "is_reserved": 0, "lon": -77.027531}, {"fusion_lat": 0.0, "name": "92a37cb0e6d5e1838eb8a509cda17390", "is_disabled": 0, "rental_uris": {"android": "https://dc.lft.to/lastmile_qr_scan", "ios": "https://dc.lft.to/lastmile_qr_scan"}, "fusion_lon": 0.0, "lat": 38.9681495, "bike_id": "92a37cb0e6d5e1838eb8a509cda17390", "type": "electric_bike", "is_reserved": 0, "lon": -76.9552275}, {"fusion_lat": 0.0, "name": "53b3cf908e2129a7e5aad9ce219dd300", "is_disabled": 0, "rental_uris": {"android": "https://dc.lft.to/lastmile_qr_scan", "ios": "https://dc.lft.to/lastmile_qr_scan"}, "fusion_lon": 0.0, "lat": 38.893050833333334, "bike_id": "53b3cf908e2129a7e5aad9ce219dd300", "type": "electric_scooter", "is_reserved": 0, "lon": -77.02143166666667}, {"fusion_lat": 0.0, "name": "be98fa6d82d92c1bd99005dfaef6d5a3", "is_disabled": 0, "rental_uris": {"android": "https://dc.lft.to/lastmile_qr_scan", "ios": "https://dc.lft.to/lastmile_qr_scan"}, "fusion_lon": 0.0, "lat": 38.79469383333333, "bike_id": "be98fa6d82d92c1bd99005dfaef6d5a3", "type": "electric_bike", "is_reserved": 0, "lon": -76.99247333333334}, {"fusion_lat": 0.0, "name": "d37d224311e652cde609d9caa86a3f06", "is_disabled": 0, "rental_uris": {"android": "https://dc.lft.to/lastmile_qr_scan", "ios": "https://dc.lft.to/lastmile_qr_scan"}, "fusion_lon": 0.0, "lat": 38.8992495, "bike_id": "d37d224311e652cde609d9caa86a3f06", "type": "electric_scooter", "is_reserved": 0, "lon": -76.93347633333333}, {"fusion_lat": 0.0, "name": "eac6ff75d103faf9f1fea8ae2dbbe5d0", "is_disabled": 0, "rental_uris": {"android": "https://dc.lft.to/lastmile_qr_scan", "ios": "https://dc.lft.to/lastmile_qr_scan"}, "fusion_lon": 0.0, "lat": 38.92103783333334, "bike_id": "eac6ff75d103faf9f1fea8ae2dbbe5d0", "type": "electric_scooter", "is_reserved": 0, "lon": -77.04692583333333}, {"fusion_lat": 0.0, "name": "a6d6edcdb338a6802b246df5275e5f0e", "is_disabled": 0, "rental_uris": {"android": "https://dc.lft.to/lastmile_qr_scan", "ios": "https://dc.lft.to/lastmile_qr_scan"}, "fusion_lon": 0.0, "lat": 38.8978835, "bike_id": "a6d6edcdb338a6802b246df5275e5f0e", "type": "electric_scooter", "is_reserved": 0, "lon": -77.04660683333333}, {"fusion_lat": 0.0, "name": "b7c8c2af21184eeccf141780d0ef36ec", "is_disabled": 0, "rental_uris": {"android": "https://dc.lft.to/lastmile_qr_scan", "ios": "https://dc.lft.to/lastmile_qr_scan"}, "fusion_lon": 0.0, "lat": 38.9483675, "bike_id": "b7c8c2af21184eeccf141780d0ef36ec", "type": "electric_scooter", "is_reserved": 0, "lon": -77.0256235}, {"fusion_lat": 0.0, "name": "3b91ce030f6331fec1c988cf7654b4c6", "is_disabled": 0, "rental_uris": {"android": "https://dc.lft.to/lastmile_qr_scan", "ios": "https://dc.lft.to/lastmile_qr_scan"}, "fusion_lon": 0.0, "lat": 38.900674, "bike_id": "3b91ce030f6331fec1c988cf7654b4c6", "type": "electric_scooter", "is_reserved": 0, "lon": -77.05593833333333}, {"fusion_lat": 0.0, "name": "b1ac1668a1e30443b6a69895786c3e55", "is_disabled": 0, "rental_uris": {"android": "https://dc.lft.to/lastmile_qr_scan", "ios": "https://dc.lft.to/lastmile_qr_scan"}, "fusion_lon": 0.0, "lat": 38.907312, "bike_id": "b1ac1668a1e30443b6a69895786c3e55", "type": "electric_scooter", "is_reserved": 0, "lon": -77.06320933333333}, {"fusion_lat": 0.0, "name": "5e97056c1692a5a7d4c06d05cd05fc74", "is_disabled": 0, "rental_uris": {"android": "https://dc.lft.to/lastmile_qr_scan", "ios": "https://dc.lft.to/lastmile_qr_scan"}, "fusion_lon": 0.0, "lat": 38.90384683333333, "bike_id": "5e97056c1692a5a7d4c06d05cd05fc74", "type": "electric_scooter", "is_reserved": 0, "lon": -77.03194}, {"fusion_lat": 0.0, "name": "7492ca7e8062aaed583f3d898bf92e84", "is_disabled": 0, "rental_uris": {"android": "https://dc.lft.to/lastmile_qr_scan", "ios": "https://dc.lft.to/lastmile_qr_scan"}, "fusion_lon": 0.0, "lat": 38.897288833333334, "bike_id": "7492ca7e8062aaed583f3d898bf92e84", "type": "electric_scooter", "is_reserved": 0, "lon": -77.03175133333333}, {"fusion_lat": 0.0, "name": "a08e978adde2b397ecb1381118434e0f", "is_disabled": 0, "rental_uris": {"android": "https://dc.lft.to/lastmile_qr_scan", "ios": "https://dc.lft.to/lastmile_qr_scan"}, "fusion_lon": 0.0, "lat": 38.9323595, "bike_id": "a08e978adde2b397ecb1381118434e0f", "type": "electric_scooter", "is_reserved": 0, "lon": -77.0283655}, {"fusion_lat": 0.0, "name": "d32a4ece262c162b3032ab03bb76c041", "is_disabled": 0, "rental_uris": {"android": "https://dc.lft.to/lastmile_qr_scan", "ios": "https://dc.lft.to/lastmile_qr_scan"}, "fusion_lon": 0.0, "lat": 38.907498333333336, "bike_id": "d32a4ece262c162b3032ab03bb76c041", "type": "electric_scooter", "is_reserved": 0, "lon": -77.03840266666667}, {"fusion_lat": 0.0, "name": "ab81096e5121b1a7dc11e0fbc38567ad", "is_disabled": 0, "rental_uris": {"android": "https://dc.lft.to/lastmile_qr_scan", "ios": "https://dc.lft.to/lastmile_qr_scan"}, "fusion_lon": 0.0, "lat": 38.845073666666664, "bike_id": "ab81096e5121b1a7dc11e0fbc38567ad", "type": "electric_bike", "is_reserved": 0, "lon": -76.9935205}, {"fusion_lat": 0.0, "name": "cee93bf1762cd467c4845e771e62593d", "is_disabled": 0, "rental_uris": {"android": "https://dc.lft.to/lastmile_qr_scan", "ios": "https://dc.lft.to/lastmile_qr_scan"}, "fusion_lon": 0.0, "lat": 38.90730166666667, "bike_id": "cee93bf1762cd467c4845e771e62593d", "type": "electric_scooter", "is_reserved": 0, "lon": -77.04345}, {"fusion_lat": 0.0, "name": "b8dee174b510c075ddda40b789c49fb7", "is_disabled": 0, "rental_uris": {"android": "https://dc.lft.to/lastmile_qr_scan", "ios": "https://dc.lft.to/lastmile_qr_scan"}, "fusion_lon": 0.0, "lat": 38.9238225, "bike_id": "b8dee174b510c075ddda40b789c49fb7", "type": "electric_scooter", "is_reserved": 0, "lon": -77.07534733333334}, {"fusion_lat": 0.0, "name": "afbaf2d52f0feb06f717fed730d75431", "is_disabled": 0, "rental_uris": {"android": "https://dc.lft.to/lastmile_qr_scan", "ios": "https://dc.lft.to/lastmile_qr_scan"}, "fusion_lon": 0.0, "lat": 38.90428766666667, "bike_id": "afbaf2d52f0feb06f717fed730d75431", "type": "electric_scooter", "is_reserved": 0, "lon": -77.02396633333333}, {"fusion_lat": 0.0, "name": "0452dced66df06972c0e88a1437a67c7", "is_disabled": 0, "rental_uris": {"android": "https://dc.lft.to/lastmile_qr_scan", "ios": "https://dc.lft.to/lastmile_qr_scan"}, "fusion_lon": 0.0, "lat": 38.9169785, "bike_id": "0452dced66df06972c0e88a1437a67c7", "type": "electric_scooter", "is_reserved": 0, "lon": -77.01166016666667}, {"fusion_lat": 0.0, "name": "03a1a165e38be611a868ff0e55b07858", "is_disabled": 0, "rental_uris": {"android": "https://dc.lft.to/lastmile_qr_scan", "ios": "https://dc.lft.to/lastmile_qr_scan"}, "fusion_lon": 0.0, "lat": 38.91693716666666, "bike_id": "03a1a165e38be611a868ff0e55b07858", "type": "electric_scooter", "is_reserved": 0, "lon": -77.04111016666667}, {"fusion_lat": 0.0, "name": "5a880051199e4ca407ec5519bfc53c2b", "is_disabled": 0, "rental_uris": {"android": "https://dc.lft.to/lastmile_qr_scan", "ios": "https://dc.lft.to/lastmile_qr_scan"}, "fusion_lon": 0.0, "lat": 39.036077166666665, "bike_id": "5a880051199e4ca407ec5519bfc53c2b", "type": "electric_bike", "is_reserved": 0, "lon": -77.05536783333334}, {"fusion_lat": 0.0, "name": "396e1d2c941828ed6ede7582d4f3e357", "is_disabled": 0, "rental_uris": {"android": "https://dc.lft.to/lastmile_qr_scan", "ios": "https://dc.lft.to/lastmile_qr_scan"}, "fusion_lon": 0.0, "lat": 38.923631, "bike_id": "396e1d2c941828ed6ede7582d4f3e357", "type": "electric_scooter", "is_reserved": 0, "lon": -77.0431615}, {"fusion_lat": 0.0, "name": "51a00b903a7f2c91987aa0a5cd44a9d8", "is_disabled": 0, "rental_uris": {"android": "https://dc.lft.to/lastmile_qr_scan", "ios": "https://dc.lft.to/lastmile_qr_scan"}, "fusion_lon": 0.0, "lat": 38.908575166666665, "bike_id": "51a00b903a7f2c91987aa0a5cd44a9d8", "type": "electric_scooter", "is_reserved": 0, "lon": -77.04278383333333}, {"fusion_lat": 0.0, "name": "c470c1f9e8ac8b9088b9524b0ee9a43a", "is_disabled": 0, "rental_uris": {"android": "https://dc.lft.to/lastmile_qr_scan", "ios": "https://dc.lft.to/lastmile_qr_scan"}, "fusion_lon": 0.0, "lat": 38.92174816666667, "bike_id": "c470c1f9e8ac8b9088b9524b0ee9a43a", "type": "electric_scooter", "is_reserved": 0, "lon": -77.03649483333334}, {"fusion_lat": 0.0, "name": "787097270013f47f174b6fbc4703fce2", "is_disabled": 0, "rental_uris": {"android": "https://dc.lft.to/lastmile_qr_scan", "ios": "https://dc.lft.to/lastmile_qr_scan"}, "fusion_lon": 0.0, "lat": 38.899596333333335, "bike_id": "787097270013f47f174b6fbc4703fce2", "type": "electric_scooter", "is_reserved": 0, "lon": -77.01625883333334}, {"fusion_lat": 0.0, "name": "d3dfaa12e4e5803740cd847dcb3b6cb3", "is_disabled": 0, "rental_uris": {"android": "https://dc.lft.to/lastmile_qr_scan", "ios": "https://dc.lft.to/lastmile_qr_scan"}, "fusion_lon": 0.0, "lat": 38.900269333333334, "bike_id": "d3dfaa12e4e5803740cd847dcb3b6cb3", "type": "electric_bike", "is_reserved": 0, "lon": -76.98751583333333}, {"fusion_lat": 0.0, "name": "d3615b5b6658099b7ff7fc572e51d6dd", "is_disabled": 0, "rental_uris": {"android": "https://dc.lft.to/lastmile_qr_scan", "ios": "https://dc.lft.to/lastmile_qr_scan"}, "fusion_lon": 0.0, "lat": 38.906106333333334, "bike_id": "d3615b5b6658099b7ff7fc572e51d6dd", "type": "electric_scooter", "is_reserved": 0, "lon": -77.05900283333334}, {"fusion_lat": 0.0, "name": "4cacb768f23ce63d8025c032bd603395", "is_disabled": 0, "rental_uris": {"android": "https://dc.lft.to/lastmile_qr_scan", "ios": "https://dc.lft.to/lastmile_qr_scan"}, "fusion_lon": 0.0, "lat": 38.916851, "bike_id": "4cacb768f23ce63d8025c032bd603395", "type": "electric_scooter", "is_reserved": 0, "lon": -77.04140933333333}, {"fusion_lat": 0.0, "name": "727d0ca4d463630e9aaf83c350b3e58f", "is_disabled": 0, "rental_uris": {"android": "https://dc.lft.to/lastmile_qr_scan", "ios": "https://dc.lft.to/lastmile_qr_scan"}, "fusion_lon": 0.0, "lat": 38.89989583333333, "bike_id": "727d0ca4d463630e9aaf83c350b3e58f", "type": "electric_scooter", "is_reserved": 0, "lon": -76.98438133333333}, {"fusion_lat": 0.0, "name": "0fee5feb9735816f71c6211697a178e2", "is_disabled": 0, "rental_uris": {"android": "https://dc.lft.to/lastmile_qr_scan", "ios": "https://dc.lft.to/lastmile_qr_scan"}, "fusion_lon": 0.0, "lat": 38.9241725, "bike_id": "0fee5feb9735816f71c6211697a178e2", "type": "electric_scooter", "is_reserved": 0, "lon": -77.03641183333333}, {"fusion_lat": 0.0, "name": "d2e980455e9ef7ba078b87a7330d01b0", "is_disabled": 0, "rental_uris": {"android": "https://dc.lft.to/lastmile_qr_scan", "ios": "https://dc.lft.to/lastmile_qr_scan"}, "fusion_lon": 0.0, "lat": 38.928328666666665, "bike_id": "d2e980455e9ef7ba078b87a7330d01b0", "type": "electric_scooter", "is_reserved": 0, "lon": -77.05978166666667}, {"fusion_lat": 0.0, "name": "54db95ad745b1b96a9a741795e5fa21d", "is_disabled": 0, "rental_uris": {"android": "https://dc.lft.to/lastmile_qr_scan", "ios": "https://dc.lft.to/lastmile_qr_scan"}, "fusion_lon": 0.0, "lat": 38.9164505, "bike_id": "54db95ad745b1b96a9a741795e5fa21d", "type": "electric_scooter", "is_reserved": 0, "lon": -77.04802033333333}, {"fusion_lat": 0.0, "name": "07440c3a26be58e6ad62c262cd689162", "is_disabled": 0, "rental_uris": {"android": "https://dc.lft.to/lastmile_qr_scan", "ios": "https://dc.lft.to/lastmile_qr_scan"}, "fusion_lon": 0.0, "lat": 38.92514333333333, "bike_id": "07440c3a26be58e6ad62c262cd689162", "type": "electric_scooter", "is_reserved": 0, "lon": -77.02358083333333}, {"fusion_lat": 0.0, "name": "e01203b5dac0349098a6f56427c246a5", "is_disabled": 0, "rental_uris": {"android": "https://dc.lft.to/lastmile_qr_scan", "ios": "https://dc.lft.to/lastmile_qr_scan"}, "fusion_lon": 0.0, "lat": 38.911163333333334, "bike_id": "e01203b5dac0349098a6f56427c246a5", "type": "electric_scooter", "is_reserved": 0, "lon": -77.08136266666666}, {"fusion_lat": 0.0, "name": "01ae020c0abb2992544fa1e52a06c643", "is_disabled": 0, "rental_uris": {"android": "https://dc.lft.to/lastmile_qr_scan", "ios": "https://dc.lft.to/lastmile_qr_scan"}, "fusion_lon": 0.0, "lat": 38.936987, "bike_id": "01ae020c0abb2992544fa1e52a06c643", "type": "electric_scooter", "is_reserved": 0, "lon": -77.05600533333333}, {"fusion_lat": 0.0, "name": "ca22f80c686ded148788ba515190713f", "is_disabled": 0, "rental_uris": {"android": "https://dc.lft.to/lastmile_qr_scan", "ios": "https://dc.lft.to/lastmile_qr_scan"}, "fusion_lon": 0.0, "lat": 38.90636833333333, "bike_id": "ca22f80c686ded148788ba515190713f", "type": "electric_scooter", "is_reserved": 0, "lon": -77.0485995}, {"fusion_lat": 0.0, "name": "5539b334c9c49fcfc3a7e1001d69b429", "is_disabled": 0, "rental_uris": {"android": "https://dc.lft.to/lastmile_qr_scan", "ios": "https://dc.lft.to/lastmile_qr_scan"}, "fusion_lon": 0.0, "lat": 38.88538883333333, "bike_id": "5539b334c9c49fcfc3a7e1001d69b429", "type": "electric_scooter", "is_reserved": 0, "lon": -77.00056366666666}, {"fusion_lat": 0.0, "name": "7c0b1e18a1b29977e270d013174f1d74", "is_disabled": 0, "rental_uris": {"android": "https://dc.lft.to/lastmile_qr_scan", "ios": "https://dc.lft.to/lastmile_qr_scan"}, "fusion_lon": 0.0, "lat": 38.93459816666667, "bike_id": "7c0b1e18a1b29977e270d013174f1d74", "type": "electric_scooter", "is_reserved": 0, "lon": -77.02782733333333}, {"fusion_lat": 0.0, "name": "9ed181f4c593b7e7bbdb81899685630a", "is_disabled": 0, "rental_uris": {"android": "https://dc.lft.to/lastmile_qr_scan", "ios": "https://dc.lft.to/lastmile_qr_scan"}, "fusion_lon": 0.0, "lat": 38.91985833333333, "bike_id": "9ed181f4c593b7e7bbdb81899685630a", "type": "electric_scooter", "is_reserved": 0, "lon": -77.0238025}, {"fusion_lat": 0.0, "name": "6f3d86c64ac38b28c135dddd2f8ac412", "is_disabled": 0, "rental_uris": {"android": "https://dc.lft.to/lastmile_qr_scan", "ios": "https://dc.lft.to/lastmile_qr_scan"}, "fusion_lon": 0.0, "lat": 38.917562833333335, "bike_id": "6f3d86c64ac38b28c135dddd2f8ac412", "type": "electric_scooter", "is_reserved": 0, "lon": -77.0306595}, {"fusion_lat": 0.0, "name": "509aa492808cd72aeb444fc07cb76163", "is_disabled": 0, "rental_uris": {"android": "https://dc.lft.to/lastmile_qr_scan", "ios": "https://dc.lft.to/lastmile_qr_scan"}, "fusion_lon": 0.0, "lat": 38.92128483333333, "bike_id": "509aa492808cd72aeb444fc07cb76163", "type": "electric_scooter", "is_reserved": 0, "lon": -77.01787283333333}, {"fusion_lat": 0.0, "name": "bd89e8c770ad872411faf92e60462d96", "is_disabled": 0, "rental_uris": {"android": "https://dc.lft.to/lastmile_qr_scan", "ios": "https://dc.lft.to/lastmile_qr_scan"}, "fusion_lon": 0.0, "lat": 38.9028785, "bike_id": "bd89e8c770ad872411faf92e60462d96", "type": "electric_scooter", "is_reserved": 0, "lon": -77.02245466666666}, {"fusion_lat": 0.0, "name": "21d798c724824f486e525a1243074175", "is_disabled": 0, "rental_uris": {"android": "https://dc.lft.to/lastmile_qr_scan", "ios": "https://dc.lft.to/lastmile_qr_scan"}, "fusion_lon": 0.0, "lat": 38.907691166666666, "bike_id": "21d798c724824f486e525a1243074175", "type": "electric_scooter", "is_reserved": 0, "lon": -77.05694966666667}, {"fusion_lat": 0.0, "name": "761d2c62bd29c9965a1d74cd9e910a60", "is_disabled": 0, "rental_uris": {"android": "https://dc.lft.to/lastmile_qr_scan", "ios": "https://dc.lft.to/lastmile_qr_scan"}, "fusion_lon": 0.0, "lat": 38.92692916666667, "bike_id": "761d2c62bd29c9965a1d74cd9e910a60", "type": "electric_scooter", "is_reserved": 0, "lon": -77.0218505}, {"fusion_lat": 0.0, "name": "b2bb8b6b8f5aafe464de3c5b4b90f603", "is_disabled": 0, "rental_uris": {"android": "https://dc.lft.to/lastmile_qr_scan", "ios": "https://dc.lft.to/lastmile_qr_scan"}, "fusion_lon": 0.0, "lat": 38.9027095, "bike_id": "b2bb8b6b8f5aafe464de3c5b4b90f603", "type": "electric_scooter", "is_reserved": 0, "lon": -77.05314733333333}, {"fusion_lat": 0.0, "name": "bf747428b2d42db7b9fb1801fe0445af", "is_disabled": 0, "rental_uris": {"android": "https://dc.lft.to/lastmile_qr_scan", "ios": "https://dc.lft.to/lastmile_qr_scan"}, "fusion_lon": 0.0, "lat": 38.866296166666665, "bike_id": "bf747428b2d42db7b9fb1801fe0445af", "type": "electric_scooter", "is_reserved": 0, "lon": -76.9870925}, {"fusion_lat": 0.0, "name": "3688214f35b0782003d21a456e0ec4c9", "is_disabled": 0, "rental_uris": {"android": "https://dc.lft.to/lastmile_qr_scan", "ios": "https://dc.lft.to/lastmile_qr_scan"}, "fusion_lon": 0.0, "lat": 38.90950516666667, "bike_id": "3688214f35b0782003d21a456e0ec4c9", "type": "electric_bike", "is_reserved": 0, "lon": -76.9845145}, {"fusion_lat": 0.0, "name": "c6f38bf0d64d1b3315cf18cebb206de2", "is_disabled": 0, "rental_uris": {"android": "https://dc.lft.to/lastmile_qr_scan", "ios": "https://dc.lft.to/lastmile_qr_scan"}, "fusion_lon": 0.0, "lat": 38.899638, "bike_id": "c6f38bf0d64d1b3315cf18cebb206de2", "type": "electric_scooter", "is_reserved": 0, "lon": -77.01883533333333}, {"fusion_lat": 0.0, "name": "2eb953649b2f8efafc1662dc6e8bea3a", "is_disabled": 0, "rental_uris": {"android": "https://dc.lft.to/lastmile_qr_scan", "ios": "https://dc.lft.to/lastmile_qr_scan"}, "fusion_lon": 0.0, "lat": 38.827943, "bike_id": "2eb953649b2f8efafc1662dc6e8bea3a", "type": "electric_bike", "is_reserved": 0, "lon": -77.1249085}, {"fusion_lat": 0.0, "name": "bf9386f72a7e66299a55773aecec48e8", "is_disabled": 0, "rental_uris": {"android": "https://dc.lft.to/lastmile_qr_scan", "ios": "https://dc.lft.to/lastmile_qr_scan"}, "fusion_lon": 0.0, "lat": 38.9177425, "bike_id": "bf9386f72a7e66299a55773aecec48e8", "type": "electric_scooter", "is_reserved": 0, "lon": -77.01455516666667}, {"fusion_lat": 0.0, "name": "9a310bccb6cfc3098675fede98cc4c47", "is_disabled": 0, "rental_uris": {"android": "https://dc.lft.to/lastmile_qr_scan", "ios": "https://dc.lft.to/lastmile_qr_scan"}, "fusion_lon": 0.0, "lat": 38.897317666666666, "bike_id": "9a310bccb6cfc3098675fede98cc4c47", "type": "electric_scooter", "is_reserved": 0, "lon": -77.023318}, {"fusion_lat": 0.0, "name": "27ef819e2454b7a989cf1aec4d1ae93e", "is_disabled": 0, "rental_uris": {"android": "https://dc.lft.to/lastmile_qr_scan", "ios": "https://dc.lft.to/lastmile_qr_scan"}, "fusion_lon": 0.0, "lat": 38.92596233333333, "bike_id": "27ef819e2454b7a989cf1aec4d1ae93e", "type": "electric_scooter", "is_reserved": 0, "lon": -77.043938}, {"fusion_lat": 0.0, "name": "ab0c8a9420ca4a8382be5ad5b4132dfc", "is_disabled": 0, "rental_uris": {"android": "https://dc.lft.to/lastmile_qr_scan", "ios": "https://dc.lft.to/lastmile_qr_scan"}, "fusion_lon": 0.0, "lat": 38.89726783333333, "bike_id": "ab0c8a9420ca4a8382be5ad5b4132dfc", "type": "electric_scooter", "is_reserved": 0, "lon": -77.023313}, {"fusion_lat": 0.0, "name": "ce162b6b5e895a304054f1be7f98be69", "is_disabled": 0, "rental_uris": {"android": "https://dc.lft.to/lastmile_qr_scan", "ios": "https://dc.lft.to/lastmile_qr_scan"}, "fusion_lon": 0.0, "lat": 38.99100216666667, "bike_id": "ce162b6b5e895a304054f1be7f98be69", "type": "electric_bike", "is_reserved": 0, "lon": -76.99377566666666}, {"fusion_lat": 0.0, "name": "800ed70bfa43f29e00044e2303bcaef7", "is_disabled": 0, "rental_uris": {"android": "https://dc.lft.to/lastmile_qr_scan", "ios": "https://dc.lft.to/lastmile_qr_scan"}, "fusion_lon": 0.0, "lat": 38.900431166666664, "bike_id": "800ed70bfa43f29e00044e2303bcaef7", "type": "electric_scooter", "is_reserved": 0, "lon": -77.001901}, {"fusion_lat": 0.0, "name": "e7ba9776540eaa8269d70458e0cf63f6", "is_disabled": 0, "rental_uris": {"android": "https://dc.lft.to/lastmile_qr_scan", "ios": "https://dc.lft.to/lastmile_qr_scan"}, "fusion_lon": 0.0, "lat": 38.929111666666664, "bike_id": "e7ba9776540eaa8269d70458e0cf63f6", "type": "electric_scooter", "is_reserved": 0, "lon": -77.03236633333333}, {"fusion_lat": 0.0, "name": "84ed82e7b5c8b6e6a5f75b4089137f95", "is_disabled": 0, "rental_uris": {"android": "https://dc.lft.to/lastmile_qr_scan", "ios": "https://dc.lft.to/lastmile_qr_scan"}, "fusion_lon": 0.0, "lat": 38.89710766666666, "bike_id": "84ed82e7b5c8b6e6a5f75b4089137f95", "type": "electric_scooter", "is_reserved": 0, "lon": -77.0072315}, {"fusion_lat": 0.0, "name": "ff5d17247683dd51397a1a34f6ccee29", "is_disabled": 0, "rental_uris": {"android": "https://dc.lft.to/lastmile_qr_scan", "ios": "https://dc.lft.to/lastmile_qr_scan"}, "fusion_lon": 0.0, "lat": 38.920954333333334, "bike_id": "ff5d17247683dd51397a1a34f6ccee29", "type": "electric_scooter", "is_reserved": 0, "lon": -76.99485766666666}, {"fusion_lat": 0.0, "name": "c118c71bb69b7f743eca63049bd17b56", "is_disabled": 0, "rental_uris": {"android": "https://dc.lft.to/lastmile_qr_scan", "ios": "https://dc.lft.to/lastmile_qr_scan"}, "fusion_lon": 0.0, "lat": 38.8901735, "bike_id": "c118c71bb69b7f743eca63049bd17b56", "type": "electric_scooter", "is_reserved": 0, "lon": -76.937393}, {"fusion_lat": 0.0, "name": "7931570d4762a261a6e48842712b265e", "is_disabled": 0, "rental_uris": {"android": "https://dc.lft.to/lastmile_qr_scan", "ios": "https://dc.lft.to/lastmile_qr_scan"}, "fusion_lon": 0.0, "lat": 38.899004166666664, "bike_id": "7931570d4762a261a6e48842712b265e", "type": "electric_bike", "is_reserved": 0, "lon": -77.09619133333334}, {"fusion_lat": 0.0, "name": "d88f2570f9248836d92d510f13d7beab", "is_disabled": 0, "rental_uris": {"android": "https://dc.lft.to/lastmile_qr_scan", "ios": "https://dc.lft.to/lastmile_qr_scan"}, "fusion_lon": 0.0, "lat": 38.93546116666667, "bike_id": "d88f2570f9248836d92d510f13d7beab", "type": "electric_scooter", "is_reserved": 0, "lon": -77.03261083333334}, {"fusion_lat": 0.0, "name": "74a71cbae11a8ef1e4f613e4d326e65c", "is_disabled": 0, "rental_uris": {"android": "https://dc.lft.to/lastmile_qr_scan", "ios": "https://dc.lft.to/lastmile_qr_scan"}, "fusion_lon": 0.0, "lat": 38.916956666666664, "bike_id": "74a71cbae11a8ef1e4f613e4d326e65c", "type": "electric_scooter", "is_reserved": 0, "lon": -77.025178}, {"fusion_lat": 0.0, "name": "afa6b89d2228e1f414c5f17f99a57a25", "is_disabled": 0, "rental_uris": {"android": "https://dc.lft.to/lastmile_qr_scan", "ios": "https://dc.lft.to/lastmile_qr_scan"}, "fusion_lon": 0.0, "lat": 38.90424133333333, "bike_id": "afa6b89d2228e1f414c5f17f99a57a25", "type": "electric_scooter", "is_reserved": 0, "lon": -77.02498533333333}, {"fusion_lat": 0.0, "name": "6da59335dc2ea17fb171266ce1dfa3d9", "is_disabled": 0, "rental_uris": {"android": "https://dc.lft.to/lastmile_qr_scan", "ios": "https://dc.lft.to/lastmile_qr_scan"}, "fusion_lon": 0.0, "lat": 38.91667566666667, "bike_id": "6da59335dc2ea17fb171266ce1dfa3d9", "type": "electric_scooter", "is_reserved": 0, "lon": -77.03463133333334}, {"fusion_lat": 0.0, "name": "0e95c2f071ce1ee050fdc32748a01931", "is_disabled": 0, "rental_uris": {"android": "https://dc.lft.to/lastmile_qr_scan", "ios": "https://dc.lft.to/lastmile_qr_scan"}, "fusion_lon": 0.0, "lat": 38.917169333333334, "bike_id": "0e95c2f071ce1ee050fdc32748a01931", "type": "electric_scooter", "is_reserved": 0, "lon": -77.0287585}, {"fusion_lat": 0.0, "name": "743a52431ee846698def9e8e12366ecc", "is_disabled": 0, "rental_uris": {"android": "https://dc.lft.to/lastmile_qr_scan", "ios": "https://dc.lft.to/lastmile_qr_scan"}, "fusion_lon": 0.0, "lat": 38.871115333333336, "bike_id": "743a52431ee846698def9e8e12366ecc", "type": "electric_scooter", "is_reserved": 0, "lon": -76.96595283333333}, {"fusion_lat": 0.0, "name": "648841c01a22edb2c5595022e2f7d201", "is_disabled": 0, "rental_uris": {"android": "https://dc.lft.to/lastmile_qr_scan", "ios": "https://dc.lft.to/lastmile_qr_scan"}, "fusion_lon": 0.0, "lat": 38.892435166666665, "bike_id": "648841c01a22edb2c5595022e2f7d201", "type": "electric_scooter", "is_reserved": 0, "lon": -77.0220305}, {"fusion_lat": 0.0, "name": "04fdadf5dcb4f1dd7a75d5b94d3fc7bd", "is_disabled": 0, "rental_uris": {"android": "https://dc.lft.to/lastmile_qr_scan", "ios": "https://dc.lft.to/lastmile_qr_scan"}, "fusion_lon": 0.0, "lat": 38.90279666666667, "bike_id": "04fdadf5dcb4f1dd7a75d5b94d3fc7bd", "type": "electric_scooter", "is_reserved": 0, "lon": -77.0445845}, {"fusion_lat": 0.0, "name": "7e38337074e112dabc610256af2d40a6", "is_disabled": 0, "rental_uris": {"android": "https://dc.lft.to/lastmile_qr_scan", "ios": "https://dc.lft.to/lastmile_qr_scan"}, "fusion_lon": 0.0, "lat": 38.94057166666666, "bike_id": "7e38337074e112dabc610256af2d40a6", "type": "electric_bike", "is_reserved": 0, "lon": -76.90416216666667}, {"fusion_lat": 0.0, "name": "e600e05362d3a36feb5d1c6d5cbf2d36", "is_disabled": 0, "rental_uris": {"android": "https://dc.lft.to/lastmile_qr_scan", "ios": "https://dc.lft.to/lastmile_qr_scan"}, "fusion_lon": 0.0, "lat": 38.994439, "bike_id": "e600e05362d3a36feb5d1c6d5cbf2d36", "type": "electric_bike", "is_reserved": 0, "lon": -76.99589483333334}, {"fusion_lat": 0.0, "name": "6aeb5c19c6e6ffcf63eb5477aeb8d2bc", "is_disabled": 0, "rental_uris": {"android": "https://dc.lft.to/lastmile_qr_scan", "ios": "https://dc.lft.to/lastmile_qr_scan"}, "fusion_lon": 0.0, "lat": 38.8923365, "bike_id": "6aeb5c19c6e6ffcf63eb5477aeb8d2bc", "type": "electric_scooter", "is_reserved": 0, "lon": -77.03176016666667}, {"fusion_lat": 0.0, "name": "c67b3c89b8b9e6c850cfeeb08627aec9", "is_disabled": 0, "rental_uris": {"android": "https://dc.lft.to/lastmile_qr_scan", "ios": "https://dc.lft.to/lastmile_qr_scan"}, "fusion_lon": 0.0, "lat": 38.986703166666665, "bike_id": "c67b3c89b8b9e6c850cfeeb08627aec9", "type": "electric_bike", "is_reserved": 0, "lon": -76.99996533333334}, {"fusion_lat": 0.0, "name": "7a5ad3735f7417cb52cfc1ca6b90a450", "is_disabled": 0, "rental_uris": {"android": "https://dc.lft.to/lastmile_qr_scan", "ios": "https://dc.lft.to/lastmile_qr_scan"}, "fusion_lon": 0.0, "lat": 38.907740833333335, "bike_id": "7a5ad3735f7417cb52cfc1ca6b90a450", "type": "electric_scooter", "is_reserved": 0, "lon": -77.003949}, {"fusion_lat": 0.0, "name": "193a602306a0d0dc713335afbe6deec1", "is_disabled": 0, "rental_uris": {"android": "https://dc.lft.to/lastmile_qr_scan", "ios": "https://dc.lft.to/lastmile_qr_scan"}, "fusion_lon": 0.0, "lat": 38.898631, "bike_id": "193a602306a0d0dc713335afbe6deec1", "type": "electric_scooter", "is_reserved": 0, "lon": -77.02841766666667}, {"fusion_lat": 0.0, "name": "ba8b8dca2f2fbd4ed86db0a0b21be8c0", "is_disabled": 0, "rental_uris": {"android": "https://dc.lft.to/lastmile_qr_scan", "ios": "https://dc.lft.to/lastmile_qr_scan"}, "fusion_lon": 0.0, "lat": 38.92398983333333, "bike_id": "ba8b8dca2f2fbd4ed86db0a0b21be8c0", "type": "electric_scooter", "is_reserved": 0, "lon": -77.024139}, {"fusion_lat": 0.0, "name": "1aa810cbb8beee8f108b8a58f5304ad3", "is_disabled": 0, "rental_uris": {"android": "https://dc.lft.to/lastmile_qr_scan", "ios": "https://dc.lft.to/lastmile_qr_scan"}, "fusion_lon": 0.0, "lat": 38.90455983333333, "bike_id": "1aa810cbb8beee8f108b8a58f5304ad3", "type": "electric_scooter", "is_reserved": 0, "lon": -77.03352916666667}, {"fusion_lat": 0.0, "name": "c763681d1645c3c71d210def721992d9", "is_disabled": 0, "rental_uris": {"android": "https://dc.lft.to/lastmile_qr_scan", "ios": "https://dc.lft.to/lastmile_qr_scan"}, "fusion_lon": 0.0, "lat": 38.884332, "bike_id": "c763681d1645c3c71d210def721992d9", "type": "electric_scooter", "is_reserved": 0, "lon": -77.02556583333333}, {"fusion_lat": 0.0, "name": "3b8a578c364db0da1cd64b766cb1ca03", "is_disabled": 0, "rental_uris": {"android": "https://dc.lft.to/lastmile_qr_scan", "ios": "https://dc.lft.to/lastmile_qr_scan"}, "fusion_lon": 0.0, "lat": 38.91713033333333, "bike_id": "3b8a578c364db0da1cd64b766cb1ca03", "type": "electric_scooter", "is_reserved": 0, "lon": -77.03662233333333}, {"fusion_lat": 0.0, "name": "4a98ad19948be8c4f64001d8a3431f81", "is_disabled": 0, "rental_uris": {"android": "https://dc.lft.to/lastmile_qr_scan", "ios": "https://dc.lft.to/lastmile_qr_scan"}, "fusion_lon": 0.0, "lat": 38.90518133333333, "bike_id": "4a98ad19948be8c4f64001d8a3431f81", "type": "electric_scooter", "is_reserved": 0, "lon": -77.068715}, {"fusion_lat": 0.0, "name": "a1944b816d257b9b3c2aca7b73b1316d", "is_disabled": 0, "rental_uris": {"android": "https://dc.lft.to/lastmile_qr_scan", "ios": "https://dc.lft.to/lastmile_qr_scan"}, "fusion_lon": 0.0, "lat": 38.9135845, "bike_id": "a1944b816d257b9b3c2aca7b73b1316d", "type": "electric_scooter", "is_reserved": 0, "lon": -77.04877783333333}, {"fusion_lat": 0.0, "name": "b983cbd43a029019f0d1d50c5e48add4", "is_disabled": 0, "rental_uris": {"android": "https://dc.lft.to/lastmile_qr_scan", "ios": "https://dc.lft.to/lastmile_qr_scan"}, "fusion_lon": 0.0, "lat": 38.933839166666665, "bike_id": "b983cbd43a029019f0d1d50c5e48add4", "type": "electric_scooter", "is_reserved": 0, "lon": -77.02677333333334}, {"fusion_lat": 0.0, "name": "2dd712ca9c37383a090e68631a92332d", "is_disabled": 0, "rental_uris": {"android": "https://dc.lft.to/lastmile_qr_scan", "ios": "https://dc.lft.to/lastmile_qr_scan"}, "fusion_lon": 0.0, "lat": 38.91975866666667, "bike_id": "2dd712ca9c37383a090e68631a92332d", "type": "electric_scooter", "is_reserved": 0, "lon": -77.02501033333333}, {"fusion_lat": 0.0, "name": "0b81ddebac630262a0775177759631a5", "is_disabled": 0, "rental_uris": {"android": "https://dc.lft.to/lastmile_qr_scan", "ios": "https://dc.lft.to/lastmile_qr_scan"}, "fusion_lon": 0.0, "lat": 38.9170795, "bike_id": "0b81ddebac630262a0775177759631a5", "type": "electric_scooter", "is_reserved": 0, "lon": -77.02751966666666}, {"fusion_lat": 0.0, "name": "c2bdb8e2530935c417c43de86de396de", "is_disabled": 0, "rental_uris": {"android": "https://dc.lft.to/lastmile_qr_scan", "ios": "https://dc.lft.to/lastmile_qr_scan"}, "fusion_lon": 0.0, "lat": 38.898559, "bike_id": "c2bdb8e2530935c417c43de86de396de", "type": "electric_scooter", "is_reserved": 0, "lon": -76.9463955}, {"fusion_lat": 0.0, "name": "28a2d7e1c02b4a6b3b863d249e2edebf", "is_disabled": 0, "rental_uris": {"android": "https://dc.lft.to/lastmile_qr_scan", "ios": "https://dc.lft.to/lastmile_qr_scan"}, "fusion_lon": 0.0, "lat": 38.91275, "bike_id": "28a2d7e1c02b4a6b3b863d249e2edebf", "type": "electric_scooter", "is_reserved": 0, "lon": -77.04923883333333}, {"fusion_lat": 0.0, "name": "7662b08c2116570cfa312c5c9597098f", "is_disabled": 0, "rental_uris": {"android": "https://dc.lft.to/lastmile_qr_scan", "ios": "https://dc.lft.to/lastmile_qr_scan"}, "fusion_lon": 0.0, "lat": 38.890099666666664, "bike_id": "7662b08c2116570cfa312c5c9597098f", "type": "electric_scooter", "is_reserved": 0, "lon": -76.9373835}, {"fusion_lat": 0.0, "name": "0e977bfb85c76d5f91a023096c84a606", "is_disabled": 0, "rental_uris": {"android": "https://dc.lft.to/lastmile_qr_scan", "ios": "https://dc.lft.to/lastmile_qr_scan"}, "fusion_lon": 0.0, "lat": 38.91984933333333, "bike_id": "0e977bfb85c76d5f91a023096c84a606", "type": "electric_scooter", "is_reserved": 0, "lon": -77.02497466666667}, {"fusion_lat": 0.0, "name": "e61730369b7d9d6bc2eda06ad7d6ae29", "is_disabled": 0, "rental_uris": {"android": "https://dc.lft.to/lastmile_qr_scan", "ios": "https://dc.lft.to/lastmile_qr_scan"}, "fusion_lon": 0.0, "lat": 39.0563325, "bike_id": "e61730369b7d9d6bc2eda06ad7d6ae29", "type": "electric_bike", "is_reserved": 0, "lon": -77.12527316666667}, {"fusion_lat": 0.0, "name": "bfa9cda6f14c25c42c9b4e6e743a3eb2", "is_disabled": 0, "rental_uris": {"android": "https://dc.lft.to/lastmile_qr_scan", "ios": "https://dc.lft.to/lastmile_qr_scan"}, "fusion_lon": 0.0, "lat": 38.9102515, "bike_id": "bfa9cda6f14c25c42c9b4e6e743a3eb2", "type": "electric_scooter", "is_reserved": 0, "lon": -77.015101}, {"fusion_lat": 0.0, "name": "d65f0817ee4a3c159854e47ccb4e58eb", "is_disabled": 0, "rental_uris": {"android": "https://dc.lft.to/lastmile_qr_scan", "ios": "https://dc.lft.to/lastmile_qr_scan"}, "fusion_lon": 0.0, "lat": 38.9283145, "bike_id": "d65f0817ee4a3c159854e47ccb4e58eb", "type": "electric_scooter", "is_reserved": 0, "lon": -77.03275283333333}, {"fusion_lat": 0.0, "name": "9b7d442a2942e7fd87e9532165d565a5", "is_disabled": 0, "rental_uris": {"android": "https://dc.lft.to/lastmile_qr_scan", "ios": "https://dc.lft.to/lastmile_qr_scan"}, "fusion_lon": 0.0, "lat": 38.922512, "bike_id": "9b7d442a2942e7fd87e9532165d565a5", "type": "electric_scooter", "is_reserved": 0, "lon": -77.04211633333334}, {"fusion_lat": 0.0, "name": "5ae6101c63e99160d36efc14f04f0f6d", "is_disabled": 0, "rental_uris": {"android": "https://dc.lft.to/lastmile_qr_scan", "ios": "https://dc.lft.to/lastmile_qr_scan"}, "fusion_lon": 0.0, "lat": 38.9039755, "bike_id": "5ae6101c63e99160d36efc14f04f0f6d", "type": "electric_scooter", "is_reserved": 0, "lon": -77.03837083333333}, {"fusion_lat": 0.0, "name": "4b754eafe6b6b4a585ab8124f86e765e", "is_disabled": 0, "rental_uris": {"android": "https://dc.lft.to/lastmile_qr_scan", "ios": "https://dc.lft.to/lastmile_qr_scan"}, "fusion_lon": 0.0, "lat": 38.92415483333333, "bike_id": "4b754eafe6b6b4a585ab8124f86e765e", "type": "electric_scooter", "is_reserved": 0, "lon": -77.05062333333333}, {"fusion_lat": 0.0, "name": "7dc7535f22509cc09cb89e6e70185779", "is_disabled": 0, "rental_uris": {"android": "https://dc.lft.to/lastmile_qr_scan", "ios": "https://dc.lft.to/lastmile_qr_scan"}, "fusion_lon": 0.0, "lat": 38.935283166666665, "bike_id": "7dc7535f22509cc09cb89e6e70185779", "type": "electric_scooter", "is_reserved": 0, "lon": -77.03650283333333}, {"fusion_lat": 0.0, "name": "cfcee3f44d4c1d1c35c49831d878b3e4", "is_disabled": 0, "rental_uris": {"android": "https://dc.lft.to/lastmile_qr_scan", "ios": "https://dc.lft.to/lastmile_qr_scan"}, "fusion_lon": 0.0, "lat": 38.853105166666666, "bike_id": "cfcee3f44d4c1d1c35c49831d878b3e4", "type": "electric_bike", "is_reserved": 0, "lon": -77.046085}, {"fusion_lat": 0.0, "name": "73239828f8bf4d7faf526f91e0118f9f", "is_disabled": 0, "rental_uris": {"android": "https://dc.lft.to/lastmile_qr_scan", "ios": "https://dc.lft.to/lastmile_qr_scan"}, "fusion_lon": 0.0, "lat": 38.9000065, "bike_id": "73239828f8bf4d7faf526f91e0118f9f", "type": "electric_scooter", "is_reserved": 0, "lon": -76.93159683333333}, {"fusion_lat": 0.0, "name": "72ffd3a5c053ff77800c211a1d3e9437", "is_disabled": 0, "rental_uris": {"android": "https://dc.lft.to/lastmile_qr_scan", "ios": "https://dc.lft.to/lastmile_qr_scan"}, "fusion_lon": 0.0, "lat": 38.909764, "bike_id": "72ffd3a5c053ff77800c211a1d3e9437", "type": "electric_scooter", "is_reserved": 0, "lon": -77.04478766666666}, {"fusion_lat": 0.0, "name": "6a20a512981d5ffce93bb0a96c6ae4db", "is_disabled": 0, "rental_uris": {"android": "https://dc.lft.to/lastmile_qr_scan", "ios": "https://dc.lft.to/lastmile_qr_scan"}, "fusion_lon": 0.0, "lat": 38.9041835, "bike_id": "6a20a512981d5ffce93bb0a96c6ae4db", "type": "electric_scooter", "is_reserved": 0, "lon": -77.038364}, {"fusion_lat": 0.0, "name": "2d8e65460760a004d82a921a3f1593e7", "is_disabled": 0, "rental_uris": {"android": "https://dc.lft.to/lastmile_qr_scan", "ios": "https://dc.lft.to/lastmile_qr_scan"}, "fusion_lon": 0.0, "lat": 38.84284366666667, "bike_id": "2d8e65460760a004d82a921a3f1593e7", "type": "electric_bike", "is_reserved": 0, "lon": -77.0449975}, {"fusion_lat": 0.0, "name": "a36135e462b6c3c998100450dc577d4f", "is_disabled": 0, "rental_uris": {"android": "https://dc.lft.to/lastmile_qr_scan", "ios": "https://dc.lft.to/lastmile_qr_scan"}, "fusion_lon": 0.0, "lat": 38.8998425, "bike_id": "a36135e462b6c3c998100450dc577d4f", "type": "electric_scooter", "is_reserved": 0, "lon": -77.00697416666667}, {"fusion_lat": 0.0, "name": "f6555b9c5437a1a663711e8c5e16005c", "is_disabled": 0, "rental_uris": {"android": "https://dc.lft.to/lastmile_qr_scan", "ios": "https://dc.lft.to/lastmile_qr_scan"}, "fusion_lon": 0.0, "lat": 38.89737366666667, "bike_id": "f6555b9c5437a1a663711e8c5e16005c", "type": "electric_scooter", "is_reserved": 0, "lon": -77.0434295}, {"fusion_lat": 0.0, "name": "ed19988ad032bb70e02b0bd4f32829b0", "is_disabled": 0, "rental_uris": {"android": "https://dc.lft.to/lastmile_qr_scan", "ios": "https://dc.lft.to/lastmile_qr_scan"}, "fusion_lon": 0.0, "lat": 38.9073485, "bike_id": "ed19988ad032bb70e02b0bd4f32829b0", "type": "electric_scooter", "is_reserved": 0, "lon": -77.03859766666666}, {"fusion_lat": 0.0, "name": "72630441fce4662b19e81309f0e72d15", "is_disabled": 0, "rental_uris": {"android": "https://dc.lft.to/lastmile_qr_scan", "ios": "https://dc.lft.to/lastmile_qr_scan"}, "fusion_lon": 0.0, "lat": 38.905169666666666, "bike_id": "72630441fce4662b19e81309f0e72d15", "type": "electric_scooter", "is_reserved": 0, "lon": -77.06878083333334}, {"fusion_lat": 0.0, "name": "4d2770fe4e66cd5ab0c191bb19614468", "is_disabled": 0, "rental_uris": {"android": "https://dc.lft.to/lastmile_qr_scan", "ios": "https://dc.lft.to/lastmile_qr_scan"}, "fusion_lon": 0.0, "lat": 38.932155333333334, "bike_id": "4d2770fe4e66cd5ab0c191bb19614468", "type": "electric_scooter", "is_reserved": 0, "lon": -77.0351235}, {"fusion_lat": 0.0, "name": "2c662aa4dedd5e508bc681d55c9cb059", "is_disabled": 0, "rental_uris": {"android": "https://dc.lft.to/lastmile_qr_scan", "ios": "https://dc.lft.to/lastmile_qr_scan"}, "fusion_lon": 0.0, "lat": 38.88634016666666, "bike_id": "2c662aa4dedd5e508bc681d55c9cb059", "type": "electric_scooter", "is_reserved": 0, "lon": -77.01953116666667}, {"fusion_lat": 0.0, "name": "18006b928d495f4e56843f2c17c3fe6b", "is_disabled": 0, "rental_uris": {"android": "https://dc.lft.to/lastmile_qr_scan", "ios": "https://dc.lft.to/lastmile_qr_scan"}, "fusion_lon": 0.0, "lat": 38.918303, "bike_id": "18006b928d495f4e56843f2c17c3fe6b", "type": "electric_scooter", "is_reserved": 0, "lon": -77.0318835}, {"fusion_lat": 0.0, "name": "253e6509c5505c8f273cd27fbb949277", "is_disabled": 0, "rental_uris": {"android": "https://dc.lft.to/lastmile_qr_scan", "ios": "https://dc.lft.to/lastmile_qr_scan"}, "fusion_lon": 0.0, "lat": 38.89220266666667, "bike_id": "253e6509c5505c8f273cd27fbb949277", "type": "electric_scooter", "is_reserved": 0, "lon": -77.03218}, {"fusion_lat": 0.0, "name": "1fcac1edc9a6973b7b17eb4b15d6ab67", "is_disabled": 0, "rental_uris": {"android": "https://dc.lft.to/lastmile_qr_scan", "ios": "https://dc.lft.to/lastmile_qr_scan"}, "fusion_lon": 0.0, "lat": 38.8855895, "bike_id": "1fcac1edc9a6973b7b17eb4b15d6ab67", "type": "electric_scooter", "is_reserved": 0, "lon": -76.97719733333334}, {"fusion_lat": 0.0, "name": "40aef7015b0987e9ab82b3ae345fb902", "is_disabled": 0, "rental_uris": {"android": "https://dc.lft.to/lastmile_qr_scan", "ios": "https://dc.lft.to/lastmile_qr_scan"}, "fusion_lon": 0.0, "lat": 38.923134, "bike_id": "40aef7015b0987e9ab82b3ae345fb902", "type": "electric_scooter", "is_reserved": 0, "lon": -77.02913116666667}, {"fusion_lat": 0.0, "name": "c8251fc82a8f604b403bbcde1cee11e8", "is_disabled": 0, "rental_uris": {"android": "https://dc.lft.to/lastmile_qr_scan", "ios": "https://dc.lft.to/lastmile_qr_scan"}, "fusion_lon": 0.0, "lat": 38.90065883333333, "bike_id": "c8251fc82a8f604b403bbcde1cee11e8", "type": "electric_scooter", "is_reserved": 0, "lon": -77.05428266666667}, {"fusion_lat": 0.0, "name": "d3037b92378873a216256867751fcbfa", "is_disabled": 0, "rental_uris": {"android": "https://dc.lft.to/lastmile_qr_scan", "ios": "https://dc.lft.to/lastmile_qr_scan"}, "fusion_lon": 0.0, "lat": 38.91663716666667, "bike_id": "d3037b92378873a216256867751fcbfa", "type": "electric_scooter", "is_reserved": 0, "lon": -77.02810216666667}, {"fusion_lat": 0.0, "name": "6087a27c57b37521e9a04532c9acd0ed", "is_disabled": 0, "rental_uris": {"android": "https://dc.lft.to/lastmile_qr_scan", "ios": "https://dc.lft.to/lastmile_qr_scan"}, "fusion_lon": 0.0, "lat": 38.919224, "bike_id": "6087a27c57b37521e9a04532c9acd0ed", "type": "electric_scooter", "is_reserved": 0, "lon": -77.009716}, {"fusion_lat": 0.0, "name": "1192a18f9a0633c422934fa2c7e8e7d2", "is_disabled": 0, "rental_uris": {"android": "https://dc.lft.to/lastmile_qr_scan", "ios": "https://dc.lft.to/lastmile_qr_scan"}, "fusion_lon": 0.0, "lat": 38.899635833333335, "bike_id": "1192a18f9a0633c422934fa2c7e8e7d2", "type": "electric_scooter", "is_reserved": 0, "lon": -77.006886}, {"fusion_lat": 0.0, "name": "0ce95c1063c4df6c3018f1cbe6207b94", "is_disabled": 0, "rental_uris": {"android": "https://dc.lft.to/lastmile_qr_scan", "ios": "https://dc.lft.to/lastmile_qr_scan"}, "fusion_lon": 0.0, "lat": 38.90895533333333, "bike_id": "0ce95c1063c4df6c3018f1cbe6207b94", "type": "electric_scooter", "is_reserved": 0, "lon": -76.9985065}, {"fusion_lat": 0.0, "name": "3c7a0a9290dc547b64932988207afe6b", "is_disabled": 0, "rental_uris": {"android": "https://dc.lft.to/lastmile_qr_scan", "ios": "https://dc.lft.to/lastmile_qr_scan"}, "fusion_lon": 0.0, "lat": 38.8861035, "bike_id": "3c7a0a9290dc547b64932988207afe6b", "type": "electric_scooter", "is_reserved": 0, "lon": -77.0124735}, {"fusion_lat": 0.0, "name": "bc5358c90231dbc884b04097a30dcc7e", "is_disabled": 0, "rental_uris": {"android": "https://dc.lft.to/lastmile_qr_scan", "ios": "https://dc.lft.to/lastmile_qr_scan"}, "fusion_lon": 0.0, "lat": 38.8922585, "bike_id": "bc5358c90231dbc884b04097a30dcc7e", "type": "electric_scooter", "is_reserved": 0, "lon": -77.02405716666667}, {"fusion_lat": 0.0, "name": "c501c45ea42cf025ddd3943dbba4b186", "is_disabled": 0, "rental_uris": {"android": "https://dc.lft.to/lastmile_qr_scan", "ios": "https://dc.lft.to/lastmile_qr_scan"}, "fusion_lon": 0.0, "lat": 38.911203666666665, "bike_id": "c501c45ea42cf025ddd3943dbba4b186", "type": "electric_scooter", "is_reserved": 0, "lon": -76.99759133333333}, {"fusion_lat": 0.0, "name": "d1c8b91b3f178b0e1b5f87e3b264385d", "is_disabled": 0, "rental_uris": {"android": "https://dc.lft.to/lastmile_qr_scan", "ios": "https://dc.lft.to/lastmile_qr_scan"}, "fusion_lon": 0.0, "lat": 38.9170475, "bike_id": "d1c8b91b3f178b0e1b5f87e3b264385d", "type": "electric_scooter", "is_reserved": 0, "lon": -77.00114216666667}, {"fusion_lat": 0.0, "name": "8b8eaff45ea39d82acf79b9df9f29ea3", "is_disabled": 0, "rental_uris": {"android": "https://dc.lft.to/lastmile_qr_scan", "ios": "https://dc.lft.to/lastmile_qr_scan"}, "fusion_lon": 0.0, "lat": 38.9208835, "bike_id": "8b8eaff45ea39d82acf79b9df9f29ea3", "type": "electric_scooter", "is_reserved": 0, "lon": -76.99784366666667}, {"fusion_lat": 0.0, "name": "48781e2c6651da30b1353481e9b7d6bf", "is_disabled": 0, "rental_uris": {"android": "https://dc.lft.to/lastmile_qr_scan", "ios": "https://dc.lft.to/lastmile_qr_scan"}, "fusion_lon": 0.0, "lat": 38.93320466666667, "bike_id": "48781e2c6651da30b1353481e9b7d6bf", "type": "electric_scooter", "is_reserved": 0, "lon": -77.02758266666666}, {"fusion_lat": 0.0, "name": "2e32cf1722783b34f5d0c59fac1b651a", "is_disabled": 0, "rental_uris": {"android": "https://dc.lft.to/lastmile_qr_scan", "ios": "https://dc.lft.to/lastmile_qr_scan"}, "fusion_lon": 0.0, "lat": 38.90061516666667, "bike_id": "2e32cf1722783b34f5d0c59fac1b651a", "type": "electric_scooter", "is_reserved": 0, "lon": -76.98556833333333}, {"fusion_lat": 0.0, "name": "20223327beb3d2b68c5ac8d429c88efa", "is_disabled": 0, "rental_uris": {"android": "https://dc.lft.to/lastmile_qr_scan", "ios": "https://dc.lft.to/lastmile_qr_scan"}, "fusion_lon": 0.0, "lat": 38.898527666666666, "bike_id": "20223327beb3d2b68c5ac8d429c88efa", "type": "electric_scooter", "is_reserved": 0, "lon": -76.990325}, {"fusion_lat": 0.0, "name": "32ca93c59437ee95f8a8777b947e4544", "is_disabled": 0, "rental_uris": {"android": "https://dc.lft.to/lastmile_qr_scan", "ios": "https://dc.lft.to/lastmile_qr_scan"}, "fusion_lon": 0.0, "lat": 38.928726833333336, "bike_id": "32ca93c59437ee95f8a8777b947e4544", "type": "electric_scooter", "is_reserved": 0, "lon": -77.03791283333334}, {"fusion_lat": 0.0, "name": "67aeff5185f07fddf2e46116fe700467", "is_disabled": 0, "rental_uris": {"android": "https://dc.lft.to/lastmile_qr_scan", "ios": "https://dc.lft.to/lastmile_qr_scan"}, "fusion_lon": 0.0, "lat": 38.91273566666667, "bike_id": "67aeff5185f07fddf2e46116fe700467", "type": "electric_scooter", "is_reserved": 0, "lon": -77.031383}, {"fusion_lat": 0.0, "name": "a1685eade61700d54a9c6c9c3f569a65", "is_disabled": 0, "rental_uris": {"android": "https://dc.lft.to/lastmile_qr_scan", "ios": "https://dc.lft.to/lastmile_qr_scan"}, "fusion_lon": 0.0, "lat": 38.928651333333335, "bike_id": "a1685eade61700d54a9c6c9c3f569a65", "type": "electric_scooter", "is_reserved": 0, "lon": -77.03266116666667}, {"fusion_lat": 0.0, "name": "c0537192da3cff02671ea3e96e991e26", "is_disabled": 0, "rental_uris": {"android": "https://dc.lft.to/lastmile_qr_scan", "ios": "https://dc.lft.to/lastmile_qr_scan"}, "fusion_lon": 0.0, "lat": 38.941822, "bike_id": "c0537192da3cff02671ea3e96e991e26", "type": "electric_scooter", "is_reserved": 0, "lon": -77.0280805}, {"fusion_lat": 0.0, "name": "e955cac8a57d6f7cf941649adbdf7137", "is_disabled": 0, "rental_uris": {"android": "https://dc.lft.to/lastmile_qr_scan", "ios": "https://dc.lft.to/lastmile_qr_scan"}, "fusion_lon": 0.0, "lat": 38.91061933333334, "bike_id": "e955cac8a57d6f7cf941649adbdf7137", "type": "electric_scooter", "is_reserved": 0, "lon": -77.0527155}, {"fusion_lat": 0.0, "name": "e9dfdfcc656ff93db368ee759c6d8f14", "is_disabled": 0, "rental_uris": {"android": "https://dc.lft.to/lastmile_qr_scan", "ios": "https://dc.lft.to/lastmile_qr_scan"}, "fusion_lon": 0.0, "lat": 38.9003055, "bike_id": "e9dfdfcc656ff93db368ee759c6d8f14", "type": "electric_scooter", "is_reserved": 0, "lon": -77.00027466666667}, {"fusion_lat": 0.0, "name": "af6a4eda40059a2d92d3f764d6d9c0eb", "is_disabled": 0, "rental_uris": {"android": "https://dc.lft.to/lastmile_qr_scan", "ios": "https://dc.lft.to/lastmile_qr_scan"}, "fusion_lon": 0.0, "lat": 38.931960833333335, "bike_id": "af6a4eda40059a2d92d3f764d6d9c0eb", "type": "electric_bike", "is_reserved": 0, "lon": -77.2292525}, {"fusion_lat": 0.0, "name": "cab42df20a2f364a5aed545c57eddce4", "is_disabled": 0, "rental_uris": {"android": "https://dc.lft.to/lastmile_qr_scan", "ios": "https://dc.lft.to/lastmile_qr_scan"}, "fusion_lon": 0.0, "lat": 38.8133055, "bike_id": "cab42df20a2f364a5aed545c57eddce4", "type": "electric_bike", "is_reserved": 0, "lon": -77.0509255}, {"fusion_lat": 0.0, "name": "e4d1f2b53d7cac20716f7fab7c74a9b3", "is_disabled": 0, "rental_uris": {"android": "https://dc.lft.to/lastmile_qr_scan", "ios": "https://dc.lft.to/lastmile_qr_scan"}, "fusion_lon": 0.0, "lat": 38.900388, "bike_id": "e4d1f2b53d7cac20716f7fab7c74a9b3", "type": "electric_scooter", "is_reserved": 0, "lon": -77.00193833333333}, {"fusion_lat": 0.0, "name": "60ad42cf8039ecce55f896744c28630b", "is_disabled": 0, "rental_uris": {"android": "https://dc.lft.to/lastmile_qr_scan", "ios": "https://dc.lft.to/lastmile_qr_scan"}, "fusion_lon": 0.0, "lat": 38.92482483333333, "bike_id": "60ad42cf8039ecce55f896744c28630b", "type": "electric_scooter", "is_reserved": 0, "lon": -77.02627966666667}, {"fusion_lat": 0.0, "name": "0fd0118c56266f49d71525030c3bac08", "is_disabled": 0, "rental_uris": {"android": "https://dc.lft.to/lastmile_qr_scan", "ios": "https://dc.lft.to/lastmile_qr_scan"}, "fusion_lon": 0.0, "lat": 38.89267183333333, "bike_id": "0fd0118c56266f49d71525030c3bac08", "type": "electric_scooter", "is_reserved": 0, "lon": -77.025948}, {"fusion_lat": 0.0, "name": "8fd86f6095d4a6cfc6964658948be7b7", "is_disabled": 0, "rental_uris": {"android": "https://dc.lft.to/lastmile_qr_scan", "ios": "https://dc.lft.to/lastmile_qr_scan"}, "fusion_lon": 0.0, "lat": 38.9351395, "bike_id": "8fd86f6095d4a6cfc6964658948be7b7", "type": "electric_scooter", "is_reserved": 0, "lon": -77.03263016666666}, {"fusion_lat": 0.0, "name": "1d3790d1961a82a5add2452f9c9d9dca", "is_disabled": 0, "rental_uris": {"android": "https://dc.lft.to/lastmile_qr_scan", "ios": "https://dc.lft.to/lastmile_qr_scan"}, "fusion_lon": 0.0, "lat": 38.922489, "bike_id": "1d3790d1961a82a5add2452f9c9d9dca", "type": "electric_scooter", "is_reserved": 0, "lon": -77.07472833333334}, {"fusion_lat": 0.0, "name": "5c99ee78b80c8a0c3976aac13e0d2365", "is_disabled": 0, "rental_uris": {"android": "https://dc.lft.to/lastmile_qr_scan", "ios": "https://dc.lft.to/lastmile_qr_scan"}, "fusion_lon": 0.0, "lat": 38.920589666666665, "bike_id": "5c99ee78b80c8a0c3976aac13e0d2365", "type": "electric_scooter", "is_reserved": 0, "lon": -77.04251633333334}, {"fusion_lat": 0.0, "name": "33174b6cb0048f0d408a25d976e61d00", "is_disabled": 0, "rental_uris": {"android": "https://dc.lft.to/lastmile_qr_scan", "ios": "https://dc.lft.to/lastmile_qr_scan"}, "fusion_lon": 0.0, "lat": 38.883277666666665, "bike_id": "33174b6cb0048f0d408a25d976e61d00", "type": "electric_scooter", "is_reserved": 0, "lon": -77.0175895}, {"fusion_lat": 0.0, "name": "e121141b554df80e8c1fc827e1596227", "is_disabled": 0, "rental_uris": {"android": "https://dc.lft.to/lastmile_qr_scan", "ios": "https://dc.lft.to/lastmile_qr_scan"}, "fusion_lon": 0.0, "lat": 38.905487666666666, "bike_id": "e121141b554df80e8c1fc827e1596227", "type": "electric_scooter", "is_reserved": 0, "lon": -77.04653383333333}, {"fusion_lat": 0.0, "name": "33da1ce54f2979cbda162f51a0a60732", "is_disabled": 0, "rental_uris": {"android": "https://dc.lft.to/lastmile_qr_scan", "ios": "https://dc.lft.to/lastmile_qr_scan"}, "fusion_lon": 0.0, "lat": 38.920562333333336, "bike_id": "33da1ce54f2979cbda162f51a0a60732", "type": "electric_scooter", "is_reserved": 0, "lon": -77.04188216666667}, {"fusion_lat": 0.0, "name": "66da752800d586d45141ed3089be47ac", "is_disabled": 0, "rental_uris": {"android": "https://dc.lft.to/lastmile_qr_scan", "ios": "https://dc.lft.to/lastmile_qr_scan"}, "fusion_lon": 0.0, "lat": 38.90649783333333, "bike_id": "66da752800d586d45141ed3089be47ac", "type": "electric_scooter", "is_reserved": 0, "lon": -77.018586}, {"fusion_lat": 0.0, "name": "69821bd04e4004e0a8d55d15faa658f9", "is_disabled": 0, "rental_uris": {"android": "https://dc.lft.to/lastmile_qr_scan", "ios": "https://dc.lft.to/lastmile_qr_scan"}, "fusion_lon": 0.0, "lat": 38.89730683333333, "bike_id": "69821bd04e4004e0a8d55d15faa658f9", "type": "electric_scooter", "is_reserved": 0, "lon": -77.04990266666667}, {"fusion_lat": 0.0, "name": "7bdc18b64bc7302e3c212d59392c9550", "is_disabled": 0, "rental_uris": {"android": "https://dc.lft.to/lastmile_qr_scan", "ios": "https://dc.lft.to/lastmile_qr_scan"}, "fusion_lon": 0.0, "lat": 38.92055533333333, "bike_id": "7bdc18b64bc7302e3c212d59392c9550", "type": "electric_scooter", "is_reserved": 0, "lon": -76.9988305}, {"fusion_lat": 0.0, "name": "52224eabb27f9423e65601b0f4d8e752", "is_disabled": 0, "rental_uris": {"android": "https://dc.lft.to/lastmile_qr_scan", "ios": "https://dc.lft.to/lastmile_qr_scan"}, "fusion_lon": 0.0, "lat": 38.900353333333335, "bike_id": "52224eabb27f9423e65601b0f4d8e752", "type": "electric_scooter", "is_reserved": 0, "lon": -77.00195}, {"fusion_lat": 0.0, "name": "42801d19f938bb55886571047721ee37", "is_disabled": 0, "rental_uris": {"android": "https://dc.lft.to/lastmile_qr_scan", "ios": "https://dc.lft.to/lastmile_qr_scan"}, "fusion_lon": 0.0, "lat": 38.956375333333334, "bike_id": "42801d19f938bb55886571047721ee37", "type": "electric_bike", "is_reserved": 0, "lon": -76.93873983333333}, {"fusion_lat": 0.0, "name": "727294676ce9eb6fc5150a3f90d9f3f2", "is_disabled": 0, "rental_uris": {"android": "https://dc.lft.to/lastmile_qr_scan", "ios": "https://dc.lft.to/lastmile_qr_scan"}, "fusion_lon": 0.0, "lat": 38.9072885, "bike_id": "727294676ce9eb6fc5150a3f90d9f3f2", "type": "electric_scooter", "is_reserved": 0, "lon": -77.04343183333333}, {"fusion_lat": 0.0, "name": "123e041cf148017ba77553dd81041f59", "is_disabled": 0, "rental_uris": {"android": "https://dc.lft.to/lastmile_qr_scan", "ios": "https://dc.lft.to/lastmile_qr_scan"}, "fusion_lon": 0.0, "lat": 38.884486333333335, "bike_id": "123e041cf148017ba77553dd81041f59", "type": "electric_scooter", "is_reserved": 0, "lon": -76.99393083333334}, {"fusion_lat": 0.0, "name": "972f33702a566124e515cb2d698a36ef", "is_disabled": 0, "rental_uris": {"android": "https://dc.lft.to/lastmile_qr_scan", "ios": "https://dc.lft.to/lastmile_qr_scan"}, "fusion_lon": 0.0, "lat": 38.91715266666667, "bike_id": "972f33702a566124e515cb2d698a36ef", "type": "electric_scooter", "is_reserved": 0, "lon": -77.03857683333334}, {"fusion_lat": 0.0, "name": "210a4aff906616888391ba5937a25d0c", "is_disabled": 0, "rental_uris": {"android": "https://dc.lft.to/lastmile_qr_scan", "ios": "https://dc.lft.to/lastmile_qr_scan"}, "fusion_lon": 0.0, "lat": 38.80681033333333, "bike_id": "210a4aff906616888391ba5937a25d0c", "type": "electric_bike", "is_reserved": 0, "lon": -77.06914983333333}, {"fusion_lat": 0.0, "name": "7982cf29f35ad37c646fae08afc75fd7", "is_disabled": 0, "rental_uris": {"android": "https://dc.lft.to/lastmile_qr_scan", "ios": "https://dc.lft.to/lastmile_qr_scan"}, "fusion_lon": 0.0, "lat": 38.88750183333333, "bike_id": "7982cf29f35ad37c646fae08afc75fd7", "type": "electric_scooter", "is_reserved": 0, "lon": -76.998408}, {"fusion_lat": 0.0, "name": "dd15052e9467b6154b2bf79cdb476646", "is_disabled": 0, "rental_uris": {"android": "https://dc.lft.to/lastmile_qr_scan", "ios": "https://dc.lft.to/lastmile_qr_scan"}, "fusion_lon": 0.0, "lat": 38.905717333333335, "bike_id": "dd15052e9467b6154b2bf79cdb476646", "type": "electric_scooter", "is_reserved": 0, "lon": -77.04647016666667}, {"fusion_lat": 0.0, "name": "6b0def8a762e736b6050c65aa0f1b2a1", "is_disabled": 0, "rental_uris": {"android": "https://dc.lft.to/lastmile_qr_scan", "ios": "https://dc.lft.to/lastmile_qr_scan"}, "fusion_lon": 0.0, "lat": 38.961826333333335, "bike_id": "6b0def8a762e736b6050c65aa0f1b2a1", "type": "electric_bike", "is_reserved": 0, "lon": -77.05266033333334}, {"fusion_lat": 0.0, "name": "7541d7ba60b0727558f9caff85bca0cd", "is_disabled": 0, "rental_uris": {"android": "https://dc.lft.to/lastmile_qr_scan", "ios": "https://dc.lft.to/lastmile_qr_scan"}, "fusion_lon": 0.0, "lat": 38.930749666666664, "bike_id": "7541d7ba60b0727558f9caff85bca0cd", "type": "electric_scooter", "is_reserved": 0, "lon": -77.04051133333333}, {"fusion_lat": 0.0, "name": "cf0a489d4f77d15bbedf9be946c658e7", "is_disabled": 0, "rental_uris": {"android": "https://dc.lft.to/lastmile_qr_scan", "ios": "https://dc.lft.to/lastmile_qr_scan"}, "fusion_lon": 0.0, "lat": 38.97460933333333, "bike_id": "cf0a489d4f77d15bbedf9be946c658e7", "type": "electric_scooter", "is_reserved": 0, "lon": -77.01317516666667}, {"fusion_lat": 0.0, "name": "ae8ef716dfda3d8d8d460b044b01e224", "is_disabled": 0, "rental_uris": {"android": "https://dc.lft.to/lastmile_qr_scan", "ios": "https://dc.lft.to/lastmile_qr_scan"}, "fusion_lon": 0.0, "lat": 38.897287666666664, "bike_id": "ae8ef716dfda3d8d8d460b044b01e224", "type": "electric_scooter", "is_reserved": 0, "lon": -77.00371133333333}, {"fusion_lat": 0.0, "name": "075a6ac5678fa0424f425dcbf6334a2d", "is_disabled": 0, "rental_uris": {"android": "https://dc.lft.to/lastmile_qr_scan", "ios": "https://dc.lft.to/lastmile_qr_scan"}, "fusion_lon": 0.0, "lat": 38.90910783333333, "bike_id": "075a6ac5678fa0424f425dcbf6334a2d", "type": "electric_scooter", "is_reserved": 0, "lon": -77.072868}, {"fusion_lat": 0.0, "name": "92eea4b37900d63038896f006660ef2c", "is_disabled": 0, "rental_uris": {"android": "https://dc.lft.to/lastmile_qr_scan", "ios": "https://dc.lft.to/lastmile_qr_scan"}, "fusion_lon": 0.0, "lat": 38.919049666666666, "bike_id": "92eea4b37900d63038896f006660ef2c", "type": "electric_scooter", "is_reserved": 0, "lon": -77.00209416666667}, {"fusion_lat": 0.0, "name": "c316a04c58b83acd49b8e631e129e9bf", "is_disabled": 0, "rental_uris": {"android": "https://dc.lft.to/lastmile_qr_scan", "ios": "https://dc.lft.to/lastmile_qr_scan"}, "fusion_lon": 0.0, "lat": 38.9085835, "bike_id": "c316a04c58b83acd49b8e631e129e9bf", "type": "electric_scooter", "is_reserved": 0, "lon": -77.04255533333334}, {"fusion_lat": 0.0, "name": "6333742b29f000fe76bc87c4ec1a413c", "is_disabled": 0, "rental_uris": {"android": "https://dc.lft.to/lastmile_qr_scan", "ios": "https://dc.lft.to/lastmile_qr_scan"}, "fusion_lon": 0.0, "lat": 38.89697133333333, "bike_id": "6333742b29f000fe76bc87c4ec1a413c", "type": "electric_scooter", "is_reserved": 0, "lon": -77.04333366666667}, {"fusion_lat": 0.0, "name": "f6fab36e9853630e801b52f95c8e5a94", "is_disabled": 0, "rental_uris": {"android": "https://dc.lft.to/lastmile_qr_scan", "ios": "https://dc.lft.to/lastmile_qr_scan"}, "fusion_lon": 0.0, "lat": 38.8911655, "bike_id": "f6fab36e9853630e801b52f95c8e5a94", "type": "electric_scooter", "is_reserved": 0, "lon": -76.94380816666667}, {"fusion_lat": 0.0, "name": "466f04f9e02d27455977c19693b6098c", "is_disabled": 0, "rental_uris": {"android": "https://dc.lft.to/lastmile_qr_scan", "ios": "https://dc.lft.to/lastmile_qr_scan"}, "fusion_lon": 0.0, "lat": 38.9112595, "bike_id": "466f04f9e02d27455977c19693b6098c", "type": "electric_scooter", "is_reserved": 0, "lon": -77.02096066666667}, {"fusion_lat": 0.0, "name": "c6d7f252706edfcd32cdd26fae66a639", "is_disabled": 0, "rental_uris": {"android": "https://dc.lft.to/lastmile_qr_scan", "ios": "https://dc.lft.to/lastmile_qr_scan"}, "fusion_lon": 0.0, "lat": 38.897351666666665, "bike_id": "c6d7f252706edfcd32cdd26fae66a639", "type": "electric_bike", "is_reserved": 0, "lon": -76.92047383333333}, {"fusion_lat": 0.0, "name": "48c7c11d35101c2e33c2ad60d252a139", "is_disabled": 0, "rental_uris": {"android": "https://dc.lft.to/lastmile_qr_scan", "ios": "https://dc.lft.to/lastmile_qr_scan"}, "fusion_lon": 0.0, "lat": 38.9699025, "bike_id": "48c7c11d35101c2e33c2ad60d252a139", "type": "electric_scooter", "is_reserved": 0, "lon": -77.01161033333334}, {"fusion_lat": 0.0, "name": "23c43f156324ae0a4f4878d810c04fba", "is_disabled": 0, "rental_uris": {"android": "https://dc.lft.to/lastmile_qr_scan", "ios": "https://dc.lft.to/lastmile_qr_scan"}, "fusion_lon": 0.0, "lat": 38.892235, "bike_id": "23c43f156324ae0a4f4878d810c04fba", "type": "electric_scooter", "is_reserved": 0, "lon": -77.03335416666667}, {"fusion_lat": 0.0, "name": "bf25d9497fa2018d20a72f6d14b7aacd", "is_disabled": 0, "rental_uris": {"android": "https://dc.lft.to/lastmile_qr_scan", "ios": "https://dc.lft.to/lastmile_qr_scan"}, "fusion_lon": 0.0, "lat": 38.911076333333334, "bike_id": "bf25d9497fa2018d20a72f6d14b7aacd", "type": "electric_scooter", "is_reserved": 0, "lon": -77.02901066666666}, {"fusion_lat": 0.0, "name": "5cd283c1a0e5780234d5ebdca99834f5", "is_disabled": 0, "rental_uris": {"android": "https://dc.lft.to/lastmile_qr_scan", "ios": "https://dc.lft.to/lastmile_qr_scan"}, "fusion_lon": 0.0, "lat": 38.91118, "bike_id": "5cd283c1a0e5780234d5ebdca99834f5", "type": "electric_scooter", "is_reserved": 0, "lon": -77.04465416666666}, {"fusion_lat": 0.0, "name": "bc3ba32cdf60b4c23dd9f37f4d014cb4", "is_disabled": 0, "rental_uris": {"android": "https://dc.lft.to/lastmile_qr_scan", "ios": "https://dc.lft.to/lastmile_qr_scan"}, "fusion_lon": 0.0, "lat": 38.88614716666667, "bike_id": "bc3ba32cdf60b4c23dd9f37f4d014cb4", "type": "electric_scooter", "is_reserved": 0, "lon": -77.01967766666667}, {"fusion_lat": 0.0, "name": "3da1f3ac55f6579aed4687ea65379d56", "is_disabled": 0, "rental_uris": {"android": "https://dc.lft.to/lastmile_qr_scan", "ios": "https://dc.lft.to/lastmile_qr_scan"}, "fusion_lon": 0.0, "lat": 38.92143433333333, "bike_id": "3da1f3ac55f6579aed4687ea65379d56", "type": "electric_scooter", "is_reserved": 0, "lon": -77.034312}, {"fusion_lat": 0.0, "name": "343f445f0002a21f8c762f032b0c10b7", "is_disabled": 0, "rental_uris": {"android": "https://dc.lft.to/lastmile_qr_scan", "ios": "https://dc.lft.to/lastmile_qr_scan"}, "fusion_lon": 0.0, "lat": 38.873844, "bike_id": "343f445f0002a21f8c762f032b0c10b7", "type": "electric_scooter", "is_reserved": 0, "lon": -77.000533}, {"fusion_lat": 0.0, "name": "64e2aa27888bfe1cdc253d901b9ea0a1", "is_disabled": 0, "rental_uris": {"android": "https://dc.lft.to/lastmile_qr_scan", "ios": "https://dc.lft.to/lastmile_qr_scan"}, "fusion_lon": 0.0, "lat": 38.917075, "bike_id": "64e2aa27888bfe1cdc253d901b9ea0a1", "type": "electric_scooter", "is_reserved": 0, "lon": -77.03078833333333}, {"fusion_lat": 0.0, "name": "055e5b175000c14842dbb8ffbf24f504", "is_disabled": 0, "rental_uris": {"android": "https://dc.lft.to/lastmile_qr_scan", "ios": "https://dc.lft.to/lastmile_qr_scan"}, "fusion_lon": 0.0, "lat": 38.918801, "bike_id": "055e5b175000c14842dbb8ffbf24f504", "type": "electric_bike", "is_reserved": 0, "lon": -76.965912}, {"fusion_lat": 0.0, "name": "3ee47e1063f94a31eee8ff5cd122f128", "is_disabled": 0, "rental_uris": {"android": "https://dc.lft.to/lastmile_qr_scan", "ios": "https://dc.lft.to/lastmile_qr_scan"}, "fusion_lon": 0.0, "lat": 38.931431333333336, "bike_id": "3ee47e1063f94a31eee8ff5cd122f128", "type": "electric_scooter", "is_reserved": 0, "lon": -77.02987416666667}, {"fusion_lat": 0.0, "name": "902f6cd2cf2519e63b62199c3a57f622", "is_disabled": 0, "rental_uris": {"android": "https://dc.lft.to/lastmile_qr_scan", "ios": "https://dc.lft.to/lastmile_qr_scan"}, "fusion_lon": 0.0, "lat": 38.874433, "bike_id": "902f6cd2cf2519e63b62199c3a57f622", "type": "electric_scooter", "is_reserved": 0, "lon": -77.01859483333334}, {"fusion_lat": 0.0, "name": "98efc1881d1259bccb2d13547b296cae", "is_disabled": 0, "rental_uris": {"android": "https://dc.lft.to/lastmile_qr_scan", "ios": "https://dc.lft.to/lastmile_qr_scan"}, "fusion_lon": 0.0, "lat": 38.91769266666667, "bike_id": "98efc1881d1259bccb2d13547b296cae", "type": "electric_scooter", "is_reserved": 0, "lon": -77.047706}, {"fusion_lat": 0.0, "name": "926dfe7d730934dd7f009b887c129d72", "is_disabled": 0, "rental_uris": {"android": "https://dc.lft.to/lastmile_qr_scan", "ios": "https://dc.lft.to/lastmile_qr_scan"}, "fusion_lon": 0.0, "lat": 38.8982045, "bike_id": "926dfe7d730934dd7f009b887c129d72", "type": "electric_scooter", "is_reserved": 0, "lon": -77.029598}, {"fusion_lat": 0.0, "name": "02d5dd6ae0deb63da5d0a948bd232447", "is_disabled": 0, "rental_uris": {"android": "https://dc.lft.to/lastmile_qr_scan", "ios": "https://dc.lft.to/lastmile_qr_scan"}, "fusion_lon": 0.0, "lat": 38.88744283333333, "bike_id": "02d5dd6ae0deb63da5d0a948bd232447", "type": "electric_scooter", "is_reserved": 0, "lon": -77.025708}, {"fusion_lat": 0.0, "name": "83f3e511ed498028b6876e9023e8e31e", "is_disabled": 0, "rental_uris": {"android": "https://dc.lft.to/lastmile_qr_scan", "ios": "https://dc.lft.to/lastmile_qr_scan"}, "fusion_lon": 0.0, "lat": 38.90133433333333, "bike_id": "83f3e511ed498028b6876e9023e8e31e", "type": "electric_scooter", "is_reserved": 0, "lon": -76.98648366666667}, {"fusion_lat": 0.0, "name": "d581b740b52e27811159f8011f190fa2", "is_disabled": 0, "rental_uris": {"android": "https://dc.lft.to/lastmile_qr_scan", "ios": "https://dc.lft.to/lastmile_qr_scan"}, "fusion_lon": 0.0, "lat": 38.873849666666665, "bike_id": "d581b740b52e27811159f8011f190fa2", "type": "electric_scooter", "is_reserved": 0, "lon": -77.00053116666666}, {"fusion_lat": 0.0, "name": "597641dccd8d2bbc8cb2d0393d9e3bfa", "is_disabled": 0, "rental_uris": {"android": "https://dc.lft.to/lastmile_qr_scan", "ios": "https://dc.lft.to/lastmile_qr_scan"}, "fusion_lon": 0.0, "lat": 38.978817166666666, "bike_id": "597641dccd8d2bbc8cb2d0393d9e3bfa", "type": "electric_bike", "is_reserved": 0, "lon": -77.06032816666666}, {"fusion_lat": 0.0, "name": "ca70e386c4e320a26b254d413e433373", "is_disabled": 0, "rental_uris": {"android": "https://dc.lft.to/lastmile_qr_scan", "ios": "https://dc.lft.to/lastmile_qr_scan"}, "fusion_lon": 0.0, "lat": 38.89918133333333, "bike_id": "ca70e386c4e320a26b254d413e433373", "type": "electric_scooter", "is_reserved": 0, "lon": -77.00376033333333}, {"fusion_lat": 0.0, "name": "913c49112075a55c82fa4c7ce7524a3a", "is_disabled": 0, "rental_uris": {"android": "https://dc.lft.to/lastmile_qr_scan", "ios": "https://dc.lft.to/lastmile_qr_scan"}, "fusion_lon": 0.0, "lat": 38.93658166666667, "bike_id": "913c49112075a55c82fa4c7ce7524a3a", "type": "electric_scooter", "is_reserved": 0, "lon": -77.05499916666666}, {"fusion_lat": 0.0, "name": "e9034b4f006ea55cc37758aeb10b54b3", "is_disabled": 0, "rental_uris": {"android": "https://dc.lft.to/lastmile_qr_scan", "ios": "https://dc.lft.to/lastmile_qr_scan"}, "fusion_lon": 0.0, "lat": 38.910233833333336, "bike_id": "e9034b4f006ea55cc37758aeb10b54b3", "type": "electric_scooter", "is_reserved": 0, "lon": -77.04477566666667}, {"fusion_lat": 0.0, "name": "845c72f4a363e570f6c88c29aeaa1341", "is_disabled": 0, "rental_uris": {"android": "https://dc.lft.to/lastmile_qr_scan", "ios": "https://dc.lft.to/lastmile_qr_scan"}, "fusion_lon": 0.0, "lat": 38.8393475, "bike_id": "845c72f4a363e570f6c88c29aeaa1341", "type": "electric_bike", "is_reserved": 0, "lon": -77.0790015}, {"fusion_lat": 0.0, "name": "7108f9c0c716d978efc059be8d53c41a", "is_disabled": 0, "rental_uris": {"android": "https://dc.lft.to/lastmile_qr_scan", "ios": "https://dc.lft.to/lastmile_qr_scan"}, "fusion_lon": 0.0, "lat": 38.90375816666667, "bike_id": "7108f9c0c716d978efc059be8d53c41a", "type": "electric_scooter", "is_reserved": 0, "lon": -76.9956495}, {"fusion_lat": 0.0, "name": "0df8276ba61940c2f15b3d2c209c3b73", "is_disabled": 0, "rental_uris": {"android": "https://dc.lft.to/lastmile_qr_scan", "ios": "https://dc.lft.to/lastmile_qr_scan"}, "fusion_lon": 0.0, "lat": 38.924989333333336, "bike_id": "0df8276ba61940c2f15b3d2c209c3b73", "type": "electric_scooter", "is_reserved": 0, "lon": -77.051058}, {"fusion_lat": 0.0, "name": "79c5b3733ab913e8f203974418949582", "is_disabled": 0, "rental_uris": {"android": "https://dc.lft.to/lastmile_qr_scan", "ios": "https://dc.lft.to/lastmile_qr_scan"}, "fusion_lon": 0.0, "lat": 38.915622666666664, "bike_id": "79c5b3733ab913e8f203974418949582", "type": "electric_scooter", "is_reserved": 0, "lon": -77.0315275}, {"fusion_lat": 0.0, "name": "f2c157d1893e9b8bbe36b1cba45c7b57", "is_disabled": 0, "rental_uris": {"android": "https://dc.lft.to/lastmile_qr_scan", "ios": "https://dc.lft.to/lastmile_qr_scan"}, "fusion_lon": 0.0, "lat": 38.938194833333334, "bike_id": "f2c157d1893e9b8bbe36b1cba45c7b57", "type": "electric_scooter", "is_reserved": 0, "lon": -77.0601235}, {"fusion_lat": 0.0, "name": "ac97db03d6d188b66f9278a40747d2d3", "is_disabled": 0, "rental_uris": {"android": "https://dc.lft.to/lastmile_qr_scan", "ios": "https://dc.lft.to/lastmile_qr_scan"}, "fusion_lon": 0.0, "lat": 38.919363, "bike_id": "ac97db03d6d188b66f9278a40747d2d3", "type": "electric_scooter", "is_reserved": 0, "lon": -77.02506833333334}, {"fusion_lat": 0.0, "name": "8c88e5818aa84c22fea0469e1b64739f", "is_disabled": 0, "rental_uris": {"android": "https://dc.lft.to/lastmile_qr_scan", "ios": "https://dc.lft.to/lastmile_qr_scan"}, "fusion_lon": 0.0, "lat": 38.9077495, "bike_id": "8c88e5818aa84c22fea0469e1b64739f", "type": "electric_scooter", "is_reserved": 0, "lon": -77.03859683333333}, {"fusion_lat": 0.0, "name": "8ad4afe4dd95ace5b6c8ccfdd10ad6cd", "is_disabled": 0, "rental_uris": {"android": "https://dc.lft.to/lastmile_qr_scan", "ios": "https://dc.lft.to/lastmile_qr_scan"}, "fusion_lon": 0.0, "lat": 38.93393416666667, "bike_id": "8ad4afe4dd95ace5b6c8ccfdd10ad6cd", "type": "electric_scooter", "is_reserved": 0, "lon": -77.05772516666667}, {"fusion_lat": 0.0, "name": "9186646ffd93747d0c2789a4a5770de3", "is_disabled": 0, "rental_uris": {"android": "https://dc.lft.to/lastmile_qr_scan", "ios": "https://dc.lft.to/lastmile_qr_scan"}, "fusion_lon": 0.0, "lat": 38.86516566666667, "bike_id": "9186646ffd93747d0c2789a4a5770de3", "type": "electric_bike", "is_reserved": 0, "lon": -77.12937116666667}, {"fusion_lat": 0.0, "name": "0aced47aff11837712c1d220201fda8a", "is_disabled": 0, "rental_uris": {"android": "https://dc.lft.to/lastmile_qr_scan", "ios": "https://dc.lft.to/lastmile_qr_scan"}, "fusion_lon": 0.0, "lat": 38.928749833333335, "bike_id": "0aced47aff11837712c1d220201fda8a", "type": "electric_scooter", "is_reserved": 0, "lon": -77.03215033333333}, {"fusion_lat": 0.0, "name": "9a49ef43dbbfd77bef79d530a9d05eb6", "is_disabled": 0, "rental_uris": {"android": "https://dc.lft.to/lastmile_qr_scan", "ios": "https://dc.lft.to/lastmile_qr_scan"}, "fusion_lon": 0.0, "lat": 38.89222016666667, "bike_id": "9a49ef43dbbfd77bef79d530a9d05eb6", "type": "electric_scooter", "is_reserved": 0, "lon": -77.041214}, {"fusion_lat": 0.0, "name": "f737c39158e8730ccca4965660327de9", "is_disabled": 0, "rental_uris": {"android": "https://dc.lft.to/lastmile_qr_scan", "ios": "https://dc.lft.to/lastmile_qr_scan"}, "fusion_lon": 0.0, "lat": 38.90215516666667, "bike_id": "f737c39158e8730ccca4965660327de9", "type": "electric_scooter", "is_reserved": 0, "lon": -76.99505733333334}, {"fusion_lat": 0.0, "name": "f316e03e8ab403c9d3a1a950326fa436", "is_disabled": 0, "rental_uris": {"android": "https://dc.lft.to/lastmile_qr_scan", "ios": "https://dc.lft.to/lastmile_qr_scan"}, "fusion_lon": 0.0, "lat": 38.89965016666667, "bike_id": "f316e03e8ab403c9d3a1a950326fa436", "type": "electric_scooter", "is_reserved": 0, "lon": -76.9816415}, {"fusion_lat": 0.0, "name": "000da059936c10de39870c77e3065b9e", "is_disabled": 0, "rental_uris": {"android": "https://dc.lft.to/lastmile_qr_scan", "ios": "https://dc.lft.to/lastmile_qr_scan"}, "fusion_lon": 0.0, "lat": 38.897539333333334, "bike_id": "000da059936c10de39870c77e3065b9e", "type": "electric_scooter", "is_reserved": 0, "lon": -77.023808}, {"fusion_lat": 0.0, "name": "c9da4ff7cf758be680f8494260e61dc6", "is_disabled": 0, "rental_uris": {"android": "https://dc.lft.to/lastmile_qr_scan", "ios": "https://dc.lft.to/lastmile_qr_scan"}, "fusion_lon": 0.0, "lat": 38.938819, "bike_id": "c9da4ff7cf758be680f8494260e61dc6", "type": "electric_scooter", "is_reserved": 0, "lon": -77.03284216666667}, {"fusion_lat": 0.0, "name": "7f6b181d7fc38e34bc5d07be50a74e4e", "is_disabled": 0, "rental_uris": {"android": "https://dc.lft.to/lastmile_qr_scan", "ios": "https://dc.lft.to/lastmile_qr_scan"}, "fusion_lon": 0.0, "lat": 38.91730716666667, "bike_id": "7f6b181d7fc38e34bc5d07be50a74e4e", "type": "electric_scooter", "is_reserved": 0, "lon": -77.041771}, {"fusion_lat": 0.0, "name": "26746124b163aad0cd6a863dee4929ca", "is_disabled": 0, "rental_uris": {"android": "https://dc.lft.to/lastmile_qr_scan", "ios": "https://dc.lft.to/lastmile_qr_scan"}, "fusion_lon": 0.0, "lat": 38.909540666666665, "bike_id": "26746124b163aad0cd6a863dee4929ca", "type": "electric_scooter", "is_reserved": 0, "lon": -76.98538383333333}, {"fusion_lat": 0.0, "name": "05f538ddccceeaeaad23043f5e2da119", "is_disabled": 0, "rental_uris": {"android": "https://dc.lft.to/lastmile_qr_scan", "ios": "https://dc.lft.to/lastmile_qr_scan"}, "fusion_lon": 0.0, "lat": 38.902443, "bike_id": "05f538ddccceeaeaad23043f5e2da119", "type": "electric_scooter", "is_reserved": 0, "lon": -77.034758}, {"fusion_lat": 0.0, "name": "aa8e062ca4ef17edd61e03e9ae4712ba", "is_disabled": 0, "rental_uris": {"android": "https://dc.lft.to/lastmile_qr_scan", "ios": "https://dc.lft.to/lastmile_qr_scan"}, "fusion_lon": 0.0, "lat": 38.95294333333333, "bike_id": "aa8e062ca4ef17edd61e03e9ae4712ba", "type": "electric_bike", "is_reserved": 0, "lon": -76.9999005}, {"fusion_lat": 0.0, "name": "62a75b4982a91da751dd8e7f61e16a08", "is_disabled": 0, "rental_uris": {"android": "https://dc.lft.to/lastmile_qr_scan", "ios": "https://dc.lft.to/lastmile_qr_scan"}, "fusion_lon": 0.0, "lat": 38.89224466666667, "bike_id": "62a75b4982a91da751dd8e7f61e16a08", "type": "electric_scooter", "is_reserved": 0, "lon": -77.04501383333333}, {"fusion_lat": 0.0, "name": "85a4d6140020ba5d97d3eb5c1272c327", "is_disabled": 0, "rental_uris": {"android": "https://dc.lft.to/lastmile_qr_scan", "ios": "https://dc.lft.to/lastmile_qr_scan"}, "fusion_lon": 0.0, "lat": 38.906217, "bike_id": "85a4d6140020ba5d97d3eb5c1272c327", "type": "electric_scooter", "is_reserved": 0, "lon": -77.00592}, {"fusion_lat": 0.0, "name": "3cebd1366493d152e6c72e861584fab2", "is_disabled": 0, "rental_uris": {"android": "https://dc.lft.to/lastmile_qr_scan", "ios": "https://dc.lft.to/lastmile_qr_scan"}, "fusion_lon": 0.0, "lat": 38.92389383333333, "bike_id": "3cebd1366493d152e6c72e861584fab2", "type": "electric_scooter", "is_reserved": 0, "lon": -77.04300966666666}, {"fusion_lat": 0.0, "name": "0cebbc1d342d5671fae456a1cd05833c", "is_disabled": 0, "rental_uris": {"android": "https://dc.lft.to/lastmile_qr_scan", "ios": "https://dc.lft.to/lastmile_qr_scan"}, "fusion_lon": 0.0, "lat": 38.84129566666667, "bike_id": "0cebbc1d342d5671fae456a1cd05833c", "type": "electric_bike", "is_reserved": 0, "lon": -77.06306783333333}, {"fusion_lat": 0.0, "name": "36e90d97f9b1309e42940eaecbb3c95d", "is_disabled": 0, "rental_uris": {"android": "https://dc.lft.to/lastmile_qr_scan", "ios": "https://dc.lft.to/lastmile_qr_scan"}, "fusion_lon": 0.0, "lat": 38.903163666666664, "bike_id": "36e90d97f9b1309e42940eaecbb3c95d", "type": "electric_scooter", "is_reserved": 0, "lon": -77.04502666666667}, {"fusion_lat": 0.0, "name": "966239e051048ba72049118d2bb10d2f", "is_disabled": 0, "rental_uris": {"android": "https://dc.lft.to/lastmile_qr_scan", "ios": "https://dc.lft.to/lastmile_qr_scan"}, "fusion_lon": 0.0, "lat": 38.8949285, "bike_id": "966239e051048ba72049118d2bb10d2f", "type": "electric_scooter", "is_reserved": 0, "lon": -77.00251016666667}, {"fusion_lat": 0.0, "name": "e6b789738e55b0f872d24dbb3fde283f", "is_disabled": 0, "rental_uris": {"android": "https://dc.lft.to/lastmile_qr_scan", "ios": "https://dc.lft.to/lastmile_qr_scan"}, "fusion_lon": 0.0, "lat": 38.94290983333333, "bike_id": "e6b789738e55b0f872d24dbb3fde283f", "type": "electric_scooter", "is_reserved": 0, "lon": -77.0217385}, {"fusion_lat": 0.0, "name": "b8cc7da12b72003b353dbf15c18a6454", "is_disabled": 0, "rental_uris": {"android": "https://dc.lft.to/lastmile_qr_scan", "ios": "https://dc.lft.to/lastmile_qr_scan"}, "fusion_lon": 0.0, "lat": 38.897193666666666, "bike_id": "b8cc7da12b72003b353dbf15c18a6454", "type": "electric_scooter", "is_reserved": 0, "lon": -77.003414}, {"fusion_lat": 0.0, "name": "4388b46f08f7a17f9e33f621a2025654", "is_disabled": 0, "rental_uris": {"android": "https://dc.lft.to/lastmile_qr_scan", "ios": "https://dc.lft.to/lastmile_qr_scan"}, "fusion_lon": 0.0, "lat": 38.9339925, "bike_id": "4388b46f08f7a17f9e33f621a2025654", "type": "electric_scooter", "is_reserved": 0, "lon": -77.02840266666666}, {"fusion_lat": 0.0, "name": "6947a1387d6c35a126503a3758df9706", "is_disabled": 0, "rental_uris": {"android": "https://dc.lft.to/lastmile_qr_scan", "ios": "https://dc.lft.to/lastmile_qr_scan"}, "fusion_lon": 0.0, "lat": 38.888765, "bike_id": "6947a1387d6c35a126503a3758df9706", "type": "electric_scooter", "is_reserved": 0, "lon": -76.9845405}, {"fusion_lat": 0.0, "name": "293041e303e00c18efe497f1e3ec815e", "is_disabled": 0, "rental_uris": {"android": "https://dc.lft.to/lastmile_qr_scan", "ios": "https://dc.lft.to/lastmile_qr_scan"}, "fusion_lon": 0.0, "lat": 38.919714, "bike_id": "293041e303e00c18efe497f1e3ec815e", "type": "electric_scooter", "is_reserved": 0, "lon": -77.00108233333333}, {"fusion_lat": 0.0, "name": "a3bda2161504279bbef91bc5a822e9a0", "is_disabled": 0, "rental_uris": {"android": "https://dc.lft.to/lastmile_qr_scan", "ios": "https://dc.lft.to/lastmile_qr_scan"}, "fusion_lon": 0.0, "lat": 38.90182383333333, "bike_id": "a3bda2161504279bbef91bc5a822e9a0", "type": "electric_scooter", "is_reserved": 0, "lon": -76.928931}, {"fusion_lat": 0.0, "name": "ce06babb7649d1d3719a7616188008aa", "is_disabled": 0, "rental_uris": {"android": "https://dc.lft.to/lastmile_qr_scan", "ios": "https://dc.lft.to/lastmile_qr_scan"}, "fusion_lon": 0.0, "lat": 38.886482666666666, "bike_id": "ce06babb7649d1d3719a7616188008aa", "type": "electric_scooter", "is_reserved": 0, "lon": -76.9259265}, {"fusion_lat": 0.0, "name": "02e34b37430b62f5694749be2e1ab7b8", "is_disabled": 0, "rental_uris": {"android": "https://dc.lft.to/lastmile_qr_scan", "ios": "https://dc.lft.to/lastmile_qr_scan"}, "fusion_lon": 0.0, "lat": 38.9072395, "bike_id": "02e34b37430b62f5694749be2e1ab7b8", "type": "electric_scooter", "is_reserved": 0, "lon": -77.02541783333334}, {"fusion_lat": 0.0, "name": "77c3ff834529bf3ec66b573f95c26a23", "is_disabled": 0, "rental_uris": {"android": "https://dc.lft.to/lastmile_qr_scan", "ios": "https://dc.lft.to/lastmile_qr_scan"}, "fusion_lon": 0.0, "lat": 38.92046233333333, "bike_id": "77c3ff834529bf3ec66b573f95c26a23", "type": "electric_scooter", "is_reserved": 0, "lon": -77.00205683333333}, {"fusion_lat": 0.0, "name": "ebcbaf1385842258c35794f3c91fb040", "is_disabled": 0, "rental_uris": {"android": "https://dc.lft.to/lastmile_qr_scan", "ios": "https://dc.lft.to/lastmile_qr_scan"}, "fusion_lon": 0.0, "lat": 38.89220483333333, "bike_id": "ebcbaf1385842258c35794f3c91fb040", "type": "electric_scooter", "is_reserved": 0, "lon": -77.0398985}, {"fusion_lat": 0.0, "name": "afff0a4ea58ae144046ebb78c1a994f6", "is_disabled": 0, "rental_uris": {"android": "https://dc.lft.to/lastmile_qr_scan", "ios": "https://dc.lft.to/lastmile_qr_scan"}, "fusion_lon": 0.0, "lat": 38.92827783333333, "bike_id": "afff0a4ea58ae144046ebb78c1a994f6", "type": "electric_scooter", "is_reserved": 0, "lon": -77.05438683333334}, {"fusion_lat": 0.0, "name": "ee1c2d4e93489d91d90bc8c28f050fb0", "is_disabled": 0, "rental_uris": {"android": "https://dc.lft.to/lastmile_qr_scan", "ios": "https://dc.lft.to/lastmile_qr_scan"}, "fusion_lon": 0.0, "lat": 38.905648666666664, "bike_id": "ee1c2d4e93489d91d90bc8c28f050fb0", "type": "electric_scooter", "is_reserved": 0, "lon": -77.03059466666667}, {"fusion_lat": 0.0, "name": "70e20447881e52aa1a1789ce1536f2b7", "is_disabled": 0, "rental_uris": {"android": "https://dc.lft.to/lastmile_qr_scan", "ios": "https://dc.lft.to/lastmile_qr_scan"}, "fusion_lon": 0.0, "lat": 38.946234833333335, "bike_id": "70e20447881e52aa1a1789ce1536f2b7", "type": "electric_scooter", "is_reserved": 0, "lon": -77.0327915}, {"fusion_lat": 0.0, "name": "680bb7acdf2509d69a47ee9bb3173e5c", "is_disabled": 0, "rental_uris": {"android": "https://dc.lft.to/lastmile_qr_scan", "ios": "https://dc.lft.to/lastmile_qr_scan"}, "fusion_lon": 0.0, "lat": 38.903145, "bike_id": "680bb7acdf2509d69a47ee9bb3173e5c", "type": "electric_scooter", "is_reserved": 0, "lon": -76.97800166666667}, {"fusion_lat": 0.0, "name": "9bb105cb96fa42a8d4f5e67638eef9f7", "is_disabled": 0, "rental_uris": {"android": "https://dc.lft.to/lastmile_qr_scan", "ios": "https://dc.lft.to/lastmile_qr_scan"}, "fusion_lon": 0.0, "lat": 38.8551235, "bike_id": "9bb105cb96fa42a8d4f5e67638eef9f7", "type": "electric_bike", "is_reserved": 0, "lon": -77.1054025}, {"fusion_lat": 0.0, "name": "3dfaf2bc5e9566bfd691463aaa7b5091", "is_disabled": 0, "rental_uris": {"android": "https://dc.lft.to/lastmile_qr_scan", "ios": "https://dc.lft.to/lastmile_qr_scan"}, "fusion_lon": 0.0, "lat": 38.88357883333333, "bike_id": "3dfaf2bc5e9566bfd691463aaa7b5091", "type": "electric_scooter", "is_reserved": 0, "lon": -76.994988}, {"fusion_lat": 0.0, "name": "8ecebe5ea59a3f613dbb9dbc934b8bef", "is_disabled": 0, "rental_uris": {"android": "https://dc.lft.to/lastmile_qr_scan", "ios": "https://dc.lft.to/lastmile_qr_scan"}, "fusion_lon": 0.0, "lat": 38.8771465, "bike_id": "8ecebe5ea59a3f613dbb9dbc934b8bef", "type": "electric_scooter", "is_reserved": 0, "lon": -77.0175985}, {"fusion_lat": 0.0, "name": "8f38816894fe48c6efc6765a52cf2028", "is_disabled": 0, "rental_uris": {"android": "https://dc.lft.to/lastmile_qr_scan", "ios": "https://dc.lft.to/lastmile_qr_scan"}, "fusion_lon": 0.0, "lat": 38.92608083333333, "bike_id": "8f38816894fe48c6efc6765a52cf2028", "type": "electric_scooter", "is_reserved": 0, "lon": -77.0396}, {"fusion_lat": 0.0, "name": "c0e36739a8b0c0c12c032401efea17c4", "is_disabled": 0, "rental_uris": {"android": "https://dc.lft.to/lastmile_qr_scan", "ios": "https://dc.lft.to/lastmile_qr_scan"}, "fusion_lon": 0.0, "lat": 38.9084195, "bike_id": "c0e36739a8b0c0c12c032401efea17c4", "type": "electric_scooter", "is_reserved": 0, "lon": -77.03863633333333}, {"fusion_lat": 0.0, "name": "7d2ce3fccef6a4aa7a3e0b3da47d94ac", "is_disabled": 0, "rental_uris": {"android": "https://dc.lft.to/lastmile_qr_scan", "ios": "https://dc.lft.to/lastmile_qr_scan"}, "fusion_lon": 0.0, "lat": 38.921043, "bike_id": "7d2ce3fccef6a4aa7a3e0b3da47d94ac", "type": "electric_scooter", "is_reserved": 0, "lon": -77.074785}, {"fusion_lat": 0.0, "name": "8ed50186d382a3418958d4607ef61f3f", "is_disabled": 0, "rental_uris": {"android": "https://dc.lft.to/lastmile_qr_scan", "ios": "https://dc.lft.to/lastmile_qr_scan"}, "fusion_lon": 0.0, "lat": 38.873751666666664, "bike_id": "8ed50186d382a3418958d4607ef61f3f", "type": "electric_scooter", "is_reserved": 0, "lon": -77.00090266666666}, {"fusion_lat": 0.0, "name": "e35d115267bdf5b49272c605a0cf4e22", "is_disabled": 0, "rental_uris": {"android": "https://dc.lft.to/lastmile_qr_scan", "ios": "https://dc.lft.to/lastmile_qr_scan"}, "fusion_lon": 0.0, "lat": 38.86654333333333, "bike_id": "e35d115267bdf5b49272c605a0cf4e22", "type": "electric_scooter", "is_reserved": 0, "lon": -76.98529133333334}, {"fusion_lat": 0.0, "name": "376c36c7f172d533f003284cb2e4f401", "is_disabled": 0, "rental_uris": {"android": "https://dc.lft.to/lastmile_qr_scan", "ios": "https://dc.lft.to/lastmile_qr_scan"},