{"data": {"bikes": [{"rental_uris": {"android": "https://dc.lft.to/lastmile_qr_scan", "ios": "https://dc.lft.to/lastmile_qr_scan"}, "is_reserved": 0, "is_disabled": 0, "name": "2f856238f7528c6007da01b7730f8163", "bike_id": "2f856238f7528c6007da01b7730f8163", "fusion_lat": 0.0, "lon": -77.033184, "type": "electric_scooter", "fusion_lon": 0.0, "lat": 38.9002195}, {"rental_uris": {"android": "https://dc.lft.to/lastmile_qr_scan", "ios": "https://dc.lft.to/lastmile_qr_scan"}, "is_reserved": 0, "is_disabled": 0, "name": "4755333f68a718af08422660b38a155b", "bike_id": "4755333f68a718af08422660b38a155b", "fusion_lat": 0.0, "lon": -77.02810533333333, "type": "electric_scooter", "fusion_lon": 0.0, "lat": 38.899404833333335}, {"rental_uris": {"android": "https://dc.lft.to/lastmile_qr_scan", "ios": "https://dc.lft.to/lastmile_qr_scan"}, "is_reserved": 0, "is_disabled": 0, "name": "70e4d14346c212242f4c2b829777e566", "bike_id": "70e4d14346c212242f4c2b829777e566", "fusion_lat": 0.0, "lon": -77.02802116666666, "type": "electric_scooter", "fusion_lon": 0.0, "lat": 38.898115833333335}, {"rental_uris": {"android": "https://dc.lft.to/lastmile_qr_scan", "ios": "https://dc.lft.to/lastmile_qr_scan"}, "is_reserved": 0, "is_disabled": 0, "name": "2b7a2e03620d31a6f30b76d6e660e223", "bike_id": "2b7a2e03620d31a6f30b76d6e660e223", "fusion_lat": 0.0, "lon": -77.02375683333334, "type": "electric_scooter", "fusion_lon": 0.0, "lat": 38.902182}, {"rental_uris": {"android": "https://dc.lft.to/lastmile_qr_scan", "ios": "https://dc.lft.to/lastmile_qr_scan"}, "is_reserved": 0, "is_disabled": 0, "name": "83aa932b2c9662e483e63775e6a60289", "bike_id": "83aa932b2c9662e483e63775e6a60289", "fusion_lat": 0.0, "lon": -76.96324433333334, "type": "electric_bike", "fusion_lon": 0.0, "lat": 38.93895166666667}, {"rental_uris": {"android": "https://dc.lft.to/lastmile_qr_scan", "ios": "https://dc.lft.to/lastmile_qr_scan"}, "is_reserved": 0, "is_disabled": 0, "name": "7c32a5caf5b41d20f5ed094f9155384a", "bike_id": "7c32a5caf5b41d20f5ed094f9155384a", "fusion_lat": 0.0, "lon": -77.01941416666666, "type": "electric_scooter", "fusion_lon": 0.0, "lat": 38.92413233333333}, {"rental_uris": {"android": "https://dc.lft.to/lastmile_qr_scan", "ios": "https://dc.lft.to/lastmile_qr_scan"}, "is_reserved": 0, "is_disabled": 0, "name": "7208084d8d42fe4aa593cc3ddf4f9758", "bike_id": "7208084d8d42fe4aa593cc3ddf4f9758", "fusion_lat": 0.0, "lon": -77.02759683333333, "type": "electric_scooter", "fusion_lon": 0.0, "lat": 38.96642883333333}, {"rental_uris": {"android": "https://dc.lft.to/lastmile_qr_scan", "ios": "https://dc.lft.to/lastmile_qr_scan"}, "is_reserved": 0, "is_disabled": 0, "name": "dd83f188868a02721180451823d72598", "bike_id": "dd83f188868a02721180451823d72598", "fusion_lat": 0.0, "lon": -77.003842, "type": "electric_bike", "fusion_lon": 0.0, "lat": 38.836029}, {"rental_uris": {"android": "https://dc.lft.to/lastmile_qr_scan", "ios": "https://dc.lft.to/lastmile_qr_scan"}, "is_reserved": 0, "is_disabled": 0, "name": "7d05f8c7ed3bbe860bc5e2c6cc7961f5", "bike_id": "7d05f8c7ed3bbe860bc5e2c6cc7961f5", "fusion_lat": 0.0, "lon": -76.98099416666666, "type": "electric_scooter", "fusion_lon": 0.0, "lat": 38.9039365}, {"rental_uris": {"android": "https://dc.lft.to/lastmile_qr_scan", "ios": "https://dc.lft.to/lastmile_qr_scan"}, "is_reserved": 0, "is_disabled": 0, "name": "2ab80f7b472f1f4be49e23cf439e8ba3", "bike_id": "2ab80f7b472f1f4be49e23cf439e8ba3", "fusion_lat": 0.0, "lon": -77.032319, "type": "electric_scooter", "fusion_lon": 0.0, "lat": 38.919814833333334}, {"rental_uris": {"android": "https://dc.lft.to/lastmile_qr_scan", "ios": "https://dc.lft.to/lastmile_qr_scan"}, "is_reserved": 0, "is_disabled": 0, "name": "2c3cf5b2c13fa4b7b48b75c842ffc89f", "bike_id": "2c3cf5b2c13fa4b7b48b75c842ffc89f", "fusion_lat": 0.0, "lon": -77.03431316666666, "type": "electric_scooter", "fusion_lon": 0.0, "lat": 38.91923033333333}, {"rental_uris": {"android": "https://dc.lft.to/lastmile_qr_scan", "ios": "https://dc.lft.to/lastmile_qr_scan"}, "is_reserved": 0, "is_disabled": 0, "name": "48fc82b197e6c54377b97dc9bf9afcdc", "bike_id": "48fc82b197e6c54377b97dc9bf9afcdc", "fusion_lat": 0.0, "lon": -77.01857033333333, "type": "electric_scooter", "fusion_lon": 0.0, "lat": 38.94918066666666}, {"rental_uris": {"android": "https://dc.lft.to/lastmile_qr_scan", "ios": "https://dc.lft.to/lastmile_qr_scan"}, "is_reserved": 0, "is_disabled": 0, "name": "5b0e49bf5fd7d94579a4541618bc7c81", "bike_id": "5b0e49bf5fd7d94579a4541618bc7c81", "fusion_lat": 0.0, "lon": -77.02456, "type": "electric_scooter", "fusion_lon": 0.0, "lat": 38.899933833333336}, {"rental_uris": {"android": "https://dc.lft.to/lastmile_qr_scan", "ios": "https://dc.lft.to/lastmile_qr_scan"}, "is_reserved": 0, "is_disabled": 0, "name": "e50b5c945bae973118520a03c45a9047", "bike_id": "e50b5c945bae973118520a03c45a9047", "fusion_lat": 0.0, "lon": -77.03275183333334, "type": "electric_scooter", "fusion_lon": 0.0, "lat": 38.8988955}, {"rental_uris": {"android": "https://dc.lft.to/lastmile_qr_scan", "ios": "https://dc.lft.to/lastmile_qr_scan"}, "is_reserved": 0, "is_disabled": 0, "name": "381611cc8c27bb52900da1a4de2287aa", "bike_id": "381611cc8c27bb52900da1a4de2287aa", "fusion_lat": 0.0, "lon": -77.03587983333334, "type": "electric_bike", "fusion_lon": 0.0, "lat": 38.992216166666665}, {"rental_uris": {"android": "https://dc.lft.to/lastmile_qr_scan", "ios": "https://dc.lft.to/lastmile_qr_scan"}, "is_reserved": 0, "is_disabled": 0, "name": "b7aca9d92347d693628cfe6cb0324993", "bike_id": "b7aca9d92347d693628cfe6cb0324993", "fusion_lat": 0.0, "lon": -77.00280383333333, "type": "electric_bike", "fusion_lon": 0.0, "lat": 38.838164666666664}, {"rental_uris": {"android": "https://dc.lft.to/lastmile_qr_scan", "ios": "https://dc.lft.to/lastmile_qr_scan"}, "is_reserved": 0, "is_disabled": 0, "name": "128b0178425ff3674371c3d074317b05", "bike_id": "128b0178425ff3674371c3d074317b05", "fusion_lat": 0.0, "lon": -77.04343966666667, "type": "electric_scooter", "fusion_lon": 0.0, "lat": 38.89824083333333}, {"rental_uris": {"android": "https://dc.lft.to/lastmile_qr_scan", "ios": "https://dc.lft.to/lastmile_qr_scan"}, "is_reserved": 0, "is_disabled": 0, "name": "4e9b036526ea61b01daf3cb6c5c61108", "bike_id": "4e9b036526ea61b01daf3cb6c5c61108", "fusion_lat": 0.0, "lon": -77.02961716666667, "type": "electric_scooter", "fusion_lon": 0.0, "lat": 38.8962075}, {"rental_uris": {"android": "https://dc.lft.to/lastmile_qr_scan", "ios": "https://dc.lft.to/lastmile_qr_scan"}, "is_reserved": 0, "is_disabled": 0, "name": "3debc81699a40ac4f398f5e9a78c1f27", "bike_id": "3debc81699a40ac4f398f5e9a78c1f27", "fusion_lat": 0.0, "lon": -77.02175316666667, "type": "electric_scooter", "fusion_lon": 0.0, "lat": 38.9017935}, {"rental_uris": {"android": "https://dc.lft.to/lastmile_qr_scan", "ios": "https://dc.lft.to/lastmile_qr_scan"}, "is_reserved": 0, "is_disabled": 0, "name": "cc26ef5442396d15d4b0405183644d10", "bike_id": "cc26ef5442396d15d4b0405183644d10", "fusion_lat": 0.0, "lon": -77.03136533333333, "type": "electric_scooter", "fusion_lon": 0.0, "lat": 38.919040333333335}, {"rental_uris": {"android": "https://dc.lft.to/lastmile_qr_scan", "ios": "https://dc.lft.to/lastmile_qr_scan"}, "is_reserved": 0, "is_disabled": 0, "name": "a69091adbb996bf434972bb1a1da4304", "bike_id": "a69091adbb996bf434972bb1a1da4304", "fusion_lat": 0.0, "lon": -77.01917883333333, "type": "electric_scooter", "fusion_lon": 0.0, "lat": 38.92369883333333}, {"rental_uris": {"android": "https://dc.lft.to/lastmile_qr_scan", "ios": "https://dc.lft.to/lastmile_qr_scan"}, "is_reserved": 0, "is_disabled": 0, "name": "6c4de2f01d9f7a04cf6b6eace8c39ab1", "bike_id": "6c4de2f01d9f7a04cf6b6eace8c39ab1", "fusion_lat": 0.0, "lon": -77.050455, "type": "electric_scooter", "fusion_lon": 0.0, "lat": 38.92355466666667}, {"rental_uris": {"android": "https://dc.lft.to/lastmile_qr_scan", "ios": "https://dc.lft.to/lastmile_qr_scan"}, "is_reserved": 0, "is_disabled": 0, "name": "3855ee9fccea5156e0089824333686ce", "bike_id": "3855ee9fccea5156e0089824333686ce", "fusion_lat": 0.0, "lon": -77.01777866666667, "type": "electric_scooter", "fusion_lon": 0.0, "lat": 38.90036833333333}, {"rental_uris": {"android": "https://dc.lft.to/lastmile_qr_scan", "ios": "https://dc.lft.to/lastmile_qr_scan"}, "is_reserved": 0, "is_disabled": 0, "name": "39d1355f1111972cbe167e9aaa9a13b3", "bike_id": "39d1355f1111972cbe167e9aaa9a13b3", "fusion_lat": 0.0, "lon": -77.02412766666667, "type": "electric_scooter", "fusion_lon": 0.0, "lat": 38.90188583333333}, {"rental_uris": {"android": "https://dc.lft.to/lastmile_qr_scan", "ios": "https://dc.lft.to/lastmile_qr_scan"}, "is_reserved": 0, "is_disabled": 0, "name": "3f23b30356ed01e3cffa545d06dc29f6", "bike_id": "3f23b30356ed01e3cffa545d06dc29f6", "fusion_lat": 0.0, "lon": -77.0408495, "type": "electric_bike", "fusion_lon": 0.0, "lat": 38.83061}, {"rental_uris": {"android": "https://dc.lft.to/lastmile_qr_scan", "ios": "https://dc.lft.to/lastmile_qr_scan"}, "is_reserved": 0, "is_disabled": 0, "name": "12726e2781ca29da10f563412ef4bd47", "bike_id": "12726e2781ca29da10f563412ef4bd47", "fusion_lat": 0.0, "lon": -77.02475216666667, "type": "electric_scooter", "fusion_lon": 0.0, "lat": 38.901622}, {"rental_uris": {"android": "https://dc.lft.to/lastmile_qr_scan", "ios": "https://dc.lft.to/lastmile_qr_scan"}, "is_reserved": 0, "is_disabled": 0, "name": "74e4dae40381fc998c4ab66bda67e836", "bike_id": "74e4dae40381fc998c4ab66bda67e836", "fusion_lat": 0.0, "lon": -77.02176033333333, "type": "electric_scooter", "fusion_lon": 0.0, "lat": 38.89744483333333}, {"rental_uris": {"android": "https://dc.lft.to/lastmile_qr_scan", "ios": "https://dc.lft.to/lastmile_qr_scan"}, "is_reserved": 0, "is_disabled": 0, "name": "f5f11848ffae1f3c3c234e0753f1cfe8", "bike_id": "f5f11848ffae1f3c3c234e0753f1cfe8", "fusion_lat": 0.0, "lon": -77.03467733333333, "type": "electric_scooter", "fusion_lon": 0.0, "lat": 38.902746}, {"rental_uris": {"android": "https://dc.lft.to/lastmile_qr_scan", "ios": "https://dc.lft.to/lastmile_qr_scan"}, "is_reserved": 0, "is_disabled": 0, "name": "a21ae7f4836239e892ca1d7319e3c587", "bike_id": "a21ae7f4836239e892ca1d7319e3c587", "fusion_lat": 0.0, "lon": -77.0009525, "type": "electric_scooter", "fusion_lon": 0.0, "lat": 38.9254605}, {"rental_uris": {"android": "https://dc.lft.to/lastmile_qr_scan", "ios": "https://dc.lft.to/lastmile_qr_scan"}, "is_reserved": 0, "is_disabled": 0, "name": "77893d247bb4b89217260be224f4aaa5", "bike_id": "77893d247bb4b89217260be224f4aaa5", "fusion_lat": 0.0, "lon": -77.0255505, "type": "electric_scooter", "fusion_lon": 0.0, "lat": 38.891943833333336}, {"rental_uris": {"android": "https://dc.lft.to/lastmile_qr_scan", "ios": "https://dc.lft.to/lastmile_qr_scan"}, "is_reserved": 0, "is_disabled": 0, "name": "6f6ac0abfd1e36918b8102a34f7ceb4d", "bike_id": "6f6ac0abfd1e36918b8102a34f7ceb4d", "fusion_lat": 0.0, "lon": -77.0278735, "type": "electric_scooter", "fusion_lon": 0.0, "lat": 38.92980433333334}, {"rental_uris": {"android": "https://dc.lft.to/lastmile_qr_scan", "ios": "https://dc.lft.to/lastmile_qr_scan"}, "is_reserved": 0, "is_disabled": 0, "name": "7bf5a2a763b2f6f70267b233a3c05b40", "bike_id": "7bf5a2a763b2f6f70267b233a3c05b40", "fusion_lat": 0.0, "lon": -77.04900133333334, "type": "electric_scooter", "fusion_lon": 0.0, "lat": 38.89723216666667}, {"rental_uris": {"android": "https://dc.lft.to/lastmile_qr_scan", "ios": "https://dc.lft.to/lastmile_qr_scan"}, "is_reserved": 0, "is_disabled": 0, "name": "9efb36dcf1fe0efbd9ba7d815a029b39", "bike_id": "9efb36dcf1fe0efbd9ba7d815a029b39", "fusion_lat": 0.0, "lon": -76.99160916666666, "type": "electric_scooter", "fusion_lon": 0.0, "lat": 38.8877115}, {"rental_uris": {"android": "https://dc.lft.to/lastmile_qr_scan", "ios": "https://dc.lft.to/lastmile_qr_scan"}, "is_reserved": 0, "is_disabled": 0, "name": "82a676a58a199ae9b8ececc919a09e5a", "bike_id": "82a676a58a199ae9b8ececc919a09e5a", "fusion_lat": 0.0, "lon": -76.98617866666666, "type": "electric_scooter", "fusion_lon": 0.0, "lat": 38.93825016666667}, {"rental_uris": {"android": "https://dc.lft.to/lastmile_qr_scan", "ios": "https://dc.lft.to/lastmile_qr_scan"}, "is_reserved": 0, "is_disabled": 0, "name": "2bacb0652e3770a487928267479032b6", "bike_id": "2bacb0652e3770a487928267479032b6", "fusion_lat": 0.0, "lon": -77.02812616666667, "type": "electric_scooter", "fusion_lon": 0.0, "lat": 38.92310233333333}, {"rental_uris": {"android": "https://dc.lft.to/lastmile_qr_scan", "ios": "https://dc.lft.to/lastmile_qr_scan"}, "is_reserved": 0, "is_disabled": 0, "name": "c3b17a11f385aa66078755ae6c09e840", "bike_id": "c3b17a11f385aa66078755ae6c09e840", "fusion_lat": 0.0, "lon": -77.0013815, "type": "electric_scooter", "fusion_lon": 0.0, "lat": 38.88429583333333}, {"rental_uris": {"android": "https://dc.lft.to/lastmile_qr_scan", "ios": "https://dc.lft.to/lastmile_qr_scan"}, "is_reserved": 0, "is_disabled": 0, "name": "17be92c4c51e849985de6844a4f9f40b", "bike_id": "17be92c4c51e849985de6844a4f9f40b", "fusion_lat": 0.0, "lon": -77.03380283333334, "type": "electric_scooter", "fusion_lon": 0.0, "lat": 38.89747283333333}, {"rental_uris": {"android": "https://dc.lft.to/lastmile_qr_scan", "ios": "https://dc.lft.to/lastmile_qr_scan"}, "is_reserved": 0, "is_disabled": 0, "name": "4a6894523c4d0d61943c70b01867b4f0", "bike_id": "4a6894523c4d0d61943c70b01867b4f0", "fusion_lat": 0.0, "lon": -77.01392216666666, "type": "electric_scooter", "fusion_lon": 0.0, "lat": 38.8789225}, {"rental_uris": {"android": "https://dc.lft.to/lastmile_qr_scan", "ios": "https://dc.lft.to/lastmile_qr_scan"}, "is_reserved": 0, "is_disabled": 0, "name": "ce035668070b3512eb7fb1a6bf8f7375", "bike_id": "ce035668070b3512eb7fb1a6bf8f7375", "fusion_lat": 0.0, "lon": -76.99519383333333, "type": "electric_scooter", "fusion_lon": 0.0, "lat": 38.883673}, {"rental_uris": {"android": "https://dc.lft.to/lastmile_qr_scan", "ios": "https://dc.lft.to/lastmile_qr_scan"}, "is_reserved": 0, "is_disabled": 0, "name": "3b555a7d074b5f2aa7ec005c75590bfb", "bike_id": "3b555a7d074b5f2aa7ec005c75590bfb", "fusion_lat": 0.0, "lon": -76.98742066666667, "type": "electric_scooter", "fusion_lon": 0.0, "lat": 38.879616}, {"rental_uris": {"android": "https://dc.lft.to/lastmile_qr_scan", "ios": "https://dc.lft.to/lastmile_qr_scan"}, "is_reserved": 0, "is_disabled": 0, "name": "bb368e8cc65ac55e9840700bff6f689e", "bike_id": "bb368e8cc65ac55e9840700bff6f689e", "fusion_lat": 0.0, "lon": -77.040135, "type": "electric_scooter", "fusion_lon": 0.0, "lat": 38.9099505}, {"rental_uris": {"android": "https://dc.lft.to/lastmile_qr_scan", "ios": "https://dc.lft.to/lastmile_qr_scan"}, "is_reserved": 0, "is_disabled": 0, "name": "03e60efbdc57af3560a56f66fd236842", "bike_id": "03e60efbdc57af3560a56f66fd236842", "fusion_lat": 0.0, "lon": -77.04345516666666, "type": "electric_scooter", "fusion_lon": 0.0, "lat": 38.905084333333335}, {"rental_uris": {"android": "https://dc.lft.to/lastmile_qr_scan", "ios": "https://dc.lft.to/lastmile_qr_scan"}, "is_reserved": 0, "is_disabled": 0, "name": "eac54a7523d039c852d426d2a77399bf", "bike_id": "eac54a7523d039c852d426d2a77399bf", "fusion_lat": 0.0, "lon": -77.01671033333334, "type": "electric_scooter", "fusion_lon": 0.0, "lat": 38.8811955}, {"rental_uris": {"android": "https://dc.lft.to/lastmile_qr_scan", "ios": "https://dc.lft.to/lastmile_qr_scan"}, "is_reserved": 0, "is_disabled": 0, "name": "f5cba08cad499cea0197de928c1323cd", "bike_id": "f5cba08cad499cea0197de928c1323cd", "fusion_lat": 0.0, "lon": -77.02367916666667, "type": "electric_scooter", "fusion_lon": 0.0, "lat": 38.87925233333333}, {"rental_uris": {"android": "https://dc.lft.to/lastmile_qr_scan", "ios": "https://dc.lft.to/lastmile_qr_scan"}, "is_reserved": 0, "is_disabled": 0, "name": "0bc4372f6b94f4494ae3029930eb422e", "bike_id": "0bc4372f6b94f4494ae3029930eb422e", "fusion_lat": 0.0, "lon": -76.99520533333333, "type": "electric_scooter", "fusion_lon": 0.0, "lat": 38.883660166666665}, {"rental_uris": {"android": "https://dc.lft.to/lastmile_qr_scan", "ios": "https://dc.lft.to/lastmile_qr_scan"}, "is_reserved": 0, "is_disabled": 0, "name": "36075396c57557b6375f4dfe216dbd2d", "bike_id": "36075396c57557b6375f4dfe216dbd2d", "fusion_lat": 0.0, "lon": -77.03278233333333, "type": "electric_scooter", "fusion_lon": 0.0, "lat": 38.89887783333333}, {"rental_uris": {"android": "https://dc.lft.to/lastmile_qr_scan", "ios": "https://dc.lft.to/lastmile_qr_scan"}, "is_reserved": 0, "is_disabled": 0, "name": "4263393b9e65419f5563ce10385abbe0", "bike_id": "4263393b9e65419f5563ce10385abbe0", "fusion_lat": 0.0, "lon": -77.02089833333334, "type": "electric_scooter", "fusion_lon": 0.0, "lat": 38.92150066666667}, {"rental_uris": {"android": "https://dc.lft.to/lastmile_qr_scan", "ios": "https://dc.lft.to/lastmile_qr_scan"}, "is_reserved": 0, "is_disabled": 0, "name": "a0c386e569502948ed82fdef2e537261", "bike_id": "a0c386e569502948ed82fdef2e537261", "fusion_lat": 0.0, "lon": -76.985977, "type": "electric_scooter", "fusion_lon": 0.0, "lat": 38.906616166666666}, {"rental_uris": {"android": "https://dc.lft.to/lastmile_qr_scan", "ios": "https://dc.lft.to/lastmile_qr_scan"}, "is_reserved": 0, "is_disabled": 0, "name": "823f2c7a60bd3e4b7e0c74f72c7e2e34", "bike_id": "823f2c7a60bd3e4b7e0c74f72c7e2e34", "fusion_lat": 0.0, "lon": -77.034524, "type": "electric_scooter", "fusion_lon": 0.0, "lat": 38.918332166666666}, {"rental_uris": {"android": "https://dc.lft.to/lastmile_qr_scan", "ios": "https://dc.lft.to/lastmile_qr_scan"}, "is_reserved": 0, "is_disabled": 0, "name": "03483c8c503e9195142153b5ac953d94", "bike_id": "03483c8c503e9195142153b5ac953d94", "fusion_lat": 0.0, "lon": -77.021831, "type": "electric_scooter", "fusion_lon": 0.0, "lat": 38.9249205}, {"rental_uris": {"android": "https://dc.lft.to/lastmile_qr_scan", "ios": "https://dc.lft.to/lastmile_qr_scan"}, "is_reserved": 0, "is_disabled": 0, "name": "289ab137dd5cf763984dffb5cde35d25", "bike_id": "289ab137dd5cf763984dffb5cde35d25", "fusion_lat": 0.0, "lon": -76.99719333333333, "type": "electric_bike", "fusion_lon": 0.0, "lat": 38.99851483333333}, {"rental_uris": {"android": "https://dc.lft.to/lastmile_qr_scan", "ios": "https://dc.lft.to/lastmile_qr_scan"}, "is_reserved": 0, "is_disabled": 0, "name": "079c29e62fed3856e407d0cb48ab9c17", "bike_id": "079c29e62fed3856e407d0cb48ab9c17", "fusion_lat": 0.0, "lon": -77.1265745, "type": "electric_bike", "fusion_lon": 0.0, "lat": 38.819084}, {"rental_uris": {"android": "https://dc.lft.to/lastmile_qr_scan", "ios": "https://dc.lft.to/lastmile_qr_scan"}, "is_reserved": 0, "is_disabled": 0, "name": "039b69a52444b2178721105a20684ca6", "bike_id": "039b69a52444b2178721105a20684ca6", "fusion_lat": 0.0, "lon": -77.0248065, "type": "electric_scooter", "fusion_lon": 0.0, "lat": 38.930840333333336}, {"rental_uris": {"android": "https://dc.lft.to/lastmile_qr_scan", "ios": "https://dc.lft.to/lastmile_qr_scan"}, "is_reserved": 0, "is_disabled": 0, "name": "6bbccb3640d7f2a81d238b280435f2ee", "bike_id": "6bbccb3640d7f2a81d238b280435f2ee", "fusion_lat": 0.0, "lon": -76.9985295, "type": "electric_scooter", "fusion_lon": 0.0, "lat": 38.9002825}, {"rental_uris": {"android": "https://dc.lft.to/lastmile_qr_scan", "ios": "https://dc.lft.to/lastmile_qr_scan"}, "is_reserved": 0, "is_disabled": 0, "name": "9439f6aae409f8eb430b82b9480c3785", "bike_id": "9439f6aae409f8eb430b82b9480c3785", "fusion_lat": 0.0, "lon": -77.00031683333333, "type": "electric_scooter", "fusion_lon": 0.0, "lat": 38.874007}, {"rental_uris": {"android": "https://dc.lft.to/lastmile_qr_scan", "ios": "https://dc.lft.to/lastmile_qr_scan"}, "is_reserved": 0, "is_disabled": 0, "name": "89977b39ea13370496a0c3aecdd130c1", "bike_id": "89977b39ea13370496a0c3aecdd130c1", "fusion_lat": 0.0, "lon": -77.00372533333334, "type": "electric_scooter", "fusion_lon": 0.0, "lat": 38.90711366666667}, {"rental_uris": {"android": "https://dc.lft.to/lastmile_qr_scan", "ios": "https://dc.lft.to/lastmile_qr_scan"}, "is_reserved": 0, "is_disabled": 0, "name": "1feee4644ca3c50cbff15e7a3b6df4b0", "bike_id": "1feee4644ca3c50cbff15e7a3b6df4b0", "fusion_lat": 0.0, "lon": -77.05441733333333, "type": "electric_scooter", "fusion_lon": 0.0, "lat": 38.896009666666664}, {"rental_uris": {"android": "https://dc.lft.to/lastmile_qr_scan", "ios": "https://dc.lft.to/lastmile_qr_scan"}, "is_reserved": 0, "is_disabled": 0, "name": "38d9eb7c625e9bc18667967922749c32", "bike_id": "38d9eb7c625e9bc18667967922749c32", "fusion_lat": 0.0, "lon": -77.02474566666666, "type": "electric_scooter", "fusion_lon": 0.0, "lat": 38.93098116666667}, {"rental_uris": {"android": "https://dc.lft.to/lastmile_qr_scan", "ios": "https://dc.lft.to/lastmile_qr_scan"}, "is_reserved": 0, "is_disabled": 0, "name": "bffe9e67b8b266a05c8048a5901be460", "bike_id": "bffe9e67b8b266a05c8048a5901be460", "fusion_lat": 0.0, "lon": -77.00736883333333, "type": "electric_scooter", "fusion_lon": 0.0, "lat": 38.91189283333333}, {"rental_uris": {"android": "https://dc.lft.to/lastmile_qr_scan", "ios": "https://dc.lft.to/lastmile_qr_scan"}, "is_reserved": 0, "is_disabled": 0, "name": "ab298775bdc2d3b68e8de656474d4711", "bike_id": "ab298775bdc2d3b68e8de656474d4711", "fusion_lat": 0.0, "lon": -77.04207316666667, "type": "electric_scooter", "fusion_lon": 0.0, "lat": 38.909178833333335}, {"rental_uris": {"android": "https://dc.lft.to/lastmile_qr_scan", "ios": "https://dc.lft.to/lastmile_qr_scan"}, "is_reserved": 0, "is_disabled": 0, "name": "a955221e775f08060f7075291cf2f960", "bike_id": "a955221e775f08060f7075291cf2f960", "fusion_lat": 0.0, "lon": -77.01680633333334, "type": "electric_scooter", "fusion_lon": 0.0, "lat": 38.92042583333333}, {"rental_uris": {"android": "https://dc.lft.to/lastmile_qr_scan", "ios": "https://dc.lft.to/lastmile_qr_scan"}, "is_reserved": 0, "is_disabled": 0, "name": "f42db4301ec1e7aa268b6430c90c8c1b", "bike_id": "f42db4301ec1e7aa268b6430c90c8c1b", "fusion_lat": 0.0, "lon": -77.01567, "type": "electric_scooter", "fusion_lon": 0.0, "lat": 38.893635833333335}, {"rental_uris": {"android": "https://dc.lft.to/lastmile_qr_scan", "ios": "https://dc.lft.to/lastmile_qr_scan"}, "is_reserved": 0, "is_disabled": 0, "name": "68c20f5869c7240f2c00a05dc4c9f380", "bike_id": "68c20f5869c7240f2c00a05dc4c9f380", "fusion_lat": 0.0, "lon": -77.02622783333334, "type": "electric_scooter", "fusion_lon": 0.0, "lat": 38.90380583333334}, {"rental_uris": {"android": "https://dc.lft.to/lastmile_qr_scan", "ios": "https://dc.lft.to/lastmile_qr_scan"}, "is_reserved": 0, "is_disabled": 0, "name": "29b203b48177e45b2600d86e0d6225dd", "bike_id": "29b203b48177e45b2600d86e0d6225dd", "fusion_lat": 0.0, "lon": -77.03173583333333, "type": "electric_scooter", "fusion_lon": 0.0, "lat": 38.915608}, {"rental_uris": {"android": "https://dc.lft.to/lastmile_qr_scan", "ios": "https://dc.lft.to/lastmile_qr_scan"}, "is_reserved": 0, "is_disabled": 0, "name": "cc5fc7b3a23becd557b1c72b8bf70709", "bike_id": "cc5fc7b3a23becd557b1c72b8bf70709", "fusion_lat": 0.0, "lon": -77.019606, "type": "electric_scooter", "fusion_lon": 0.0, "lat": 38.92027433333333}, {"rental_uris": {"android": "https://dc.lft.to/lastmile_qr_scan", "ios": "https://dc.lft.to/lastmile_qr_scan"}, "is_reserved": 0, "is_disabled": 0, "name": "76353d9ea1731f5fbc815c31f81a27d6", "bike_id": "76353d9ea1731f5fbc815c31f81a27d6", "fusion_lat": 0.0, "lon": -77.05492733333334, "type": "electric_scooter", "fusion_lon": 0.0, "lat": 38.90840733333334}, {"rental_uris": {"android": "https://dc.lft.to/lastmile_qr_scan", "ios": "https://dc.lft.to/lastmile_qr_scan"}, "is_reserved": 0, "is_disabled": 0, "name": "789fce467222f93cedd2a667da16737e", "bike_id": "789fce467222f93cedd2a667da16737e", "fusion_lat": 0.0, "lon": -77.020462, "type": "electric_scooter", "fusion_lon": 0.0, "lat": 38.915706166666666}, {"rental_uris": {"android": "https://dc.lft.to/lastmile_qr_scan", "ios": "https://dc.lft.to/lastmile_qr_scan"}, "is_reserved": 0, "is_disabled": 0, "name": "ac11dd3bb06d66669575a5b1bad728bc", "bike_id": "ac11dd3bb06d66669575a5b1bad728bc", "fusion_lat": 0.0, "lon": -77.02037433333334, "type": "electric_scooter", "fusion_lon": 0.0, "lat": 38.92424716666667}, {"rental_uris": {"android": "https://dc.lft.to/lastmile_qr_scan", "ios": "https://dc.lft.to/lastmile_qr_scan"}, "is_reserved": 0, "is_disabled": 0, "name": "b371c229a970d4d4fe45223f760d83bb", "bike_id": "b371c229a970d4d4fe45223f760d83bb", "fusion_lat": 0.0, "lon": -77.032166, "type": "electric_scooter", "fusion_lon": 0.0, "lat": 38.920614}, {"rental_uris": {"android": "https://dc.lft.to/lastmile_qr_scan", "ios": "https://dc.lft.to/lastmile_qr_scan"}, "is_reserved": 0, "is_disabled": 0, "name": "c4329e0b782e544222dc88ff7cc4e0a6", "bike_id": "c4329e0b782e544222dc88ff7cc4e0a6", "fusion_lat": 0.0, "lon": -77.0489775, "type": "electric_scooter", "fusion_lon": 0.0, "lat": 38.910255}, {"rental_uris": {"android": "https://dc.lft.to/lastmile_qr_scan", "ios": "https://dc.lft.to/lastmile_qr_scan"}, "is_reserved": 0, "is_disabled": 0, "name": "af9a6ccba82782384542637a3e8b3cc4", "bike_id": "af9a6ccba82782384542637a3e8b3cc4", "fusion_lat": 0.0, "lon": -77.02080316666667, "type": "electric_scooter", "fusion_lon": 0.0, "lat": 38.923353666666664}, {"rental_uris": {"android": "https://dc.lft.to/lastmile_qr_scan", "ios": "https://dc.lft.to/lastmile_qr_scan"}, "is_reserved": 0, "is_disabled": 0, "name": "f0acad1c5300ea676edb0cc92861d86b", "bike_id": "f0acad1c5300ea676edb0cc92861d86b", "fusion_lat": 0.0, "lon": -77.02606733333333, "type": "electric_scooter", "fusion_lon": 0.0, "lat": 38.89612133333333}, {"rental_uris": {"android": "https://dc.lft.to/lastmile_qr_scan", "ios": "https://dc.lft.to/lastmile_qr_scan"}, "is_reserved": 0, "is_disabled": 0, "name": "febf6976d0810fddc60c962f89a65c44", "bike_id": "febf6976d0810fddc60c962f89a65c44", "fusion_lat": 0.0, "lon": -77.019524, "type": "electric_scooter", "fusion_lon": 0.0, "lat": 38.924206}, {"rental_uris": {"android": "https://dc.lft.to/lastmile_qr_scan", "ios": "https://dc.lft.to/lastmile_qr_scan"}, "is_reserved": 0, "is_disabled": 0, "name": "c1152a58bb2acf5d0519c65508423b43", "bike_id": "c1152a58bb2acf5d0519c65508423b43", "fusion_lat": 0.0, "lon": -77.00581433333333, "type": "electric_scooter", "fusion_lon": 0.0, "lat": 38.87533033333333}, {"rental_uris": {"android": "https://dc.lft.to/lastmile_qr_scan", "ios": "https://dc.lft.to/lastmile_qr_scan"}, "is_reserved": 0, "is_disabled": 0, "name": "2ffdfea348506cf781b01d756f8e4af1", "bike_id": "2ffdfea348506cf781b01d756f8e4af1", "fusion_lat": 0.0, "lon": -76.99049266666667, "type": "electric_scooter", "fusion_lon": 0.0, "lat": 38.93817683333333}, {"rental_uris": {"android": "https://dc.lft.to/lastmile_qr_scan", "ios": "https://dc.lft.to/lastmile_qr_scan"}, "is_reserved": 0, "is_disabled": 0, "name": "7e37e0e9d40ac74f108c4f1fb40060c8", "bike_id": "7e37e0e9d40ac74f108c4f1fb40060c8", "fusion_lat": 0.0, "lon": -77.03853216666667, "type": "electric_scooter", "fusion_lon": 0.0, "lat": 38.904038666666665}, {"rental_uris": {"android": "https://dc.lft.to/lastmile_qr_scan", "ios": "https://dc.lft.to/lastmile_qr_scan"}, "is_reserved": 0, "is_disabled": 0, "name": "1fb4b0fa2e70b5fb91ce3575ed9e9458", "bike_id": "1fb4b0fa2e70b5fb91ce3575ed9e9458", "fusion_lat": 0.0, "lon": -77.02793933333334, "type": "electric_scooter", "fusion_lon": 0.0, "lat": 38.898270333333336}, {"rental_uris": {"android": "https://dc.lft.to/lastmile_qr_scan", "ios": "https://dc.lft.to/lastmile_qr_scan"}, "is_reserved": 0, "is_disabled": 0, "name": "27f830af161a2e5b7b1472ba9c949952", "bike_id": "27f830af161a2e5b7b1472ba9c949952", "fusion_lat": 0.0, "lon": -77.0872565, "type": "electric_bike", "fusion_lon": 0.0, "lat": 38.862404}, {"rental_uris": {"android": "https://dc.lft.to/lastmile_qr_scan", "ios": "https://dc.lft.to/lastmile_qr_scan"}, "is_reserved": 0, "is_disabled": 0, "name": "5b66b73c942c3b54d120e072b6ff6124", "bike_id": "5b66b73c942c3b54d120e072b6ff6124", "fusion_lat": 0.0, "lon": -76.981967, "type": "electric_bike", "fusion_lon": 0.0, "lat": 38.98500683333333}, {"rental_uris": {"android": "https://dc.lft.to/lastmile_qr_scan", "ios": "https://dc.lft.to/lastmile_qr_scan"}, "is_reserved": 0, "is_disabled": 0, "name": "ca05a86257f4c6473ae7c06d9d3e00c7", "bike_id": "ca05a86257f4c6473ae7c06d9d3e00c7", "fusion_lat": 0.0, "lon": -76.9825015, "type": "electric_bike", "fusion_lon": 0.0, "lat": 38.952360666666664}, {"rental_uris": {"android": "https://dc.lft.to/lastmile_qr_scan", "ios": "https://dc.lft.to/lastmile_qr_scan"}, "is_reserved": 0, "is_disabled": 0, "name": "7d54375d3452f83876b5d051f5ef83e9", "bike_id": "7d54375d3452f83876b5d051f5ef83e9", "fusion_lat": 0.0, "lon": -77.047798, "type": "electric_scooter", "fusion_lon": 0.0, "lat": 38.89370266666667}, {"rental_uris": {"android": "https://dc.lft.to/lastmile_qr_scan", "ios": "https://dc.lft.to/lastmile_qr_scan"}, "is_reserved": 0, "is_disabled": 0, "name": "4dd193d7b109b7807986eccad556eeb6", "bike_id": "4dd193d7b109b7807986eccad556eeb6", "fusion_lat": 0.0, "lon": -77.04502766666667, "type": "electric_scooter", "fusion_lon": 0.0, "lat": 38.892197333333336}, {"rental_uris": {"android": "https://dc.lft.to/lastmile_qr_scan", "ios": "https://dc.lft.to/lastmile_qr_scan"}, "is_reserved": 0, "is_disabled": 0, "name": "d7ad2a2925f0bed3d1a6cbef4eae11da", "bike_id": "d7ad2a2925f0bed3d1a6cbef4eae11da", "fusion_lat": 0.0, "lon": -77.04298933333334, "type": "electric_scooter", "fusion_lon": 0.0, "lat": 38.92333883333333}, {"rental_uris": {"android": "https://dc.lft.to/lastmile_qr_scan", "ios": "https://dc.lft.to/lastmile_qr_scan"}, "is_reserved": 0, "is_disabled": 0, "name": "e40b29be8f3200db699be51bfb937f06", "bike_id": "e40b29be8f3200db699be51bfb937f06", "fusion_lat": 0.0, "lon": -77.04611933333334, "type": "electric_scooter", "fusion_lon": 0.0, "lat": 38.902393833333335}, {"rental_uris": {"android": "https://dc.lft.to/lastmile_qr_scan", "ios": "https://dc.lft.to/lastmile_qr_scan"}, "is_reserved": 0, "is_disabled": 0, "name": "550dc91e5fb3d9e2e7bb9087c8f16dee", "bike_id": "550dc91e5fb3d9e2e7bb9087c8f16dee", "fusion_lat": 0.0, "lon": -77.02803266666666, "type": "electric_scooter", "fusion_lon": 0.0, "lat": 38.8994445}, {"rental_uris": {"android": "https://dc.lft.to/lastmile_qr_scan", "ios": "https://dc.lft.to/lastmile_qr_scan"}, "is_reserved": 0, "is_disabled": 0, "name": "1953f3ab76642540ed6a5d91317f46a0", "bike_id": "1953f3ab76642540ed6a5d91317f46a0", "fusion_lat": 0.0, "lon": -77.04002583333333, "type": "electric_scooter", "fusion_lon": 0.0, "lat": 38.89223916666667}, {"rental_uris": {"android": "https://dc.lft.to/lastmile_qr_scan", "ios": "https://dc.lft.to/lastmile_qr_scan"}, "is_reserved": 0, "is_disabled": 0, "name": "7f8d484ea7c2af3160f81855e3f34a45", "bike_id": "7f8d484ea7c2af3160f81855e3f34a45", "fusion_lat": 0.0, "lon": -77.03005816666666, "type": "electric_bike", "fusion_lon": 0.0, "lat": 38.90018883333333}, {"rental_uris": {"android": "https://dc.lft.to/lastmile_qr_scan", "ios": "https://dc.lft.to/lastmile_qr_scan"}, "is_reserved": 0, "is_disabled": 0, "name": "a9fa1170883cdb4c86f92f554ca00a35", "bike_id": "a9fa1170883cdb4c86f92f554ca00a35", "fusion_lat": 0.0, "lon": -77.03336216666666, "type": "electric_scooter", "fusion_lon": 0.0, "lat": 38.900210666666666}, {"rental_uris": {"android": "https://dc.lft.to/lastmile_qr_scan", "ios": "https://dc.lft.to/lastmile_qr_scan"}, "is_reserved": 0, "is_disabled": 0, "name": "f40f5ab6b1348fec978ccb8df6933b00", "bike_id": "f40f5ab6b1348fec978ccb8df6933b00", "fusion_lat": 0.0, "lon": -77.0322745, "type": "electric_scooter", "fusion_lon": 0.0, "lat": 38.920603}, {"rental_uris": {"android": "https://dc.lft.to/lastmile_qr_scan", "ios": "https://dc.lft.to/lastmile_qr_scan"}, "is_reserved": 0, "is_disabled": 0, "name": "dac3a30cd850fa4481378073bc061a4c", "bike_id": "dac3a30cd850fa4481378073bc061a4c", "fusion_lat": 0.0, "lon": -77.07255616666667, "type": "electric_scooter", "fusion_lon": 0.0, "lat": 38.9089735}, {"rental_uris": {"android": "https://dc.lft.to/lastmile_qr_scan", "ios": "https://dc.lft.to/lastmile_qr_scan"}, "is_reserved": 0, "is_disabled": 0, "name": "f05e2dd6a33319df0c3d4ee98f613e5a", "bike_id": "f05e2dd6a33319df0c3d4ee98f613e5a", "fusion_lat": 0.0, "lon": -76.98019466666666, "type": "electric_bike", "fusion_lon": 0.0, "lat": 38.85314483333333}, {"rental_uris": {"android": "https://dc.lft.to/lastmile_qr_scan", "ios": "https://dc.lft.to/lastmile_qr_scan"}, "is_reserved": 0, "is_disabled": 0, "name": "b8c5555631773d7749feff8e6e572bbb", "bike_id": "b8c5555631773d7749feff8e6e572bbb", "fusion_lat": 0.0, "lon": -77.03190683333334, "type": "electric_scooter", "fusion_lon": 0.0, "lat": 38.9201215}, {"rental_uris": {"android": "https://dc.lft.to/lastmile_qr_scan", "ios": "https://dc.lft.to/lastmile_qr_scan"}, "is_reserved": 0, "is_disabled": 0, "name": "e43330d21bc5bee6fd0a66332b631758", "bike_id": "e43330d21bc5bee6fd0a66332b631758", "fusion_lat": 0.0, "lon": -77.03252666666667, "type": "electric_scooter", "fusion_lon": 0.0, "lat": 38.92881583333333}, {"rental_uris": {"android": "https://dc.lft.to/lastmile_qr_scan", "ios": "https://dc.lft.to/lastmile_qr_scan"}, "is_reserved": 0, "is_disabled": 0, "name": "914b3033162eb450f5ce93fcb87fc9ab", "bike_id": "914b3033162eb450f5ce93fcb87fc9ab", "fusion_lat": 0.0, "lon": -77.03181016666667, "type": "electric_scooter", "fusion_lon": 0.0, "lat": 38.9141355}, {"rental_uris": {"android": "https://dc.lft.to/lastmile_qr_scan", "ios": "https://dc.lft.to/lastmile_qr_scan"}, "is_reserved": 0, "is_disabled": 0, "name": "aa432fab5b159d7aaa1594a69a327e7a", "bike_id": "aa432fab5b159d7aaa1594a69a327e7a", "fusion_lat": 0.0, "lon": -77.04566366666667, "type": "electric_scooter", "fusion_lon": 0.0, "lat": 38.902352}, {"rental_uris": {"android": "https://dc.lft.to/lastmile_qr_scan", "ios": "https://dc.lft.to/lastmile_qr_scan"}, "is_reserved": 0, "is_disabled": 0, "name": "f2e5f9d9e0b3b3d83497fd3df8073806", "bike_id": "f2e5f9d9e0b3b3d83497fd3df8073806", "fusion_lat": 0.0, "lon": -77.00664933333333, "type": "electric_scooter", "fusion_lon": 0.0, "lat": 38.8999735}, {"rental_uris": {"android": "https://dc.lft.to/lastmile_qr_scan", "ios": "https://dc.lft.to/lastmile_qr_scan"}, "is_reserved": 0, "is_disabled": 0, "name": "98f9a1f453eaf446d0b78b0880472ee1", "bike_id": "98f9a1f453eaf446d0b78b0880472ee1", "fusion_lat": 0.0, "lon": -77.02299866666667, "type": "electric_scooter", "fusion_lon": 0.0, "lat": 38.89970616666667}, {"rental_uris": {"android": "https://dc.lft.to/lastmile_qr_scan", "ios": "https://dc.lft.to/lastmile_qr_scan"}, "is_reserved": 0, "is_disabled": 0, "name": "eec3cfc570d62aa41e22e75988cd5c52", "bike_id": "eec3cfc570d62aa41e22e75988cd5c52", "fusion_lat": 0.0, "lon": -77.007379, "type": "electric_scooter", "fusion_lon": 0.0, "lat": 38.89835633333333}, {"rental_uris": {"android": "https://dc.lft.to/lastmile_qr_scan", "ios": "https://dc.lft.to/lastmile_qr_scan"}, "is_reserved": 0, "is_disabled": 0, "name": "70b6384dda16fb20326b7d5f97fbc636", "bike_id": "70b6384dda16fb20326b7d5f97fbc636", "fusion_lat": 0.0, "lon": -76.97705533333334, "type": "electric_bike", "fusion_lon": 0.0, "lat": 38.822037}, {"rental_uris": {"android": "https://dc.lft.to/lastmile_qr_scan", "ios": "https://dc.lft.to/lastmile_qr_scan"}, "is_reserved": 0, "is_disabled": 0, "name": "3891af7741def37dfe64d0fc3cecbdbd", "bike_id": "3891af7741def37dfe64d0fc3cecbdbd", "fusion_lat": 0.0, "lon": -77.0357465, "type": "electric_scooter", "fusion_lon": 0.0, "lat": 38.90802933333333}, {"rental_uris": {"android": "https://dc.lft.to/lastmile_qr_scan", "ios": "https://dc.lft.to/lastmile_qr_scan"}, "is_reserved": 0, "is_disabled": 0, "name": "139ddae065d8e3ab380acfe989bc910a", "bike_id": "139ddae065d8e3ab380acfe989bc910a", "fusion_lat": 0.0, "lon": -77.02792816666667, "type": "electric_scooter", "fusion_lon": 0.0, "lat": 38.96133783333333}, {"rental_uris": {"android": "https://dc.lft.to/lastmile_qr_scan", "ios": "https://dc.lft.to/lastmile_qr_scan"}, "is_reserved": 0, "is_disabled": 0, "name": "bbf4468fb68b1b7e3ebbfdd4fc5de777", "bike_id": "bbf4468fb68b1b7e3ebbfdd4fc5de777", "fusion_lat": 0.0, "lon": -77.04013583333334, "type": "electric_scooter", "fusion_lon": 0.0, "lat": 38.91002133333333}, {"rental_uris": {"android": "https://dc.lft.to/lastmile_qr_scan", "ios": "https://dc.lft.to/lastmile_qr_scan"}, "is_reserved": 0, "is_disabled": 0, "name": "cd82141e1d68b0cbb36d06a27d59f7a7", "bike_id": "cd82141e1d68b0cbb36d06a27d59f7a7", "fusion_lat": 0.0, "lon": -77.03539, "type": "electric_scooter", "fusion_lon": 0.0, "lat": 38.9262825}, {"rental_uris": {"android": "https://dc.lft.to/lastmile_qr_scan", "ios": "https://dc.lft.to/lastmile_qr_scan"}, "is_reserved": 0, "is_disabled": 0, "name": "eaf025b03199eb0235f1f8ff48d0d0a0", "bike_id": "eaf025b03199eb0235f1f8ff48d0d0a0", "fusion_lat": 0.0, "lon": -77.07235683333333, "type": "electric_scooter", "fusion_lon": 0.0, "lat": 38.92364466666667}, {"rental_uris": {"android": "https://dc.lft.to/lastmile_qr_scan", "ios": "https://dc.lft.to/lastmile_qr_scan"}, "is_reserved": 0, "is_disabled": 0, "name": "87bebb316d119938ecb9cd40851627ff", "bike_id": "87bebb316d119938ecb9cd40851627ff", "fusion_lat": 0.0, "lon": -77.04500316666666, "type": "electric_scooter", "fusion_lon": 0.0, "lat": 38.8921515}, {"rental_uris": {"android": "https://dc.lft.to/lastmile_qr_scan", "ios": "https://dc.lft.to/lastmile_qr_scan"}, "is_reserved": 0, "is_disabled": 0, "name": "64b4c58f96ac3b8791928550abd6d5b9", "bike_id": "64b4c58f96ac3b8791928550abd6d5b9", "fusion_lat": 0.0, "lon": -77.03830233333333, "type": "electric_scooter", "fusion_lon": 0.0, "lat": 38.903336333333336}, {"rental_uris": {"android": "https://dc.lft.to/lastmile_qr_scan", "ios": "https://dc.lft.to/lastmile_qr_scan"}, "is_reserved": 0, "is_disabled": 0, "name": "a74b2b734dadcc3c029f15b74b05d065", "bike_id": "a74b2b734dadcc3c029f15b74b05d065", "fusion_lat": 0.0, "lon": -76.93524716666667, "type": "electric_scooter", "fusion_lon": 0.0, "lat": 38.878940166666666}, {"rental_uris": {"android": "https://dc.lft.to/lastmile_qr_scan", "ios": "https://dc.lft.to/lastmile_qr_scan"}, "is_reserved": 0, "is_disabled": 0, "name": "7111b486c7d44c0069395d92187e5ac4", "bike_id": "7111b486c7d44c0069395d92187e5ac4", "fusion_lat": 0.0, "lon": -77.02971833333334, "type": "electric_scooter", "fusion_lon": 0.0, "lat": 38.917092333333336}, {"rental_uris": {"android": "https://dc.lft.to/lastmile_qr_scan", "ios": "https://dc.lft.to/lastmile_qr_scan"}, "is_reserved": 0, "is_disabled": 0, "name": "b0cd19806caaa4035dfbd86ac9c7f1b2", "bike_id": "b0cd19806caaa4035dfbd86ac9c7f1b2", "fusion_lat": 0.0, "lon": -77.024077, "type": "electric_scooter", "fusion_lon": 0.0, "lat": 38.917059333333334}, {"rental_uris": {"android": "https://dc.lft.to/lastmile_qr_scan", "ios": "https://dc.lft.to/lastmile_qr_scan"}, "is_reserved": 0, "is_disabled": 0, "name": "ebcf722bfc1b9983ce12be13d56d92a6", "bike_id": "ebcf722bfc1b9983ce12be13d56d92a6", "fusion_lat": 0.0, "lon": -76.985479, "type": "electric_scooter", "fusion_lon": 0.0, "lat": 38.9059115}, {"rental_uris": {"android": "https://dc.lft.to/lastmile_qr_scan", "ios": "https://dc.lft.to/lastmile_qr_scan"}, "is_reserved": 0, "is_disabled": 0, "name": "4b541796083dda3482f695dda617cb68", "bike_id": "4b541796083dda3482f695dda617cb68", "fusion_lat": 0.0, "lon": -77.02491283333333, "type": "electric_scooter", "fusion_lon": 0.0, "lat": 38.91954033333333}, {"rental_uris": {"android": "https://dc.lft.to/lastmile_qr_scan", "ios": "https://dc.lft.to/lastmile_qr_scan"}, "is_reserved": 0, "is_disabled": 0, "name": "544916a3bb00bd8ed99a23b47a4733d1", "bike_id": "544916a3bb00bd8ed99a23b47a4733d1", "fusion_lat": 0.0, "lon": -77.00765866666667, "type": "electric_bike", "fusion_lon": 0.0, "lat": 38.99781733333333}, {"rental_uris": {"android": "https://dc.lft.to/lastmile_qr_scan", "ios": "https://dc.lft.to/lastmile_qr_scan"}, "is_reserved": 0, "is_disabled": 0, "name": "c804b61545a8d3c972d780aee71f7303", "bike_id": "c804b61545a8d3c972d780aee71f7303", "fusion_lat": 0.0, "lon": -76.95248733333334, "type": "electric_bike", "fusion_lon": 0.0, "lat": 38.884622}, {"rental_uris": {"android": "https://dc.lft.to/lastmile_qr_scan", "ios": "https://dc.lft.to/lastmile_qr_scan"}, "is_reserved": 0, "is_disabled": 0, "name": "1252db65619e8f033730dfe751067988", "bike_id": "1252db65619e8f033730dfe751067988", "fusion_lat": 0.0, "lon": -77.02876066666667, "type": "electric_bike", "fusion_lon": 0.0, "lat": 38.921309666666666}, {"rental_uris": {"android": "https://dc.lft.to/lastmile_qr_scan", "ios": "https://dc.lft.to/lastmile_qr_scan"}, "is_reserved": 0, "is_disabled": 0, "name": "b1b0c4ac9b9f6bf591e07539adaa42bb", "bike_id": "b1b0c4ac9b9f6bf591e07539adaa42bb", "fusion_lat": 0.0, "lon": -77.00909083333333, "type": "electric_scooter", "fusion_lon": 0.0, "lat": 38.900292666666665}, {"rental_uris": {"android": "https://dc.lft.to/lastmile_qr_scan", "ios": "https://dc.lft.to/lastmile_qr_scan"}, "is_reserved": 0, "is_disabled": 0, "name": "39c7e161a71f5b9aa617599f7b0391a1", "bike_id": "39c7e161a71f5b9aa617599f7b0391a1", "fusion_lat": 0.0, "lon": -77.02900183333334, "type": "electric_scooter", "fusion_lon": 0.0, "lat": 38.91405783333333}, {"rental_uris": {"android": "https://dc.lft.to/lastmile_qr_scan", "ios": "https://dc.lft.to/lastmile_qr_scan"}, "is_reserved": 0, "is_disabled": 0, "name": "5b5ead60751daa1aa82edbd9a45b4dbb", "bike_id": "5b5ead60751daa1aa82edbd9a45b4dbb", "fusion_lat": 0.0, "lon": -76.94543883333333, "type": "electric_bike", "fusion_lon": 0.0, "lat": 38.98288083333333}, {"rental_uris": {"android": "https://dc.lft.to/lastmile_qr_scan", "ios": "https://dc.lft.to/lastmile_qr_scan"}, "is_reserved": 0, "is_disabled": 0, "name": "b570773b97b2cebd6b9dbe00c0ce0680", "bike_id": "b570773b97b2cebd6b9dbe00c0ce0680", "fusion_lat": 0.0, "lon": -77.02670416666666, "type": "electric_scooter", "fusion_lon": 0.0, "lat": 38.89633666666667}, {"rental_uris": {"android": "https://dc.lft.to/lastmile_qr_scan", "ios": "https://dc.lft.to/lastmile_qr_scan"}, "is_reserved": 0, "is_disabled": 0, "name": "03e77289759ebe50677eeefa0a6f556f", "bike_id": "03e77289759ebe50677eeefa0a6f556f", "fusion_lat": 0.0, "lon": -77.02796783333334, "type": "electric_scooter", "fusion_lon": 0.0, "lat": 38.953986}, {"rental_uris": {"android": "https://dc.lft.to/lastmile_qr_scan", "ios": "https://dc.lft.to/lastmile_qr_scan"}, "is_reserved": 0, "is_disabled": 0, "name": "a838046987f8386455cf0e0ba3a497ef", "bike_id": "a838046987f8386455cf0e0ba3a497ef", "fusion_lat": 0.0, "lon": -77.016796, "type": "electric_scooter", "fusion_lon": 0.0, "lat": 38.87701116666667}, {"rental_uris": {"android": "https://dc.lft.to/lastmile_qr_scan", "ios": "https://dc.lft.to/lastmile_qr_scan"}, "is_reserved": 0, "is_disabled": 0, "name": "5cc98107c34ef318429ce5ad9f765c96", "bike_id": "5cc98107c34ef318429ce5ad9f765c96", "fusion_lat": 0.0, "lon": -77.02762133333333, "type": "electric_scooter", "fusion_lon": 0.0, "lat": 38.8971635}, {"rental_uris": {"android": "https://dc.lft.to/lastmile_qr_scan", "ios": "https://dc.lft.to/lastmile_qr_scan"}, "is_reserved": 0, "is_disabled": 0, "name": "cf39f5d0b38ea8a45394b74b9292241f", "bike_id": "cf39f5d0b38ea8a45394b74b9292241f", "fusion_lat": 0.0, "lon": -77.032818, "type": "electric_bike", "fusion_lon": 0.0, "lat": 38.96122183333333}, {"rental_uris": {"android": "https://dc.lft.to/lastmile_qr_scan", "ios": "https://dc.lft.to/lastmile_qr_scan"}, "is_reserved": 0, "is_disabled": 0, "name": "cb28e22563095baddc45c0241e6c73e0", "bike_id": "cb28e22563095baddc45c0241e6c73e0", "fusion_lat": 0.0, "lon": -77.04036066666667, "type": "electric_scooter", "fusion_lon": 0.0, "lat": 38.8988215}, {"rental_uris": {"android": "https://dc.lft.to/lastmile_qr_scan", "ios": "https://dc.lft.to/lastmile_qr_scan"}, "is_reserved": 0, "is_disabled": 0, "name": "3180afe2f5afad383a63a6edb30f6228", "bike_id": "3180afe2f5afad383a63a6edb30f6228", "fusion_lat": 0.0, "lon": -76.98942183333334, "type": "electric_scooter", "fusion_lon": 0.0, "lat": 38.90394633333333}, {"rental_uris": {"android": "https://dc.lft.to/lastmile_qr_scan", "ios": "https://dc.lft.to/lastmile_qr_scan"}, "is_reserved": 0, "is_disabled": 0, "name": "30ec188440ace848d7d83c3f61ac9fbf", "bike_id": "30ec188440ace848d7d83c3f61ac9fbf", "fusion_lat": 0.0, "lon": -77.03451133333333, "type": "electric_scooter", "fusion_lon": 0.0, "lat": 38.90948433333333}, {"rental_uris": {"android": "https://dc.lft.to/lastmile_qr_scan", "ios": "https://dc.lft.to/lastmile_qr_scan"}, "is_reserved": 0, "is_disabled": 0, "name": "49e1de43ad7f7a5b9403c5474b768930", "bike_id": "49e1de43ad7f7a5b9403c5474b768930", "fusion_lat": 0.0, "lon": -77.02964933333334, "type": "electric_scooter", "fusion_lon": 0.0, "lat": 38.94303266666667}, {"rental_uris": {"android": "https://dc.lft.to/lastmile_qr_scan", "ios": "https://dc.lft.to/lastmile_qr_scan"}, "is_reserved": 0, "is_disabled": 0, "name": "4b98ab9443bc7298560e921830abd8dd", "bike_id": "4b98ab9443bc7298560e921830abd8dd", "fusion_lat": 0.0, "lon": -77.024176, "type": "electric_scooter", "fusion_lon": 0.0, "lat": 38.89217766666667}, {"rental_uris": {"android": "https://dc.lft.to/lastmile_qr_scan", "ios": "https://dc.lft.to/lastmile_qr_scan"}, "is_reserved": 0, "is_disabled": 0, "name": "1eb99cf926ccbe6431880c4d64a6538b", "bike_id": "1eb99cf926ccbe6431880c4d64a6538b", "fusion_lat": 0.0, "lon": -77.16238433333334, "type": "electric_bike", "fusion_lon": 0.0, "lat": 38.886524666666666}, {"rental_uris": {"android": "https://dc.lft.to/lastmile_qr_scan", "ios": "https://dc.lft.to/lastmile_qr_scan"}, "is_reserved": 0, "is_disabled": 0, "name": "a46e67b70325783879ce2cf4228c45f1", "bike_id": "a46e67b70325783879ce2cf4228c45f1", "fusion_lat": 0.0, "lon": -77.09014833333333, "type": "electric_bike", "fusion_lon": 0.0, "lat": 38.9264685}, {"rental_uris": {"android": "https://dc.lft.to/lastmile_qr_scan", "ios": "https://dc.lft.to/lastmile_qr_scan"}, "is_reserved": 0, "is_disabled": 0, "name": "dac8b5149844d161f9179ca0d0945fad", "bike_id": "dac8b5149844d161f9179ca0d0945fad", "fusion_lat": 0.0, "lon": -76.94182483333333, "type": "electric_scooter", "fusion_lon": 0.0, "lat": 38.892632166666665}, {"rental_uris": {"android": "https://dc.lft.to/lastmile_qr_scan", "ios": "https://dc.lft.to/lastmile_qr_scan"}, "is_reserved": 0, "is_disabled": 0, "name": "a637aefe205228e83a7493a1a5e3dbf9", "bike_id": "a637aefe205228e83a7493a1a5e3dbf9", "fusion_lat": 0.0, "lon": -77.02972816666667, "type": "electric_scooter", "fusion_lon": 0.0, "lat": 38.922544333333335}, {"rental_uris": {"android": "https://dc.lft.to/lastmile_qr_scan", "ios": "https://dc.lft.to/lastmile_qr_scan"}, "is_reserved": 0, "is_disabled": 0, "name": "70daa4ae97afe3afd05f03d0f651fa2b", "bike_id": "70daa4ae97afe3afd05f03d0f651fa2b", "fusion_lat": 0.0, "lon": -77.03644283333334, "type": "electric_scooter", "fusion_lon": 0.0, "lat": 38.9179765}, {"rental_uris": {"android": "https://dc.lft.to/lastmile_qr_scan", "ios": "https://dc.lft.to/lastmile_qr_scan"}, "is_reserved": 0, "is_disabled": 0, "name": "35edd711720f1008d453d2e94381c15a", "bike_id": "35edd711720f1008d453d2e94381c15a", "fusion_lat": 0.0, "lon": -77.01952316666667, "type": "electric_scooter", "fusion_lon": 0.0, "lat": 38.92419533333333}, {"rental_uris": {"android": "https://dc.lft.to/lastmile_qr_scan", "ios": "https://dc.lft.to/lastmile_qr_scan"}, "is_reserved": 0, "is_disabled": 0, "name": "e974627f9c6b50ceeac2a5a562043e7e", "bike_id": "e974627f9c6b50ceeac2a5a562043e7e", "fusion_lat": 0.0, "lon": -77.06302433333333, "type": "electric_scooter", "fusion_lon": 0.0, "lat": 38.907717166666664}, {"rental_uris": {"android": "https://dc.lft.to/lastmile_qr_scan", "ios": "https://dc.lft.to/lastmile_qr_scan"}, "is_reserved": 0, "is_disabled": 0, "name": "17fc7bcf5f4d93359ffa6eba4aeb2948", "bike_id": "17fc7bcf5f4d93359ffa6eba4aeb2948", "fusion_lat": 0.0, "lon": -77.01868266666666, "type": "electric_scooter", "fusion_lon": 0.0, "lat": 38.92911266666667}, {"rental_uris": {"android": "https://dc.lft.to/lastmile_qr_scan", "ios": "https://dc.lft.to/lastmile_qr_scan"}, "is_reserved": 0, "is_disabled": 0, "name": "0da6d776f2d13b0a8edff4766b17c23a", "bike_id": "0da6d776f2d13b0a8edff4766b17c23a", "fusion_lat": 0.0, "lon": -76.95707316666666, "type": "electric_bike", "fusion_lon": 0.0, "lat": 38.850864}, {"rental_uris": {"android": "https://dc.lft.to/lastmile_qr_scan", "ios": "https://dc.lft.to/lastmile_qr_scan"}, "is_reserved": 0, "is_disabled": 0, "name": "ab2ad4728fb48170dc72ac25c408e2dd", "bike_id": "ab2ad4728fb48170dc72ac25c408e2dd", "fusion_lat": 0.0, "lon": -77.02569016666666, "type": "electric_scooter", "fusion_lon": 0.0, "lat": 38.89577766666667}, {"rental_uris": {"android": "https://dc.lft.to/lastmile_qr_scan", "ios": "https://dc.lft.to/lastmile_qr_scan"}, "is_reserved": 0, "is_disabled": 0, "name": "6f256e2a9f22b3d248209a6ac1810c58", "bike_id": "6f256e2a9f22b3d248209a6ac1810c58", "fusion_lat": 0.0, "lon": -77.019549, "type": "electric_scooter", "fusion_lon": 0.0, "lat": 38.92327016666667}, {"rental_uris": {"android": "https://dc.lft.to/lastmile_qr_scan", "ios": "https://dc.lft.to/lastmile_qr_scan"}, "is_reserved": 0, "is_disabled": 0, "name": "cdb4560752517549b896aaa7a0bfbb9c", "bike_id": "cdb4560752517549b896aaa7a0bfbb9c", "fusion_lat": 0.0, "lon": -77.0426215, "type": "electric_scooter", "fusion_lon": 0.0, "lat": 38.91183066666667}, {"rental_uris": {"android": "https://dc.lft.to/lastmile_qr_scan", "ios": "https://dc.lft.to/lastmile_qr_scan"}, "is_reserved": 0, "is_disabled": 0, "name": "56dbce19719fa721bf373760d356cffb", "bike_id": "56dbce19719fa721bf373760d356cffb", "fusion_lat": 0.0, "lon": -76.99854216666667, "type": "electric_scooter", "fusion_lon": 0.0, "lat": 38.902610833333334}, {"rental_uris": {"android": "https://dc.lft.to/lastmile_qr_scan", "ios": "https://dc.lft.to/lastmile_qr_scan"}, "is_reserved": 0, "is_disabled": 0, "name": "acb8fe5b542a02d1e8c743d5baa65e43", "bike_id": "acb8fe5b542a02d1e8c743d5baa65e43", "fusion_lat": 0.0, "lon": -77.02294366666666, "type": "electric_scooter", "fusion_lon": 0.0, "lat": 38.89490583333333}, {"rental_uris": {"android": "https://dc.lft.to/lastmile_qr_scan", "ios": "https://dc.lft.to/lastmile_qr_scan"}, "is_reserved": 0, "is_disabled": 0, "name": "9f433218bd86842a639e24d911db612b", "bike_id": "9f433218bd86842a639e24d911db612b", "fusion_lat": 0.0, "lon": -77.02232933333333, "type": "electric_scooter", "fusion_lon": 0.0, "lat": 38.924761333333336}, {"rental_uris": {"android": "https://dc.lft.to/lastmile_qr_scan", "ios": "https://dc.lft.to/lastmile_qr_scan"}, "is_reserved": 0, "is_disabled": 0, "name": "00622def1223ce665fa9e8c929cdcfbd", "bike_id": "00622def1223ce665fa9e8c929cdcfbd", "fusion_lat": 0.0, "lon": -77.0966555, "type": "electric_bike", "fusion_lon": 0.0, "lat": 38.952143666666665}, {"rental_uris": {"android": "https://dc.lft.to/lastmile_qr_scan", "ios": "https://dc.lft.to/lastmile_qr_scan"}, "is_reserved": 0, "is_disabled": 0, "name": "806bc4b9e73a86cbc9a76c0d2700247a", "bike_id": "806bc4b9e73a86cbc9a76c0d2700247a", "fusion_lat": 0.0, "lon": -77.02847933333334, "type": "electric_scooter", "fusion_lon": 0.0, "lat": 38.8984555}, {"rental_uris": {"android": "https://dc.lft.to/lastmile_qr_scan", "ios": "https://dc.lft.to/lastmile_qr_scan"}, "is_reserved": 0, "is_disabled": 0, "name": "122ee392bb6cb3db8fafdc76f205a683", "bike_id": "122ee392bb6cb3db8fafdc76f205a683", "fusion_lat": 0.0, "lon": -77.02353533333333, "type": "electric_scooter", "fusion_lon": 0.0, "lat": 38.93533983333333}, {"rental_uris": {"android": "https://dc.lft.to/lastmile_qr_scan", "ios": "https://dc.lft.to/lastmile_qr_scan"}, "is_reserved": 0, "is_disabled": 0, "name": "f1e561398d7fe6246155363d9dfe03bd", "bike_id": "f1e561398d7fe6246155363d9dfe03bd", "fusion_lat": 0.0, "lon": -77.03381583333334, "type": "electric_scooter", "fusion_lon": 0.0, "lat": 38.900088333333336}, {"rental_uris": {"android": "https://dc.lft.to/lastmile_qr_scan", "ios": "https://dc.lft.to/lastmile_qr_scan"}, "is_reserved": 0, "is_disabled": 0, "name": "a481bd5badb50efe042978fcc6c98938", "bike_id": "a481bd5badb50efe042978fcc6c98938", "fusion_lat": 0.0, "lon": -77.029373, "type": "electric_scooter", "fusion_lon": 0.0, "lat": 38.89844216666667}, {"rental_uris": {"android": "https://dc.lft.to/lastmile_qr_scan", "ios": "https://dc.lft.to/lastmile_qr_scan"}, "is_reserved": 0, "is_disabled": 0, "name": "13c7feb27eff9b6489024fcda90c6fe4", "bike_id": "13c7feb27eff9b6489024fcda90c6fe4", "fusion_lat": 0.0, "lon": -77.01959466666666, "type": "electric_scooter", "fusion_lon": 0.0, "lat": 38.923225333333335}, {"rental_uris": {"android": "https://dc.lft.to/lastmile_qr_scan", "ios": "https://dc.lft.to/lastmile_qr_scan"}, "is_reserved": 0, "is_disabled": 0, "name": "7c266c4bc2dfa953b7958d57ef6ab021", "bike_id": "7c266c4bc2dfa953b7958d57ef6ab021", "fusion_lat": 0.0, "lon": -77.00223983333333, "type": "electric_scooter", "fusion_lon": 0.0, "lat": 38.90034416666667}, {"rental_uris": {"android": "https://dc.lft.to/lastmile_qr_scan", "ios": "https://dc.lft.to/lastmile_qr_scan"}, "is_reserved": 0, "is_disabled": 0, "name": "296d99efc282ebd4058af8178b7968db", "bike_id": "296d99efc282ebd4058af8178b7968db", "fusion_lat": 0.0, "lon": -77.02201533333333, "type": "electric_scooter", "fusion_lon": 0.0, "lat": 38.92079016666667}, {"rental_uris": {"android": "https://dc.lft.to/lastmile_qr_scan", "ios": "https://dc.lft.to/lastmile_qr_scan"}, "is_reserved": 0, "is_disabled": 0, "name": "dedff7f9fd820fc385a00a0c83680b07", "bike_id": "dedff7f9fd820fc385a00a0c83680b07", "fusion_lat": 0.0, "lon": -77.017201, "type": "electric_scooter", "fusion_lon": 0.0, "lat": 38.91738466666666}, {"rental_uris": {"android": "https://dc.lft.to/lastmile_qr_scan", "ios": "https://dc.lft.to/lastmile_qr_scan"}, "is_reserved": 0, "is_disabled": 0, "name": "164033949d72adec78b8e24341ac90d4", "bike_id": "164033949d72adec78b8e24341ac90d4", "fusion_lat": 0.0, "lon": -77.03377316666666, "type": "electric_scooter", "fusion_lon": 0.0, "lat": 38.89960716666667}, {"rental_uris": {"android": "https://dc.lft.to/lastmile_qr_scan", "ios": "https://dc.lft.to/lastmile_qr_scan"}, "is_reserved": 0, "is_disabled": 0, "name": "1bb0df7e90676bb4c6ea0ea037dd508f", "bike_id": "1bb0df7e90676bb4c6ea0ea037dd508f", "fusion_lat": 0.0, "lon": -77.0417725, "type": "electric_scooter", "fusion_lon": 0.0, "lat": 38.91719366666667}, {"rental_uris": {"android": "https://dc.lft.to/lastmile_qr_scan", "ios": "https://dc.lft.to/lastmile_qr_scan"}, "is_reserved": 0, "is_disabled": 0, "name": "c58e9e41421bb9d2c9fc811ce5ebe0ab", "bike_id": "c58e9e41421bb9d2c9fc811ce5ebe0ab", "fusion_lat": 0.0, "lon": -77.03154516666666, "type": "electric_scooter", "fusion_lon": 0.0, "lat": 38.89942283333333}, {"rental_uris": {"android": "https://dc.lft.to/lastmile_qr_scan", "ios": "https://dc.lft.to/lastmile_qr_scan"}, "is_reserved": 0, "is_disabled": 0, "name": "5835283bef80515cd57145667aa44633", "bike_id": "5835283bef80515cd57145667aa44633", "fusion_lat": 0.0, "lon": -77.01302033333333, "type": "electric_scooter", "fusion_lon": 0.0, "lat": 38.898308}, {"rental_uris": {"android": "https://dc.lft.to/lastmile_qr_scan", "ios": "https://dc.lft.to/lastmile_qr_scan"}, "is_reserved": 0, "is_disabled": 0, "name": "2d3e4be5ed3c0821324a5538128ad9bc", "bike_id": "2d3e4be5ed3c0821324a5538128ad9bc", "fusion_lat": 0.0, "lon": -77.0296525, "type": "electric_scooter", "fusion_lon": 0.0, "lat": 38.89221966666667}, {"rental_uris": {"android": "https://dc.lft.to/lastmile_qr_scan", "ios": "https://dc.lft.to/lastmile_qr_scan"}, "is_reserved": 0, "is_disabled": 0, "name": "bd3e0ca4a1faa41eb199a601a71bd4bd", "bike_id": "bd3e0ca4a1faa41eb199a601a71bd4bd", "fusion_lat": 0.0, "lon": -77.0289135, "type": "electric_bike", "fusion_lon": 0.0, "lat": 38.9944295}, {"rental_uris": {"android": "https://dc.lft.to/lastmile_qr_scan", "ios": "https://dc.lft.to/lastmile_qr_scan"}, "is_reserved": 0, "is_disabled": 0, "name": "ac57ff17917474d1f6ea891833f0fbcf", "bike_id": "ac57ff17917474d1f6ea891833f0fbcf", "fusion_lat": 0.0, "lon": -77.07239416666667, "type": "electric_scooter", "fusion_lon": 0.0, "lat": 38.939477333333336}, {"rental_uris": {"android": "https://dc.lft.to/lastmile_qr_scan", "ios": "https://dc.lft.to/lastmile_qr_scan"}, "is_reserved": 0, "is_disabled": 0, "name": "c250b456a2b42c0237189e94359be510", "bike_id": "c250b456a2b42c0237189e94359be510", "fusion_lat": 0.0, "lon": -76.90296166666667, "type": "electric_bike", "fusion_lon": 0.0, "lat": 39.00287516666667}, {"rental_uris": {"android": "https://dc.lft.to/lastmile_qr_scan", "ios": "https://dc.lft.to/lastmile_qr_scan"}, "is_reserved": 0, "is_disabled": 0, "name": "ac0573768d4cdc0ab6e5c4c8633de67a", "bike_id": "ac0573768d4cdc0ab6e5c4c8633de67a", "fusion_lat": 0.0, "lon": -77.00221816666667, "type": "electric_scooter", "fusion_lon": 0.0, "lat": 38.9003645}, {"rental_uris": {"android": "https://dc.lft.to/lastmile_qr_scan", "ios": "https://dc.lft.to/lastmile_qr_scan"}, "is_reserved": 0, "is_disabled": 0, "name": "75d27d033fb426998a15ea890a99c219", "bike_id": "75d27d033fb426998a15ea890a99c219", "fusion_lat": 0.0, "lon": -77.051524, "type": "electric_scooter", "fusion_lon": 0.0, "lat": 38.92373216666667}, {"rental_uris": {"android": "https://dc.lft.to/lastmile_qr_scan", "ios": "https://dc.lft.to/lastmile_qr_scan"}, "is_reserved": 0, "is_disabled": 0, "name": "e112b38cf841b2206aba8799e42e0a91", "bike_id": "e112b38cf841b2206aba8799e42e0a91", "fusion_lat": 0.0, "lon": -77.02099516666667, "type": "electric_scooter", "fusion_lon": 0.0, "lat": 38.927126333333334}, {"rental_uris": {"android": "https://dc.lft.to/lastmile_qr_scan", "ios": "https://dc.lft.to/lastmile_qr_scan"}, "is_reserved": 0, "is_disabled": 0, "name": "d174a30396eb7881731f1b50275354c1", "bike_id": "d174a30396eb7881731f1b50275354c1", "fusion_lat": 0.0, "lon": -77.03216583333334, "type": "electric_scooter", "fusion_lon": 0.0, "lat": 38.9160395}, {"rental_uris": {"android": "https://dc.lft.to/lastmile_qr_scan", "ios": "https://dc.lft.to/lastmile_qr_scan"}, "is_reserved": 0, "is_disabled": 0, "name": "9345c26de2d671a8eb9a74055736461b", "bike_id": "9345c26de2d671a8eb9a74055736461b", "fusion_lat": 0.0, "lon": -77.03181533333333, "type": "electric_scooter", "fusion_lon": 0.0, "lat": 38.88732616666667}, {"rental_uris": {"android": "https://dc.lft.to/lastmile_qr_scan", "ios": "https://dc.lft.to/lastmile_qr_scan"}, "is_reserved": 0, "is_disabled": 0, "name": "f1b7045001e51e22e2f33c77910dbf56", "bike_id": "f1b7045001e51e22e2f33c77910dbf56", "fusion_lat": 0.0, "lon": -77.041663, "type": "electric_scooter", "fusion_lon": 0.0, "lat": 38.9160205}, {"rental_uris": {"android": "https://dc.lft.to/lastmile_qr_scan", "ios": "https://dc.lft.to/lastmile_qr_scan"}, "is_reserved": 0, "is_disabled": 0, "name": "958f15fec4dbf09230d26dece82a6252", "bike_id": "958f15fec4dbf09230d26dece82a6252", "fusion_lat": 0.0, "lon": -76.9950435, "type": "electric_scooter", "fusion_lon": 0.0, "lat": 38.8624735}, {"rental_uris": {"android": "https://dc.lft.to/lastmile_qr_scan", "ios": "https://dc.lft.to/lastmile_qr_scan"}, "is_reserved": 0, "is_disabled": 0, "name": "072e12a4e95594da3f38714b34cc80c9", "bike_id": "072e12a4e95594da3f38714b34cc80c9", "fusion_lat": 0.0, "lon": -77.05131366666667, "type": "electric_scooter", "fusion_lon": 0.0, "lat": 38.906322833333334}, {"rental_uris": {"android": "https://dc.lft.to/lastmile_qr_scan", "ios": "https://dc.lft.to/lastmile_qr_scan"}, "is_reserved": 0, "is_disabled": 0, "name": "b0d4319e0f5ee7d990752349788c7991", "bike_id": "b0d4319e0f5ee7d990752349788c7991", "fusion_lat": 0.0, "lon": -77.0221785, "type": "electric_scooter", "fusion_lon": 0.0, "lat": 38.8962795}, {"rental_uris": {"android": "https://dc.lft.to/lastmile_qr_scan", "ios": "https://dc.lft.to/lastmile_qr_scan"}, "is_reserved": 0, "is_disabled": 0, "name": "601973ffe821cc403e8d1d8132c65903", "bike_id": "601973ffe821cc403e8d1d8132c65903", "fusion_lat": 0.0, "lon": -77.03396716666667, "type": "electric_scooter", "fusion_lon": 0.0, "lat": 38.941794}, {"rental_uris": {"android": "https://dc.lft.to/lastmile_qr_scan", "ios": "https://dc.lft.to/lastmile_qr_scan"}, "is_reserved": 0, "is_disabled": 0, "name": "c68257d74a2ad7fee80eb807c61bf234", "bike_id": "c68257d74a2ad7fee80eb807c61bf234", "fusion_lat": 0.0, "lon": -77.033607, "type": "electric_scooter", "fusion_lon": 0.0, "lat": 38.9027545}, {"rental_uris": {"android": "https://dc.lft.to/lastmile_qr_scan", "ios": "https://dc.lft.to/lastmile_qr_scan"}, "is_reserved": 0, "is_disabled": 0, "name": "83d223a69b3b69276e468b37b31e5746", "bike_id": "83d223a69b3b69276e468b37b31e5746", "fusion_lat": 0.0, "lon": -77.0214835, "type": "electric_scooter", "fusion_lon": 0.0, "lat": 38.90475}, {"rental_uris": {"android": "https://dc.lft.to/lastmile_qr_scan", "ios": "https://dc.lft.to/lastmile_qr_scan"}, "is_reserved": 0, "is_disabled": 0, "name": "c3be0f6a20949cebcacbbe4f120aba80", "bike_id": "c3be0f6a20949cebcacbbe4f120aba80", "fusion_lat": 0.0, "lon": -77.0440655, "type": "electric_scooter", "fusion_lon": 0.0, "lat": 38.90048866666667}, {"rental_uris": {"android": "https://dc.lft.to/lastmile_qr_scan", "ios": "https://dc.lft.to/lastmile_qr_scan"}, "is_reserved": 0, "is_disabled": 0, "name": "69572c9a0f3baecb401677c2be44d80f", "bike_id": "69572c9a0f3baecb401677c2be44d80f", "fusion_lat": 0.0, "lon": -77.04654316666667, "type": "electric_scooter", "fusion_lon": 0.0, "lat": 38.90047966666667}, {"rental_uris": {"android": "https://dc.lft.to/lastmile_qr_scan", "ios": "https://dc.lft.to/lastmile_qr_scan"}, "is_reserved": 0, "is_disabled": 0, "name": "7813ef66214d5352fabf62d8437efdf7", "bike_id": "7813ef66214d5352fabf62d8437efdf7", "fusion_lat": 0.0, "lon": -77.025287, "type": "electric_scooter", "fusion_lon": 0.0, "lat": 38.922891}, {"rental_uris": {"android": "https://dc.lft.to/lastmile_qr_scan", "ios": "https://dc.lft.to/lastmile_qr_scan"}, "is_reserved": 0, "is_disabled": 0, "name": "492cfe064bba39726f134682ac1509f7", "bike_id": "492cfe064bba39726f134682ac1509f7", "fusion_lat": 0.0, "lon": -77.00577616666666, "type": "electric_scooter", "fusion_lon": 0.0, "lat": 38.885020833333336}, {"rental_uris": {"android": "https://dc.lft.to/lastmile_qr_scan", "ios": "https://dc.lft.to/lastmile_qr_scan"}, "is_reserved": 0, "is_disabled": 0, "name": "9134fe6219936d3285afd1e14a71d57d", "bike_id": "9134fe6219936d3285afd1e14a71d57d", "fusion_lat": 0.0, "lon": -77.02699666666666, "type": "electric_scooter", "fusion_lon": 0.0, "lat": 38.94978666666667}, {"rental_uris": {"android": "https://dc.lft.to/lastmile_qr_scan", "ios": "https://dc.lft.to/lastmile_qr_scan"}, "is_reserved": 0, "is_disabled": 0, "name": "46e5e2576d15a0b8971ac0f69220fc7a", "bike_id": "46e5e2576d15a0b8971ac0f69220fc7a", "fusion_lat": 0.0, "lon": -77.03313383333334, "type": "electric_scooter", "fusion_lon": 0.0, "lat": 38.90008016666667}, {"rental_uris": {"android": "https://dc.lft.to/lastmile_qr_scan", "ios": "https://dc.lft.to/lastmile_qr_scan"}, "is_reserved": 0, "is_disabled": 0, "name": "af3a4ca7083c84af3eb137c77945f745", "bike_id": "af3a4ca7083c84af3eb137c77945f745", "fusion_lat": 0.0, "lon": -77.071993, "type": "electric_scooter", "fusion_lon": 0.0, "lat": 38.9075825}, {"rental_uris": {"android": "https://dc.lft.to/lastmile_qr_scan", "ios": "https://dc.lft.to/lastmile_qr_scan"}, "is_reserved": 0, "is_disabled": 0, "name": "249d1caec0f440affb6d7fc5dec4dce7", "bike_id": "249d1caec0f440affb6d7fc5dec4dce7", "fusion_lat": 0.0, "lon": -77.04401083333333, "type": "electric_scooter", "fusion_lon": 0.0, "lat": 38.90138816666666}, {"rental_uris": {"android": "https://dc.lft.to/lastmile_qr_scan", "ios": "https://dc.lft.to/lastmile_qr_scan"}, "is_reserved": 0, "is_disabled": 0, "name": "6c039099278ecfde481efb5e36d320fa", "bike_id": "6c039099278ecfde481efb5e36d320fa", "fusion_lat": 0.0, "lon": -77.01808566666666, "type": "electric_scooter", "fusion_lon": 0.0, "lat": 38.913677166666666}, {"rental_uris": {"android": "https://dc.lft.to/lastmile_qr_scan", "ios": "https://dc.lft.to/lastmile_qr_scan"}, "is_reserved": 0, "is_disabled": 0, "name": "60bb67d1ad6302950483a55fcb44f598", "bike_id": "60bb67d1ad6302950483a55fcb44f598", "fusion_lat": 0.0, "lon": -77.02054566666666, "type": "electric_scooter", "fusion_lon": 0.0, "lat": 38.921751}, {"rental_uris": {"android": "https://dc.lft.to/lastmile_qr_scan", "ios": "https://dc.lft.to/lastmile_qr_scan"}, "is_reserved": 0, "is_disabled": 0, "name": "df13fb61f645d22f2a434460dfb7863b", "bike_id": "df13fb61f645d22f2a434460dfb7863b", "fusion_lat": 0.0, "lon": -77.04512866666667, "type": "electric_scooter", "fusion_lon": 0.0, "lat": 38.899993333333335}, {"rental_uris": {"android": "https://dc.lft.to/lastmile_qr_scan", "ios": "https://dc.lft.to/lastmile_qr_scan"}, "is_reserved": 0, "is_disabled": 0, "name": "492c2bb0ee57b869155f04e6cff0af6b", "bike_id": "492c2bb0ee57b869155f04e6cff0af6b", "fusion_lat": 0.0, "lon": -77.0417255, "type": "electric_scooter", "fusion_lon": 0.0, "lat": 38.90520583333333}, {"rental_uris": {"android": "https://dc.lft.to/lastmile_qr_scan", "ios": "https://dc.lft.to/lastmile_qr_scan"}, "is_reserved": 0, "is_disabled": 0, "name": "8e36ba08dffb88a6f25b9101088cfd62", "bike_id": "8e36ba08dffb88a6f25b9101088cfd62", "fusion_lat": 0.0, "lon": -77.03315466666666, "type": "electric_scooter", "fusion_lon": 0.0, "lat": 38.928886166666665}, {"rental_uris": {"android": "https://dc.lft.to/lastmile_qr_scan", "ios": "https://dc.lft.to/lastmile_qr_scan"}, "is_reserved": 0, "is_disabled": 0, "name": "08989ade260ef2a64caf5e2f4f0fe092", "bike_id": "08989ade260ef2a64caf5e2f4f0fe092", "fusion_lat": 0.0, "lon": -77.04746783333333, "type": "electric_scooter", "fusion_lon": 0.0, "lat": 38.900466333333334}, {"rental_uris": {"android": "https://dc.lft.to/lastmile_qr_scan", "ios": "https://dc.lft.to/lastmile_qr_scan"}, "is_reserved": 0, "is_disabled": 0, "name": "fa21976d77275782e9d9b8cc85c2e3a3", "bike_id": "fa21976d77275782e9d9b8cc85c2e3a3", "fusion_lat": 0.0, "lon": -77.02132733333333, "type": "electric_scooter", "fusion_lon": 0.0, "lat": 38.887347}, {"rental_uris": {"android": "https://dc.lft.to/lastmile_qr_scan", "ios": "https://dc.lft.to/lastmile_qr_scan"}, "is_reserved": 0, "is_disabled": 0, "name": "97e869613fe2993954bb214310e871fc", "bike_id": "97e869613fe2993954bb214310e871fc", "fusion_lat": 0.0, "lon": -77.02112366666667, "type": "electric_scooter", "fusion_lon": 0.0, "lat": 38.906038}, {"rental_uris": {"android": "https://dc.lft.to/lastmile_qr_scan", "ios": "https://dc.lft.to/lastmile_qr_scan"}, "is_reserved": 0, "is_disabled": 0, "name": "5ccf94758e381de642cbe2136a307250", "bike_id": "5ccf94758e381de642cbe2136a307250", "fusion_lat": 0.0, "lon": -77.032028, "type": "electric_scooter", "fusion_lon": 0.0, "lat": 38.89831983333333}, {"rental_uris": {"android": "https://dc.lft.to/lastmile_qr_scan", "ios": "https://dc.lft.to/lastmile_qr_scan"}, "is_reserved": 0, "is_disabled": 0, "name": "bd94b373befcc29a218d69439b0ae7cd", "bike_id": "bd94b373befcc29a218d69439b0ae7cd", "fusion_lat": 0.0, "lon": -77.02794733333333, "type": "electric_scooter", "fusion_lon": 0.0, "lat": 38.9621515}, {"rental_uris": {"android": "https://dc.lft.to/lastmile_qr_scan", "ios": "https://dc.lft.to/lastmile_qr_scan"}, "is_reserved": 0, "is_disabled": 0, "name": "9a248bbbfd1f47aa97ae5de94a56f56b", "bike_id": "9a248bbbfd1f47aa97ae5de94a56f56b", "fusion_lat": 0.0, "lon": -77.04346283333334, "type": "electric_scooter", "fusion_lon": 0.0, "lat": 38.903999666666664}, {"rental_uris": {"android": "https://dc.lft.to/lastmile_qr_scan", "ios": "https://dc.lft.to/lastmile_qr_scan"}, "is_reserved": 0, "is_disabled": 0, "name": "be660788530d736d6f673228c1ab62ec", "bike_id": "be660788530d736d6f673228c1ab62ec", "fusion_lat": 0.0, "lon": -77.00362083333333, "type": "electric_scooter", "fusion_lon": 0.0, "lat": 38.88702983333334}, {"rental_uris": {"android": "https://dc.lft.to/lastmile_qr_scan", "ios": "https://dc.lft.to/lastmile_qr_scan"}, "is_reserved": 0, "is_disabled": 0, "name": "e969eccfcf7b1d7c33710e6bd53b20c8", "bike_id": "e969eccfcf7b1d7c33710e6bd53b20c8", "fusion_lat": 0.0, "lon": -77.0381835, "type": "electric_scooter", "fusion_lon": 0.0, "lat": 38.906517666666666}, {"rental_uris": {"android": "https://dc.lft.to/lastmile_qr_scan", "ios": "https://dc.lft.to/lastmile_qr_scan"}, "is_reserved": 0, "is_disabled": 0, "name": "505e03a484c804e46494147e071edb5f", "bike_id": "505e03a484c804e46494147e071edb5f", "fusion_lat": 0.0, "lon": -76.95354383333333, "type": "electric_bike", "fusion_lon": 0.0, "lat": 38.941675000000004}, {"rental_uris": {"android": "https://dc.lft.to/lastmile_qr_scan", "ios": "https://dc.lft.to/lastmile_qr_scan"}, "is_reserved": 0, "is_disabled": 0, "name": "4fc1936178d84fc13d31ff7cfc86f133", "bike_id": "4fc1936178d84fc13d31ff7cfc86f133", "fusion_lat": 0.0, "lon": -77.00987416666666, "type": "electric_scooter", "fusion_lon": 0.0, "lat": 38.916425333333336}, {"rental_uris": {"android": "https://dc.lft.to/lastmile_qr_scan", "ios": "https://dc.lft.to/lastmile_qr_scan"}, "is_reserved": 0, "is_disabled": 0, "name": "213563c1ed808def0701be4c40e5844a", "bike_id": "213563c1ed808def0701be4c40e5844a", "fusion_lat": 0.0, "lon": -77.04358416666666, "type": "electric_scooter", "fusion_lon": 0.0, "lat": 38.913504}, {"rental_uris": {"android": "https://dc.lft.to/lastmile_qr_scan", "ios": "https://dc.lft.to/lastmile_qr_scan"}, "is_reserved": 0, "is_disabled": 0, "name": "eb20a1c4100fe811c09e757a597cd1ce", "bike_id": "eb20a1c4100fe811c09e757a597cd1ce", "fusion_lat": 0.0, "lon": -77.09620933333333, "type": "electric_bike", "fusion_lon": 0.0, "lat": 38.974365}, {"rental_uris": {"android": "https://dc.lft.to/lastmile_qr_scan", "ios": "https://dc.lft.to/lastmile_qr_scan"}, "is_reserved": 0, "is_disabled": 0, "name": "e416b6e2eed3b9d3d1515a05325be532", "bike_id": "e416b6e2eed3b9d3d1515a05325be532", "fusion_lat": 0.0, "lon": -77.0211645, "type": "electric_scooter", "fusion_lon": 0.0, "lat": 38.93008416666667}, {"rental_uris": {"android": "https://dc.lft.to/lastmile_qr_scan", "ios": "https://dc.lft.to/lastmile_qr_scan"}, "is_reserved": 0, "is_disabled": 0, "name": "eb5e57e7aac21d766f4ab84acb2d90af", "bike_id": "eb5e57e7aac21d766f4ab84acb2d90af", "fusion_lat": 0.0, "lon": -77.04003483333334, "type": "electric_scooter", "fusion_lon": 0.0, "lat": 38.934261166666666}, {"rental_uris": {"android": "https://dc.lft.to/lastmile_qr_scan", "ios": "https://dc.lft.to/lastmile_qr_scan"}, "is_reserved": 0, "is_disabled": 0, "name": "58110ee1f72209d4ac2cabfb46c3eb2a", "bike_id": "58110ee1f72209d4ac2cabfb46c3eb2a", "fusion_lat": 0.0, "lon": -76.99541983333333, "type": "electric_bike", "fusion_lon": 0.0, "lat": 38.956286666666664}, {"rental_uris": {"android": "https://dc.lft.to/lastmile_qr_scan", "ios": "https://dc.lft.to/lastmile_qr_scan"}, "is_reserved": 0, "is_disabled": 0, "name": "1bdda0f533a5b9e404b0796810fd59f3", "bike_id": "1bdda0f533a5b9e404b0796810fd59f3", "fusion_lat": 0.0, "lon": -77.03036716666666, "type": "electric_scooter", "fusion_lon": 0.0, "lat": 38.950776166666664}, {"rental_uris": {"android": "https://dc.lft.to/lastmile_qr_scan", "ios": "https://dc.lft.to/lastmile_qr_scan"}, "is_reserved": 0, "is_disabled": 0, "name": "18120f4d426677cd8a4839a7b5599a67", "bike_id": "18120f4d426677cd8a4839a7b5599a67", "fusion_lat": 0.0, "lon": -77.0060435, "type": "electric_scooter", "fusion_lon": 0.0, "lat": 38.87183383333333}, {"rental_uris": {"android": "https://dc.lft.to/lastmile_qr_scan", "ios": "https://dc.lft.to/lastmile_qr_scan"}, "is_reserved": 0, "is_disabled": 0, "name": "1891d271454872e21f9b9095ac9d28cd", "bike_id": "1891d271454872e21f9b9095ac9d28cd", "fusion_lat": 0.0, "lon": -77.02696383333334, "type": "electric_scooter", "fusion_lon": 0.0, "lat": 38.912232333333336}, {"rental_uris": {"android": "https://dc.lft.to/lastmile_qr_scan", "ios": "https://dc.lft.to/lastmile_qr_scan"}, "is_reserved": 0, "is_disabled": 0, "name": "6f920ba1c5e68685e9f1c8d3d7dbf6ac", "bike_id": "6f920ba1c5e68685e9f1c8d3d7dbf6ac", "fusion_lat": 0.0, "lon": -76.9671435, "type": "electric_scooter", "fusion_lon": 0.0, "lat": 38.85974483333333}, {"rental_uris": {"android": "https://dc.lft.to/lastmile_qr_scan", "ios": "https://dc.lft.to/lastmile_qr_scan"}, "is_reserved": 0, "is_disabled": 0, "name": "702d4f539dc3adc4431be33228b21af8", "bike_id": "702d4f539dc3adc4431be33228b21af8", "fusion_lat": 0.0, "lon": -76.96544683333333, "type": "electric_scooter", "fusion_lon": 0.0, "lat": 38.918528333333335}, {"rental_uris": {"android": "https://dc.lft.to/lastmile_qr_scan", "ios": "https://dc.lft.to/lastmile_qr_scan"}, "is_reserved": 0, "is_disabled": 0, "name": "749b6ec42c0ca08448cd7f185ea7c39f", "bike_id": "749b6ec42c0ca08448cd7f185ea7c39f", "fusion_lat": 0.0, "lon": -77.00307666666667, "type": "electric_scooter", "fusion_lon": 0.0, "lat": 38.87659466666667}, {"rental_uris": {"android": "https://dc.lft.to/lastmile_qr_scan", "ios": "https://dc.lft.to/lastmile_qr_scan"}, "is_reserved": 0, "is_disabled": 0, "name": "050906817a81f5bd28bbbba91f16ec48", "bike_id": "050906817a81f5bd28bbbba91f16ec48", "fusion_lat": 0.0, "lon": -77.02211333333334, "type": "electric_scooter", "fusion_lon": 0.0, "lat": 38.88707933333333}, {"rental_uris": {"android": "https://dc.lft.to/lastmile_qr_scan", "ios": "https://dc.lft.to/lastmile_qr_scan"}, "is_reserved": 0, "is_disabled": 0, "name": "0da7ccfa7ecc406de66dcd98a285f6cc", "bike_id": "0da7ccfa7ecc406de66dcd98a285f6cc", "fusion_lat": 0.0, "lon": -77.03219616666667, "type": "electric_scooter", "fusion_lon": 0.0, "lat": 38.89687333333333}, {"rental_uris": {"android": "https://dc.lft.to/lastmile_qr_scan", "ios": "https://dc.lft.to/lastmile_qr_scan"}, "is_reserved": 0, "is_disabled": 0, "name": "570bd8bf23ec379ea6ac3ec98f932322", "bike_id": "570bd8bf23ec379ea6ac3ec98f932322", "fusion_lat": 0.0, "lon": -77.01736416666667, "type": "electric_scooter", "fusion_lon": 0.0, "lat": 38.9751875}, {"rental_uris": {"android": "https://dc.lft.to/lastmile_qr_scan", "ios": "https://dc.lft.to/lastmile_qr_scan"}, "is_reserved": 0, "is_disabled": 0, "name": "b2b4d189322bc0bc7a5fa1d74a3b18f1", "bike_id": "b2b4d189322bc0bc7a5fa1d74a3b18f1", "fusion_lat": 0.0, "lon": -77.0213205, "type": "electric_scooter", "fusion_lon": 0.0, "lat": 38.922708666666665}, {"rental_uris": {"android": "https://dc.lft.to/lastmile_qr_scan", "ios": "https://dc.lft.to/lastmile_qr_scan"}, "is_reserved": 0, "is_disabled": 0, "name": "aa39f8233976e321ec6de7306503e223", "bike_id": "aa39f8233976e321ec6de7306503e223", "fusion_lat": 0.0, "lon": -77.04039633333333, "type": "electric_scooter", "fusion_lon": 0.0, "lat": 38.8983605}, {"rental_uris": {"android": "https://dc.lft.to/lastmile_qr_scan", "ios": "https://dc.lft.to/lastmile_qr_scan"}, "is_reserved": 0, "is_disabled": 0, "name": "1d598d2cdbd451ea54df0e9b64b947af", "bike_id": "1d598d2cdbd451ea54df0e9b64b947af", "fusion_lat": 0.0, "lon": -77.006658, "type": "electric_scooter", "fusion_lon": 0.0, "lat": 38.9000065}, {"rental_uris": {"android": "https://dc.lft.to/lastmile_qr_scan", "ios": "https://dc.lft.to/lastmile_qr_scan"}, "is_reserved": 0, "is_disabled": 0, "name": "2566ff6939f7b1871329a0eb5a14adbd", "bike_id": "2566ff6939f7b1871329a0eb5a14adbd", "fusion_lat": 0.0, "lon": -77.00600983333334, "type": "electric_scooter", "fusion_lon": 0.0, "lat": 38.905538}, {"rental_uris": {"android": "https://dc.lft.to/lastmile_qr_scan", "ios": "https://dc.lft.to/lastmile_qr_scan"}, "is_reserved": 0, "is_disabled": 0, "name": "239291b7c8dfbf465c76a65915a826a9", "bike_id": "239291b7c8dfbf465c76a65915a826a9", "fusion_lat": 0.0, "lon": -77.01768433333334, "type": "electric_scooter", "fusion_lon": 0.0, "lat": 38.87685616666667}, {"rental_uris": {"android": "https://dc.lft.to/lastmile_qr_scan", "ios": "https://dc.lft.to/lastmile_qr_scan"}, "is_reserved": 0, "is_disabled": 0, "name": "548e6119dcec78ce6608109937fb5ab7", "bike_id": "548e6119dcec78ce6608109937fb5ab7", "fusion_lat": 0.0, "lon": -77.05033083333333, "type": "electric_scooter", "fusion_lon": 0.0, "lat": 38.898348666666664}, {"rental_uris": {"android": "https://dc.lft.to/lastmile_qr_scan", "ios": "https://dc.lft.to/lastmile_qr_scan"}, "is_reserved": 0, "is_disabled": 0, "name": "ff052e9af01642b8bcf83c6b70a23cb3", "bike_id": "ff052e9af01642b8bcf83c6b70a23cb3", "fusion_lat": 0.0, "lon": -77.013903, "type": "electric_scooter", "fusion_lon": 0.0, "lat": 38.900530333333336}, {"rental_uris": {"android": "https://dc.lft.to/lastmile_qr_scan", "ios": "https://dc.lft.to/lastmile_qr_scan"}, "is_reserved": 0, "is_disabled": 0, "name": "ab9e5a54318750895a8285822362741d", "bike_id": "ab9e5a54318750895a8285822362741d", "fusion_lat": 0.0, "lon": -77.00596666666667, "type": "electric_scooter", "fusion_lon": 0.0, "lat": 38.90620666666667}, {"rental_uris": {"android": "https://dc.lft.to/lastmile_qr_scan", "ios": "https://dc.lft.to/lastmile_qr_scan"}, "is_reserved": 0, "is_disabled": 0, "name": "36436a531aae025bd8c0b3968480959e", "bike_id": "36436a531aae025bd8c0b3968480959e", "fusion_lat": 0.0, "lon": -77.018551, "type": "electric_scooter", "fusion_lon": 0.0, "lat": 38.92905833333333}, {"rental_uris": {"android": "https://dc.lft.to/lastmile_qr_scan", "ios": "https://dc.lft.to/lastmile_qr_scan"}, "is_reserved": 0, "is_disabled": 0, "name": "4e561317ecfffd26b818aad450f1a1d8", "bike_id": "4e561317ecfffd26b818aad450f1a1d8", "fusion_lat": 0.0, "lon": -77.040121, "type": "electric_scooter", "fusion_lon": 0.0, "lat": 38.90724216666667}, {"rental_uris": {"android": "https://dc.lft.to/lastmile_qr_scan", "ios": "https://dc.lft.to/lastmile_qr_scan"}, "is_reserved": 0, "is_disabled": 0, "name": "0aaa26affdbf3925d97791e7ae2b3559", "bike_id": "0aaa26affdbf3925d97791e7ae2b3559", "fusion_lat": 0.0, "lon": -77.00355283333333, "type": "electric_scooter", "fusion_lon": 0.0, "lat": 38.887057166666665}, {"rental_uris": {"android": "https://dc.lft.to/lastmile_qr_scan", "ios": "https://dc.lft.to/lastmile_qr_scan"}, "is_reserved": 0, "is_disabled": 0, "name": "f3415f402329b9a60bb65f9bfd78ae1f", "bike_id": "f3415f402329b9a60bb65f9bfd78ae1f", "fusion_lat": 0.0, "lon": -77.00626066666666, "type": "electric_scooter", "fusion_lon": 0.0, "lat": 38.871663166666664}, {"rental_uris": {"android": "https://dc.lft.to/lastmile_qr_scan", "ios": "https://dc.lft.to/lastmile_qr_scan"}, "is_reserved": 0, "is_disabled": 0, "name": "a72e37c41cdacc4f3c31e2f96204383f", "bike_id": "a72e37c41cdacc4f3c31e2f96204383f", "fusion_lat": 0.0, "lon": -77.03679866666667, "type": "electric_scooter", "fusion_lon": 0.0, "lat": 38.922623333333334}, {"rental_uris": {"android": "https://dc.lft.to/lastmile_qr_scan", "ios": "https://dc.lft.to/lastmile_qr_scan"}, "is_reserved": 0, "is_disabled": 0, "name": "6ad700cf2e27aea62460c0a058b7fc30", "bike_id": "6ad700cf2e27aea62460c0a058b7fc30", "fusion_lat": 0.0, "lon": -77.04293233333334, "type": "electric_bike", "fusion_lon": 0.0, "lat": 39.03429116666667}, {"rental_uris": {"android": "https://dc.lft.to/lastmile_qr_scan", "ios": "https://dc.lft.to/lastmile_qr_scan"}, "is_reserved": 0, "is_disabled": 0, "name": "42cc6dce2d082ada2e46c7de8d8e578c", "bike_id": "42cc6dce2d082ada2e46c7de8d8e578c", "fusion_lat": 0.0, "lon": -77.02804816666666, "type": "electric_scooter", "fusion_lon": 0.0, "lat": 38.89869066666667}, {"rental_uris": {"android": "https://dc.lft.to/lastmile_qr_scan", "ios": "https://dc.lft.to/lastmile_qr_scan"}, "is_reserved": 0, "is_disabled": 0, "name": "f5cc08e9450a39898ac4a1995832c107", "bike_id": "f5cc08e9450a39898ac4a1995832c107", "fusion_lat": 0.0, "lon": -76.99074233333333, "type": "electric_bike", "fusion_lon": 0.0, "lat": 38.942581833333335}, {"rental_uris": {"android": "https://dc.lft.to/lastmile_qr_scan", "ios": "https://dc.lft.to/lastmile_qr_scan"}, "is_reserved": 0, "is_disabled": 0, "name": "d7bfeb0a1c90e590136912f8189cdac4", "bike_id": "d7bfeb0a1c90e590136912f8189cdac4", "fusion_lat": 0.0, "lon": -77.04345633333334, "type": "electric_scooter", "fusion_lon": 0.0, "lat": 38.900361833333335}, {"rental_uris": {"android": "https://dc.lft.to/lastmile_qr_scan", "ios": "https://dc.lft.to/lastmile_qr_scan"}, "is_reserved": 0, "is_disabled": 0, "name": "c90b3329be8dc3fa7c9a62c388c8a02d", "bike_id": "c90b3329be8dc3fa7c9a62c388c8a02d", "fusion_lat": 0.0, "lon": -77.00600616666667, "type": "electric_scooter", "fusion_lon": 0.0, "lat": 38.905760666666666}, {"rental_uris": {"android": "https://dc.lft.to/lastmile_qr_scan", "ios": "https://dc.lft.to/lastmile_qr_scan"}, "is_reserved": 0, "is_disabled": 0, "name": "832c2d8f6061f52504ce643463840f5d", "bike_id": "832c2d8f6061f52504ce643463840f5d", "fusion_lat": 0.0, "lon": -77.07459533333333, "type": "electric_scooter", "fusion_lon": 0.0, "lat": 38.93780616666667}, {"rental_uris": {"android": "https://dc.lft.to/lastmile_qr_scan", "ios": "https://dc.lft.to/lastmile_qr_scan"}, "is_reserved": 0, "is_disabled": 0, "name": "efd0f49ad2015f092d435d4dc4bb206c", "bike_id": "efd0f49ad2015f092d435d4dc4bb206c", "fusion_lat": 0.0, "lon": -77.0154805, "type": "electric_scooter", "fusion_lon": 0.0, "lat": 38.88330716666667}, {"rental_uris": {"android": "https://dc.lft.to/lastmile_qr_scan", "ios": "https://dc.lft.to/lastmile_qr_scan"}, "is_reserved": 0, "is_disabled": 0, "name": "0d9c4043e42ae6c937e4c3af2c2968c7", "bike_id": "0d9c4043e42ae6c937e4c3af2c2968c7", "fusion_lat": 0.0, "lon": -77.00027716666666, "type": "electric_scooter", "fusion_lon": 0.0, "lat": 38.919697666666664}, {"rental_uris": {"android": "https://dc.lft.to/lastmile_qr_scan", "ios": "https://dc.lft.to/lastmile_qr_scan"}, "is_reserved": 0, "is_disabled": 0, "name": "36b0ec5f227613fc87d6ed2a26d7d5ac", "bike_id": "36b0ec5f227613fc87d6ed2a26d7d5ac", "fusion_lat": 0.0, "lon": -77.037517, "type": "electric_scooter", "fusion_lon": 0.0, "lat": 38.9024105}, {"rental_uris": {"android": "https://dc.lft.to/lastmile_qr_scan", "ios": "https://dc.lft.to/lastmile_qr_scan"}, "is_reserved": 0, "is_disabled": 0, "name": "d615b46ead33bdfb9e61acbcce91ba69", "bike_id": "d615b46ead33bdfb9e61acbcce91ba69", "fusion_lat": 0.0, "lon": -77.02716683333334, "type": "electric_bike", "fusion_lon": 0.0, "lat": 38.89625733333333}, {"rental_uris": {"android": "https://dc.lft.to/lastmile_qr_scan", "ios": "https://dc.lft.to/lastmile_qr_scan"}, "is_reserved": 0, "is_disabled": 0, "name": "67ab6de3d2290538b29abb2ce82c67ba", "bike_id": "67ab6de3d2290538b29abb2ce82c67ba", "fusion_lat": 0.0, "lon": -76.97328766666666, "type": "electric_scooter", "fusion_lon": 0.0, "lat": 38.904077666666666}, {"rental_uris": {"android": "https://dc.lft.to/lastmile_qr_scan", "ios": "https://dc.lft.to/lastmile_qr_scan"}, "is_reserved": 0, "is_disabled": 0, "name": "55b116e3c06b65dc9721fb3b23a0afae", "bike_id": "55b116e3c06b65dc9721fb3b23a0afae", "fusion_lat": 0.0, "lon": -77.03730816666666, "type": "electric_scooter", "fusion_lon": 0.0, "lat": 38.926516666666664}, {"rental_uris": {"android": "https://dc.lft.to/lastmile_qr_scan", "ios": "https://dc.lft.to/lastmile_qr_scan"}, "is_reserved": 0, "is_disabled": 0, "name": "846e063a2249d013c0e27a525826d172", "bike_id": "846e063a2249d013c0e27a525826d172", "fusion_lat": 0.0, "lon": -77.03803583333334, "type": "electric_scooter", "fusion_lon": 0.0, "lat": 38.90674416666667}, {"rental_uris": {"android": "https://dc.lft.to/lastmile_qr_scan", "ios": "https://dc.lft.to/lastmile_qr_scan"}, "is_reserved": 0, "is_disabled": 0, "name": "fda8126bf89eacd2750bbea8a07167ec", "bike_id": "fda8126bf89eacd2750bbea8a07167ec", "fusion_lat": 0.0, "lon": -77.04873883333333, "type": "electric_scooter", "fusion_lon": 0.0, "lat": 38.898728166666665}, {"rental_uris": {"android": "https://dc.lft.to/lastmile_qr_scan", "ios": "https://dc.lft.to/lastmile_qr_scan"}, "is_reserved": 0, "is_disabled": 0, "name": "18ae346f178d5486be2aa6462030fba2", "bike_id": "18ae346f178d5486be2aa6462030fba2", "fusion_lat": 0.0, "lon": -77.02465416666666, "type": "electric_scooter", "fusion_lon": 0.0, "lat": 38.95775283333333}, {"rental_uris": {"android": "https://dc.lft.to/lastmile_qr_scan", "ios": "https://dc.lft.to/lastmile_qr_scan"}, "is_reserved": 0, "is_disabled": 0, "name": "cb373e303f10b858b3914979ba6d2ceb", "bike_id": "cb373e303f10b858b3914979ba6d2ceb", "fusion_lat": 0.0, "lon": -77.05825433333334, "type": "electric_scooter", "fusion_lon": 0.0, "lat": 38.9352465}, {"rental_uris": {"android": "https://dc.lft.to/lastmile_qr_scan", "ios": "https://dc.lft.to/lastmile_qr_scan"}, "is_reserved": 0, "is_disabled": 0, "name": "34e52009dfe3611d3a9187f8e38f4396", "bike_id": "34e52009dfe3611d3a9187f8e38f4396", "fusion_lat": 0.0, "lon": -77.0695135, "type": "electric_bike", "fusion_lon": 0.0, "lat": 38.83627933333333}, {"rental_uris": {"android": "https://dc.lft.to/lastmile_qr_scan", "ios": "https://dc.lft.to/lastmile_qr_scan"}, "is_reserved": 0, "is_disabled": 0, "name": "791319862e6b733f0778b95f493c656d", "bike_id": "791319862e6b733f0778b95f493c656d", "fusion_lat": 0.0, "lon": -77.03370083333333, "type": "electric_scooter", "fusion_lon": 0.0, "lat": 38.900358833333335}, {"rental_uris": {"android": "https://dc.lft.to/lastmile_qr_scan", "ios": "https://dc.lft.to/lastmile_qr_scan"}, "is_reserved": 0, "is_disabled": 0, "name": "13c93cc5b41e897a86877cabec966059", "bike_id": "13c93cc5b41e897a86877cabec966059", "fusion_lat": 0.0, "lon": -77.1289795, "type": "electric_bike", "fusion_lon": 0.0, "lat": 38.906031666666664}, {"rental_uris": {"android": "https://dc.lft.to/lastmile_qr_scan", "ios": "https://dc.lft.to/lastmile_qr_scan"}, "is_reserved": 0, "is_disabled": 0, "name": "1f6197103ad1eccf2de925aeadd7efbf", "bike_id": "1f6197103ad1eccf2de925aeadd7efbf", "fusion_lat": 0.0, "lon": -77.00742016666666, "type": "electric_scooter", "fusion_lon": 0.0, "lat": 38.89832766666667}, {"rental_uris": {"android": "https://dc.lft.to/lastmile_qr_scan", "ios": "https://dc.lft.to/lastmile_qr_scan"}, "is_reserved": 0, "is_disabled": 0, "name": "95422975974635f165d7864817394d53", "bike_id": "95422975974635f165d7864817394d53", "fusion_lat": 0.0, "lon": -76.96901216666667, "type": "electric_bike", "fusion_lon": 0.0, "lat": 38.869796666666666}, {"rental_uris": {"android": "https://dc.lft.to/lastmile_qr_scan", "ios": "https://dc.lft.to/lastmile_qr_scan"}, "is_reserved": 0, "is_disabled": 0, "name": "b656ead205b2b791491d0901e54be43a", "bike_id": "b656ead205b2b791491d0901e54be43a", "fusion_lat": 0.0, "lon": -77.0237535, "type": "electric_scooter", "fusion_lon": 0.0, "lat": 38.8921625}, {"rental_uris": {"android": "https://dc.lft.to/lastmile_qr_scan", "ios": "https://dc.lft.to/lastmile_qr_scan"}, "is_reserved": 0, "is_disabled": 0, "name": "3ca41dbc0c8a34f4ef820131330e1fb4", "bike_id": "3ca41dbc0c8a34f4ef820131330e1fb4", "fusion_lat": 0.0, "lon": -77.01530083333333, "type": "electric_scooter", "fusion_lon": 0.0, "lat": 38.893292}, {"rental_uris": {"android": "https://dc.lft.to/lastmile_qr_scan", "ios": "https://dc.lft.to/lastmile_qr_scan"}, "is_reserved": 0, "is_disabled": 0, "name": "4258ff9b9ab771b8ac5c06807b139a4e", "bike_id": "4258ff9b9ab771b8ac5c06807b139a4e", "fusion_lat": 0.0, "lon": -77.03999383333333, "type": "electric_scooter", "fusion_lon": 0.0, "lat": 38.93421166666667}, {"rental_uris": {"android": "https://dc.lft.to/lastmile_qr_scan", "ios": "https://dc.lft.to/lastmile_qr_scan"}, "is_reserved": 0, "is_disabled": 0, "name": "74b792f5792a1eb8b1d1256377b8d766", "bike_id": "74b792f5792a1eb8b1d1256377b8d766", "fusion_lat": 0.0, "lon": -77.0196625, "type": "electric_scooter", "fusion_lon": 0.0, "lat": 38.92323316666667}, {"rental_uris": {"android": "https://dc.lft.to/lastmile_qr_scan", "ios": "https://dc.lft.to/lastmile_qr_scan"}, "is_reserved": 0, "is_disabled": 0, "name": "c8faddd19289b25fa9db5ecebb6cb763", "bike_id": "c8faddd19289b25fa9db5ecebb6cb763", "fusion_lat": 0.0, "lon": -77.00359983333334, "type": "electric_scooter", "fusion_lon": 0.0, "lat": 38.882566}, {"rental_uris": {"android": "https://dc.lft.to/lastmile_qr_scan", "ios": "https://dc.lft.to/lastmile_qr_scan"}, "is_reserved": 0, "is_disabled": 0, "name": "482a4254bd4d7db92a768c66d090466f", "bike_id": "482a4254bd4d7db92a768c66d090466f", "fusion_lat": 0.0, "lon": -77.02819766666667, "type": "electric_scooter", "fusion_lon": 0.0, "lat": 38.93124316666667}, {"rental_uris": {"android": "https://dc.lft.to/lastmile_qr_scan", "ios": "https://dc.lft.to/lastmile_qr_scan"}, "is_reserved": 0, "is_disabled": 0, "name": "3b7303339d291f0420937d91f7a0d0ce", "bike_id": "3b7303339d291f0420937d91f7a0d0ce", "fusion_lat": 0.0, "lon": -77.0334795, "type": "electric_scooter", "fusion_lon": 0.0, "lat": 38.935103166666664}, {"rental_uris": {"android": "https://dc.lft.to/lastmile_qr_scan", "ios": "https://dc.lft.to/lastmile_qr_scan"}, "is_reserved": 0, "is_disabled": 0, "name": "0f07b811278ce50c00ac856816f26ad0", "bike_id": "0f07b811278ce50c00ac856816f26ad0", "fusion_lat": 0.0, "lon": -77.03322233333333, "type": "electric_scooter", "fusion_lon": 0.0, "lat": 38.89872016666666}, {"rental_uris": {"android": "https://dc.lft.to/lastmile_qr_scan", "ios": "https://dc.lft.to/lastmile_qr_scan"}, "is_reserved": 0, "is_disabled": 0, "name": "f45037b290452607da936d8488e2ad81", "bike_id": "f45037b290452607da936d8488e2ad81", "fusion_lat": 0.0, "lon": -77.03006333333333, "type": "electric_bike", "fusion_lon": 0.0, "lat": 38.90025133333333}, {"rental_uris": {"android": "https://dc.lft.to/lastmile_qr_scan", "ios": "https://dc.lft.to/lastmile_qr_scan"}, "is_reserved": 0, "is_disabled": 0, "name": "689dabae760f19e37c4484b26804891b", "bike_id": "689dabae760f19e37c4484b26804891b", "fusion_lat": 0.0, "lon": -77.05911833333333, "type": "electric_scooter", "fusion_lon": 0.0, "lat": 38.901476333333335}, {"rental_uris": {"android": "https://dc.lft.to/lastmile_qr_scan", "ios": "https://dc.lft.to/lastmile_qr_scan"}, "is_reserved": 0, "is_disabled": 0, "name": "0b546ddd88650325d885d1c53c011076", "bike_id": "0b546ddd88650325d885d1c53c011076", "fusion_lat": 0.0, "lon": -77.0384625, "type": "electric_scooter", "fusion_lon": 0.0, "lat": 38.903215833333334}, {"rental_uris": {"android": "https://dc.lft.to/lastmile_qr_scan", "ios": "https://dc.lft.to/lastmile_qr_scan"}, "is_reserved": 0, "is_disabled": 0, "name": "3b23b6a95939dd18ff13add61fd3193b", "bike_id": "3b23b6a95939dd18ff13add61fd3193b", "fusion_lat": 0.0, "lon": -77.06301466666666, "type": "electric_scooter", "fusion_lon": 0.0, "lat": 38.90390166666667}, {"rental_uris": {"android": "https://dc.lft.to/lastmile_qr_scan", "ios": "https://dc.lft.to/lastmile_qr_scan"}, "is_reserved": 0, "is_disabled": 0, "name": "e9c4bd97f0e860fb7364e236437f02d6", "bike_id": "e9c4bd97f0e860fb7364e236437f02d6", "fusion_lat": 0.0, "lon": -77.00918116666666, "type": "electric_scooter", "fusion_lon": 0.0, "lat": 38.89549516666666}, {"rental_uris": {"android": "https://dc.lft.to/lastmile_qr_scan", "ios": "https://dc.lft.to/lastmile_qr_scan"}, "is_reserved": 0, "is_disabled": 0, "name": "72abaf014557787f8414d329a5f65c7d", "bike_id": "72abaf014557787f8414d329a5f65c7d", "fusion_lat": 0.0, "lon": -77.039552, "type": "electric_scooter", "fusion_lon": 0.0, "lat": 38.9080965}, {"rental_uris": {"android": "https://dc.lft.to/lastmile_qr_scan", "ios": "https://dc.lft.to/lastmile_qr_scan"}, "is_reserved": 0, "is_disabled": 0, "name": "472acfc54cedbbbc0841660fac535241", "bike_id": "472acfc54cedbbbc0841660fac535241", "fusion_lat": 0.0, "lon": -77.03355416666666, "type": "electric_scooter", "fusion_lon": 0.0, "lat": 38.92235383333333}, {"rental_uris": {"android": "https://dc.lft.to/lastmile_qr_scan", "ios": "https://dc.lft.to/lastmile_qr_scan"}, "is_reserved": 0, "is_disabled": 0, "name": "691c685c4354731c8dcf321ca0ea9df1", "bike_id": "691c685c4354731c8dcf321ca0ea9df1", "fusion_lat": 0.0, "lon": -77.01680316666666, "type": "electric_scooter", "fusion_lon": 0.0, "lat": 38.920411666666666}, {"rental_uris": {"android": "https://dc.lft.to/lastmile_qr_scan", "ios": "https://dc.lft.to/lastmile_qr_scan"}, "is_reserved": 0, "is_disabled": 0, "name": "ea65feac19a959d1b5fa0564c5e5ff22", "bike_id": "ea65feac19a959d1b5fa0564c5e5ff22", "fusion_lat": 0.0, "lon": -77.0034515, "type": "electric_scooter", "fusion_lon": 0.0, "lat": 38.89351633333333}, {"rental_uris": {"android": "https://dc.lft.to/lastmile_qr_scan", "ios": "https://dc.lft.to/lastmile_qr_scan"}, "is_reserved": 0, "is_disabled": 0, "name": "34dd5d599d90e0bf184740bc3b585450", "bike_id": "34dd5d599d90e0bf184740bc3b585450", "fusion_lat": 0.0, "lon": -77.016288, "type": "electric_scooter", "fusion_lon": 0.0, "lat": 38.8873145}, {"rental_uris": {"android": "https://dc.lft.to/lastmile_qr_scan", "ios": "https://dc.lft.to/lastmile_qr_scan"}, "is_reserved": 0, "is_disabled": 0, "name": "5f6ed01a6baa863c9875c21a48bbca3d", "bike_id": "5f6ed01a6baa863c9875c21a48bbca3d", "fusion_lat": 0.0, "lon": -76.983576, "type": "electric_scooter", "fusion_lon": 0.0, "lat": 38.89721816666667}, {"rental_uris": {"android": "https://dc.lft.to/lastmile_qr_scan", "ios": "https://dc.lft.to/lastmile_qr_scan"}, "is_reserved": 0, "is_disabled": 0, "name": "e46b2c5fd563199c82b10c56cf49c900", "bike_id": "e46b2c5fd563199c82b10c56cf49c900", "fusion_lat": 0.0, "lon": -76.95359333333333, "type": "electric_scooter", "fusion_lon": 0.0, "lat": 38.889509833333335}, {"rental_uris": {"android": "https://dc.lft.to/lastmile_qr_scan", "ios": "https://dc.lft.to/lastmile_qr_scan"}, "is_reserved": 0, "is_disabled": 0, "name": "20e8ac9440a725f074524a57fb049903", "bike_id": "20e8ac9440a725f074524a57fb049903", "fusion_lat": 0.0, "lon": -77.017711, "type": "electric_scooter", "fusion_lon": 0.0, "lat": 38.876956166666666}, {"rental_uris": {"android": "https://dc.lft.to/lastmile_qr_scan", "ios": "https://dc.lft.to/lastmile_qr_scan"}, "is_reserved": 0, "is_disabled": 0, "name": "19a3deb68b69aaf73207e38947e26f9f", "bike_id": "19a3deb68b69aaf73207e38947e26f9f", "fusion_lat": 0.0, "lon": -76.99563933333333, "type": "electric_scooter", "fusion_lon": 0.0, "lat": 38.920164666666665}, {"rental_uris": {"android": "https://dc.lft.to/lastmile_qr_scan", "ios": "https://dc.lft.to/lastmile_qr_scan"}, "is_reserved": 0, "is_disabled": 0, "name": "726e09e06daac53024e0ebb712c2181f", "bike_id": "726e09e06daac53024e0ebb712c2181f", "fusion_lat": 0.0, "lon": -77.0289135, "type": "electric_scooter", "fusion_lon": 0.0, "lat": 38.89715566666667}, {"rental_uris": {"android": "https://dc.lft.to/lastmile_qr_scan", "ios": "https://dc.lft.to/lastmile_qr_scan"}, "is_reserved": 0, "is_disabled": 0, "name": "c70e19f0ccca893d547e5089c318a0ce", "bike_id": "c70e19f0ccca893d547e5089c318a0ce", "fusion_lat": 0.0, "lon": -77.04373883333334, "type": "electric_scooter", "fusion_lon": 0.0, "lat": 38.92116166666667}, {"rental_uris": {"android": "https://dc.lft.to/lastmile_qr_scan", "ios": "https://dc.lft.to/lastmile_qr_scan"}, "is_reserved": 0, "is_disabled": 0, "name": "296e01721952ea510f952a9653925d82", "bike_id": "296e01721952ea510f952a9653925d82", "fusion_lat": 0.0, "lon": -77.02082666666666, "type": "electric_scooter", "fusion_lon": 0.0, "lat": 38.9189535}, {"rental_uris": {"android": "https://dc.lft.to/lastmile_qr_scan", "ios": "https://dc.lft.to/lastmile_qr_scan"}, "is_reserved": 0, "is_disabled": 0, "name": "31d02a2941407564493f705b5781a5bb", "bike_id": "31d02a2941407564493f705b5781a5bb", "fusion_lat": 0.0, "lon": -77.03613633333333, "type": "electric_scooter", "fusion_lon": 0.0, "lat": 38.903068}, {"rental_uris": {"android": "https://dc.lft.to/lastmile_qr_scan", "ios": "https://dc.lft.to/lastmile_qr_scan"}, "is_reserved": 0, "is_disabled": 0, "name": "a253e8237552a8759dbe0b564d8b6cfb", "bike_id": "a253e8237552a8759dbe0b564d8b6cfb", "fusion_lat": 0.0, "lon": -77.04340116666667, "type": "electric_scooter", "fusion_lon": 0.0, "lat": 38.90115983333333}, {"rental_uris": {"android": "https://dc.lft.to/lastmile_qr_scan", "ios": "https://dc.lft.to/lastmile_qr_scan"}, "is_reserved": 0, "is_disabled": 0, "name": "4ffd22a444754685ac75123b7cac2695", "bike_id": "4ffd22a444754685ac75123b7cac2695", "fusion_lat": 0.0, "lon": -76.9438495, "type": "electric_scooter", "fusion_lon": 0.0, "lat": 38.891062166666664}, {"rental_uris": {"android": "https://dc.lft.to/lastmile_qr_scan", "ios": "https://dc.lft.to/lastmile_qr_scan"}, "is_reserved": 0, "is_disabled": 0, "name": "08517b6f3015922683141495f0c7fc2e", "bike_id": "08517b6f3015922683141495f0c7fc2e", "fusion_lat": 0.0, "lon": -77.06104233333333, "type": "electric_scooter", "fusion_lon": 0.0, "lat": 38.90526}, {"rental_uris": {"android": "https://dc.lft.to/lastmile_qr_scan", "ios": "https://dc.lft.to/lastmile_qr_scan"}, "is_reserved": 0, "is_disabled": 0, "name": "19f146d4d7c93b485e48e68e690b2151", "bike_id": "19f146d4d7c93b485e48e68e690b2151", "fusion_lat": 0.0, "lon": -77.09524833333333, "type": "electric_bike", "fusion_lon": 0.0, "lat": 38.83813683333333}, {"rental_uris": {"android": "https://dc.lft.to/lastmile_qr_scan", "ios": "https://dc.lft.to/lastmile_qr_scan"}, "is_reserved": 0, "is_disabled": 0, "name": "7fc3581389e493bfec4096c5b9cdfc17", "bike_id": "7fc3581389e493bfec4096c5b9cdfc17", "fusion_lat": 0.0, "lon": -77.01154116666666, "type": "electric_scooter", "fusion_lon": 0.0, "lat": 38.90024833333333}, {"rental_uris": {"android": "https://dc.lft.to/lastmile_qr_scan", "ios": "https://dc.lft.to/lastmile_qr_scan"}, "is_reserved": 0, "is_disabled": 0, "name": "b0737f891df9b7ba8fc31bec8a4e49d3", "bike_id": "b0737f891df9b7ba8fc31bec8a4e49d3", "fusion_lat": 0.0, "lon": -77.08058583333333, "type": "electric_scooter", "fusion_lon": 0.0, "lat": 38.948773333333335}, {"rental_uris": {"android": "https://dc.lft.to/lastmile_qr_scan", "ios": "https://dc.lft.to/lastmile_qr_scan"}, "is_reserved": 0, "is_disabled": 0, "name": "7940cf58fdacdcd9e4fa2afd58a83822", "bike_id": "7940cf58fdacdcd9e4fa2afd58a83822", "fusion_lat": 0.0, "lon": -77.014554, "type": "electric_scooter", "fusion_lon": 0.0, "lat": 38.9581665}, {"rental_uris": {"android": "https://dc.lft.to/lastmile_qr_scan", "ios": "https://dc.lft.to/lastmile_qr_scan"}, "is_reserved": 0, "is_disabled": 0, "name": "de9a0fc7f3323f23056e27f0ee61c119", "bike_id": "de9a0fc7f3323f23056e27f0ee61c119", "fusion_lat": 0.0, "lon": -77.041948, "type": "electric_scooter", "fusion_lon": 0.0, "lat": 38.920508166666664}, {"rental_uris": {"android": "https://dc.lft.to/lastmile_qr_scan", "ios": "https://dc.lft.to/lastmile_qr_scan"}, "is_reserved": 0, "is_disabled": 0, "name": "4322db5eb8d97577b3fe9c3e64478741", "bike_id": "4322db5eb8d97577b3fe9c3e64478741", "fusion_lat": 0.0, "lon": -77.03651483333333, "type": "electric_scooter", "fusion_lon": 0.0, "lat": 38.923467}, {"rental_uris": {"android": "https://dc.lft.to/lastmile_qr_scan", "ios": "https://dc.lft.to/lastmile_qr_scan"}, "is_reserved": 0, "is_disabled": 0, "name": "1f7cb43d81577b418f03e464fdfdd2e2", "bike_id": "1f7cb43d81577b418f03e464fdfdd2e2", "fusion_lat": 0.0, "lon": -77.0792365, "type": "electric_bike", "fusion_lon": 0.0, "lat": 38.838270333333334}, {"rental_uris": {"android": "https://dc.lft.to/lastmile_qr_scan", "ios": "https://dc.lft.to/lastmile_qr_scan"}, "is_reserved": 0, "is_disabled": 0, "name": "c9dd2223f8d008778525dca40101de31", "bike_id": "c9dd2223f8d008778525dca40101de31", "fusion_lat": 0.0, "lon": -77.0066825, "type": "electric_scooter", "fusion_lon": 0.0, "lat": 38.90978116666667}, {"rental_uris": {"android": "https://dc.lft.to/lastmile_qr_scan", "ios": "https://dc.lft.to/lastmile_qr_scan"}, "is_reserved": 0, "is_disabled": 0, "name": "1442f7a062dc82ac0c82f500533407de", "bike_id": "1442f7a062dc82ac0c82f500533407de", "fusion_lat": 0.0, "lon": -77.0283555, "type": "electric_scooter", "fusion_lon": 0.0, "lat": 38.901159666666665}, {"rental_uris": {"android": "https://dc.lft.to/lastmile_qr_scan", "ios": "https://dc.lft.to/lastmile_qr_scan"}, "is_reserved": 0, "is_disabled": 0, "name": "064eaa78dfa575c25e8119601b8feaaa", "bike_id": "064eaa78dfa575c25e8119601b8feaaa", "fusion_lat": 0.0, "lon": -77.23182283333334, "type": "electric_bike", "fusion_lon": 0.0, "lat": 38.92890233333333}, {"rental_uris": {"android": "https://dc.lft.to/lastmile_qr_scan", "ios": "https://dc.lft.to/lastmile_qr_scan"}, "is_reserved": 0, "is_disabled": 0, "name": "b413c3ad4f8937ee501583c4d41919bb", "bike_id": "b413c3ad4f8937ee501583c4d41919bb", "fusion_lat": 0.0, "lon": -77.043537, "type": "electric_scooter", "fusion_lon": 0.0, "lat": 38.9011495},