{"data": {"bikes": [{"is_disabled": 0, "is_reserved": 0, "fusion_lat": 0.0, "lat": 38.938622, "fusion_lon": 0.0, "rental_uris": {"ios": "https://dc.lft.to/lastmile_qr_scan", "android": "https://dc.lft.to/lastmile_qr_scan"}, "lon": -76.99432583333333, "bike_id": "75917026458bf3fcb7cf6cbecddb6068", "type": "electric_scooter", "name": "75917026458bf3fcb7cf6cbecddb6068"}, {"is_disabled": 0, "is_reserved": 0, "fusion_lat": 0.0, "lat": 38.9173305, "fusion_lon": 0.0, "rental_uris": {"ios": "https://dc.lft.to/lastmile_qr_scan", "android": "https://dc.lft.to/lastmile_qr_scan"}, "lon": -77.06923783333333, "bike_id": "19d83df0584e9ca5811c45cb89fe602e", "type": "electric_scooter", "name": "19d83df0584e9ca5811c45cb89fe602e"}, {"is_disabled": 0, "is_reserved": 0, "fusion_lat": 0.0, "lat": 38.91702316666667, "fusion_lon": 0.0, "rental_uris": {"ios": "https://dc.lft.to/lastmile_qr_scan", "android": "https://dc.lft.to/lastmile_qr_scan"}, "lon": -77.04173783333333, "bike_id": "17146bd6d3f00e29b4c085d71da3d2df", "type": "electric_scooter", "name": "17146bd6d3f00e29b4c085d71da3d2df"}, {"is_disabled": 0, "is_reserved": 0, "fusion_lat": 0.0, "lat": 38.876527, "fusion_lon": 0.0, "rental_uris": {"ios": "https://dc.lft.to/lastmile_qr_scan", "android": "https://dc.lft.to/lastmile_qr_scan"}, "lon": -77.001968, "bike_id": "99d663e877766f3b7bbe48a1af025c77", "type": "electric_scooter", "name": "99d663e877766f3b7bbe48a1af025c77"}, {"is_disabled": 0, "is_reserved": 0, "fusion_lat": 0.0, "lat": 38.93554533333333, "fusion_lon": 0.0, "rental_uris": {"ios": "https://dc.lft.to/lastmile_qr_scan", "android": "https://dc.lft.to/lastmile_qr_scan"}, "lon": -77.07705566666667, "bike_id": "0022e0ccfb903a5382ea9c8b86045037", "type": "electric_scooter", "name": "0022e0ccfb903a5382ea9c8b86045037"}, {"is_disabled": 0, "is_reserved": 0, "fusion_lat": 0.0, "lat": 38.892192666666666, "fusion_lon": 0.0, "rental_uris": {"ios": "https://dc.lft.to/lastmile_qr_scan", "android": "https://dc.lft.to/lastmile_qr_scan"}, "lon": -77.03199, "bike_id": "4df53279669e6a9a66ec814418ad1a9d", "type": "electric_scooter", "name": "4df53279669e6a9a66ec814418ad1a9d"}, {"is_disabled": 0, "is_reserved": 0, "fusion_lat": 0.0, "lat": 38.92449383333334, "fusion_lon": 0.0, "rental_uris": {"ios": "https://dc.lft.to/lastmile_qr_scan", "android": "https://dc.lft.to/lastmile_qr_scan"}, "lon": -77.04401516666667, "bike_id": "3cd5c4a6ae2924c1d032d47cb2d5f593", "type": "electric_scooter", "name": "3cd5c4a6ae2924c1d032d47cb2d5f593"}, {"is_disabled": 0, "is_reserved": 0, "fusion_lat": 0.0, "lat": 38.910993833333336, "fusion_lon": 0.0, "rental_uris": {"ios": "https://dc.lft.to/lastmile_qr_scan", "android": "https://dc.lft.to/lastmile_qr_scan"}, "lon": -77.022196, "bike_id": "4414a81ad65de3c6757b73f37ba14ae7", "type": "electric_scooter", "name": "4414a81ad65de3c6757b73f37ba14ae7"}, {"is_disabled": 0, "is_reserved": 0, "fusion_lat": 0.0, "lat": 38.88875216666667, "fusion_lon": 0.0, "rental_uris": {"ios": "https://dc.lft.to/lastmile_qr_scan", "android": "https://dc.lft.to/lastmile_qr_scan"}, "lon": -76.9570245, "bike_id": "241b72ad4d45a7f8c97bd53aba03b73e", "type": "electric_bike", "name": "241b72ad4d45a7f8c97bd53aba03b73e"}, {"is_disabled": 0, "is_reserved": 0, "fusion_lat": 0.0, "lat": 38.90382616666667, "fusion_lon": 0.0, "rental_uris": {"ios": "https://dc.lft.to/lastmile_qr_scan", "android": "https://dc.lft.to/lastmile_qr_scan"}, "lon": -77.01604683333333, "bike_id": "180a8f114ee3e47514f6c3a0631011bd", "type": "electric_scooter", "name": "180a8f114ee3e47514f6c3a0631011bd"}, {"is_disabled": 0, "is_reserved": 0, "fusion_lat": 0.0, "lat": 38.9103685, "fusion_lon": 0.0, "rental_uris": {"ios": "https://dc.lft.to/lastmile_qr_scan", "android": "https://dc.lft.to/lastmile_qr_scan"}, "lon": -77.0405465, "bike_id": "86656eebe0f735385a2aca07178a7dd4", "type": "electric_scooter", "name": "86656eebe0f735385a2aca07178a7dd4"}, {"is_disabled": 0, "is_reserved": 0, "fusion_lat": 0.0, "lat": 38.902711833333335, "fusion_lon": 0.0, "rental_uris": {"ios": "https://dc.lft.to/lastmile_qr_scan", "android": "https://dc.lft.to/lastmile_qr_scan"}, "lon": -77.0089665, "bike_id": "a2f57d059ecaf65a9b16562a11734efb", "type": "electric_scooter", "name": "a2f57d059ecaf65a9b16562a11734efb"}, {"is_disabled": 0, "is_reserved": 0, "fusion_lat": 0.0, "lat": 38.908139166666665, "fusion_lon": 0.0, "rental_uris": {"ios": "https://dc.lft.to/lastmile_qr_scan", "android": "https://dc.lft.to/lastmile_qr_scan"}, "lon": -77.00609033333333, "bike_id": "1d36a6c5ad7d4ccfc5e9f483a486e462", "type": "electric_scooter", "name": "1d36a6c5ad7d4ccfc5e9f483a486e462"}, {"is_disabled": 0, "is_reserved": 0, "fusion_lat": 0.0, "lat": 38.90775566666667, "fusion_lon": 0.0, "rental_uris": {"ios": "https://dc.lft.to/lastmile_qr_scan", "android": "https://dc.lft.to/lastmile_qr_scan"}, "lon": -77.02399533333333, "bike_id": "7eeb631560902ead8fefdf6bd6a5fddf", "type": "electric_scooter", "name": "7eeb631560902ead8fefdf6bd6a5fddf"}, {"is_disabled": 0, "is_reserved": 0, "fusion_lat": 0.0, "lat": 38.901393, "fusion_lon": 0.0, "rental_uris": {"ios": "https://dc.lft.to/lastmile_qr_scan", "android": "https://dc.lft.to/lastmile_qr_scan"}, "lon": -77.03924733333334, "bike_id": "62068cc0fc39742f84199e57dab12597", "type": "electric_scooter", "name": "62068cc0fc39742f84199e57dab12597"}, {"is_disabled": 0, "is_reserved": 0, "fusion_lat": 0.0, "lat": 38.878397666666665, "fusion_lon": 0.0, "rental_uris": {"ios": "https://dc.lft.to/lastmile_qr_scan", "android": "https://dc.lft.to/lastmile_qr_scan"}, "lon": -77.03027216666666, "bike_id": "c824e8ee1631ef689b06ec361c5eea02", "type": "electric_bike", "name": "c824e8ee1631ef689b06ec361c5eea02"}, {"is_disabled": 0, "is_reserved": 0, "fusion_lat": 0.0, "lat": 38.9005875, "fusion_lon": 0.0, "rental_uris": {"ios": "https://dc.lft.to/lastmile_qr_scan", "android": "https://dc.lft.to/lastmile_qr_scan"}, "lon": -77.04831783333333, "bike_id": "ea4560874de34c23621ef47f2e0ec5b5", "type": "electric_scooter", "name": "ea4560874de34c23621ef47f2e0ec5b5"}, {"is_disabled": 0, "is_reserved": 0, "fusion_lat": 0.0, "lat": 38.919232666666666, "fusion_lon": 0.0, "rental_uris": {"ios": "https://dc.lft.to/lastmile_qr_scan", "android": "https://dc.lft.to/lastmile_qr_scan"}, "lon": -77.034148, "bike_id": "4dd513026357d7a91100b55c8188d632", "type": "electric_scooter", "name": "4dd513026357d7a91100b55c8188d632"}, {"is_disabled": 0, "is_reserved": 0, "fusion_lat": 0.0, "lat": 38.89231733333333, "fusion_lon": 0.0, "rental_uris": {"ios": "https://dc.lft.to/lastmile_qr_scan", "android": "https://dc.lft.to/lastmile_qr_scan"}, "lon": -77.04508566666667, "bike_id": "131a591f7ea4679b8ad5d763d3bb2c5b", "type": "electric_scooter", "name": "131a591f7ea4679b8ad5d763d3bb2c5b"}, {"is_disabled": 0, "is_reserved": 0, "fusion_lat": 0.0, "lat": 38.85057666666667, "fusion_lon": 0.0, "rental_uris": {"ios": "https://dc.lft.to/lastmile_qr_scan", "android": "https://dc.lft.to/lastmile_qr_scan"}, "lon": -76.981644, "bike_id": "857ded3b9b1a37d9ccdcfea249b987a2", "type": "electric_bike", "name": "857ded3b9b1a37d9ccdcfea249b987a2"}, {"is_disabled": 0, "is_reserved": 0, "fusion_lat": 0.0, "lat": 38.8400675, "fusion_lon": 0.0, "rental_uris": {"ios": "https://dc.lft.to/lastmile_qr_scan", "android": "https://dc.lft.to/lastmile_qr_scan"}, "lon": -76.98859583333333, "bike_id": "670a870c356031896d052838b3045c22", "type": "electric_bike", "name": "670a870c356031896d052838b3045c22"}, {"is_disabled": 0, "is_reserved": 0, "fusion_lat": 0.0, "lat": 38.8949755, "fusion_lon": 0.0, "rental_uris": {"ios": "https://dc.lft.to/lastmile_qr_scan", "android": "https://dc.lft.to/lastmile_qr_scan"}, "lon": -76.97410766666667, "bike_id": "56771965c9602e189b1f08ab7c33466b", "type": "electric_scooter", "name": "56771965c9602e189b1f08ab7c33466b"}, {"is_disabled": 0, "is_reserved": 0, "fusion_lat": 0.0, "lat": 38.935902, "fusion_lon": 0.0, "rental_uris": {"ios": "https://dc.lft.to/lastmile_qr_scan", "android": "https://dc.lft.to/lastmile_qr_scan"}, "lon": -77.05613566666666, "bike_id": "40d8b2584051091263f02614ed2e9864", "type": "electric_scooter", "name": "40d8b2584051091263f02614ed2e9864"}, {"is_disabled": 0, "is_reserved": 0, "fusion_lat": 0.0, "lat": 38.8854635, "fusion_lon": 0.0, "rental_uris": {"ios": "https://dc.lft.to/lastmile_qr_scan", "android": "https://dc.lft.to/lastmile_qr_scan"}, "lon": -77.1168905, "bike_id": "4d72316b8c0b34ded1aceabdd5495806", "type": "electric_bike", "name": "4d72316b8c0b34ded1aceabdd5495806"}, {"is_disabled": 0, "is_reserved": 0, "fusion_lat": 0.0, "lat": 38.87637183333333, "fusion_lon": 0.0, "rental_uris": {"ios": "https://dc.lft.to/lastmile_qr_scan", "android": "https://dc.lft.to/lastmile_qr_scan"}, "lon": -77.00607783333334, "bike_id": "9e0db747d4af80a052696126924a793d", "type": "electric_scooter", "name": "9e0db747d4af80a052696126924a793d"}, {"is_disabled": 0, "is_reserved": 0, "fusion_lat": 0.0, "lat": 38.841037666666665, "fusion_lon": 0.0, "rental_uris": {"ios": "https://dc.lft.to/lastmile_qr_scan", "android": "https://dc.lft.to/lastmile_qr_scan"}, "lon": -76.987101, "bike_id": "eae3060f05ff884358a6761d6eeea43c", "type": "electric_bike", "name": "eae3060f05ff884358a6761d6eeea43c"}, {"is_disabled": 0, "is_reserved": 0, "fusion_lat": 0.0, "lat": 38.89226033333333, "fusion_lon": 0.0, "rental_uris": {"ios": "https://dc.lft.to/lastmile_qr_scan", "android": "https://dc.lft.to/lastmile_qr_scan"}, "lon": -77.03195816666667, "bike_id": "3363e71bcaa3fd51a1660157a3cb389b", "type": "electric_scooter", "name": "3363e71bcaa3fd51a1660157a3cb389b"}, {"is_disabled": 0, "is_reserved": 0, "fusion_lat": 0.0, "lat": 38.930468833333336, "fusion_lon": 0.0, "rental_uris": {"ios": "https://dc.lft.to/lastmile_qr_scan", "android": "https://dc.lft.to/lastmile_qr_scan"}, "lon": -77.055654, "bike_id": "aa843ae5df636cc5406b1d2b19b7af93", "type": "electric_scooter", "name": "aa843ae5df636cc5406b1d2b19b7af93"}, {"is_disabled": 0, "is_reserved": 0, "fusion_lat": 0.0, "lat": 38.892339, "fusion_lon": 0.0, "rental_uris": {"ios": "https://dc.lft.to/lastmile_qr_scan", "android": "https://dc.lft.to/lastmile_qr_scan"}, "lon": -77.02802266666667, "bike_id": "720685c1b2561a59f631adb3306a9f93", "type": "electric_scooter", "name": "720685c1b2561a59f631adb3306a9f93"}, {"is_disabled": 0, "is_reserved": 0, "fusion_lat": 0.0, "lat": 38.928239, "fusion_lon": 0.0, "rental_uris": {"ios": "https://dc.lft.to/lastmile_qr_scan", "android": "https://dc.lft.to/lastmile_qr_scan"}, "lon": -77.02257783333333, "bike_id": "30ae50d1a5c6242b64ff111c275b9861", "type": "electric_scooter", "name": "30ae50d1a5c6242b64ff111c275b9861"}, {"is_disabled": 0, "is_reserved": 0, "fusion_lat": 0.0, "lat": 38.91832683333333, "fusion_lon": 0.0, "rental_uris": {"ios": "https://dc.lft.to/lastmile_qr_scan", "android": "https://dc.lft.to/lastmile_qr_scan"}, "lon": -77.053185, "bike_id": "42316fed2a8caaa0a7896dff7ed06e92", "type": "electric_scooter", "name": "42316fed2a8caaa0a7896dff7ed06e92"}, {"is_disabled": 0, "is_reserved": 0, "fusion_lat": 0.0, "lat": 38.907555333333335, "fusion_lon": 0.0, "rental_uris": {"ios": "https://dc.lft.to/lastmile_qr_scan", "android": "https://dc.lft.to/lastmile_qr_scan"}, "lon": -77.042467, "bike_id": "70dcb70aece94cf529efef2e28720511", "type": "electric_scooter", "name": "70dcb70aece94cf529efef2e28720511"}, {"is_disabled": 0, "is_reserved": 0, "fusion_lat": 0.0, "lat": 38.934492, "fusion_lon": 0.0, "rental_uris": {"ios": "https://dc.lft.to/lastmile_qr_scan", "android": "https://dc.lft.to/lastmile_qr_scan"}, "lon": -77.02390166666666, "bike_id": "6322b30142c87d12430073e15ba2044a", "type": "electric_scooter", "name": "6322b30142c87d12430073e15ba2044a"}, {"is_disabled": 0, "is_reserved": 0, "fusion_lat": 0.0, "lat": 38.906933, "fusion_lon": 0.0, "rental_uris": {"ios": "https://dc.lft.to/lastmile_qr_scan", "android": "https://dc.lft.to/lastmile_qr_scan"}, "lon": -77.06331016666667, "bike_id": "529392b800769d23db5be70207dee65a", "type": "electric_scooter", "name": "529392b800769d23db5be70207dee65a"}, {"is_disabled": 0, "is_reserved": 0, "fusion_lat": 0.0, "lat": 38.876552333333336, "fusion_lon": 0.0, "rental_uris": {"ios": "https://dc.lft.to/lastmile_qr_scan", "android": "https://dc.lft.to/lastmile_qr_scan"}, "lon": -77.00758566666667, "bike_id": "fd719c5f727076d2c57fedeaacf122eb", "type": "electric_scooter", "name": "fd719c5f727076d2c57fedeaacf122eb"}, {"is_disabled": 0, "is_reserved": 0, "fusion_lat": 0.0, "lat": 38.92420583333333, "fusion_lon": 0.0, "rental_uris": {"ios": "https://dc.lft.to/lastmile_qr_scan", "android": "https://dc.lft.to/lastmile_qr_scan"}, "lon": -77.051871, "bike_id": "dd226069ef3c4866d72eeab9ce879ac7", "type": "electric_scooter", "name": "dd226069ef3c4866d72eeab9ce879ac7"}, {"is_disabled": 0, "is_reserved": 0, "fusion_lat": 0.0, "lat": 38.90196616666667, "fusion_lon": 0.0, "rental_uris": {"ios": "https://dc.lft.to/lastmile_qr_scan", "android": "https://dc.lft.to/lastmile_qr_scan"}, "lon": -77.02103583333333, "bike_id": "6308bf133c9e84d5adfccb8a02d43855", "type": "electric_bike", "name": "6308bf133c9e84d5adfccb8a02d43855"}, {"is_disabled": 0, "is_reserved": 0, "fusion_lat": 0.0, "lat": 38.97830283333333, "fusion_lon": 0.0, "rental_uris": {"ios": "https://dc.lft.to/lastmile_qr_scan", "android": "https://dc.lft.to/lastmile_qr_scan"}, "lon": -76.92892866666666, "bike_id": "1dafbb21ba33818693d89ff29f668e9d", "type": "electric_bike", "name": "1dafbb21ba33818693d89ff29f668e9d"}, {"is_disabled": 0, "is_reserved": 0, "fusion_lat": 0.0, "lat": 38.917807333333336, "fusion_lon": 0.0, "rental_uris": {"ios": "https://dc.lft.to/lastmile_qr_scan", "android": "https://dc.lft.to/lastmile_qr_scan"}, "lon": -77.02359966666667, "bike_id": "1b851abf3ee73bbf3fd4049b3504988c", "type": "electric_scooter", "name": "1b851abf3ee73bbf3fd4049b3504988c"}, {"is_disabled": 0, "is_reserved": 0, "fusion_lat": 0.0, "lat": 38.921243833333335, "fusion_lon": 0.0, "rental_uris": {"ios": "https://dc.lft.to/lastmile_qr_scan", "android": "https://dc.lft.to/lastmile_qr_scan"}, "lon": -77.045491, "bike_id": "298d397dd2e867893a288ef1d9a0210e", "type": "electric_scooter", "name": "298d397dd2e867893a288ef1d9a0210e"}, {"is_disabled": 0, "is_reserved": 0, "fusion_lat": 0.0, "lat": 38.9113975, "fusion_lon": 0.0, "rental_uris": {"ios": "https://dc.lft.to/lastmile_qr_scan", "android": "https://dc.lft.to/lastmile_qr_scan"}, "lon": -77.02191316666666, "bike_id": "15d6f0fd0cdae4420efadfcf9ce09741", "type": "electric_scooter", "name": "15d6f0fd0cdae4420efadfcf9ce09741"}, {"is_disabled": 0, "is_reserved": 0, "fusion_lat": 0.0, "lat": 38.9050505, "fusion_lon": 0.0, "rental_uris": {"ios": "https://dc.lft.to/lastmile_qr_scan", "android": "https://dc.lft.to/lastmile_qr_scan"}, "lon": -77.06018533333334, "bike_id": "6db158aaed41b6117ded05c15a079e62", "type": "electric_scooter", "name": "6db158aaed41b6117ded05c15a079e62"}, {"is_disabled": 0, "is_reserved": 0, "fusion_lat": 0.0, "lat": 38.90455, "fusion_lon": 0.0, "rental_uris": {"ios": "https://dc.lft.to/lastmile_qr_scan", "android": "https://dc.lft.to/lastmile_qr_scan"}, "lon": -77.031021, "bike_id": "68dc1833cfca2a3626de9a493bfed625", "type": "electric_scooter", "name": "68dc1833cfca2a3626de9a493bfed625"}, {"is_disabled": 0, "is_reserved": 0, "fusion_lat": 0.0, "lat": 38.9219475, "fusion_lon": 0.0, "rental_uris": {"ios": "https://dc.lft.to/lastmile_qr_scan", "android": "https://dc.lft.to/lastmile_qr_scan"}, "lon": -77.04246516666667, "bike_id": "16104562643bd854680be0b897c1bdc6", "type": "electric_scooter", "name": "16104562643bd854680be0b897c1bdc6"}, {"is_disabled": 0, "is_reserved": 0, "fusion_lat": 0.0, "lat": 38.905915666666665, "fusion_lon": 0.0, "rental_uris": {"ios": "https://dc.lft.to/lastmile_qr_scan", "android": "https://dc.lft.to/lastmile_qr_scan"}, "lon": -77.016153, "bike_id": "5a65f90fca8f23a5dd9fe8a4ceb401b1", "type": "electric_scooter", "name": "5a65f90fca8f23a5dd9fe8a4ceb401b1"}, {"is_disabled": 0, "is_reserved": 0, "fusion_lat": 0.0, "lat": 38.88412233333333, "fusion_lon": 0.0, "rental_uris": {"ios": "https://dc.lft.to/lastmile_qr_scan", "android": "https://dc.lft.to/lastmile_qr_scan"}, "lon": -77.02501566666666, "bike_id": "58d52160e6d04a8bb6d7d655bf61effa", "type": "electric_scooter", "name": "58d52160e6d04a8bb6d7d655bf61effa"}, {"is_disabled": 0, "is_reserved": 0, "fusion_lat": 0.0, "lat": 38.9309825, "fusion_lon": 0.0, "rental_uris": {"ios": "https://dc.lft.to/lastmile_qr_scan", "android": "https://dc.lft.to/lastmile_qr_scan"}, "lon": -77.03259216666666, "bike_id": "eb2f605773a45241fc90f593a4494a99", "type": "electric_scooter", "name": "eb2f605773a45241fc90f593a4494a99"}, {"is_disabled": 0, "is_reserved": 0, "fusion_lat": 0.0, "lat": 38.90956083333333, "fusion_lon": 0.0, "rental_uris": {"ios": "https://dc.lft.to/lastmile_qr_scan", "android": "https://dc.lft.to/lastmile_qr_scan"}, "lon": -77.0342175, "bike_id": "fd8a18ad650d0fed3d26eb7b94ecc30f", "type": "electric_scooter", "name": "fd8a18ad650d0fed3d26eb7b94ecc30f"}, {"is_disabled": 0, "is_reserved": 0, "fusion_lat": 0.0, "lat": 38.9115895, "fusion_lon": 0.0, "rental_uris": {"ios": "https://dc.lft.to/lastmile_qr_scan", "android": "https://dc.lft.to/lastmile_qr_scan"}, "lon": -77.02379783333333, "bike_id": "daf0c2c353dae7ecd255001dabbcb6f9", "type": "electric_scooter", "name": "daf0c2c353dae7ecd255001dabbcb6f9"}, {"is_disabled": 0, "is_reserved": 0, "fusion_lat": 0.0, "lat": 38.91206666666667, "fusion_lon": 0.0, "rental_uris": {"ios": "https://dc.lft.to/lastmile_qr_scan", "android": "https://dc.lft.to/lastmile_qr_scan"}, "lon": -77.02101766666667, "bike_id": "6ba27bea0f052afd2b9cdd7eaa763140", "type": "electric_scooter", "name": "6ba27bea0f052afd2b9cdd7eaa763140"}, {"is_disabled": 0, "is_reserved": 0, "fusion_lat": 0.0, "lat": 38.91818983333334, "fusion_lon": 0.0, "rental_uris": {"ios": "https://dc.lft.to/lastmile_qr_scan", "android": "https://dc.lft.to/lastmile_qr_scan"}, "lon": -77.02521616666667, "bike_id": "bbd4eb4fe3f4b0c1f0f397f0b44e91c2", "type": "electric_scooter", "name": "bbd4eb4fe3f4b0c1f0f397f0b44e91c2"}, {"is_disabled": 0, "is_reserved": 0, "fusion_lat": 0.0, "lat": 38.9097655, "fusion_lon": 0.0, "rental_uris": {"ios": "https://dc.lft.to/lastmile_qr_scan", "android": "https://dc.lft.to/lastmile_qr_scan"}, "lon": -77.03381083333333, "bike_id": "4af1e0d62033d671502e8ecc74cccaac", "type": "electric_scooter", "name": "4af1e0d62033d671502e8ecc74cccaac"}, {"is_disabled": 0, "is_reserved": 0, "fusion_lat": 0.0, "lat": 38.92730183333333, "fusion_lon": 0.0, "rental_uris": {"ios": "https://dc.lft.to/lastmile_qr_scan", "android": "https://dc.lft.to/lastmile_qr_scan"}, "lon": -77.02270816666666, "bike_id": "8f134f36b84865569bc837a92d1c4423", "type": "electric_scooter", "name": "8f134f36b84865569bc837a92d1c4423"}, {"is_disabled": 0, "is_reserved": 0, "fusion_lat": 0.0, "lat": 38.921619166666666, "fusion_lon": 0.0, "rental_uris": {"ios": "https://dc.lft.to/lastmile_qr_scan", "android": "https://dc.lft.to/lastmile_qr_scan"}, "lon": -77.036695, "bike_id": "2f5fc2cd56d8eb507109179133960d50", "type": "electric_scooter", "name": "2f5fc2cd56d8eb507109179133960d50"}, {"is_disabled": 0, "is_reserved": 0, "fusion_lat": 0.0, "lat": 38.89354683333333, "fusion_lon": 0.0, "rental_uris": {"ios": "https://dc.lft.to/lastmile_qr_scan", "android": "https://dc.lft.to/lastmile_qr_scan"}, "lon": -76.99213916666666, "bike_id": "c54cc1a4e719c807b6c1e45eff3fc8e6", "type": "electric_scooter", "name": "c54cc1a4e719c807b6c1e45eff3fc8e6"}, {"is_disabled": 0, "is_reserved": 0, "fusion_lat": 0.0, "lat": 38.9071965, "fusion_lon": 0.0, "rental_uris": {"ios": "https://dc.lft.to/lastmile_qr_scan", "android": "https://dc.lft.to/lastmile_qr_scan"}, "lon": -77.05308816666667, "bike_id": "3d9ec9f9789d028c0ecd2c7af53e7ae9", "type": "electric_scooter", "name": "3d9ec9f9789d028c0ecd2c7af53e7ae9"}, {"is_disabled": 0, "is_reserved": 0, "fusion_lat": 0.0, "lat": 38.92645783333333, "fusion_lon": 0.0, "rental_uris": {"ios": "https://dc.lft.to/lastmile_qr_scan", "android": "https://dc.lft.to/lastmile_qr_scan"}, "lon": -77.037025, "bike_id": "d08d3365bc4d480c0e177e4bd24e135e", "type": "electric_scooter", "name": "d08d3365bc4d480c0e177e4bd24e135e"}, {"is_disabled": 0, "is_reserved": 0, "fusion_lat": 0.0, "lat": 38.9054135, "fusion_lon": 0.0, "rental_uris": {"ios": "https://dc.lft.to/lastmile_qr_scan", "android": "https://dc.lft.to/lastmile_qr_scan"}, "lon": -77.02194016666667, "bike_id": "d9db924c78743dc540e7003da597e136", "type": "electric_scooter", "name": "d9db924c78743dc540e7003da597e136"}, {"is_disabled": 0, "is_reserved": 0, "fusion_lat": 0.0, "lat": 38.89381266666667, "fusion_lon": 0.0, "rental_uris": {"ios": "https://dc.lft.to/lastmile_qr_scan", "android": "https://dc.lft.to/lastmile_qr_scan"}, "lon": -76.92305366666666, "bike_id": "64a52479073e3245b34b32762c3d46e8", "type": "electric_scooter", "name": "64a52479073e3245b34b32762c3d46e8"}, {"is_disabled": 0, "is_reserved": 0, "fusion_lat": 0.0, "lat": 38.90702183333333, "fusion_lon": 0.0, "rental_uris": {"ios": "https://dc.lft.to/lastmile_qr_scan", "android": "https://dc.lft.to/lastmile_qr_scan"}, "lon": -77.032057, "bike_id": "b854d025c35c8ca4110b13543325bd0e", "type": "electric_scooter", "name": "b854d025c35c8ca4110b13543325bd0e"}, {"is_disabled": 0, "is_reserved": 0, "fusion_lat": 0.0, "lat": 38.897242166666665, "fusion_lon": 0.0, "rental_uris": {"ios": "https://dc.lft.to/lastmile_qr_scan", "android": "https://dc.lft.to/lastmile_qr_scan"}, "lon": -77.02727083333333, "bike_id": "ae099958f38df85fb83dbc9f7abb9161", "type": "electric_scooter", "name": "ae099958f38df85fb83dbc9f7abb9161"}, {"is_disabled": 0, "is_reserved": 0, "fusion_lat": 0.0, "lat": 38.88220366666667, "fusion_lon": 0.0, "rental_uris": {"ios": "https://dc.lft.to/lastmile_qr_scan", "android": "https://dc.lft.to/lastmile_qr_scan"}, "lon": -76.99733233333333, "bike_id": "38769514651032fbda2648fdec30697d", "type": "electric_scooter", "name": "38769514651032fbda2648fdec30697d"}, {"is_disabled": 0, "is_reserved": 0, "fusion_lat": 0.0, "lat": 38.856404833333336, "fusion_lon": 0.0, "rental_uris": {"ios": "https://dc.lft.to/lastmile_qr_scan", "android": "https://dc.lft.to/lastmile_qr_scan"}, "lon": -77.06833066666667, "bike_id": "859741d0b474998d2d76d5644d5a64d6", "type": "electric_bike", "name": "859741d0b474998d2d76d5644d5a64d6"}, {"is_disabled": 0, "is_reserved": 0, "fusion_lat": 0.0, "lat": 38.91705116666667, "fusion_lon": 0.0, "rental_uris": {"ios": "https://dc.lft.to/lastmile_qr_scan", "android": "https://dc.lft.to/lastmile_qr_scan"}, "lon": -77.028475, "bike_id": "9abdccf17ca9559dfee5b79d8f216997", "type": "electric_scooter", "name": "9abdccf17ca9559dfee5b79d8f216997"}, {"is_disabled": 0, "is_reserved": 0, "fusion_lat": 0.0, "lat": 38.86554816666667, "fusion_lon": 0.0, "rental_uris": {"ios": "https://dc.lft.to/lastmile_qr_scan", "android": "https://dc.lft.to/lastmile_qr_scan"}, "lon": -76.9747885, "bike_id": "c7e856aeb30a1579a5807004b995e14f", "type": "electric_bike", "name": "c7e856aeb30a1579a5807004b995e14f"}, {"is_disabled": 0, "is_reserved": 0, "fusion_lat": 0.0, "lat": 38.873092666666665, "fusion_lon": 0.0, "rental_uris": {"ios": "https://dc.lft.to/lastmile_qr_scan", "android": "https://dc.lft.to/lastmile_qr_scan"}, "lon": -77.01073383333333, "bike_id": "ab59afd901c4677de25eb541da9568e0", "type": "electric_scooter", "name": "ab59afd901c4677de25eb541da9568e0"}, {"is_disabled": 0, "is_reserved": 0, "fusion_lat": 0.0, "lat": 38.90059766666667, "fusion_lon": 0.0, "rental_uris": {"ios": "https://dc.lft.to/lastmile_qr_scan", "android": "https://dc.lft.to/lastmile_qr_scan"}, "lon": -77.0383175, "bike_id": "49264e80ec025e82f37d9ad87077e4d1", "type": "electric_scooter", "name": "49264e80ec025e82f37d9ad87077e4d1"}, {"is_disabled": 0, "is_reserved": 0, "fusion_lat": 0.0, "lat": 38.824289666666665, "fusion_lon": 0.0, "rental_uris": {"ios": "https://dc.lft.to/lastmile_qr_scan", "android": "https://dc.lft.to/lastmile_qr_scan"}, "lon": -77.12043533333333, "bike_id": "9f31117bbd7c0e5b7e4f5a944a74ef5d", "type": "electric_bike", "name": "9f31117bbd7c0e5b7e4f5a944a74ef5d"}, {"is_disabled": 0, "is_reserved": 0, "fusion_lat": 0.0, "lat": 38.883835, "fusion_lon": 0.0, "rental_uris": {"ios": "https://dc.lft.to/lastmile_qr_scan", "android": "https://dc.lft.to/lastmile_qr_scan"}, "lon": -76.9951925, "bike_id": "9244dd14efd8817345c0e72ed6f45a24", "type": "electric_scooter", "name": "9244dd14efd8817345c0e72ed6f45a24"}, {"is_disabled": 0, "is_reserved": 0, "fusion_lat": 0.0, "lat": 38.912599, "fusion_lon": 0.0, "rental_uris": {"ios": "https://dc.lft.to/lastmile_qr_scan", "android": "https://dc.lft.to/lastmile_qr_scan"}, "lon": -77.03221933333333, "bike_id": "ed3ca2ec80328420225c6846f18e65bd", "type": "electric_scooter", "name": "ed3ca2ec80328420225c6846f18e65bd"}, {"is_disabled": 0, "is_reserved": 0, "fusion_lat": 0.0, "lat": 38.91817666666667, "fusion_lon": 0.0, "rental_uris": {"ios": "https://dc.lft.to/lastmile_qr_scan", "android": "https://dc.lft.to/lastmile_qr_scan"}, "lon": -77.0379355, "bike_id": "37ff47e3ce3b3596b83c4d304747a55e", "type": "electric_scooter", "name": "37ff47e3ce3b3596b83c4d304747a55e"}, {"is_disabled": 0, "is_reserved": 0, "fusion_lat": 0.0, "lat": 38.922591, "fusion_lon": 0.0, "rental_uris": {"ios": "https://dc.lft.to/lastmile_qr_scan", "android": "https://dc.lft.to/lastmile_qr_scan"}, "lon": -77.04294616666667, "bike_id": "bc852c0ae4f704ef10d0e391467c9578", "type": "electric_scooter", "name": "bc852c0ae4f704ef10d0e391467c9578"}, {"is_disabled": 0, "is_reserved": 0, "fusion_lat": 0.0, "lat": 38.83292516666667, "fusion_lon": 0.0, "rental_uris": {"ios": "https://dc.lft.to/lastmile_qr_scan", "android": "https://dc.lft.to/lastmile_qr_scan"}, "lon": -77.08407583333333, "bike_id": "d65ccb8d11a7711377fa110b5599f483", "type": "electric_bike", "name": "d65ccb8d11a7711377fa110b5599f483"}, {"is_disabled": 0, "is_reserved": 0, "fusion_lat": 0.0, "lat": 38.926492, "fusion_lon": 0.0, "rental_uris": {"ios": "https://dc.lft.to/lastmile_qr_scan", "android": "https://dc.lft.to/lastmile_qr_scan"}, "lon": -77.03698666666666, "bike_id": "c35fb470205db1c40ec9cafce52b0158", "type": "electric_scooter", "name": "c35fb470205db1c40ec9cafce52b0158"}, {"is_disabled": 0, "is_reserved": 0, "fusion_lat": 0.0, "lat": 38.9205145, "fusion_lon": 0.0, "rental_uris": {"ios": "https://dc.lft.to/lastmile_qr_scan", "android": "https://dc.lft.to/lastmile_qr_scan"}, "lon": -77.0254655, "bike_id": "6def6e9f2dcd20193c06fae64544d574", "type": "electric_scooter", "name": "6def6e9f2dcd20193c06fae64544d574"}, {"is_disabled": 0, "is_reserved": 0, "fusion_lat": 0.0, "lat": 38.9043085, "fusion_lon": 0.0, "rental_uris": {"ios": "https://dc.lft.to/lastmile_qr_scan", "android": "https://dc.lft.to/lastmile_qr_scan"}, "lon": -76.9722755, "bike_id": "943cf23004519f9d2123c51bb9f65821", "type": "electric_bike", "name": "943cf23004519f9d2123c51bb9f65821"}, {"is_disabled": 0, "is_reserved": 0, "fusion_lat": 0.0, "lat": 38.902618333333336, "fusion_lon": 0.0, "rental_uris": {"ios": "https://dc.lft.to/lastmile_qr_scan", "android": "https://dc.lft.to/lastmile_qr_scan"}, "lon": -77.03977, "bike_id": "63386252d46c41db91fe843f2de0908c", "type": "electric_scooter", "name": "63386252d46c41db91fe843f2de0908c"}, {"is_disabled": 0, "is_reserved": 0, "fusion_lat": 0.0, "lat": 38.89850083333333, "fusion_lon": 0.0, "rental_uris": {"ios": "https://dc.lft.to/lastmile_qr_scan", "android": "https://dc.lft.to/lastmile_qr_scan"}, "lon": -76.92748933333333, "bike_id": "41f93876ab6372b97982dabbca8a05cc", "type": "electric_scooter", "name": "41f93876ab6372b97982dabbca8a05cc"}, {"is_disabled": 0, "is_reserved": 0, "fusion_lat": 0.0, "lat": 38.90241833333333, "fusion_lon": 0.0, "rental_uris": {"ios": "https://dc.lft.to/lastmile_qr_scan", "android": "https://dc.lft.to/lastmile_qr_scan"}, "lon": -77.02180966666667, "bike_id": "ce5e5409dfc6fc1dc8915f1ea8a287f6", "type": "electric_scooter", "name": "ce5e5409dfc6fc1dc8915f1ea8a287f6"}, {"is_disabled": 0, "is_reserved": 0, "fusion_lat": 0.0, "lat": 38.9224695, "fusion_lon": 0.0, "rental_uris": {"ios": "https://dc.lft.to/lastmile_qr_scan", "android": "https://dc.lft.to/lastmile_qr_scan"}, "lon": -77.01947116666666, "bike_id": "757453425a652a017c2868811c34b462", "type": "electric_scooter", "name": "757453425a652a017c2868811c34b462"}, {"is_disabled": 0, "is_reserved": 0, "fusion_lat": 0.0, "lat": 38.90548733333333, "fusion_lon": 0.0, "rental_uris": {"ios": "https://dc.lft.to/lastmile_qr_scan", "android": "https://dc.lft.to/lastmile_qr_scan"}, "lon": -77.0627155, "bike_id": "d8a30cabb5300233991ffbdc28ed6264", "type": "electric_scooter", "name": "d8a30cabb5300233991ffbdc28ed6264"}, {"is_disabled": 0, "is_reserved": 0, "fusion_lat": 0.0, "lat": 38.95589983333333, "fusion_lon": 0.0, "rental_uris": {"ios": "https://dc.lft.to/lastmile_qr_scan", "android": "https://dc.lft.to/lastmile_qr_scan"}, "lon": -77.02800983333333, "bike_id": "3f22feee5d881ffab44724730020e278", "type": "electric_scooter", "name": "3f22feee5d881ffab44724730020e278"}, {"is_disabled": 0, "is_reserved": 0, "fusion_lat": 0.0, "lat": 38.90968816666667, "fusion_lon": 0.0, "rental_uris": {"ios": "https://dc.lft.to/lastmile_qr_scan", "android": "https://dc.lft.to/lastmile_qr_scan"}, "lon": -77.01440083333334, "bike_id": "a88eba62ffa2d702c1cdef6df535e858", "type": "electric_scooter", "name": "a88eba62ffa2d702c1cdef6df535e858"}, {"is_disabled": 0, "is_reserved": 0, "fusion_lat": 0.0, "lat": 38.957839, "fusion_lon": 0.0, "rental_uris": {"ios": "https://dc.lft.to/lastmile_qr_scan", "android": "https://dc.lft.to/lastmile_qr_scan"}, "lon": -77.02413033333333, "bike_id": "16257a2c9551f4aa4b99c7269d7392c1", "type": "electric_scooter", "name": "16257a2c9551f4aa4b99c7269d7392c1"}, {"is_disabled": 0, "is_reserved": 0, "fusion_lat": 0.0, "lat": 38.90532183333333, "fusion_lon": 0.0, "rental_uris": {"ios": "https://dc.lft.to/lastmile_qr_scan", "android": "https://dc.lft.to/lastmile_qr_scan"}, "lon": -77.06521916666667, "bike_id": "b57222d561825f82d07c84c1f60a4470", "type": "electric_scooter", "name": "b57222d561825f82d07c84c1f60a4470"}, {"is_disabled": 0, "is_reserved": 0, "fusion_lat": 0.0, "lat": 38.912667166666665, "fusion_lon": 0.0, "rental_uris": {"ios": "https://dc.lft.to/lastmile_qr_scan", "android": "https://dc.lft.to/lastmile_qr_scan"}, "lon": -77.03143666666666, "bike_id": "cdd5500a68567f78e3174cf1e0713f86", "type": "electric_scooter", "name": "cdd5500a68567f78e3174cf1e0713f86"}, {"is_disabled": 0, "is_reserved": 0, "fusion_lat": 0.0, "lat": 38.9167685, "fusion_lon": 0.0, "rental_uris": {"ios": "https://dc.lft.to/lastmile_qr_scan", "android": "https://dc.lft.to/lastmile_qr_scan"}, "lon": -77.0459955, "bike_id": "077784becabacafd23d563c66345ec13", "type": "electric_scooter", "name": "077784becabacafd23d563c66345ec13"}, {"is_disabled": 0, "is_reserved": 0, "fusion_lat": 0.0, "lat": 38.929312833333334, "fusion_lon": 0.0, "rental_uris": {"ios": "https://dc.lft.to/lastmile_qr_scan", "android": "https://dc.lft.to/lastmile_qr_scan"}, "lon": -77.032414, "bike_id": "562cf2802030eff6cc75ab87644c6762", "type": "electric_scooter", "name": "562cf2802030eff6cc75ab87644c6762"}, {"is_disabled": 0, "is_reserved": 0, "fusion_lat": 0.0, "lat": 38.9111625, "fusion_lon": 0.0, "rental_uris": {"ios": "https://dc.lft.to/lastmile_qr_scan", "android": "https://dc.lft.to/lastmile_qr_scan"}, "lon": -77.03828916666667, "bike_id": "7273a4d33ac4bcf4767c632fa19d2cbd", "type": "electric_scooter", "name": "7273a4d33ac4bcf4767c632fa19d2cbd"}, {"is_disabled": 0, "is_reserved": 0, "fusion_lat": 0.0, "lat": 38.95247716666667, "fusion_lon": 0.0, "rental_uris": {"ios": "https://dc.lft.to/lastmile_qr_scan", "android": "https://dc.lft.to/lastmile_qr_scan"}, "lon": -76.97957883333333, "bike_id": "05160ccc09ada240bae863b16c13e9c5", "type": "electric_bike", "name": "05160ccc09ada240bae863b16c13e9c5"}, {"is_disabled": 0, "is_reserved": 0, "fusion_lat": 0.0, "lat": 38.91006616666667, "fusion_lon": 0.0, "rental_uris": {"ios": "https://dc.lft.to/lastmile_qr_scan", "android": "https://dc.lft.to/lastmile_qr_scan"}, "lon": -77.01214166666666, "bike_id": "be03da4778856d7f15ee7049ebe6b00f", "type": "electric_scooter", "name": "be03da4778856d7f15ee7049ebe6b00f"}, {"is_disabled": 0, "is_reserved": 0, "fusion_lat": 0.0, "lat": 38.90634283333333, "fusion_lon": 0.0, "rental_uris": {"ios": "https://dc.lft.to/lastmile_qr_scan", "android": "https://dc.lft.to/lastmile_qr_scan"}, "lon": -77.06902316666667, "bike_id": "0dec80bde190ef49e5a3a3d31da6ff4a", "type": "electric_scooter", "name": "0dec80bde190ef49e5a3a3d31da6ff4a"}, {"is_disabled": 0, "is_reserved": 0, "fusion_lat": 0.0, "lat": 38.896204, "fusion_lon": 0.0, "rental_uris": {"ios": "https://dc.lft.to/lastmile_qr_scan", "android": "https://dc.lft.to/lastmile_qr_scan"}, "lon": -77.03170416666667, "bike_id": "43d1879233585600ee041c25db64cdff", "type": "electric_scooter", "name": "43d1879233585600ee041c25db64cdff"}, {"is_disabled": 0, "is_reserved": 0, "fusion_lat": 0.0, "lat": 38.8988435, "fusion_lon": 0.0, "rental_uris": {"ios": "https://dc.lft.to/lastmile_qr_scan", "android": "https://dc.lft.to/lastmile_qr_scan"}, "lon": -76.93175816666667, "bike_id": "5294795eece4085c576200520bc22459", "type": "electric_scooter", "name": "5294795eece4085c576200520bc22459"}, {"is_disabled": 0, "is_reserved": 0, "fusion_lat": 0.0, "lat": 38.920899666666664, "fusion_lon": 0.0, "rental_uris": {"ios": "https://dc.lft.to/lastmile_qr_scan", "android": "https://dc.lft.to/lastmile_qr_scan"}, "lon": -77.0231915, "bike_id": "f43a54cccc566fdc233eb3f53377ccca", "type": "electric_scooter", "name": "f43a54cccc566fdc233eb3f53377ccca"}, {"is_disabled": 0, "is_reserved": 0, "fusion_lat": 0.0, "lat": 38.89275116666666, "fusion_lon": 0.0, "rental_uris": {"ios": "https://dc.lft.to/lastmile_qr_scan", "android": "https://dc.lft.to/lastmile_qr_scan"}, "lon": -77.0465755, "bike_id": "2f0f5ee0a6c6a9a7fc9f82875adcb22a", "type": "electric_scooter", "name": "2f0f5ee0a6c6a9a7fc9f82875adcb22a"}, {"is_disabled": 0, "is_reserved": 0, "fusion_lat": 0.0, "lat": 38.892231, "fusion_lon": 0.0, "rental_uris": {"ios": "https://dc.lft.to/lastmile_qr_scan", "android": "https://dc.lft.to/lastmile_qr_scan"}, "lon": -77.03983083333334, "bike_id": "4b97b46a5a9e4218a0ad45079fb99d83", "type": "electric_scooter", "name": "4b97b46a5a9e4218a0ad45079fb99d83"}, {"is_disabled": 0, "is_reserved": 0, "fusion_lat": 0.0, "lat": 38.885168166666666, "fusion_lon": 0.0, "rental_uris": {"ios": "https://dc.lft.to/lastmile_qr_scan", "android": "https://dc.lft.to/lastmile_qr_scan"}, "lon": -77.02822233333333, "bike_id": "7874aa598199fb6659294b25e3b1f0e8", "type": "electric_scooter", "name": "7874aa598199fb6659294b25e3b1f0e8"}, {"is_disabled": 0, "is_reserved": 0, "fusion_lat": 0.0, "lat": 38.918193333333335, "fusion_lon": 0.0, "rental_uris": {"ios": "https://dc.lft.to/lastmile_qr_scan", "android": "https://dc.lft.to/lastmile_qr_scan"}, "lon": -77.01211033333334, "bike_id": "ecabe4a8f41730189f6b96d155f49c2c", "type": "electric_scooter", "name": "ecabe4a8f41730189f6b96d155f49c2c"}, {"is_disabled": 0, "is_reserved": 0, "fusion_lat": 0.0, "lat": 38.8637195, "fusion_lon": 0.0, "rental_uris": {"ios": "https://dc.lft.to/lastmile_qr_scan", "android": "https://dc.lft.to/lastmile_qr_scan"}, "lon": -77.01362466666667, "bike_id": "ce794876c5d8f1f18f82315a4363f5f3", "type": "electric_scooter", "name": "ce794876c5d8f1f18f82315a4363f5f3"}, {"is_disabled": 0, "is_reserved": 0, "fusion_lat": 0.0, "lat": 38.9099105, "fusion_lon": 0.0, "rental_uris": {"ios": "https://dc.lft.to/lastmile_qr_scan", "android": "https://dc.lft.to/lastmile_qr_scan"}, "lon": -77.04449833333334, "bike_id": "a30d056db90c99848692d382bbfb4dd5", "type": "electric_scooter", "name": "a30d056db90c99848692d382bbfb4dd5"}, {"is_disabled": 0, "is_reserved": 0, "fusion_lat": 0.0, "lat": 38.880203333333334, "fusion_lon": 0.0, "rental_uris": {"ios": "https://dc.lft.to/lastmile_qr_scan", "android": "https://dc.lft.to/lastmile_qr_scan"}, "lon": -77.00997216666667, "bike_id": "60ce5d7faab55ce8bde10cd4733e89fe", "type": "electric_bike", "name": "60ce5d7faab55ce8bde10cd4733e89fe"}, {"is_disabled": 0, "is_reserved": 0, "fusion_lat": 0.0, "lat": 38.855183333333336, "fusion_lon": 0.0, "rental_uris": {"ios": "https://dc.lft.to/lastmile_qr_scan", "android": "https://dc.lft.to/lastmile_qr_scan"}, "lon": -77.10157683333334, "bike_id": "bfb8b5645db46761e8f2790deee97b2d", "type": "electric_bike", "name": "bfb8b5645db46761e8f2790deee97b2d"}, {"is_disabled": 0, "is_reserved": 0, "fusion_lat": 0.0, "lat": 38.9272395, "fusion_lon": 0.0, "rental_uris": {"ios": "https://dc.lft.to/lastmile_qr_scan", "android": "https://dc.lft.to/lastmile_qr_scan"}, "lon": -77.0514115, "bike_id": "862ce78c74962b58cddfed8fccd82a98", "type": "electric_scooter", "name": "862ce78c74962b58cddfed8fccd82a98"}, {"is_disabled": 0, "is_reserved": 0, "fusion_lat": 0.0, "lat": 38.90589533333333, "fusion_lon": 0.0, "rental_uris": {"ios": "https://dc.lft.to/lastmile_qr_scan", "android": "https://dc.lft.to/lastmile_qr_scan"}, "lon": -77.0728095, "bike_id": "66d5b578aced3da73b01058ad0fcde1d", "type": "electric_scooter", "name": "66d5b578aced3da73b01058ad0fcde1d"}, {"is_disabled": 0, "is_reserved": 0, "fusion_lat": 0.0, "lat": 38.915623833333335, "fusion_lon": 0.0, "rental_uris": {"ios": "https://dc.lft.to/lastmile_qr_scan", "android": "https://dc.lft.to/lastmile_qr_scan"}, "lon": -77.000784, "bike_id": "39571dedac1694484f172f2d830f8621", "type": "electric_scooter", "name": "39571dedac1694484f172f2d830f8621"}, {"is_disabled": 0, "is_reserved": 0, "fusion_lat": 0.0, "lat": 38.9071925, "fusion_lon": 0.0, "rental_uris": {"ios": "https://dc.lft.to/lastmile_qr_scan", "android": "https://dc.lft.to/lastmile_qr_scan"}, "lon": -77.03505416666667, "bike_id": "89e47827c3b7e303c440a48c35e3dc5d", "type": "electric_scooter", "name": "89e47827c3b7e303c440a48c35e3dc5d"}, {"is_disabled": 0, "is_reserved": 0, "fusion_lat": 0.0, "lat": 38.822063, "fusion_lon": 0.0, "rental_uris": {"ios": "https://dc.lft.to/lastmile_qr_scan", "android": "https://dc.lft.to/lastmile_qr_scan"}, "lon": -76.97708983333334, "bike_id": "cec24f6d8574fa945f5e014b7eec3164", "type": "electric_bike", "name": "cec24f6d8574fa945f5e014b7eec3164"}, {"is_disabled": 0, "is_reserved": 0, "fusion_lat": 0.0, "lat": 38.89231566666667, "fusion_lon": 0.0, "rental_uris": {"ios": "https://dc.lft.to/lastmile_qr_scan", "android": "https://dc.lft.to/lastmile_qr_scan"}, "lon": -77.05000866666667, "bike_id": "3785c27b3b0d1ce20af61ff9e1dba1b6", "type": "electric_scooter", "name": "3785c27b3b0d1ce20af61ff9e1dba1b6"}, {"is_disabled": 0, "is_reserved": 0, "fusion_lat": 0.0, "lat": 38.94837833333333, "fusion_lon": 0.0, "rental_uris": {"ios": "https://dc.lft.to/lastmile_qr_scan", "android": "https://dc.lft.to/lastmile_qr_scan"}, "lon": -77.0798065, "bike_id": "8527574df95474e4807c9df2cd5c496d", "type": "electric_scooter", "name": "8527574df95474e4807c9df2cd5c496d"}, {"is_disabled": 0, "is_reserved": 0, "fusion_lat": 0.0, "lat": 38.90692216666667, "fusion_lon": 0.0, "rental_uris": {"ios": "https://dc.lft.to/lastmile_qr_scan", "android": "https://dc.lft.to/lastmile_qr_scan"}, "lon": -76.95254116666666, "bike_id": "ce0a25411f1e34de4f26d3e492a3617e", "type": "electric_bike", "name": "ce0a25411f1e34de4f26d3e492a3617e"}, {"is_disabled": 0, "is_reserved": 0, "fusion_lat": 0.0, "lat": 38.942573333333335, "fusion_lon": 0.0, "rental_uris": {"ios": "https://dc.lft.to/lastmile_qr_scan", "android": "https://dc.lft.to/lastmile_qr_scan"}, "lon": -76.98453583333334, "bike_id": "da6c4c8a7c7377888c1c9ccc818fff1f", "type": "electric_scooter", "name": "da6c4c8a7c7377888c1c9ccc818fff1f"}, {"is_disabled": 0, "is_reserved": 0, "fusion_lat": 0.0, "lat": 38.896593833333334, "fusion_lon": 0.0, "rental_uris": {"ios": "https://dc.lft.to/lastmile_qr_scan", "android": "https://dc.lft.to/lastmile_qr_scan"}, "lon": -77.05166116666666, "bike_id": "272afa80345bdf664e664522ad5171d2", "type": "electric_scooter", "name": "272afa80345bdf664e664522ad5171d2"}, {"is_disabled": 0, "is_reserved": 0, "fusion_lat": 0.0, "lat": 38.905084333333335, "fusion_lon": 0.0, "rental_uris": {"ios": "https://dc.lft.to/lastmile_qr_scan", "android": "https://dc.lft.to/lastmile_qr_scan"}, "lon": -77.0601355, "bike_id": "7ceb242c1973dc04ccf9af5872fc4602", "type": "electric_scooter", "name": "7ceb242c1973dc04ccf9af5872fc4602"}, {"is_disabled": 0, "is_reserved": 0, "fusion_lat": 0.0, "lat": 38.924503333333334, "fusion_lon": 0.0, "rental_uris": {"ios": "https://dc.lft.to/lastmile_qr_scan", "android": "https://dc.lft.to/lastmile_qr_scan"}, "lon": -77.03890483333333, "bike_id": "240b74604b39a9460fb21c72d0f37d98", "type": "electric_scooter", "name": "240b74604b39a9460fb21c72d0f37d98"}, {"is_disabled": 0, "is_reserved": 0, "fusion_lat": 0.0, "lat": 38.88365816666666, "fusion_lon": 0.0, "rental_uris": {"ios": "https://dc.lft.to/lastmile_qr_scan", "android": "https://dc.lft.to/lastmile_qr_scan"}, "lon": -76.9576865, "bike_id": "ee38272ec8ffca2096253eeddad41104", "type": "electric_scooter", "name": "ee38272ec8ffca2096253eeddad41104"}, {"is_disabled": 0, "is_reserved": 0, "fusion_lat": 0.0, "lat": 38.93035583333333, "fusion_lon": 0.0, "rental_uris": {"ios": "https://dc.lft.to/lastmile_qr_scan", "android": "https://dc.lft.to/lastmile_qr_scan"}, "lon": -77.01942733333334, "bike_id": "ae7d43d907484ef1a8bd9c7551aa3fe8", "type": "electric_scooter", "name": "ae7d43d907484ef1a8bd9c7551aa3fe8"}, {"is_disabled": 0, "is_reserved": 0, "fusion_lat": 0.0, "lat": 38.920043166666666, "fusion_lon": 0.0, "rental_uris": {"ios": "https://dc.lft.to/lastmile_qr_scan", "android": "https://dc.lft.to/lastmile_qr_scan"}, "lon": -77.0474655, "bike_id": "483a4090af622a81e1b4c3be2c265021", "type": "electric_scooter", "name": "483a4090af622a81e1b4c3be2c265021"}, {"is_disabled": 0, "is_reserved": 0, "fusion_lat": 0.0, "lat": 38.86684416666667, "fusion_lon": 0.0, "rental_uris": {"ios": "https://dc.lft.to/lastmile_qr_scan", "android": "https://dc.lft.to/lastmile_qr_scan"}, "lon": -77.01066966666667, "bike_id": "7074bff69592c805b2c7bf20573f89e7", "type": "electric_scooter", "name": "7074bff69592c805b2c7bf20573f89e7"}, {"is_disabled": 0, "is_reserved": 0, "fusion_lat": 0.0, "lat": 38.927445666666664, "fusion_lon": 0.0, "rental_uris": {"ios": "https://dc.lft.to/lastmile_qr_scan", "android": "https://dc.lft.to/lastmile_qr_scan"}, "lon": -77.03303933333333, "bike_id": "1bcbba8edd4a24926e60e82caab30379", "type": "electric_scooter", "name": "1bcbba8edd4a24926e60e82caab30379"}, {"is_disabled": 0, "is_reserved": 0, "fusion_lat": 0.0, "lat": 38.80742383333333, "fusion_lon": 0.0, "rental_uris": {"ios": "https://dc.lft.to/lastmile_qr_scan", "android": "https://dc.lft.to/lastmile_qr_scan"}, "lon": -77.09686066666667, "bike_id": "6b1ad20cd5de0eaa19f0eb15da74a2e0", "type": "electric_bike", "name": "6b1ad20cd5de0eaa19f0eb15da74a2e0"}, {"is_disabled": 0, "is_reserved": 0, "fusion_lat": 0.0, "lat": 38.88527116666667, "fusion_lon": 0.0, "rental_uris": {"ios": "https://dc.lft.to/lastmile_qr_scan", "android": "https://dc.lft.to/lastmile_qr_scan"}, "lon": -76.997986, "bike_id": "9f06f041a3bc3dffc8ff4ca258f444bc", "type": "electric_scooter", "name": "9f06f041a3bc3dffc8ff4ca258f444bc"}, {"is_disabled": 0, "is_reserved": 0, "fusion_lat": 0.0, "lat": 38.8719785, "fusion_lon": 0.0, "rental_uris": {"ios": "https://dc.lft.to/lastmile_qr_scan", "android": "https://dc.lft.to/lastmile_qr_scan"}, "lon": -77.00588366666666, "bike_id": "21c450af773bae995194555a57ed7993", "type": "electric_scooter", "name": "21c450af773bae995194555a57ed7993"}, {"is_disabled": 0, "is_reserved": 0, "fusion_lat": 0.0, "lat": 38.91998816666667, "fusion_lon": 0.0, "rental_uris": {"ios": "https://dc.lft.to/lastmile_qr_scan", "android": "https://dc.lft.to/lastmile_qr_scan"}, "lon": -77.04179316666666, "bike_id": "70035569390f1711f61dce671d0d7720", "type": "electric_scooter", "name": "70035569390f1711f61dce671d0d7720"}, {"is_disabled": 0, "is_reserved": 0, "fusion_lat": 0.0, "lat": 38.916580333333336, "fusion_lon": 0.0, "rental_uris": {"ios": "https://dc.lft.to/lastmile_qr_scan", "android": "https://dc.lft.to/lastmile_qr_scan"}, "lon": -77.0239985, "bike_id": "941b460c3c5cd2849fa0f4246f42e53e", "type": "electric_scooter", "name": "941b460c3c5cd2849fa0f4246f42e53e"}, {"is_disabled": 0, "is_reserved": 0, "fusion_lat": 0.0, "lat": 38.871770166666664, "fusion_lon": 0.0, "rental_uris": {"ios": "https://dc.lft.to/lastmile_qr_scan", "android": "https://dc.lft.to/lastmile_qr_scan"}, "lon": -77.233929, "bike_id": "bc539114b9ad338b36b74c5bf8635652", "type": "electric_bike", "name": "bc539114b9ad338b36b74c5bf8635652"}, {"is_disabled": 0, "is_reserved": 0, "fusion_lat": 0.0, "lat": 38.888748, "fusion_lon": 0.0, "rental_uris": {"ios": "https://dc.lft.to/lastmile_qr_scan", "android": "https://dc.lft.to/lastmile_qr_scan"}, "lon": -76.9902825, "bike_id": "37b8584038dd5990fa23c5f51a24c8a8", "type": "electric_scooter", "name": "37b8584038dd5990fa23c5f51a24c8a8"}, {"is_disabled": 0, "is_reserved": 0, "fusion_lat": 0.0, "lat": 38.90078416666667, "fusion_lon": 0.0, "rental_uris": {"ios": "https://dc.lft.to/lastmile_qr_scan", "android": "https://dc.lft.to/lastmile_qr_scan"}, "lon": -77.04963316666667, "bike_id": "d9e8f06e212741f87faac79b37b0c95f", "type": "electric_scooter", "name": "d9e8f06e212741f87faac79b37b0c95f"}, {"is_disabled": 0, "is_reserved": 0, "fusion_lat": 0.0, "lat": 38.95317383333333, "fusion_lon": 0.0, "rental_uris": {"ios": "https://dc.lft.to/lastmile_qr_scan", "android": "https://dc.lft.to/lastmile_qr_scan"}, "lon": -76.99458333333334, "bike_id": "2e15967e10d1b2758baea37e0602a1d0", "type": "electric_scooter", "name": "2e15967e10d1b2758baea37e0602a1d0"}, {"is_disabled": 0, "is_reserved": 0, "fusion_lat": 0.0, "lat": 39.000035833333335, "fusion_lon": 0.0, "rental_uris": {"ios": "https://dc.lft.to/lastmile_qr_scan", "android": "https://dc.lft.to/lastmile_qr_scan"}, "lon": -76.91805916666667, "bike_id": "7dcb1e5e13b40064a9069c8b18fb0d0b", "type": "electric_bike", "name": "7dcb1e5e13b40064a9069c8b18fb0d0b"}, {"is_disabled": 0, "is_reserved": 0, "fusion_lat": 0.0, "lat": 38.93703566666667, "fusion_lon": 0.0, "rental_uris": {"ios": "https://dc.lft.to/lastmile_qr_scan", "android": "https://dc.lft.to/lastmile_qr_scan"}, "lon": -77.05602316666666, "bike_id": "458205edadda249b58879a60bbca403e", "type": "electric_scooter", "name": "458205edadda249b58879a60bbca403e"}, {"is_disabled": 0, "is_reserved": 0, "fusion_lat": 0.0, "lat": 38.893676666666664, "fusion_lon": 0.0, "rental_uris": {"ios": "https://dc.lft.to/lastmile_qr_scan", "android": "https://dc.lft.to/lastmile_qr_scan"}, "lon": -76.9410745, "bike_id": "482a3645ce39417e378f76ef75af6fb2", "type": "electric_scooter", "name": "482a3645ce39417e378f76ef75af6fb2"}, {"is_disabled": 0, "is_reserved": 0, "fusion_lat": 0.0, "lat": 38.89960716666667, "fusion_lon": 0.0, "rental_uris": {"ios": "https://dc.lft.to/lastmile_qr_scan", "android": "https://dc.lft.to/lastmile_qr_scan"}, "lon": -77.00929133333334, "bike_id": "ccf0a8397b6035328ddb7be110c054b8", "type": "electric_scooter", "name": "ccf0a8397b6035328ddb7be110c054b8"}, {"is_disabled": 0, "is_reserved": 0, "fusion_lat": 0.0, "lat": 38.896164666666664, "fusion_lon": 0.0, "rental_uris": {"ios": "https://dc.lft.to/lastmile_qr_scan", "android": "https://dc.lft.to/lastmile_qr_scan"}, "lon": -77.02655566666667, "bike_id": "a8a5f5ee8d69eb25b28e4c4a7ca8eb5b", "type": "electric_scooter", "name": "a8a5f5ee8d69eb25b28e4c4a7ca8eb5b"}, {"is_disabled": 0, "is_reserved": 0, "fusion_lat": 0.0, "lat": 38.93068133333333, "fusion_lon": 0.0, "rental_uris": {"ios": "https://dc.lft.to/lastmile_qr_scan", "android": "https://dc.lft.to/lastmile_qr_scan"}, "lon": -77.02346283333334, "bike_id": "090ec8332755b276aad9cdcdccee06c5", "type": "electric_scooter", "name": "090ec8332755b276aad9cdcdccee06c5"}, {"is_disabled": 0, "is_reserved": 0, "fusion_lat": 0.0, "lat": 38.94920716666667, "fusion_lon": 0.0, "rental_uris": {"ios": "https://dc.lft.to/lastmile_qr_scan", "android": "https://dc.lft.to/lastmile_qr_scan"}, "lon": -77.02315966666667, "bike_id": "6b9f43cde4292e25bc8bac58b66e65c7", "type": "electric_scooter", "name": "6b9f43cde4292e25bc8bac58b66e65c7"}, {"is_disabled": 0, "is_reserved": 0, "fusion_lat": 0.0, "lat": 38.883487, "fusion_lon": 0.0, "rental_uris": {"ios": "https://dc.lft.to/lastmile_qr_scan", "android": "https://dc.lft.to/lastmile_qr_scan"}, "lon": -76.994921, "bike_id": "69d49fe8e3f8cdc0774bd34a2ba80f9f", "type": "electric_scooter", "name": "69d49fe8e3f8cdc0774bd34a2ba80f9f"}, {"is_disabled": 0, "is_reserved": 0, "fusion_lat": 0.0, "lat": 38.89221516666667, "fusion_lon": 0.0, "rental_uris": {"ios": "https://dc.lft.to/lastmile_qr_scan", "android": "https://dc.lft.to/lastmile_qr_scan"}, "lon": -77.0318715, "bike_id": "6c4849e9d36916ed86cc900ef66d3b5d", "type": "electric_scooter", "name": "6c4849e9d36916ed86cc900ef66d3b5d"}, {"is_disabled": 0, "is_reserved": 0, "fusion_lat": 0.0, "lat": 38.88656983333333, "fusion_lon": 0.0, "rental_uris": {"ios": "https://dc.lft.to/lastmile_qr_scan", "android": "https://dc.lft.to/lastmile_qr_scan"}, "lon": -77.03391433333333, "bike_id": "6a21c6509ce06f1049c8b0a7731dd0d1", "type": "electric_scooter", "name": "6a21c6509ce06f1049c8b0a7731dd0d1"}, {"is_disabled": 0, "is_reserved": 0, "fusion_lat": 0.0, "lat": 38.89724266666666, "fusion_lon": 0.0, "rental_uris": {"ios": "https://dc.lft.to/lastmile_qr_scan", "android": "https://dc.lft.to/lastmile_qr_scan"}, "lon": -77.04528366666666, "bike_id": "716644def8d5635ce32e6a097936d8c1", "type": "electric_scooter", "name": "716644def8d5635ce32e6a097936d8c1"}, {"is_disabled": 0, "is_reserved": 0, "fusion_lat": 0.0, "lat": 38.901194333333336, "fusion_lon": 0.0, "rental_uris": {"ios": "https://dc.lft.to/lastmile_qr_scan", "android": "https://dc.lft.to/lastmile_qr_scan"}, "lon": -77.03358666666666, "bike_id": "c00855196dcf805d9ccf22a32b36827f", "type": "electric_scooter", "name": "c00855196dcf805d9ccf22a32b36827f"}, {"is_disabled": 0, "is_reserved": 0, "fusion_lat": 0.0, "lat": 38.949732166666664, "fusion_lon": 0.0, "rental_uris": {"ios": "https://dc.lft.to/lastmile_qr_scan", "android": "https://dc.lft.to/lastmile_qr_scan"}, "lon": -77.08085716666666, "bike_id": "e158f38389e9ce41a230feecc09a9acd", "type": "electric_scooter", "name": "e158f38389e9ce41a230feecc09a9acd"}, {"is_disabled": 0, "is_reserved": 0, "fusion_lat": 0.0, "lat": 38.857151333333334, "fusion_lon": 0.0, "rental_uris": {"ios": "https://dc.lft.to/lastmile_qr_scan", "android": "https://dc.lft.to/lastmile_qr_scan"}, "lon": -76.98098783333333, "bike_id": "01e30b81b22675121e3aec11f6cfab3b", "type": "electric_scooter", "name": "01e30b81b22675121e3aec11f6cfab3b"}, {"is_disabled": 0, "is_reserved": 0, "fusion_lat": 0.0, "lat": 38.89867666666667, "fusion_lon": 0.0, "rental_uris": {"ios": "https://dc.lft.to/lastmile_qr_scan", "android": "https://dc.lft.to/lastmile_qr_scan"}, "lon": -76.94663166666666, "bike_id": "a5cb69be7c819ca63f3d2878e3ee92ed", "type": "electric_scooter", "name": "a5cb69be7c819ca63f3d2878e3ee92ed"}, {"is_disabled": 0, "is_reserved": 0, "fusion_lat": 0.0, "lat": 38.91830616666667, "fusion_lon": 0.0, "rental_uris": {"ios": "https://dc.lft.to/lastmile_qr_scan", "android": "https://dc.lft.to/lastmile_qr_scan"}, "lon": -77.04170266666667, "bike_id": "773c62e6df53f90d4d6655e0a33a0a26", "type": "electric_scooter", "name": "773c62e6df53f90d4d6655e0a33a0a26"}, {"is_disabled": 0, "is_reserved": 0, "fusion_lat": 0.0, "lat": 38.91806066666667, "fusion_lon": 0.0, "rental_uris": {"ios": "https://dc.lft.to/lastmile_qr_scan", "android": "https://dc.lft.to/lastmile_qr_scan"}, "lon": -77.03435083333333, "bike_id": "a6ef4dc4bd853da7b6d8b79f153f0ad5", "type": "electric_scooter", "name": "a6ef4dc4bd853da7b6d8b79f153f0ad5"}, {"is_disabled": 0, "is_reserved": 0, "fusion_lat": 0.0, "lat": 38.89675066666667, "fusion_lon": 0.0, "rental_uris": {"ios": "https://dc.lft.to/lastmile_qr_scan", "android": "https://dc.lft.to/lastmile_qr_scan"}, "lon": -77.05462833333333, "bike_id": "298ee22a673fa372aa70a3abc0517379", "type": "electric_scooter", "name": "298ee22a673fa372aa70a3abc0517379"}, {"is_disabled": 0, "is_reserved": 0, "fusion_lat": 0.0, "lat": 38.89611433333334, "fusion_lon": 0.0, "rental_uris": {"ios": "https://dc.lft.to/lastmile_qr_scan", "android": "https://dc.lft.to/lastmile_qr_scan"}, "lon": -77.00606333333333, "bike_id": "a01dd9ae86bdbea224b46d5dd6e1556c", "type": "electric_scooter", "name": "a01dd9ae86bdbea224b46d5dd6e1556c"}, {"is_disabled": 0, "is_reserved": 0, "fusion_lat": 0.0, "lat": 38.9280965, "fusion_lon": 0.0, "rental_uris": {"ios": "https://dc.lft.to/lastmile_qr_scan", "android": "https://dc.lft.to/lastmile_qr_scan"}, "lon": -77.02298533333334, "bike_id": "5d08a76212a7512383b5e2cc9e2c331a", "type": "electric_scooter", "name": "5d08a76212a7512383b5e2cc9e2c331a"}, {"is_disabled": 0, "is_reserved": 0, "fusion_lat": 0.0, "lat": 38.833960833333336, "fusion_lon": 0.0, "rental_uris": {"ios": "https://dc.lft.to/lastmile_qr_scan", "android": "https://dc.lft.to/lastmile_qr_scan"}, "lon": -77.05021366666666, "bike_id": "aae3cf70a60e353359c7c22f92a1242e", "type": "electric_bike", "name": "aae3cf70a60e353359c7c22f92a1242e"}, {"is_disabled": 0, "is_reserved": 0, "fusion_lat": 0.0, "lat": 38.90245183333333, "fusion_lon": 0.0, "rental_uris": {"ios": "https://dc.lft.to/lastmile_qr_scan", "android": "https://dc.lft.to/lastmile_qr_scan"}, "lon": -77.05202466666667, "bike_id": "31d92d905919825f10f8ef69e16319a0", "type": "electric_scooter", "name": "31d92d905919825f10f8ef69e16319a0"}, {"is_disabled": 0, "is_reserved": 0, "fusion_lat": 0.0, "lat": 38.82040166666667, "fusion_lon": 0.0, "rental_uris": {"ios": "https://dc.lft.to/lastmile_qr_scan", "android": "https://dc.lft.to/lastmile_qr_scan"}, "lon": -77.05457266666667, "bike_id": "abbacc00eac5115264437a805541650b", "type": "electric_bike", "name": "abbacc00eac5115264437a805541650b"}, {"is_disabled": 0, "is_reserved": 0, "fusion_lat": 0.0, "lat": 38.912400833333336, "fusion_lon": 0.0, "rental_uris": {"ios": "https://dc.lft.to/lastmile_qr_scan", "android": "https://dc.lft.to/lastmile_qr_scan"}, "lon": -77.04760566666667, "bike_id": "b5e5ade76c21a601a958ed80b632b549", "type": "electric_scooter", "name": "b5e5ade76c21a601a958ed80b632b549"}, {"is_disabled": 0, "is_reserved": 0, "fusion_lat": 0.0, "lat": 38.90530366666667, "fusion_lon": 0.0, "rental_uris": {"ios": "https://dc.lft.to/lastmile_qr_scan", "android": "https://dc.lft.to/lastmile_qr_scan"}, "lon": -77.06521866666667, "bike_id": "86b8158114397d7ee7bc133262212cf4", "type": "electric_scooter", "name": "86b8158114397d7ee7bc133262212cf4"}, {"is_disabled": 0, "is_reserved": 0, "fusion_lat": 0.0, "lat": 38.923305166666665, "fusion_lon": 0.0, "rental_uris": {"ios": "https://dc.lft.to/lastmile_qr_scan", "android": "https://dc.lft.to/lastmile_qr_scan"}, "lon": -77.03622683333333, "bike_id": "7e8aec0b4622ddb86470540af2cea608", "type": "electric_scooter", "name": "7e8aec0b4622ddb86470540af2cea608"}, {"is_disabled": 0, "is_reserved": 0, "fusion_lat": 0.0, "lat": 38.896679666666664, "fusion_lon": 0.0, "rental_uris": {"ios": "https://dc.lft.to/lastmile_qr_scan", "android": "https://dc.lft.to/lastmile_qr_scan"}, "lon": -77.032059, "bike_id": "b99d9d6baa0fc514a9c90caf04144cdf", "type": "electric_scooter", "name": "b99d9d6baa0fc514a9c90caf04144cdf"}, {"is_disabled": 0, "is_reserved": 0, "fusion_lat": 0.0, "lat": 38.89490466666667, "fusion_lon": 0.0, "rental_uris": {"ios": "https://dc.lft.to/lastmile_qr_scan", "android": "https://dc.lft.to/lastmile_qr_scan"}, "lon": -77.0229875, "bike_id": "377ccf83bfa68acf5d308c636434de59", "type": "electric_scooter", "name": "377ccf83bfa68acf5d308c636434de59"}, {"is_disabled": 0, "is_reserved": 0, "fusion_lat": 0.0, "lat": 38.8964405, "fusion_lon": 0.0, "rental_uris": {"ios": "https://dc.lft.to/lastmile_qr_scan", "android": "https://dc.lft.to/lastmile_qr_scan"}, "lon": -77.02579166666666, "bike_id": "d15b7feacc5a74480657f3ef2eec741d", "type": "electric_scooter", "name": "d15b7feacc5a74480657f3ef2eec741d"}, {"is_disabled": 0, "is_reserved": 0, "fusion_lat": 0.0, "lat": 38.93074133333333, "fusion_lon": 0.0, "rental_uris": {"ios": "https://dc.lft.to/lastmile_qr_scan", "android": "https://dc.lft.to/lastmile_qr_scan"}, "lon": -77.0263945, "bike_id": "657341b864148ff6959f8734536da1c3", "type": "electric_scooter", "name": "657341b864148ff6959f8734536da1c3"}, {"is_disabled": 0, "is_reserved": 0, "fusion_lat": 0.0, "lat": 38.902458833333334, "fusion_lon": 0.0, "rental_uris": {"ios": "https://dc.lft.to/lastmile_qr_scan", "android": "https://dc.lft.to/lastmile_qr_scan"}, "lon": -77.060934, "bike_id": "46dc1f8554312215c83a7b12cdc7956f", "type": "electric_scooter", "name": "46dc1f8554312215c83a7b12cdc7956f"}, {"is_disabled": 0, "is_reserved": 0, "fusion_lat": 0.0, "lat": 38.9233555, "fusion_lon": 0.0, "rental_uris": {"ios": "https://dc.lft.to/lastmile_qr_scan", "android": "https://dc.lft.to/lastmile_qr_scan"}, "lon": -77.02793983333333, "bike_id": "6a09f31db641e153d2306ef4235531bf", "type": "electric_scooter", "name": "6a09f31db641e153d2306ef4235531bf"}, {"is_disabled": 0, "is_reserved": 0, "fusion_lat": 0.0, "lat": 38.90976233333333, "fusion_lon": 0.0, "rental_uris": {"ios": "https://dc.lft.to/lastmile_qr_scan", "android": "https://dc.lft.to/lastmile_qr_scan"}, "lon": -77.04465483333334, "bike_id": "b837a27e48177be667ca9538d8206cac", "type": "electric_scooter", "name": "b837a27e48177be667ca9538d8206cac"}, {"is_disabled": 0, "is_reserved": 0, "fusion_lat": 0.0, "lat": 38.9169975, "fusion_lon": 0.0, "rental_uris": {"ios": "https://dc.lft.to/lastmile_qr_scan", "android": "https://dc.lft.to/lastmile_qr_scan"}, "lon": -77.03763983333333, "bike_id": "f80d239b8affcb0dc3c016222c258bd0", "type": "electric_scooter", "name": "f80d239b8affcb0dc3c016222c258bd0"}, {"is_disabled": 0, "is_reserved": 0, "fusion_lat": 0.0, "lat": 38.932030166666664, "fusion_lon": 0.0, "rental_uris": {"ios": "https://dc.lft.to/lastmile_qr_scan", "android": "https://dc.lft.to/lastmile_qr_scan"}, "lon": -77.02280833333333, "bike_id": "b27a0f1085e69eb398fc43229c18de74", "type": "electric_scooter", "name": "b27a0f1085e69eb398fc43229c18de74"}, {"is_disabled": 0, "is_reserved": 0, "fusion_lat": 0.0, "lat": 38.80485183333333, "fusion_lon": 0.0, "rental_uris": {"ios": "https://dc.lft.to/lastmile_qr_scan", "android": "https://dc.lft.to/lastmile_qr_scan"}, "lon": -76.991093, "bike_id": "77a8e2ae1bf42d48dc31ab593ba6497d", "type": "electric_bike", "name": "77a8e2ae1bf42d48dc31ab593ba6497d"}, {"is_disabled": 0, "is_reserved": 0, "fusion_lat": 0.0, "lat": 39.001026, "fusion_lon": 0.0, "rental_uris": {"ios": "https://dc.lft.to/lastmile_qr_scan", "android": "https://dc.lft.to/lastmile_qr_scan"}, "lon": -76.9098235, "bike_id": "228bb0bc09a3972768a36c6aa683b1e7", "type": "electric_bike", "name": "228bb0bc09a3972768a36c6aa683b1e7"}, {"is_disabled": 0, "is_reserved": 0, "fusion_lat": 0.0, "lat": 38.92086833333333, "fusion_lon": 0.0, "rental_uris": {"ios": "https://dc.lft.to/lastmile_qr_scan", "android": "https://dc.lft.to/lastmile_qr_scan"}, "lon": -77.02407383333333, "bike_id": "e67de809a2f015ad2653f097dde14f1e", "type": "electric_scooter", "name": "e67de809a2f015ad2653f097dde14f1e"}, {"is_disabled": 0, "is_reserved": 0, "fusion_lat": 0.0, "lat": 38.89815133333333, "fusion_lon": 0.0, "rental_uris": {"ios": "https://dc.lft.to/lastmile_qr_scan", "android": "https://dc.lft.to/lastmile_qr_scan"}, "lon": -77.02489183333333, "bike_id": "797a1838cc01882fedee8715f26093d9", "type": "electric_scooter", "name": "797a1838cc01882fedee8715f26093d9"}, {"is_disabled": 0, "is_reserved": 0, "fusion_lat": 0.0, "lat": 38.9127365, "fusion_lon": 0.0, "rental_uris": {"ios": "https://dc.lft.to/lastmile_qr_scan", "android": "https://dc.lft.to/lastmile_qr_scan"}, "lon": -77.0416595, "bike_id": "50c0b7a095af952ee47d5fc66f024906", "type": "electric_scooter", "name": "50c0b7a095af952ee47d5fc66f024906"}, {"is_disabled": 0, "is_reserved": 0, "fusion_lat": 0.0, "lat": 38.9297435, "fusion_lon": 0.0, "rental_uris": {"ios": "https://dc.lft.to/lastmile_qr_scan", "android": "https://dc.lft.to/lastmile_qr_scan"}, "lon": -77.03084533333333, "bike_id": "9bd0dc72c6d553c70f2d1c3b8a70167e", "type": "electric_scooter", "name": "9bd0dc72c6d553c70f2d1c3b8a70167e"}, {"is_disabled": 0, "is_reserved": 0, "fusion_lat": 0.0, "lat": 38.892289166666664, "fusion_lon": 0.0, "rental_uris": {"ios": "https://dc.lft.to/lastmile_qr_scan", "android": "https://dc.lft.to/lastmile_qr_scan"}, "lon": -77.031994, "bike_id": "9f23e0d30be1a88626ee989c600a5ee3", "type": "electric_scooter", "name": "9f23e0d30be1a88626ee989c600a5ee3"}, {"is_disabled": 0, "is_reserved": 0, "fusion_lat": 0.0, "lat": 38.89738066666666, "fusion_lon": 0.0, "rental_uris": {"ios": "https://dc.lft.to/lastmile_qr_scan", "android": "https://dc.lft.to/lastmile_qr_scan"}, "lon": -77.0436945, "bike_id": "8a689bfaba002e8f54235eef241f5141", "type": "electric_scooter", "name": "8a689bfaba002e8f54235eef241f5141"}, {"is_disabled": 0, "is_reserved": 0, "fusion_lat": 0.0, "lat": 38.91684716666666, "fusion_lon": 0.0, "rental_uris": {"ios": "https://dc.lft.to/lastmile_qr_scan", "android": "https://dc.lft.to/lastmile_qr_scan"}, "lon": -77.02971016666666, "bike_id": "953fbe24eb4e15b7b36492963407afa9", "type": "electric_scooter", "name": "953fbe24eb4e15b7b36492963407afa9"}, {"is_disabled": 0, "is_reserved": 0, "fusion_lat": 0.0, "lat": 38.91680133333333, "fusion_lon": 0.0, "rental_uris": {"ios": "https://dc.lft.to/lastmile_qr_scan", "android": "https://dc.lft.to/lastmile_qr_scan"}, "lon": -77.029707, "bike_id": "d69bbe085f10157c48e8352222b93573", "type": "electric_scooter", "name": "d69bbe085f10157c48e8352222b93573"}, {"is_disabled": 0, "is_reserved": 0, "fusion_lat": 0.0, "lat": 38.885357, "fusion_lon": 0.0, "rental_uris": {"ios": "https://dc.lft.to/lastmile_qr_scan", "android": "https://dc.lft.to/lastmile_qr_scan"}, "lon": -76.980555, "bike_id": "5d03f0410924b9e1d9645f535f8d0a5b", "type": "electric_scooter", "name": "5d03f0410924b9e1d9645f535f8d0a5b"}, {"is_disabled": 0, "is_reserved": 0, "fusion_lat": 0.0, "lat": 38.9164785, "fusion_lon": 0.0, "rental_uris": {"ios": "https://dc.lft.to/lastmile_qr_scan", "android": "https://dc.lft.to/lastmile_qr_scan"}, "lon": -77.0240355, "bike_id": "4f18f21fab7cddfecf49358284111cd7", "type": "electric_scooter", "name": "4f18f21fab7cddfecf49358284111cd7"}, {"is_disabled": 0, "is_reserved": 0, "fusion_lat": 0.0, "lat": 38.95682033333333, "fusion_lon": 0.0, "rental_uris": {"ios": "https://dc.lft.to/lastmile_qr_scan", "android": "https://dc.lft.to/lastmile_qr_scan"}, "lon": -77.022296, "bike_id": "164a77a658ad520f54db011e54e53af3", "type": "electric_scooter", "name": "164a77a658ad520f54db011e54e53af3"}, {"is_disabled": 0, "is_reserved": 0, "fusion_lat": 0.0, "lat": 38.896185833333334, "fusion_lon": 0.0, "rental_uris": {"ios": "https://dc.lft.to/lastmile_qr_scan", "android": "https://dc.lft.to/lastmile_qr_scan"}, "lon": -76.907511, "bike_id": "c6f4534e071fdcee3ad535322d2e54bd", "type": "electric_bike", "name": "c6f4534e071fdcee3ad535322d2e54bd"}, {"is_disabled": 0, "is_reserved": 0, "fusion_lat": 0.0, "lat": 38.9229625, "fusion_lon": 0.0, "rental_uris": {"ios": "https://dc.lft.to/lastmile_qr_scan", "android": "https://dc.lft.to/lastmile_qr_scan"}, "lon": -77.02972966666667, "bike_id": "da1edf4b8fff969f5307fa8317dfc4d8", "type": "electric_scooter", "name": "da1edf4b8fff969f5307fa8317dfc4d8"}, {"is_disabled": 0, "is_reserved": 0, "fusion_lat": 0.0, "lat": 38.9026435, "fusion_lon": 0.0, "rental_uris": {"ios": "https://dc.lft.to/lastmile_qr_scan", "android": "https://dc.lft.to/lastmile_qr_scan"}, "lon": -77.03975133333333, "bike_id": "aae3b6895140af2a299512c85ff5c357", "type": "electric_scooter", "name": "aae3b6895140af2a299512c85ff5c357"}, {"is_disabled": 0, "is_reserved": 0, "fusion_lat": 0.0, "lat": 38.8766925, "fusion_lon": 0.0, "rental_uris": {"ios": "https://dc.lft.to/lastmile_qr_scan", "android": "https://dc.lft.to/lastmile_qr_scan"}, "lon": -76.99625416666666, "bike_id": "85addda46d72893a00d33df9e3b4bd8b", "type": "electric_scooter", "name": "85addda46d72893a00d33df9e3b4bd8b"}, {"is_disabled": 0, "is_reserved": 0, "fusion_lat": 0.0, "lat": 38.95756266666667, "fusion_lon": 0.0, "rental_uris": {"ios": "https://dc.lft.to/lastmile_qr_scan", "android": "https://dc.lft.to/lastmile_qr_scan"}, "lon": -77.022137, "bike_id": "0d66e7ff60e8add7fc021fcd52a71195", "type": "electric_scooter", "name": "0d66e7ff60e8add7fc021fcd52a71195"}, {"is_disabled": 0, "is_reserved": 0, "fusion_lat": 0.0, "lat": 38.919011, "fusion_lon": 0.0, "rental_uris": {"ios": "https://dc.lft.to/lastmile_qr_scan", "android": "https://dc.lft.to/lastmile_qr_scan"}, "lon": -77.000482, "bike_id": "d719af0e53b09de025b61f273d81b14b", "type": "electric_scooter", "name": "d719af0e53b09de025b61f273d81b14b"}, {"is_disabled": 0, "is_reserved": 0, "fusion_lat": 0.0, "lat": 38.927065666666664, "fusion_lon": 0.0, "rental_uris": {"ios": "https://dc.lft.to/lastmile_qr_scan", "android": "https://dc.lft.to/lastmile_qr_scan"}, "lon": -76.96078816666666, "bike_id": "0476973218c31a59938117d3b05269ad", "type": "electric_scooter", "name": "0476973218c31a59938117d3b05269ad"}, {"is_disabled": 0, "is_reserved": 0, "fusion_lat": 0.0, "lat": 38.9161545, "fusion_lon": 0.0, "rental_uris": {"ios": "https://dc.lft.to/lastmile_qr_scan", "android": "https://dc.lft.to/lastmile_qr_scan"}, "lon": -77.0209005, "bike_id": "f70f67c493c195e1e9ebb499fdbb2001", "type": "electric_scooter", "name": "f70f67c493c195e1e9ebb499fdbb2001"}, {"is_disabled": 0, "is_reserved": 0, "fusion_lat": 0.0, "lat": 38.87526483333333, "fusion_lon": 0.0, "rental_uris": {"ios": "https://dc.lft.to/lastmile_qr_scan", "android": "https://dc.lft.to/lastmile_qr_scan"}, "lon": -77.01227816666666, "bike_id": "fcab126c86de0ad03f23487c88ee0caa", "type": "electric_scooter", "name": "fcab126c86de0ad03f23487c88ee0caa"}, {"is_disabled": 0, "is_reserved": 0, "fusion_lat": 0.0, "lat": 38.9395465, "fusion_lon": 0.0, "rental_uris": {"ios": "https://dc.lft.to/lastmile_qr_scan", "android": "https://dc.lft.to/lastmile_qr_scan"}, "lon": -77.02184733333333, "bike_id": "452b3540038459910ffc3a3ecebe3c00", "type": "electric_scooter", "name": "452b3540038459910ffc3a3ecebe3c00"}, {"is_disabled": 0, "is_reserved": 0, "fusion_lat": 0.0, "lat": 38.91055733333334, "fusion_lon": 0.0, "rental_uris": {"ios": "https://dc.lft.to/lastmile_qr_scan", "android": "https://dc.lft.to/lastmile_qr_scan"}, "lon": -77.02300783333334, "bike_id": "757db362cb83027f7b63615e458be19b", "type": "electric_scooter", "name": "757db362cb83027f7b63615e458be19b"}, {"is_disabled": 0, "is_reserved": 0, "fusion_lat": 0.0, "lat": 38.9224905, "fusion_lon": 0.0, "rental_uris": {"ios": "https://dc.lft.to/lastmile_qr_scan", "android": "https://dc.lft.to/lastmile_qr_scan"}, "lon": -77.03084283333334, "bike_id": "d9e0f61c274381385f05f65542179cc1", "type": "electric_scooter", "name": "d9e0f61c274381385f05f65542179cc1"}, {"is_disabled": 0, "is_reserved": 0, "fusion_lat": 0.0, "lat": 38.921042, "fusion_lon": 0.0, "rental_uris": {"ios": "https://dc.lft.to/lastmile_qr_scan", "android": "https://dc.lft.to/lastmile_qr_scan"}, "lon": -77.04165183333333, "bike_id": "1b848f841bf5143700d36da01febedaf", "type": "electric_scooter", "name": "1b848f841bf5143700d36da01febedaf"}, {"is_disabled": 0, "is_reserved": 0, "fusion_lat": 0.0, "lat": 38.896088166666665, "fusion_lon": 0.0, "rental_uris": {"ios": "https://dc.lft.to/lastmile_qr_scan", "android": "https://dc.lft.to/lastmile_qr_scan"}, "lon": -77.0468625, "bike_id": "c3e6e32d30d5d9f32d64a8994d50e315", "type": "electric_scooter", "name": "c3e6e32d30d5d9f32d64a8994d50e315"}, {"is_disabled": 0, "is_reserved": 0, "fusion_lat": 0.0, "lat": 38.902484, "fusion_lon": 0.0, "rental_uris": {"ios": "https://dc.lft.to/lastmile_qr_scan", "android": "https://dc.lft.to/lastmile_qr_scan"}, "lon": -77.00771816666666, "bike_id": "9ad9f643e52fce759df84173b6e5c091", "type": "electric_scooter", "name": "9ad9f643e52fce759df84173b6e5c091"}, {"is_disabled": 0, "is_reserved": 0, "fusion_lat": 0.0, "lat": 38.931801666666665, "fusion_lon": 0.0, "rental_uris": {"ios": "https://dc.lft.to/lastmile_qr_scan", "android": "https://dc.lft.to/lastmile_qr_scan"}, "lon": -77.03447833333334, "bike_id": "8b4a08a249e698a1fd723634ebbc7378", "type": "electric_scooter", "name": "8b4a08a249e698a1fd723634ebbc7378"}, {"is_disabled": 0, "is_reserved": 0, "fusion_lat": 0.0, "lat": 38.8763475, "fusion_lon": 0.0, "rental_uris": {"ios": "https://dc.lft.to/lastmile_qr_scan", "android": "https://dc.lft.to/lastmile_qr_scan"}, "lon": -77.00956333333333, "bike_id": "103305703293db177b40f33ba9ce64e3", "type": "electric_scooter", "name": "103305703293db177b40f33ba9ce64e3"}, {"is_disabled": 0, "is_reserved": 0, "fusion_lat": 0.0, "lat": 39.025146166666666, "fusion_lon": 0.0, "rental_uris": {"ios": "https://dc.lft.to/lastmile_qr_scan", "android": "https://dc.lft.to/lastmile_qr_scan"}, "lon": -77.019681, "bike_id": "498f915634674c3755add51082b7b5c0", "type": "electric_bike", "name": "498f915634674c3755add51082b7b5c0"}, {"is_disabled": 0, "is_reserved": 0, "fusion_lat": 0.0, "lat": 38.91696266666667, "fusion_lon": 0.0, "rental_uris": {"ios": "https://dc.lft.to/lastmile_qr_scan", "android": "https://dc.lft.to/lastmile_qr_scan"}, "lon": -77.02299, "bike_id": "6584bf5830d8526360d1bfe7ebb958b1", "type": "electric_scooter", "name": "6584bf5830d8526360d1bfe7ebb958b1"}, {"is_disabled": 0, "is_reserved": 0, "fusion_lat": 0.0, "lat": 38.9000815, "fusion_lon": 0.0, "rental_uris": {"ios": "https://dc.lft.to/lastmile_qr_scan", "android": "https://dc.lft.to/lastmile_qr_scan"}, "lon": -76.98810416666667, "bike_id": "659ac63c612a24372af3fba01ea9c0aa", "type": "electric_scooter", "name": "659ac63c612a24372af3fba01ea9c0aa"}, {"is_disabled": 0, "is_reserved": 0, "fusion_lat": 0.0, "lat": 38.89973533333333, "fusion_lon": 0.0, "rental_uris": {"ios": "https://dc.lft.to/lastmile_qr_scan", "android": "https://dc.lft.to/lastmile_qr_scan"}, "lon": -76.9263505, "bike_id": "ad203fa78e88c27594e778a025a7bf26", "type": "electric_scooter", "name": "ad203fa78e88c27594e778a025a7bf26"}, {"is_disabled": 0, "is_reserved": 0, "fusion_lat": 0.0, "lat": 38.902714333333336, "fusion_lon": 0.0, "rental_uris": {"ios": "https://dc.lft.to/lastmile_qr_scan", "android": "https://dc.lft.to/lastmile_qr_scan"}, "lon": -77.03204083333334, "bike_id": "5588449091c37828cee4f424b9c2df01", "type": "electric_scooter", "name": "5588449091c37828cee4f424b9c2df01"}, {"is_disabled": 0, "is_reserved": 0, "fusion_lat": 0.0, "lat": 38.894660333333334, "fusion_lon": 0.0, "rental_uris": {"ios": "https://dc.lft.to/lastmile_qr_scan", "android": "https://dc.lft.to/lastmile_qr_scan"}, "lon": -77.00233616666667, "bike_id": "cead37d2c60221a6a70df30442f23a4b", "type": "electric_scooter", "name": "cead37d2c60221a6a70df30442f23a4b"}, {"is_disabled": 0, "is_reserved": 0, "fusion_lat": 0.0, "lat": 38.923517, "fusion_lon": 0.0, "rental_uris": {"ios": "https://dc.lft.to/lastmile_qr_scan", "android": "https://dc.lft.to/lastmile_qr_scan"}, "lon": -76.97204366666666, "bike_id": "f7ac4a9739b854ce65ecdbb1edc8c663", "type": "electric_scooter", "name": "f7ac4a9739b854ce65ecdbb1edc8c663"}, {"is_disabled": 0, "is_reserved": 0, "fusion_lat": 0.0, "lat": 38.90952766666667, "fusion_lon": 0.0, "rental_uris": {"ios": "https://dc.lft.to/lastmile_qr_scan", "android": "https://dc.lft.to/lastmile_qr_scan"}, "lon": -77.02400683333333, "bike_id": "f5b116025de881026b96d3a20fcf263e", "type": "electric_scooter", "name": "f5b116025de881026b96d3a20fcf263e"}, {"is_disabled": 0, "is_reserved": 0, "fusion_lat": 0.0, "lat": 38.92161766666667, "fusion_lon": 0.0, "rental_uris": {"ios": "https://dc.lft.to/lastmile_qr_scan", "android": "https://dc.lft.to/lastmile_qr_scan"}, "lon": -77.04010083333333, "bike_id": "f6eb9b184db0a318bb10b5144fdf16f4", "type": "electric_scooter", "name": "f6eb9b184db0a318bb10b5144fdf16f4"}, {"is_disabled": 0, "is_reserved": 0, "fusion_lat": 0.0, "lat": 38.95345416666667, "fusion_lon": 0.0, "rental_uris": {"ios": "https://dc.lft.to/lastmile_qr_scan", "android": "https://dc.lft.to/lastmile_qr_scan"}, "lon": -77.08149, "bike_id": "dcced52c0f1c6dd41b615418577eaae0", "type": "electric_scooter", "name": "dcced52c0f1c6dd41b615418577eaae0"}, {"is_disabled": 0, "is_reserved": 0, "fusion_lat": 0.0, "lat": 38.90570016666667, "fusion_lon": 0.0, "rental_uris": {"ios": "https://dc.lft.to/lastmile_qr_scan", "android": "https://dc.lft.to/lastmile_qr_scan"}, "lon": -77.03274083333334, "bike_id": "9519c9cc5b24cb5be0d4f2bbed36da1d", "type": "electric_scooter", "name": "9519c9cc5b24cb5be0d4f2bbed36da1d"}, {"is_disabled": 0, "is_reserved": 0, "fusion_lat": 0.0, "lat": 38.91415283333333, "fusion_lon": 0.0, "rental_uris": {"ios": "https://dc.lft.to/lastmile_qr_scan", "android": "https://dc.lft.to/lastmile_qr_scan"}, "lon": -77.02231466666667, "bike_id": "9c21eb0066f14b66279605a4f6beb71f", "type": "electric_scooter", "name": "9c21eb0066f14b66279605a4f6beb71f"}, {"is_disabled": 0, "is_reserved": 0, "fusion_lat": 0.0, "lat": 39.0847365, "fusion_lon": 0.0, "rental_uris": {"ios": "https://dc.lft.to/lastmile_qr_scan", "android": "https://dc.lft.to/lastmile_qr_scan"}, "lon": -76.95066916666667, "bike_id": "6ce27962b0857d27ffa1829e825ecf3f", "type": "electric_bike", "name": "6ce27962b0857d27ffa1829e825ecf3f"}, {"is_disabled": 0, "is_reserved": 0, "fusion_lat": 0.0, "lat": 38.951011, "fusion_lon": 0.0, "rental_uris": {"ios": "https://dc.lft.to/lastmile_qr_scan", "android": "https://dc.lft.to/lastmile_qr_scan"}, "lon": -77.01908766666666, "bike_id": "1f650a21583ef4f155d199d78c94a4df", "type": "electric_scooter", "name": "1f650a21583ef4f155d199d78c94a4df"}, {"is_disabled": 0, "is_reserved": 0, "fusion_lat": 0.0, "lat": 38.94176233333334, "fusion_lon": 0.0, "rental_uris": {"ios": "https://dc.lft.to/lastmile_qr_scan", "android": "https://dc.lft.to/lastmile_qr_scan"}, "lon": -77.02499266666666, "bike_id": "a41fcae7dafbfc6aedc28373b4a8ee72", "type": "electric_scooter", "name": "a41fcae7dafbfc6aedc28373b4a8ee72"}, {"is_disabled": 0, "is_reserved": 0, "fusion_lat": 0.0, "lat": 38.946222166666665, "fusion_lon": 0.0, "rental_uris": {"ios": "https://dc.lft.to/lastmile_qr_scan", "android": "https://dc.lft.to/lastmile_qr_scan"}, "lon": -77.02129083333334, "bike_id": "3ca4999b728c7ee9771174a46bd5e805", "type": "electric_scooter", "name": "3ca4999b728c7ee9771174a46bd5e805"}, {"is_disabled": 0, "is_reserved": 0, "fusion_lat": 0.0, "lat": 38.897484166666665, "fusion_lon": 0.0, "rental_uris": {"ios": "https://dc.lft.to/lastmile_qr_scan", "android": "https://dc.lft.to/lastmile_qr_scan"}, "lon": -77.04807483333333, "bike_id": "b3a8ae9d2b25e50f55415e5fb6367da1", "type": "electric_scooter", "name": "b3a8ae9d2b25e50f55415e5fb6367da1"}, {"is_disabled": 0, "is_reserved": 0, "fusion_lat": 0.0, "lat": 38.91923083333333, "fusion_lon": 0.0, "rental_uris": {"ios": "https://dc.lft.to/lastmile_qr_scan", "android": "https://dc.lft.to/lastmile_qr_scan"}, "lon": -77.00974783333334, "bike_id": "3dab271feceb0a7549531ae60cc39c3a", "type": "electric_scooter", "name": "3dab271feceb0a7549531ae60cc39c3a"}, {"is_disabled": 0, "is_reserved": 0, "fusion_lat": 0.0, "lat": 38.94039716666666, "fusion_lon": 0.0, "rental_uris": {"ios": "https://dc.lft.to/lastmile_qr_scan", "android": "https://dc.lft.to/lastmile_qr_scan"}, "lon": -77.03536383333334, "bike_id": "f9ff4c5f793484b351ef3be56ed0aa5a", "type": "electric_scooter", "name": "f9ff4c5f793484b351ef3be56ed0aa5a"}, {"is_disabled": 0, "is_reserved": 0, "fusion_lat": 0.0, "lat": 38.910214, "fusion_lon": 0.0, "rental_uris": {"ios": "https://dc.lft.to/lastmile_qr_scan", "android": "https://dc.lft.to/lastmile_qr_scan"}, "lon": -77.04392333333334, "bike_id": "7640d590d7bdbc88ad663e880d806a2d", "type": "electric_scooter", "name": "7640d590d7bdbc88ad663e880d806a2d"}, {"is_disabled": 0, "is_reserved": 0, "fusion_lat": 0.0, "lat": 38.938712333333335, "fusion_lon": 0.0, "rental_uris": {"ios": "https://dc.lft.to/lastmile_qr_scan", "android": "https://dc.lft.to/lastmile_qr_scan"}, "lon": -77.060183, "bike_id": "49059b7c70b9e912196e2f2f91ddde6a", "type": "electric_scooter", "name": "49059b7c70b9e912196e2f2f91ddde6a"}, {"is_disabled": 0, "is_reserved": 0, "fusion_lat": 0.0, "lat": 38.930632, "fusion_lon": 0.0, "rental_uris": {"ios": "https://dc.lft.to/lastmile_qr_scan", "android": "https://dc.lft.to/lastmile_qr_scan"}, "lon": -77.0421435, "bike_id": "ce2bf36101a140d65d527a4dd63683f6", "type": "electric_scooter", "name": "ce2bf36101a140d65d527a4dd63683f6"}, {"is_disabled": 0, "is_reserved": 0, "fusion_lat": 0.0, "lat": 38.9103085, "fusion_lon": 0.0, "rental_uris": {"ios": "https://dc.lft.to/lastmile_qr_scan", "android": "https://dc.lft.to/lastmile_qr_scan"}, "lon": -77.0318445, "bike_id": "208d053dcaa3c69e2756827ab1c9e9a1", "type": "electric_scooter", "name": "208d053dcaa3c69e2756827ab1c9e9a1"}, {"is_disabled": 0, "is_reserved": 0, "fusion_lat": 0.0, "lat": 38.89604, "fusion_lon": 0.0, "rental_uris": {"ios": "https://dc.lft.to/lastmile_qr_scan", "android": "https://dc.lft.to/lastmile_qr_scan"}, "lon": -76.9831, "bike_id": "d0719f4358170e3c86156eb24800629f", "type": "electric_scooter", "name": "d0719f4358170e3c86156eb24800629f"}, {"is_disabled": 0, "is_reserved": 0, "fusion_lat": 0.0, "lat": 38.915707166666664, "fusion_lon": 0.0, "rental_uris": {"ios": "https://dc.lft.to/lastmile_qr_scan", "android": "https://dc.lft.to/lastmile_qr_scan"}, "lon": -77.05030566666667, "bike_id": "0866f3f32ea280db16bec6674d473e47", "type": "electric_scooter", "name": "0866f3f32ea280db16bec6674d473e47"}, {"is_disabled": 0, "is_reserved": 0, "fusion_lat": 0.0, "lat": 38.91258966666667, "fusion_lon": 0.0, "rental_uris": {"ios": "https://dc.lft.to/lastmile_qr_scan", "android": "https://dc.lft.to/lastmile_qr_scan"}, "lon": -77.03294966666667, "bike_id": "f0cb8dbe5f4995281d821a5ef9c9b79a", "type": "electric_scooter", "name": "f0cb8dbe5f4995281d821a5ef9c9b79a"}, {"is_disabled": 0, "is_reserved": 0, "fusion_lat": 0.0, "lat": 38.86890966666667, "fusion_lon": 0.0, "rental_uris": {"ios": "https://dc.lft.to/lastmile_qr_scan", "android": "https://dc.lft.to/lastmile_qr_scan"}, "lon": -76.99003016666667, "bike_id": "1d3c3910567fbd76449982bac401eb16", "type": "electric_scooter", "name": "1d3c3910567fbd76449982bac401eb16"}, {"is_disabled": 0, "is_reserved": 0, "fusion_lat": 0.0, "lat": 38.88051816666667, "fusion_lon": 0.0, "rental_uris": {"ios": "https://dc.lft.to/lastmile_qr_scan", "android": "https://dc.lft.to/lastmile_qr_scan"}, "lon": -77.0132935, "bike_id": "b34e004e855482cebc0c6b95fe0cae56", "type": "electric_scooter", "name": "b34e004e855482cebc0c6b95fe0cae56"}, {"is_disabled": 0, "is_reserved": 0, "fusion_lat": 0.0, "lat": 38.93707716666667, "fusion_lon": 0.0, "rental_uris": {"ios": "https://dc.lft.to/lastmile_qr_scan", "android": "https://dc.lft.to/lastmile_qr_scan"}, "lon": -77.05597133333333, "bike_id": "0c95612d06d8606d32b7049714bfa06a", "type": "electric_scooter", "name": "0c95612d06d8606d32b7049714bfa06a"}, {"is_disabled": 0, "is_reserved": 0, "fusion_lat": 0.0, "lat": 38.926530666666665, "fusion_lon": 0.0, "rental_uris": {"ios": "https://dc.lft.to/lastmile_qr_scan", "android": "https://dc.lft.to/lastmile_qr_scan"}, "lon": -77.02446783333333, "bike_id": "4503902c26a96b29eb77fb713e641ae6", "type": "electric_scooter", "name": "4503902c26a96b29eb77fb713e641ae6"}, {"is_disabled": 0, "is_reserved": 0, "fusion_lat": 0.0, "lat": 38.9265735, "fusion_lon": 0.0, "rental_uris": {"ios": "https://dc.lft.to/lastmile_qr_scan", "android": "https://dc.lft.to/lastmile_qr_scan"}, "lon": -77.0242545, "bike_id": "4b99ff56cb22204801480080dd2c8b33", "type": "electric_scooter", "name": "4b99ff56cb22204801480080dd2c8b33"}, {"is_disabled": 0, "is_reserved": 0, "fusion_lat": 0.0, "lat": 38.9232965, "fusion_lon": 0.0, "rental_uris": {"ios": "https://dc.lft.to/lastmile_qr_scan", "android": "https://dc.lft.to/lastmile_qr_scan"}, "lon": -77.03621266666667, "bike_id": "3607a2d60d59af1afadd5995523637ea", "type": "electric_scooter", "name": "3607a2d60d59af1afadd5995523637ea"}, {"is_disabled": 0, "is_reserved": 0, "fusion_lat": 0.0, "lat": 38.917063666666664, "fusion_lon": 0.0, "rental_uris": {"ios": "https://dc.lft.to/lastmile_qr_scan", "android": "https://dc.lft.to/lastmile_qr_scan"}, "lon": -77.03483816666666, "bike_id": "c3a83418f0b0d5467d15d6c8c560d89c", "type": "electric_scooter", "name": "c3a83418f0b0d5467d15d6c8c560d89c"}, {"is_disabled": 0, "is_reserved": 0, "fusion_lat": 0.0, "lat": 38.91859766666666, "fusion_lon": 0.0, "rental_uris": {"ios": "https://dc.lft.to/lastmile_qr_scan", "android": "https://dc.lft.to/lastmile_qr_scan"}, "lon": -77.04449766666667, "bike_id": "7ac02bfcf6057df39cad003cd900fd67", "type": "electric_scooter", "name": "7ac02bfcf6057df39cad003cd900fd67"}, {"is_disabled": 0, "is_reserved": 0, "fusion_lat": 0.0, "lat": 38.9312415, "fusion_lon": 0.0, "rental_uris": {"ios": "https://dc.lft.to/lastmile_qr_scan", "android": "https://dc.lft.to/lastmile_qr_scan"}, "lon": -77.02071066666667, "bike_id": "cb46ce476a6dc5c0e6de8e3017c30e9f", "type": "electric_scooter", "name": "cb46ce476a6dc5c0e6de8e3017c30e9f"}, {"is_disabled": 0, "is_reserved": 0, "fusion_lat": 0.0, "lat": 38.9000485, "fusion_lon": 0.0, "rental_uris": {"ios": "https://dc.lft.to/lastmile_qr_scan", "android": "https://dc.lft.to/lastmile_qr_scan"}, "lon": -77.010342, "bike_id": "0fa8c34c51d357ee5629ff032d90262b", "type": "electric_scooter", "name": "0fa8c34c51d357ee5629ff032d90262b"}, {"is_disabled": 0, "is_reserved": 0, "fusion_lat": 0.0, "lat": 38.90799833333333, "fusion_lon": 0.0, "rental_uris": {"ios": "https://dc.lft.to/lastmile_qr_scan", "android": "https://dc.lft.to/lastmile_qr_scan"}, "lon": -77.04985566666667, "bike_id": "38e9d64a1dae9bc3955b753c704a04d8", "type": "electric_scooter", "name": "38e9d64a1dae9bc3955b753c704a04d8"}, {"is_disabled": 0, "is_reserved": 0, "fusion_lat": 0.0, "lat": 38.923505166666665, "fusion_lon": 0.0, "rental_uris": {"ios": "https://dc.lft.to/lastmile_qr_scan", "android": "https://dc.lft.to/lastmile_qr_scan"}, "lon": -77.07314566666666, "bike_id": "4668ccc399b291ae33d855733394f1be", "type": "electric_scooter", "name": "4668ccc399b291ae33d855733394f1be"}, {"is_disabled": 0, "is_reserved": 0, "fusion_lat": 0.0, "lat": 38.892883499999996, "fusion_lon": 0.0, "rental_uris": {"ios": "https://dc.lft.to/lastmile_qr_scan", "android": "https://dc.lft.to/lastmile_qr_scan"}, "lon": -76.97616483333333, "bike_id": "a12a037207859318280426a94e0f4d49", "type": "electric_bike", "name": "a12a037207859318280426a94e0f4d49"}, {"is_disabled": 0, "is_reserved": 0, "fusion_lat": 0.0, "lat": 38.93237216666667, "fusion_lon": 0.0, "rental_uris": {"ios": "https://dc.lft.to/lastmile_qr_scan", "android": "https://dc.lft.to/lastmile_qr_scan"}, "lon": -76.9909305, "bike_id": "905d5cfee98c8fa07564555749998f30", "type": "electric_scooter", "name": "905d5cfee98c8fa07564555749998f30"}, {"is_disabled": 0, "is_reserved": 0, "fusion_lat": 0.0, "lat": 38.892299666666666, "fusion_lon": 0.0, "rental_uris": {"ios": "https://dc.lft.to/lastmile_qr_scan", "android": "https://dc.lft.to/lastmile_qr_scan"}, "lon": -77.04506133333334, "bike_id": "47b98b2d5745470b4f87f7de0eb8ea12", "type": "electric_scooter", "name": "47b98b2d5745470b4f87f7de0eb8ea12"}, {"is_disabled": 0, "is_reserved": 0, "fusion_lat": 0.0, "lat": 38.913321333333336, "fusion_lon": 0.0, "rental_uris": {"ios": "https://dc.lft.to/lastmile_qr_scan", "android": "https://dc.lft.to/lastmile_qr_scan"}, "lon": -77.03127016666667, "bike_id": "514914d3a91ed0bf7a8174731bad9699", "type": "electric_scooter", "name": "514914d3a91ed0bf7a8174731bad9699"}, {"is_disabled": 0, "is_reserved": 0, "fusion_lat": 0.0, "lat": 38.925516, "fusion_lon": 0.0, "rental_uris": {"ios": "https://dc.lft.to/lastmile_qr_scan", "android": "https://dc.lft.to/lastmile_qr_scan"}, "lon": -77.0228015, "bike_id": "1c4806e50fb73616010bad7d3db0004b", "type": "electric_scooter", "name": "1c4806e50fb73616010bad7d3db0004b"}, {"is_disabled": 0, "is_reserved": 0, "fusion_lat": 0.0, "lat": 38.9178865, "fusion_lon": 0.0, "rental_uris": {"ios": "https://dc.lft.to/lastmile_qr_scan", "android": "https://dc.lft.to/lastmile_qr_scan"}, "lon": -77.0247425, "bike_id": "91d1714b5d44e7aca7114b2517ffe8d0", "type": "electric_scooter", "name": "91d1714b5d44e7aca7114b2517ffe8d0"}, {"is_disabled": 0, "is_reserved": 0, "fusion_lat": 0.0, "lat": 38.918180166666666, "fusion_lon": 0.0, "rental_uris": {"ios": "https://dc.lft.to/lastmile_qr_scan", "android": "https://dc.lft.to/lastmile_qr_scan"}, "lon": -77.02529283333334, "bike_id": "4ca7c6d25eeef7b71112fd3a85c687ea", "type": "electric_scooter", "name": "4ca7c6d25eeef7b71112fd3a85c687ea"}, {"is_disabled": 0, "is_reserved": 0, "fusion_lat": 0.0, "lat": 38.915812833333334, "fusion_lon": 0.0, "rental_uris": {"ios": "https://dc.lft.to/lastmile_qr_scan", "android": "https://dc.lft.to/lastmile_qr_scan"}, "lon": -77.06773, "bike_id": "a6d925e2ab01407556aff499878cf730", "type": "electric_scooter", "name": "a6d925e2ab01407556aff499878cf730"}, {"is_disabled": 0, "is_reserved": 0, "fusion_lat": 0.0, "lat": 38.90226766666667, "fusion_lon": 0.0, "rental_uris": {"ios": "https://dc.lft.to/lastmile_qr_scan", "android": "https://dc.lft.to/lastmile_qr_scan"}, "lon": -77.03207816666666, "bike_id": "a181505e7ab10ba5bedf03399502549a", "type": "electric_scooter", "name": "a181505e7ab10ba5bedf03399502549a"}, {"is_disabled": 0, "is_reserved": 0, "fusion_lat": 0.0, "lat": 38.926529, "fusion_lon": 0.0, "rental_uris": {"ios": "https://dc.lft.to/lastmile_qr_scan", "android": "https://dc.lft.to/lastmile_qr_scan"}, "lon": -77.02431633333333, "bike_id": "f5847b3bc65e63f7f2284a7683e93d7c", "type": "electric_scooter", "name": "f5847b3bc65e63f7f2284a7683e93d7c"}, {"is_disabled": 0, "is_reserved": 0, "fusion_lat": 0.0, "lat": 38.901911166666665, "fusion_lon": 0.0, "rental_uris": {"ios": "https://dc.lft.to/lastmile_qr_scan", "android": "https://dc.lft.to/lastmile_qr_scan"}, "lon": -77.0508235, "bike_id": "e4e8f0d3ea5a3070aa31cd844d0c13fb", "type": "electric_scooter", "name": "e4e8f0d3ea5a3070aa31cd844d0c13fb"}, {"is_disabled": 0, "is_reserved": 0, "fusion_lat": 0.0, "lat": 38.923843, "fusion_lon": 0.0, "rental_uris": {"ios": "https://dc.lft.to/lastmile_qr_scan", "android": "https://dc.lft.to/lastmile_qr_scan"}, "lon": -77.0267965, "bike_id": "e5201e7cc1fec0c6d21df58239c0a63b", "type": "electric_scooter", "name": "e5201e7cc1fec0c6d21df58239c0a63b"}, {"is_disabled": 0, "is_reserved": 0, "fusion_lat": 0.0, "lat": 38.9472105, "fusion_lon": 0.0, "rental_uris": {"ios": "https://dc.lft.to/lastmile_qr_scan", "android": "https://dc.lft.to/lastmile_qr_scan"}, "lon": -77.023543, "bike_id": "9934c04edf33c8b51b0ef821922fce0d", "type": "electric_scooter", "name": "9934c04edf33c8b51b0ef821922fce0d"}, {"is_disabled": 0, "is_reserved": 0, "fusion_lat": 0.0, "lat": 38.88773116666667, "fusion_lon": 0.0, "rental_uris": {"ios": "https://dc.lft.to/lastmile_qr_scan", "android": "https://dc.lft.to/lastmile_qr_scan"}, "lon": -76.93263116666667, "bike_id": "af61fdb4740b55737516aed516da7e59", "type": "electric_scooter", "name": "af61fdb4740b55737516aed516da7e59"}, {"is_disabled": 0, "is_reserved": 0, "fusion_lat": 0.0, "lat": 38.89456333333333, "fusion_lon": 0.0, "rental_uris": {"ios": "https://dc.lft.to/lastmile_qr_scan", "android": "https://dc.lft.to/lastmile_qr_scan"}, "lon": -77.04190416666667, "bike_id": "233c3c81a1f25ef96cd226247e9feabf", "type": "electric_scooter", "name": "233c3c81a1f25ef96cd226247e9feabf"}, {"is_disabled": 0, "is_reserved": 0, "fusion_lat": 0.0, "lat": 38.897040833333335, "fusion_lon": 0.0, "rental_uris": {"ios": "https://dc.lft.to/lastmile_qr_scan", "android": "https://dc.lft.to/lastmile_qr_scan"}, "lon": -77.03029516666666, "bike_id": "dfda081239e5f6e938cddb0aaf9572e9", "type": "electric_scooter", "name": "dfda081239e5f6e938cddb0aaf9572e9"}, {"is_disabled": 0, "is_reserved": 0, "fusion_lat": 0.0, "lat": 38.90969116666667, "fusion_lon": 0.0, "rental_uris": {"ios": "https://dc.lft.to/lastmile_qr_scan", "android": "https://dc.lft.to/lastmile_qr_scan"}, "lon": -77.04706, "bike_id": "e8c5d895c49e02845f2b8dc7cc939e39", "type": "electric_scooter", "name": "e8c5d895c49e02845f2b8dc7cc939e39"}, {"is_disabled": 0, "is_reserved": 0, "fusion_lat": 0.0, "lat": 38.85559283333333, "fusion_lon": 0.0, "rental_uris": {"ios": "https://dc.lft.to/lastmile_qr_scan", "android": "https://dc.lft.to/lastmile_qr_scan"}, "lon": -77.06404533333334, "bike_id": "8a3f98d6427891876689148129aa4cdb", "type": "electric_bike", "name": "8a3f98d6427891876689148129aa4cdb"}, {"is_disabled": 0, "is_reserved": 0, "fusion_lat": 0.0, "lat": 38.84232183333334, "fusion_lon": 0.0, "rental_uris": {"ios": "https://dc.lft.to/lastmile_qr_scan", "android": "https://dc.lft.to/lastmile_qr_scan"}, "lon": -77.00170766666666, "bike_id": "57684ff0bfe3415670e54d9ac84a029e", "type": "electric_scooter", "name": "57684ff0bfe3415670e54d9ac84a029e"}, {"is_disabled": 0, "is_reserved": 0, "fusion_lat": 0.0, "lat": 38.918158, "fusion_lon": 0.0, "rental_uris": {"ios": "https://dc.lft.to/lastmile_qr_scan", "android": "https://dc.lft.to/lastmile_qr_scan"}, "lon": -77.0270845, "bike_id": "94e52d2cba8b3c464c55bfdc46091ddf", "type": "electric_scooter", "name": "94e52d2cba8b3c464c55bfdc46091ddf"}, {"is_disabled": 0, "is_reserved": 0, "fusion_lat": 0.0, "lat": 38.9135145, "fusion_lon": 0.0, "rental_uris": {"ios": "https://dc.lft.to/lastmile_qr_scan", "android": "https://dc.lft.to/lastmile_qr_scan"}, "lon": -77.02052416666666, "bike_id": "7e37ae39f4ff0c3e8063347d3b390bf8", "type": "electric_scooter", "name": "7e37ae39f4ff0c3e8063347d3b390bf8"}, {"is_disabled": 0, "is_reserved": 0, "fusion_lat": 0.0, "lat": 38.921454833333335, "fusion_lon": 0.0, "rental_uris": {"ios": "https://dc.lft.to/lastmile_qr_scan", "android": "https://dc.lft.to/lastmile_qr_scan"}, "lon": -77.03677033333334, "bike_id": "242a353d74bc266797efbd86d86eba0e", "type": "electric_scooter", "name": "242a353d74bc266797efbd86d86eba0e"}, {"is_disabled": 0, "is_reserved": 0, "fusion_lat": 0.0, "lat": 38.842294333333335, "fusion_lon": 0.0, "rental_uris": {"ios": "https://dc.lft.to/lastmile_qr_scan", "android": "https://dc.lft.to/lastmile_qr_scan"}, "lon": -76.94889816666667, "bike_id": "b8a4c12deb22205f5292ef22827d656e", "type": "electric_bike", "name": "b8a4c12deb22205f5292ef22827d656e"}, {"is_disabled": 0, "is_reserved": 0, "fusion_lat": 0.0, "lat": 38.9836665, "fusion_lon": 0.0, "rental_uris": {"ios": "https://dc.lft.to/lastmile_qr_scan", "android": "https://dc.lft.to/lastmile_qr_scan"}, "lon": -76.988502, "bike_id": "521b767d82aab822c3995b2501c3a85d", "type": "electric_bike", "name": "521b767d82aab822c3995b2501c3a85d"}, {"is_disabled": 0, "is_reserved": 0, "fusion_lat": 0.0, "lat": 38.87867033333333, "fusion_lon": 0.0, "rental_uris": {"ios": "https://dc.lft.to/lastmile_qr_scan", "android": "https://dc.lft.to/lastmile_qr_scan"}, "lon": -77.00560766666666, "bike_id": "083990e09b5d5bee85168ad71c7464e2", "type": "electric_scooter", "name": "083990e09b5d5bee85168ad71c7464e2"}, {"is_disabled": 0, "is_reserved": 0, "fusion_lat": 0.0, "lat": 38.919254333333335, "fusion_lon": 0.0, "rental_uris": {"ios": "https://dc.lft.to/lastmile_qr_scan", "android": "https://dc.lft.to/lastmile_qr_scan"}, "lon": -77.041524, "bike_id": "9118e3541d0a130c9a74fc41f22a58c3", "type": "electric_scooter", "name": "9118e3541d0a130c9a74fc41f22a58c3"}, {"is_disabled": 0, "is_reserved": 0, "fusion_lat": 0.0, "lat": 38.883898, "fusion_lon": 0.0, "rental_uris": {"ios": "https://dc.lft.to/lastmile_qr_scan", "android": "https://dc.lft.to/lastmile_qr_scan"}, "lon": -76.93043066666667, "bike_id": "3b7015ab88c6822f1887f7c23025a3af", "type": "electric_scooter", "name": "3b7015ab88c6822f1887f7c23025a3af"}, {"is_disabled": 0, "is_reserved": 0, "fusion_lat": 0.0, "lat": 38.8844635, "fusion_lon": 0.0, "rental_uris": {"ios": "https://dc.lft.to/lastmile_qr_scan", "android": "https://dc.lft.to/lastmile_qr_scan"}, "lon": -77.00897416666666, "bike_id": "72a9e4aeb91d695ea30de7215f01f61f", "type": "electric_scooter", "name": "72a9e4aeb91d695ea30de7215f01f61f"}, {"is_disabled": 0, "is_reserved": 0, "fusion_lat": 0.0, "lat": 38.91707983333333, "fusion_lon": 0.0, "rental_uris": {"ios": "https://dc.lft.to/lastmile_qr_scan", "android": "https://dc.lft.to/lastmile_qr_scan"}, "lon": -77.03212516666666, "bike_id": "1d270b2b4f9a522401bd733c9a20fd5b", "type": "electric_scooter", "name": "1d270b2b4f9a522401bd733c9a20fd5b"}, {"is_disabled": 0, "is_reserved": 0, "fusion_lat": 0.0, "lat": 38.90834733333333, "fusion_lon": 0.0, "rental_uris": {"ios": "https://dc.lft.to/lastmile_qr_scan", "android": "https://dc.lft.to/lastmile_qr_scan"}, "lon": -77.00081583333333, "bike_id": "ea9e757d6c8b0b339b2538d1cdd56dee", "type": "electric_scooter", "name": "ea9e757d6c8b0b339b2538d1cdd56dee"}, {"is_disabled": 0, "is_reserved": 0, "fusion_lat": 0.0, "lat": 38.89262016666667, "fusion_lon": 0.0, "rental_uris": {"ios": "https://dc.lft.to/lastmile_qr_scan", "android": "https://dc.lft.to/lastmile_qr_scan"}, "lon": -77.05021666666667, "bike_id": "c0ac23e3e4fe5350d6133e460d275e25", "type": "electric_scooter", "name": "c0ac23e3e4fe5350d6133e460d275e25"}, {"is_disabled": 0, "is_reserved": 0, "fusion_lat": 0.0, "lat": 38.9329355, "fusion_lon": 0.0, "rental_uris": {"ios": "https://dc.lft.to/lastmile_qr_scan", "android": "https://dc.lft.to/lastmile_qr_scan"}, "lon": -77.02851083333333, "bike_id": "d1ae2d2eaa88f33451e3293ca7206dc9", "type": "electric_scooter", "name": "d1ae2d2eaa88f33451e3293ca7206dc9"}, {"is_disabled": 0, "is_reserved": 0, "fusion_lat": 0.0, "lat": 38.9570375, "fusion_lon": 0.0, "rental_uris": {"ios": "https://dc.lft.to/lastmile_qr_scan", "android": "https://dc.lft.to/lastmile_qr_scan"}, "lon": -77.35970783333333, "bike_id": "bc6ce5dd959059c37f85d6041fb65e5b", "type": "electric_bike", "name": "bc6ce5dd959059c37f85d6041fb65e5b"}, {"is_disabled": 0, "is_reserved": 0, "fusion_lat": 0.0, "lat": 38.930011666666665, "fusion_lon": 0.0, "rental_uris": {"ios": "https://dc.lft.to/lastmile_qr_scan", "android": "https://dc.lft.to/lastmile_qr_scan"}, "lon": -77.023786, "bike_id": "c19f9aac606807d7881c1e2f6c1dd7d8", "type": "electric_scooter", "name": "c19f9aac606807d7881c1e2f6c1dd7d8"}, {"is_disabled": 0, "is_reserved": 0, "fusion_lat": 0.0, "lat": 38.921727, "fusion_lon": 0.0, "rental_uris": {"ios": "https://dc.lft.to/lastmile_qr_scan", "android": "https://dc.lft.to/lastmile_qr_scan"}, "lon": -77.021039, "bike_id": "fcfa7298a1cbf079925b9b4a8d5d52d8", "type": "electric_scooter", "name": "fcfa7298a1cbf079925b9b4a8d5d52d8"}, {"is_disabled": 0, "is_reserved": 0, "fusion_lat": 0.0, "lat": 39.084328, "fusion_lon": 0.0, "rental_uris": {"ios": "https://dc.lft.to/lastmile_qr_scan", "android": "https://dc.lft.to/lastmile_qr_scan"}, "lon": -76.95141816666667, "bike_id": "4241170abb6dcdb14ec077433c270040", "type": "electric_bike", "name": "4241170abb6dcdb14ec077433c270040"}, {"is_disabled": 0, "is_reserved": 0, "fusion_lat": 0.0, "lat": 38.859036, "fusion_lon": 0.0, "rental_uris": {"ios": "https://dc.lft.to/lastmile_qr_scan", "android": "https://dc.lft.to/lastmile_qr_scan"}, "lon": -77.095537, "bike_id": "00a44130e61ef67f93abfdaad9d95dc4", "type": "electric_bike", "name": "00a44130e61ef67f93abfdaad9d95dc4"}, {"is_disabled": 0, "is_reserved": 0, "fusion_lat": 0.0, "lat": 38.91621266666667, "fusion_lon": 0.0, "rental_uris": {"ios": "https://dc.lft.to/lastmile_qr_scan", "android": "https://dc.lft.to/lastmile_qr_scan"}, "lon": -77.00295083333333, "bike_id": "ce598af432de7e0b84e566b08ff79445", "type": "electric_bike", "name": "ce598af432de7e0b84e566b08ff79445"}, {"is_disabled": 0, "is_reserved": 0, "fusion_lat": 0.0, "lat": 38.881433, "fusion_lon": 0.0, "rental_uris": {"ios": "https://dc.lft.to/lastmile_qr_scan", "android": "https://dc.lft.to/lastmile_qr_scan"}, "lon": -77.02271333333333, "bike_id": "04685cba16fc01dbf1497a0067818372", "type": "electric_scooter", "name": "04685cba16fc01dbf1497a0067818372"}, {"is_disabled": 0, "is_reserved": 0, "fusion_lat": 0.0, "lat": 38.91530483333333, "fusion_lon": 0.0, "rental_uris": {"ios": "https://dc.lft.to/lastmile_qr_scan", "android": "https://dc.lft.to/lastmile_qr_scan"}, "lon": -77.01997483333334, "bike_id": "f05ddc04bc3cd359ff85a1a50688d82f", "type": "electric_scooter", "name": "f05ddc04bc3cd359ff85a1a50688d82f"}, {"is_disabled": 0, "is_reserved": 0, "fusion_lat": 0.0, "lat": 38.91676966666667, "fusion_lon": 0.0, "rental_uris": {"ios": "https://dc.lft.to/lastmile_qr_scan", "android": "https://dc.lft.to/lastmile_qr_scan"}, "lon": -77.038452, "bike_id": "7754222ff4273535ec8c975cf8c453a2", "type": "electric_scooter", "name": "7754222ff4273535ec8c975cf8c453a2"}, {"is_disabled": 0, "is_reserved": 0, "fusion_lat": 0.0, "lat": 38.95266983333333, "fusion_lon": 0.0, "rental_uris": {"ios": "https://dc.lft.to/lastmile_qr_scan", "android": "https://dc.lft.to/lastmile_qr_scan"}, "lon": -77.0025495, "bike_id": "68aea5e0d8ab1c108d2d026b52ad0249", "type": "electric_bike", "name": "68aea5e0d8ab1c108d2d026b52ad0249"}, {"is_disabled": 0, "is_reserved": 0, "fusion_lat": 0.0, "lat": 38.8831045, "fusion_lon": 0.0, "rental_uris": {"ios": "https://dc.lft.to/lastmile_qr_scan", "android": "https://dc.lft.to/lastmile_qr_scan"}, "lon": -76.94854716666667, "bike_id": "da8e4d4683d11a1066ee3cfc56b81b40", "type": "electric_scooter", "name": "da8e4d4683d11a1066ee3cfc56b81b40"}, {"is_disabled": 0, "is_reserved": 0, "fusion_lat": 0.0, "lat": 38.9164215, "fusion_lon": 0.0, "rental_uris": {"ios": "https://dc.lft.to/lastmile_qr_scan", "android": "https://dc.lft.to/lastmile_qr_scan"}, "lon": -77.02553416666667, "bike_id": "d41ede23ee34abba02da8577d7c7d37b", "type": "electric_scooter", "name": "d41ede23ee34abba02da8577d7c7d37b"}, {"is_disabled": 0, "is_reserved": 0, "fusion_lat": 0.0, "lat": 38.9027345, "fusion_lon": 0.0, "rental_uris": {"ios": "https://dc.lft.to/lastmile_qr_scan", "android": "https://dc.lft.to/lastmile_qr_scan"}, "lon": -77.0176665, "bike_id": "1ace392daa5df7a875c24010bb18a9b9", "type": "electric_scooter", "name": "1ace392daa5df7a875c24010bb18a9b9"}, {"is_disabled": 0, "is_reserved": 0, "fusion_lat": 0.0, "lat": 38.90395383333333, "fusion_lon": 0.0, "rental_uris": {"ios": "https://dc.lft.to/lastmile_qr_scan", "android": "https://dc.lft.to/lastmile_qr_scan"}, "lon": -77.0057625, "bike_id": "5baa58e24a2d7dc8f5dbb92ed3f90673", "type": "electric_scooter", "name": "5baa58e24a2d7dc8f5dbb92ed3f90673"}, {"is_disabled": 0, "is_reserved": 0, "fusion_lat": 0.0, "lat": 38.92828, "fusion_lon": 0.0, "rental_uris": {"ios": "https://dc.lft.to/lastmile_qr_scan", "android": "https://dc.lft.to/lastmile_qr_scan"}, "lon": -77.01395483333333, "bike_id": "cab7d8ec1f6c49da67869b8d195d30da", "type": "electric_scooter", "name": "cab7d8ec1f6c49da67869b8d195d30da"}, {"is_disabled": 0, "is_reserved": 0, "fusion_lat": 0.0, "lat": 38.87624983333333, "fusion_lon": 0.0, "rental_uris": {"ios": "https://dc.lft.to/lastmile_qr_scan", "android": "https://dc.lft.to/lastmile_qr_scan"}, "lon": -77.00837133333333, "bike_id": "3c5648530d8e1f94a14e7b056621b288", "type": "electric_scooter", "name": "3c5648530d8e1f94a14e7b056621b288"}, {"is_disabled": 0, "is_reserved": 0, "fusion_lat": 0.0, "lat": 38.90519033333333, "fusion_lon": 0.0, "rental_uris": {"ios": "https://dc.lft.to/lastmile_qr_scan", "android": "https://dc.lft.to/lastmile_qr_scan"}, "lon": -77.066078, "bike_id": "70efb584d5fdbe12bcfd9d75cef7ce94", "type": "electric_scooter", "name": "70efb584d5fdbe12bcfd9d75cef7ce94"}, {"is_disabled": 0, "is_reserved": 0, "fusion_lat": 0.0, "lat": 38.86471866666667, "fusion_lon": 0.0, "rental_uris": {"ios": "https://dc.lft.to/lastmile_qr_scan", "android": "https://dc.lft.to/lastmile_qr_scan"}, "lon": -76.9775815, "bike_id": "3e9d3300de31c41289e9ec10157247ad", "type": "electric_scooter", "name": "3e9d3300de31c41289e9ec10157247ad"}, {"is_disabled": 0, "is_reserved": 0, "fusion_lat": 0.0, "lat": 38.92861666666667, "fusion_lon": 0.0, "rental_uris": {"ios": "https://dc.lft.to/lastmile_qr_scan", "android": "https://dc.lft.to/lastmile_qr_scan"},