{"data": {"bikes": [{"rental_uris": {"ios": "https://dc.lft.to/lastmile_qr_scan", "android": "https://dc.lft.to/lastmile_qr_scan"}, "type": "electric_scooter", "name": "4bc42ba5bd9b7353eb2dc3cc844f9a34", "is_reserved": 0, "lon": -77.0093395, "is_disabled": 0, "fusion_lat": 0.0, "lat": 38.89604933333333, "bike_id": "4bc42ba5bd9b7353eb2dc3cc844f9a34", "fusion_lon": 0.0}, {"rental_uris": {"ios": "https://dc.lft.to/lastmile_qr_scan", "android": "https://dc.lft.to/lastmile_qr_scan"}, "type": "electric_scooter", "name": "eb97dec1446d912975e28c6d3966e743", "is_reserved": 0, "lon": -77.01128533333333, "is_disabled": 0, "fusion_lat": 0.0, "lat": 38.91620916666667, "bike_id": "eb97dec1446d912975e28c6d3966e743", "fusion_lon": 0.0}, {"rental_uris": {"ios": "https://dc.lft.to/lastmile_qr_scan", "android": "https://dc.lft.to/lastmile_qr_scan"}, "type": "electric_scooter", "name": "7aac2623cca29dc6359d638d1b190434", "is_reserved": 0, "lon": -77.027085, "is_disabled": 0, "fusion_lat": 0.0, "lat": 38.90569416666666, "bike_id": "7aac2623cca29dc6359d638d1b190434", "fusion_lon": 0.0}, {"rental_uris": {"ios": "https://dc.lft.to/lastmile_qr_scan", "android": "https://dc.lft.to/lastmile_qr_scan"}, "type": "electric_scooter", "name": "f55c73c9a45e306b73f23bb9fabf092e", "is_reserved": 0, "lon": -77.0294505, "is_disabled": 0, "fusion_lat": 0.0, "lat": 38.915528, "bike_id": "f55c73c9a45e306b73f23bb9fabf092e", "fusion_lon": 0.0}, {"rental_uris": {"ios": "https://dc.lft.to/lastmile_qr_scan", "android": "https://dc.lft.to/lastmile_qr_scan"}, "type": "electric_scooter", "name": "3111d73fd597f91b4802d53306276c96", "is_reserved": 0, "lon": -77.01457583333334, "is_disabled": 0, "fusion_lat": 0.0, "lat": 38.92655883333333, "bike_id": "3111d73fd597f91b4802d53306276c96", "fusion_lon": 0.0}, {"rental_uris": {"ios": "https://dc.lft.to/lastmile_qr_scan", "android": "https://dc.lft.to/lastmile_qr_scan"}, "type": "electric_scooter", "name": "421266badcd7661ae8a87aadf1792105", "is_reserved": 0, "lon": -77.02517316666666, "is_disabled": 0, "fusion_lat": 0.0, "lat": 38.92073883333333, "bike_id": "421266badcd7661ae8a87aadf1792105", "fusion_lon": 0.0}, {"rental_uris": {"ios": "https://dc.lft.to/lastmile_qr_scan", "android": "https://dc.lft.to/lastmile_qr_scan"}, "type": "electric_scooter", "name": "f0872e93cb1ffe4108ae505daf479c02", "is_reserved": 0, "lon": -77.06258216666667, "is_disabled": 0, "fusion_lat": 0.0, "lat": 38.90509633333333, "bike_id": "f0872e93cb1ffe4108ae505daf479c02", "fusion_lon": 0.0}, {"rental_uris": {"ios": "https://dc.lft.to/lastmile_qr_scan", "android": "https://dc.lft.to/lastmile_qr_scan"}, "type": "electric_scooter", "name": "f778321929da315ed4f05c00c921b038", "is_reserved": 0, "lon": -77.05852, "is_disabled": 0, "fusion_lat": 0.0, "lat": 38.904575666666666, "bike_id": "f778321929da315ed4f05c00c921b038", "fusion_lon": 0.0}, {"rental_uris": {"ios": "https://dc.lft.to/lastmile_qr_scan", "android": "https://dc.lft.to/lastmile_qr_scan"}, "type": "electric_scooter", "name": "988db218028f75b6fcf992ee0954c4d5", "is_reserved": 0, "lon": -77.06096366666667, "is_disabled": 0, "fusion_lat": 0.0, "lat": 38.902379, "bike_id": "988db218028f75b6fcf992ee0954c4d5", "fusion_lon": 0.0}, {"rental_uris": {"ios": "https://dc.lft.to/lastmile_qr_scan", "android": "https://dc.lft.to/lastmile_qr_scan"}, "type": "electric_scooter", "name": "736e18ab55696dad4b6b0cbaccbfd11c", "is_reserved": 0, "lon": -77.04357416666667, "is_disabled": 0, "fusion_lat": 0.0, "lat": 38.910444166666665, "bike_id": "736e18ab55696dad4b6b0cbaccbfd11c", "fusion_lon": 0.0}, {"rental_uris": {"ios": "https://dc.lft.to/lastmile_qr_scan", "android": "https://dc.lft.to/lastmile_qr_scan"}, "type": "electric_scooter", "name": "adfbd8a01a9b4ff9799115c1150b305d", "is_reserved": 0, "lon": -77.05026183333334, "is_disabled": 0, "fusion_lat": 0.0, "lat": 38.9235345, "bike_id": "adfbd8a01a9b4ff9799115c1150b305d", "fusion_lon": 0.0}, {"rental_uris": {"ios": "https://dc.lft.to/lastmile_qr_scan", "android": "https://dc.lft.to/lastmile_qr_scan"}, "type": "electric_scooter", "name": "b92330536162921999f69e26af9641d9", "is_reserved": 0, "lon": -77.03388033333333, "is_disabled": 0, "fusion_lat": 0.0, "lat": 38.910351, "bike_id": "b92330536162921999f69e26af9641d9", "fusion_lon": 0.0}, {"rental_uris": {"ios": "https://dc.lft.to/lastmile_qr_scan", "android": "https://dc.lft.to/lastmile_qr_scan"}, "type": "electric_scooter", "name": "36e75615c0ca857265a6115100be1490", "is_reserved": 0, "lon": -77.041418, "is_disabled": 0, "fusion_lat": 0.0, "lat": 38.9347175, "bike_id": "36e75615c0ca857265a6115100be1490", "fusion_lon": 0.0}, {"rental_uris": {"ios": "https://dc.lft.to/lastmile_qr_scan", "android": "https://dc.lft.to/lastmile_qr_scan"}, "type": "electric_scooter", "name": "03db0bef0b2f4802f3a19eb42545a3ea", "is_reserved": 0, "lon": -77.03408133333333, "is_disabled": 0, "fusion_lat": 0.0, "lat": 38.919782833333336, "bike_id": "03db0bef0b2f4802f3a19eb42545a3ea", "fusion_lon": 0.0}, {"rental_uris": {"ios": "https://dc.lft.to/lastmile_qr_scan", "android": "https://dc.lft.to/lastmile_qr_scan"}, "type": "electric_scooter", "name": "6ce56c1e5b5fe030bea4709b3faeaa44", "is_reserved": 0, "lon": -77.02820466666667, "is_disabled": 0, "fusion_lat": 0.0, "lat": 38.9296945, "bike_id": "6ce56c1e5b5fe030bea4709b3faeaa44", "fusion_lon": 0.0}, {"rental_uris": {"ios": "https://dc.lft.to/lastmile_qr_scan", "android": "https://dc.lft.to/lastmile_qr_scan"}, "type": "electric_scooter", "name": "19ec4835f55b223a2df370257c11694c", "is_reserved": 0, "lon": -77.02287516666667, "is_disabled": 0, "fusion_lat": 0.0, "lat": 38.90789816666667, "bike_id": "19ec4835f55b223a2df370257c11694c", "fusion_lon": 0.0}, {"rental_uris": {"ios": "https://dc.lft.to/lastmile_qr_scan", "android": "https://dc.lft.to/lastmile_qr_scan"}, "type": "electric_scooter", "name": "f62847e4f3f81dd0d8e89ac043dfc343", "is_reserved": 0, "lon": -77.02347366666666, "is_disabled": 0, "fusion_lat": 0.0, "lat": 38.929683833333335, "bike_id": "f62847e4f3f81dd0d8e89ac043dfc343", "fusion_lon": 0.0}, {"rental_uris": {"ios": "https://dc.lft.to/lastmile_qr_scan", "android": "https://dc.lft.to/lastmile_qr_scan"}, "type": "electric_scooter", "name": "b65ec93a31b3c2d3cecc84147b827301", "is_reserved": 0, "lon": -77.02303116666667, "is_disabled": 0, "fusion_lat": 0.0, "lat": 38.96128216666666, "bike_id": "b65ec93a31b3c2d3cecc84147b827301", "fusion_lon": 0.0}, {"rental_uris": {"ios": "https://dc.lft.to/lastmile_qr_scan", "android": "https://dc.lft.to/lastmile_qr_scan"}, "type": "electric_scooter", "name": "302f96638d7c7011e6599eaf6f89b063", "is_reserved": 0, "lon": -77.00201533333333, "is_disabled": 0, "fusion_lat": 0.0, "lat": 38.902393833333335, "bike_id": "302f96638d7c7011e6599eaf6f89b063", "fusion_lon": 0.0}, {"rental_uris": {"ios": "https://dc.lft.to/lastmile_qr_scan", "android": "https://dc.lft.to/lastmile_qr_scan"}, "type": "electric_scooter", "name": "b2f787560e6b747000f1e5b101c1da52", "is_reserved": 0, "lon": -76.99481466666667, "is_disabled": 0, "fusion_lat": 0.0, "lat": 38.905534833333334, "bike_id": "b2f787560e6b747000f1e5b101c1da52", "fusion_lon": 0.0}, {"rental_uris": {"ios": "https://dc.lft.to/lastmile_qr_scan", "android": "https://dc.lft.to/lastmile_qr_scan"}, "type": "electric_scooter", "name": "7c846a600d5c3e75cebc6bbbbc45dfb8", "is_reserved": 0, "lon": -77.02121616666666, "is_disabled": 0, "fusion_lat": 0.0, "lat": 38.924077833333335, "bike_id": "7c846a600d5c3e75cebc6bbbbc45dfb8", "fusion_lon": 0.0}, {"rental_uris": {"ios": "https://dc.lft.to/lastmile_qr_scan", "android": "https://dc.lft.to/lastmile_qr_scan"}, "type": "electric_scooter", "name": "6c483e53a7a308274d0757e5908769f2", "is_reserved": 0, "lon": -77.02203683333333, "is_disabled": 0, "fusion_lat": 0.0, "lat": 38.89404016666667, "bike_id": "6c483e53a7a308274d0757e5908769f2", "fusion_lon": 0.0}, {"rental_uris": {"ios": "https://dc.lft.to/lastmile_qr_scan", "android": "https://dc.lft.to/lastmile_qr_scan"}, "type": "electric_scooter", "name": "486db5423e429e92158b26e7cb66f063", "is_reserved": 0, "lon": -77.03797883333333, "is_disabled": 0, "fusion_lat": 0.0, "lat": 38.92588666666666, "bike_id": "486db5423e429e92158b26e7cb66f063", "fusion_lon": 0.0}, {"rental_uris": {"ios": "https://dc.lft.to/lastmile_qr_scan", "android": "https://dc.lft.to/lastmile_qr_scan"}, "type": "electric_scooter", "name": "54c11c8fd07271882238360718c2eb48", "is_reserved": 0, "lon": -77.011531, "is_disabled": 0, "fusion_lat": 0.0, "lat": 38.956831, "bike_id": "54c11c8fd07271882238360718c2eb48", "fusion_lon": 0.0}, {"rental_uris": {"ios": "https://dc.lft.to/lastmile_qr_scan", "android": "https://dc.lft.to/lastmile_qr_scan"}, "type": "electric_scooter", "name": "80fbf81c6520bb6782076d326c7b0b6d", "is_reserved": 0, "lon": -77.023391, "is_disabled": 0, "fusion_lat": 0.0, "lat": 38.929669, "bike_id": "80fbf81c6520bb6782076d326c7b0b6d", "fusion_lon": 0.0}, {"rental_uris": {"ios": "https://dc.lft.to/lastmile_qr_scan", "android": "https://dc.lft.to/lastmile_qr_scan"}, "type": "electric_scooter", "name": "1ce07db064cf04e8ede00a6ce6502804", "is_reserved": 0, "lon": -76.94192633333333, "is_disabled": 0, "fusion_lat": 0.0, "lat": 38.90224033333333, "bike_id": "1ce07db064cf04e8ede00a6ce6502804", "fusion_lon": 0.0}, {"rental_uris": {"ios": "https://dc.lft.to/lastmile_qr_scan", "android": "https://dc.lft.to/lastmile_qr_scan"}, "type": "electric_scooter", "name": "904371c39a58dff701bd39d28629821b", "is_reserved": 0, "lon": -77.0755205, "is_disabled": 0, "fusion_lat": 0.0, "lat": 38.92081566666667, "bike_id": "904371c39a58dff701bd39d28629821b", "fusion_lon": 0.0}, {"rental_uris": {"ios": "https://dc.lft.to/lastmile_qr_scan", "android": "https://dc.lft.to/lastmile_qr_scan"}, "type": "electric_scooter", "name": "70a2a772adbacefd55b814300b920b7c", "is_reserved": 0, "lon": -77.03831333333333, "is_disabled": 0, "fusion_lat": 0.0, "lat": 38.9125195, "bike_id": "70a2a772adbacefd55b814300b920b7c", "fusion_lon": 0.0}, {"rental_uris": {"ios": "https://dc.lft.to/lastmile_qr_scan", "android": "https://dc.lft.to/lastmile_qr_scan"}, "type": "electric_scooter", "name": "36d0f6e2fd8d3d45dba32553b857adb0", "is_reserved": 0, "lon": -77.0455315, "is_disabled": 0, "fusion_lat": 0.0, "lat": 38.91319583333333, "bike_id": "36d0f6e2fd8d3d45dba32553b857adb0", "fusion_lon": 0.0}, {"rental_uris": {"ios": "https://dc.lft.to/lastmile_qr_scan", "android": "https://dc.lft.to/lastmile_qr_scan"}, "type": "electric_scooter", "name": "54075f26c7823d745c5722b10f7587c7", "is_reserved": 0, "lon": -77.03088533333333, "is_disabled": 0, "fusion_lat": 0.0, "lat": 38.93516266666666, "bike_id": "54075f26c7823d745c5722b10f7587c7", "fusion_lon": 0.0}, {"rental_uris": {"ios": "https://dc.lft.to/lastmile_qr_scan", "android": "https://dc.lft.to/lastmile_qr_scan"}, "type": "electric_scooter", "name": "35f057833ea593430bb78a9fd91be5f1", "is_reserved": 0, "lon": -77.02501933333333, "is_disabled": 0, "fusion_lat": 0.0, "lat": 38.942103333333336, "bike_id": "35f057833ea593430bb78a9fd91be5f1", "fusion_lon": 0.0}, {"rental_uris": {"ios": "https://dc.lft.to/lastmile_qr_scan", "android": "https://dc.lft.to/lastmile_qr_scan"}, "type": "electric_scooter", "name": "3c9c9123468d7f2665a7f6a3606b0ff7", "is_reserved": 0, "lon": -77.02355216666666, "is_disabled": 0, "fusion_lat": 0.0, "lat": 38.89218833333334, "bike_id": "3c9c9123468d7f2665a7f6a3606b0ff7", "fusion_lon": 0.0}, {"rental_uris": {"ios": "https://dc.lft.to/lastmile_qr_scan", "android": "https://dc.lft.to/lastmile_qr_scan"}, "type": "electric_scooter", "name": "e4f4bee45f0f5b0b73370a1566867ac5", "is_reserved": 0, "lon": -77.0034075, "is_disabled": 0, "fusion_lat": 0.0, "lat": 38.89609683333333, "bike_id": "e4f4bee45f0f5b0b73370a1566867ac5", "fusion_lon": 0.0}, {"rental_uris": {"ios": "https://dc.lft.to/lastmile_qr_scan", "android": "https://dc.lft.to/lastmile_qr_scan"}, "type": "electric_scooter", "name": "ec5ebdebce78935fdc95b27c6637664c", "is_reserved": 0, "lon": -77.03323383333333, "is_disabled": 0, "fusion_lat": 0.0, "lat": 38.88764366666667, "bike_id": "ec5ebdebce78935fdc95b27c6637664c", "fusion_lon": 0.0}, {"rental_uris": {"ios": "https://dc.lft.to/lastmile_qr_scan", "android": "https://dc.lft.to/lastmile_qr_scan"}, "type": "electric_scooter", "name": "62ea9d952bb2e172e4d2f12c02b698ed", "is_reserved": 0, "lon": -77.02410583333334, "is_disabled": 0, "fusion_lat": 0.0, "lat": 38.90565333333333, "bike_id": "62ea9d952bb2e172e4d2f12c02b698ed", "fusion_lon": 0.0}, {"rental_uris": {"ios": "https://dc.lft.to/lastmile_qr_scan", "android": "https://dc.lft.to/lastmile_qr_scan"}, "type": "electric_scooter", "name": "07b78b6779eca63b71ca46c4e3381873", "is_reserved": 0, "lon": -77.02652766666667, "is_disabled": 0, "fusion_lat": 0.0, "lat": 38.90725483333333, "bike_id": "07b78b6779eca63b71ca46c4e3381873", "fusion_lon": 0.0}, {"rental_uris": {"ios": "https://dc.lft.to/lastmile_qr_scan", "android": "https://dc.lft.to/lastmile_qr_scan"}, "type": "electric_scooter", "name": "3597303150c925e676312be522bed534", "is_reserved": 0, "lon": -77.02635366666667, "is_disabled": 0, "fusion_lat": 0.0, "lat": 38.904258166666665, "bike_id": "3597303150c925e676312be522bed534", "fusion_lon": 0.0}, {"rental_uris": {"ios": "https://dc.lft.to/lastmile_qr_scan", "android": "https://dc.lft.to/lastmile_qr_scan"}, "type": "electric_bike", "name": "be546085f9ff696c78474a99a3c1c30a", "is_reserved": 0, "lon": -77.12837383333333, "is_disabled": 0, "fusion_lat": 0.0, "lat": 38.8005355, "bike_id": "be546085f9ff696c78474a99a3c1c30a", "fusion_lon": 0.0}, {"rental_uris": {"ios": "https://dc.lft.to/lastmile_qr_scan", "android": "https://dc.lft.to/lastmile_qr_scan"}, "type": "electric_bike", "name": "0a8f0295bd19630797d04cd766e905b5", "is_reserved": 0, "lon": -76.97778316666667, "is_disabled": 0, "fusion_lat": 0.0, "lat": 38.85725583333333, "bike_id": "0a8f0295bd19630797d04cd766e905b5", "fusion_lon": 0.0}, {"rental_uris": {"ios": "https://dc.lft.to/lastmile_qr_scan", "android": "https://dc.lft.to/lastmile_qr_scan"}, "type": "electric_scooter", "name": "833a9133560b375744f66b96ea56d2d5", "is_reserved": 0, "lon": -77.02422233333333, "is_disabled": 0, "fusion_lat": 0.0, "lat": 38.89228683333333, "bike_id": "833a9133560b375744f66b96ea56d2d5", "fusion_lon": 0.0}, {"rental_uris": {"ios": "https://dc.lft.to/lastmile_qr_scan", "android": "https://dc.lft.to/lastmile_qr_scan"}, "type": "electric_scooter", "name": "6e061d8e4c5c8075a39065b7cceb7299", "is_reserved": 0, "lon": -77.07411633333334, "is_disabled": 0, "fusion_lat": 0.0, "lat": 38.89724533333333, "bike_id": "6e061d8e4c5c8075a39065b7cceb7299", "fusion_lon": 0.0}, {"rental_uris": {"ios": "https://dc.lft.to/lastmile_qr_scan", "android": "https://dc.lft.to/lastmile_qr_scan"}, "type": "electric_bike", "name": "c791cbb05f710a46d6ca1f6c0b2cfa70", "is_reserved": 0, "lon": -77.016708, "is_disabled": 0, "fusion_lat": 0.0, "lat": 38.881192166666665, "bike_id": "c791cbb05f710a46d6ca1f6c0b2cfa70", "fusion_lon": 0.0}, {"rental_uris": {"ios": "https://dc.lft.to/lastmile_qr_scan", "android": "https://dc.lft.to/lastmile_qr_scan"}, "type": "electric_scooter", "name": "5ae6ec102c32c6f174e2660057f04c8c", "is_reserved": 0, "lon": -76.98863, "is_disabled": 0, "fusion_lat": 0.0, "lat": 38.9002855, "bike_id": "5ae6ec102c32c6f174e2660057f04c8c", "fusion_lon": 0.0}, {"rental_uris": {"ios": "https://dc.lft.to/lastmile_qr_scan", "android": "https://dc.lft.to/lastmile_qr_scan"}, "type": "electric_scooter", "name": "e4f43b6af3d1306a60ae1693c4cea694", "is_reserved": 0, "lon": -77.02123516666667, "is_disabled": 0, "fusion_lat": 0.0, "lat": 38.92405983333333, "bike_id": "e4f43b6af3d1306a60ae1693c4cea694", "fusion_lon": 0.0}, {"rental_uris": {"ios": "https://dc.lft.to/lastmile_qr_scan", "android": "https://dc.lft.to/lastmile_qr_scan"}, "type": "electric_scooter", "name": "fad59848200534d270ad68153ab853d3", "is_reserved": 0, "lon": -76.98652433333334, "is_disabled": 0, "fusion_lat": 0.0, "lat": 38.90537233333333, "bike_id": "fad59848200534d270ad68153ab853d3", "fusion_lon": 0.0}, {"rental_uris": {"ios": "https://dc.lft.to/lastmile_qr_scan", "android": "https://dc.lft.to/lastmile_qr_scan"}, "type": "electric_scooter", "name": "4c94e791f9a038ed02b96ddb6d599f5f", "is_reserved": 0, "lon": -77.00409683333334, "is_disabled": 0, "fusion_lat": 0.0, "lat": 38.87935183333333, "bike_id": "4c94e791f9a038ed02b96ddb6d599f5f", "fusion_lon": 0.0}, {"rental_uris": {"ios": "https://dc.lft.to/lastmile_qr_scan", "android": "https://dc.lft.to/lastmile_qr_scan"}, "type": "electric_scooter", "name": "5a073951c16c42400402f41a272c21c5", "is_reserved": 0, "lon": -77.022029, "is_disabled": 0, "fusion_lat": 0.0, "lat": 38.911286833333335, "bike_id": "5a073951c16c42400402f41a272c21c5", "fusion_lon": 0.0}, {"rental_uris": {"ios": "https://dc.lft.to/lastmile_qr_scan", "android": "https://dc.lft.to/lastmile_qr_scan"}, "type": "electric_scooter", "name": "00c3d00fa661c45bfd0a181baa2750b6", "is_reserved": 0, "lon": -77.014975, "is_disabled": 0, "fusion_lat": 0.0, "lat": 38.9267185, "bike_id": "00c3d00fa661c45bfd0a181baa2750b6", "fusion_lon": 0.0}, {"rental_uris": {"ios": "https://dc.lft.to/lastmile_qr_scan", "android": "https://dc.lft.to/lastmile_qr_scan"}, "type": "electric_bike", "name": "96f68e748a9c08f06b14aaf5207221d4", "is_reserved": 0, "lon": -77.1062625, "is_disabled": 0, "fusion_lat": 0.0, "lat": 38.873261, "bike_id": "96f68e748a9c08f06b14aaf5207221d4", "fusion_lon": 0.0}, {"rental_uris": {"ios": "https://dc.lft.to/lastmile_qr_scan", "android": "https://dc.lft.to/lastmile_qr_scan"}, "type": "electric_scooter", "name": "94e109143f19fd21370405dc2f24034b", "is_reserved": 0, "lon": -77.04803533333333, "is_disabled": 0, "fusion_lat": 0.0, "lat": 38.89747366666667, "bike_id": "94e109143f19fd21370405dc2f24034b", "fusion_lon": 0.0}, {"rental_uris": {"ios": "https://dc.lft.to/lastmile_qr_scan", "android": "https://dc.lft.to/lastmile_qr_scan"}, "type": "electric_scooter", "name": "4a0e6f9f487a194f1a7aa576f10b9348", "is_reserved": 0, "lon": -77.03576216666667, "is_disabled": 0, "fusion_lat": 0.0, "lat": 38.881809, "bike_id": "4a0e6f9f487a194f1a7aa576f10b9348", "fusion_lon": 0.0}, {"rental_uris": {"ios": "https://dc.lft.to/lastmile_qr_scan", "android": "https://dc.lft.to/lastmile_qr_scan"}, "type": "electric_scooter", "name": "0823794e8f8a6806f2dace984a2dcbaf", "is_reserved": 0, "lon": -77.02204283333333, "is_disabled": 0, "fusion_lat": 0.0, "lat": 38.91131933333333, "bike_id": "0823794e8f8a6806f2dace984a2dcbaf", "fusion_lon": 0.0}, {"rental_uris": {"ios": "https://dc.lft.to/lastmile_qr_scan", "android": "https://dc.lft.to/lastmile_qr_scan"}, "type": "electric_scooter", "name": "1c27d8822b3753aebedf1afd168dcd3d", "is_reserved": 0, "lon": -76.9230745, "is_disabled": 0, "fusion_lat": 0.0, "lat": 38.89386233333333, "bike_id": "1c27d8822b3753aebedf1afd168dcd3d", "fusion_lon": 0.0}, {"rental_uris": {"ios": "https://dc.lft.to/lastmile_qr_scan", "android": "https://dc.lft.to/lastmile_qr_scan"}, "type": "electric_scooter", "name": "3d09a20ab2782a8541d36ee87e4abdd9", "is_reserved": 0, "lon": -77.03175383333334, "is_disabled": 0, "fusion_lat": 0.0, "lat": 38.914227, "bike_id": "3d09a20ab2782a8541d36ee87e4abdd9", "fusion_lon": 0.0}, {"rental_uris": {"ios": "https://dc.lft.to/lastmile_qr_scan", "android": "https://dc.lft.to/lastmile_qr_scan"}, "type": "electric_scooter", "name": "823a1e4de1658e181a07a99008044b39", "is_reserved": 0, "lon": -77.023058, "is_disabled": 0, "fusion_lat": 0.0, "lat": 38.913948166666664, "bike_id": "823a1e4de1658e181a07a99008044b39", "fusion_lon": 0.0}, {"rental_uris": {"ios": "https://dc.lft.to/lastmile_qr_scan", "android": "https://dc.lft.to/lastmile_qr_scan"}, "type": "electric_scooter", "name": "d3deec00e5874f63e86e9594b1e648f1", "is_reserved": 0, "lon": -77.0492385, "is_disabled": 0, "fusion_lat": 0.0, "lat": 38.910437, "bike_id": "d3deec00e5874f63e86e9594b1e648f1", "fusion_lon": 0.0}, {"rental_uris": {"ios": "https://dc.lft.to/lastmile_qr_scan", "android": "https://dc.lft.to/lastmile_qr_scan"}, "type": "electric_scooter", "name": "cb41547206d6917224306023e43528f3", "is_reserved": 0, "lon": -77.03199283333333, "is_disabled": 0, "fusion_lat": 0.0, "lat": 38.90934383333333, "bike_id": "cb41547206d6917224306023e43528f3", "fusion_lon": 0.0}, {"rental_uris": {"ios": "https://dc.lft.to/lastmile_qr_scan", "android": "https://dc.lft.to/lastmile_qr_scan"}, "type": "electric_scooter", "name": "5c63bf11024bfad01e90ea8b6d55128a", "is_reserved": 0, "lon": -77.0179665, "is_disabled": 0, "fusion_lat": 0.0, "lat": 38.9197755, "bike_id": "5c63bf11024bfad01e90ea8b6d55128a", "fusion_lon": 0.0}, {"rental_uris": {"ios": "https://dc.lft.to/lastmile_qr_scan", "android": "https://dc.lft.to/lastmile_qr_scan"}, "type": "electric_bike", "name": "b7067dddb1aa2ecac0d5157ab10936ec", "is_reserved": 0, "lon": -77.07628183333334, "is_disabled": 0, "fusion_lat": 0.0, "lat": 38.90609633333333, "bike_id": "b7067dddb1aa2ecac0d5157ab10936ec", "fusion_lon": 0.0}, {"rental_uris": {"ios": "https://dc.lft.to/lastmile_qr_scan", "android": "https://dc.lft.to/lastmile_qr_scan"}, "type": "electric_scooter", "name": "dfc7ecb48dfacfff47c7944eefda07c9", "is_reserved": 0, "lon": -76.99864316666667, "is_disabled": 0, "fusion_lat": 0.0, "lat": 38.90034633333333, "bike_id": "dfc7ecb48dfacfff47c7944eefda07c9", "fusion_lon": 0.0}, {"rental_uris": {"ios": "https://dc.lft.to/lastmile_qr_scan", "android": "https://dc.lft.to/lastmile_qr_scan"}, "type": "electric_scooter", "name": "94e920e985425cf4884ee496cfa285a4", "is_reserved": 0, "lon": -77.038722, "is_disabled": 0, "fusion_lat": 0.0, "lat": 38.91116866666667, "bike_id": "94e920e985425cf4884ee496cfa285a4", "fusion_lon": 0.0}, {"rental_uris": {"ios": "https://dc.lft.to/lastmile_qr_scan", "android": "https://dc.lft.to/lastmile_qr_scan"}, "type": "electric_bike", "name": "d0f6dfc6628ca54462c1e5271d05d36e", "is_reserved": 0, "lon": -76.986934, "is_disabled": 0, "fusion_lat": 0.0, "lat": 38.94469466666666, "bike_id": "d0f6dfc6628ca54462c1e5271d05d36e", "fusion_lon": 0.0}, {"rental_uris": {"ios": "https://dc.lft.to/lastmile_qr_scan", "android": "https://dc.lft.to/lastmile_qr_scan"}, "type": "electric_scooter", "name": "7c6d124e28774630da63f454ef3cc340", "is_reserved": 0, "lon": -77.02206033333333, "is_disabled": 0, "fusion_lat": 0.0, "lat": 38.9163495, "bike_id": "7c6d124e28774630da63f454ef3cc340", "fusion_lon": 0.0}, {"rental_uris": {"ios": "https://dc.lft.to/lastmile_qr_scan", "android": "https://dc.lft.to/lastmile_qr_scan"}, "type": "electric_bike", "name": "3ac8c3c604bdba20b6e627c1437eba60", "is_reserved": 0, "lon": -76.941825, "is_disabled": 0, "fusion_lat": 0.0, "lat": 38.96065483333334, "bike_id": "3ac8c3c604bdba20b6e627c1437eba60", "fusion_lon": 0.0}, {"rental_uris": {"ios": "https://dc.lft.to/lastmile_qr_scan", "android": "https://dc.lft.to/lastmile_qr_scan"}, "type": "electric_scooter", "name": "db87483321746ca709fb01c4988e305f", "is_reserved": 0, "lon": -77.01298916666667, "is_disabled": 0, "fusion_lat": 0.0, "lat": 38.901860166666665, "bike_id": "db87483321746ca709fb01c4988e305f", "fusion_lon": 0.0}, {"rental_uris": {"ios": "https://dc.lft.to/lastmile_qr_scan", "android": "https://dc.lft.to/lastmile_qr_scan"}, "type": "electric_scooter", "name": "06a9b5910e521887c3d85961eb4583dc", "is_reserved": 0, "lon": -77.04627316666667, "is_disabled": 0, "fusion_lat": 0.0, "lat": 38.91614783333333, "bike_id": "06a9b5910e521887c3d85961eb4583dc", "fusion_lon": 0.0}, {"rental_uris": {"ios": "https://dc.lft.to/lastmile_qr_scan", "android": "https://dc.lft.to/lastmile_qr_scan"}, "type": "electric_scooter", "name": "0f12abfc4a4e4de0300958ac3b49d567", "is_reserved": 0, "lon": -77.02058733333334, "is_disabled": 0, "fusion_lat": 0.0, "lat": 38.924034166666665, "bike_id": "0f12abfc4a4e4de0300958ac3b49d567", "fusion_lon": 0.0}, {"rental_uris": {"ios": "https://dc.lft.to/lastmile_qr_scan", "android": "https://dc.lft.to/lastmile_qr_scan"}, "type": "electric_scooter", "name": "6ca314dc14c9bceca77318f8f22b71dd", "is_reserved": 0, "lon": -77.04232416666666, "is_disabled": 0, "fusion_lat": 0.0, "lat": 38.921950333333335, "bike_id": "6ca314dc14c9bceca77318f8f22b71dd", "fusion_lon": 0.0}, {"rental_uris": {"ios": "https://dc.lft.to/lastmile_qr_scan", "android": "https://dc.lft.to/lastmile_qr_scan"}, "type": "electric_scooter", "name": "947e8879363faac7784efaa4de2251a6", "is_reserved": 0, "lon": -77.04479783333333, "is_disabled": 0, "fusion_lat": 0.0, "lat": 38.9242705, "bike_id": "947e8879363faac7784efaa4de2251a6", "fusion_lon": 0.0}, {"rental_uris": {"ios": "https://dc.lft.to/lastmile_qr_scan", "android": "https://dc.lft.to/lastmile_qr_scan"}, "type": "electric_scooter", "name": "6d1af4aee81a6b5553a9d2560bb2cf5c", "is_reserved": 0, "lon": -77.02000366666667, "is_disabled": 0, "fusion_lat": 0.0, "lat": 38.930238333333335, "bike_id": "6d1af4aee81a6b5553a9d2560bb2cf5c", "fusion_lon": 0.0}, {"rental_uris": {"ios": "https://dc.lft.to/lastmile_qr_scan", "android": "https://dc.lft.to/lastmile_qr_scan"}, "type": "electric_scooter", "name": "0305d75aaa570680238382f6d92f27fb", "is_reserved": 0, "lon": -77.013586, "is_disabled": 0, "fusion_lat": 0.0, "lat": 38.919355833333334, "bike_id": "0305d75aaa570680238382f6d92f27fb", "fusion_lon": 0.0}, {"rental_uris": {"ios": "https://dc.lft.to/lastmile_qr_scan", "android": "https://dc.lft.to/lastmile_qr_scan"}, "type": "electric_scooter", "name": "03fee056c2606005bb86bf70a0dbcd34", "is_reserved": 0, "lon": -77.03358033333333, "is_disabled": 0, "fusion_lat": 0.0, "lat": 38.930622, "bike_id": "03fee056c2606005bb86bf70a0dbcd34", "fusion_lon": 0.0}, {"rental_uris": {"ios": "https://dc.lft.to/lastmile_qr_scan", "android": "https://dc.lft.to/lastmile_qr_scan"}, "type": "electric_scooter", "name": "a7de81b2e1b0f27afa47fff558dde12c", "is_reserved": 0, "lon": -77.0296675, "is_disabled": 0, "fusion_lat": 0.0, "lat": 38.89226416666666, "bike_id": "a7de81b2e1b0f27afa47fff558dde12c", "fusion_lon": 0.0}, {"rental_uris": {"ios": "https://dc.lft.to/lastmile_qr_scan", "android": "https://dc.lft.to/lastmile_qr_scan"}, "type": "electric_scooter", "name": "57a2197f327058db013201003f2eca01", "is_reserved": 0, "lon": -77.02090866666667, "is_disabled": 0, "fusion_lat": 0.0, "lat": 38.9271175, "bike_id": "57a2197f327058db013201003f2eca01", "fusion_lon": 0.0}, {"rental_uris": {"ios": "https://dc.lft.to/lastmile_qr_scan", "android": "https://dc.lft.to/lastmile_qr_scan"}, "type": "electric_scooter", "name": "c0fffd3d601fcc51e5008f6c03c7d086", "is_reserved": 0, "lon": -77.03297783333333, "is_disabled": 0, "fusion_lat": 0.0, "lat": 38.92464, "bike_id": "c0fffd3d601fcc51e5008f6c03c7d086", "fusion_lon": 0.0}, {"rental_uris": {"ios": "https://dc.lft.to/lastmile_qr_scan", "android": "https://dc.lft.to/lastmile_qr_scan"}, "type": "electric_scooter", "name": "ff95bbce79bd43b6d661a9c4351ffc70", "is_reserved": 0, "lon": -77.02136683333333, "is_disabled": 0, "fusion_lat": 0.0, "lat": 38.913231333333336, "bike_id": "ff95bbce79bd43b6d661a9c4351ffc70", "fusion_lon": 0.0}, {"rental_uris": {"ios": "https://dc.lft.to/lastmile_qr_scan", "android": "https://dc.lft.to/lastmile_qr_scan"}, "type": "electric_scooter", "name": "618040d7e62576125e3300755e65c259", "is_reserved": 0, "lon": -76.99155983333333, "is_disabled": 0, "fusion_lat": 0.0, "lat": 38.900359333333334, "bike_id": "618040d7e62576125e3300755e65c259", "fusion_lon": 0.0}, {"rental_uris": {"ios": "https://dc.lft.to/lastmile_qr_scan", "android": "https://dc.lft.to/lastmile_qr_scan"}, "type": "electric_scooter", "name": "c1ad7856396d257b6a1127007b94768f", "is_reserved": 0, "lon": -77.038121, "is_disabled": 0, "fusion_lat": 0.0, "lat": 38.914327166666666, "bike_id": "c1ad7856396d257b6a1127007b94768f", "fusion_lon": 0.0}, {"rental_uris": {"ios": "https://dc.lft.to/lastmile_qr_scan", "android": "https://dc.lft.to/lastmile_qr_scan"}, "type": "electric_scooter", "name": "7a0c393c31c80208b12c2781fad62a96", "is_reserved": 0, "lon": -77.022267, "is_disabled": 0, "fusion_lat": 0.0, "lat": 38.8921945, "bike_id": "7a0c393c31c80208b12c2781fad62a96", "fusion_lon": 0.0}, {"rental_uris": {"ios": "https://dc.lft.to/lastmile_qr_scan", "android": "https://dc.lft.to/lastmile_qr_scan"}, "type": "electric_scooter", "name": "7909fcebca54f6346d2ba501fb5155e5", "is_reserved": 0, "lon": -77.0344555, "is_disabled": 0, "fusion_lat": 0.0, "lat": 38.910207666666665, "bike_id": "7909fcebca54f6346d2ba501fb5155e5", "fusion_lon": 0.0}, {"rental_uris": {"ios": "https://dc.lft.to/lastmile_qr_scan", "android": "https://dc.lft.to/lastmile_qr_scan"}, "type": "electric_scooter", "name": "bdd91a09bcfc5a0fab0296bc2ac02da5", "is_reserved": 0, "lon": -77.05605066666666, "is_disabled": 0, "fusion_lat": 0.0, "lat": 38.894179666666666, "bike_id": "bdd91a09bcfc5a0fab0296bc2ac02da5", "fusion_lon": 0.0}, {"rental_uris": {"ios": "https://dc.lft.to/lastmile_qr_scan", "android": "https://dc.lft.to/lastmile_qr_scan"}, "type": "electric_scooter", "name": "1eca12128de5a0243ef6bed222455135", "is_reserved": 0, "lon": -77.0102325, "is_disabled": 0, "fusion_lat": 0.0, "lat": 38.914014, "bike_id": "1eca12128de5a0243ef6bed222455135", "fusion_lon": 0.0}, {"rental_uris": {"ios": "https://dc.lft.to/lastmile_qr_scan", "android": "https://dc.lft.to/lastmile_qr_scan"}, "type": "electric_scooter", "name": "30872916a6496b65bc33f29bc82dd789", "is_reserved": 0, "lon": -76.9948175, "is_disabled": 0, "fusion_lat": 0.0, "lat": 38.862120166666664, "bike_id": "30872916a6496b65bc33f29bc82dd789", "fusion_lon": 0.0}, {"rental_uris": {"ios": "https://dc.lft.to/lastmile_qr_scan", "android": "https://dc.lft.to/lastmile_qr_scan"}, "type": "electric_scooter", "name": "4c244f8ca65e34e5a557629c83858021", "is_reserved": 0, "lon": -77.03054966666667, "is_disabled": 0, "fusion_lat": 0.0, "lat": 38.9082785, "bike_id": "4c244f8ca65e34e5a557629c83858021", "fusion_lon": 0.0}, {"rental_uris": {"ios": "https://dc.lft.to/lastmile_qr_scan", "android": "https://dc.lft.to/lastmile_qr_scan"}, "type": "electric_bike", "name": "523d492aa1fe7a7bdb5edca2fbcded1f", "is_reserved": 0, "lon": -76.98550533333334, "is_disabled": 0, "fusion_lat": 0.0, "lat": 38.892432, "bike_id": "523d492aa1fe7a7bdb5edca2fbcded1f", "fusion_lon": 0.0}, {"rental_uris": {"ios": "https://dc.lft.to/lastmile_qr_scan", "android": "https://dc.lft.to/lastmile_qr_scan"}, "type": "electric_scooter", "name": "3613d7bd7e315584a9b30deadbbfc523", "is_reserved": 0, "lon": -77.0221195, "is_disabled": 0, "fusion_lat": 0.0, "lat": 38.915633, "bike_id": "3613d7bd7e315584a9b30deadbbfc523", "fusion_lon": 0.0}, {"rental_uris": {"ios": "https://dc.lft.to/lastmile_qr_scan", "android": "https://dc.lft.to/lastmile_qr_scan"}, "type": "electric_scooter", "name": "167e2a718904bd3e3de5071ed2445cf6", "is_reserved": 0, "lon": -76.99216566666666, "is_disabled": 0, "fusion_lat": 0.0, "lat": 38.88968033333333, "bike_id": "167e2a718904bd3e3de5071ed2445cf6", "fusion_lon": 0.0}, {"rental_uris": {"ios": "https://dc.lft.to/lastmile_qr_scan", "android": "https://dc.lft.to/lastmile_qr_scan"}, "type": "electric_scooter", "name": "a6da4651a98373abbcea82e3a3fc0531", "is_reserved": 0, "lon": -77.04679383333334, "is_disabled": 0, "fusion_lat": 0.0, "lat": 38.8923115, "bike_id": "a6da4651a98373abbcea82e3a3fc0531", "fusion_lon": 0.0}, {"rental_uris": {"ios": "https://dc.lft.to/lastmile_qr_scan", "android": "https://dc.lft.to/lastmile_qr_scan"}, "type": "electric_scooter", "name": "b5ef8b1629e88dc5a6a7e49856892bca", "is_reserved": 0, "lon": -77.0121215, "is_disabled": 0, "fusion_lat": 0.0, "lat": 38.91198083333333, "bike_id": "b5ef8b1629e88dc5a6a7e49856892bca", "fusion_lon": 0.0}, {"rental_uris": {"ios": "https://dc.lft.to/lastmile_qr_scan", "android": "https://dc.lft.to/lastmile_qr_scan"}, "type": "electric_scooter", "name": "d52b1331e1155c2279c9aae04e64b24d", "is_reserved": 0, "lon": -77.025211, "is_disabled": 0, "fusion_lat": 0.0, "lat": 38.91952066666666, "bike_id": "d52b1331e1155c2279c9aae04e64b24d", "fusion_lon": 0.0}, {"rental_uris": {"ios": "https://dc.lft.to/lastmile_qr_scan", "android": "https://dc.lft.to/lastmile_qr_scan"}, "type": "electric_bike", "name": "5812fa4b1fc2a1752b705fd8f071c874", "is_reserved": 0, "lon": -76.962672, "is_disabled": 0, "fusion_lat": 0.0, "lat": 38.967844166666666, "bike_id": "5812fa4b1fc2a1752b705fd8f071c874", "fusion_lon": 0.0}, {"rental_uris": {"ios": "https://dc.lft.to/lastmile_qr_scan", "android": "https://dc.lft.to/lastmile_qr_scan"}, "type": "electric_bike", "name": "35bbece4cd659f2d8728d6d07cf621a6", "is_reserved": 0, "lon": -76.9868925, "is_disabled": 0, "fusion_lat": 0.0, "lat": 38.94471766666667, "bike_id": "35bbece4cd659f2d8728d6d07cf621a6", "fusion_lon": 0.0}, {"rental_uris": {"ios": "https://dc.lft.to/lastmile_qr_scan", "android": "https://dc.lft.to/lastmile_qr_scan"}, "type": "electric_bike", "name": "3ab18d4ec3d3e13b41dd1bd85ea999fc", "is_reserved": 0, "lon": -76.936689, "is_disabled": 0, "fusion_lat": 0.0, "lat": 38.894526, "bike_id": "3ab18d4ec3d3e13b41dd1bd85ea999fc", "fusion_lon": 0.0}, {"rental_uris": {"ios": "https://dc.lft.to/lastmile_qr_scan", "android": "https://dc.lft.to/lastmile_qr_scan"}, "type": "electric_scooter", "name": "6fdcd1d938727f97b3358faec6642d87", "is_reserved": 0, "lon": -77.03188433333334, "is_disabled": 0, "fusion_lat": 0.0, "lat": 38.91423666666667, "bike_id": "6fdcd1d938727f97b3358faec6642d87", "fusion_lon": 0.0}, {"rental_uris": {"ios": "https://dc.lft.to/lastmile_qr_scan", "android": "https://dc.lft.to/lastmile_qr_scan"}, "type": "electric_scooter", "name": "b57c49f1be2017c122fd0ba4a0fe981d", "is_reserved": 0, "lon": -76.99626433333333, "is_disabled": 0, "fusion_lat": 0.0, "lat": 38.88964566666667, "bike_id": "b57c49f1be2017c122fd0ba4a0fe981d", "fusion_lon": 0.0}, {"rental_uris": {"ios": "https://dc.lft.to/lastmile_qr_scan", "android": "https://dc.lft.to/lastmile_qr_scan"}, "type": "electric_scooter", "name": "56517921e5b486725b955291da09050d", "is_reserved": 0, "lon": -77.044913, "is_disabled": 0, "fusion_lat": 0.0, "lat": 38.91926433333333, "bike_id": "56517921e5b486725b955291da09050d", "fusion_lon": 0.0}, {"rental_uris": {"ios": "https://dc.lft.to/lastmile_qr_scan", "android": "https://dc.lft.to/lastmile_qr_scan"}, "type": "electric_scooter", "name": "2ee32e9249d12a51c5e4db3f9a87c14b", "is_reserved": 0, "lon": -76.98509433333334, "is_disabled": 0, "fusion_lat": 0.0, "lat": 38.879937166666664, "bike_id": "2ee32e9249d12a51c5e4db3f9a87c14b", "fusion_lon": 0.0}, {"rental_uris": {"ios": "https://dc.lft.to/lastmile_qr_scan", "android": "https://dc.lft.to/lastmile_qr_scan"}, "type": "electric_scooter", "name": "1476f9d8d3c0bfdce7126e29f862992d", "is_reserved": 0, "lon": -77.027619, "is_disabled": 0, "fusion_lat": 0.0, "lat": 38.9561185, "bike_id": "1476f9d8d3c0bfdce7126e29f862992d", "fusion_lon": 0.0}, {"rental_uris": {"ios": "https://dc.lft.to/lastmile_qr_scan", "android": "https://dc.lft.to/lastmile_qr_scan"}, "type": "electric_scooter", "name": "718a8b9082d9c2c8e4d686349472671d", "is_reserved": 0, "lon": -77.05903016666667, "is_disabled": 0, "fusion_lat": 0.0, "lat": 38.9022305, "bike_id": "718a8b9082d9c2c8e4d686349472671d", "fusion_lon": 0.0}, {"rental_uris": {"ios": "https://dc.lft.to/lastmile_qr_scan", "android": "https://dc.lft.to/lastmile_qr_scan"}, "type": "electric_scooter", "name": "4daf16a3bdb16c6d924acbfc63931d0f", "is_reserved": 0, "lon": -77.03341616666667, "is_disabled": 0, "fusion_lat": 0.0, "lat": 38.896312333333334, "bike_id": "4daf16a3bdb16c6d924acbfc63931d0f", "fusion_lon": 0.0}, {"rental_uris": {"ios": "https://dc.lft.to/lastmile_qr_scan", "android": "https://dc.lft.to/lastmile_qr_scan"}, "type": "electric_scooter", "name": "baccadc248e2f7d9388fcfe84fd6b2df", "is_reserved": 0, "lon": -77.01219666666667, "is_disabled": 0, "fusion_lat": 0.0, "lat": 38.92036016666667, "bike_id": "baccadc248e2f7d9388fcfe84fd6b2df", "fusion_lon": 0.0}, {"rental_uris": {"ios": "https://dc.lft.to/lastmile_qr_scan", "android": "https://dc.lft.to/lastmile_qr_scan"}, "type": "electric_scooter", "name": "97c7b343c28d193caa2ba4ee7180bf44", "is_reserved": 0, "lon": -77.0463345, "is_disabled": 0, "fusion_lat": 0.0, "lat": 38.901335833333334, "bike_id": "97c7b343c28d193caa2ba4ee7180bf44", "fusion_lon": 0.0}, {"rental_uris": {"ios": "https://dc.lft.to/lastmile_qr_scan", "android": "https://dc.lft.to/lastmile_qr_scan"}, "type": "electric_scooter", "name": "76c900876339a0626b87e40d5342ea21", "is_reserved": 0, "lon": -77.03146633333333, "is_disabled": 0, "fusion_lat": 0.0, "lat": 38.9202025, "bike_id": "76c900876339a0626b87e40d5342ea21", "fusion_lon": 0.0}, {"rental_uris": {"ios": "https://dc.lft.to/lastmile_qr_scan", "android": "https://dc.lft.to/lastmile_qr_scan"}, "type": "electric_scooter", "name": "b7b703511e2a2ea917cbf0f11451ddba", "is_reserved": 0, "lon": -77.03585416666667, "is_disabled": 0, "fusion_lat": 0.0, "lat": 38.9064055, "bike_id": "b7b703511e2a2ea917cbf0f11451ddba", "fusion_lon": 0.0}, {"rental_uris": {"ios": "https://dc.lft.to/lastmile_qr_scan", "android": "https://dc.lft.to/lastmile_qr_scan"}, "type": "electric_scooter", "name": "850a615d1ee2d4247ea1474e7d71791c", "is_reserved": 0, "lon": -77.04766466666666, "is_disabled": 0, "fusion_lat": 0.0, "lat": 38.903843, "bike_id": "850a615d1ee2d4247ea1474e7d71791c", "fusion_lon": 0.0}, {"rental_uris": {"ios": "https://dc.lft.to/lastmile_qr_scan", "android": "https://dc.lft.to/lastmile_qr_scan"}, "type": "electric_scooter", "name": "ed40d0fe7d182e5882f1c6eede91fb04", "is_reserved": 0, "lon": -77.050456, "is_disabled": 0, "fusion_lat": 0.0, "lat": 38.900856166666664, "bike_id": "ed40d0fe7d182e5882f1c6eede91fb04", "fusion_lon": 0.0}, {"rental_uris": {"ios": "https://dc.lft.to/lastmile_qr_scan", "android": "https://dc.lft.to/lastmile_qr_scan"}, "type": "electric_scooter", "name": "4fee2e6c2cc1f5c34b556b048cf8361b", "is_reserved": 0, "lon": -77.00519116666666, "is_disabled": 0, "fusion_lat": 0.0, "lat": 38.885188666666664, "bike_id": "4fee2e6c2cc1f5c34b556b048cf8361b", "fusion_lon": 0.0}, {"rental_uris": {"ios": "https://dc.lft.to/lastmile_qr_scan", "android": "https://dc.lft.to/lastmile_qr_scan"}, "type": "electric_bike", "name": "f2eba0dfab9729c1550bcc234aa1ce1e", "is_reserved": 0, "lon": -76.96107466666666, "is_disabled": 0, "fusion_lat": 0.0, "lat": 38.949609, "bike_id": "f2eba0dfab9729c1550bcc234aa1ce1e", "fusion_lon": 0.0}, {"rental_uris": {"ios": "https://dc.lft.to/lastmile_qr_scan", "android": "https://dc.lft.to/lastmile_qr_scan"}, "type": "electric_scooter", "name": "7646ca09a86fe28e37a99a16be01c490", "is_reserved": 0, "lon": -77.01459966666667, "is_disabled": 0, "fusion_lat": 0.0, "lat": 38.899439666666666, "bike_id": "7646ca09a86fe28e37a99a16be01c490", "fusion_lon": 0.0}, {"rental_uris": {"ios": "https://dc.lft.to/lastmile_qr_scan", "android": "https://dc.lft.to/lastmile_qr_scan"}, "type": "electric_scooter", "name": "d1f69fac6a2791549954d8fbccb8a606", "is_reserved": 0, "lon": -77.05225233333333, "is_disabled": 0, "fusion_lat": 0.0, "lat": 38.92488183333333, "bike_id": "d1f69fac6a2791549954d8fbccb8a606", "fusion_lon": 0.0}, {"rental_uris": {"ios": "https://dc.lft.to/lastmile_qr_scan", "android": "https://dc.lft.to/lastmile_qr_scan"}, "type": "electric_scooter", "name": "ad6a477be81f794c9491077d2c3252f5", "is_reserved": 0, "lon": -77.03327466666667, "is_disabled": 0, "fusion_lat": 0.0, "lat": 38.89853083333333, "bike_id": "ad6a477be81f794c9491077d2c3252f5", "fusion_lon": 0.0}, {"rental_uris": {"ios": "https://dc.lft.to/lastmile_qr_scan", "android": "https://dc.lft.to/lastmile_qr_scan"}, "type": "electric_scooter", "name": "5b73a69cbd9e15a1e0b6cb4e4c5c1534", "is_reserved": 0, "lon": -77.01101816666667, "is_disabled": 0, "fusion_lat": 0.0, "lat": 38.8853985, "bike_id": "5b73a69cbd9e15a1e0b6cb4e4c5c1534", "fusion_lon": 0.0}, {"rental_uris": {"ios": "https://dc.lft.to/lastmile_qr_scan", "android": "https://dc.lft.to/lastmile_qr_scan"}, "type": "electric_scooter", "name": "d3b0d26b123dc46f22ccb44936521398", "is_reserved": 0, "lon": -77.04074933333334, "is_disabled": 0, "fusion_lat": 0.0, "lat": 38.94776533333334, "bike_id": "d3b0d26b123dc46f22ccb44936521398", "fusion_lon": 0.0}, {"rental_uris": {"ios": "https://dc.lft.to/lastmile_qr_scan", "android": "https://dc.lft.to/lastmile_qr_scan"}, "type": "electric_scooter", "name": "d904fc8ebabbcf807ef5f6bff29ac920", "is_reserved": 0, "lon": -76.99508666666667, "is_disabled": 0, "fusion_lat": 0.0, "lat": 38.862440166666666, "bike_id": "d904fc8ebabbcf807ef5f6bff29ac920", "fusion_lon": 0.0}, {"rental_uris": {"ios": "https://dc.lft.to/lastmile_qr_scan", "android": "https://dc.lft.to/lastmile_qr_scan"}, "type": "electric_bike", "name": "534264b596edc8729797cb925ef3e3eb", "is_reserved": 0, "lon": -76.99911016666667, "is_disabled": 0, "fusion_lat": 0.0, "lat": 38.864448333333335, "bike_id": "534264b596edc8729797cb925ef3e3eb", "fusion_lon": 0.0}, {"rental_uris": {"ios": "https://dc.lft.to/lastmile_qr_scan", "android": "https://dc.lft.to/lastmile_qr_scan"}, "type": "electric_scooter", "name": "d6c923517a936a08bcca12c4bd882146", "is_reserved": 0, "lon": -77.022088, "is_disabled": 0, "fusion_lat": 0.0, "lat": 38.905398166666664, "bike_id": "d6c923517a936a08bcca12c4bd882146", "fusion_lon": 0.0}, {"rental_uris": {"ios": "https://dc.lft.to/lastmile_qr_scan", "android": "https://dc.lft.to/lastmile_qr_scan"}, "type": "electric_scooter", "name": "e878adf870dc74dac8378a1389e23c57", "is_reserved": 0, "lon": -77.0159235, "is_disabled": 0, "fusion_lat": 0.0, "lat": 38.916481166666664, "bike_id": "e878adf870dc74dac8378a1389e23c57", "fusion_lon": 0.0}, {"rental_uris": {"ios": "https://dc.lft.to/lastmile_qr_scan", "android": "https://dc.lft.to/lastmile_qr_scan"}, "type": "electric_scooter", "name": "befb9deef016d5ad9d4899e278920d44", "is_reserved": 0, "lon": -77.03461166666666, "is_disabled": 0, "fusion_lat": 0.0, "lat": 38.90731383333333, "bike_id": "befb9deef016d5ad9d4899e278920d44", "fusion_lon": 0.0}, {"rental_uris": {"ios": "https://dc.lft.to/lastmile_qr_scan", "android": "https://dc.lft.to/lastmile_qr_scan"}, "type": "electric_scooter", "name": "0e11b0a00f2902a7c131671829204525", "is_reserved": 0, "lon": -77.03961466666667, "is_disabled": 0, "fusion_lat": 0.0, "lat": 38.892488, "bike_id": "0e11b0a00f2902a7c131671829204525", "fusion_lon": 0.0}, {"rental_uris": {"ios": "https://dc.lft.to/lastmile_qr_scan", "android": "https://dc.lft.to/lastmile_qr_scan"}, "type": "electric_scooter", "name": "0af27f5a2d5b8ac39571f7558b7efcca", "is_reserved": 0, "lon": -77.03076816666666, "is_disabled": 0, "fusion_lat": 0.0, "lat": 38.9057665, "bike_id": "0af27f5a2d5b8ac39571f7558b7efcca", "fusion_lon": 0.0}, {"rental_uris": {"ios": "https://dc.lft.to/lastmile_qr_scan", "android": "https://dc.lft.to/lastmile_qr_scan"}, "type": "electric_bike", "name": "9e1221f54d37834dcccdbaa8e206fefe", "is_reserved": 0, "lon": -77.0259085, "is_disabled": 0, "fusion_lat": 0.0, "lat": 38.978726, "bike_id": "9e1221f54d37834dcccdbaa8e206fefe", "fusion_lon": 0.0}, {"rental_uris": {"ios": "https://dc.lft.to/lastmile_qr_scan", "android": "https://dc.lft.to/lastmile_qr_scan"}, "type": "electric_scooter", "name": "23559570ed582ed86aa762384ae3f866", "is_reserved": 0, "lon": -77.01095583333333, "is_disabled": 0, "fusion_lat": 0.0, "lat": 38.89783366666666, "bike_id": "23559570ed582ed86aa762384ae3f866", "fusion_lon": 0.0}, {"rental_uris": {"ios": "https://dc.lft.to/lastmile_qr_scan", "android": "https://dc.lft.to/lastmile_qr_scan"}, "type": "electric_scooter", "name": "78c2fbc6290b52ec36b3cbd826cc1683", "is_reserved": 0, "lon": -77.00404766666666, "is_disabled": 0, "fusion_lat": 0.0, "lat": 38.876936, "bike_id": "78c2fbc6290b52ec36b3cbd826cc1683", "fusion_lon": 0.0}, {"rental_uris": {"ios": "https://dc.lft.to/lastmile_qr_scan", "android": "https://dc.lft.to/lastmile_qr_scan"}, "type": "electric_scooter", "name": "3f66b43229115a4367af6f80dd8784fb", "is_reserved": 0, "lon": -77.0397565, "is_disabled": 0, "fusion_lat": 0.0, "lat": 38.9315025, "bike_id": "3f66b43229115a4367af6f80dd8784fb", "fusion_lon": 0.0}, {"rental_uris": {"ios": "https://dc.lft.to/lastmile_qr_scan", "android": "https://dc.lft.to/lastmile_qr_scan"}, "type": "electric_bike", "name": "faa05a9aeb7c5b490b846d97a8238dc0", "is_reserved": 0, "lon": -77.0695215, "is_disabled": 0, "fusion_lat": 0.0, "lat": 38.83626183333333, "bike_id": "faa05a9aeb7c5b490b846d97a8238dc0", "fusion_lon": 0.0}, {"rental_uris": {"ios": "https://dc.lft.to/lastmile_qr_scan", "android": "https://dc.lft.to/lastmile_qr_scan"}, "type": "electric_scooter", "name": "272499de0bb2d9ecd93422010cafce3f", "is_reserved": 0, "lon": -77.0243985, "is_disabled": 0, "fusion_lat": 0.0, "lat": 38.916932, "bike_id": "272499de0bb2d9ecd93422010cafce3f", "fusion_lon": 0.0}, {"rental_uris": {"ios": "https://dc.lft.to/lastmile_qr_scan", "android": "https://dc.lft.to/lastmile_qr_scan"}, "type": "electric_scooter", "name": "2d03b1d9a21f43ae4a66707effa73775", "is_reserved": 0, "lon": -76.997129, "is_disabled": 0, "fusion_lat": 0.0, "lat": 38.90818316666667, "bike_id": "2d03b1d9a21f43ae4a66707effa73775", "fusion_lon": 0.0}, {"rental_uris": {"ios": "https://dc.lft.to/lastmile_qr_scan", "android": "https://dc.lft.to/lastmile_qr_scan"}, "type": "electric_scooter", "name": "fd3bd4ed6fd13e7d06433f567a5d8482", "is_reserved": 0, "lon": -77.003818, "is_disabled": 0, "fusion_lat": 0.0, "lat": 38.87631666666667, "bike_id": "fd3bd4ed6fd13e7d06433f567a5d8482", "fusion_lon": 0.0}, {"rental_uris": {"ios": "https://dc.lft.to/lastmile_qr_scan", "android": "https://dc.lft.to/lastmile_qr_scan"}, "type": "electric_scooter", "name": "562aaef9348f2e311c99825c2c5b6810", "is_reserved": 0, "lon": -76.97328483333334, "is_disabled": 0, "fusion_lat": 0.0, "lat": 38.9040835, "bike_id": "562aaef9348f2e311c99825c2c5b6810", "fusion_lon": 0.0}, {"rental_uris": {"ios": "https://dc.lft.to/lastmile_qr_scan", "android": "https://dc.lft.to/lastmile_qr_scan"}, "type": "electric_scooter", "name": "6e7688736aa466b3e72c9aa3727c554d", "is_reserved": 0, "lon": -77.023531, "is_disabled": 0, "fusion_lat": 0.0, "lat": 38.9021825, "bike_id": "6e7688736aa466b3e72c9aa3727c554d", "fusion_lon": 0.0}, {"rental_uris": {"ios": "https://dc.lft.to/lastmile_qr_scan", "android": "https://dc.lft.to/lastmile_qr_scan"}, "type": "electric_scooter", "name": "4c7beecc7cfa96484ee1b5071325877a", "is_reserved": 0, "lon": -77.0611255, "is_disabled": 0, "fusion_lat": 0.0, "lat": 38.90475683333333, "bike_id": "4c7beecc7cfa96484ee1b5071325877a", "fusion_lon": 0.0}, {"rental_uris": {"ios": "https://dc.lft.to/lastmile_qr_scan", "android": "https://dc.lft.to/lastmile_qr_scan"}, "type": "electric_scooter", "name": "dc4bf5f4d48a7d25ef4753e1c1d6a1fd", "is_reserved": 0, "lon": -77.048258, "is_disabled": 0, "fusion_lat": 0.0, "lat": 38.91489983333334, "bike_id": "dc4bf5f4d48a7d25ef4753e1c1d6a1fd", "fusion_lon": 0.0}, {"rental_uris": {"ios": "https://dc.lft.to/lastmile_qr_scan", "android": "https://dc.lft.to/lastmile_qr_scan"}, "type": "electric_scooter", "name": "5d52bae7e3e46078309c745bb24d9296", "is_reserved": 0, "lon": -76.99589483333334, "is_disabled": 0, "fusion_lat": 0.0, "lat": 38.909429333333335, "bike_id": "5d52bae7e3e46078309c745bb24d9296", "fusion_lon": 0.0}, {"rental_uris": {"ios": "https://dc.lft.to/lastmile_qr_scan", "android": "https://dc.lft.to/lastmile_qr_scan"}, "type": "electric_scooter", "name": "8292c571863b5a78d4549300a90c1405", "is_reserved": 0, "lon": -77.00926666666666, "is_disabled": 0, "fusion_lat": 0.0, "lat": 38.89883616666667, "bike_id": "8292c571863b5a78d4549300a90c1405", "fusion_lon": 0.0}, {"rental_uris": {"ios": "https://dc.lft.to/lastmile_qr_scan", "android": "https://dc.lft.to/lastmile_qr_scan"}, "type": "electric_scooter", "name": "27f135af38fb6773448390ae62fb0d6c", "is_reserved": 0, "lon": -77.052332, "is_disabled": 0, "fusion_lat": 0.0, "lat": 38.900324166666664, "bike_id": "27f135af38fb6773448390ae62fb0d6c", "fusion_lon": 0.0}, {"rental_uris": {"ios": "https://dc.lft.to/lastmile_qr_scan", "android": "https://dc.lft.to/lastmile_qr_scan"}, "type": "electric_scooter", "name": "988e1759f1d4b27ecd019ea10ba0724d", "is_reserved": 0, "lon": -77.04338716666666, "is_disabled": 0, "fusion_lat": 0.0, "lat": 38.90798366666667, "bike_id": "988e1759f1d4b27ecd019ea10ba0724d", "fusion_lon": 0.0}, {"rental_uris": {"ios": "https://dc.lft.to/lastmile_qr_scan", "android": "https://dc.lft.to/lastmile_qr_scan"}, "type": "electric_scooter", "name": "bcd0019722ed831f22a19b3b3ac64d93", "is_reserved": 0, "lon": -77.03298483333333, "is_disabled": 0, "fusion_lat": 0.0, "lat": 38.90381566666667, "bike_id": "bcd0019722ed831f22a19b3b3ac64d93", "fusion_lon": 0.0}, {"rental_uris": {"ios": "https://dc.lft.to/lastmile_qr_scan", "android": "https://dc.lft.to/lastmile_qr_scan"}, "type": "electric_bike", "name": "b24ef18f254d4c87e3c592125e4e0f5a", "is_reserved": 0, "lon": -77.0014205, "is_disabled": 0, "fusion_lat": 0.0, "lat": 38.99503766666667, "bike_id": "b24ef18f254d4c87e3c592125e4e0f5a", "fusion_lon": 0.0}, {"rental_uris": {"ios": "https://dc.lft.to/lastmile_qr_scan", "android": "https://dc.lft.to/lastmile_qr_scan"}, "type": "electric_scooter", "name": "c7f8e1f719accbe8b115208eb58c1fbd", "is_reserved": 0, "lon": -77.00202533333334, "is_disabled": 0, "fusion_lat": 0.0, "lat": 38.893275333333335, "bike_id": "c7f8e1f719accbe8b115208eb58c1fbd", "fusion_lon": 0.0}, {"rental_uris": {"ios": "https://dc.lft.to/lastmile_qr_scan", "android": "https://dc.lft.to/lastmile_qr_scan"}, "type": "electric_scooter", "name": "45276511d23f68022a3c969d23ccc817", "is_reserved": 0, "lon": -77.04869266666667, "is_disabled": 0, "fusion_lat": 0.0, "lat": 38.89222, "bike_id": "45276511d23f68022a3c969d23ccc817", "fusion_lon": 0.0}, {"rental_uris": {"ios": "https://dc.lft.to/lastmile_qr_scan", "android": "https://dc.lft.to/lastmile_qr_scan"}, "type": "electric_scooter", "name": "c2c16131241b87b300265257f15a7f79", "is_reserved": 0, "lon": -77.0506185, "is_disabled": 0, "fusion_lat": 0.0, "lat": 38.9007615, "bike_id": "c2c16131241b87b300265257f15a7f79", "fusion_lon": 0.0}, {"rental_uris": {"ios": "https://dc.lft.to/lastmile_qr_scan", "android": "https://dc.lft.to/lastmile_qr_scan"}, "type": "electric_scooter", "name": "1a46d4eb85140e1b8a499d6ae8339c22", "is_reserved": 0, "lon": -76.979377, "is_disabled": 0, "fusion_lat": 0.0, "lat": 38.906589333333336, "bike_id": "1a46d4eb85140e1b8a499d6ae8339c22", "fusion_lon": 0.0}, {"rental_uris": {"ios": "https://dc.lft.to/lastmile_qr_scan", "android": "https://dc.lft.to/lastmile_qr_scan"}, "type": "electric_scooter", "name": "a7c1d1bcbbda182dc5275714131b3fde", "is_reserved": 0, "lon": -77.05142616666667, "is_disabled": 0, "fusion_lat": 0.0, "lat": 38.90473583333333, "bike_id": "a7c1d1bcbbda182dc5275714131b3fde", "fusion_lon": 0.0}, {"rental_uris": {"ios": "https://dc.lft.to/lastmile_qr_scan", "android": "https://dc.lft.to/lastmile_qr_scan"}, "type": "electric_scooter", "name": "708b356f1f25ba0d9e48c7334844ed30", "is_reserved": 0, "lon": -77.0379595, "is_disabled": 0, "fusion_lat": 0.0, "lat": 38.91539366666667, "bike_id": "708b356f1f25ba0d9e48c7334844ed30", "fusion_lon": 0.0}, {"rental_uris": {"ios": "https://dc.lft.to/lastmile_qr_scan", "android": "https://dc.lft.to/lastmile_qr_scan"}, "type": "electric_bike", "name": "e3c45c8be76c7801d842206b1e62c692", "is_reserved": 0, "lon": -76.9692175, "is_disabled": 0, "fusion_lat": 0.0, "lat": 38.84607716666667, "bike_id": "e3c45c8be76c7801d842206b1e62c692", "fusion_lon": 0.0}, {"rental_uris": {"ios": "https://dc.lft.to/lastmile_qr_scan", "android": "https://dc.lft.to/lastmile_qr_scan"}, "type": "electric_bike", "name": "e901776b31d738db2932838e0d8d5aa4", "is_reserved": 0, "lon": -77.07242616666667, "is_disabled": 0, "fusion_lat": 0.0, "lat": 38.81362566666667, "bike_id": "e901776b31d738db2932838e0d8d5aa4", "fusion_lon": 0.0}, {"rental_uris": {"ios": "https://dc.lft.to/lastmile_qr_scan", "android": "https://dc.lft.to/lastmile_qr_scan"}, "type": "electric_scooter", "name": "a79b2ac968abfffb73e3defafba75a02", "is_reserved": 0, "lon": -77.0204495, "is_disabled": 0, "fusion_lat": 0.0, "lat": 38.911125, "bike_id": "a79b2ac968abfffb73e3defafba75a02", "fusion_lon": 0.0}, {"rental_uris": {"ios": "https://dc.lft.to/lastmile_qr_scan", "android": "https://dc.lft.to/lastmile_qr_scan"}, "type": "electric_scooter", "name": "c0ad7bbdf795f5ca214af29d06565cba", "is_reserved": 0, "lon": -77.02816083333333, "is_disabled": 0, "fusion_lat": 0.0, "lat": 38.91095383333333, "bike_id": "c0ad7bbdf795f5ca214af29d06565cba", "fusion_lon": 0.0}, {"rental_uris": {"ios": "https://dc.lft.to/lastmile_qr_scan", "android": "https://dc.lft.to/lastmile_qr_scan"}, "type": "electric_scooter", "name": "ede90ac32fbba0089029948532102e08", "is_reserved": 0, "lon": -77.0441105, "is_disabled": 0, "fusion_lat": 0.0, "lat": 38.92578366666667, "bike_id": "ede90ac32fbba0089029948532102e08", "fusion_lon": 0.0}, {"rental_uris": {"ios": "https://dc.lft.to/lastmile_qr_scan", "android": "https://dc.lft.to/lastmile_qr_scan"}, "type": "electric_scooter", "name": "b83f8420062e2f31cef249eeada269d8", "is_reserved": 0, "lon": -77.04736233333334, "is_disabled": 0, "fusion_lat": 0.0, "lat": 38.9017955, "bike_id": "b83f8420062e2f31cef249eeada269d8", "fusion_lon": 0.0}, {"rental_uris": {"ios": "https://dc.lft.to/lastmile_qr_scan", "android": "https://dc.lft.to/lastmile_qr_scan"}, "type": "electric_scooter", "name": "59b70cf608491f4e9802e47a44439e18", "is_reserved": 0, "lon": -77.05005783333333, "is_disabled": 0, "fusion_lat": 0.0, "lat": 38.89226683333333, "bike_id": "59b70cf608491f4e9802e47a44439e18", "fusion_lon": 0.0}, {"rental_uris": {"ios": "https://dc.lft.to/lastmile_qr_scan", "android": "https://dc.lft.to/lastmile_qr_scan"}, "type": "electric_scooter", "name": "a4778dd10b2bb6de9dbc8f99c2cea10d", "is_reserved": 0, "lon": -76.98570083333334, "is_disabled": 0, "fusion_lat": 0.0, "lat": 38.8961655, "bike_id": "a4778dd10b2bb6de9dbc8f99c2cea10d", "fusion_lon": 0.0}, {"rental_uris": {"ios": "https://dc.lft.to/lastmile_qr_scan", "android": "https://dc.lft.to/lastmile_qr_scan"}, "type": "electric_scooter", "name": "08b86785b98969bacde3b2482a7c3203", "is_reserved": 0, "lon": -76.94329516666667, "is_disabled": 0, "fusion_lat": 0.0, "lat": 38.879159, "bike_id": "08b86785b98969bacde3b2482a7c3203", "fusion_lon": 0.0}, {"rental_uris": {"ios": "https://dc.lft.to/lastmile_qr_scan", "android": "https://dc.lft.to/lastmile_qr_scan"}, "type": "electric_scooter", "name": "093b395555ce59345a61ef744308a8a1", "is_reserved": 0, "lon": -77.03442183333334, "is_disabled": 0, "fusion_lat": 0.0, "lat": 38.918165, "bike_id": "093b395555ce59345a61ef744308a8a1", "fusion_lon": 0.0}, {"rental_uris": {"ios": "https://dc.lft.to/lastmile_qr_scan", "android": "https://dc.lft.to/lastmile_qr_scan"}, "type": "electric_scooter", "name": "aa59eecc941157a03b4b34123fc1eb70", "is_reserved": 0, "lon": -77.02760816666667, "is_disabled": 0, "fusion_lat": 0.0, "lat": 38.91341516666667, "bike_id": "aa59eecc941157a03b4b34123fc1eb70", "fusion_lon": 0.0}, {"rental_uris": {"ios": "https://dc.lft.to/lastmile_qr_scan", "android": "https://dc.lft.to/lastmile_qr_scan"}, "type": "electric_scooter", "name": "f273af988fab2e0697dc0b3edc94edf7", "is_reserved": 0, "lon": -77.0208995, "is_disabled": 0, "fusion_lat": 0.0, "lat": 38.907300666666664, "bike_id": "f273af988fab2e0697dc0b3edc94edf7", "fusion_lon": 0.0}, {"rental_uris": {"ios": "https://dc.lft.to/lastmile_qr_scan", "android": "https://dc.lft.to/lastmile_qr_scan"}, "type": "electric_scooter", "name": "6b808069306e3e6b02cc9981e569037b", "is_reserved": 0, "lon": -77.0403915, "is_disabled": 0, "fusion_lat": 0.0, "lat": 38.92455233333333, "bike_id": "6b808069306e3e6b02cc9981e569037b", "fusion_lon": 0.0}, {"rental_uris": {"ios": "https://dc.lft.to/lastmile_qr_scan", "android": "https://dc.lft.to/lastmile_qr_scan"}, "type": "electric_scooter", "name": "53cbc533c741719eb3ae9a0061c195fa", "is_reserved": 0, "lon": -77.04823466666667, "is_disabled": 0, "fusion_lat": 0.0, "lat": 38.909601, "bike_id": "53cbc533c741719eb3ae9a0061c195fa", "fusion_lon": 0.0}, {"rental_uris": {"ios": "https://dc.lft.to/lastmile_qr_scan", "android": "https://dc.lft.to/lastmile_qr_scan"}, "type": "electric_scooter", "name": "5ee1517cc2a9df4ace13787a53fdf429", "is_reserved": 0, "lon": -77.03213933333333, "is_disabled": 0, "fusion_lat": 0.0, "lat": 38.898417333333335, "bike_id": "5ee1517cc2a9df4ace13787a53fdf429", "fusion_lon": 0.0}, {"rental_uris": {"ios": "https://dc.lft.to/lastmile_qr_scan", "android": "https://dc.lft.to/lastmile_qr_scan"}, "type": "electric_scooter", "name": "072efc5223115bc6d6e8126ec156ff0b", "is_reserved": 0, "lon": -77.03326333333334, "is_disabled": 0, "fusion_lat": 0.0, "lat": 38.918, "bike_id": "072efc5223115bc6d6e8126ec156ff0b", "fusion_lon": 0.0}, {"rental_uris": {"ios": "https://dc.lft.to/lastmile_qr_scan", "android": "https://dc.lft.to/lastmile_qr_scan"}, "type": "electric_scooter", "name": "2dc55ae8a1962898ef227aaea5d412b5", "is_reserved": 0, "lon": -77.0526505, "is_disabled": 0, "fusion_lat": 0.0, "lat": 38.925648, "bike_id": "2dc55ae8a1962898ef227aaea5d412b5", "fusion_lon": 0.0}, {"rental_uris": {"ios": "https://dc.lft.to/lastmile_qr_scan", "android": "https://dc.lft.to/lastmile_qr_scan"}, "type": "electric_scooter", "name": "f13185d5a49b42b200a247f89d21555c", "is_reserved": 0, "lon": -77.03943533333333, "is_disabled": 0, "fusion_lat": 0.0, "lat": 38.9016565, "bike_id": "f13185d5a49b42b200a247f89d21555c", "fusion_lon": 0.0}, {"rental_uris": {"ios": "https://dc.lft.to/lastmile_qr_scan", "android": "https://dc.lft.to/lastmile_qr_scan"}, "type": "electric_scooter", "name": "3c77e887f6e2ac88c97c96cd680f952b", "is_reserved": 0, "lon": -77.06932433333333, "is_disabled": 0, "fusion_lat": 0.0, "lat": 38.913789333333334, "bike_id": "3c77e887f6e2ac88c97c96cd680f952b", "fusion_lon": 0.0}, {"rental_uris": {"ios": "https://dc.lft.to/lastmile_qr_scan", "android": "https://dc.lft.to/lastmile_qr_scan"}, "type": "electric_scooter", "name": "fc028e5de973bf8445b11d0620136d7e", "is_reserved": 0, "lon": -77.02719716666667, "is_disabled": 0, "fusion_lat": 0.0, "lat": 38.915424333333334, "bike_id": "fc028e5de973bf8445b11d0620136d7e", "fusion_lon": 0.0}, {"rental_uris": {"ios": "https://dc.lft.to/lastmile_qr_scan", "android": "https://dc.lft.to/lastmile_qr_scan"}, "type": "electric_scooter", "name": "9209dd542e216668835443490b48ce1e", "is_reserved": 0, "lon": -77.0109745, "is_disabled": 0, "fusion_lat": 0.0, "lat": 38.8948485, "bike_id": "9209dd542e216668835443490b48ce1e", "fusion_lon": 0.0}, {"rental_uris": {"ios": "https://dc.lft.to/lastmile_qr_scan", "android": "https://dc.lft.to/lastmile_qr_scan"}, "type": "electric_scooter", "name": "07417a44e541b5f4d3b508ab7259b367", "is_reserved": 0, "lon": -77.02309483333333, "is_disabled": 0, "fusion_lat": 0.0, "lat": 38.916158, "bike_id": "07417a44e541b5f4d3b508ab7259b367", "fusion_lon": 0.0}, {"rental_uris": {"ios": "https://dc.lft.to/lastmile_qr_scan", "android": "https://dc.lft.to/lastmile_qr_scan"}, "type": "electric_scooter", "name": "1d6f6b718b64db8473bc59bd8e292e00", "is_reserved": 0, "lon": -77.0355575, "is_disabled": 0, "fusion_lat": 0.0, "lat": 38.922754833333336, "bike_id": "1d6f6b718b64db8473bc59bd8e292e00", "fusion_lon": 0.0}, {"rental_uris": {"ios": "https://dc.lft.to/lastmile_qr_scan", "android": "https://dc.lft.to/lastmile_qr_scan"}, "type": "electric_scooter", "name": "f4878f581736885415eebd1075d16929", "is_reserved": 0, "lon": -77.03944483333333, "is_disabled": 0, "fusion_lat": 0.0, "lat": 38.90101333333333, "bike_id": "f4878f581736885415eebd1075d16929", "fusion_lon": 0.0}, {"rental_uris": {"ios": "https://dc.lft.to/lastmile_qr_scan", "android": "https://dc.lft.to/lastmile_qr_scan"}, "type": "electric_scooter", "name": "045192465484aa611d761a69004b8a82", "is_reserved": 0, "lon": -77.04892933333333, "is_disabled": 0, "fusion_lat": 0.0, "lat": 38.91841816666667, "bike_id": "045192465484aa611d761a69004b8a82", "fusion_lon": 0.0}, {"rental_uris": {"ios": "https://dc.lft.to/lastmile_qr_scan", "android": "https://dc.lft.to/lastmile_qr_scan"}, "type": "electric_scooter", "name": "e56ea8bf11c9f8ee0e0170737cde5cc8", "is_reserved": 0, "lon": -77.03607, "is_disabled": 0, "fusion_lat": 0.0, "lat": 38.91699216666667, "bike_id": "e56ea8bf11c9f8ee0e0170737cde5cc8", "fusion_lon": 0.0}, {"rental_uris": {"ios": "https://dc.lft.to/lastmile_qr_scan", "android": "https://dc.lft.to/lastmile_qr_scan"}, "type": "electric_scooter", "name": "c39c3c91a6c9848d10b390de9b9baef4", "is_reserved": 0, "lon": -77.04292233333334, "is_disabled": 0, "fusion_lat": 0.0, "lat": 38.906592833333335, "bike_id": "c39c3c91a6c9848d10b390de9b9baef4", "fusion_lon": 0.0}, {"rental_uris": {"ios": "https://dc.lft.to/lastmile_qr_scan", "android": "https://dc.lft.to/lastmile_qr_scan"}, "type": "electric_scooter", "name": "ef4aa9f0abf1e3ad09e7fcd79c4d88ce", "is_reserved": 0, "lon": -77.02212366666667, "is_disabled": 0, "fusion_lat": 0.0, "lat": 38.898919666666664, "bike_id": "ef4aa9f0abf1e3ad09e7fcd79c4d88ce", "fusion_lon": 0.0}, {"rental_uris": {"ios": "https://dc.lft.to/lastmile_qr_scan", "android": "https://dc.lft.to/lastmile_qr_scan"}, "type": "electric_bike", "name": "d8e7b1b265f56d597a1e8da464da364c", "is_reserved": 0, "lon": -76.96156416666666, "is_disabled": 0, "fusion_lat": 0.0, "lat": 38.85614966666667, "bike_id": "d8e7b1b265f56d597a1e8da464da364c", "fusion_lon": 0.0}, {"rental_uris": {"ios": "https://dc.lft.to/lastmile_qr_scan", "android": "https://dc.lft.to/lastmile_qr_scan"}, "type": "electric_scooter", "name": "99a99ce78611f48f62b0c9c95783f6f6", "is_reserved": 0, "lon": -76.97334983333333, "is_disabled": 0, "fusion_lat": 0.0, "lat": 38.90406566666667, "bike_id": "99a99ce78611f48f62b0c9c95783f6f6", "fusion_lon": 0.0}, {"rental_uris": {"ios": "https://dc.lft.to/lastmile_qr_scan", "android": "https://dc.lft.to/lastmile_qr_scan"}, "type": "electric_scooter", "name": "1171f91b8af6bcfa0a764330f89a3f49", "is_reserved": 0, "lon": -77.0057475, "is_disabled": 0, "fusion_lat": 0.0, "lat": 38.87452316666667, "bike_id": "1171f91b8af6bcfa0a764330f89a3f49", "fusion_lon": 0.0}, {"rental_uris": {"ios": "https://dc.lft.to/lastmile_qr_scan", "android": "https://dc.lft.to/lastmile_qr_scan"}, "type": "electric_scooter", "name": "d6b3987d1fe554915a640b647a0a1155", "is_reserved": 0, "lon": -77.0158235, "is_disabled": 0, "fusion_lat": 0.0, "lat": 38.91669483333333, "bike_id": "d6b3987d1fe554915a640b647a0a1155", "fusion_lon": 0.0}, {"rental_uris": {"ios": "https://dc.lft.to/lastmile_qr_scan", "android": "https://dc.lft.to/lastmile_qr_scan"}, "type": "electric_scooter", "name": "c7fe62a7f021ec0f1ddff0b9f74c11e3", "is_reserved": 0, "lon": -77.0122715, "is_disabled": 0, "fusion_lat": 0.0, "lat": 38.91467133333333, "bike_id": "c7fe62a7f021ec0f1ddff0b9f74c11e3", "fusion_lon": 0.0}, {"rental_uris": {"ios": "https://dc.lft.to/lastmile_qr_scan", "android": "https://dc.lft.to/lastmile_qr_scan"}, "type": "electric_scooter", "name": "248516d140e425b34bfda5cd24738c92", "is_reserved": 0, "lon": -76.977226, "is_disabled": 0, "fusion_lat": 0.0, "lat": 38.8882, "bike_id": "248516d140e425b34bfda5cd24738c92", "fusion_lon": 0.0}, {"rental_uris": {"ios": "https://dc.lft.to/lastmile_qr_scan", "android": "https://dc.lft.to/lastmile_qr_scan"}, "type": "electric_scooter", "name": "3949082834fc00572c9e32c1b8e189cc", "is_reserved": 0, "lon": -77.02294083333334, "is_disabled": 0, "fusion_lat": 0.0, "lat": 38.878763166666666, "bike_id": "3949082834fc00572c9e32c1b8e189cc", "fusion_lon": 0.0}, {"rental_uris": {"ios": "https://dc.lft.to/lastmile_qr_scan", "android": "https://dc.lft.to/lastmile_qr_scan"}, "type": "electric_scooter", "name": "b30d1d2c9e5170ca90f24f02799b6381", "is_reserved": 0, "lon": -77.01093366666667, "is_disabled": 0, "fusion_lat": 0.0, "lat": 38.8946955, "bike_id": "b30d1d2c9e5170ca90f24f02799b6381", "fusion_lon": 0.0}, {"rental_uris": {"ios": "https://dc.lft.to/lastmile_qr_scan", "android": "https://dc.lft.to/lastmile_qr_scan"}, "type": "electric_bike", "name": "b0c8a79224516884462deb241801ae39", "is_reserved": 0, "lon": -77.09966783333333, "is_disabled": 0, "fusion_lat": 0.0, "lat": 38.857822166666665, "bike_id": "b0c8a79224516884462deb241801ae39", "fusion_lon": 0.0}, {"rental_uris": {"ios": "https://dc.lft.to/lastmile_qr_scan", "android": "https://dc.lft.to/lastmile_qr_scan"}, "type": "electric_scooter", "name": "c5b646bf519d0936e91e5ca88151f4c4", "is_reserved": 0, "lon": -76.99178566666667, "is_disabled": 0, "fusion_lat": 0.0, "lat": 38.889323, "bike_id": "c5b646bf519d0936e91e5ca88151f4c4", "fusion_lon": 0.0}, {"rental_uris": {"ios": "https://dc.lft.to/lastmile_qr_scan", "android": "https://dc.lft.to/lastmile_qr_scan"}, "type": "electric_scooter", "name": "2580b6070c554aacec6eafa68de6cab9", "is_reserved": 0, "lon": -77.0137895, "is_disabled": 0, "fusion_lat": 0.0, "lat": 38.869532166666666, "bike_id": "2580b6070c554aacec6eafa68de6cab9", "fusion_lon": 0.0}, {"rental_uris": {"ios": "https://dc.lft.to/lastmile_qr_scan", "android": "https://dc.lft.to/lastmile_qr_scan"}, "type": "electric_scooter", "name": "ffeacbcb621e7d58e75add20ac37b75d", "is_reserved": 0, "lon": -77.033908, "is_disabled": 0, "fusion_lat": 0.0, "lat": 38.9026795, "bike_id": "ffeacbcb621e7d58e75add20ac37b75d", "fusion_lon": 0.0}, {"rental_uris": {"ios": "https://dc.lft.to/lastmile_qr_scan", "android": "https://dc.lft.to/lastmile_qr_scan"}, "type": "electric_scooter", "name": "36289fa02bb4321a69214445cd9d4071", "is_reserved": 0, "lon": -77.0253745, "is_disabled": 0, "fusion_lat": 0.0, "lat": 38.92072983333333, "bike_id": "36289fa02bb4321a69214445cd9d4071", "fusion_lon": 0.0}, {"rental_uris": {"ios": "https://dc.lft.to/lastmile_qr_scan", "android": "https://dc.lft.to/lastmile_qr_scan"}, "type": "electric_scooter", "name": "711d5e48badcce86f61f2af6f974e555", "is_reserved": 0, "lon": -77.00335283333334, "is_disabled": 0, "fusion_lat": 0.0, "lat": 38.89728616666667, "bike_id": "711d5e48badcce86f61f2af6f974e555", "fusion_lon": 0.0}, {"rental_uris": {"ios": "https://dc.lft.to/lastmile_qr_scan", "android": "https://dc.lft.to/lastmile_qr_scan"}, "type": "electric_scooter", "name": "ba8415a408ea965acf16e7d6e4f036e1", "is_reserved": 0, "lon": -77.05496816666667, "is_disabled": 0, "fusion_lat": 0.0, "lat": 38.90843516666666, "bike_id": "ba8415a408ea965acf16e7d6e4f036e1", "fusion_lon": 0.0}, {"rental_uris": {"ios": "https://dc.lft.to/lastmile_qr_scan", "android": "https://dc.lft.to/lastmile_qr_scan"}, "type": "electric_scooter", "name": "b3ee77659b5b7b7422c936d8ed93bcd4", "is_reserved": 0, "lon": -76.97941166666666, "is_disabled": 0, "fusion_lat": 0.0, "lat": 38.915993666666665, "bike_id": "b3ee77659b5b7b7422c936d8ed93bcd4", "fusion_lon": 0.0}, {"rental_uris": {"ios": "https://dc.lft.to/lastmile_qr_scan", "android": "https://dc.lft.to/lastmile_qr_scan"}, "type": "electric_scooter", "name": "c21ca9644e0e424300466b2d87e73599", "is_reserved": 0, "lon": -77.033257, "is_disabled": 0, "fusion_lat": 0.0, "lat": 38.9039595, "bike_id": "c21ca9644e0e424300466b2d87e73599", "fusion_lon": 0.0}, {"rental_uris": {"ios": "https://dc.lft.to/lastmile_qr_scan", "android": "https://dc.lft.to/lastmile_qr_scan"}, "type": "electric_scooter", "name": "fdf23d80443b1a1272765c3f0ef07e7a", "is_reserved": 0, "lon": -77.02588483333334, "is_disabled": 0, "fusion_lat": 0.0, "lat": 38.88435033333333, "bike_id": "fdf23d80443b1a1272765c3f0ef07e7a", "fusion_lon": 0.0}, {"rental_uris": {"ios": "https://dc.lft.to/lastmile_qr_scan", "android": "https://dc.lft.to/lastmile_qr_scan"}, "type": "electric_scooter", "name": "d9c35f9b14ab50a3f9a508631177c41f", "is_reserved": 0, "lon": -77.05331533333333, "is_disabled": 0, "fusion_lat": 0.0, "lat": 38.90644983333333, "bike_id": "d9c35f9b14ab50a3f9a508631177c41f", "fusion_lon": 0.0}, {"rental_uris": {"ios": "https://dc.lft.to/lastmile_qr_scan", "android": "https://dc.lft.to/lastmile_qr_scan"}, "type": "electric_bike", "name": "19b9042108068c3af76ee3276faf565b", "is_reserved": 0, "lon": -76.95260283333333, "is_disabled": 0, "fusion_lat": 0.0, "lat": 38.906884166666664, "bike_id": "19b9042108068c3af76ee3276faf565b", "fusion_lon": 0.0}, {"rental_uris": {"ios": "https://dc.lft.to/lastmile_qr_scan", "android": "https://dc.lft.to/lastmile_qr_scan"}, "type": "electric_scooter", "name": "3b926673938029b3201428b7bb1421fd", "is_reserved": 0, "lon": -77.02337733333333, "is_disabled": 0, "fusion_lat": 0.0, "lat": 38.9223195, "bike_id": "3b926673938029b3201428b7bb1421fd", "fusion_lon": 0.0}, {"rental_uris": {"ios": "https://dc.lft.to/lastmile_qr_scan", "android": "https://dc.lft.to/lastmile_qr_scan"}, "type": "electric_scooter", "name": "e1a3f5075873c5ec9ab7d6fa308f74ae", "is_reserved": 0, "lon": -77.0339325, "is_disabled": 0, "fusion_lat": 0.0, "lat": 38.902697833333335, "bike_id": "e1a3f5075873c5ec9ab7d6fa308f74ae", "fusion_lon": 0.0}, {"rental_uris": {"ios": "https://dc.lft.to/lastmile_qr_scan", "android": "https://dc.lft.to/lastmile_qr_scan"}, "type": "electric_scooter", "name": "f0d51a9643f4a60a394beee817d2de9b", "is_reserved": 0, "lon": -77.03877383333334, "is_disabled": 0, "fusion_lat": 0.0, "lat": 38.90364116666667, "bike_id": "f0d51a9643f4a60a394beee817d2de9b", "fusion_lon": 0.0}, {"rental_uris": {"ios": "https://dc.lft.to/lastmile_qr_scan", "android": "https://dc.lft.to/lastmile_qr_scan"}, "type": "electric_scooter", "name": "8ffbac8137b5e84d2411e8f0449ccd49", "is_reserved": 0, "lon": -77.0443435, "is_disabled": 0, "fusion_lat": 0.0, "lat": 38.89754766666667, "bike_id": "8ffbac8137b5e84d2411e8f0449ccd49", "fusion_lon": 0.0}, {"rental_uris": {"ios": "https://dc.lft.to/lastmile_qr_scan", "android": "https://dc.lft.to/lastmile_qr_scan"}, "type": "electric_scooter", "name": "e9d1a6c1025e6aac148046869a636c31", "is_reserved": 0, "lon": -77.03780133333333, "is_disabled": 0, "fusion_lat": 0.0, "lat": 38.91574716666667, "bike_id": "e9d1a6c1025e6aac148046869a636c31", "fusion_lon": 0.0}, {"rental_uris": {"ios": "https://dc.lft.to/lastmile_qr_scan", "android": "https://dc.lft.to/lastmile_qr_scan"}, "type": "electric_scooter", "name": "980eec470798548fbe24cf2fb258b256", "is_reserved": 0, "lon": -77.0270445, "is_disabled": 0, "fusion_lat": 0.0, "lat": 38.9258915, "bike_id": "980eec470798548fbe24cf2fb258b256", "fusion_lon": 0.0}, {"rental_uris": {"ios": "https://dc.lft.to/lastmile_qr_scan", "android": "https://dc.lft.to/lastmile_qr_scan"}, "type": "electric_scooter", "name": "fe984f767c3023e9f5a85986fbd90f7c", "is_reserved": 0, "lon": -77.0334605, "is_disabled": 0, "fusion_lat": 0.0, "lat": 38.897503, "bike_id": "fe984f767c3023e9f5a85986fbd90f7c", "fusion_lon": 0.0}, {"rental_uris": {"ios": "https://dc.lft.to/lastmile_qr_scan", "android": "https://dc.lft.to/lastmile_qr_scan"}, "type": "electric_scooter", "name": "0123796a689de83583d872998a7d3d27", "is_reserved": 0, "lon": -77.0572825, "is_disabled": 0, "fusion_lat": 0.0, "lat": 38.933349, "bike_id": "0123796a689de83583d872998a7d3d27", "fusion_lon": 0.0}, {"rental_uris": {"ios": "https://dc.lft.to/lastmile_qr_scan", "android": "https://dc.lft.to/lastmile_qr_scan"}, "type": "electric_scooter", "name": "e9ce31985bd05827025b5cc9a73bd831", "is_reserved": 0, "lon": -77.00429683333333, "is_disabled": 0, "fusion_lat": 0.0, "lat": 38.88513116666667, "bike_id": "e9ce31985bd05827025b5cc9a73bd831", "fusion_lon": 0.0}, {"rental_uris": {"ios": "https://dc.lft.to/lastmile_qr_scan", "android": "https://dc.lft.to/lastmile_qr_scan"}, "type": "electric_scooter", "name": "6f848c637040aa6a31da1133e655eb52", "is_reserved": 0, "lon": -77.03199233333333, "is_disabled": 0, "fusion_lat": 0.0, "lat": 38.930705833333334, "bike_id": "6f848c637040aa6a31da1133e655eb52", "fusion_lon": 0.0}, {"rental_uris": {"ios": "https://dc.lft.to/lastmile_qr_scan", "android": "https://dc.lft.to/lastmile_qr_scan"}, "type": "electric_scooter", "name": "94e088c2a745e7224b3b2bea1e3e6e36", "is_reserved": 0, "lon": -77.04376066666667, "is_disabled": 0, "fusion_lat": 0.0, "lat": 38.934929, "bike_id": "94e088c2a745e7224b3b2bea1e3e6e36", "fusion_lon": 0.0}, {"rental_uris": {"ios": "https://dc.lft.to/lastmile_qr_scan", "android": "https://dc.lft.to/lastmile_qr_scan"}, "type": "electric_scooter", "name": "4852cbc16a0d59bc911ff126c9e8f38a", "is_reserved": 0, "lon": -77.0144535, "is_disabled": 0, "fusion_lat": 0.0, "lat": 38.91112433333333, "bike_id": "4852cbc16a0d59bc911ff126c9e8f38a", "fusion_lon": 0.0}, {"rental_uris": {"ios": "https://dc.lft.to/lastmile_qr_scan", "android": "https://dc.lft.to/lastmile_qr_scan"}, "type": "electric_scooter", "name": "9862ad8056039334c3650d8f2fa45fe6", "is_reserved": 0, "lon": -77.03802583333334, "is_disabled": 0, "fusion_lat": 0.0, "lat": 38.930992, "bike_id": "9862ad8056039334c3650d8f2fa45fe6", "fusion_lon": 0.0}, {"rental_uris": {"ios": "https://dc.lft.to/lastmile_qr_scan", "android": "https://dc.lft.to/lastmile_qr_scan"}, "type": "electric_bike", "name": "a5c25db4c8b54cc461a196ef45614c24", "is_reserved": 0, "lon": -76.9524295, "is_disabled": 0, "fusion_lat": 0.0, "lat": 38.884639666666665, "bike_id": "a5c25db4c8b54cc461a196ef45614c24", "fusion_lon": 0.0}, {"rental_uris": {"ios": "https://dc.lft.to/lastmile_qr_scan", "android": "https://dc.lft.to/lastmile_qr_scan"}, "type": "electric_scooter", "name": "20ffae2417077069cb0bee366fecd805", "is_reserved": 0, "lon": -77.02100016666667, "is_disabled": 0, "fusion_lat": 0.0, "lat": 38.915570833333334, "bike_id": "20ffae2417077069cb0bee366fecd805", "fusion_lon": 0.0}, {"rental_uris": {"ios": "https://dc.lft.to/lastmile_qr_scan", "android": "https://dc.lft.to/lastmile_qr_scan"}, "type": "electric_bike", "name": "d5fb5f99342a3a820f6f1cb044565748", "is_reserved": 0, "lon": -77.07354566666666, "is_disabled": 0, "fusion_lat": 0.0, "lat": 38.961525, "bike_id": "d5fb5f99342a3a820f6f1cb044565748", "fusion_lon": 0.0}, {"rental_uris": {"ios": "https://dc.lft.to/lastmile_qr_scan", "android": "https://dc.lft.to/lastmile_qr_scan"}, "type": "electric_bike", "name": "c1e074ad4ca92487dcf298f1787ae852", "is_reserved": 0, "lon": -76.94555066666666, "is_disabled": 0, "fusion_lat": 0.0, "lat": 38.9830535, "bike_id": "c1e074ad4ca92487dcf298f1787ae852", "fusion_lon": 0.0}, {"rental_uris": {"ios": "https://dc.lft.to/lastmile_qr_scan", "android": "https://dc.lft.to/lastmile_qr_scan"}, "type": "electric_scooter", "name": "53de10164854599129a202627c2b92e4", "is_reserved": 0, "lon": -77.08402233333334, "is_disabled": 0, "fusion_lat": 0.0, "lat": 38.90807866666667, "bike_id": "53de10164854599129a202627c2b92e4", "fusion_lon": 0.0}, {"rental_uris": {"ios": "https://dc.lft.to/lastmile_qr_scan", "android": "https://dc.lft.to/lastmile_qr_scan"}, "type": "electric_scooter", "name": "fef16b6a6e3091f94f3bd8ff26d78f59", "is_reserved": 0, "lon": -77.06704066666667, "is_disabled": 0, "fusion_lat": 0.0, "lat": 38.94796783333334, "bike_id": "fef16b6a6e3091f94f3bd8ff26d78f59", "fusion_lon": 0.0}, {"rental_uris": {"ios": "https://dc.lft.to/lastmile_qr_scan", "android": "https://dc.lft.to/lastmile_qr_scan"}, "type": "electric_bike", "name": "20258506d4ed9e090926c5e9ac07ae81", "is_reserved": 0, "lon": -77.07521883333334, "is_disabled": 0, "fusion_lat": 0.0, "lat": 38.842847, "bike_id": "20258506d4ed9e090926c5e9ac07ae81", "fusion_lon": 0.0}, {"rental_uris": {"ios": "https://dc.lft.to/lastmile_qr_scan", "android": "https://dc.lft.to/lastmile_qr_scan"}, "type": "electric_scooter", "name": "b039ea4ed8a4f2277537a703b0c62264", "is_reserved": 0, "lon": -77.04459366666667, "is_disabled": 0, "fusion_lat": 0.0, "lat": 38.90042233333333, "bike_id": "b039ea4ed8a4f2277537a703b0c62264", "fusion_lon": 0.0}, {"rental_uris": {"ios": "https://dc.lft.to/lastmile_qr_scan", "android": "https://dc.lft.to/lastmile_qr_scan"}, "type": "electric_scooter", "name": "3e6f5639d117e2d1dc8f67ad6dc20f4a", "is_reserved": 0, "lon": -77.03207533333334, "is_disabled": 0, "fusion_lat": 0.0, "lat": 38.898413166666664, "bike_id": "3e6f5639d117e2d1dc8f67ad6dc20f4a", "fusion_lon": 0.0}, {"rental_uris": {"ios": "https://dc.lft.to/lastmile_qr_scan", "android": "https://dc.lft.to/lastmile_qr_scan"}, "type": "electric_scooter", "name": "03c8b2ef5bd6f36af02c3f9a57fa4370", "is_reserved": 0, "lon": -77.03912733333334, "is_disabled": 0, "fusion_lat": 0.0, "lat": 38.90172283333333, "bike_id": "03c8b2ef5bd6f36af02c3f9a57fa4370", "fusion_lon": 0.0}, {"rental_uris": {"ios": "https://dc.lft.to/lastmile_qr_scan", "android": "https://dc.lft.to/lastmile_qr_scan"}, "type": "electric_scooter", "name": "77e2e841759bf520f23599a41b5a43d3", "is_reserved": 0, "lon": -77.06795733333334, "is_disabled": 0, "fusion_lat": 0.0, "lat": 38.904074333333334, "bike_id": "77e2e841759bf520f23599a41b5a43d3", "fusion_lon": 0.0}, {"rental_uris": {"ios": "https://dc.lft.to/lastmile_qr_scan", "android": "https://dc.lft.to/lastmile_qr_scan"}, "type": "electric_scooter", "name": "32a7bc584da0b61ddf6a3091288d2733", "is_reserved": 0, "lon": -77.03226233333334, "is_disabled": 0, "fusion_lat": 0.0, "lat": 38.909744, "bike_id": "32a7bc584da0b61ddf6a3091288d2733", "fusion_lon": 0.0}, {"rental_uris": {"ios": "https://dc.lft.to/lastmile_qr_scan", "android": "https://dc.lft.to/lastmile_qr_scan"}, "type": "electric_scooter", "name": "501f2b81de7539bc27702bec57a4a5f1", "is_reserved": 0, "lon": -77.0450255, "is_disabled": 0, "fusion_lat": 0.0, "lat": 38.91446233333333, "bike_id": "501f2b81de7539bc27702bec57a4a5f1", "fusion_lon": 0.0}, {"rental_uris": {"ios": "https://dc.lft.to/lastmile_qr_scan", "android": "https://dc.lft.to/lastmile_qr_scan"}, "type": "electric_scooter", "name": "8e8fe4c9c35be645a0ece0e7374d3ab5", "is_reserved": 0, "lon": -77.024317, "is_disabled": 0, "fusion_lat": 0.0, "lat": 38.8972665, "bike_id": "8e8fe4c9c35be645a0ece0e7374d3ab5", "fusion_lon": 0.0}, {"rental_uris": {"ios": "https://dc.lft.to/lastmile_qr_scan", "android": "https://dc.lft.to/lastmile_qr_scan"}, "type": "electric_scooter", "name": "6bd059f4b295cb2254ddd0ca4f9177c8", "is_reserved": 0, "lon": -77.03459, "is_disabled": 0, "fusion_lat": 0.0, "lat": 38.908347166666665, "bike_id": "6bd059f4b295cb2254ddd0ca4f9177c8", "fusion_lon": 0.0}, {"rental_uris": {"ios": "https://dc.lft.to/lastmile_qr_scan", "android": "https://dc.lft.to/lastmile_qr_scan"}, "type": "electric_scooter", "name": "c81c79b62f1e5684beccb175a2a4adb8", "is_reserved": 0, "lon": -77.03395566666667, "is_disabled": 0, "fusion_lat": 0.0, "lat": 38.90274316666667, "bike_id": "c81c79b62f1e5684beccb175a2a4adb8", "fusion_lon": 0.0}, {"rental_uris": {"ios": "https://dc.lft.to/lastmile_qr_scan", "android": "https://dc.lft.to/lastmile_qr_scan"}, "type": "electric_scooter", "name": "362a76bed78a23bc1eab3366f66b1059", "is_reserved": 0, "lon": -77.01773033333333, "is_disabled": 0, "fusion_lat": 0.0, "lat": 38.88721316666667, "bike_id": "362a76bed78a23bc1eab3366f66b1059", "fusion_lon": 0.0}, {"rental_uris": {"ios": "https://dc.lft.to/lastmile_qr_scan", "android": "https://dc.lft.to/lastmile_qr_scan"}, "type": "electric_scooter", "name": "36074a1e81a139fda020ec6b539bb263", "is_reserved": 0, "lon": -77.0323005, "is_disabled": 0, "fusion_lat": 0.0, "lat": 38.9054195, "bike_id": "36074a1e81a139fda020ec6b539bb263", "fusion_lon": 0.0}, {"rental_uris": {"ios": "https://dc.lft.to/lastmile_qr_scan", "android": "https://dc.lft.to/lastmile_qr_scan"}, "type": "electric_scooter", "name": "535dbfaebca7662179f34a6f59efb9bc", "is_reserved": 0, "lon": -77.04443033333334, "is_disabled": 0, "fusion_lat": 0.0, "lat": 38.901176666666665, "bike_id": "535dbfaebca7662179f34a6f59efb9bc", "fusion_lon": 0.0}, {"rental_uris": {"ios": "https://dc.lft.to/lastmile_qr_scan", "android": "https://dc.lft.to/lastmile_qr_scan"}, "type": "electric_scooter", "name": "09dac83c7feef18cb2c8e6a2d87d72de", "is_reserved": 0, "lon": -77.02507183333333, "is_disabled": 0, "fusion_lat": 0.0, "lat": 38.94173966666666, "bike_id": "09dac83c7feef18cb2c8e6a2d87d72de", "fusion_lon": 0.0}, {"rental_uris": {"ios": "https://dc.lft.to/lastmile_qr_scan", "android": "https://dc.lft.to/lastmile_qr_scan"}, "type": "electric_scooter", "name": "8f88e14b05fa28d418570285f9dbb381", "is_reserved": 0, "lon": -77.01872816666666, "is_disabled": 0, "fusion_lat": 0.0, "lat": 38.91359966666667, "bike_id": "8f88e14b05fa28d418570285f9dbb381", "fusion_lon": 0.0}, {"rental_uris": {"ios": "https://dc.lft.to/lastmile_qr_scan", "android": "https://dc.lft.to/lastmile_qr_scan"}, "type": "electric_scooter", "name": "7c1695d1bf6b156fd2f1cc6f32177ba8", "is_reserved": 0, "lon": -77.00070616666666, "is_disabled": 0, "fusion_lat": 0.0, "lat": 38.90140433333333, "bike_id": "7c1695d1bf6b156fd2f1cc6f32177ba8", "fusion_lon": 0.0}, {"rental_uris": {"ios": "https://dc.lft.to/lastmile_qr_scan", "android": "https://dc.lft.to/lastmile_qr_scan"}, "type": "electric_scooter", "name": "a7348169f4307d6b9b767b88ff4734be", "is_reserved": 0, "lon": -77.031902, "is_disabled": 0, "fusion_lat": 0.0, "lat": 38.9142415, "bike_id": "a7348169f4307d6b9b767b88ff4734be", "fusion_lon": 0.0}, {"rental_uris": {"ios": "https://dc.lft.to/lastmile_qr_scan", "android": "https://dc.lft.to/lastmile_qr_scan"}, "type": "electric_bike", "name": "28ea5e1b94a46204a2052f13a59aa157", "is_reserved": 0, "lon": -76.97316416666666, "is_disabled": 0, "fusion_lat": 0.0, "lat": 38.9176065, "bike_id": "28ea5e1b94a46204a2052f13a59aa157", "fusion_lon": 0.0}, {"rental_uris": {"ios": "https://dc.lft.to/lastmile_qr_scan", "android": "https://dc.lft.to/lastmile_qr_scan"}, "type": "electric_scooter", "name": "b8ec4f9060015a89d8d4ecb41b0ba286", "is_reserved": 0, "lon": -77.03269666666667, "is_disabled": 0, "fusion_lat": 0.0, "lat": 38.909844666666665, "bike_id": "b8ec4f9060015a89d8d4ecb41b0ba286", "fusion_lon": 0.0}, {"rental_uris": {"ios": "https://dc.lft.to/lastmile_qr_scan", "android": "https://dc.lft.to/lastmile_qr_scan"}, "type": "electric_scooter", "name": "16c31b99210016a2290673fd2f8b84b1", "is_reserved": 0, "lon": -77.03782966666667, "is_disabled": 0, "fusion_lat": 0.0, "lat": 38.93965, "bike_id": "16c31b99210016a2290673fd2f8b84b1", "fusion_lon": 0.0}, {"rental_uris": {"ios": "https://dc.lft.to/lastmile_qr_scan", "android": "https://dc.lft.to/lastmile_qr_scan"}, "type": "electric_bike", "name": "8195c96935b1bfc21583e434424f1c46", "is_reserved": 0, "lon": -76.98472216666667, "is_disabled": 0, "fusion_lat": 0.0, "lat": 38.879910333333335, "bike_id": "8195c96935b1bfc21583e434424f1c46", "fusion_lon": 0.0}, {"rental_uris": {"ios": "https://dc.lft.to/lastmile_qr_scan", "android": "https://dc.lft.to/lastmile_qr_scan"}, "type": "electric_scooter", "name": "8c3e7ee7e01d4da455a3839303bcd3ae", "is_reserved": 0, "lon": -77.00937516666667, "is_disabled": 0, "fusion_lat": 0.0, "lat": 38.89964416666667, "bike_id": "8c3e7ee7e01d4da455a3839303bcd3ae", "fusion_lon": 0.0}, {"rental_uris": {"ios": "https://dc.lft.to/lastmile_qr_scan", "android": "https://dc.lft.to/lastmile_qr_scan"}, "type": "electric_scooter", "name": "023a1d555c789fbf53e5ef19b7a03509", "is_reserved": 0, "lon": -77.01704183333334, "is_disabled": 0, "fusion_lat": 0.0, "lat": 38.90268483333333, "bike_id": "023a1d555c789fbf53e5ef19b7a03509", "fusion_lon": 0.0}, {"rental_uris": {"ios": "https://dc.lft.to/lastmile_qr_scan", "android": "https://dc.lft.to/lastmile_qr_scan"}, "type": "electric_scooter", "name": "a5f08eeb74ee69cc0f3046b3ebd6554e", "is_reserved": 0, "lon": -77.04693883333333, "is_disabled": 0, "fusion_lat": 0.0, "lat": 38.92156683333333, "bike_id": "a5f08eeb74ee69cc0f3046b3ebd6554e", "fusion_lon": 0.0}, {"rental_uris": {"ios": "https://dc.lft.to/lastmile_qr_scan", "android": "https://dc.lft.to/lastmile_qr_scan"}, "type": "electric_scooter", "name": "c77d0de7b5699c5b03bb9fa5ec7d2553", "is_reserved": 0, "lon": -77.0162265, "is_disabled": 0, "fusion_lat": 0.0, "lat": 38.88509716666667, "bike_id": "c77d0de7b5699c5b03bb9fa5ec7d2553", "fusion_lon": 0.0}, {"rental_uris": {"ios": "https://dc.lft.to/lastmile_qr_scan", "android": "https://dc.lft.to/lastmile_qr_scan"}, "type": "electric_scooter", "name": "2609345eeaef74736f5f7ed8f66c88fe", "is_reserved": 0, "lon": -77.04501, "is_disabled": 0, "fusion_lat": 0.0, "lat": 38.89218783333333, "bike_id": "2609345eeaef74736f5f7ed8f66c88fe", "fusion_lon": 0.0}, {"rental_uris": {"ios": "https://dc.lft.to/lastmile_qr_scan", "android": "https://dc.lft.to/lastmile_qr_scan"}, "type": "electric_scooter", "name": "08da3601c5bd9b570b8481e677f312de", "is_reserved": 0, "lon": -77.0417715, "is_disabled": 0, "fusion_lat": 0.0, "lat": 38.92037766666667, "bike_id": "08da3601c5bd9b570b8481e677f312de", "fusion_lon": 0.0}, {"rental_uris": {"ios": "https://dc.lft.to/lastmile_qr_scan", "android": "https://dc.lft.to/lastmile_qr_scan"}, "type": "electric_scooter", "name": "bc8c2660b2c77cf076a771caf3e859ea", "is_reserved": 0, "lon": -77.03074316666667, "is_disabled": 0, "fusion_lat": 0.0, "lat": 38.90566916666667, "bike_id": "bc8c2660b2c77cf076a771caf3e859ea", "fusion_lon": 0.0}, {"rental_uris": {"ios": "https://dc.lft.to/lastmile_qr_scan", "android": "https://dc.lft.to/lastmile_qr_scan"}, "type": "electric_scooter", "name": "1ed6f90bf0a2a3105e482a579a19f813", "is_reserved": 0, "lon": -77.04790583333333, "is_disabled": 0, "fusion_lat": 0.0, "lat": 38.897718833333336, "bike_id": "1ed6f90bf0a2a3105e482a579a19f813", "fusion_lon": 0.0}, {"rental_uris": {"ios": "https://dc.lft.to/lastmile_qr_scan", "android": "https://dc.lft.to/lastmile_qr_scan"}, "type": "electric_scooter", "name": "64d858fa409351d39955512d68bd6980", "is_reserved": 0, "lon": -76.98383583333333, "is_disabled": 0, "fusion_lat": 0.0, "lat": 38.860269, "bike_id": "64d858fa409351d39955512d68bd6980", "fusion_lon": 0.0}, {"rental_uris": {"ios": "https://dc.lft.to/lastmile_qr_scan", "android": "https://dc.lft.to/lastmile_qr_scan"}, "type": "electric_scooter", "name": "e4613adb08d48cc325ef00df3eb57d39", "is_reserved": 0, "lon": -77.031752, "is_disabled": 0, "fusion_lat": 0.0, "lat": 38.906991, "bike_id": "e4613adb08d48cc325ef00df3eb57d39", "fusion_lon": 0.0}, {"rental_uris": {"ios": "https://dc.lft.to/lastmile_qr_scan", "android": "https://dc.lft.to/lastmile_qr_scan"}, "type": "electric_scooter", "name": "a8bc1fcb553652ebc76262c40c1fb904", "is_reserved": 0, "lon": -77.02205783333333, "is_disabled": 0, "fusion_lat": 0.0, "lat": 38.9246625, "bike_id": "a8bc1fcb553652ebc76262c40c1fb904", "fusion_lon": 0.0}, {"rental_uris": {"ios": "https://dc.lft.to/lastmile_qr_scan", "android": "https://dc.lft.to/lastmile_qr_scan"}, "type": "electric_scooter", "name": "ef3aa4343ff1ed47fabe06b1285aec9b", "is_reserved": 0, "lon": -76.99351766666666, "is_disabled": 0, "fusion_lat": 0.0, "lat": 38.881291, "bike_id": "ef3aa4343ff1ed47fabe06b1285aec9b", "fusion_lon": 0.0}, {"rental_uris": {"ios": "https://dc.lft.to/lastmile_qr_scan", "android": "https://dc.lft.to/lastmile_qr_scan"}, "type": "electric_scooter", "name": "e4f2fa19e136b202efd9d3295d775098", "is_reserved": 0, "lon": -77.03240716666667, "is_disabled": 0, "fusion_lat": 0.0, "lat": 38.915607, "bike_id": "e4f2fa19e136b202efd9d3295d775098", "fusion_lon": 0.0}, {"rental_uris": {"ios": "https://dc.lft.to/lastmile_qr_scan", "android": "https://dc.lft.to/lastmile_qr_scan"}, "type": "electric_scooter", "name": "f22a94b4e5300339875476f3294ebf54", "is_reserved": 0, "lon": -77.03963466666667, "is_disabled": 0, "fusion_lat": 0.0, "lat": 38.892342166666666, "bike_id": "f22a94b4e5300339875476f3294ebf54", "fusion_lon": 0.0}, {"rental_uris": {"ios": "https://dc.lft.to/lastmile_qr_scan", "android": "https://dc.lft.to/lastmile_qr_scan"}, "type": "electric_scooter", "name": "9f56620770a4c426ea15daaa36c9892d", "is_reserved": 0, "lon": -77.01900816666667, "is_disabled": 0, "fusion_lat": 0.0, "lat": 38.89794933333334, "bike_id": "9f56620770a4c426ea15daaa36c9892d", "fusion_lon": 0.0}, {"rental_uris": {"ios": "https://dc.lft.to/lastmile_qr_scan", "android": "https://dc.lft.to/lastmile_qr_scan"}, "type": "electric_scooter", "name": "cd4a447a60e7ba11f87bf9c0f70b7a1f", "is_reserved": 0, "lon": -77.03376033333333, "is_disabled": 0, "fusion_lat": 0.0, "lat": 38.89921916666667, "bike_id": "cd4a447a60e7ba11f87bf9c0f70b7a1f", "fusion_lon": 0.0}, {"rental_uris": {"ios": "https://dc.lft.to/lastmile_qr_scan", "android": "https://dc.lft.to/lastmile_qr_scan"}, "type": "electric_scooter", "name": "fbb77a8e4c84fa4f9f3561c8389b517a", "is_reserved": 0, "lon": -77.03297016666667, "is_disabled": 0, "fusion_lat": 0.0, "lat": 38.95626766666667, "bike_id": "fbb77a8e4c84fa4f9f3561c8389b517a", "fusion_lon": 0.0}, {"rental_uris": {"ios": "https://dc.lft.to/lastmile_qr_scan", "android": "https://dc.lft.to/lastmile_qr_scan"}, "type": "electric_scooter", "name": "6bbd838b2bfd82765bafabcc0be92905", "is_reserved": 0, "lon": -77.02920416666667, "is_disabled": 0, "fusion_lat": 0.0, "lat": 38.94030033333333, "bike_id": "6bbd838b2bfd82765bafabcc0be92905", "fusion_lon": 0.0}, {"rental_uris": {"ios": "https://dc.lft.to/lastmile_qr_scan", "android": "https://dc.lft.to/lastmile_qr_scan"}, "type": "electric_scooter", "name": "50f772e19fbe4fc727dcb15abbf01893", "is_reserved": 0, "lon": -77.02418433333334, "is_disabled": 0, "fusion_lat": 0.0, "lat": 38.90957383333333, "bike_id": "50f772e19fbe4fc727dcb15abbf01893", "fusion_lon": 0.0}, {"rental_uris": {"ios": "https://dc.lft.to/lastmile_qr_scan", "android": "https://dc.lft.to/lastmile_qr_scan"}, "type": "electric_scooter", "name": "e0ee10aff527ff8d28504fd56bf1fc1e", "is_reserved": 0, "lon": -76.99595983333333, "is_disabled": 0, "fusion_lat": 0.0, "lat": 38.8842865, "bike_id": "e0ee10aff527ff8d28504fd56bf1fc1e", "fusion_lon": 0.0}, {"rental_uris": {"ios": "https://dc.lft.to/lastmile_qr_scan", "android": "https://dc.lft.to/lastmile_qr_scan"}, "type": "electric_scooter", "name": "a7c32fd0253421c631d42ce4c072d453", "is_reserved": 0, "lon": -77.02629983333334, "is_disabled": 0, "fusion_lat": 0.0, "lat": 38.89223483333333, "bike_id": "a7c32fd0253421c631d42ce4c072d453", "fusion_lon": 0.0}, {"rental_uris": {"ios": "https://dc.lft.to/lastmile_qr_scan", "android": "https://dc.lft.to/lastmile_qr_scan"}, "type": "electric_scooter", "name": "339e9ee7bccee507c05b3554d2ae6188", "is_reserved": 0, "lon": -76.9704585, "is_disabled": 0, "fusion_lat": 0.0, "lat": 38.87320866666666, "bike_id": "339e9ee7bccee507c05b3554d2ae6188", "fusion_lon": 0.0}, {"rental_uris": {"ios": "https://dc.lft.to/lastmile_qr_scan", "android": "https://dc.lft.to/lastmile_qr_scan"}, "type": "electric_scooter", "name": "55a9517c9082babb8d530c8159f25ad6", "is_reserved": 0, "lon": -77.0382385, "is_disabled": 0, "fusion_lat": 0.0, "lat": 38.90393133333333, "bike_id": "55a9517c9082babb8d530c8159f25ad6", "fusion_lon": 0.0}, {"rental_uris": {"ios": "https://dc.lft.to/lastmile_qr_scan", "android": "https://dc.lft.to/lastmile_qr_scan"}, "type": "electric_scooter", "name": "5c58e6470e99fcfd7dda1c8797bc39be", "is_reserved": 0, "lon": -77.03859483333333, "is_disabled": 0, "fusion_lat": 0.0, "lat": 38.91048116666666, "bike_id": "5c58e6470e99fcfd7dda1c8797bc39be", "fusion_lon": 0.0}, {"rental_uris": {"ios": "https://dc.lft.to/lastmile_qr_scan", "android": "https://dc.lft.to/lastmile_qr_scan"}, "type": "electric_bike", "name": "d3efd037c2886dae4c4ff426501befbb", "is_reserved": 0, "lon": -77.0670245, "is_disabled": 0, "fusion_lat": 0.0, "lat": 38.8317015, "bike_id": "d3efd037c2886dae4c4ff426501befbb", "fusion_lon": 0.0}, {"rental_uris": {"ios": "https://dc.lft.to/lastmile_qr_scan", "android": "https://dc.lft.to/lastmile_qr_scan"}, "type": "electric_scooter", "name": "4200c47c9b4522f41de4b7413e9b8991", "is_reserved": 0, "lon": -77.0418285, "is_disabled": 0, "fusion_lat": 0.0, "lat": 38.914045333333334, "bike_id": "4200c47c9b4522f41de4b7413e9b8991", "fusion_lon": 0.0}, {"rental_uris": {"ios": "https://dc.lft.to/lastmile_qr_scan", "android": "https://dc.lft.to/lastmile_qr_scan"}, "type": "electric_bike", "name": "90a74d6e87e3b71cfec0aba6d0a0bffd", "is_reserved": 0, "lon": -76.983488, "is_disabled": 0, "fusion_lat": 0.0, "lat": 38.86263616666667, "bike_id": "90a74d6e87e3b71cfec0aba6d0a0bffd", "fusion_lon": 0.0}, {"rental_uris": {"ios": "https://dc.lft.to/lastmile_qr_scan", "android": "https://dc.lft.to/lastmile_qr_scan"}, "type": "electric_scooter", "name": "5f40c0cb8fe1a105fb5e8ecac5fbbe55", "is_reserved": 0, "lon": -77.04866416666667, "is_disabled": 0, "fusion_lat": 0.0, "lat": 38.89225366666667, "bike_id": "5f40c0cb8fe1a105fb5e8ecac5fbbe55", "fusion_lon": 0.0}, {"rental_uris": {"ios": "https://dc.lft.to/lastmile_qr_scan", "android": "https://dc.lft.to/lastmile_qr_scan"}, "type": "electric_scooter", "name": "e11dfd269ea97b84a309c3bb8a6b2e99", "is_reserved": 0, "lon": -77.01446666666666, "is_disabled": 0, "fusion_lat": 0.0, "lat": 38.89942466666667, "bike_id": "e11dfd269ea97b84a309c3bb8a6b2e99", "fusion_lon": 0.0}, {"rental_uris": {"ios": "https://dc.lft.to/lastmile_qr_scan", "android": "https://dc.lft.to/lastmile_qr_scan"}, "type": "electric_scooter", "name": "a129f4e01477d44f4d1d105bd65a8df5", "is_reserved": 0, "lon": -77.00554616666666, "is_disabled": 0, "fusion_lat": 0.0, "lat": 38.875306, "bike_id": "a129f4e01477d44f4d1d105bd65a8df5", "fusion_lon": 0.0}, {"rental_uris": {"ios": "https://dc.lft.to/lastmile_qr_scan", "android": "https://dc.lft.to/lastmile_qr_scan"}, "type": "electric_scooter", "name": "e718442c6c0e285984d5f8d15d6a9053", "is_reserved": 0, "lon": -77.04493283333333, "is_disabled": 0, "fusion_lat": 0.0, "lat": 38.905938666666664, "bike_id": "e718442c6c0e285984d5f8d15d6a9053", "fusion_lon": 0.0}, {"rental_uris": {"ios": "https://dc.lft.to/lastmile_qr_scan", "android": "https://dc.lft.to/lastmile_qr_scan"}, "type": "electric_scooter", "name": "aa424897c376b350627785481a0b35be", "is_reserved": 0, "lon": -77.019982, "is_disabled": 0, "fusion_lat": 0.0, "lat": 38.91526266666666, "bike_id": "aa424897c376b350627785481a0b35be", "fusion_lon": 0.0}, {"rental_uris": {"ios": "https://dc.lft.to/lastmile_qr_scan", "android": "https://dc.lft.to/lastmile_qr_scan"}, "type": "electric_bike", "name": "6d7e84963b5e8393d3b7878392cc3a6b", "is_reserved": 0, "lon": -76.91812, "is_disabled": 0, "fusion_lat": 0.0, "lat": 39.0000405, "bike_id": "6d7e84963b5e8393d3b7878392cc3a6b", "fusion_lon": 0.0}, {"rental_uris": {"ios": "https://dc.lft.to/lastmile_qr_scan", "android": "https://dc.lft.to/lastmile_qr_scan"}, "type": "electric_scooter", "name": "7d85af791206369188edcebadb2ab535", "is_reserved": 0, "lon": -77.05000483333333, "is_disabled": 0, "fusion_lat": 0.0, "lat": 38.906186, "bike_id": "7d85af791206369188edcebadb2ab535", "fusion_lon": 0.0}, {"rental_uris": {"ios": "https://dc.lft.to/lastmile_qr_scan", "android": "https://dc.lft.to/lastmile_qr_scan"}, "type": "electric_scooter", "name": "83eea32658de319640480652731ec266", "is_reserved": 0, "lon": -77.02589483333334, "is_disabled": 0, "fusion_lat": 0.0, "lat": 38.963888833333336, "bike_id": "83eea32658de319640480652731ec266", "fusion_lon": 0.0}, {"rental_uris": {"ios": "https://dc.lft.to/lastmile_qr_scan", "android": "https://dc.lft.to/lastmile_qr_scan"}, "type": "electric_scooter", "name": "b8778924ad4215ff268fee4ce8dc25c8", "is_reserved": 0, "lon": -76.93302983333334, "is_disabled": 0, "fusion_lat": 0.0, "lat": 38.896883833333334, "bike_id": "b8778924ad4215ff268fee4ce8dc25c8", "fusion_lon": 0.0}, {"rental_uris": {"ios": "https://dc.lft.to/lastmile_qr_scan", "android": "https://dc.lft.to/lastmile_qr_scan"}, "type": "electric_scooter", "name": "eab7c0b5f826213bf6659aecb98ac553", "is_reserved": 0, "lon": -76.9995055, "is_disabled": 0, "fusion_lat": 0.0, "lat": 38.89416833333333, "bike_id": "eab7c0b5f826213bf6659aecb98ac553", "fusion_lon": 0.0}, {"rental_uris": {"ios": "https://dc.lft.to/lastmile_qr_scan", "android": "https://dc.lft.to/lastmile_qr_scan"}, "type": "electric_bike", "name": "487ce34209bdbeea82d3aa1c94321d15", "is_reserved": 0, "lon": -77.12980266666666, "is_disabled": 0, "fusion_lat": 0.0, "lat": 38.79981733333334, "bike_id": "487ce34209bdbeea82d3aa1c94321d15", "fusion_lon": 0.0}, {"rental_uris": {"ios": "https://dc.lft.to/lastmile_qr_scan", "android": "https://dc.lft.to/lastmile_qr_scan"}, "type": "electric_scooter", "name": "dbf149389639456acf77edb42805ee22", "is_reserved": 0, "lon": -77.037627, "is_disabled": 0, "fusion_lat": 0.0, "lat": 38.90147916666667, "bike_id": "dbf149389639456acf77edb42805ee22", "fusion_lon": 0.0}, {"rental_uris": {"ios": "https://dc.lft.to/lastmile_qr_scan", "android": "https://dc.lft.to/lastmile_qr_scan"}, "type": "electric_scooter", "name": "50c479001e00ac038d56a6a08843e8b7", "is_reserved": 0, "lon": -77.018017, "is_disabled": 0, "fusion_lat": 0.0, "lat": 38.886361666666666, "bike_id": "50c479001e00ac038d56a6a08843e8b7", "fusion_lon": 0.0}, {"rental_uris": {"ios": "https://dc.lft.to/lastmile_qr_scan", "android": "https://dc.lft.to/lastmile_qr_scan"}, "type": "electric_scooter", "name": "26423b8530936230c079a2fc1b46d533", "is_reserved": 0, "lon": -77.022893, "is_disabled": 0, "fusion_lat": 0.0, "lat": 38.916748166666665, "bike_id": "26423b8530936230c079a2fc1b46d533", "fusion_lon": 0.0}, {"rental_uris": {"ios": "https://dc.lft.to/lastmile_qr_scan", "android": "https://dc.lft.to/lastmile_qr_scan"}, "type": "electric_scooter", "name": "1d99b11b1be8c3769ccd166ed16570d6", "is_reserved": 0, "lon": -77.04947983333334, "is_disabled": 0, "fusion_lat": 0.0, "lat": 38.9201865, "bike_id": "1d99b11b1be8c3769ccd166ed16570d6", "fusion_lon": 0.0}, {"rental_uris": {"ios": "https://dc.lft.to/lastmile_qr_scan", "android": "https://dc.lft.to/lastmile_qr_scan"}, "type": "electric_scooter", "name": "15fccf68715875fae0f05bc6cef9e7b5", "is_reserved": 0, "lon": -77.02591933333333, "is_disabled": 0, "fusion_lat": 0.0, "lat": 38.89836566666666, "bike_id": "15fccf68715875fae0f05bc6cef9e7b5", "fusion_lon": 0.0}, {"rental_uris": {"ios": "https://dc.lft.to/lastmile_qr_scan", "android": "https://dc.lft.to/lastmile_qr_scan"}, "type": "electric_scooter", "name": "d2099dab74c56fd2c7f1299bfe009361", "is_reserved": 0, "lon": -77.0627835, "is_disabled": 0, "fusion_lat": 0.0, "lat": 38.94420816666667, "bike_id": "d2099dab74c56fd2c7f1299bfe009361", "fusion_lon": 0.0}, {"rental_uris": {"ios": "https://dc.lft.to/lastmile_qr_scan", "android": "https://dc.lft.to/lastmile_qr_scan"}, "type": "electric_bike", "name": "152097b94dfa39c7e8b1b1bf0234f083", "is_reserved": 0, "lon": -77.23408416666666, "is_disabled": 0, "fusion_lat": 0.0, "lat": 38.875732666666664, "bike_id": "152097b94dfa39c7e8b1b1bf0234f083", "fusion_lon": 0.0}, {"rental_uris": {"ios": "https://dc.lft.to/lastmile_qr_scan", "android": "https://dc.lft.to/lastmile_qr_scan"}, "type": "electric_scooter", "name": "c4575b18fb589c9599d292cc125ec352", "is_reserved": 0, "lon": -77.031872, "is_disabled": 0, "fusion_lat": 0.0, "lat": 38.9141625, "bike_id": "c4575b18fb589c9599d292cc125ec352", "fusion_lon": 0.0}, {"rental_uris": {"ios": "https://dc.lft.to/lastmile_qr_scan", "android": "https://dc.lft.to/lastmile_qr_scan"}, "type": "electric_scooter", "name": "eb2e9c8e1f7347e2b9e7f9db50aedc52", "is_reserved": 0, "lon": -76.97631366666667, "is_disabled": 0, "fusion_lat": 0.0, "lat": 38.90571683333334, "bike_id": "eb2e9c8e1f7347e2b9e7f9db50aedc52", "fusion_lon": 0.0}, {"rental_uris": {"ios": "https://dc.lft.to/lastmile_qr_scan", "android": "https://dc.lft.to/lastmile_qr_scan"}, "type": "electric_scooter", "name": "239675ef439170a53b33b3e2e43f39a9", "is_reserved": 0, "lon": -77.02986966666667, "is_disabled": 0, "fusion_lat": 0.0, "lat": 38.93242, "bike_id": "239675ef439170a53b33b3e2e43f39a9", "fusion_lon": 0.0}, {"rental_uris": {"ios": "https://dc.lft.to/lastmile_qr_scan", "android": "https://dc.lft.to/lastmile_qr_scan"}, "type": "electric_scooter", "name": "4573631780666766344c19287e40362f", "is_reserved": 0, "lon": -77.07307866666666, "is_disabled": 0, "fusion_lat": 0.0, "lat": 38.9302215, "bike_id": "4573631780666766344c19287e40362f", "fusion_lon": 0.0}, {"rental_uris": {"ios": "https://dc.lft.to/lastmile_qr_scan", "android": "https://dc.lft.to/lastmile_qr_scan"}, "type": "electric_scooter", "name": "ccd4270deac94b20b6545ee39ed7b9c8", "is_reserved": 0, "lon": -77.02333533333334, "is_disabled": 0, "fusion_lat": 0.0, "lat": 38.916689833333336, "bike_id": "ccd4270deac94b20b6545ee39ed7b9c8", "fusion_lon": 0.0}, {"rental_uris": {"ios": "https://dc.lft.to/lastmile_qr_scan", "android": "https://dc.lft.to/lastmile_qr_scan"},