{"data": {"bikes": [{"rental_uris": {"android": "https://dc.lft.to/lastmile_qr_scan", "ios": "https://dc.lft.to/lastmile_qr_scan"}, "lat": 38.8368995, "fusion_lon": 0.0, "fusion_lat": 0.0, "type": "electric_bike", "bike_id": "d0e7fca107f63cfe75737a0a7a22c75e", "lon": -77.10326433333333, "is_reserved": 0, "is_disabled": 0, "name": "d0e7fca107f63cfe75737a0a7a22c75e"}, {"rental_uris": {"android": "https://dc.lft.to/lastmile_qr_scan", "ios": "https://dc.lft.to/lastmile_qr_scan"}, "lat": 38.896072833333335, "fusion_lon": 0.0, "fusion_lat": 0.0, "type": "electric_scooter", "bike_id": "810c817801b1c7404a9f68b7dae0e648", "lon": -77.00924033333334, "is_reserved": 0, "is_disabled": 0, "name": "810c817801b1c7404a9f68b7dae0e648"}, {"rental_uris": {"android": "https://dc.lft.to/lastmile_qr_scan", "ios": "https://dc.lft.to/lastmile_qr_scan"}, "lat": 38.8752125, "fusion_lon": 0.0, "fusion_lat": 0.0, "type": "electric_scooter", "bike_id": "bb4f361890d8b6779b9ed73b249171ef", "lon": -77.00581366666667, "is_reserved": 0, "is_disabled": 0, "name": "bb4f361890d8b6779b9ed73b249171ef"}, {"rental_uris": {"android": "https://dc.lft.to/lastmile_qr_scan", "ios": "https://dc.lft.to/lastmile_qr_scan"}, "lat": 38.9131955, "fusion_lon": 0.0, "fusion_lat": 0.0, "type": "electric_scooter", "bike_id": "0febba617ae99ddb2bbd7f649740cbc7", "lon": -77.01749066666666, "is_reserved": 0, "is_disabled": 0, "name": "0febba617ae99ddb2bbd7f649740cbc7"}, {"rental_uris": {"android": "https://dc.lft.to/lastmile_qr_scan", "ios": "https://dc.lft.to/lastmile_qr_scan"}, "lat": 38.87674483333333, "fusion_lon": 0.0, "fusion_lat": 0.0, "type": "electric_scooter", "bike_id": "ac3a4c0affdc9edb5511dd7aa0120e0e", "lon": -77.00357416666667, "is_reserved": 0, "is_disabled": 0, "name": "ac3a4c0affdc9edb5511dd7aa0120e0e"}, {"rental_uris": {"android": "https://dc.lft.to/lastmile_qr_scan", "ios": "https://dc.lft.to/lastmile_qr_scan"}, "lat": 38.873370333333334, "fusion_lon": 0.0, "fusion_lat": 0.0, "type": "electric_scooter", "bike_id": "6aee62cb85ac1ca54e4640f9624477e0", "lon": -76.99168883333333, "is_reserved": 0, "is_disabled": 0, "name": "6aee62cb85ac1ca54e4640f9624477e0"}, {"rental_uris": {"android": "https://dc.lft.to/lastmile_qr_scan", "ios": "https://dc.lft.to/lastmile_qr_scan"}, "lat": 38.921653166666665, "fusion_lon": 0.0, "fusion_lat": 0.0, "type": "electric_scooter", "bike_id": "33c230fe5a0fe46d749c9625bc38e02f", "lon": -77.04221766666667, "is_reserved": 0, "is_disabled": 0, "name": "33c230fe5a0fe46d749c9625bc38e02f"}, {"rental_uris": {"android": "https://dc.lft.to/lastmile_qr_scan", "ios": "https://dc.lft.to/lastmile_qr_scan"}, "lat": 38.921596666666666, "fusion_lon": 0.0, "fusion_lat": 0.0, "type": "electric_scooter", "bike_id": "57868ca34cd91a8bee0063e1492709df", "lon": -77.07232183333333, "is_reserved": 0, "is_disabled": 0, "name": "57868ca34cd91a8bee0063e1492709df"}, {"rental_uris": {"android": "https://dc.lft.to/lastmile_qr_scan", "ios": "https://dc.lft.to/lastmile_qr_scan"}, "lat": 38.920612, "fusion_lon": 0.0, "fusion_lat": 0.0, "type": "electric_scooter", "bike_id": "87ce161b567af770fffd7b70b89b41d6", "lon": -77.0235345, "is_reserved": 0, "is_disabled": 0, "name": "87ce161b567af770fffd7b70b89b41d6"}, {"rental_uris": {"android": "https://dc.lft.to/lastmile_qr_scan", "ios": "https://dc.lft.to/lastmile_qr_scan"}, "lat": 38.936456666666665, "fusion_lon": 0.0, "fusion_lat": 0.0, "type": "electric_scooter", "bike_id": "b20d0d9756ae4a13aa07ab545b7cad37", "lon": -77.03684616666666, "is_reserved": 0, "is_disabled": 0, "name": "b20d0d9756ae4a13aa07ab545b7cad37"}, {"rental_uris": {"android": "https://dc.lft.to/lastmile_qr_scan", "ios": "https://dc.lft.to/lastmile_qr_scan"}, "lat": 38.88750566666667, "fusion_lon": 0.0, "fusion_lat": 0.0, "type": "electric_scooter", "bike_id": "20a2c95752943a13aa6c9fc18b16f1f0", "lon": -77.01699716666667, "is_reserved": 0, "is_disabled": 0, "name": "20a2c95752943a13aa6c9fc18b16f1f0"}, {"rental_uris": {"android": "https://dc.lft.to/lastmile_qr_scan", "ios": "https://dc.lft.to/lastmile_qr_scan"}, "lat": 38.914303, "fusion_lon": 0.0, "fusion_lat": 0.0, "type": "electric_scooter", "bike_id": "8a8149e4acbc946713fea75174d07d28", "lon": -77.02808533333334, "is_reserved": 0, "is_disabled": 0, "name": "8a8149e4acbc946713fea75174d07d28"}, {"rental_uris": {"android": "https://dc.lft.to/lastmile_qr_scan", "ios": "https://dc.lft.to/lastmile_qr_scan"}, "lat": 38.897386833333336, "fusion_lon": 0.0, "fusion_lat": 0.0, "type": "electric_scooter", "bike_id": "656a546204001b709b8d6dbc4868d53e", "lon": -77.02219766666667, "is_reserved": 0, "is_disabled": 0, "name": "656a546204001b709b8d6dbc4868d53e"}, {"rental_uris": {"android": "https://dc.lft.to/lastmile_qr_scan", "ios": "https://dc.lft.to/lastmile_qr_scan"}, "lat": 38.90911066666666, "fusion_lon": 0.0, "fusion_lat": 0.0, "type": "electric_scooter", "bike_id": "c867b1e5bbdbc0de03657f14531fa25b", "lon": -77.0727, "is_reserved": 0, "is_disabled": 0, "name": "c867b1e5bbdbc0de03657f14531fa25b"}, {"rental_uris": {"android": "https://dc.lft.to/lastmile_qr_scan", "ios": "https://dc.lft.to/lastmile_qr_scan"}, "lat": 38.8873035, "fusion_lon": 0.0, "fusion_lat": 0.0, "type": "electric_scooter", "bike_id": "cd4268f2b00a62a6b89e982169f951f8", "lon": -76.983784, "is_reserved": 0, "is_disabled": 0, "name": "cd4268f2b00a62a6b89e982169f951f8"}, {"rental_uris": {"android": "https://dc.lft.to/lastmile_qr_scan", "ios": "https://dc.lft.to/lastmile_qr_scan"}, "lat": 38.8976955, "fusion_lon": 0.0, "fusion_lat": 0.0, "type": "electric_scooter", "bike_id": "21c9993fcc307d2259275ce2a9132d2f", "lon": -77.02195383333333, "is_reserved": 0, "is_disabled": 0, "name": "21c9993fcc307d2259275ce2a9132d2f"}, {"rental_uris": {"android": "https://dc.lft.to/lastmile_qr_scan", "ios": "https://dc.lft.to/lastmile_qr_scan"}, "lat": 38.9233415, "fusion_lon": 0.0, "fusion_lat": 0.0, "type": "electric_scooter", "bike_id": "93b98a3fa2d8ee41dd00ae39ecaf83df", "lon": -77.056845, "is_reserved": 0, "is_disabled": 0, "name": "93b98a3fa2d8ee41dd00ae39ecaf83df"}, {"rental_uris": {"android": "https://dc.lft.to/lastmile_qr_scan", "ios": "https://dc.lft.to/lastmile_qr_scan"}, "lat": 38.9003925, "fusion_lon": 0.0, "fusion_lat": 0.0, "type": "electric_scooter", "bike_id": "b703d67128e89decd87362fdb237a4a0", "lon": -76.99148, "is_reserved": 0, "is_disabled": 0, "name": "b703d67128e89decd87362fdb237a4a0"}, {"rental_uris": {"android": "https://dc.lft.to/lastmile_qr_scan", "ios": "https://dc.lft.to/lastmile_qr_scan"}, "lat": 38.921644666666666, "fusion_lon": 0.0, "fusion_lat": 0.0, "type": "electric_scooter", "bike_id": "f43ebb46aeb083075f8715aab8bcae42", "lon": -77.02113666666666, "is_reserved": 0, "is_disabled": 0, "name": "f43ebb46aeb083075f8715aab8bcae42"}, {"rental_uris": {"android": "https://dc.lft.to/lastmile_qr_scan", "ios": "https://dc.lft.to/lastmile_qr_scan"}, "lat": 38.92360866666667, "fusion_lon": 0.0, "fusion_lat": 0.0, "type": "electric_scooter", "bike_id": "99ca217d2708867c419214f5a4d24adc", "lon": -77.05128383333333, "is_reserved": 0, "is_disabled": 0, "name": "99ca217d2708867c419214f5a4d24adc"}, {"rental_uris": {"android": "https://dc.lft.to/lastmile_qr_scan", "ios": "https://dc.lft.to/lastmile_qr_scan"}, "lat": 38.916624666666664, "fusion_lon": 0.0, "fusion_lat": 0.0, "type": "electric_scooter", "bike_id": "0484dc2d602e0357af5533049d7f9e78", "lon": -77.02190566666667, "is_reserved": 0, "is_disabled": 0, "name": "0484dc2d602e0357af5533049d7f9e78"}, {"rental_uris": {"android": "https://dc.lft.to/lastmile_qr_scan", "ios": "https://dc.lft.to/lastmile_qr_scan"}, "lat": 38.88505416666667, "fusion_lon": 0.0, "fusion_lat": 0.0, "type": "electric_scooter", "bike_id": "1a50bb3a0d82fd92be29fde1819db937", "lon": -77.005656, "is_reserved": 0, "is_disabled": 0, "name": "1a50bb3a0d82fd92be29fde1819db937"}, {"rental_uris": {"android": "https://dc.lft.to/lastmile_qr_scan", "ios": "https://dc.lft.to/lastmile_qr_scan"}, "lat": 38.924666333333334, "fusion_lon": 0.0, "fusion_lat": 0.0, "type": "electric_scooter", "bike_id": "24f988fc45ed1d791ee140e7c74d2449", "lon": -77.0523095, "is_reserved": 0, "is_disabled": 0, "name": "24f988fc45ed1d791ee140e7c74d2449"}, {"rental_uris": {"android": "https://dc.lft.to/lastmile_qr_scan", "ios": "https://dc.lft.to/lastmile_qr_scan"}, "lat": 38.899187166666664, "fusion_lon": 0.0, "fusion_lat": 0.0, "type": "electric_scooter", "bike_id": "bcb7557a61053556c9e16a749611d6ab", "lon": -77.03993533333333, "is_reserved": 0, "is_disabled": 0, "name": "bcb7557a61053556c9e16a749611d6ab"}, {"rental_uris": {"android": "https://dc.lft.to/lastmile_qr_scan", "ios": "https://dc.lft.to/lastmile_qr_scan"}, "lat": 38.908092, "fusion_lon": 0.0, "fusion_lat": 0.0, "type": "electric_scooter", "bike_id": "191b471c5663ecc239331824194d21ba", "lon": -77.04336216666667, "is_reserved": 0, "is_disabled": 0, "name": "191b471c5663ecc239331824194d21ba"}, {"rental_uris": {"android": "https://dc.lft.to/lastmile_qr_scan", "ios": "https://dc.lft.to/lastmile_qr_scan"}, "lat": 38.92122216666667, "fusion_lon": 0.0, "fusion_lat": 0.0, "type": "electric_scooter", "bike_id": "2b044cf95e76135ef249207eb6b690cc", "lon": -77.04117483333333, "is_reserved": 0, "is_disabled": 0, "name": "2b044cf95e76135ef249207eb6b690cc"}, {"rental_uris": {"android": "https://dc.lft.to/lastmile_qr_scan", "ios": "https://dc.lft.to/lastmile_qr_scan"}, "lat": 38.907943333333336, "fusion_lon": 0.0, "fusion_lat": 0.0, "type": "electric_scooter", "bike_id": "5c0a908434c90fc4d802ee87affbe62b", "lon": -77.00011033333334, "is_reserved": 0, "is_disabled": 0, "name": "5c0a908434c90fc4d802ee87affbe62b"}, {"rental_uris": {"android": "https://dc.lft.to/lastmile_qr_scan", "ios": "https://dc.lft.to/lastmile_qr_scan"}, "lat": 38.8971585, "fusion_lon": 0.0, "fusion_lat": 0.0, "type": "electric_scooter", "bike_id": "c7f195e1c4dba1fb478a27fa5186b136", "lon": -77.0079645, "is_reserved": 0, "is_disabled": 0, "name": "c7f195e1c4dba1fb478a27fa5186b136"}, {"rental_uris": {"android": "https://dc.lft.to/lastmile_qr_scan", "ios": "https://dc.lft.to/lastmile_qr_scan"}, "lat": 38.92074916666667, "fusion_lon": 0.0, "fusion_lat": 0.0, "type": "electric_scooter", "bike_id": "d6e06ed9c2eea8721c0d5011f133c007", "lon": -77.02309916666667, "is_reserved": 0, "is_disabled": 0, "name": "d6e06ed9c2eea8721c0d5011f133c007"}, {"rental_uris": {"android": "https://dc.lft.to/lastmile_qr_scan", "ios": "https://dc.lft.to/lastmile_qr_scan"}, "lat": 38.88392416666667, "fusion_lon": 0.0, "fusion_lat": 0.0, "type": "electric_scooter", "bike_id": "d4aa1e7610ff7d9e73661a516e4ca797", "lon": -76.99508266666666, "is_reserved": 0, "is_disabled": 0, "name": "d4aa1e7610ff7d9e73661a516e4ca797"}, {"rental_uris": {"android": "https://dc.lft.to/lastmile_qr_scan", "ios": "https://dc.lft.to/lastmile_qr_scan"}, "lat": 38.90350683333333, "fusion_lon": 0.0, "fusion_lat": 0.0, "type": "electric_scooter", "bike_id": "0230bd9f00d9a6f678565303484710e1", "lon": -77.03298516666666, "is_reserved": 0, "is_disabled": 0, "name": "0230bd9f00d9a6f678565303484710e1"}, {"rental_uris": {"android": "https://dc.lft.to/lastmile_qr_scan", "ios": "https://dc.lft.to/lastmile_qr_scan"}, "lat": 38.904890333333334, "fusion_lon": 0.0, "fusion_lat": 0.0, "type": "electric_scooter", "bike_id": "6af18f576750d2dc5401edc75e17f6d5", "lon": -77.02142866666667, "is_reserved": 0, "is_disabled": 0, "name": "6af18f576750d2dc5401edc75e17f6d5"}, {"rental_uris": {"android": "https://dc.lft.to/lastmile_qr_scan", "ios": "https://dc.lft.to/lastmile_qr_scan"}, "lat": 38.90411266666667, "fusion_lon": 0.0, "fusion_lat": 0.0, "type": "electric_scooter", "bike_id": "d159382b1bbcbe4a7abf9d4b6451d317", "lon": -76.97330266666667, "is_reserved": 0, "is_disabled": 0, "name": "d159382b1bbcbe4a7abf9d4b6451d317"}, {"rental_uris": {"android": "https://dc.lft.to/lastmile_qr_scan", "ios": "https://dc.lft.to/lastmile_qr_scan"}, "lat": 38.915357, "fusion_lon": 0.0, "fusion_lat": 0.0, "type": "electric_scooter", "bike_id": "783824f479eb9b8b0a40ec45cc3488e6", "lon": -77.04469583333334, "is_reserved": 0, "is_disabled": 0, "name": "783824f479eb9b8b0a40ec45cc3488e6"}, {"rental_uris": {"android": "https://dc.lft.to/lastmile_qr_scan", "ios": "https://dc.lft.to/lastmile_qr_scan"}, "lat": 38.91095766666667, "fusion_lon": 0.0, "fusion_lat": 0.0, "type": "electric_scooter", "bike_id": "68dd00c65ff3d2c298d5147b81446cd7", "lon": -77.002842, "is_reserved": 0, "is_disabled": 0, "name": "68dd00c65ff3d2c298d5147b81446cd7"}, {"rental_uris": {"android": "https://dc.lft.to/lastmile_qr_scan", "ios": "https://dc.lft.to/lastmile_qr_scan"}, "lat": 38.904143166666664, "fusion_lon": 0.0, "fusion_lat": 0.0, "type": "electric_scooter", "bike_id": "16ed94e4786e8fbeec88374df22742ab", "lon": -77.04006, "is_reserved": 0, "is_disabled": 0, "name": "16ed94e4786e8fbeec88374df22742ab"}, {"rental_uris": {"android": "https://dc.lft.to/lastmile_qr_scan", "ios": "https://dc.lft.to/lastmile_qr_scan"}, "lat": 38.91987183333333, "fusion_lon": 0.0, "fusion_lat": 0.0, "type": "electric_scooter", "bike_id": "9be319d047dbd5739c4f6eef114d742a", "lon": -77.02178816666667, "is_reserved": 0, "is_disabled": 0, "name": "9be319d047dbd5739c4f6eef114d742a"}, {"rental_uris": {"android": "https://dc.lft.to/lastmile_qr_scan", "ios": "https://dc.lft.to/lastmile_qr_scan"}, "lat": 38.90286916666667, "fusion_lon": 0.0, "fusion_lat": 0.0, "type": "electric_scooter", "bike_id": "4b32601ca54368d425e1d8783a9696e1", "lon": -77.00182983333333, "is_reserved": 0, "is_disabled": 0, "name": "4b32601ca54368d425e1d8783a9696e1"}, {"rental_uris": {"android": "https://dc.lft.to/lastmile_qr_scan", "ios": "https://dc.lft.to/lastmile_qr_scan"}, "lat": 38.891398333333335, "fusion_lon": 0.0, "fusion_lat": 0.0, "type": "electric_scooter", "bike_id": "877f2503d562e7b61e1da23ad8352281", "lon": -76.990242, "is_reserved": 0, "is_disabled": 0, "name": "877f2503d562e7b61e1da23ad8352281"}, {"rental_uris": {"android": "https://dc.lft.to/lastmile_qr_scan", "ios": "https://dc.lft.to/lastmile_qr_scan"}, "lat": 38.94458483333333, "fusion_lon": 0.0, "fusion_lat": 0.0, "type": "electric_scooter", "bike_id": "1cef3538ef110ac45c08d68cb81615ae", "lon": -77.06339, "is_reserved": 0, "is_disabled": 0, "name": "1cef3538ef110ac45c08d68cb81615ae"}, {"rental_uris": {"android": "https://dc.lft.to/lastmile_qr_scan", "ios": "https://dc.lft.to/lastmile_qr_scan"}, "lat": 38.92069933333333, "fusion_lon": 0.0, "fusion_lat": 0.0, "type": "electric_scooter", "bike_id": "ce4e101a253d40034d9b536df05f60d3", "lon": -77.04379033333333, "is_reserved": 0, "is_disabled": 0, "name": "ce4e101a253d40034d9b536df05f60d3"}, {"rental_uris": {"android": "https://dc.lft.to/lastmile_qr_scan", "ios": "https://dc.lft.to/lastmile_qr_scan"}, "lat": 38.89945066666667, "fusion_lon": 0.0, "fusion_lat": 0.0, "type": "electric_scooter", "bike_id": "f26207c6c9ab9e0afb5be699c4336298", "lon": -77.03220866666666, "is_reserved": 0, "is_disabled": 0, "name": "f26207c6c9ab9e0afb5be699c4336298"}, {"rental_uris": {"android": "https://dc.lft.to/lastmile_qr_scan", "ios": "https://dc.lft.to/lastmile_qr_scan"}, "lat": 38.89565783333333, "fusion_lon": 0.0, "fusion_lat": 0.0, "type": "electric_scooter", "bike_id": "7979480ce83ae7df58f72e1d24966ea7", "lon": -77.021824, "is_reserved": 0, "is_disabled": 0, "name": "7979480ce83ae7df58f72e1d24966ea7"}, {"rental_uris": {"android": "https://dc.lft.to/lastmile_qr_scan", "ios": "https://dc.lft.to/lastmile_qr_scan"}, "lat": 38.90844, "fusion_lon": 0.0, "fusion_lat": 0.0, "type": "electric_scooter", "bike_id": "73f9413d3b494b31c03140eda9f56366", "lon": -77.039971, "is_reserved": 0, "is_disabled": 0, "name": "73f9413d3b494b31c03140eda9f56366"}, {"rental_uris": {"android": "https://dc.lft.to/lastmile_qr_scan", "ios": "https://dc.lft.to/lastmile_qr_scan"}, "lat": 38.90975183333333, "fusion_lon": 0.0, "fusion_lat": 0.0, "type": "electric_scooter", "bike_id": "59a52275b6d62eb2e811cc411aaa8369", "lon": -77.00886383333334, "is_reserved": 0, "is_disabled": 0, "name": "59a52275b6d62eb2e811cc411aaa8369"}, {"rental_uris": {"android": "https://dc.lft.to/lastmile_qr_scan", "ios": "https://dc.lft.to/lastmile_qr_scan"}, "lat": 38.8874825, "fusion_lon": 0.0, "fusion_lat": 0.0, "type": "electric_scooter", "bike_id": "538530bf241b887786d6dbf62c5d3d4c", "lon": -77.02860283333334, "is_reserved": 0, "is_disabled": 0, "name": "538530bf241b887786d6dbf62c5d3d4c"}, {"rental_uris": {"android": "https://dc.lft.to/lastmile_qr_scan", "ios": "https://dc.lft.to/lastmile_qr_scan"}, "lat": 38.87842366666667, "fusion_lon": 0.0, "fusion_lat": 0.0, "type": "electric_bike", "bike_id": "5e9048c094b2cd23a539886d62d00b0b", "lon": -77.007642, "is_reserved": 0, "is_disabled": 0, "name": "5e9048c094b2cd23a539886d62d00b0b"}, {"rental_uris": {"android": "https://dc.lft.to/lastmile_qr_scan", "ios": "https://dc.lft.to/lastmile_qr_scan"}, "lat": 38.92095833333333, "fusion_lon": 0.0, "fusion_lat": 0.0, "type": "electric_scooter", "bike_id": "f8c17213a0d224240d2fbedfe8846dce", "lon": -77.02515116666666, "is_reserved": 0, "is_disabled": 0, "name": "f8c17213a0d224240d2fbedfe8846dce"}, {"rental_uris": {"android": "https://dc.lft.to/lastmile_qr_scan", "ios": "https://dc.lft.to/lastmile_qr_scan"}, "lat": 38.907834333333334, "fusion_lon": 0.0, "fusion_lat": 0.0, "type": "electric_scooter", "bike_id": "80b90b91a372fe8cda147c6b61d4fc23", "lon": -77.072369, "is_reserved": 0, "is_disabled": 0, "name": "80b90b91a372fe8cda147c6b61d4fc23"}, {"rental_uris": {"android": "https://dc.lft.to/lastmile_qr_scan", "ios": "https://dc.lft.to/lastmile_qr_scan"}, "lat": 38.912373, "fusion_lon": 0.0, "fusion_lat": 0.0, "type": "electric_scooter", "bike_id": "2360215f4544c2374623ae05cb94cb4e", "lon": -76.986637, "is_reserved": 0, "is_disabled": 0, "name": "2360215f4544c2374623ae05cb94cb4e"}, {"rental_uris": {"android": "https://dc.lft.to/lastmile_qr_scan", "ios": "https://dc.lft.to/lastmile_qr_scan"}, "lat": 38.90347966666667, "fusion_lon": 0.0, "fusion_lat": 0.0, "type": "electric_scooter", "bike_id": "298803311c6270496cd12c6214b2f51b", "lon": -77.03479216666666, "is_reserved": 0, "is_disabled": 0, "name": "298803311c6270496cd12c6214b2f51b"}, {"rental_uris": {"android": "https://dc.lft.to/lastmile_qr_scan", "ios": "https://dc.lft.to/lastmile_qr_scan"}, "lat": 38.93987, "fusion_lon": 0.0, "fusion_lat": 0.0, "type": "electric_scooter", "bike_id": "3fcfb0553d95acc8631390d450075333", "lon": -77.02312866666666, "is_reserved": 0, "is_disabled": 0, "name": "3fcfb0553d95acc8631390d450075333"}, {"rental_uris": {"android": "https://dc.lft.to/lastmile_qr_scan", "ios": "https://dc.lft.to/lastmile_qr_scan"}, "lat": 38.91406, "fusion_lon": 0.0, "fusion_lat": 0.0, "type": "electric_scooter", "bike_id": "d4935c30897bcac88567bb13565bf457", "lon": -77.01802883333333, "is_reserved": 0, "is_disabled": 0, "name": "d4935c30897bcac88567bb13565bf457"}, {"rental_uris": {"android": "https://dc.lft.to/lastmile_qr_scan", "ios": "https://dc.lft.to/lastmile_qr_scan"}, "lat": 38.916600333333335, "fusion_lon": 0.0, "fusion_lat": 0.0, "type": "electric_scooter", "bike_id": "28e3e5e27964197aa0b1e4461bef4a59", "lon": -77.02568066666667, "is_reserved": 0, "is_disabled": 0, "name": "28e3e5e27964197aa0b1e4461bef4a59"}, {"rental_uris": {"android": "https://dc.lft.to/lastmile_qr_scan", "ios": "https://dc.lft.to/lastmile_qr_scan"}, "lat": 38.876782666666664, "fusion_lon": 0.0, "fusion_lat": 0.0, "type": "electric_scooter", "bike_id": "df6d2ca40f4d82e3e3bc6519fbec888d", "lon": -77.00364683333333, "is_reserved": 0, "is_disabled": 0, "name": "df6d2ca40f4d82e3e3bc6519fbec888d"}, {"rental_uris": {"android": "https://dc.lft.to/lastmile_qr_scan", "ios": "https://dc.lft.to/lastmile_qr_scan"}, "lat": 39.0158115, "fusion_lon": 0.0, "fusion_lat": 0.0, "type": "electric_bike", "bike_id": "2a692b90c6af10e39ac5206785c95d60", "lon": -77.04308266666666, "is_reserved": 0, "is_disabled": 0, "name": "2a692b90c6af10e39ac5206785c95d60"}, {"rental_uris": {"android": "https://dc.lft.to/lastmile_qr_scan", "ios": "https://dc.lft.to/lastmile_qr_scan"}, "lat": 38.883914833333336, "fusion_lon": 0.0, "fusion_lat": 0.0, "type": "electric_scooter", "bike_id": "96a48a887f20982cc1a84a192a916051", "lon": -77.03168533333333, "is_reserved": 0, "is_disabled": 0, "name": "96a48a887f20982cc1a84a192a916051"}, {"rental_uris": {"android": "https://dc.lft.to/lastmile_qr_scan", "ios": "https://dc.lft.to/lastmile_qr_scan"}, "lat": 38.924795333333336, "fusion_lon": 0.0, "fusion_lat": 0.0, "type": "electric_scooter", "bike_id": "df2d86b3df91d541df8d4a7ab4563a4c", "lon": -77.02222383333333, "is_reserved": 0, "is_disabled": 0, "name": "df2d86b3df91d541df8d4a7ab4563a4c"}, {"rental_uris": {"android": "https://dc.lft.to/lastmile_qr_scan", "ios": "https://dc.lft.to/lastmile_qr_scan"}, "lat": 38.932733999999996, "fusion_lon": 0.0, "fusion_lat": 0.0, "type": "electric_scooter", "bike_id": "2ed124e53d7e08189ffbcc2c41ec8ebb", "lon": -76.9909275, "is_reserved": 0, "is_disabled": 0, "name": "2ed124e53d7e08189ffbcc2c41ec8ebb"}, {"rental_uris": {"android": "https://dc.lft.to/lastmile_qr_scan", "ios": "https://dc.lft.to/lastmile_qr_scan"}, "lat": 38.920345166666664, "fusion_lon": 0.0, "fusion_lat": 0.0, "type": "electric_scooter", "bike_id": "18041624ebb7c0a22b9a86c9b2b1dc1a", "lon": -76.99559283333333, "is_reserved": 0, "is_disabled": 0, "name": "18041624ebb7c0a22b9a86c9b2b1dc1a"}, {"rental_uris": {"android": "https://dc.lft.to/lastmile_qr_scan", "ios": "https://dc.lft.to/lastmile_qr_scan"}, "lat": 38.900287, "fusion_lon": 0.0, "fusion_lat": 0.0, "type": "electric_scooter", "bike_id": "6e88fbb497827340bdb43ec6e422ec59", "lon": -77.05075866666667, "is_reserved": 0, "is_disabled": 0, "name": "6e88fbb497827340bdb43ec6e422ec59"}, {"rental_uris": {"android": "https://dc.lft.to/lastmile_qr_scan", "ios": "https://dc.lft.to/lastmile_qr_scan"}, "lat": 38.931944666666666, "fusion_lon": 0.0, "fusion_lat": 0.0, "type": "electric_scooter", "bike_id": "e8bf7d3550403ed19fc1322310fe3c80", "lon": -77.03747, "is_reserved": 0, "is_disabled": 0, "name": "e8bf7d3550403ed19fc1322310fe3c80"}, {"rental_uris": {"android": "https://dc.lft.to/lastmile_qr_scan", "ios": "https://dc.lft.to/lastmile_qr_scan"}, "lat": 38.924992833333334, "fusion_lon": 0.0, "fusion_lat": 0.0, "type": "electric_scooter", "bike_id": "f5f1433218fc65096fc1f11c786c59ef", "lon": -77.03807183333333, "is_reserved": 0, "is_disabled": 0, "name": "f5f1433218fc65096fc1f11c786c59ef"}, {"rental_uris": {"android": "https://dc.lft.to/lastmile_qr_scan", "ios": "https://dc.lft.to/lastmile_qr_scan"}, "lat": 38.90149, "fusion_lon": 0.0, "fusion_lat": 0.0, "type": "electric_scooter", "bike_id": "d8ad9c4f017ee036da345d92bd86dc16", "lon": -77.05913833333334, "is_reserved": 0, "is_disabled": 0, "name": "d8ad9c4f017ee036da345d92bd86dc16"}, {"rental_uris": {"android": "https://dc.lft.to/lastmile_qr_scan", "ios": "https://dc.lft.to/lastmile_qr_scan"}, "lat": 38.9223735, "fusion_lon": 0.0, "fusion_lat": 0.0, "type": "electric_scooter", "bike_id": "c74f150b977fb90dc0b1eb5fc9a8a2f9", "lon": -77.03365783333334, "is_reserved": 0, "is_disabled": 0, "name": "c74f150b977fb90dc0b1eb5fc9a8a2f9"}, {"rental_uris": {"android": "https://dc.lft.to/lastmile_qr_scan", "ios": "https://dc.lft.to/lastmile_qr_scan"}, "lat": 38.876303166666666, "fusion_lon": 0.0, "fusion_lat": 0.0, "type": "electric_scooter", "bike_id": "c536997b9ed5692fe908ff905521ad54", "lon": -77.009553, "is_reserved": 0, "is_disabled": 0, "name": "c536997b9ed5692fe908ff905521ad54"}, {"rental_uris": {"android": "https://dc.lft.to/lastmile_qr_scan", "ios": "https://dc.lft.to/lastmile_qr_scan"}, "lat": 38.9127085, "fusion_lon": 0.0, "fusion_lat": 0.0, "type": "electric_scooter", "bike_id": "1afe94c1fe25920ed29fe782fe415388", "lon": -77.02215816666667, "is_reserved": 0, "is_disabled": 0, "name": "1afe94c1fe25920ed29fe782fe415388"}, {"rental_uris": {"android": "https://dc.lft.to/lastmile_qr_scan", "ios": "https://dc.lft.to/lastmile_qr_scan"}, "lat": 38.931895, "fusion_lon": 0.0, "fusion_lat": 0.0, "type": "electric_scooter", "bike_id": "08b299c40498ee0be7e5c46747977b97", "lon": -77.01986383333333, "is_reserved": 0, "is_disabled": 0, "name": "08b299c40498ee0be7e5c46747977b97"}, {"rental_uris": {"android": "https://dc.lft.to/lastmile_qr_scan", "ios": "https://dc.lft.to/lastmile_qr_scan"}, "lat": 38.898488, "fusion_lon": 0.0, "fusion_lat": 0.0, "type": "electric_scooter", "bike_id": "e9a0656f626d75c207241461946399f9", "lon": -77.013742, "is_reserved": 0, "is_disabled": 0, "name": "e9a0656f626d75c207241461946399f9"}, {"rental_uris": {"android": "https://dc.lft.to/lastmile_qr_scan", "ios": "https://dc.lft.to/lastmile_qr_scan"}, "lat": 38.89950283333334, "fusion_lon": 0.0, "fusion_lat": 0.0, "type": "electric_scooter", "bike_id": "9c4699d4e1be9d1e89db25341d555857", "lon": -76.98826883333334, "is_reserved": 0, "is_disabled": 0, "name": "9c4699d4e1be9d1e89db25341d555857"}, {"rental_uris": {"android": "https://dc.lft.to/lastmile_qr_scan", "ios": "https://dc.lft.to/lastmile_qr_scan"}, "lat": 38.89265133333333, "fusion_lon": 0.0, "fusion_lat": 0.0, "type": "electric_scooter", "bike_id": "451be5dbf66b351cfbc9d1cd07616b40", "lon": -77.0037995, "is_reserved": 0, "is_disabled": 0, "name": "451be5dbf66b351cfbc9d1cd07616b40"}, {"rental_uris": {"android": "https://dc.lft.to/lastmile_qr_scan", "ios": "https://dc.lft.to/lastmile_qr_scan"}, "lat": 38.91195, "fusion_lon": 0.0, "fusion_lat": 0.0, "type": "electric_scooter", "bike_id": "ecf3675271a48053a264869b2be51767", "lon": -77.00729833333334, "is_reserved": 0, "is_disabled": 0, "name": "ecf3675271a48053a264869b2be51767"}, {"rental_uris": {"android": "https://dc.lft.to/lastmile_qr_scan", "ios": "https://dc.lft.to/lastmile_qr_scan"}, "lat": 38.92665316666667, "fusion_lon": 0.0, "fusion_lat": 0.0, "type": "electric_scooter", "bike_id": "9a5568372905cec1b4ff1eb581c22800", "lon": -76.99552183333333, "is_reserved": 0, "is_disabled": 0, "name": "9a5568372905cec1b4ff1eb581c22800"}, {"rental_uris": {"android": "https://dc.lft.to/lastmile_qr_scan", "ios": "https://dc.lft.to/lastmile_qr_scan"}, "lat": 38.90027033333333, "fusion_lon": 0.0, "fusion_lat": 0.0, "type": "electric_scooter", "bike_id": "cc52039a3a20f6a12f17b216a1c35682", "lon": -77.044666, "is_reserved": 0, "is_disabled": 0, "name": "cc52039a3a20f6a12f17b216a1c35682"}, {"rental_uris": {"android": "https://dc.lft.to/lastmile_qr_scan", "ios": "https://dc.lft.to/lastmile_qr_scan"}, "lat": 38.86513566666667, "fusion_lon": 0.0, "fusion_lat": 0.0, "type": "electric_scooter", "bike_id": "65f92f980383e5359364a2c2de6fcd7b", "lon": -76.990173, "is_reserved": 0, "is_disabled": 0, "name": "65f92f980383e5359364a2c2de6fcd7b"}, {"rental_uris": {"android": "https://dc.lft.to/lastmile_qr_scan", "ios": "https://dc.lft.to/lastmile_qr_scan"}, "lat": 38.89853566666667, "fusion_lon": 0.0, "fusion_lat": 0.0, "type": "electric_scooter", "bike_id": "6c5e6053fe795deed8165269406f0b8c", "lon": -77.04092783333333, "is_reserved": 0, "is_disabled": 0, "name": "6c5e6053fe795deed8165269406f0b8c"}, {"rental_uris": {"android": "https://dc.lft.to/lastmile_qr_scan", "ios": "https://dc.lft.to/lastmile_qr_scan"}, "lat": 38.8828945, "fusion_lon": 0.0, "fusion_lat": 0.0, "type": "electric_scooter", "bike_id": "560ce6c9048935af183213c556d4baeb", "lon": -76.98929733333334, "is_reserved": 0, "is_disabled": 0, "name": "560ce6c9048935af183213c556d4baeb"}, {"rental_uris": {"android": "https://dc.lft.to/lastmile_qr_scan", "ios": "https://dc.lft.to/lastmile_qr_scan"}, "lat": 38.9049605, "fusion_lon": 0.0, "fusion_lat": 0.0, "type": "electric_scooter", "bike_id": "a38101276d6d448ceae41f0f34ae5f65", "lon": -77.04859733333333, "is_reserved": 0, "is_disabled": 0, "name": "a38101276d6d448ceae41f0f34ae5f65"}, {"rental_uris": {"android": "https://dc.lft.to/lastmile_qr_scan", "ios": "https://dc.lft.to/lastmile_qr_scan"}, "lat": 38.94227266666667, "fusion_lon": 0.0, "fusion_lat": 0.0, "type": "electric_scooter", "bike_id": "f597a755de474196f602244190a85d99", "lon": -77.06219216666666, "is_reserved": 0, "is_disabled": 0, "name": "f597a755de474196f602244190a85d99"}, {"rental_uris": {"android": "https://dc.lft.to/lastmile_qr_scan", "ios": "https://dc.lft.to/lastmile_qr_scan"}, "lat": 38.93082316666667, "fusion_lon": 0.0, "fusion_lat": 0.0, "type": "electric_scooter", "bike_id": "b06c5a81c9564f6a65918e3a6dfc9bd9", "lon": -77.001982, "is_reserved": 0, "is_disabled": 0, "name": "b06c5a81c9564f6a65918e3a6dfc9bd9"}, {"rental_uris": {"android": "https://dc.lft.to/lastmile_qr_scan", "ios": "https://dc.lft.to/lastmile_qr_scan"}, "lat": 38.90035, "fusion_lon": 0.0, "fusion_lat": 0.0, "type": "electric_scooter", "bike_id": "9fa2a92900ca4865c864556f9d92128e", "lon": -77.03709133333334, "is_reserved": 0, "is_disabled": 0, "name": "9fa2a92900ca4865c864556f9d92128e"}, {"rental_uris": {"android": "https://dc.lft.to/lastmile_qr_scan", "ios": "https://dc.lft.to/lastmile_qr_scan"}, "lat": 38.938842666666666, "fusion_lon": 0.0, "fusion_lat": 0.0, "type": "electric_scooter", "bike_id": "4ba9536980d15c4b15e5343ae9c47c2d", "lon": -77.02834116666666, "is_reserved": 0, "is_disabled": 0, "name": "4ba9536980d15c4b15e5343ae9c47c2d"}, {"rental_uris": {"android": "https://dc.lft.to/lastmile_qr_scan", "ios": "https://dc.lft.to/lastmile_qr_scan"}, "lat": 38.90083166666667, "fusion_lon": 0.0, "fusion_lat": 0.0, "type": "electric_scooter", "bike_id": "27f22eb6cba81d052ee5c44e910bc9b7", "lon": -77.01300316666666, "is_reserved": 0, "is_disabled": 0, "name": "27f22eb6cba81d052ee5c44e910bc9b7"}, {"rental_uris": {"android": "https://dc.lft.to/lastmile_qr_scan", "ios": "https://dc.lft.to/lastmile_qr_scan"}, "lat": 38.914628, "fusion_lon": 0.0, "fusion_lat": 0.0, "type": "electric_scooter", "bike_id": "b565a2790a930dd42ffb3bf7e00953e7", "lon": -77.05450816666666, "is_reserved": 0, "is_disabled": 0, "name": "b565a2790a930dd42ffb3bf7e00953e7"}, {"rental_uris": {"android": "https://dc.lft.to/lastmile_qr_scan", "ios": "https://dc.lft.to/lastmile_qr_scan"}, "lat": 38.91661366666666, "fusion_lon": 0.0, "fusion_lat": 0.0, "type": "electric_scooter", "bike_id": "932e0884d88e3f3a359a00f33e13cda4", "lon": -77.03176616666667, "is_reserved": 0, "is_disabled": 0, "name": "932e0884d88e3f3a359a00f33e13cda4"}, {"rental_uris": {"android": "https://dc.lft.to/lastmile_qr_scan", "ios": "https://dc.lft.to/lastmile_qr_scan"}, "lat": 38.893541666666664, "fusion_lon": 0.0, "fusion_lat": 0.0, "type": "electric_scooter", "bike_id": "825c5178bffa7d7f7dc3709bed8d48bc", "lon": -77.00283933333333, "is_reserved": 0, "is_disabled": 0, "name": "825c5178bffa7d7f7dc3709bed8d48bc"}, {"rental_uris": {"android": "https://dc.lft.to/lastmile_qr_scan", "ios": "https://dc.lft.to/lastmile_qr_scan"}, "lat": 39.084356666666665, "fusion_lon": 0.0, "fusion_lat": 0.0, "type": "electric_bike", "bike_id": "f43b9ef6cd9ab2916f80c2f0506afe49", "lon": -76.9515915, "is_reserved": 0, "is_disabled": 0, "name": "f43b9ef6cd9ab2916f80c2f0506afe49"}, {"rental_uris": {"android": "https://dc.lft.to/lastmile_qr_scan", "ios": "https://dc.lft.to/lastmile_qr_scan"}, "lat": 38.909493499999996, "fusion_lon": 0.0, "fusion_lat": 0.0, "type": "electric_scooter", "bike_id": "89aee94c8555c277b0d7e9affe8b1c72", "lon": -76.93591616666667, "is_reserved": 0, "is_disabled": 0, "name": "89aee94c8555c277b0d7e9affe8b1c72"}, {"rental_uris": {"android": "https://dc.lft.to/lastmile_qr_scan", "ios": "https://dc.lft.to/lastmile_qr_scan"}, "lat": 38.930248, "fusion_lon": 0.0, "fusion_lat": 0.0, "type": "electric_scooter", "bike_id": "10ec1861cb4d2fb290a3d2836a3f6f61", "lon": -77.03797, "is_reserved": 0, "is_disabled": 0, "name": "10ec1861cb4d2fb290a3d2836a3f6f61"}, {"rental_uris": {"android": "https://dc.lft.to/lastmile_qr_scan", "ios": "https://dc.lft.to/lastmile_qr_scan"}, "lat": 38.885031833333336, "fusion_lon": 0.0, "fusion_lat": 0.0, "type": "electric_scooter", "bike_id": "98542ad5f2d8d7f9eb65967afabbdcf1", "lon": -77.0056415, "is_reserved": 0, "is_disabled": 0, "name": "98542ad5f2d8d7f9eb65967afabbdcf1"}, {"rental_uris": {"android": "https://dc.lft.to/lastmile_qr_scan", "ios": "https://dc.lft.to/lastmile_qr_scan"}, "lat": 38.92264983333333, "fusion_lon": 0.0, "fusion_lat": 0.0, "type": "electric_scooter", "bike_id": "72228d89724cd311bf6636065d9a7493", "lon": -77.0429955, "is_reserved": 0, "is_disabled": 0, "name": "72228d89724cd311bf6636065d9a7493"}, {"rental_uris": {"android": "https://dc.lft.to/lastmile_qr_scan", "ios": "https://dc.lft.to/lastmile_qr_scan"}, "lat": 38.903052833333334, "fusion_lon": 0.0, "fusion_lat": 0.0, "type": "electric_scooter", "bike_id": "982784f212a1f26e6d6ed9b225594c09", "lon": -77.04339583333334, "is_reserved": 0, "is_disabled": 0, "name": "982784f212a1f26e6d6ed9b225594c09"}, {"rental_uris": {"android": "https://dc.lft.to/lastmile_qr_scan", "ios": "https://dc.lft.to/lastmile_qr_scan"}, "lat": 38.91410483333333, "fusion_lon": 0.0, "fusion_lat": 0.0, "type": "electric_scooter", "bike_id": "fa42faa9b8a3760a1eee21e381c5fea1", "lon": -77.03137616666666, "is_reserved": 0, "is_disabled": 0, "name": "fa42faa9b8a3760a1eee21e381c5fea1"}, {"rental_uris": {"android": "https://dc.lft.to/lastmile_qr_scan", "ios": "https://dc.lft.to/lastmile_qr_scan"}, "lat": 38.929689, "fusion_lon": 0.0, "fusion_lat": 0.0, "type": "electric_scooter", "bike_id": "5761d08cb0471fc8bff44889b8e96bb0", "lon": -77.05516566666667, "is_reserved": 0, "is_disabled": 0, "name": "5761d08cb0471fc8bff44889b8e96bb0"}, {"rental_uris": {"android": "https://dc.lft.to/lastmile_qr_scan", "ios": "https://dc.lft.to/lastmile_qr_scan"}, "lat": 38.919686, "fusion_lon": 0.0, "fusion_lat": 0.0, "type": "electric_scooter", "bike_id": "ca63db01d54249c098dbde6403e5d0ad", "lon": -77.02187933333333, "is_reserved": 0, "is_disabled": 0, "name": "ca63db01d54249c098dbde6403e5d0ad"}, {"rental_uris": {"android": "https://dc.lft.to/lastmile_qr_scan", "ios": "https://dc.lft.to/lastmile_qr_scan"}, "lat": 38.9153885, "fusion_lon": 0.0, "fusion_lat": 0.0, "type": "electric_scooter", "bike_id": "c4107097e7ead94189b8de6775be051f", "lon": -77.04462266666667, "is_reserved": 0, "is_disabled": 0, "name": "c4107097e7ead94189b8de6775be051f"}, {"rental_uris": {"android": "https://dc.lft.to/lastmile_qr_scan", "ios": "https://dc.lft.to/lastmile_qr_scan"}, "lat": 38.8887755, "fusion_lon": 0.0, "fusion_lat": 0.0, "type": "electric_bike", "bike_id": "0be9e625700fc71f553d3c1ea7db77c8", "lon": -76.95696666666667, "is_reserved": 0, "is_disabled": 0, "name": "0be9e625700fc71f553d3c1ea7db77c8"}, {"rental_uris": {"android": "https://dc.lft.to/lastmile_qr_scan", "ios": "https://dc.lft.to/lastmile_qr_scan"}, "lat": 38.91678366666667, "fusion_lon": 0.0, "fusion_lat": 0.0, "type": "electric_scooter", "bike_id": "ae1aa879a9e825e194a9b250873196cf", "lon": -77.03206366666667, "is_reserved": 0, "is_disabled": 0, "name": "ae1aa879a9e825e194a9b250873196cf"}, {"rental_uris": {"android": "https://dc.lft.to/lastmile_qr_scan", "ios": "https://dc.lft.to/lastmile_qr_scan"}, "lat": 38.92555016666667, "fusion_lon": 0.0, "fusion_lat": 0.0, "type": "electric_scooter", "bike_id": "80cad7eab49613d4cda97b168988b3e7", "lon": -77.0529315, "is_reserved": 0, "is_disabled": 0, "name": "80cad7eab49613d4cda97b168988b3e7"}, {"rental_uris": {"android": "https://dc.lft.to/lastmile_qr_scan", "ios": "https://dc.lft.to/lastmile_qr_scan"}, "lat": 38.90080066666667, "fusion_lon": 0.0, "fusion_lat": 0.0, "type": "electric_scooter", "bike_id": "f5b1fa0026d788c7abbc09649fb85003", "lon": -77.05007283333333, "is_reserved": 0, "is_disabled": 0, "name": "f5b1fa0026d788c7abbc09649fb85003"}, {"rental_uris": {"android": "https://dc.lft.to/lastmile_qr_scan", "ios": "https://dc.lft.to/lastmile_qr_scan"}, "lat": 38.90471, "fusion_lon": 0.0, "fusion_lat": 0.0, "type": "electric_scooter", "bike_id": "7f72ee92ec27a6e4d5de3873844145cb", "lon": -77.025954, "is_reserved": 0, "is_disabled": 0, "name": "7f72ee92ec27a6e4d5de3873844145cb"}, {"rental_uris": {"android": "https://dc.lft.to/lastmile_qr_scan", "ios": "https://dc.lft.to/lastmile_qr_scan"}, "lat": 38.92322466666667, "fusion_lon": 0.0, "fusion_lat": 0.0, "type": "electric_bike", "bike_id": "be1763938545c3d5237e2d3d579fa065", "lon": -77.0443775, "is_reserved": 0, "is_disabled": 0, "name": "be1763938545c3d5237e2d3d579fa065"}, {"rental_uris": {"android": "https://dc.lft.to/lastmile_qr_scan", "ios": "https://dc.lft.to/lastmile_qr_scan"}, "lat": 38.906372833333336, "fusion_lon": 0.0, "fusion_lat": 0.0, "type": "electric_scooter", "bike_id": "6dc5c17965fd491f488a2ad43798c0bb", "lon": -77.05133166666667, "is_reserved": 0, "is_disabled": 0, "name": "6dc5c17965fd491f488a2ad43798c0bb"}, {"rental_uris": {"android": "https://dc.lft.to/lastmile_qr_scan", "ios": "https://dc.lft.to/lastmile_qr_scan"}, "lat": 38.90148933333333, "fusion_lon": 0.0, "fusion_lat": 0.0, "type": "electric_scooter", "bike_id": "ebc1d95d6da56087812aa3f7d848b1ee", "lon": -77.01497816666667, "is_reserved": 0, "is_disabled": 0, "name": "ebc1d95d6da56087812aa3f7d848b1ee"}, {"rental_uris": {"android": "https://dc.lft.to/lastmile_qr_scan", "ios": "https://dc.lft.to/lastmile_qr_scan"}, "lat": 38.89469833333333, "fusion_lon": 0.0, "fusion_lat": 0.0, "type": "electric_scooter", "bike_id": "cfa17fdffa97c3fc29552813903a23c8", "lon": -77.01101766666666, "is_reserved": 0, "is_disabled": 0, "name": "cfa17fdffa97c3fc29552813903a23c8"}, {"rental_uris": {"android": "https://dc.lft.to/lastmile_qr_scan", "ios": "https://dc.lft.to/lastmile_qr_scan"}, "lat": 38.92424333333334, "fusion_lon": 0.0, "fusion_lat": 0.0, "type": "electric_scooter", "bike_id": "37a281db7dbe6179623ae96c0c902273", "lon": -77.05176133333333, "is_reserved": 0, "is_disabled": 0, "name": "37a281db7dbe6179623ae96c0c902273"}, {"rental_uris": {"android": "https://dc.lft.to/lastmile_qr_scan", "ios": "https://dc.lft.to/lastmile_qr_scan"}, "lat": 38.89220916666667, "fusion_lon": 0.0, "fusion_lat": 0.0, "type": "electric_scooter", "bike_id": "ec6ced36e37c98c654f5a88adc650a80", "lon": -77.04683816666666, "is_reserved": 0, "is_disabled": 0, "name": "ec6ced36e37c98c654f5a88adc650a80"}, {"rental_uris": {"android": "https://dc.lft.to/lastmile_qr_scan", "ios": "https://dc.lft.to/lastmile_qr_scan"}, "lat": 38.90964683333333, "fusion_lon": 0.0, "fusion_lat": 0.0, "type": "electric_scooter", "bike_id": "b7e2f2d16558f60d25a96dc3735844fc", "lon": -77.04471066666666, "is_reserved": 0, "is_disabled": 0, "name": "b7e2f2d16558f60d25a96dc3735844fc"}, {"rental_uris": {"android": "https://dc.lft.to/lastmile_qr_scan", "ios": "https://dc.lft.to/lastmile_qr_scan"}, "lat": 38.92472466666667, "fusion_lon": 0.0, "fusion_lat": 0.0, "type": "electric_scooter", "bike_id": "f6b1d9968cc0388442b5d63112b7fd45", "lon": -77.052308, "is_reserved": 0, "is_disabled": 0, "name": "f6b1d9968cc0388442b5d63112b7fd45"}, {"rental_uris": {"android": "https://dc.lft.to/lastmile_qr_scan", "ios": "https://dc.lft.to/lastmile_qr_scan"}, "lat": 38.98384383333333, "fusion_lon": 0.0, "fusion_lat": 0.0, "type": "electric_bike", "bike_id": "b693472b48b2d5677203c05145aeef92", "lon": -76.94718083333333, "is_reserved": 0, "is_disabled": 0, "name": "b693472b48b2d5677203c05145aeef92"}, {"rental_uris": {"android": "https://dc.lft.to/lastmile_qr_scan", "ios": "https://dc.lft.to/lastmile_qr_scan"}, "lat": 38.876660333333334, "fusion_lon": 0.0, "fusion_lat": 0.0, "type": "electric_scooter", "bike_id": "d6caac9d7e30ecf5cbd044d6e9a0bb42", "lon": -77.00443933333334, "is_reserved": 0, "is_disabled": 0, "name": "d6caac9d7e30ecf5cbd044d6e9a0bb42"}, {"rental_uris": {"android": "https://dc.lft.to/lastmile_qr_scan", "ios": "https://dc.lft.to/lastmile_qr_scan"}, "lat": 38.92639366666667, "fusion_lon": 0.0, "fusion_lat": 0.0, "type": "electric_scooter", "bike_id": "1765b8c5a4c1f9101e54d7b40f7820cf", "lon": -77.013414, "is_reserved": 0, "is_disabled": 0, "name": "1765b8c5a4c1f9101e54d7b40f7820cf"}, {"rental_uris": {"android": "https://dc.lft.to/lastmile_qr_scan", "ios": "https://dc.lft.to/lastmile_qr_scan"}, "lat": 38.87375016666667, "fusion_lon": 0.0, "fusion_lat": 0.0, "type": "electric_scooter", "bike_id": "470dea6cd09ef3fb70da0f8a99c2f3cc", "lon": -77.00136716666667, "is_reserved": 0, "is_disabled": 0, "name": "470dea6cd09ef3fb70da0f8a99c2f3cc"}, {"rental_uris": {"android": "https://dc.lft.to/lastmile_qr_scan", "ios": "https://dc.lft.to/lastmile_qr_scan"}, "lat": 38.90959683333333, "fusion_lon": 0.0, "fusion_lat": 0.0, "type": "electric_scooter", "bike_id": "19f86ed7bca266289353f0d8214e4277", "lon": -77.00736183333333, "is_reserved": 0, "is_disabled": 0, "name": "19f86ed7bca266289353f0d8214e4277"}, {"rental_uris": {"android": "https://dc.lft.to/lastmile_qr_scan", "ios": "https://dc.lft.to/lastmile_qr_scan"}, "lat": 38.914055166666664, "fusion_lon": 0.0, "fusion_lat": 0.0, "type": "electric_bike", "bike_id": "49320b49354b178d13f70e4247212aa8", "lon": -77.0119035, "is_reserved": 0, "is_disabled": 0, "name": "49320b49354b178d13f70e4247212aa8"}, {"rental_uris": {"android": "https://dc.lft.to/lastmile_qr_scan", "ios": "https://dc.lft.to/lastmile_qr_scan"}, "lat": 38.92979583333333, "fusion_lon": 0.0, "fusion_lat": 0.0, "type": "electric_scooter", "bike_id": "c5368425689fd8135b3fbd09f9a4512e", "lon": -77.07285566666667, "is_reserved": 0, "is_disabled": 0, "name": "c5368425689fd8135b3fbd09f9a4512e"}, {"rental_uris": {"android": "https://dc.lft.to/lastmile_qr_scan", "ios": "https://dc.lft.to/lastmile_qr_scan"}, "lat": 38.892216833333336, "fusion_lon": 0.0, "fusion_lat": 0.0, "type": "electric_scooter", "bike_id": "4117fa5799b30e7facef2a47464bf262", "lon": -77.03222216666667, "is_reserved": 0, "is_disabled": 0, "name": "4117fa5799b30e7facef2a47464bf262"}, {"rental_uris": {"android": "https://dc.lft.to/lastmile_qr_scan", "ios": "https://dc.lft.to/lastmile_qr_scan"}, "lat": 38.90905133333333, "fusion_lon": 0.0, "fusion_lat": 0.0, "type": "electric_bike", "bike_id": "f658307e5bbe8ad12312b6abf562b98f", "lon": -77.08999783333333, "is_reserved": 0, "is_disabled": 0, "name": "f658307e5bbe8ad12312b6abf562b98f"}, {"rental_uris": {"android": "https://dc.lft.to/lastmile_qr_scan", "ios": "https://dc.lft.to/lastmile_qr_scan"}, "lat": 38.95656566666667, "fusion_lon": 0.0, "fusion_lat": 0.0, "type": "electric_scooter", "bike_id": "01f22b8d7bbeed8a240aaa8bdb2b6124", "lon": -77.032937, "is_reserved": 0, "is_disabled": 0, "name": "01f22b8d7bbeed8a240aaa8bdb2b6124"}, {"rental_uris": {"android": "https://dc.lft.to/lastmile_qr_scan", "ios": "https://dc.lft.to/lastmile_qr_scan"}, "lat": 38.898701333333335, "fusion_lon": 0.0, "fusion_lat": 0.0, "type": "electric_scooter", "bike_id": "9d15c6f89e423b771e90a3bab78415b2", "lon": -76.94663316666667, "is_reserved": 0, "is_disabled": 0, "name": "9d15c6f89e423b771e90a3bab78415b2"}, {"rental_uris": {"android": "https://dc.lft.to/lastmile_qr_scan", "ios": "https://dc.lft.to/lastmile_qr_scan"}, "lat": 38.920260666666664, "fusion_lon": 0.0, "fusion_lat": 0.0, "type": "electric_scooter", "bike_id": "df4cc4a272b1240fc0c7439afde299a4", "lon": -77.07126416666667, "is_reserved": 0, "is_disabled": 0, "name": "df4cc4a272b1240fc0c7439afde299a4"}, {"rental_uris": {"android": "https://dc.lft.to/lastmile_qr_scan", "ios": "https://dc.lft.to/lastmile_qr_scan"}, "lat": 38.90836816666667, "fusion_lon": 0.0, "fusion_lat": 0.0, "type": "electric_scooter", "bike_id": "0469ef535ec69cc333581a403d1d6a14", "lon": -77.0399895, "is_reserved": 0, "is_disabled": 0, "name": "0469ef535ec69cc333581a403d1d6a14"}, {"rental_uris": {"android": "https://dc.lft.to/lastmile_qr_scan", "ios": "https://dc.lft.to/lastmile_qr_scan"}, "lat": 38.90629416666667, "fusion_lon": 0.0, "fusion_lat": 0.0, "type": "electric_scooter", "bike_id": "243bcb2053ba5dc9d17dd108d0598599", "lon": -77.00609766666666, "is_reserved": 0, "is_disabled": 0, "name": "243bcb2053ba5dc9d17dd108d0598599"}, {"rental_uris": {"android": "https://dc.lft.to/lastmile_qr_scan", "ios": "https://dc.lft.to/lastmile_qr_scan"}, "lat": 38.9153555, "fusion_lon": 0.0, "fusion_lat": 0.0, "type": "electric_scooter", "bike_id": "ab0e3f02c307c29bd8091e4d7a3de8a9", "lon": -77.04473566666667, "is_reserved": 0, "is_disabled": 0, "name": "ab0e3f02c307c29bd8091e4d7a3de8a9"}, {"rental_uris": {"android": "https://dc.lft.to/lastmile_qr_scan", "ios": "https://dc.lft.to/lastmile_qr_scan"}, "lat": 38.9163775, "fusion_lon": 0.0, "fusion_lat": 0.0, "type": "electric_scooter", "bike_id": "049e03468b593a99f8152458e0aeaff3", "lon": -77.0288365, "is_reserved": 0, "is_disabled": 0, "name": "049e03468b593a99f8152458e0aeaff3"}, {"rental_uris": {"android": "https://dc.lft.to/lastmile_qr_scan", "ios": "https://dc.lft.to/lastmile_qr_scan"}, "lat": 38.9049775, "fusion_lon": 0.0, "fusion_lat": 0.0, "type": "electric_scooter", "bike_id": "e960b85e057efd6180b25f031ffe25f4", "lon": -76.98708983333333, "is_reserved": 0, "is_disabled": 0, "name": "e960b85e057efd6180b25f031ffe25f4"}, {"rental_uris": {"android": "https://dc.lft.to/lastmile_qr_scan", "ios": "https://dc.lft.to/lastmile_qr_scan"}, "lat": 38.923315, "fusion_lon": 0.0, "fusion_lat": 0.0, "type": "electric_scooter", "bike_id": "0522aada88762dbce52316b2b66fdb4b", "lon": -77.04187466666667, "is_reserved": 0, "is_disabled": 0, "name": "0522aada88762dbce52316b2b66fdb4b"}, {"rental_uris": {"android": "https://dc.lft.to/lastmile_qr_scan", "ios": "https://dc.lft.to/lastmile_qr_scan"}, "lat": 38.9190345, "fusion_lon": 0.0, "fusion_lat": 0.0, "type": "electric_scooter", "bike_id": "4eb3d305915e5922d8cdb07d250a07a0", "lon": -77.02079516666667, "is_reserved": 0, "is_disabled": 0, "name": "4eb3d305915e5922d8cdb07d250a07a0"}, {"rental_uris": {"android": "https://dc.lft.to/lastmile_qr_scan", "ios": "https://dc.lft.to/lastmile_qr_scan"}, "lat": 38.9082425, "fusion_lon": 0.0, "fusion_lat": 0.0, "type": "electric_scooter", "bike_id": "982e868d75a680faf9fa056d4c373919", "lon": -76.99451366666666, "is_reserved": 0, "is_disabled": 0, "name": "982e868d75a680faf9fa056d4c373919"}, {"rental_uris": {"android": "https://dc.lft.to/lastmile_qr_scan", "ios": "https://dc.lft.to/lastmile_qr_scan"}, "lat": 38.904156, "fusion_lon": 0.0, "fusion_lat": 0.0, "type": "electric_scooter", "bike_id": "c4b74a502a1d8efb1213822b99eeb760", "lon": -77.05330266666667, "is_reserved": 0, "is_disabled": 0, "name": "c4b74a502a1d8efb1213822b99eeb760"}, {"rental_uris": {"android": "https://dc.lft.to/lastmile_qr_scan", "ios": "https://dc.lft.to/lastmile_qr_scan"}, "lat": 38.902537333333335, "fusion_lon": 0.0, "fusion_lat": 0.0, "type": "electric_scooter", "bike_id": "48a124b24a29df801f0bde75b4907f82", "lon": -77.03993783333334, "is_reserved": 0, "is_disabled": 0, "name": "48a124b24a29df801f0bde75b4907f82"}, {"rental_uris": {"android": "https://dc.lft.to/lastmile_qr_scan", "ios": "https://dc.lft.to/lastmile_qr_scan"}, "lat": 38.930546166666666, "fusion_lon": 0.0, "fusion_lat": 0.0, "type": "electric_scooter", "bike_id": "91f17412bec2e2cc8d1f0d0126989a7a", "lon": -77.018711, "is_reserved": 0, "is_disabled": 0, "name": "91f17412bec2e2cc8d1f0d0126989a7a"}, {"rental_uris": {"android": "https://dc.lft.to/lastmile_qr_scan", "ios": "https://dc.lft.to/lastmile_qr_scan"}, "lat": 38.925061166666666, "fusion_lon": 0.0, "fusion_lat": 0.0, "type": "electric_scooter", "bike_id": "864fd3aef8711c75f81d0c852de4e7d3", "lon": -77.02440516666667, "is_reserved": 0, "is_disabled": 0, "name": "864fd3aef8711c75f81d0c852de4e7d3"}, {"rental_uris": {"android": "https://dc.lft.to/lastmile_qr_scan", "ios": "https://dc.lft.to/lastmile_qr_scan"}, "lat": 38.863735, "fusion_lon": 0.0, "fusion_lat": 0.0, "type": "electric_scooter", "bike_id": "56a87015782b64fe8221aebab38fc3e4", "lon": -76.99056416666667, "is_reserved": 0, "is_disabled": 0, "name": "56a87015782b64fe8221aebab38fc3e4"}, {"rental_uris": {"android": "https://dc.lft.to/lastmile_qr_scan", "ios": "https://dc.lft.to/lastmile_qr_scan"}, "lat": 38.893104, "fusion_lon": 0.0, "fusion_lat": 0.0, "type": "electric_scooter", "bike_id": "97d1117f9b58e1e63300cad34a9fbd45", "lon": -77.04288916666667, "is_reserved": 0, "is_disabled": 0, "name": "97d1117f9b58e1e63300cad34a9fbd45"}, {"rental_uris": {"android": "https://dc.lft.to/lastmile_qr_scan", "ios": "https://dc.lft.to/lastmile_qr_scan"}, "lat": 38.909542333333334, "fusion_lon": 0.0, "fusion_lat": 0.0, "type": "electric_scooter", "bike_id": "4e9a8917892312aadb8e4dfeb5a3aae0", "lon": -77.01276483333334, "is_reserved": 0, "is_disabled": 0, "name": "4e9a8917892312aadb8e4dfeb5a3aae0"}, {"rental_uris": {"android": "https://dc.lft.to/lastmile_qr_scan", "ios": "https://dc.lft.to/lastmile_qr_scan"}, "lat": 38.885983833333334, "fusion_lon": 0.0, "fusion_lat": 0.0, "type": "electric_scooter", "bike_id": "2ef8cf16e6afeee333c72850b1e6a8f4", "lon": -76.92499883333333, "is_reserved": 0, "is_disabled": 0, "name": "2ef8cf16e6afeee333c72850b1e6a8f4"}, {"rental_uris": {"android": "https://dc.lft.to/lastmile_qr_scan", "ios": "https://dc.lft.to/lastmile_qr_scan"}, "lat": 38.911979, "fusion_lon": 0.0, "fusion_lat": 0.0, "type": "electric_scooter", "bike_id": "c3100b7c23f21400ab4fca0834a6b694", "lon": -77.0453245, "is_reserved": 0, "is_disabled": 0, "name": "c3100b7c23f21400ab4fca0834a6b694"}, {"rental_uris": {"android": "https://dc.lft.to/lastmile_qr_scan", "ios": "https://dc.lft.to/lastmile_qr_scan"}, "lat": 38.948827666666666, "fusion_lon": 0.0, "fusion_lat": 0.0, "type": "electric_scooter", "bike_id": "f4a99085d765334d1fcb25aa154b1302", "lon": -77.0644635, "is_reserved": 0, "is_disabled": 0, "name": "f4a99085d765334d1fcb25aa154b1302"}, {"rental_uris": {"android": "https://dc.lft.to/lastmile_qr_scan", "ios": "https://dc.lft.to/lastmile_qr_scan"}, "lat": 38.90569, "fusion_lon": 0.0, "fusion_lat": 0.0, "type": "electric_scooter", "bike_id": "eaa918347a7f5e16cf953b1b00903584", "lon": -77.0416175, "is_reserved": 0, "is_disabled": 0, "name": "eaa918347a7f5e16cf953b1b00903584"}, {"rental_uris": {"android": "https://dc.lft.to/lastmile_qr_scan", "ios": "https://dc.lft.to/lastmile_qr_scan"}, "lat": 38.90028366666667, "fusion_lon": 0.0, "fusion_lat": 0.0, "type": "electric_scooter", "bike_id": "cb63b5a80476f960b72384e56ea96a51", "lon": -76.98860016666667, "is_reserved": 0, "is_disabled": 0, "name": "cb63b5a80476f960b72384e56ea96a51"}, {"rental_uris": {"android": "https://dc.lft.to/lastmile_qr_scan", "ios": "https://dc.lft.to/lastmile_qr_scan"}, "lat": 38.9205975, "fusion_lon": 0.0, "fusion_lat": 0.0, "type": "electric_scooter", "bike_id": "0e22966666d6c9cb9f4c0a565832e75d", "lon": -77.0254505, "is_reserved": 0, "is_disabled": 0, "name": "0e22966666d6c9cb9f4c0a565832e75d"}, {"rental_uris": {"android": "https://dc.lft.to/lastmile_qr_scan", "ios": "https://dc.lft.to/lastmile_qr_scan"}, "lat": 38.892842333333334, "fusion_lon": 0.0, "fusion_lat": 0.0, "type": "electric_scooter", "bike_id": "fdfcea2531753e3722656d25a22f2e6f", "lon": -77.019816, "is_reserved": 0, "is_disabled": 0, "name": "fdfcea2531753e3722656d25a22f2e6f"}, {"rental_uris": {"android": "https://dc.lft.to/lastmile_qr_scan", "ios": "https://dc.lft.to/lastmile_qr_scan"}, "lat": 38.918093166666665, "fusion_lon": 0.0, "fusion_lat": 0.0, "type": "electric_scooter", "bike_id": "9626c3638c7b3b9dc3307a84856f2188", "lon": -76.99961933333333, "is_reserved": 0, "is_disabled": 0, "name": "9626c3638c7b3b9dc3307a84856f2188"}, {"rental_uris": {"android": "https://dc.lft.to/lastmile_qr_scan", "ios": "https://dc.lft.to/lastmile_qr_scan"}, "lat": 38.89841916666666, "fusion_lon": 0.0, "fusion_lat": 0.0, "type": "electric_scooter", "bike_id": "bf37c41856f61090851066690f08c397", "lon": -77.0423425, "is_reserved": 0, "is_disabled": 0, "name": "bf37c41856f61090851066690f08c397"}, {"rental_uris": {"android": "https://dc.lft.to/lastmile_qr_scan", "ios": "https://dc.lft.to/lastmile_qr_scan"}, "lat": 38.88592116666667, "fusion_lon": 0.0, "fusion_lat": 0.0, "type": "electric_scooter", "bike_id": "97d5762efe3cefdab4f590dde453a075", "lon": -77.03110883333333, "is_reserved": 0, "is_disabled": 0, "name": "97d5762efe3cefdab4f590dde453a075"}, {"rental_uris": {"android": "https://dc.lft.to/lastmile_qr_scan", "ios": "https://dc.lft.to/lastmile_qr_scan"}, "lat": 38.8651, "fusion_lon": 0.0, "fusion_lat": 0.0, "type": "electric_scooter", "bike_id": "de91424d4a6b2ad85138ca566d064da9", "lon": -76.97338733333333, "is_reserved": 0, "is_disabled": 0, "name": "de91424d4a6b2ad85138ca566d064da9"}, {"rental_uris": {"android": "https://dc.lft.to/lastmile_qr_scan", "ios": "https://dc.lft.to/lastmile_qr_scan"}, "lat": 38.91472316666667, "fusion_lon": 0.0, "fusion_lat": 0.0, "type": "electric_scooter", "bike_id": "a67ff1d1e5034686c8cd5e048fc05c79", "lon": -77.002025, "is_reserved": 0, "is_disabled": 0, "name": "a67ff1d1e5034686c8cd5e048fc05c79"}, {"rental_uris": {"android": "https://dc.lft.to/lastmile_qr_scan", "ios": "https://dc.lft.to/lastmile_qr_scan"}, "lat": 38.91038, "fusion_lon": 0.0, "fusion_lat": 0.0, "type": "electric_scooter", "bike_id": "29d559ebc7113fa2cc21027a7a32dcaf", "lon": -76.99744533333333, "is_reserved": 0, "is_disabled": 0, "name": "29d559ebc7113fa2cc21027a7a32dcaf"}, {"rental_uris": {"android": "https://dc.lft.to/lastmile_qr_scan", "ios": "https://dc.lft.to/lastmile_qr_scan"}, "lat": 38.899543, "fusion_lon": 0.0, "fusion_lat": 0.0, "type": "electric_scooter", "bike_id": "52ee9a246ca9ae1125c13b05ab29088c", "lon": -77.043455, "is_reserved": 0, "is_disabled": 0, "name": "52ee9a246ca9ae1125c13b05ab29088c"}, {"rental_uris": {"android": "https://dc.lft.to/lastmile_qr_scan", "ios": "https://dc.lft.to/lastmile_qr_scan"}, "lat": 38.902500333333336, "fusion_lon": 0.0, "fusion_lat": 0.0, "type": "electric_scooter", "bike_id": "1c61e39fde1063c1cecbeee6493cc4b2", "lon": -77.02478516666666, "is_reserved": 0, "is_disabled": 0, "name": "1c61e39fde1063c1cecbeee6493cc4b2"}, {"rental_uris": {"android": "https://dc.lft.to/lastmile_qr_scan", "ios": "https://dc.lft.to/lastmile_qr_scan"}, "lat": 38.91922783333333, "fusion_lon": 0.0, "fusion_lat": 0.0, "type": "electric_scooter", "bike_id": "36e240a3506064771d2a978f79a027ce", "lon": -77.03355333333333, "is_reserved": 0, "is_disabled": 0, "name": "36e240a3506064771d2a978f79a027ce"}, {"rental_uris": {"android": "https://dc.lft.to/lastmile_qr_scan", "ios": "https://dc.lft.to/lastmile_qr_scan"}, "lat": 38.8769215, "fusion_lon": 0.0, "fusion_lat": 0.0, "type": "electric_scooter", "bike_id": "6444608c6c68a31ce16a527691c128b4", "lon": -77.00669116666667, "is_reserved": 0, "is_disabled": 0, "name": "6444608c6c68a31ce16a527691c128b4"}, {"rental_uris": {"android": "https://dc.lft.to/lastmile_qr_scan", "ios": "https://dc.lft.to/lastmile_qr_scan"}, "lat": 38.904353, "fusion_lon": 0.0, "fusion_lat": 0.0, "type": "electric_scooter", "bike_id": "36ad500e64e4864a5d64c0ef933cc302", "lon": -77.046753, "is_reserved": 0, "is_disabled": 0, "name": "36ad500e64e4864a5d64c0ef933cc302"}, {"rental_uris": {"android": "https://dc.lft.to/lastmile_qr_scan", "ios": "https://dc.lft.to/lastmile_qr_scan"}, "lat": 38.8923055, "fusion_lon": 0.0, "fusion_lat": 0.0, "type": "electric_scooter", "bike_id": "a17d8faf5b3e2e8a7fd34d7263a90116", "lon": -77.05001333333334, "is_reserved": 0, "is_disabled": 0, "name": "a17d8faf5b3e2e8a7fd34d7263a90116"}, {"rental_uris": {"android": "https://dc.lft.to/lastmile_qr_scan", "ios": "https://dc.lft.to/lastmile_qr_scan"}, "lat": 38.903755333333336, "fusion_lon": 0.0, "fusion_lat": 0.0, "type": "electric_scooter", "bike_id": "993eb52d60e46121e1e1a3ef83e6ad31", "lon": -77.01782483333334, "is_reserved": 0, "is_disabled": 0, "name": "993eb52d60e46121e1e1a3ef83e6ad31"}, {"rental_uris": {"android": "https://dc.lft.to/lastmile_qr_scan", "ios": "https://dc.lft.to/lastmile_qr_scan"}, "lat": 38.91944766666667, "fusion_lon": 0.0, "fusion_lat": 0.0, "type": "electric_bike", "bike_id": "26fee7f3a2283405bf5f3ed58290e697", "lon": -77.02509183333333, "is_reserved": 0, "is_disabled": 0, "name": "26fee7f3a2283405bf5f3ed58290e697"}, {"rental_uris": {"android": "https://dc.lft.to/lastmile_qr_scan", "ios": "https://dc.lft.to/lastmile_qr_scan"}, "lat": 38.91414566666667, "fusion_lon": 0.0, "fusion_lat": 0.0, "type": "electric_scooter", "bike_id": "c08d5ce622a38e54649600ea31178ebe", "lon": -77.02231183333333, "is_reserved": 0, "is_disabled": 0, "name": "c08d5ce622a38e54649600ea31178ebe"}, {"rental_uris": {"android": "https://dc.lft.to/lastmile_qr_scan", "ios": "https://dc.lft.to/lastmile_qr_scan"}, "lat": 38.906072, "fusion_lon": 0.0, "fusion_lat": 0.0, "type": "electric_scooter", "bike_id": "30b2a0a7465ca5a871fce0f09ec333ea", "lon": -77.03998983333334, "is_reserved": 0, "is_disabled": 0, "name": "30b2a0a7465ca5a871fce0f09ec333ea"}, {"rental_uris": {"android": "https://dc.lft.to/lastmile_qr_scan", "ios": "https://dc.lft.to/lastmile_qr_scan"}, "lat": 38.919939666666664, "fusion_lon": 0.0, "fusion_lat": 0.0, "type": "electric_scooter", "bike_id": "acee747d6dfe0c7387e0cf9cc4eeb9b6", "lon": -77.01785316666667, "is_reserved": 0, "is_disabled": 0, "name": "acee747d6dfe0c7387e0cf9cc4eeb9b6"}, {"rental_uris": {"android": "https://dc.lft.to/lastmile_qr_scan", "ios": "https://dc.lft.to/lastmile_qr_scan"}, "lat": 38.926744666666664, "fusion_lon": 0.0, "fusion_lat": 0.0, "type": "electric_scooter", "bike_id": "12fe4d757d447b35ee9125088183c459", "lon": -77.03570516666667, "is_reserved": 0, "is_disabled": 0, "name": "12fe4d757d447b35ee9125088183c459"}, {"rental_uris": {"android": "https://dc.lft.to/lastmile_qr_scan", "ios": "https://dc.lft.to/lastmile_qr_scan"}, "lat": 38.915356833333334, "fusion_lon": 0.0, "fusion_lat": 0.0, "type": "electric_scooter", "bike_id": "fc06b6cfc08b3764da085b3c3d9e697a", "lon": -77.04467416666667, "is_reserved": 0, "is_disabled": 0, "name": "fc06b6cfc08b3764da085b3c3d9e697a"}, {"rental_uris": {"android": "https://dc.lft.to/lastmile_qr_scan", "ios": "https://dc.lft.to/lastmile_qr_scan"}, "lat": 38.92607616666667, "fusion_lon": 0.0, "fusion_lat": 0.0, "type": "electric_scooter", "bike_id": "1436bcc4f677d55ee943e49546f670c2", "lon": -77.05704383333334, "is_reserved": 0, "is_disabled": 0, "name": "1436bcc4f677d55ee943e49546f670c2"}, {"rental_uris": {"android": "https://dc.lft.to/lastmile_qr_scan", "ios": "https://dc.lft.to/lastmile_qr_scan"}, "lat": 38.90698283333333, "fusion_lon": 0.0, "fusion_lat": 0.0, "type": "electric_scooter", "bike_id": "26389155d97a6a1f922bcc48ed518fc4", "lon": -76.99955183333333, "is_reserved": 0, "is_disabled": 0, "name": "26389155d97a6a1f922bcc48ed518fc4"}, {"rental_uris": {"android": "https://dc.lft.to/lastmile_qr_scan", "ios": "https://dc.lft.to/lastmile_qr_scan"}, "lat": 38.9353505, "fusion_lon": 0.0, "fusion_lat": 0.0, "type": "electric_scooter", "bike_id": "857d89cc04a1e2aa05273c9e59f0174b", "lon": -77.02351466666667, "is_reserved": 0, "is_disabled": 0, "name": "857d89cc04a1e2aa05273c9e59f0174b"}, {"rental_uris": {"android": "https://dc.lft.to/lastmile_qr_scan", "ios": "https://dc.lft.to/lastmile_qr_scan"}, "lat": 38.91489983333334, "fusion_lon": 0.0, "fusion_lat": 0.0, "type": "electric_scooter", "bike_id": "ac88fdb0c3d3908023d4053045d8c45f", "lon": -77.01854233333333, "is_reserved": 0, "is_disabled": 0, "name": "ac88fdb0c3d3908023d4053045d8c45f"}, {"rental_uris": {"android": "https://dc.lft.to/lastmile_qr_scan", "ios": "https://dc.lft.to/lastmile_qr_scan"}, "lat": 38.920227833333335, "fusion_lon": 0.0, "fusion_lat": 0.0, "type": "electric_scooter", "bike_id": "fbaed4b0909e6d9ac90a3cfcee0575e6", "lon": -77.03112516666667, "is_reserved": 0, "is_disabled": 0, "name": "fbaed4b0909e6d9ac90a3cfcee0575e6"}, {"rental_uris": {"android": "https://dc.lft.to/lastmile_qr_scan", "ios": "https://dc.lft.to/lastmile_qr_scan"}, "lat": 38.92603316666667, "fusion_lon": 0.0, "fusion_lat": 0.0, "type": "electric_scooter", "bike_id": "5b627212678b24113ed259563b76bbd7", "lon": -77.02153966666667, "is_reserved": 0, "is_disabled": 0, "name": "5b627212678b24113ed259563b76bbd7"}, {"rental_uris": {"android": "https://dc.lft.to/lastmile_qr_scan", "ios": "https://dc.lft.to/lastmile_qr_scan"}, "lat": 38.92486866666667, "fusion_lon": 0.0, "fusion_lat": 0.0, "type": "electric_scooter", "bike_id": "afd69cf9272349e5f1c12f9676402712", "lon": -77.0575425, "is_reserved": 0, "is_disabled": 0, "name": "afd69cf9272349e5f1c12f9676402712"}, {"rental_uris": {"android": "https://dc.lft.to/lastmile_qr_scan", "ios": "https://dc.lft.to/lastmile_qr_scan"}, "lat": 38.878743666666665, "fusion_lon": 0.0, "fusion_lat": 0.0, "type": "electric_scooter", "bike_id": "88905bdf6c5f5fa36d31ffa536e04e06", "lon": -77.023178, "is_reserved": 0, "is_disabled": 0, "name": "88905bdf6c5f5fa36d31ffa536e04e06"}, {"rental_uris": {"android": "https://dc.lft.to/lastmile_qr_scan", "ios": "https://dc.lft.to/lastmile_qr_scan"}, "lat": 38.92022166666667, "fusion_lon": 0.0, "fusion_lat": 0.0, "type": "electric_bike", "bike_id": "59eed9a2e3d897b5e230729b5d6a0e80", "lon": -77.0033215, "is_reserved": 0, "is_disabled": 0, "name": "59eed9a2e3d897b5e230729b5d6a0e80"}, {"rental_uris": {"android": "https://dc.lft.to/lastmile_qr_scan", "ios": "https://dc.lft.to/lastmile_qr_scan"}, "lat": 38.902516, "fusion_lon": 0.0, "fusion_lat": 0.0, "type": "electric_scooter", "bike_id": "977c0c8f448d78a22b8e1bab64a32049", "lon": -77.03425833333333, "is_reserved": 0, "is_disabled": 0, "name": "977c0c8f448d78a22b8e1bab64a32049"}, {"rental_uris": {"android": "https://dc.lft.to/lastmile_qr_scan", "ios": "https://dc.lft.to/lastmile_qr_scan"}, "lat": 38.926457, "fusion_lon": 0.0, "fusion_lat": 0.0, "type": "electric_scooter", "bike_id": "653e09f8c1b38d342d41bf7434a462fc", "lon": -77.02132483333334, "is_reserved": 0, "is_disabled": 0, "name": "653e09f8c1b38d342d41bf7434a462fc"}, {"rental_uris": {"android": "https://dc.lft.to/lastmile_qr_scan", "ios": "https://dc.lft.to/lastmile_qr_scan"}, "lat": 38.899326, "fusion_lon": 0.0, "fusion_lat": 0.0, "type": "electric_scooter", "bike_id": "b0ab9a0a4808a182e2df7efab48c873a", "lon": -77.041501, "is_reserved": 0, "is_disabled": 0, "name": "b0ab9a0a4808a182e2df7efab48c873a"}, {"rental_uris": {"android": "https://dc.lft.to/lastmile_qr_scan", "ios": "https://dc.lft.to/lastmile_qr_scan"}, "lat": 38.89693366666667, "fusion_lon": 0.0, "fusion_lat": 0.0, "type": "electric_scooter", "bike_id": "9a585f934f7ff05ce100037d17efab32", "lon": -77.04888733333334, "is_reserved": 0, "is_disabled": 0, "name": "9a585f934f7ff05ce100037d17efab32"}, {"rental_uris": {"android": "https://dc.lft.to/lastmile_qr_scan", "ios": "https://dc.lft.to/lastmile_qr_scan"}, "lat": 38.890106, "fusion_lon": 0.0, "fusion_lat": 0.0, "type": "electric_scooter", "bike_id": "6e23aec7e104cdda641ba27c9e526a51", "lon": -76.93740216666667, "is_reserved": 0, "is_disabled": 0, "name": "6e23aec7e104cdda641ba27c9e526a51"}, {"rental_uris": {"android": "https://dc.lft.to/lastmile_qr_scan", "ios": "https://dc.lft.to/lastmile_qr_scan"}, "lat": 38.912612833333334, "fusion_lon": 0.0, "fusion_lat": 0.0, "type": "electric_scooter", "bike_id": "05c2e8a8f8f93e1a5904520ae70d64d3", "lon": -77.04274916666667, "is_reserved": 0, "is_disabled": 0, "name": "05c2e8a8f8f93e1a5904520ae70d64d3"}, {"rental_uris": {"android": "https://dc.lft.to/lastmile_qr_scan", "ios": "https://dc.lft.to/lastmile_qr_scan"}, "lat": 38.90421966666667, "fusion_lon": 0.0, "fusion_lat": 0.0, "type": "electric_scooter", "bike_id": "51b2f900d46fa39de7f122569f8f0bc1", "lon": -77.05343166666667, "is_reserved": 0, "is_disabled": 0, "name": "51b2f900d46fa39de7f122569f8f0bc1"}, {"rental_uris": {"android": "https://dc.lft.to/lastmile_qr_scan", "ios": "https://dc.lft.to/lastmile_qr_scan"}, "lat": 38.913326, "fusion_lon": 0.0, "fusion_lat": 0.0, "type": "electric_scooter", "bike_id": "057cc1189da733a1e169fa385812152f", "lon": -77.01998316666666, "is_reserved": 0, "is_disabled": 0, "name": "057cc1189da733a1e169fa385812152f"}, {"rental_uris": {"android": "https://dc.lft.to/lastmile_qr_scan", "ios": "https://dc.lft.to/lastmile_qr_scan"}, "lat": 38.90392666666666, "fusion_lon": 0.0, "fusion_lat": 0.0, "type": "electric_scooter", "bike_id": "15ec7548c800cce785de09338df99311", "lon": -77.017821, "is_reserved": 0, "is_disabled": 0, "name": "15ec7548c800cce785de09338df99311"}, {"rental_uris": {"android": "https://dc.lft.to/lastmile_qr_scan", "ios": "https://dc.lft.to/lastmile_qr_scan"}, "lat": 38.926126833333335, "fusion_lon": 0.0, "fusion_lat": 0.0, "type": "electric_scooter", "bike_id": "991dd9125b90e495ddb297899f857450", "lon": -77.02162066666666, "is_reserved": 0, "is_disabled": 0, "name": "991dd9125b90e495ddb297899f857450"}, {"rental_uris": {"android": "https://dc.lft.to/lastmile_qr_scan", "ios": "https://dc.lft.to/lastmile_qr_scan"}, "lat": 38.920398666666664, "fusion_lon": 0.0, "fusion_lat": 0.0, "type": "electric_scooter", "bike_id": "668743540bf6aca8c587c8530c203b42", "lon": -77.0171165, "is_reserved": 0, "is_disabled": 0, "name": "668743540bf6aca8c587c8530c203b42"}, {"rental_uris": {"android": "https://dc.lft.to/lastmile_qr_scan", "ios": "https://dc.lft.to/lastmile_qr_scan"}, "lat": 38.863744833333335, "fusion_lon": 0.0, "fusion_lat": 0.0, "type": "electric_scooter", "bike_id": "9b3ad3680ba57e4bdf356ae95e9cd271", "lon": -76.99055433333334, "is_reserved": 0, "is_disabled": 0, "name": "9b3ad3680ba57e4bdf356ae95e9cd271"}, {"rental_uris": {"android": "https://dc.lft.to/lastmile_qr_scan", "ios": "https://dc.lft.to/lastmile_qr_scan"}, "lat": 38.9012195, "fusion_lon": 0.0, "fusion_lat": 0.0, "type": "electric_scooter", "bike_id": "207fcffa9b79bf33dec5209f0c87b52c", "lon": -77.00319, "is_reserved": 0, "is_disabled": 0, "name": "207fcffa9b79bf33dec5209f0c87b52c"}, {"rental_uris": {"android": "https://dc.lft.to/lastmile_qr_scan", "ios": "https://dc.lft.to/lastmile_qr_scan"}, "lat": 38.850644, "fusion_lon": 0.0, "fusion_lat": 0.0, "type": "electric_bike", "bike_id": "601c2bcef42e8bf3d0aa9d5b81c72a94", "lon": -76.95830016666666, "is_reserved": 0, "is_disabled": 0, "name": "601c2bcef42e8bf3d0aa9d5b81c72a94"}, {"rental_uris": {"android": "https://dc.lft.to/lastmile_qr_scan", "ios": "https://dc.lft.to/lastmile_qr_scan"}, "lat": 38.9289495, "fusion_lon": 0.0, "fusion_lat": 0.0, "type": "electric_scooter", "bike_id": "9ad46d9711048b07a05a41c4389a51f7", "lon": -77.01622433333333, "is_reserved": 0, "is_disabled": 0, "name": "9ad46d9711048b07a05a41c4389a51f7"}, {"rental_uris": {"android": "https://dc.lft.to/lastmile_qr_scan", "ios": "https://dc.lft.to/lastmile_qr_scan"}, "lat": 38.921081, "fusion_lon": 0.0, "fusion_lat": 0.0, "type": "electric_scooter", "bike_id": "82d6c02a38650d2d33f7101199ec265b", "lon": -77.040127, "is_reserved": 0, "is_disabled": 0, "name": "82d6c02a38650d2d33f7101199ec265b"}, {"rental_uris": {"android": "https://dc.lft.to/lastmile_qr_scan", "ios": "https://dc.lft.to/lastmile_qr_scan"}, "lat": 38.90247566666667, "fusion_lon": 0.0, "fusion_lat": 0.0, "type": "electric_scooter", "bike_id": "de818f9876834e523c682d920ff764f3", "lon": -77.035884, "is_reserved": 0, "is_disabled": 0, "name": "de818f9876834e523c682d920ff764f3"}, {"rental_uris": {"android": "https://dc.lft.to/lastmile_qr_scan", "ios": "https://dc.lft.to/lastmile_qr_scan"}, "lat": 38.920624833333335, "fusion_lon": 0.0, "fusion_lat": 0.0, "type": "electric_scooter", "bike_id": "117ab36bd6f0e0f349aefd96c485db1d", "lon": -77.04246733333333, "is_reserved": 0, "is_disabled": 0, "name": "117ab36bd6f0e0f349aefd96c485db1d"}, {"rental_uris": {"android": "https://dc.lft.to/lastmile_qr_scan", "ios": "https://dc.lft.to/lastmile_qr_scan"}, "lat": 38.88511666666667, "fusion_lon": 0.0, "fusion_lat": 0.0, "type": "electric_scooter", "bike_id": "2db0180e3707d57ac1b639e52d27f893", "lon": -77.011129, "is_reserved": 0, "is_disabled": 0, "name": "2db0180e3707d57ac1b639e52d27f893"}, {"rental_uris": {"android": "https://dc.lft.to/lastmile_qr_scan", "ios": "https://dc.lft.to/lastmile_qr_scan"}, "lat": 38.900622166666665, "fusion_lon": 0.0, "fusion_lat": 0.0, "type": "electric_scooter", "bike_id": "db805e45e7b4f5120df7e092373ad4b6", "lon": -77.04658183333333, "is_reserved": 0, "is_disabled": 0, "name": "db805e45e7b4f5120df7e092373ad4b6"}, {"rental_uris": {"android": "https://dc.lft.to/lastmile_qr_scan", "ios": "https://dc.lft.to/lastmile_qr_scan"}, "lat": 38.91965283333333, "fusion_lon": 0.0, "fusion_lat": 0.0, "type": "electric_scooter", "bike_id": "7c4effddf9138e6239ad08988a130a8c", "lon": -77.03957233333334, "is_reserved": 0, "is_disabled": 0, "name": "7c4effddf9138e6239ad08988a130a8c"}, {"rental_uris": {"android": "https://dc.lft.to/lastmile_qr_scan", "ios": "https://dc.lft.to/lastmile_qr_scan"}, "lat": 38.8971885, "fusion_lon": 0.0, "fusion_lat": 0.0, "type": "electric_scooter", "bike_id": "4ac5b0e0c057f8332018407d4de9a8c4", "lon": -77.007957, "is_reserved": 0, "is_disabled": 0, "name": "4ac5b0e0c057f8332018407d4de9a8c4"}, {"rental_uris": {"android": "https://dc.lft.to/lastmile_qr_scan", "ios": "https://dc.lft.to/lastmile_qr_scan"}, "lat": 38.928804, "fusion_lon": 0.0, "fusion_lat": 0.0, "type": "electric_scooter", "bike_id": "c32e2abd6ba4f1da03e19dd45fd0edb8", "lon": -77.03255216666666, "is_reserved": 0, "is_disabled": 0, "name": "c32e2abd6ba4f1da03e19dd45fd0edb8"}, {"rental_uris": {"android": "https://dc.lft.to/lastmile_qr_scan", "ios": "https://dc.lft.to/lastmile_qr_scan"}, "lat": 38.90250916666667, "fusion_lon": 0.0, "fusion_lat": 0.0, "type": "electric_scooter", "bike_id": "8e6cad119018e1ec99ff38c93b007354", "lon": -77.04116216666667, "is_reserved": 0, "is_disabled": 0, "name": "8e6cad119018e1ec99ff38c93b007354"}, {"rental_uris": {"android": "https://dc.lft.to/lastmile_qr_scan", "ios": "https://dc.lft.to/lastmile_qr_scan"}, "lat": 38.92169883333333, "fusion_lon": 0.0, "fusion_lat": 0.0, "type": "electric_scooter", "bike_id": "1265e14ea3eefc1ceb6c454bbe4faad6", "lon": -77.02193066666666, "is_reserved": 0, "is_disabled": 0, "name": "1265e14ea3eefc1ceb6c454bbe4faad6"}, {"rental_uris": {"android": "https://dc.lft.to/lastmile_qr_scan", "ios": "https://dc.lft.to/lastmile_qr_scan"}, "lat": 38.895593166666664, "fusion_lon": 0.0, "fusion_lat": 0.0, "type": "electric_scooter", "bike_id": "f5eb779b058be60002f2f73badec2bc8", "lon": -76.9306, "is_reserved": 0, "is_disabled": 0, "name": "f5eb779b058be60002f2f73badec2bc8"}, {"rental_uris": {"android": "https://dc.lft.to/lastmile_qr_scan", "ios": "https://dc.lft.to/lastmile_qr_scan"}, "lat": 38.90964666666667, "fusion_lon": 0.0, "fusion_lat": 0.0, "type": "electric_scooter", "bike_id": "27e8c40aae81c31bfdc10e643c7adda6", "lon": -77.046315, "is_reserved": 0, "is_disabled": 0, "name": "27e8c40aae81c31bfdc10e643c7adda6"}, {"rental_uris": {"android": "https://dc.lft.to/lastmile_qr_scan", "ios": "https://dc.lft.to/lastmile_qr_scan"}, "lat": 38.90190233333333, "fusion_lon": 0.0, "fusion_lat": 0.0, "type": "electric_scooter", "bike_id": "61e384a1d4e39cc99913f2cce01d39d2", "lon": -77.050833, "is_reserved": 0, "is_disabled": 0, "name": "61e384a1d4e39cc99913f2cce01d39d2"}, {"rental_uris": {"android": "https://dc.lft.to/lastmile_qr_scan", "ios": "https://dc.lft.to/lastmile_qr_scan"}, "lat": 38.921428166666665, "fusion_lon": 0.0, "fusion_lat": 0.0, "type": "electric_scooter", "bike_id": "076d02af03a07c84e22505a5eccb4ade", "lon": -77.0180415, "is_reserved": 0, "is_disabled": 0, "name": "076d02af03a07c84e22505a5eccb4ade"}, {"rental_uris": {"android": "https://dc.lft.to/lastmile_qr_scan", "ios": "https://dc.lft.to/lastmile_qr_scan"}, "lat": 38.9095465, "fusion_lon": 0.0, "fusion_lat": 0.0, "type": "electric_scooter", "bike_id": "99bcd98b34544f721aecfcbead7219aa", "lon": -77.04730116666667, "is_reserved": 0, "is_disabled": 0, "name": "99bcd98b34544f721aecfcbead7219aa"}, {"rental_uris": {"android": "https://dc.lft.to/lastmile_qr_scan", "ios": "https://dc.lft.to/lastmile_qr_scan"}, "lat": 38.94932983333333, "fusion_lon": 0.0, "fusion_lat": 0.0, "type": "electric_scooter", "bike_id": "2effb5fd2376993f98fc1a9d23cb164f", "lon": -77.01849516666667, "is_reserved": 0, "is_disabled": 0, "name": "2effb5fd2376993f98fc1a9d23cb164f"}, {"rental_uris": {"android": "https://dc.lft.to/lastmile_qr_scan", "ios": "https://dc.lft.to/lastmile_qr_scan"}, "lat": 38.9208635, "fusion_lon": 0.0, "fusion_lat": 0.0, "type": "electric_scooter", "bike_id": "13f7a4bc877039061b51b2a58cd48412", "lon": -77.02534183333333, "is_reserved": 0, "is_disabled": 0, "name": "13f7a4bc877039061b51b2a58cd48412"}, {"rental_uris": {"android": "https://dc.lft.to/lastmile_qr_scan", "ios": "https://dc.lft.to/lastmile_qr_scan"}, "lat": 38.929007166666665, "fusion_lon": 0.0, "fusion_lat": 0.0, "type": "electric_scooter", "bike_id": "6ae80f9eb804386b691b4fdad55815b0", "lon": -77.05453666666666, "is_reserved": 0, "is_disabled": 0, "name": "6ae80f9eb804386b691b4fdad55815b0"}, {"rental_uris": {"android": "https://dc.lft.to/lastmile_qr_scan", "ios": "https://dc.lft.to/lastmile_qr_scan"}, "lat": 38.94589883333333, "fusion_lon": 0.0, "fusion_lat": 0.0, "type": "electric_bike", "bike_id": "ed570350550c9c7a635d451232dd10c5", "lon": -77.02030683333334, "is_reserved": 0, "is_disabled": 0, "name": "ed570350550c9c7a635d451232dd10c5"}, {"rental_uris": {"android": "https://dc.lft.to/lastmile_qr_scan", "ios": "https://dc.lft.to/lastmile_qr_scan"}, "lat": 38.887476666666664, "fusion_lon": 0.0, "fusion_lat": 0.0, "type": "electric_scooter", "bike_id": "0307d144f592b0cd81e345ba3e18e54e", "lon": -77.01706816666666, "is_reserved": 0, "is_disabled": 0, "name": "0307d144f592b0cd81e345ba3e18e54e"}, {"rental_uris": {"android": "https://dc.lft.to/lastmile_qr_scan", "ios": "https://dc.lft.to/lastmile_qr_scan"}, "lat": 38.91625633333334, "fusion_lon": 0.0, "fusion_lat": 0.0, "type": "electric_scooter", "bike_id": "6e7b87017edf4437030092c18ba2c2b6", "lon": -77.02207783333333, "is_reserved": 0, "is_disabled": 0, "name": "6e7b87017edf4437030092c18ba2c2b6"}, {"rental_uris": {"android": "https://dc.lft.to/lastmile_qr_scan", "ios": "https://dc.lft.to/lastmile_qr_scan"}, "lat": 38.904371833333336, "fusion_lon": 0.0, "fusion_lat": 0.0, "type": "electric_scooter", "bike_id": "977034eb67e8183a13b04e54a3c22849", "lon": -77.02837816666667, "is_reserved": 0, "is_disabled": 0, "name": "977034eb67e8183a13b04e54a3c22849"}, {"rental_uris": {"android": "https://dc.lft.to/lastmile_qr_scan", "ios": "https://dc.lft.to/lastmile_qr_scan"}, "lat": 38.905925333333336, "fusion_lon": 0.0, "fusion_lat": 0.0, "type": "electric_scooter", "bike_id": "8c4563db727bf90ab10c1ddeb650d74d", "lon": -77.06276616666666, "is_reserved": 0, "is_disabled": 0, "name": "8c4563db727bf90ab10c1ddeb650d74d"}, {"rental_uris": {"android": "https://dc.lft.to/lastmile_qr_scan", "ios": "https://dc.lft.to/lastmile_qr_scan"}, "lat": 38.8955815, "fusion_lon": 0.0, "fusion_lat": 0.0, "type": "electric_scooter", "bike_id": "c1aa8917b0cabb569532517746d1ca3d", "lon": -77.04674766666666, "is_reserved": 0, "is_disabled": 0, "name": "c1aa8917b0cabb569532517746d1ca3d"}, {"rental_uris": {"android": "https://dc.lft.to/lastmile_qr_scan", "ios": "https://dc.lft.to/lastmile_qr_scan"}, "lat": 38.92043533333333, "fusion_lon": 0.0, "fusion_lat": 0.0, "type": "electric_scooter", "bike_id": "a4c7bc25ba8c657baa0764ff9d69c132", "lon": -77.01761216666667, "is_reserved": 0, "is_disabled": 0, "name": "a4c7bc25ba8c657baa0764ff9d69c132"}, {"rental_uris": {"android": "https://dc.lft.to/lastmile_qr_scan", "ios": "https://dc.lft.to/lastmile_qr_scan"}, "lat": 38.858338333333336, "fusion_lon": 0.0, "fusion_lat": 0.0, "type": "electric_bike", "bike_id": "2b55b2941e1108ad9f280f04ad24204c", "lon": -77.1147225, "is_reserved": 0, "is_disabled": 0, "name": "2b55b2941e1108ad9f280f04ad24204c"}, {"rental_uris": {"android": "https://dc.lft.to/lastmile_qr_scan", "ios": "https://dc.lft.to/lastmile_qr_scan"}, "lat": 38.9030705, "fusion_lon": 0.0, "fusion_lat": 0.0, "type": "electric_scooter", "bike_id": "110f4d57c3a6ad1016318b5e7769b40c", "lon": -77.03058416666667, "is_reserved": 0, "is_disabled": 0, "name": "110f4d57c3a6ad1016318b5e7769b40c"}, {"rental_uris": {"android": "https://dc.lft.to/lastmile_qr_scan", "ios": "https://dc.lft.to/lastmile_qr_scan"}, "lat": 38.92294783333333, "fusion_lon": 0.0, "fusion_lat": 0.0, "type": "electric_scooter", "bike_id": "8283dda5095ae7c22111f83600c9407d", "lon": -77.0427215, "is_reserved": 0, "is_disabled": 0, "name": "8283dda5095ae7c22111f83600c9407d"}, {"rental_uris": {"android": "https://dc.lft.to/lastmile_qr_scan", "ios": "https://dc.lft.to/lastmile_qr_scan"}, "lat": 38.883472833333336, "fusion_lon": 0.0, "fusion_lat": 0.0, "type": "electric_scooter", "bike_id": "bfbc916ad94fe6d0164bb0ac680af765", "lon": -76.93627833333333, "is_reserved": 0, "is_disabled": 0, "name": "bfbc916ad94fe6d0164bb0ac680af765"}, {"rental_uris": {"android": "https://dc.lft.to/lastmile_qr_scan", "ios": "https://dc.lft.to/lastmile_qr_scan"}, "lat": 38.898432166666666, "fusion_lon": 0.0, "fusion_lat": 0.0, "type": "electric_scooter", "bike_id": "5a873ea0c177ca0ff35d8410c32265b3", "lon": -76.94635, "is_reserved": 0, "is_disabled": 0, "name": "5a873ea0c177ca0ff35d8410c32265b3"}, {"rental_uris": {"android": "https://dc.lft.to/lastmile_qr_scan", "ios": "https://dc.lft.to/lastmile_qr_scan"}, "lat": 38.889707333333334, "fusion_lon": 0.0, "fusion_lat": 0.0, "type": "electric_scooter", "bike_id": "23bd93687befa311e7ed78198bdd7831", "lon": -76.991601, "is_reserved": 0, "is_disabled": 0, "name": "23bd93687befa311e7ed78198bdd7831"}, {"rental_uris": {"android": "https://dc.lft.to/lastmile_qr_scan", "ios": "https://dc.lft.to/lastmile_qr_scan"}, "lat": 38.8924225, "fusion_lon": 0.0, "fusion_lat": 0.0, "type": "electric_scooter", "bike_id": "85261f85b5f4a5327d50ac908f26a3c5", "lon": -77.05021266666667, "is_reserved": 0, "is_disabled": 0, "name": "85261f85b5f4a5327d50ac908f26a3c5"}, {"rental_uris": {"android": "https://dc.lft.to/lastmile_qr_scan", "ios": "https://dc.lft.to/lastmile_qr_scan"}, "lat": 38.90843616666667, "fusion_lon": 0.0, "fusion_lat": 0.0, "type": "electric_scooter", "bike_id": "3784ab66dfd208d7aa9b98b9231b50c6", "lon": -77.05489033333333, "is_reserved": 0, "is_disabled": 0, "name": "3784ab66dfd208d7aa9b98b9231b50c6"}, {"rental_uris": {"android": "https://dc.lft.to/lastmile_qr_scan", "ios": "https://dc.lft.to/lastmile_qr_scan"}, "lat": 38.991021333333336, "fusion_lon": 0.0, "fusion_lat": 0.0, "type": "electric_bike", "bike_id": "747ba787aa71e70d16c4bf4cf27be84d", "lon": -76.9936695, "is_reserved": 0, "is_disabled": 0, "name": "747ba787aa71e70d16c4bf4cf27be84d"}, {"rental_uris": {"android": "https://dc.lft.to/lastmile_qr_scan", "ios": "https://dc.lft.to/lastmile_qr_scan"}, "lat": 38.95653133333333, "fusion_lon": 0.0, "fusion_lat": 0.0, "type": "electric_scooter", "bike_id": "8c7fdae39e68b8f21c94fa877aeb0224", "lon": -77.012796, "is_reserved": 0, "is_disabled": 0, "name": "8c7fdae39e68b8f21c94fa877aeb0224"}, {"rental_uris": {"android": "https://dc.lft.to/lastmile_qr_scan", "ios": "https://dc.lft.to/lastmile_qr_scan"}, "lat": 38.898535833333334, "fusion_lon": 0.0, "fusion_lat": 0.0, "type": "electric_scooter", "bike_id": "e3adba1c59335329d321e1a8ae495f32", "lon": -77.03176166666667, "is_reserved": 0, "is_disabled": 0, "name": "e3adba1c59335329d321e1a8ae495f32"}, {"rental_uris": {"android": "https://dc.lft.to/lastmile_qr_scan", "ios": "https://dc.lft.to/lastmile_qr_scan"}, "lat": 38.89231483333333, "fusion_lon": 0.0, "fusion_lat": 0.0, "type": "electric_scooter", "bike_id": "f9c1c23c3104187d9ac38188aaf09c7c", "lon": -77.0499915, "is_reserved": 0, "is_disabled": 0, "name": "f9c1c23c3104187d9ac38188aaf09c7c"}, {"rental_uris": {"android": "https://dc.lft.to/lastmile_qr_scan", "ios": "https://dc.lft.to/lastmile_qr_scan"}, "lat": 38.89221966666667, "fusion_lon": 0.0, "fusion_lat": 0.0, "type": "electric_scooter", "bike_id": "ee532cbd2c8e1cfe215fa2ef9ddebb48", "lon": -77.02417483333333, "is_reserved": 0, "is_disabled": 0, "name": "ee532cbd2c8e1cfe215fa2ef9ddebb48"}, {"rental_uris": {"android": "https://dc.lft.to/lastmile_qr_scan", "ios": "https://dc.lft.to/lastmile_qr_scan"}, "lat": 38.8997355, "fusion_lon": 0.0, "fusion_lat": 0.0, "type": "electric_scooter", "bike_id": "d800d6b4dc573f39c14abda6532a9142", "lon": -76.93970366666667, "is_reserved": 0, "is_disabled": 0, "name": "d800d6b4dc573f39c14abda6532a9142"}, {"rental_uris": {"android": "https://dc.lft.to/lastmile_qr_scan", "ios": "https://dc.lft.to/lastmile_qr_scan"}, "lat": 38.862618, "fusion_lon": 0.0, "fusion_lat": 0.0, "type": "electric_bike", "bike_id": "b0dfecc749960bef4f91c271daf15b9b", "lon": -76.98346083333334, "is_reserved": 0, "is_disabled": 0, "name": "b0dfecc749960bef4f91c271daf15b9b"}, {"rental_uris": {"android": "https://dc.lft.to/lastmile_qr_scan", "ios": "https://dc.lft.to/lastmile_qr_scan"}, "lat": 38.91802633333333, "fusion_lon": 0.0, "fusion_lat": 0.0, "type": "electric_scooter", "bike_id": "bd460fca41c77a365a43e9f8de2ae83e", "lon": -77.02430183333334, "is_reserved": 0, "is_disabled": 0, "name": "bd460fca41c77a365a43e9f8de2ae83e"}, {"rental_uris": {"android": "https://dc.lft.to/lastmile_qr_scan", "ios": "https://dc.lft.to/lastmile_qr_scan"}, "lat": 38.86581483333333, "fusion_lon": 0.0, "fusion_lat": 0.0, "type": "electric_bike", "bike_id": "e5d409f3981da4997cabcaae010842c0", "lon": -77.12936033333334, "is_reserved": 0, "is_disabled": 0, "name": "e5d409f3981da4997cabcaae010842c0"}, {"rental_uris": {"android": "https://dc.lft.to/lastmile_qr_scan", "ios": "https://dc.lft.to/lastmile_qr_scan"}, "lat": 38.92474633333333, "fusion_lon": 0.0, "fusion_lat": 0.0, "type": "electric_scooter", "bike_id": "1ae46a5451ca96c18a6e26673267c713", "lon": -77.022138, "is_reserved": 0, "is_disabled": 0, "name": "1ae46a5451ca96c18a6e26673267c713"}, {"rental_uris": {"android": "https://dc.lft.to/lastmile_qr_scan", "ios": "https://dc.lft.to/lastmile_qr_scan"}, "lat": 38.901904333333334, "fusion_lon": 0.0, "fusion_lat": 0.0, "type": "electric_scooter", "bike_id": "84fcfc79348739963f66b68a8a98becc", "lon": -77.0021545, "is_reserved": 0, "is_disabled": 0, "name": "84fcfc79348739963f66b68a8a98becc"}, {"rental_uris": {"android": "https://dc.lft.to/lastmile_qr_scan", "ios": "https://dc.lft.to/lastmile_qr_scan"}, "lat": 38.919824166666665, "fusion_lon": 0.0, "fusion_lat": 0.0, "type": "electric_scooter", "bike_id": "ac942c011c82da47ee3548ccd4e812e7", "lon": -77.03792066666666, "is_reserved": 0, "is_disabled": 0, "name": "ac942c011c82da47ee3548ccd4e812e7"}, {"rental_uris": {"android": "https://dc.lft.to/lastmile_qr_scan", "ios": "https://dc.lft.to/lastmile_qr_scan"}, "lat": 38.90347033333333, "fusion_lon": 0.0, "fusion_lat": 0.0, "type": "electric_scooter", "bike_id": "59a77c2308fc7c530eaafaf24554aa7c", "lon": -76.9861535, "is_reserved": 0, "is_disabled": 0, "name": "59a77c2308fc7c530eaafaf24554aa7c"}, {"rental_uris": {"android": "https://dc.lft.to/lastmile_qr_scan", "ios": "https://dc.lft.to/lastmile_qr_scan"}, "lat": 38.88817816666667, "fusion_lon": 0.0, "fusion_lat": 0.0, "type": "electric_scooter", "bike_id": "d6bd75933238be297230a014c8494271", "lon": -76.977191, "is_reserved": 0, "is_disabled": 0, "name": "d6bd75933238be297230a014c8494271"}, {"rental_uris": {"android": "https://dc.lft.to/lastmile_qr_scan", "ios": "https://dc.lft.to/lastmile_qr_scan"}, "lat": 38.92290583333333, "fusion_lon": 0.0, "fusion_lat": 0.0, "type": "electric_scooter", "bike_id": "155c00b494ea7957ef8e8fc92824d56f", "lon": -77.02060016666667, "is_reserved": 0, "is_disabled": 0, "name": "155c00b494ea7957ef8e8fc92824d56f"}, {"rental_uris": {"android": "https://dc.lft.to/lastmile_qr_scan", "ios": "https://dc.lft.to/lastmile_qr_scan"}, "lat": 38.898681333333336, "fusion_lon": 0.0, "fusion_lat": 0.0, "type": "electric_scooter", "bike_id": "4939c8f205fc5e63c30fc8b03c1656a0", "lon": -77.01998216666667, "is_reserved": 0, "is_disabled": 0, "name": "4939c8f205fc5e63c30fc8b03c1656a0"}, {"rental_uris": {"android": "https://dc.lft.to/lastmile_qr_scan", "ios": "https://dc.lft.to/lastmile_qr_scan"}, "lat": 38.91361966666667, "fusion_lon": 0.0, "fusion_lat": 0.0, "type": "electric_scooter", "bike_id": "355558c5a03e71fc3b61522021037be5", "lon": -77.07222233333333, "is_reserved": 0, "is_disabled": 0, "name": "355558c5a03e71fc3b61522021037be5"}, {"rental_uris": {"android": "https://dc.lft.to/lastmile_qr_scan", "ios": "https://dc.lft.to/lastmile_qr_scan"}, "lat": 38.880294666666664, "fusion_lon": 0.0, "fusion_lat": 0.0, "type": "electric_bike", "bike_id": "6a515c2373db0dea2615542bfa9f7827", "lon": -76.91716766666667, "is_reserved": 0, "is_disabled": 0, "name": "6a515c2373db0dea2615542bfa9f7827"}, {"rental_uris": {"android": "https://dc.lft.to/lastmile_qr_scan", "ios": "https://dc.lft.to/lastmile_qr_scan"}, "lat": 38.9166945, "fusion_lon": 0.0, "fusion_lat": 0.0, "type": "electric_scooter", "bike_id": "6d02bb8105b1a93ce3df4424bde17739", "lon": -77.00440683333333, "is_reserved": 0, "is_disabled": 0, "name": "6d02bb8105b1a93ce3df4424bde17739"}, {"rental_uris": {"android": "https://dc.lft.to/lastmile_qr_scan", "ios": "https://dc.lft.to/lastmile_qr_scan"}, "lat": 38.955324166666664, "fusion_lon": 0.0, "fusion_lat": 0.0, "type": "electric_scooter", "bike_id": "f702feaab3f986adee34f38ec050bd70", "lon": -77.0278625, "is_reserved": 0, "is_disabled": 0, "name": "f702feaab3f986adee34f38ec050bd70"}, {"rental_uris": {"android": "https://dc.lft.to/lastmile_qr_scan", "ios": "https://dc.lft.to/lastmile_qr_scan"}, "lat": 38.907393666666664, "fusion_lon": 0.0, "fusion_lat": 0.0, "type": "electric_scooter", "bike_id": "bb06e8ef35b02814e5e8320dd1761a3c", "lon": -77.02805683333334, "is_reserved": 0, "is_disabled": 0, "name": "bb06e8ef35b02814e5e8320dd1761a3c"}, {"rental_uris": {"android": "https://dc.lft.to/lastmile_qr_scan", "ios": "https://dc.lft.to/lastmile_qr_scan"}, "lat": 38.923699166666665, "fusion_lon": 0.0, "fusion_lat": 0.0, "type": "electric_scooter", "bike_id": "005c69c662426cb25e5b293ce759d574", "lon": -77.02058216666667, "is_reserved": 0, "is_disabled": 0, "name": "005c69c662426cb25e5b293ce759d574"}, {"rental_uris": {"android": "https://dc.lft.to/lastmile_qr_scan", "ios": "https://dc.lft.to/lastmile_qr_scan"}, "lat": 38.90525916666667, "fusion_lon": 0.0, "fusion_lat": 0.0, "type": "electric_scooter", "bike_id": "f9211a52f58fe69b57fd968d9379447c", "lon": -77.0474945, "is_reserved": 0, "is_disabled": 0, "name": "f9211a52f58fe69b57fd968d9379447c"}, {"rental_uris": {"android": "https://dc.lft.to/lastmile_qr_scan", "ios": "https://dc.lft.to/lastmile_qr_scan"}, "lat": 38.9287095, "fusion_lon": 0.0, "fusion_lat": 0.0, "type": "electric_scooter", "bike_id": "c6be8a679c1ea0788fa3f4130c4c8963", "lon": -77.03477166666667, "is_reserved": 0, "is_disabled": 0, "name": "c6be8a679c1ea0788fa3f4130c4c8963"}, {"rental_uris": {"android": "https://dc.lft.to/lastmile_qr_scan", "ios": "https://dc.lft.to/lastmile_qr_scan"}, "lat": 38.93630566666667, "fusion_lon": 0.0, "fusion_lat": 0.0, "type": "electric_bike", "bike_id": "6b0d557d0d93ee97c2f79babbdb610d0", "lon": -77.03653583333333, "is_reserved": 0, "is_disabled": 0, "name": "6b0d557d0d93ee97c2f79babbdb610d0"}, {"rental_uris": {"android": "https://dc.lft.to/lastmile_qr_scan", "ios": "https://dc.lft.to/lastmile_qr_scan"}, "lat": 38.9067305, "fusion_lon": 0.0, "fusion_lat": 0.0, "type": "electric_scooter", "bike_id": "69dcdedf04c15c488af42671ec0386c8", "lon": -77.05143483333333, "is_reserved": 0, "is_disabled": 0, "name": "69dcdedf04c15c488af42671ec0386c8"}, {"rental_uris": {"android": "https://dc.lft.to/lastmile_qr_scan", "ios": "https://dc.lft.to/lastmile_qr_scan"}, "lat": 38.901504, "fusion_lon": 0.0, "fusion_lat": 0.0, "type": "electric_scooter", "bike_id": "791f808d2fd6736027ab9baf6949190e", "lon": -77.050483, "is_reserved": 0, "is_disabled": 0, "name": "791f808d2fd6736027ab9baf6949190e"}, {"rental_uris": {"android": "https://dc.lft.to/lastmile_qr_scan", "ios": "https://dc.lft.to/lastmile_qr_scan"}, "lat": 38.910343833333336, "fusion_lon": 0.0, "fusion_lat": 0.0, "type": "electric_bike", "bike_id": "1231ea8a864873918bd6105594436b2e", "lon": -77.03798483333334, "is_reserved": 0, "is_disabled": 0, "name": "1231ea8a864873918bd6105594436b2e"}, {"rental_uris": {"android": "https://dc.lft.to/lastmile_qr_scan", "ios": "https://dc.lft.to/lastmile_qr_scan"}, "lat": 38.876421, "fusion_lon": 0.0, "fusion_lat": 0.0, "type": "electric_scooter", "bike_id": "edf8cfd8d0883ef1eb3e286d6589f3ad", "lon": -77.00368933333333, "is_reserved": 0, "is_disabled": 0, "name": "edf8cfd8d0883ef1eb3e286d6589f3ad"}, {"rental_uris": {"android": "https://dc.lft.to/lastmile_qr_scan", "ios": "https://dc.lft.to/lastmile_qr_scan"}, "lat": 38.9017615, "fusion_lon": 0.0, "fusion_lat": 0.0, "type": "electric_scooter", "bike_id": "c6a7f56da8356f96fb0b0dba08bb5ea9", "lon": -76.92946883333333, "is_reserved": 0, "is_disabled": 0, "name": "c6a7f56da8356f96fb0b0dba08bb5ea9"}, {"rental_uris": {"android": "https://dc.lft.to/lastmile_qr_scan", "ios": "https://dc.lft.to/lastmile_qr_scan"}, "lat": 38.91711566666667, "fusion_lon": 0.0, "fusion_lat": 0.0, "type": "electric_scooter", "bike_id": "1b72fbd685e053dae1362daac9f7bc4e", "lon": -77.00710833333333, "is_reserved": 0, "is_disabled": 0, "name": "1b72fbd685e053dae1362daac9f7bc4e"}, {"rental_uris": {"android": "https://dc.lft.to/lastmile_qr_scan", "ios": "https://dc.lft.to/lastmile_qr_scan"}, "lat": 38.9205145, "fusion_lon": 0.0, "fusion_lat": 0.0, "type": "electric_scooter", "bike_id": "1773e1722ebd5e3ee78fb350be468312", "lon": -77.034449, "is_reserved": 0, "is_disabled": 0, "name": "1773e1722ebd5e3ee78fb350be468312"}, {"rental_uris": {"android": "https://dc.lft.to/lastmile_qr_scan", "ios": "https://dc.lft.to/lastmile_qr_scan"}, "lat": 38.892216166666664, "fusion_lon": 0.0, "fusion_lat": 0.0, "type": "electric_scooter", "bike_id": "70c110b2fc8273f7f54d5e39002f636a", "lon": -77.04683233333333, "is_reserved": 0, "is_disabled": 0, "name": "70c110b2fc8273f7f54d5e39002f636a"}, {"rental_uris": {"android": "https://dc.lft.to/lastmile_qr_scan", "ios": "https://dc.lft.to/lastmile_qr_scan"}, "lat": 38.899625, "fusion_lon": 0.0, "fusion_lat": 0.0, "type": "electric_scooter", "bike_id": "89a073d09b2e74ff672749f9e964f478", "lon": -77.048527, "is_reserved": 0, "is_disabled": 0, "name": "89a073d09b2e74ff672749f9e964f478"}, {"rental_uris": {"android": "https://dc.lft.to/lastmile_qr_scan", "ios": "https://dc.lft.to/lastmile_qr_scan"}, "lat": 38.91707666666667, "fusion_lon": 0.0, "fusion_lat": 0.0, "type": "electric_scooter", "bike_id": "69566496c4543424c653e8f660da93a6", "lon": -77.01163266666667, "is_reserved": 0, "is_disabled": 0, "name": "69566496c4543424c653e8f660da93a6"}, {"rental_uris": {"android": "https://dc.lft.to/lastmile_qr_scan", "ios": "https://dc.lft.to/lastmile_qr_scan"}, "lat": 38.894791833333336, "fusion_lon": 0.0, "fusion_lat": 0.0, "type": "electric_scooter", "bike_id": "a6981005e7c044b8963f16bd912b9f32", "lon": -77.01109833333334, "is_reserved": 0, "is_disabled": 0, "name": "a6981005e7c044b8963f16bd912b9f32"}, {"rental_uris": {"android": "https://dc.lft.to/lastmile_qr_scan", "ios": "https://dc.lft.to/lastmile_qr_scan"}, "lat": 38.92452733333333, "fusion_lon": 0.0, "fusion_lat": 0.0, "type": "electric_scooter", "bike_id": "2016faca1204fb5ae51b41b874f7bcb5", "lon": -77.02149266666666, "is_reserved": 0, "is_disabled": 0, "name": "2016faca1204fb5ae51b41b874f7bcb5"}, {"rental_uris": {"android": "https://dc.lft.to/lastmile_qr_scan", "ios": "https://dc.lft.to/lastmile_qr_scan"}, "lat": 38.91192016666667, "fusion_lon": 0.0, "fusion_lat": 0.0, "type": "electric_scooter", "bike_id": "4e220631eedc793fd4076c1eaf7f7610", "lon": -77.03211383333333, "is_reserved": 0, "is_disabled": 0, "name": "4e220631eedc793fd4076c1eaf7f7610"}, {"rental_uris": {"android": "https://dc.lft.to/lastmile_qr_scan", "ios": "https://dc.lft.to/lastmile_qr_scan"}, "lat": 38.924727, "fusion_lon": 0.0, "fusion_lat": 0.0, "type": "electric_scooter", "bike_id": "642caf55cafa41a67dea7f5f013fb34e", "lon": -77.0520295, "is_reserved": 0, "is_disabled": 0, "name": "642caf55cafa41a67dea7f5f013fb34e"}, {"rental_uris": {"android": "https://dc.lft.to/lastmile_qr_scan", "ios": "https://dc.lft.to/lastmile_qr_scan"}, "lat": 38.919927333333334, "fusion_lon": 0.0, "fusion_lat": 0.0, "type": "electric_scooter", "bike_id": "39551c9411911d90922d22f6db6111c5", "lon": -77.0215425, "is_reserved": 0, "is_disabled": 0, "name": "39551c9411911d90922d22f6db6111c5"}, {"rental_uris": {"android": "https://dc.lft.to/lastmile_qr_scan", "ios": "https://dc.lft.to/lastmile_qr_scan"}, "lat": 38.944725, "fusion_lon": 0.0, "fusion_lat": 0.0, "type": "electric_bike", "bike_id": "a0303034c559eb7890453492f8053aa1", "lon": -76.98685183333333, "is_reserved": 0, "is_disabled": 0, "name": "a0303034c559eb7890453492f8053aa1"}, {"rental_uris": {"android": "https://dc.lft.to/lastmile_qr_scan", "ios": "https://dc.lft.to/lastmile_qr_scan"}, "lat": 38.89379266666667, "fusion_lon": 0.0, "fusion_lat": 0.0, "type": "electric_scooter", "bike_id": "9322c4dbad4419890690e726a4dd023d", "lon": -77.02451183333334, "is_reserved": 0, "is_disabled": 0, "name": "9322c4dbad4419890690e726a4dd023d"}, {"rental_uris": {"android": "https://dc.lft.to/lastmile_qr_scan", "ios": "https://dc.lft.to/lastmile_qr_scan"}, "lat": 38.951908333333336, "fusion_lon": 0.0, "fusion_lat": 0.0, "type": "electric_scooter", "bike_id": "2060dcd5f9bc832b0e1cdbb371a2f464", "lon": -77.026325, "is_reserved": 0, "is_disabled": 0, "name": "2060dcd5f9bc832b0e1cdbb371a2f464"}, {"rental_uris": {"android": "https://dc.lft.to/lastmile_qr_scan", "ios": "https://dc.lft.to/lastmile_qr_scan"}, "lat": 39.02297433333333, "fusion_lon": 0.0, "fusion_lat": 0.0, "type": "electric_bike", "bike_id": "7dbe8c5fea7428ccd7014919ec6ce688", "lon": -77.02106333333333, "is_reserved": 0, "is_disabled": 0, "name": "7dbe8c5fea7428ccd7014919ec6ce688"}, {"rental_uris": {"android": "https://dc.lft.to/lastmile_qr_scan", "ios": "https://dc.lft.to/lastmile_qr_scan"}, "lat": 38.895519166666666, "fusion_lon": 0.0, "fusion_lat": 0.0, "type": "electric_scooter", "bike_id": "719773295f31eb846224458f5f5b6268", "lon": -77.02897366666667, "is_reserved": 0, "is_disabled": 0, "name": "719773295f31eb846224458f5f5b6268"}, {"rental_uris": {"android": "https://dc.lft.to/lastmile_qr_scan", "ios": "https://dc.lft.to/lastmile_qr_scan"}, "lat": 38.8911585, "fusion_lon": 0.0, "fusion_lat": 0.0, "type": "electric_bike", "bike_id": "8f3b42d4643b571db503f4e476dba71a", "lon": -76.95197433333334, "is_reserved": 0, "is_disabled": 0, "name": "8f3b42d4643b571db503f4e476dba71a"}, {"rental_uris": {"android": "https://dc.lft.to/lastmile_qr_scan", "ios": "https://dc.lft.to/lastmile_qr_scan"}, "lat": 38.895947166666666, "fusion_lon": 0.0, "fusion_lat": 0.0, "type": "electric_scooter", "bike_id": "6c99080e8c8abeead65f37c8f7ba8c74", "lon": -77.02705083333333, "is_reserved": 0, "is_disabled": 0, "name": "6c99080e8c8abeead65f37c8f7ba8c74"}, {"rental_uris": {"android": "https://dc.lft.to/lastmile_qr_scan", "ios": "https://dc.lft.to/lastmile_qr_scan"}, "lat": 38.93264666666666, "fusion_lon": 0.0, "fusion_lat": 0.0, "type": "electric_bike", "bike_id": "fb35c0791a344312327104578d62aedd", "lon": -77.06566883333333, "is_reserved": 0, "is_disabled": 0, "name": "fb35c0791a344312327104578d62aedd"}, {"rental_uris": {"android": "https://dc.lft.to/lastmile_qr_scan", "ios": "https://dc.lft.to/lastmile_qr_scan"}, "lat": 38.910438666666664, "fusion_lon": 0.0, "fusion_lat": 0.0, "type": "electric_scooter", "bike_id": "1abba9e626907faa00470d65f78c207e", "lon": -77.06457316666666, "is_reserved": 0, "is_disabled": 0, "name": "1abba9e626907faa00470d65f78c207e"}, {"rental_uris": {"android": "https://dc.lft.to/lastmile_qr_scan", "ios": "https://dc.lft.to/lastmile_qr_scan"}, "lat": 38.95260066666667, "fusion_lon": 0.0, "fusion_lat": 0.0, "type": "electric_scooter", "bike_id": "a8b70de97e125d71850ccc662db9ed55", "lon": -77.02067533333333, "is_reserved": 0, "is_disabled": 0, "name": "a8b70de97e125d71850ccc662db9ed55"}, {"rental_uris": {"android": "https://dc.lft.to/lastmile_qr_scan", "ios": "https://dc.lft.to/lastmile_qr_scan"}, "lat": 38.923503, "fusion_lon": 0.0, "fusion_lat": 0.0, "type": "electric_scooter", "bike_id": "47d21b0f8079973c1d65eb2c4535e44f", "lon": -77.04154133333333, "is_reserved": 0, "is_disabled": 0, "name": "47d21b0f8079973c1d65eb2c4535e44f"}, {"rental_uris": {"android": "https://dc.lft.to/lastmile_qr_scan", "ios": "https://dc.lft.to/lastmile_qr_scan"}, "lat": 38.898326833333336, "fusion_lon": 0.0, "fusion_lat": 0.0, "type": "electric_scooter", "bike_id": "a0a2312042fa663aed979f59f3ff26f9", "lon": -77.04360366666667, "is_reserved": 0, "is_disabled": 0, "name": "a0a2312042fa663aed979f59f3ff26f9"}, {"rental_uris": {"android": "https://dc.lft.to/lastmile_qr_scan", "ios": "https://dc.lft.to/lastmile_qr_scan"}, "lat": 38.90422783333333, "fusion_lon": 0.0, "fusion_lat": 0.0, "type": "electric_scooter", "bike_id": "0893851470b3cca16477b0a4b731718f", "lon": -77.04337733333334, "is_reserved": 0, "is_disabled": 0, "name": "0893851470b3cca16477b0a4b731718f"}, {"rental_uris": {"android": "https://dc.lft.to/lastmile_qr_scan", "ios": "https://dc.lft.to/lastmile_qr_scan"}, "lat": 38.9224635, "fusion_lon": 0.0, "fusion_lat": 0.0, "type": "electric_scooter", "bike_id": "1d2a20a37af518c68c0db345c2424458", "lon": -77.03899016666666, "is_reserved": 0, "is_disabled": 0, "name": "1d2a20a37af518c68c0db345c2424458"}, {"rental_uris": {"android": "https://dc.lft.to/lastmile_qr_scan", "ios": "https://dc.lft.to/lastmile_qr_scan"}, "lat": 38.908642666666665, "fusion_lon": 0.0, "fusion_lat": 0.0, "type": "electric_scooter", "bike_id": "4759b5ab8314430ddda066d40d80751b", "lon": -77.04526316666667, "is_reserved": 0, "is_disabled": 0, "name": "4759b5ab8314430ddda066d40d80751b"}, {"rental_uris": {"android": "https://dc.lft.to/lastmile_qr_scan", "ios": "https://dc.lft.to/lastmile_qr_scan"}, "lat": 38.914866, "fusion_lon": 0.0, "fusion_lat": 0.0, "type": "electric_scooter", "bike_id": "a909889fecfb5c2d09e0c01b99cd0d5a", "lon": -77.04552266666667, "is_reserved": 0, "is_disabled": 0, "name": "a909889fecfb5c2d09e0c01b99cd0d5a"}, {"rental_uris": {"android": "https://dc.lft.to/lastmile_qr_scan", "ios": "https://dc.lft.to/lastmile_qr_scan"}, "lat": 38.89197433333333, "fusion_lon": 0.0, "fusion_lat": 0.0, "type": "electric_scooter", "bike_id": "8ebfe7d194990d5a2b4e52afb862a0bf", "lon": -77.00220883333333, "is_reserved": 0, "is_disabled": 0, "name": "8ebfe7d194990d5a2b4e52afb862a0bf"}, {"rental_uris": {"android": "https://dc.lft.to/lastmile_qr_scan", "ios": "https://dc.lft.to/lastmile_qr_scan"}, "lat": 38.87519416666667, "fusion_lon": 0.0, "fusion_lat": 0.0, "type": "electric_scooter", "bike_id": "dea929452d979372851b3991d2c974c0", "lon": -77.00584233333333, "is_reserved": 0, "is_disabled": 0, "name": "dea929452d979372851b3991d2c974c0"}, {"rental_uris": {"android": "https://dc.lft.to/lastmile_qr_scan", "ios": "https://dc.lft.to/lastmile_qr_scan"}, "lat": 38.897268, "fusion_lon": 0.0, "fusion_lat": 0.0, "type": "electric_scooter", "bike_id": "9d62672430f8b8ff36429bdb8757a835", "lon": -77.02454516666667, "is_reserved": 0, "is_disabled": 0, "name": "9d62672430f8b8ff36429bdb8757a835"}, {"rental_uris": {"android": "https://dc.lft.to/lastmile_qr_scan", "ios": "https://dc.lft.to/lastmile_qr_scan"}, "lat": 38.93595883333333, "fusion_lon": 0.0, "fusion_lat": 0.0, "type": "electric_scooter", "bike_id": "9541fad0231291fec430ac11f0375070", "lon": -77.0351965, "is_reserved": 0, "is_disabled": 0, "name": "9541fad0231291fec430ac11f0375070"}, {"rental_uris": {"android": "https://dc.lft.to/lastmile_qr_scan", "ios": "https://dc.lft.to/lastmile_qr_scan"}, "lat": 38.924156833333335, "fusion_lon": 0.0, "fusion_lat": 0.0, "type": "electric_scooter", "bike_id": "fb90d64bbad5bf75d9c15e11332345b9", "lon": -77.0212705, "is_reserved": 0, "is_disabled": 0, "name": "fb90d64bbad5bf75d9c15e11332345b9"}, {"rental_uris": {"android": "https://dc.lft.to/lastmile_qr_scan", "ios": "https://dc.lft.to/lastmile_qr_scan"}, "lat": 38.883562833333336, "fusion_lon": 0.0, "fusion_lat": 0.0, "type": "electric_scooter", "bike_id": "8a775d6c4156c744b3b6931999140877", "lon": -76.95769783333333, "is_reserved": 0, "is_disabled": 0, "name": "8a775d6c4156c744b3b6931999140877"}, {"rental_uris": {"android": "https://dc.lft.to/lastmile_qr_scan", "ios": "https://dc.lft.to/lastmile_qr_scan"}, "lat": 38.92239933333333, "fusion_lon": 0.0, "fusion_lat": 0.0, "type": "electric_scooter", "bike_id": "67325c65245ac07df6cb93e545470505", "lon": -77.0366605, "is_reserved": 0, "is_disabled": 0, "name": "67325c65245ac07df6cb93e545470505"},