{"data": {"bikes": [{"fusion_lat": 0.0, "fusion_lon": 0.0, "is_disabled": 0, "type": "electric_scooter", "rental_uris": {"ios": "https://dc.lft.to/lastmile_qr_scan", "android": "https://dc.lft.to/lastmile_qr_scan"}, "lat": 38.90957483333333, "name": "257665bbc7777fdde2266d9ee9b70188", "lon": -77.018312, "is_reserved": 0, "bike_id": "257665bbc7777fdde2266d9ee9b70188"}, {"fusion_lat": 0.0, "fusion_lon": 0.0, "is_disabled": 0, "type": "electric_scooter", "rental_uris": {"ios": "https://dc.lft.to/lastmile_qr_scan", "android": "https://dc.lft.to/lastmile_qr_scan"}, "lat": 38.89512366666666, "name": "15d7612c9a6087efd4aa1d61480c7a6f", "lon": -77.02294583333334, "is_reserved": 0, "bike_id": "15d7612c9a6087efd4aa1d61480c7a6f"}, {"fusion_lat": 0.0, "fusion_lon": 0.0, "is_disabled": 0, "type": "electric_scooter", "rental_uris": {"ios": "https://dc.lft.to/lastmile_qr_scan", "android": "https://dc.lft.to/lastmile_qr_scan"}, "lat": 38.948803166666664, "name": "2b849713d9df694f26fe90e89e734abf", "lon": -77.0644455, "is_reserved": 0, "bike_id": "2b849713d9df694f26fe90e89e734abf"}, {"fusion_lat": 0.0, "fusion_lon": 0.0, "is_disabled": 0, "type": "electric_scooter", "rental_uris": {"ios": "https://dc.lft.to/lastmile_qr_scan", "android": "https://dc.lft.to/lastmile_qr_scan"}, "lat": 38.91462933333333, "name": "2b8d5b71ed7fbe1387b2d2fe4738c1dc", "lon": -77.06423133333334, "is_reserved": 0, "bike_id": "2b8d5b71ed7fbe1387b2d2fe4738c1dc"}, {"fusion_lat": 0.0, "fusion_lon": 0.0, "is_disabled": 0, "type": "electric_scooter", "rental_uris": {"ios": "https://dc.lft.to/lastmile_qr_scan", "android": "https://dc.lft.to/lastmile_qr_scan"}, "lat": 38.87673366666667, "name": "81c4e3e7a86ded8a1de98cf0c9ace5b0", "lon": -77.00342933333333, "is_reserved": 0, "bike_id": "81c4e3e7a86ded8a1de98cf0c9ace5b0"}, {"fusion_lat": 0.0, "fusion_lon": 0.0, "is_disabled": 0, "type": "electric_scooter", "rental_uris": {"ios": "https://dc.lft.to/lastmile_qr_scan", "android": "https://dc.lft.to/lastmile_qr_scan"}, "lat": 38.880379166666664, "name": "b11e11a933bc2accfaaebd5bc085b5fc", "lon": -77.00546883333334, "is_reserved": 0, "bike_id": "b11e11a933bc2accfaaebd5bc085b5fc"}, {"fusion_lat": 0.0, "fusion_lon": 0.0, "is_disabled": 0, "type": "electric_scooter", "rental_uris": {"ios": "https://dc.lft.to/lastmile_qr_scan", "android": "https://dc.lft.to/lastmile_qr_scan"}, "lat": 38.88600666666667, "name": "c289211b4c55855cdc0cd473dcacebd9", "lon": -76.925021, "is_reserved": 0, "bike_id": "c289211b4c55855cdc0cd473dcacebd9"}, {"fusion_lat": 0.0, "fusion_lon": 0.0, "is_disabled": 0, "type": "electric_scooter", "rental_uris": {"ios": "https://dc.lft.to/lastmile_qr_scan", "android": "https://dc.lft.to/lastmile_qr_scan"}, "lat": 38.896040166666666, "name": "4989f0efb6ee058df136ac37aea8c704", "lon": -77.02375566666667, "is_reserved": 0, "bike_id": "4989f0efb6ee058df136ac37aea8c704"}, {"fusion_lat": 0.0, "fusion_lon": 0.0, "is_disabled": 0, "type": "electric_scooter", "rental_uris": {"ios": "https://dc.lft.to/lastmile_qr_scan", "android": "https://dc.lft.to/lastmile_qr_scan"}, "lat": 38.90039266666667, "name": "8bbf8eff65004305eb3e08a9d0233b31", "lon": -76.9915225, "is_reserved": 0, "bike_id": "8bbf8eff65004305eb3e08a9d0233b31"}, {"fusion_lat": 0.0, "fusion_lon": 0.0, "is_disabled": 0, "type": "electric_scooter", "rental_uris": {"ios": "https://dc.lft.to/lastmile_qr_scan", "android": "https://dc.lft.to/lastmile_qr_scan"}, "lat": 38.9199725, "name": "c185e21f32fb28ef5baace70fffcb048", "lon": -77.02180383333334, "is_reserved": 0, "bike_id": "c185e21f32fb28ef5baace70fffcb048"}, {"fusion_lat": 0.0, "fusion_lon": 0.0, "is_disabled": 0, "type": "electric_scooter", "rental_uris": {"ios": "https://dc.lft.to/lastmile_qr_scan", "android": "https://dc.lft.to/lastmile_qr_scan"}, "lat": 38.92221766666667, "name": "03b1709a618418481c6ccc276f2e08e3", "lon": -77.0179845, "is_reserved": 0, "bike_id": "03b1709a618418481c6ccc276f2e08e3"}, {"fusion_lat": 0.0, "fusion_lon": 0.0, "is_disabled": 0, "type": "electric_scooter", "rental_uris": {"ios": "https://dc.lft.to/lastmile_qr_scan", "android": "https://dc.lft.to/lastmile_qr_scan"}, "lat": 38.9269075, "name": "c6371d2640bb25b938ae292936a01ab6", "lon": -77.0146845, "is_reserved": 0, "bike_id": "c6371d2640bb25b938ae292936a01ab6"}, {"fusion_lat": 0.0, "fusion_lon": 0.0, "is_disabled": 0, "type": "electric_scooter", "rental_uris": {"ios": "https://dc.lft.to/lastmile_qr_scan", "android": "https://dc.lft.to/lastmile_qr_scan"}, "lat": 38.918235, "name": "4f1620967d5dd94f86f8785f8a464a02", "lon": -77.031745, "is_reserved": 0, "bike_id": "4f1620967d5dd94f86f8785f8a464a02"}, {"fusion_lat": 0.0, "fusion_lon": 0.0, "is_disabled": 0, "type": "electric_scooter", "rental_uris": {"ios": "https://dc.lft.to/lastmile_qr_scan", "android": "https://dc.lft.to/lastmile_qr_scan"}, "lat": 38.915639666666664, "name": "6c141c97f65e01fc18404ca29695c312", "lon": -77.03837233333333, "is_reserved": 0, "bike_id": "6c141c97f65e01fc18404ca29695c312"}, {"fusion_lat": 0.0, "fusion_lon": 0.0, "is_disabled": 0, "type": "electric_scooter", "rental_uris": {"ios": "https://dc.lft.to/lastmile_qr_scan", "android": "https://dc.lft.to/lastmile_qr_scan"}, "lat": 38.91925233333333, "name": "5190341ad0101461a98901ad9f4904d1", "lon": -77.03425766666666, "is_reserved": 0, "bike_id": "5190341ad0101461a98901ad9f4904d1"}, {"fusion_lat": 0.0, "fusion_lon": 0.0, "is_disabled": 0, "type": "electric_scooter", "rental_uris": {"ios": "https://dc.lft.to/lastmile_qr_scan", "android": "https://dc.lft.to/lastmile_qr_scan"}, "lat": 38.90287083333333, "name": "95c253f4a41061ef272ad2fdc470e509", "lon": -77.015478, "is_reserved": 0, "bike_id": "95c253f4a41061ef272ad2fdc470e509"}, {"fusion_lat": 0.0, "fusion_lon": 0.0, "is_disabled": 0, "type": "electric_scooter", "rental_uris": {"ios": "https://dc.lft.to/lastmile_qr_scan", "android": "https://dc.lft.to/lastmile_qr_scan"}, "lat": 38.87847416666666, "name": "48d4cf58eb467abce0450457f797713a", "lon": -77.03017733333333, "is_reserved": 0, "bike_id": "48d4cf58eb467abce0450457f797713a"}, {"fusion_lat": 0.0, "fusion_lon": 0.0, "is_disabled": 0, "type": "electric_scooter", "rental_uris": {"ios": "https://dc.lft.to/lastmile_qr_scan", "android": "https://dc.lft.to/lastmile_qr_scan"}, "lat": 38.903125333333335, "name": "c1a090bc07ce49e473cdccc71772bce5", "lon": -77.027921, "is_reserved": 0, "bike_id": "c1a090bc07ce49e473cdccc71772bce5"}, {"fusion_lat": 0.0, "fusion_lon": 0.0, "is_disabled": 0, "type": "electric_scooter", "rental_uris": {"ios": "https://dc.lft.to/lastmile_qr_scan", "android": "https://dc.lft.to/lastmile_qr_scan"}, "lat": 38.896607333333336, "name": "4702663de6f7dafc94518c665c424ac8", "lon": -77.02314283333334, "is_reserved": 0, "bike_id": "4702663de6f7dafc94518c665c424ac8"}, {"fusion_lat": 0.0, "fusion_lon": 0.0, "is_disabled": 0, "type": "electric_scooter", "rental_uris": {"ios": "https://dc.lft.to/lastmile_qr_scan", "android": "https://dc.lft.to/lastmile_qr_scan"}, "lat": 38.9034145, "name": "c98c59ddaab44a96f844f1e804071c91", "lon": -77.0345195, "is_reserved": 0, "bike_id": "c98c59ddaab44a96f844f1e804071c91"}, {"fusion_lat": 0.0, "fusion_lon": 0.0, "is_disabled": 0, "type": "electric_bike", "rental_uris": {"ios": "https://dc.lft.to/lastmile_qr_scan", "android": "https://dc.lft.to/lastmile_qr_scan"}, "lat": 38.896209666666664, "name": "b348abda13237b65bcebd75cd140d0a0", "lon": -76.9074535, "is_reserved": 0, "bike_id": "b348abda13237b65bcebd75cd140d0a0"}, {"fusion_lat": 0.0, "fusion_lon": 0.0, "is_disabled": 0, "type": "electric_scooter", "rental_uris": {"ios": "https://dc.lft.to/lastmile_qr_scan", "android": "https://dc.lft.to/lastmile_qr_scan"}, "lat": 38.90219666666667, "name": "1febf0b051bd60def92ef3202b2a22db", "lon": -77.04518916666666, "is_reserved": 0, "bike_id": "1febf0b051bd60def92ef3202b2a22db"}, {"fusion_lat": 0.0, "fusion_lon": 0.0, "is_disabled": 0, "type": "electric_scooter", "rental_uris": {"ios": "https://dc.lft.to/lastmile_qr_scan", "android": "https://dc.lft.to/lastmile_qr_scan"}, "lat": 38.92459016666667, "name": "5fbc66c5a25c047492d34615d87d014e", "lon": -77.0215615, "is_reserved": 0, "bike_id": "5fbc66c5a25c047492d34615d87d014e"}, {"fusion_lat": 0.0, "fusion_lon": 0.0, "is_disabled": 0, "type": "electric_scooter", "rental_uris": {"ios": "https://dc.lft.to/lastmile_qr_scan", "android": "https://dc.lft.to/lastmile_qr_scan"}, "lat": 38.904253833333335, "name": "8e0a8a098857d1b4e837d4296e1a610f", "lon": -77.02445066666667, "is_reserved": 0, "bike_id": "8e0a8a098857d1b4e837d4296e1a610f"}, {"fusion_lat": 0.0, "fusion_lon": 0.0, "is_disabled": 0, "type": "electric_scooter", "rental_uris": {"ios": "https://dc.lft.to/lastmile_qr_scan", "android": "https://dc.lft.to/lastmile_qr_scan"}, "lat": 38.8719205, "name": "7a4274f047c4f16600ffc84b6148f3ef", "lon": -77.00626183333334, "is_reserved": 0, "bike_id": "7a4274f047c4f16600ffc84b6148f3ef"}, {"fusion_lat": 0.0, "fusion_lon": 0.0, "is_disabled": 0, "type": "electric_bike", "rental_uris": {"ios": "https://dc.lft.to/lastmile_qr_scan", "android": "https://dc.lft.to/lastmile_qr_scan"}, "lat": 38.965611333333335, "name": "2ea647c1abba200de4e1ad8a095377f7", "lon": -77.02031516666666, "is_reserved": 0, "bike_id": "2ea647c1abba200de4e1ad8a095377f7"}, {"fusion_lat": 0.0, "fusion_lon": 0.0, "is_disabled": 0, "type": "electric_bike", "rental_uris": {"ios": "https://dc.lft.to/lastmile_qr_scan", "android": "https://dc.lft.to/lastmile_qr_scan"}, "lat": 38.842786333333336, "name": "8c9ce0c571b97ea58c5083c46c1dc9c6", "lon": -76.98839216666667, "is_reserved": 0, "bike_id": "8c9ce0c571b97ea58c5083c46c1dc9c6"}, {"fusion_lat": 0.0, "fusion_lon": 0.0, "is_disabled": 0, "type": "electric_scooter", "rental_uris": {"ios": "https://dc.lft.to/lastmile_qr_scan", "android": "https://dc.lft.to/lastmile_qr_scan"}, "lat": 38.928493333333336, "name": "877d88a69efee360b0bffd0daa6b6db1", "lon": -77.0141325, "is_reserved": 0, "bike_id": "877d88a69efee360b0bffd0daa6b6db1"}, {"fusion_lat": 0.0, "fusion_lon": 0.0, "is_disabled": 0, "type": "electric_scooter", "rental_uris": {"ios": "https://dc.lft.to/lastmile_qr_scan", "android": "https://dc.lft.to/lastmile_qr_scan"}, "lat": 38.916643666666666, "name": "f7d5a17cc832c7310c87d61ef0a2fbc8", "lon": -77.03466366666666, "is_reserved": 0, "bike_id": "f7d5a17cc832c7310c87d61ef0a2fbc8"}, {"fusion_lat": 0.0, "fusion_lon": 0.0, "is_disabled": 0, "type": "electric_scooter", "rental_uris": {"ios": "https://dc.lft.to/lastmile_qr_scan", "android": "https://dc.lft.to/lastmile_qr_scan"}, "lat": 38.9337535, "name": "a459bb7a405fac14a61adf2e3877c865", "lon": -77.05732983333333, "is_reserved": 0, "bike_id": "a459bb7a405fac14a61adf2e3877c865"}, {"fusion_lat": 0.0, "fusion_lon": 0.0, "is_disabled": 0, "type": "electric_scooter", "rental_uris": {"ios": "https://dc.lft.to/lastmile_qr_scan", "android": "https://dc.lft.to/lastmile_qr_scan"}, "lat": 38.92830083333333, "name": "b8e8b53c05a6c3cd35ee0f5467a31191", "lon": -77.0435195, "is_reserved": 0, "bike_id": "b8e8b53c05a6c3cd35ee0f5467a31191"}, {"fusion_lat": 0.0, "fusion_lon": 0.0, "is_disabled": 0, "type": "electric_scooter", "rental_uris": {"ios": "https://dc.lft.to/lastmile_qr_scan", "android": "https://dc.lft.to/lastmile_qr_scan"}, "lat": 38.90318233333333, "name": "bca6b0926f8ab5a52278a927698205cf", "lon": -77.02880333333333, "is_reserved": 0, "bike_id": "bca6b0926f8ab5a52278a927698205cf"}, {"fusion_lat": 0.0, "fusion_lon": 0.0, "is_disabled": 0, "type": "electric_scooter", "rental_uris": {"ios": "https://dc.lft.to/lastmile_qr_scan", "android": "https://dc.lft.to/lastmile_qr_scan"}, "lat": 38.923503, "name": "e07abf3525473f0dbcea48ebc2bc6ebe", "lon": -77.051241, "is_reserved": 0, "bike_id": "e07abf3525473f0dbcea48ebc2bc6ebe"}, {"fusion_lat": 0.0, "fusion_lon": 0.0, "is_disabled": 0, "type": "electric_scooter", "rental_uris": {"ios": "https://dc.lft.to/lastmile_qr_scan", "android": "https://dc.lft.to/lastmile_qr_scan"}, "lat": 38.89326716666667, "name": "d7e2bbc7121d495f778aacae459eec08", "lon": -77.01229033333334, "is_reserved": 0, "bike_id": "d7e2bbc7121d495f778aacae459eec08"}, {"fusion_lat": 0.0, "fusion_lon": 0.0, "is_disabled": 0, "type": "electric_scooter", "rental_uris": {"ios": "https://dc.lft.to/lastmile_qr_scan", "android": "https://dc.lft.to/lastmile_qr_scan"}, "lat": 38.902619666666666, "name": "d46789b1f8fc614babfba8dd5e540a6d", "lon": -77.05300133333333, "is_reserved": 0, "bike_id": "d46789b1f8fc614babfba8dd5e540a6d"}, {"fusion_lat": 0.0, "fusion_lon": 0.0, "is_disabled": 0, "type": "electric_scooter", "rental_uris": {"ios": "https://dc.lft.to/lastmile_qr_scan", "android": "https://dc.lft.to/lastmile_qr_scan"}, "lat": 38.913992666666665, "name": "1ea7ea55e2fad8980ee2c13aca5c023b", "lon": -77.03928566666667, "is_reserved": 0, "bike_id": "1ea7ea55e2fad8980ee2c13aca5c023b"}, {"fusion_lat": 0.0, "fusion_lon": 0.0, "is_disabled": 0, "type": "electric_scooter", "rental_uris": {"ios": "https://dc.lft.to/lastmile_qr_scan", "android": "https://dc.lft.to/lastmile_qr_scan"}, "lat": 38.898795166666666, "name": "a8162cd3e0b6293ce8645301df74736f", "lon": -77.0078655, "is_reserved": 0, "bike_id": "a8162cd3e0b6293ce8645301df74736f"}, {"fusion_lat": 0.0, "fusion_lon": 0.0, "is_disabled": 0, "type": "electric_scooter", "rental_uris": {"ios": "https://dc.lft.to/lastmile_qr_scan", "android": "https://dc.lft.to/lastmile_qr_scan"}, "lat": 38.9061245, "name": "c578822e62e4f26d54bbc447ba2bc6c1", "lon": -77.01883433333333, "is_reserved": 0, "bike_id": "c578822e62e4f26d54bbc447ba2bc6c1"}, {"fusion_lat": 0.0, "fusion_lon": 0.0, "is_disabled": 0, "type": "electric_scooter", "rental_uris": {"ios": "https://dc.lft.to/lastmile_qr_scan", "android": "https://dc.lft.to/lastmile_qr_scan"}, "lat": 38.8989505, "name": "3baff882a48eecab875557c3b69cc56c", "lon": -77.04345133333334, "is_reserved": 0, "bike_id": "3baff882a48eecab875557c3b69cc56c"}, {"fusion_lat": 0.0, "fusion_lon": 0.0, "is_disabled": 0, "type": "electric_bike", "rental_uris": {"ios": "https://dc.lft.to/lastmile_qr_scan", "android": "https://dc.lft.to/lastmile_qr_scan"}, "lat": 38.850169333333334, "name": "88f652c1092e55d0d4b19a3e38b0c109", "lon": -77.0981155, "is_reserved": 0, "bike_id": "88f652c1092e55d0d4b19a3e38b0c109"}, {"fusion_lat": 0.0, "fusion_lon": 0.0, "is_disabled": 0, "type": "electric_scooter", "rental_uris": {"ios": "https://dc.lft.to/lastmile_qr_scan", "android": "https://dc.lft.to/lastmile_qr_scan"}, "lat": 38.921490166666665, "name": "ee41484c80691021f6f58311673acf1f", "lon": -77.0335865, "is_reserved": 0, "bike_id": "ee41484c80691021f6f58311673acf1f"}, {"fusion_lat": 0.0, "fusion_lon": 0.0, "is_disabled": 0, "type": "electric_scooter", "rental_uris": {"ios": "https://dc.lft.to/lastmile_qr_scan", "android": "https://dc.lft.to/lastmile_qr_scan"}, "lat": 38.89167883333333, "name": "b713e44dc291f1e055e3881b2818388a", "lon": -76.99936283333334, "is_reserved": 0, "bike_id": "b713e44dc291f1e055e3881b2818388a"}, {"fusion_lat": 0.0, "fusion_lon": 0.0, "is_disabled": 0, "type": "electric_scooter", "rental_uris": {"ios": "https://dc.lft.to/lastmile_qr_scan", "android": "https://dc.lft.to/lastmile_qr_scan"}, "lat": 38.8961325, "name": "8ac6df49c8621070182d1d2aa7386a75", "lon": -77.013306, "is_reserved": 0, "bike_id": "8ac6df49c8621070182d1d2aa7386a75"}, {"fusion_lat": 0.0, "fusion_lon": 0.0, "is_disabled": 0, "type": "electric_bike", "rental_uris": {"ios": "https://dc.lft.to/lastmile_qr_scan", "android": "https://dc.lft.to/lastmile_qr_scan"}, "lat": 38.985408166666666, "name": "7f01fe2a1a41e5835281393bfa90ff9d", "lon": -77.00404966666666, "is_reserved": 0, "bike_id": "7f01fe2a1a41e5835281393bfa90ff9d"}, {"fusion_lat": 0.0, "fusion_lon": 0.0, "is_disabled": 0, "type": "electric_scooter", "rental_uris": {"ios": "https://dc.lft.to/lastmile_qr_scan", "android": "https://dc.lft.to/lastmile_qr_scan"}, "lat": 38.9236155, "name": "b6242aacb91e043cd2740566bc0f58b6", "lon": -77.05130583333333, "is_reserved": 0, "bike_id": "b6242aacb91e043cd2740566bc0f58b6"}, {"fusion_lat": 0.0, "fusion_lon": 0.0, "is_disabled": 0, "type": "electric_scooter", "rental_uris": {"ios": "https://dc.lft.to/lastmile_qr_scan", "android": "https://dc.lft.to/lastmile_qr_scan"}, "lat": 38.898431, "name": "4ca00375dfa00602e8770e03e3bff4dc", "lon": -76.93817266666667, "is_reserved": 0, "bike_id": "4ca00375dfa00602e8770e03e3bff4dc"}, {"fusion_lat": 0.0, "fusion_lon": 0.0, "is_disabled": 0, "type": "electric_scooter", "rental_uris": {"ios": "https://dc.lft.to/lastmile_qr_scan", "android": "https://dc.lft.to/lastmile_qr_scan"}, "lat": 38.92428783333333, "name": "cb0e0fd78150ef1acf387d3e3055efe0", "lon": -77.0517945, "is_reserved": 0, "bike_id": "cb0e0fd78150ef1acf387d3e3055efe0"}, {"fusion_lat": 0.0, "fusion_lon": 0.0, "is_disabled": 0, "type": "electric_scooter", "rental_uris": {"ios": "https://dc.lft.to/lastmile_qr_scan", "android": "https://dc.lft.to/lastmile_qr_scan"}, "lat": 38.8997375, "name": "6f085b0b530443dba4f08aa2d09f0cd2", "lon": -77.0452855, "is_reserved": 0, "bike_id": "6f085b0b530443dba4f08aa2d09f0cd2"}, {"fusion_lat": 0.0, "fusion_lon": 0.0, "is_disabled": 0, "type": "electric_scooter", "rental_uris": {"ios": "https://dc.lft.to/lastmile_qr_scan", "android": "https://dc.lft.to/lastmile_qr_scan"}, "lat": 38.905980666666665, "name": "64c4a36e30addb853440687c21dee916", "lon": -77.04683666666666, "is_reserved": 0, "bike_id": "64c4a36e30addb853440687c21dee916"}, {"fusion_lat": 0.0, "fusion_lon": 0.0, "is_disabled": 0, "type": "electric_scooter", "rental_uris": {"ios": "https://dc.lft.to/lastmile_qr_scan", "android": "https://dc.lft.to/lastmile_qr_scan"}, "lat": 38.8983485, "name": "56c4447f29f5a4dfd9426809738e1599", "lon": -77.04679233333333, "is_reserved": 0, "bike_id": "56c4447f29f5a4dfd9426809738e1599"}, {"fusion_lat": 0.0, "fusion_lon": 0.0, "is_disabled": 0, "type": "electric_scooter", "rental_uris": {"ios": "https://dc.lft.to/lastmile_qr_scan", "android": "https://dc.lft.to/lastmile_qr_scan"}, "lat": 38.883781, "name": "c24f576e93e2c6dcdae60b5543d95e8d", "lon": -76.92627616666667, "is_reserved": 0, "bike_id": "c24f576e93e2c6dcdae60b5543d95e8d"}, {"fusion_lat": 0.0, "fusion_lon": 0.0, "is_disabled": 0, "type": "electric_scooter", "rental_uris": {"ios": "https://dc.lft.to/lastmile_qr_scan", "android": "https://dc.lft.to/lastmile_qr_scan"}, "lat": 38.933070666666666, "name": "4f1336fb4c46b46c90c2c019ea752dfc", "lon": -77.03632616666667, "is_reserved": 0, "bike_id": "4f1336fb4c46b46c90c2c019ea752dfc"}, {"fusion_lat": 0.0, "fusion_lon": 0.0, "is_disabled": 0, "type": "electric_scooter", "rental_uris": {"ios": "https://dc.lft.to/lastmile_qr_scan", "android": "https://dc.lft.to/lastmile_qr_scan"}, "lat": 38.876800333333335, "name": "2858a052fc6bea4e01976e86ed8186b1", "lon": -77.0176105, "is_reserved": 0, "bike_id": "2858a052fc6bea4e01976e86ed8186b1"}, {"fusion_lat": 0.0, "fusion_lon": 0.0, "is_disabled": 0, "type": "electric_scooter", "rental_uris": {"ios": "https://dc.lft.to/lastmile_qr_scan", "android": "https://dc.lft.to/lastmile_qr_scan"}, "lat": 38.90881433333333, "name": "f1db377239be921089d54c5e32b65633", "lon": -77.04343483333334, "is_reserved": 0, "bike_id": "f1db377239be921089d54c5e32b65633"}, {"fusion_lat": 0.0, "fusion_lon": 0.0, "is_disabled": 0, "type": "electric_scooter", "rental_uris": {"ios": "https://dc.lft.to/lastmile_qr_scan", "android": "https://dc.lft.to/lastmile_qr_scan"}, "lat": 38.90229466666667, "name": "5e29f6ecdf897566cf4d52e16387b980", "lon": -77.03767333333333, "is_reserved": 0, "bike_id": "5e29f6ecdf897566cf4d52e16387b980"}, {"fusion_lat": 0.0, "fusion_lon": 0.0, "is_disabled": 0, "type": "electric_scooter", "rental_uris": {"ios": "https://dc.lft.to/lastmile_qr_scan", "android": "https://dc.lft.to/lastmile_qr_scan"}, "lat": 38.87295316666667, "name": "97d34d3871c7e350792576b8aec6cb11", "lon": -77.01706866666666, "is_reserved": 0, "bike_id": "97d34d3871c7e350792576b8aec6cb11"}, {"fusion_lat": 0.0, "fusion_lon": 0.0, "is_disabled": 0, "type": "electric_scooter", "rental_uris": {"ios": "https://dc.lft.to/lastmile_qr_scan", "android": "https://dc.lft.to/lastmile_qr_scan"}, "lat": 38.90383216666667, "name": "8b5cbafe68e7ebbb7824ab095b4303a9", "lon": -77.03615833333333, "is_reserved": 0, "bike_id": "8b5cbafe68e7ebbb7824ab095b4303a9"}, {"fusion_lat": 0.0, "fusion_lon": 0.0, "is_disabled": 0, "type": "electric_scooter", "rental_uris": {"ios": "https://dc.lft.to/lastmile_qr_scan", "android": "https://dc.lft.to/lastmile_qr_scan"}, "lat": 38.88603233333333, "name": "71b7e686ef5eb120f1db9aabf61439fa", "lon": -76.92511966666666, "is_reserved": 0, "bike_id": "71b7e686ef5eb120f1db9aabf61439fa"}, {"fusion_lat": 0.0, "fusion_lon": 0.0, "is_disabled": 0, "type": "electric_scooter", "rental_uris": {"ios": "https://dc.lft.to/lastmile_qr_scan", "android": "https://dc.lft.to/lastmile_qr_scan"}, "lat": 38.879426, "name": "72dcfb37c4e5866660559296518b5781", "lon": -76.92896433333334, "is_reserved": 0, "bike_id": "72dcfb37c4e5866660559296518b5781"}, {"fusion_lat": 0.0, "fusion_lon": 0.0, "is_disabled": 0, "type": "electric_scooter", "rental_uris": {"ios": "https://dc.lft.to/lastmile_qr_scan", "android": "https://dc.lft.to/lastmile_qr_scan"}, "lat": 38.906474333333335, "name": "fa64fbcbec3a619b0b0d69d2c6d8997b", "lon": -77.0341895, "is_reserved": 0, "bike_id": "fa64fbcbec3a619b0b0d69d2c6d8997b"}, {"fusion_lat": 0.0, "fusion_lon": 0.0, "is_disabled": 0, "type": "electric_scooter", "rental_uris": {"ios": "https://dc.lft.to/lastmile_qr_scan", "android": "https://dc.lft.to/lastmile_qr_scan"}, "lat": 38.908468666666664, "name": "b07c8af7180ca72725be4a4d49f83666", "lon": -77.06345016666667, "is_reserved": 0, "bike_id": "b07c8af7180ca72725be4a4d49f83666"}, {"fusion_lat": 0.0, "fusion_lon": 0.0, "is_disabled": 0, "type": "electric_scooter", "rental_uris": {"ios": "https://dc.lft.to/lastmile_qr_scan", "android": "https://dc.lft.to/lastmile_qr_scan"}, "lat": 38.9201635, "name": "0da81b6c47c90b679c279d7ff876df0f", "lon": -77.0636215, "is_reserved": 0, "bike_id": "0da81b6c47c90b679c279d7ff876df0f"}, {"fusion_lat": 0.0, "fusion_lon": 0.0, "is_disabled": 0, "type": "electric_scooter", "rental_uris": {"ios": "https://dc.lft.to/lastmile_qr_scan", "android": "https://dc.lft.to/lastmile_qr_scan"}, "lat": 38.898668666666666, "name": "7ef7942a9157f0d03b2c323913976f1a", "lon": -77.0392555, "is_reserved": 0, "bike_id": "7ef7942a9157f0d03b2c323913976f1a"}, {"fusion_lat": 0.0, "fusion_lon": 0.0, "is_disabled": 0, "type": "electric_scooter", "rental_uris": {"ios": "https://dc.lft.to/lastmile_qr_scan", "android": "https://dc.lft.to/lastmile_qr_scan"}, "lat": 38.892646666666664, "name": "42867c14cf5c5908fa44c0ee342d2f04", "lon": -76.9837165, "is_reserved": 0, "bike_id": "42867c14cf5c5908fa44c0ee342d2f04"}, {"fusion_lat": 0.0, "fusion_lon": 0.0, "is_disabled": 0, "type": "electric_scooter", "rental_uris": {"ios": "https://dc.lft.to/lastmile_qr_scan", "android": "https://dc.lft.to/lastmile_qr_scan"}, "lat": 38.873925, "name": "d5e3db6b613d9c19d78e24f75b06a320", "lon": -77.00059566666667, "is_reserved": 0, "bike_id": "d5e3db6b613d9c19d78e24f75b06a320"}, {"fusion_lat": 0.0, "fusion_lon": 0.0, "is_disabled": 0, "type": "electric_scooter", "rental_uris": {"ios": "https://dc.lft.to/lastmile_qr_scan", "android": "https://dc.lft.to/lastmile_qr_scan"}, "lat": 38.9006015, "name": "0e18ad46a490138fa504e67ef8eab04c", "lon": -76.9983095, "is_reserved": 0, "bike_id": "0e18ad46a490138fa504e67ef8eab04c"}, {"fusion_lat": 0.0, "fusion_lon": 0.0, "is_disabled": 0, "type": "electric_scooter", "rental_uris": {"ios": "https://dc.lft.to/lastmile_qr_scan", "android": "https://dc.lft.to/lastmile_qr_scan"}, "lat": 38.9000655, "name": "86cd15db50c453ea04e0ab6ca3769059", "lon": -77.00040383333334, "is_reserved": 0, "bike_id": "86cd15db50c453ea04e0ab6ca3769059"}, {"fusion_lat": 0.0, "fusion_lon": 0.0, "is_disabled": 0, "type": "electric_scooter", "rental_uris": {"ios": "https://dc.lft.to/lastmile_qr_scan", "android": "https://dc.lft.to/lastmile_qr_scan"}, "lat": 38.909237166666664, "name": "79adf36538bcc6e0a163ebc365e54685", "lon": -77.04213483333334, "is_reserved": 0, "bike_id": "79adf36538bcc6e0a163ebc365e54685"}, {"fusion_lat": 0.0, "fusion_lon": 0.0, "is_disabled": 0, "type": "electric_bike", "rental_uris": {"ios": "https://dc.lft.to/lastmile_qr_scan", "android": "https://dc.lft.to/lastmile_qr_scan"}, "lat": 38.9321335, "name": "d7d62774f551fd906fd741d4344ee6cc", "lon": -76.9948585, "is_reserved": 0, "bike_id": "d7d62774f551fd906fd741d4344ee6cc"}, {"fusion_lat": 0.0, "fusion_lon": 0.0, "is_disabled": 0, "type": "electric_scooter", "rental_uris": {"ios": "https://dc.lft.to/lastmile_qr_scan", "android": "https://dc.lft.to/lastmile_qr_scan"}, "lat": 38.94200416666666, "name": "44606e2e7d08ac0cff91a7fa9beafcbf", "lon": -77.0234815, "is_reserved": 0, "bike_id": "44606e2e7d08ac0cff91a7fa9beafcbf"}, {"fusion_lat": 0.0, "fusion_lon": 0.0, "is_disabled": 0, "type": "electric_bike", "rental_uris": {"ios": "https://dc.lft.to/lastmile_qr_scan", "android": "https://dc.lft.to/lastmile_qr_scan"}, "lat": 38.895277, "name": "a91a4e5497253b70c063861e9269332b", "lon": -77.07828716666667, "is_reserved": 0, "bike_id": "a91a4e5497253b70c063861e9269332b"}, {"fusion_lat": 0.0, "fusion_lon": 0.0, "is_disabled": 0, "type": "electric_scooter", "rental_uris": {"ios": "https://dc.lft.to/lastmile_qr_scan", "android": "https://dc.lft.to/lastmile_qr_scan"}, "lat": 38.89677233333333, "name": "8bd0f20569a5cc017821c99b2b304abd", "lon": -77.0051525, "is_reserved": 0, "bike_id": "8bd0f20569a5cc017821c99b2b304abd"}, {"fusion_lat": 0.0, "fusion_lon": 0.0, "is_disabled": 0, "type": "electric_scooter", "rental_uris": {"ios": "https://dc.lft.to/lastmile_qr_scan", "android": "https://dc.lft.to/lastmile_qr_scan"}, "lat": 38.912731666666666, "name": "5018e7dd63cf300ca55456823d81ab48", "lon": -77.07616083333333, "is_reserved": 0, "bike_id": "5018e7dd63cf300ca55456823d81ab48"}, {"fusion_lat": 0.0, "fusion_lon": 0.0, "is_disabled": 0, "type": "electric_scooter", "rental_uris": {"ios": "https://dc.lft.to/lastmile_qr_scan", "android": "https://dc.lft.to/lastmile_qr_scan"}, "lat": 38.930156, "name": "e2fe3290b241f859239a5fb7756eb144", "lon": -77.06868283333333, "is_reserved": 0, "bike_id": "e2fe3290b241f859239a5fb7756eb144"}, {"fusion_lat": 0.0, "fusion_lon": 0.0, "is_disabled": 0, "type": "electric_scooter", "rental_uris": {"ios": "https://dc.lft.to/lastmile_qr_scan", "android": "https://dc.lft.to/lastmile_qr_scan"}, "lat": 38.8762855, "name": "5ed1edb18772070be3b35a7dc7ab585e", "lon": -77.00099083333333, "is_reserved": 0, "bike_id": "5ed1edb18772070be3b35a7dc7ab585e"}, {"fusion_lat": 0.0, "fusion_lon": 0.0, "is_disabled": 0, "type": "electric_scooter", "rental_uris": {"ios": "https://dc.lft.to/lastmile_qr_scan", "android": "https://dc.lft.to/lastmile_qr_scan"}, "lat": 38.941980666666666, "name": "d2e340f4eccbc99c19db1270a19bdf96", "lon": -77.02566083333333, "is_reserved": 0, "bike_id": "d2e340f4eccbc99c19db1270a19bdf96"}, {"fusion_lat": 0.0, "fusion_lon": 0.0, "is_disabled": 0, "type": "electric_scooter", "rental_uris": {"ios": "https://dc.lft.to/lastmile_qr_scan", "android": "https://dc.lft.to/lastmile_qr_scan"}, "lat": 38.8745695, "name": "d02ee5ea88e7d1c768f879a7127e8b20", "lon": -77.00955183333333, "is_reserved": 0, "bike_id": "d02ee5ea88e7d1c768f879a7127e8b20"}, {"fusion_lat": 0.0, "fusion_lon": 0.0, "is_disabled": 0, "type": "electric_scooter", "rental_uris": {"ios": "https://dc.lft.to/lastmile_qr_scan", "android": "https://dc.lft.to/lastmile_qr_scan"}, "lat": 38.9103005, "name": "796069729cc6ff641260a7b55222cb95", "lon": -77.03086083333334, "is_reserved": 0, "bike_id": "796069729cc6ff641260a7b55222cb95"}, {"fusion_lat": 0.0, "fusion_lon": 0.0, "is_disabled": 0, "type": "electric_scooter", "rental_uris": {"ios": "https://dc.lft.to/lastmile_qr_scan", "android": "https://dc.lft.to/lastmile_qr_scan"}, "lat": 38.87704566666667, "name": "ff8e89ffdce979799cda452e1ebee662", "lon": -77.01733866666666, "is_reserved": 0, "bike_id": "ff8e89ffdce979799cda452e1ebee662"}, {"fusion_lat": 0.0, "fusion_lon": 0.0, "is_disabled": 0, "type": "electric_bike", "rental_uris": {"ios": "https://dc.lft.to/lastmile_qr_scan", "android": "https://dc.lft.to/lastmile_qr_scan"}, "lat": 38.974413166666665, "name": "810e8740f667b3bb0bf558e811862dc5", "lon": -77.09620166666667, "is_reserved": 0, "bike_id": "810e8740f667b3bb0bf558e811862dc5"}, {"fusion_lat": 0.0, "fusion_lon": 0.0, "is_disabled": 0, "type": "electric_bike", "rental_uris": {"ios": "https://dc.lft.to/lastmile_qr_scan", "android": "https://dc.lft.to/lastmile_qr_scan"}, "lat": 38.95155583333333, "name": "a3449f745d26140c558bf9f2f324dd00", "lon": -76.93326933333333, "is_reserved": 0, "bike_id": "a3449f745d26140c558bf9f2f324dd00"}, {"fusion_lat": 0.0, "fusion_lon": 0.0, "is_disabled": 0, "type": "electric_scooter", "rental_uris": {"ios": "https://dc.lft.to/lastmile_qr_scan", "android": "https://dc.lft.to/lastmile_qr_scan"}, "lat": 38.9619585, "name": "51cc5122a6ed918d6d984aedf8d18209", "lon": -77.02788483333333, "is_reserved": 0, "bike_id": "51cc5122a6ed918d6d984aedf8d18209"}, {"fusion_lat": 0.0, "fusion_lon": 0.0, "is_disabled": 0, "type": "electric_scooter", "rental_uris": {"ios": "https://dc.lft.to/lastmile_qr_scan", "android": "https://dc.lft.to/lastmile_qr_scan"}, "lat": 38.88192083333333, "name": "54d6f07086495bb90637d31186a9c0ec", "lon": -77.02085466666666, "is_reserved": 0, "bike_id": "54d6f07086495bb90637d31186a9c0ec"}, {"fusion_lat": 0.0, "fusion_lon": 0.0, "is_disabled": 0, "type": "electric_bike", "rental_uris": {"ios": "https://dc.lft.to/lastmile_qr_scan", "android": "https://dc.lft.to/lastmile_qr_scan"}, "lat": 38.89050066666667, "name": "dbc2eb27f1abb156e8e7880f04570068", "lon": -76.94227733333334, "is_reserved": 0, "bike_id": "dbc2eb27f1abb156e8e7880f04570068"}, {"fusion_lat": 0.0, "fusion_lon": 0.0, "is_disabled": 0, "type": "electric_bike", "rental_uris": {"ios": "https://dc.lft.to/lastmile_qr_scan", "android": "https://dc.lft.to/lastmile_qr_scan"}, "lat": 38.831711, "name": "1bb8ed483a0d7d4f23fa3ec4dd86a8cc", "lon": -77.06697333333334, "is_reserved": 0, "bike_id": "1bb8ed483a0d7d4f23fa3ec4dd86a8cc"}, {"fusion_lat": 0.0, "fusion_lon": 0.0, "is_disabled": 0, "type": "electric_scooter", "rental_uris": {"ios": "https://dc.lft.to/lastmile_qr_scan", "android": "https://dc.lft.to/lastmile_qr_scan"}, "lat": 38.9234085, "name": "d2abd3581a59d9e6f5e0311221bc2de5", "lon": -77.01904016666667, "is_reserved": 0, "bike_id": "d2abd3581a59d9e6f5e0311221bc2de5"}, {"fusion_lat": 0.0, "fusion_lon": 0.0, "is_disabled": 0, "type": "electric_scooter", "rental_uris": {"ios": "https://dc.lft.to/lastmile_qr_scan", "android": "https://dc.lft.to/lastmile_qr_scan"}, "lat": 38.920517833333335, "name": "4b2234857fb3cffd3c35e329f813bcea", "lon": -77.04192733333333, "is_reserved": 0, "bike_id": "4b2234857fb3cffd3c35e329f813bcea"}, {"fusion_lat": 0.0, "fusion_lon": 0.0, "is_disabled": 0, "type": "electric_scooter", "rental_uris": {"ios": "https://dc.lft.to/lastmile_qr_scan", "android": "https://dc.lft.to/lastmile_qr_scan"}, "lat": 38.87617516666667, "name": "c7dced0a001453317fc8b4e14f3d0db8", "lon": -77.00822633333334, "is_reserved": 0, "bike_id": "c7dced0a001453317fc8b4e14f3d0db8"}, {"fusion_lat": 0.0, "fusion_lon": 0.0, "is_disabled": 0, "type": "electric_scooter", "rental_uris": {"ios": "https://dc.lft.to/lastmile_qr_scan", "android": "https://dc.lft.to/lastmile_qr_scan"}, "lat": 38.9226625, "name": "85f3584db6fc9eba6a9444c1497a6200", "lon": -76.99750516666667, "is_reserved": 0, "bike_id": "85f3584db6fc9eba6a9444c1497a6200"}, {"fusion_lat": 0.0, "fusion_lon": 0.0, "is_disabled": 0, "type": "electric_scooter", "rental_uris": {"ios": "https://dc.lft.to/lastmile_qr_scan", "android": "https://dc.lft.to/lastmile_qr_scan"}, "lat": 38.883521, "name": "636331dec5dc3a8e69de81e62652cb56", "lon": -76.9362945, "is_reserved": 0, "bike_id": "636331dec5dc3a8e69de81e62652cb56"}, {"fusion_lat": 0.0, "fusion_lon": 0.0, "is_disabled": 0, "type": "electric_scooter", "rental_uris": {"ios": "https://dc.lft.to/lastmile_qr_scan", "android": "https://dc.lft.to/lastmile_qr_scan"}, "lat": 38.902832833333335, "name": "da96e36f5f830aece9139e1247ef4e38", "lon": -77.03853616666666, "is_reserved": 0, "bike_id": "da96e36f5f830aece9139e1247ef4e38"}, {"fusion_lat": 0.0, "fusion_lon": 0.0, "is_disabled": 0, "type": "electric_scooter", "rental_uris": {"ios": "https://dc.lft.to/lastmile_qr_scan", "android": "https://dc.lft.to/lastmile_qr_scan"}, "lat": 38.9023935, "name": "dca7a061872f59c8bb7df9e88bc10e70", "lon": -77.00197483333334, "is_reserved": 0, "bike_id": "dca7a061872f59c8bb7df9e88bc10e70"}, {"fusion_lat": 0.0, "fusion_lon": 0.0, "is_disabled": 0, "type": "electric_scooter", "rental_uris": {"ios": "https://dc.lft.to/lastmile_qr_scan", "android": "https://dc.lft.to/lastmile_qr_scan"}, "lat": 38.9208345, "name": "fe3e44068c86f77a54935ded21a370b6", "lon": -77.02298916666666, "is_reserved": 0, "bike_id": "fe3e44068c86f77a54935ded21a370b6"}, {"fusion_lat": 0.0, "fusion_lon": 0.0, "is_disabled": 0, "type": "electric_scooter", "rental_uris": {"ios": "https://dc.lft.to/lastmile_qr_scan", "android": "https://dc.lft.to/lastmile_qr_scan"}, "lat": 38.8973115, "name": "490cf34225c6593e1a02347394243836", "lon": -77.02163916666667, "is_reserved": 0, "bike_id": "490cf34225c6593e1a02347394243836"}, {"fusion_lat": 0.0, "fusion_lon": 0.0, "is_disabled": 0, "type": "electric_scooter", "rental_uris": {"ios": "https://dc.lft.to/lastmile_qr_scan", "android": "https://dc.lft.to/lastmile_qr_scan"}, "lat": 38.9305575, "name": "514b1564a5ad530be7af5859b540a6d1", "lon": -77.03631966666667, "is_reserved": 0, "bike_id": "514b1564a5ad530be7af5859b540a6d1"}, {"fusion_lat": 0.0, "fusion_lon": 0.0, "is_disabled": 0, "type": "electric_scooter", "rental_uris": {"ios": "https://dc.lft.to/lastmile_qr_scan", "android": "https://dc.lft.to/lastmile_qr_scan"}, "lat": 38.92870833333333, "name": "f051498d970bb5a52a125ddcac01c2fa", "lon": -77.0330235, "is_reserved": 0, "bike_id": "f051498d970bb5a52a125ddcac01c2fa"}, {"fusion_lat": 0.0, "fusion_lon": 0.0, "is_disabled": 0, "type": "electric_scooter", "rental_uris": {"ios": "https://dc.lft.to/lastmile_qr_scan", "android": "https://dc.lft.to/lastmile_qr_scan"}, "lat": 38.90961883333333, "name": "4b04d1f746523464093a8270e3af700a", "lon": -77.01440733333334, "is_reserved": 0, "bike_id": "4b04d1f746523464093a8270e3af700a"}, {"fusion_lat": 0.0, "fusion_lon": 0.0, "is_disabled": 0, "type": "electric_scooter", "rental_uris": {"ios": "https://dc.lft.to/lastmile_qr_scan", "android": "https://dc.lft.to/lastmile_qr_scan"}, "lat": 38.8777365, "name": "0f27bfa6ee32c66c23a2110a848cea8c", "lon": -77.00346033333334, "is_reserved": 0, "bike_id": "0f27bfa6ee32c66c23a2110a848cea8c"}, {"fusion_lat": 0.0, "fusion_lon": 0.0, "is_disabled": 0, "type": "electric_scooter", "rental_uris": {"ios": "https://dc.lft.to/lastmile_qr_scan", "android": "https://dc.lft.to/lastmile_qr_scan"}, "lat": 38.873159, "name": "0b444ae4e3ee42c373e146f71781c8a4", "lon": -76.9703425, "is_reserved": 0, "bike_id": "0b444ae4e3ee42c373e146f71781c8a4"}, {"fusion_lat": 0.0, "fusion_lon": 0.0, "is_disabled": 0, "type": "electric_bike", "rental_uris": {"ios": "https://dc.lft.to/lastmile_qr_scan", "android": "https://dc.lft.to/lastmile_qr_scan"}, "lat": 38.990939, "name": "7a7de208d58f3f0b95afbaec0a4917ea", "lon": -76.99378166666666, "is_reserved": 0, "bike_id": "7a7de208d58f3f0b95afbaec0a4917ea"}, {"fusion_lat": 0.0, "fusion_lon": 0.0, "is_disabled": 0, "type": "electric_scooter", "rental_uris": {"ios": "https://dc.lft.to/lastmile_qr_scan", "android": "https://dc.lft.to/lastmile_qr_scan"}, "lat": 38.88992666666667, "name": "d190f245ee2e018f4fc99c3caa201f5f", "lon": -76.99851166666667, "is_reserved": 0, "bike_id": "d190f245ee2e018f4fc99c3caa201f5f"}, {"fusion_lat": 0.0, "fusion_lon": 0.0, "is_disabled": 0, "type": "electric_scooter", "rental_uris": {"ios": "https://dc.lft.to/lastmile_qr_scan", "android": "https://dc.lft.to/lastmile_qr_scan"}, "lat": 38.8992045, "name": "35b6dbd5a614cc5bd04e9a668518a799", "lon": -77.03999633333333, "is_reserved": 0, "bike_id": "35b6dbd5a614cc5bd04e9a668518a799"}, {"fusion_lat": 0.0, "fusion_lon": 0.0, "is_disabled": 0, "type": "electric_scooter", "rental_uris": {"ios": "https://dc.lft.to/lastmile_qr_scan", "android": "https://dc.lft.to/lastmile_qr_scan"}, "lat": 38.9181675, "name": "613014c6623283530909ba6e9f337d12", "lon": -77.024774, "is_reserved": 0, "bike_id": "613014c6623283530909ba6e9f337d12"}, {"fusion_lat": 0.0, "fusion_lon": 0.0, "is_disabled": 0, "type": "electric_scooter", "rental_uris": {"ios": "https://dc.lft.to/lastmile_qr_scan", "android": "https://dc.lft.to/lastmile_qr_scan"}, "lat": 38.926979833333334, "name": "d36d56d8a651fb342897018ce36db1da", "lon": -76.99538416666667, "is_reserved": 0, "bike_id": "d36d56d8a651fb342897018ce36db1da"}, {"fusion_lat": 0.0, "fusion_lon": 0.0, "is_disabled": 0, "type": "electric_scooter", "rental_uris": {"ios": "https://dc.lft.to/lastmile_qr_scan", "android": "https://dc.lft.to/lastmile_qr_scan"}, "lat": 38.896304, "name": "bd2f5e6881034e87ec0d490f7010f6e6", "lon": -77.02406166666667, "is_reserved": 0, "bike_id": "bd2f5e6881034e87ec0d490f7010f6e6"}, {"fusion_lat": 0.0, "fusion_lon": 0.0, "is_disabled": 0, "type": "electric_scooter", "rental_uris": {"ios": "https://dc.lft.to/lastmile_qr_scan", "android": "https://dc.lft.to/lastmile_qr_scan"}, "lat": 38.895055666666664, "name": "7cc0d7c43f53fba44fc7c6faec3c2485", "lon": -77.021969, "is_reserved": 0, "bike_id": "7cc0d7c43f53fba44fc7c6faec3c2485"}, {"fusion_lat": 0.0, "fusion_lon": 0.0, "is_disabled": 0, "type": "electric_scooter", "rental_uris": {"ios": "https://dc.lft.to/lastmile_qr_scan", "android": "https://dc.lft.to/lastmile_qr_scan"}, "lat": 38.917028333333334, "name": "6d5b316b44818dbcecd341e95cc85d89", "lon": -77.0095725, "is_reserved": 0, "bike_id": "6d5b316b44818dbcecd341e95cc85d89"}, {"fusion_lat": 0.0, "fusion_lon": 0.0, "is_disabled": 0, "type": "electric_scooter", "rental_uris": {"ios": "https://dc.lft.to/lastmile_qr_scan", "android": "https://dc.lft.to/lastmile_qr_scan"}, "lat": 38.912645499999996, "name": "51fa1e5d150fa4ae7cb1d57bf7b847a0", "lon": -77.0767365, "is_reserved": 0, "bike_id": "51fa1e5d150fa4ae7cb1d57bf7b847a0"}, {"fusion_lat": 0.0, "fusion_lon": 0.0, "is_disabled": 0, "type": "electric_scooter", "rental_uris": {"ios": "https://dc.lft.to/lastmile_qr_scan", "android": "https://dc.lft.to/lastmile_qr_scan"}, "lat": 38.85022416666666, "name": "a23c61548c16b43cd322e0855b356d6f", "lon": -76.97351716666667, "is_reserved": 0, "bike_id": "a23c61548c16b43cd322e0855b356d6f"}, {"fusion_lat": 0.0, "fusion_lon": 0.0, "is_disabled": 0, "type": "electric_scooter", "rental_uris": {"ios": "https://dc.lft.to/lastmile_qr_scan", "android": "https://dc.lft.to/lastmile_qr_scan"}, "lat": 38.9073215, "name": "29048a5ab78eb2e67870baa8d9599536", "lon": -77.042453, "is_reserved": 0, "bike_id": "29048a5ab78eb2e67870baa8d9599536"}, {"fusion_lat": 0.0, "fusion_lon": 0.0, "is_disabled": 0, "type": "electric_scooter", "rental_uris": {"ios": "https://dc.lft.to/lastmile_qr_scan", "android": "https://dc.lft.to/lastmile_qr_scan"}, "lat": 38.883887333333334, "name": "22c2abd0432c9cb10c909b469cc41703", "lon": -76.95446966666667, "is_reserved": 0, "bike_id": "22c2abd0432c9cb10c909b469cc41703"}, {"fusion_lat": 0.0, "fusion_lon": 0.0, "is_disabled": 0, "type": "electric_scooter", "rental_uris": {"ios": "https://dc.lft.to/lastmile_qr_scan", "android": "https://dc.lft.to/lastmile_qr_scan"}, "lat": 38.902604, "name": "3583665c5dac2bea33141e1fefe17fea", "lon": -77.04598433333334, "is_reserved": 0, "bike_id": "3583665c5dac2bea33141e1fefe17fea"}, {"fusion_lat": 0.0, "fusion_lon": 0.0, "is_disabled": 0, "type": "electric_scooter", "rental_uris": {"ios": "https://dc.lft.to/lastmile_qr_scan", "android": "https://dc.lft.to/lastmile_qr_scan"}, "lat": 38.905372666666665, "name": "d02f728641bdfcb8e35dbb549f9262bf", "lon": -77.02201516666666, "is_reserved": 0, "bike_id": "d02f728641bdfcb8e35dbb549f9262bf"}, {"fusion_lat": 0.0, "fusion_lon": 0.0, "is_disabled": 0, "type": "electric_scooter", "rental_uris": {"ios": "https://dc.lft.to/lastmile_qr_scan", "android": "https://dc.lft.to/lastmile_qr_scan"}, "lat": 38.901298833333335, "name": "19a7f8f0d8a72c22f058bd93f8f592de", "lon": -77.02993083333334, "is_reserved": 0, "bike_id": "19a7f8f0d8a72c22f058bd93f8f592de"}, {"fusion_lat": 0.0, "fusion_lon": 0.0, "is_disabled": 0, "type": "electric_scooter", "rental_uris": {"ios": "https://dc.lft.to/lastmile_qr_scan", "android": "https://dc.lft.to/lastmile_qr_scan"}, "lat": 38.904989, "name": "e42932cb9ef143dd7db7055569128e4f", "lon": -77.05804883333333, "is_reserved": 0, "bike_id": "e42932cb9ef143dd7db7055569128e4f"}, {"fusion_lat": 0.0, "fusion_lon": 0.0, "is_disabled": 0, "type": "electric_scooter", "rental_uris": {"ios": "https://dc.lft.to/lastmile_qr_scan", "android": "https://dc.lft.to/lastmile_qr_scan"}, "lat": 38.859641, "name": "27231b78fc15322ef5f74f5690bd791e", "lon": -76.9870205, "is_reserved": 0, "bike_id": "27231b78fc15322ef5f74f5690bd791e"}, {"fusion_lat": 0.0, "fusion_lon": 0.0, "is_disabled": 0, "type": "electric_scooter", "rental_uris": {"ios": "https://dc.lft.to/lastmile_qr_scan", "android": "https://dc.lft.to/lastmile_qr_scan"}, "lat": 38.87792266666666, "name": "82f900a200b00719770cb284cf63ba14", "lon": -76.9941, "is_reserved": 0, "bike_id": "82f900a200b00719770cb284cf63ba14"}, {"fusion_lat": 0.0, "fusion_lon": 0.0, "is_disabled": 0, "type": "electric_scooter", "rental_uris": {"ios": "https://dc.lft.to/lastmile_qr_scan", "android": "https://dc.lft.to/lastmile_qr_scan"}, "lat": 38.934775, "name": "9fcd839c1418d8c173de22444b10823a", "lon": -77.05788783333334, "is_reserved": 0, "bike_id": "9fcd839c1418d8c173de22444b10823a"}, {"fusion_lat": 0.0, "fusion_lon": 0.0, "is_disabled": 0, "type": "electric_scooter", "rental_uris": {"ios": "https://dc.lft.to/lastmile_qr_scan", "android": "https://dc.lft.to/lastmile_qr_scan"}, "lat": 38.92296366666667, "name": "46b474efaf54b0c1985f6865cb6a3ec3", "lon": -77.0420265, "is_reserved": 0, "bike_id": "46b474efaf54b0c1985f6865cb6a3ec3"}, {"fusion_lat": 0.0, "fusion_lon": 0.0, "is_disabled": 0, "type": "electric_bike", "rental_uris": {"ios": "https://dc.lft.to/lastmile_qr_scan", "android": "https://dc.lft.to/lastmile_qr_scan"}, "lat": 39.00296983333333, "name": "33602f349fbb57bcf328d5a0f9895597", "lon": -76.90301516666666, "is_reserved": 0, "bike_id": "33602f349fbb57bcf328d5a0f9895597"}, {"fusion_lat": 0.0, "fusion_lon": 0.0, "is_disabled": 0, "type": "electric_scooter", "rental_uris": {"ios": "https://dc.lft.to/lastmile_qr_scan", "android": "https://dc.lft.to/lastmile_qr_scan"}, "lat": 38.9064495, "name": "e5ac7bc0ec1080cad98361c2eb6b5997", "lon": -76.99842883333334, "is_reserved": 0, "bike_id": "e5ac7bc0ec1080cad98361c2eb6b5997"}, {"fusion_lat": 0.0, "fusion_lon": 0.0, "is_disabled": 0, "type": "electric_scooter", "rental_uris": {"ios": "https://dc.lft.to/lastmile_qr_scan", "android": "https://dc.lft.to/lastmile_qr_scan"}, "lat": 38.898399, "name": "1b48d3cc7f96a3ce98169a79dff8a548", "lon": -77.01290816666666, "is_reserved": 0, "bike_id": "1b48d3cc7f96a3ce98169a79dff8a548"}, {"fusion_lat": 0.0, "fusion_lon": 0.0, "is_disabled": 0, "type": "electric_scooter", "rental_uris": {"ios": "https://dc.lft.to/lastmile_qr_scan", "android": "https://dc.lft.to/lastmile_qr_scan"}, "lat": 38.91340183333333, "name": "b115311d381aed5ce14c31d607d6f984", "lon": -77.00321733333334, "is_reserved": 0, "bike_id": "b115311d381aed5ce14c31d607d6f984"}, {"fusion_lat": 0.0, "fusion_lon": 0.0, "is_disabled": 0, "type": "electric_scooter", "rental_uris": {"ios": "https://dc.lft.to/lastmile_qr_scan", "android": "https://dc.lft.to/lastmile_qr_scan"}, "lat": 38.929602, "name": "dea73c28d2407d794dd8df20a499f807", "lon": -77.011458, "is_reserved": 0, "bike_id": "dea73c28d2407d794dd8df20a499f807"}, {"fusion_lat": 0.0, "fusion_lon": 0.0, "is_disabled": 0, "type": "electric_scooter", "rental_uris": {"ios": "https://dc.lft.to/lastmile_qr_scan", "android": "https://dc.lft.to/lastmile_qr_scan"}, "lat": 38.91941833333333, "name": "6867f51ade8e953ef2ca57b187223300", "lon": -77.02504333333333, "is_reserved": 0, "bike_id": "6867f51ade8e953ef2ca57b187223300"}, {"fusion_lat": 0.0, "fusion_lon": 0.0, "is_disabled": 0, "type": "electric_scooter", "rental_uris": {"ios": "https://dc.lft.to/lastmile_qr_scan", "android": "https://dc.lft.to/lastmile_qr_scan"}, "lat": 38.93824883333333, "name": "81d1de14ceaa6810f1ac14cc62da6cfe", "lon": -77.05992733333333, "is_reserved": 0, "bike_id": "81d1de14ceaa6810f1ac14cc62da6cfe"}, {"fusion_lat": 0.0, "fusion_lon": 0.0, "is_disabled": 0, "type": "electric_scooter", "rental_uris": {"ios": "https://dc.lft.to/lastmile_qr_scan", "android": "https://dc.lft.to/lastmile_qr_scan"}, "lat": 38.904277666666665, "name": "7438065d5202ecd93be28569dd00b20c", "lon": -77.0488115, "is_reserved": 0, "bike_id": "7438065d5202ecd93be28569dd00b20c"}, {"fusion_lat": 0.0, "fusion_lon": 0.0, "is_disabled": 0, "type": "electric_bike", "rental_uris": {"ios": "https://dc.lft.to/lastmile_qr_scan", "android": "https://dc.lft.to/lastmile_qr_scan"}, "lat": 38.99492333333333, "name": "e7334a649636a45c576df5db78219f2c", "lon": -77.028907, "is_reserved": 0, "bike_id": "e7334a649636a45c576df5db78219f2c"}, {"fusion_lat": 0.0, "fusion_lon": 0.0, "is_disabled": 0, "type": "electric_scooter", "rental_uris": {"ios": "https://dc.lft.to/lastmile_qr_scan", "android": "https://dc.lft.to/lastmile_qr_scan"}, "lat": 38.902342833333336, "name": "13278613ed17972583471039a43f72f9", "lon": -77.0089265, "is_reserved": 0, "bike_id": "13278613ed17972583471039a43f72f9"}, {"fusion_lat": 0.0, "fusion_lon": 0.0, "is_disabled": 0, "type": "electric_scooter", "rental_uris": {"ios": "https://dc.lft.to/lastmile_qr_scan", "android": "https://dc.lft.to/lastmile_qr_scan"}, "lat": 38.90036083333333, "name": "36f28440a7472b15eb4b4f7fb5346648", "lon": -77.01786633333333, "is_reserved": 0, "bike_id": "36f28440a7472b15eb4b4f7fb5346648"}, {"fusion_lat": 0.0, "fusion_lon": 0.0, "is_disabled": 0, "type": "electric_bike", "rental_uris": {"ios": "https://dc.lft.to/lastmile_qr_scan", "android": "https://dc.lft.to/lastmile_qr_scan"}, "lat": 38.83065533333333, "name": "b94bb0d1334b33d8d6ab601c84c37114", "lon": -77.0408005, "is_reserved": 0, "bike_id": "b94bb0d1334b33d8d6ab601c84c37114"}, {"fusion_lat": 0.0, "fusion_lon": 0.0, "is_disabled": 0, "type": "electric_scooter", "rental_uris": {"ios": "https://dc.lft.to/lastmile_qr_scan", "android": "https://dc.lft.to/lastmile_qr_scan"}, "lat": 38.90777416666667, "name": "6ea34a9919ed139db92206eb4588c5a6", "lon": -77.071618, "is_reserved": 0, "bike_id": "6ea34a9919ed139db92206eb4588c5a6"}, {"fusion_lat": 0.0, "fusion_lon": 0.0, "is_disabled": 0, "type": "electric_scooter", "rental_uris": {"ios": "https://dc.lft.to/lastmile_qr_scan", "android": "https://dc.lft.to/lastmile_qr_scan"}, "lat": 38.87720216666666, "name": "16801da7e510897f1504b8e89dc386f9", "lon": -77.002896, "is_reserved": 0, "bike_id": "16801da7e510897f1504b8e89dc386f9"}, {"fusion_lat": 0.0, "fusion_lon": 0.0, "is_disabled": 0, "type": "electric_scooter", "rental_uris": {"ios": "https://dc.lft.to/lastmile_qr_scan", "android": "https://dc.lft.to/lastmile_qr_scan"}, "lat": 38.92758533333333, "name": "275e6e2915f1932f220381ee9e5f83d9", "lon": -77.0329705, "is_reserved": 0, "bike_id": "275e6e2915f1932f220381ee9e5f83d9"}, {"fusion_lat": 0.0, "fusion_lon": 0.0, "is_disabled": 0, "type": "electric_scooter", "rental_uris": {"ios": "https://dc.lft.to/lastmile_qr_scan", "android": "https://dc.lft.to/lastmile_qr_scan"}, "lat": 38.929072833333336, "name": "0b83f550bd0da4801c50a0e67c5c064c", "lon": -77.05810183333334, "is_reserved": 0, "bike_id": "0b83f550bd0da4801c50a0e67c5c064c"}, {"fusion_lat": 0.0, "fusion_lon": 0.0, "is_disabled": 0, "type": "electric_scooter", "rental_uris": {"ios": "https://dc.lft.to/lastmile_qr_scan", "android": "https://dc.lft.to/lastmile_qr_scan"}, "lat": 38.936317, "name": "04ebbdb19181ab339b0cf8f349eb720d", "lon": -77.03662683333333, "is_reserved": 0, "bike_id": "04ebbdb19181ab339b0cf8f349eb720d"}, {"fusion_lat": 0.0, "fusion_lon": 0.0, "is_disabled": 0, "type": "electric_scooter", "rental_uris": {"ios": "https://dc.lft.to/lastmile_qr_scan", "android": "https://dc.lft.to/lastmile_qr_scan"}, "lat": 38.9031875, "name": "4fcdbb346f90c1806de8a51d69ba7f59", "lon": -77.0346495, "is_reserved": 0, "bike_id": "4fcdbb346f90c1806de8a51d69ba7f59"}, {"fusion_lat": 0.0, "fusion_lon": 0.0, "is_disabled": 0, "type": "electric_scooter", "rental_uris": {"ios": "https://dc.lft.to/lastmile_qr_scan", "android": "https://dc.lft.to/lastmile_qr_scan"}, "lat": 38.845454, "name": "2a35c36abd23a82238e839da8ea365e7", "lon": -76.99725566666666, "is_reserved": 0, "bike_id": "2a35c36abd23a82238e839da8ea365e7"}, {"fusion_lat": 0.0, "fusion_lon": 0.0, "is_disabled": 0, "type": "electric_scooter", "rental_uris": {"ios": "https://dc.lft.to/lastmile_qr_scan", "android": "https://dc.lft.to/lastmile_qr_scan"}, "lat": 38.891535166666664, "name": "0d9b1ca7722624e071b3aa42906d5fb2", "lon": -77.08221266666666, "is_reserved": 0, "bike_id": "0d9b1ca7722624e071b3aa42906d5fb2"}, {"fusion_lat": 0.0, "fusion_lon": 0.0, "is_disabled": 0, "type": "electric_scooter", "rental_uris": {"ios": "https://dc.lft.to/lastmile_qr_scan", "android": "https://dc.lft.to/lastmile_qr_scan"}, "lat": 38.897488333333335, "name": "676e6c4e8705cb1d217847f6fcd3949f", "lon": -77.01890916666666, "is_reserved": 0, "bike_id": "676e6c4e8705cb1d217847f6fcd3949f"}, {"fusion_lat": 0.0, "fusion_lon": 0.0, "is_disabled": 0, "type": "electric_scooter", "rental_uris": {"ios": "https://dc.lft.to/lastmile_qr_scan", "android": "https://dc.lft.to/lastmile_qr_scan"}, "lat": 38.9117105, "name": "9b7b932341f6630136827f4a4dd47deb", "lon": -77.0317435, "is_reserved": 0, "bike_id": "9b7b932341f6630136827f4a4dd47deb"}, {"fusion_lat": 0.0, "fusion_lon": 0.0, "is_disabled": 0, "type": "electric_scooter", "rental_uris": {"ios": "https://dc.lft.to/lastmile_qr_scan", "android": "https://dc.lft.to/lastmile_qr_scan"}, "lat": 38.87777416666667, "name": "0c7c8050b29bddae3c22597ff08f9c11", "lon": -77.01301383333333, "is_reserved": 0, "bike_id": "0c7c8050b29bddae3c22597ff08f9c11"}, {"fusion_lat": 0.0, "fusion_lon": 0.0, "is_disabled": 0, "type": "electric_scooter", "rental_uris": {"ios": "https://dc.lft.to/lastmile_qr_scan", "android": "https://dc.lft.to/lastmile_qr_scan"}, "lat": 38.92714316666667, "name": "2cc70e33882185854a2bf6d9531d1cd1", "lon": -77.020961, "is_reserved": 0, "bike_id": "2cc70e33882185854a2bf6d9531d1cd1"}, {"fusion_lat": 0.0, "fusion_lon": 0.0, "is_disabled": 0, "type": "electric_scooter", "rental_uris": {"ios": "https://dc.lft.to/lastmile_qr_scan", "android": "https://dc.lft.to/lastmile_qr_scan"}, "lat": 38.93148816666667, "name": "2975ee36b5e1c2286bf2f1a427ee82c2", "lon": -77.02874433333334, "is_reserved": 0, "bike_id": "2975ee36b5e1c2286bf2f1a427ee82c2"}, {"fusion_lat": 0.0, "fusion_lon": 0.0, "is_disabled": 0, "type": "electric_scooter", "rental_uris": {"ios": "https://dc.lft.to/lastmile_qr_scan", "android": "https://dc.lft.to/lastmile_qr_scan"}, "lat": 38.933995833333334, "name": "9ae7da0c5b2b7cbd5ecc281f32816404", "lon": -77.03991533333334, "is_reserved": 0, "bike_id": "9ae7da0c5b2b7cbd5ecc281f32816404"}, {"fusion_lat": 0.0, "fusion_lon": 0.0, "is_disabled": 0, "type": "electric_scooter", "rental_uris": {"ios": "https://dc.lft.to/lastmile_qr_scan", "android": "https://dc.lft.to/lastmile_qr_scan"}, "lat": 38.87461183333333, "name": "907c78ec468f096ed59e8824f11d5bf0", "lon": -77.00478416666667, "is_reserved": 0, "bike_id": "907c78ec468f096ed59e8824f11d5bf0"}, {"fusion_lat": 0.0, "fusion_lon": 0.0, "is_disabled": 0, "type": "electric_scooter", "rental_uris": {"ios": "https://dc.lft.to/lastmile_qr_scan", "android": "https://dc.lft.to/lastmile_qr_scan"}, "lat": 38.923269, "name": "94feac398b4bb484b66f24cc0dd0ca53", "lon": -77.01959083333334, "is_reserved": 0, "bike_id": "94feac398b4bb484b66f24cc0dd0ca53"}, {"fusion_lat": 0.0, "fusion_lon": 0.0, "is_disabled": 0, "type": "electric_scooter", "rental_uris": {"ios": "https://dc.lft.to/lastmile_qr_scan", "android": "https://dc.lft.to/lastmile_qr_scan"}, "lat": 38.916939, "name": "7b31e9b37c45cd84d8348a23c2a11e2c", "lon": -77.02596683333333, "is_reserved": 0, "bike_id": "7b31e9b37c45cd84d8348a23c2a11e2c"}, {"fusion_lat": 0.0, "fusion_lon": 0.0, "is_disabled": 0, "type": "electric_scooter", "rental_uris": {"ios": "https://dc.lft.to/lastmile_qr_scan", "android": "https://dc.lft.to/lastmile_qr_scan"}, "lat": 38.915466333333335, "name": "c6798ca2cf7b3d059538ad0369910639", "lon": -77.041574, "is_reserved": 0, "bike_id": "c6798ca2cf7b3d059538ad0369910639"}, {"fusion_lat": 0.0, "fusion_lon": 0.0, "is_disabled": 0, "type": "electric_scooter", "rental_uris": {"ios": "https://dc.lft.to/lastmile_qr_scan", "android": "https://dc.lft.to/lastmile_qr_scan"}, "lat": 38.896245, "name": "b9857170b95cb30b37dd04f0068bf9b6", "lon": -77.04499916666667, "is_reserved": 0, "bike_id": "b9857170b95cb30b37dd04f0068bf9b6"}, {"fusion_lat": 0.0, "fusion_lon": 0.0, "is_disabled": 0, "type": "electric_bike", "rental_uris": {"ios": "https://dc.lft.to/lastmile_qr_scan", "android": "https://dc.lft.to/lastmile_qr_scan"}, "lat": 38.9060825, "name": "8ad59b5264456a61772af1365ac31edd", "lon": -77.07637683333333, "is_reserved": 0, "bike_id": "8ad59b5264456a61772af1365ac31edd"}, {"fusion_lat": 0.0, "fusion_lon": 0.0, "is_disabled": 0, "type": "electric_bike", "rental_uris": {"ios": "https://dc.lft.to/lastmile_qr_scan", "android": "https://dc.lft.to/lastmile_qr_scan"}, "lat": 38.972506333333335, "name": "037cb66d099d4bcf57134a5876028641", "lon": -76.9806085, "is_reserved": 0, "bike_id": "037cb66d099d4bcf57134a5876028641"}, {"fusion_lat": 0.0, "fusion_lon": 0.0, "is_disabled": 0, "type": "electric_scooter", "rental_uris": {"ios": "https://dc.lft.to/lastmile_qr_scan", "android": "https://dc.lft.to/lastmile_qr_scan"}, "lat": 38.90544033333333, "name": "9b5176ba3026a05bdcaafc2162a91107", "lon": -77.05009533333333, "is_reserved": 0, "bike_id": "9b5176ba3026a05bdcaafc2162a91107"}, {"fusion_lat": 0.0, "fusion_lon": 0.0, "is_disabled": 0, "type": "electric_scooter", "rental_uris": {"ios": "https://dc.lft.to/lastmile_qr_scan", "android": "https://dc.lft.to/lastmile_qr_scan"}, "lat": 38.902678333333334, "name": "3b5a5e07fe117abf4e251dd8edc2a741", "lon": -77.0591485, "is_reserved": 0, "bike_id": "3b5a5e07fe117abf4e251dd8edc2a741"}, {"fusion_lat": 0.0, "fusion_lon": 0.0, "is_disabled": 0, "type": "electric_scooter", "rental_uris": {"ios": "https://dc.lft.to/lastmile_qr_scan", "android": "https://dc.lft.to/lastmile_qr_scan"}, "lat": 38.9013455, "name": "a618831b95fd237e520ad6825be60320", "lon": -77.04394416666666, "is_reserved": 0, "bike_id": "a618831b95fd237e520ad6825be60320"}, {"fusion_lat": 0.0, "fusion_lon": 0.0, "is_disabled": 0, "type": "electric_scooter", "rental_uris": {"ios": "https://dc.lft.to/lastmile_qr_scan", "android": "https://dc.lft.to/lastmile_qr_scan"}, "lat": 38.925939166666666, "name": "034ca665ab0afaab37b9a60446ae1627", "lon": -77.036308, "is_reserved": 0, "bike_id": "034ca665ab0afaab37b9a60446ae1627"}, {"fusion_lat": 0.0, "fusion_lon": 0.0, "is_disabled": 0, "type": "electric_scooter", "rental_uris": {"ios": "https://dc.lft.to/lastmile_qr_scan", "android": "https://dc.lft.to/lastmile_qr_scan"}, "lat": 38.9006735, "name": "2e15263c32e04e953ce746269d3e9cb9", "lon": -77.00922016666667, "is_reserved": 0, "bike_id": "2e15263c32e04e953ce746269d3e9cb9"}, {"fusion_lat": 0.0, "fusion_lon": 0.0, "is_disabled": 0, "type": "electric_scooter", "rental_uris": {"ios": "https://dc.lft.to/lastmile_qr_scan", "android": "https://dc.lft.to/lastmile_qr_scan"}, "lat": 38.9419745, "name": "f108e4a2515b1d32e43bc0c40a2a4e4b", "lon": -77.02564316666667, "is_reserved": 0, "bike_id": "f108e4a2515b1d32e43bc0c40a2a4e4b"}, {"fusion_lat": 0.0, "fusion_lon": 0.0, "is_disabled": 0, "type": "electric_scooter", "rental_uris": {"ios": "https://dc.lft.to/lastmile_qr_scan", "android": "https://dc.lft.to/lastmile_qr_scan"}, "lat": 38.931013166666666, "name": "d8275a398ed5e6c82f40a3c71885a71c", "lon": -77.0247715, "is_reserved": 0, "bike_id": "d8275a398ed5e6c82f40a3c71885a71c"}, {"fusion_lat": 0.0, "fusion_lon": 0.0, "is_disabled": 0, "type": "electric_scooter", "rental_uris": {"ios": "https://dc.lft.to/lastmile_qr_scan", "android": "https://dc.lft.to/lastmile_qr_scan"}, "lat": 38.90959933333333, "name": "ee86a4b620c8c3af5fa276ca5268f8fe", "lon": -77.018378, "is_reserved": 0, "bike_id": "ee86a4b620c8c3af5fa276ca5268f8fe"}, {"fusion_lat": 0.0, "fusion_lon": 0.0, "is_disabled": 0, "type": "electric_scooter", "rental_uris": {"ios": "https://dc.lft.to/lastmile_qr_scan", "android": "https://dc.lft.to/lastmile_qr_scan"}, "lat": 38.9209905, "name": "0dc2a63f38870d9fd8f347ad6834eeb9", "lon": -77.02516966666667, "is_reserved": 0, "bike_id": "0dc2a63f38870d9fd8f347ad6834eeb9"}, {"fusion_lat": 0.0, "fusion_lon": 0.0, "is_disabled": 0, "type": "electric_scooter", "rental_uris": {"ios": "https://dc.lft.to/lastmile_qr_scan", "android": "https://dc.lft.to/lastmile_qr_scan"}, "lat": 38.89250083333334, "name": "3ba579950ba974361be5da311a10ef03", "lon": -77.039568, "is_reserved": 0, "bike_id": "3ba579950ba974361be5da311a10ef03"}, {"fusion_lat": 0.0, "fusion_lon": 0.0, "is_disabled": 0, "type": "electric_scooter", "rental_uris": {"ios": "https://dc.lft.to/lastmile_qr_scan", "android": "https://dc.lft.to/lastmile_qr_scan"}, "lat": 38.9011305, "name": "d6486702d45f01efc99433692a77fdfa", "lon": -77.04145583333333, "is_reserved": 0, "bike_id": "d6486702d45f01efc99433692a77fdfa"}, {"fusion_lat": 0.0, "fusion_lon": 0.0, "is_disabled": 0, "type": "electric_scooter", "rental_uris": {"ios": "https://dc.lft.to/lastmile_qr_scan", "android": "https://dc.lft.to/lastmile_qr_scan"}, "lat": 38.874972, "name": "601ea63341b1b429167476234381ec4d", "lon": -77.00046216666667, "is_reserved": 0, "bike_id": "601ea63341b1b429167476234381ec4d"}, {"fusion_lat": 0.0, "fusion_lon": 0.0, "is_disabled": 0, "type": "electric_scooter", "rental_uris": {"ios": "https://dc.lft.to/lastmile_qr_scan", "android": "https://dc.lft.to/lastmile_qr_scan"}, "lat": 38.90800566666667, "name": "4f8169352c070c07380d680514189351", "lon": -77.03828416666667, "is_reserved": 0, "bike_id": "4f8169352c070c07380d680514189351"}, {"fusion_lat": 0.0, "fusion_lon": 0.0, "is_disabled": 0, "type": "electric_scooter", "rental_uris": {"ios": "https://dc.lft.to/lastmile_qr_scan", "android": "https://dc.lft.to/lastmile_qr_scan"}, "lat": 38.916697166666665, "name": "039bdcc6847090418e7eff36192d2320", "lon": -77.0242635, "is_reserved": 0, "bike_id": "039bdcc6847090418e7eff36192d2320"}, {"fusion_lat": 0.0, "fusion_lon": 0.0, "is_disabled": 0, "type": "electric_scooter", "rental_uris": {"ios": "https://dc.lft.to/lastmile_qr_scan", "android": "https://dc.lft.to/lastmile_qr_scan"}, "lat": 38.89663933333333, "name": "024b9ddb0fcff665ec52d3a0d7427ae5", "lon": -77.02714466666667, "is_reserved": 0, "bike_id": "024b9ddb0fcff665ec52d3a0d7427ae5"}, {"fusion_lat": 0.0, "fusion_lon": 0.0, "is_disabled": 0, "type": "electric_scooter", "rental_uris": {"ios": "https://dc.lft.to/lastmile_qr_scan", "android": "https://dc.lft.to/lastmile_qr_scan"}, "lat": 38.844230333333336, "name": "60d902b503a630cb3f7057d80320aa56", "lon": -76.98853516666667, "is_reserved": 0, "bike_id": "60d902b503a630cb3f7057d80320aa56"}, {"fusion_lat": 0.0, "fusion_lon": 0.0, "is_disabled": 0, "type": "electric_scooter", "rental_uris": {"ios": "https://dc.lft.to/lastmile_qr_scan", "android": "https://dc.lft.to/lastmile_qr_scan"}, "lat": 38.91450916666667, "name": "12527b22e284b628e00c35bbef23a03b", "lon": -77.045887, "is_reserved": 0, "bike_id": "12527b22e284b628e00c35bbef23a03b"}, {"fusion_lat": 0.0, "fusion_lon": 0.0, "is_disabled": 0, "type": "electric_scooter", "rental_uris": {"ios": "https://dc.lft.to/lastmile_qr_scan", "android": "https://dc.lft.to/lastmile_qr_scan"}, "lat": 38.902256666666666, "name": "05f922b8425ebcf9801a9794b961b9ea", "lon": -77.06038016666666, "is_reserved": 0, "bike_id": "05f922b8425ebcf9801a9794b961b9ea"}, {"fusion_lat": 0.0, "fusion_lon": 0.0, "is_disabled": 0, "type": "electric_scooter", "rental_uris": {"ios": "https://dc.lft.to/lastmile_qr_scan", "android": "https://dc.lft.to/lastmile_qr_scan"}, "lat": 38.9237435, "name": "65f3e5360d9fabc9c874d371f1d8f90d", "lon": -77.02654916666667, "is_reserved": 0, "bike_id": "65f3e5360d9fabc9c874d371f1d8f90d"}, {"fusion_lat": 0.0, "fusion_lon": 0.0, "is_disabled": 0, "type": "electric_scooter", "rental_uris": {"ios": "https://dc.lft.to/lastmile_qr_scan", "android": "https://dc.lft.to/lastmile_qr_scan"}, "lat": 38.90401833333333, "name": "34d9ffda87f1137da3a716a520fccb3d", "lon": -77.06836333333334, "is_reserved": 0, "bike_id": "34d9ffda87f1137da3a716a520fccb3d"}, {"fusion_lat": 0.0, "fusion_lon": 0.0, "is_disabled": 0, "type": "electric_scooter", "rental_uris": {"ios": "https://dc.lft.to/lastmile_qr_scan", "android": "https://dc.lft.to/lastmile_qr_scan"}, "lat": 38.92876866666667, "name": "25446931a62e298130e1ea18764dabb9", "lon": -77.03347783333334, "is_reserved": 0, "bike_id": "25446931a62e298130e1ea18764dabb9"}, {"fusion_lat": 0.0, "fusion_lon": 0.0, "is_disabled": 0, "type": "electric_scooter", "rental_uris": {"ios": "https://dc.lft.to/lastmile_qr_scan", "android": "https://dc.lft.to/lastmile_qr_scan"}, "lat": 38.8850035, "name": "a5075b736d5da1d50d8e9a32068fe044", "lon": -77.0155925, "is_reserved": 0, "bike_id": "a5075b736d5da1d50d8e9a32068fe044"}, {"fusion_lat": 0.0, "fusion_lon": 0.0, "is_disabled": 0, "type": "electric_bike", "rental_uris": {"ios": "https://dc.lft.to/lastmile_qr_scan", "android": "https://dc.lft.to/lastmile_qr_scan"}, "lat": 38.83814616666667, "name": "6420c8589b97fc8f79cf591cabaef1ed", "lon": -76.996773, "is_reserved": 0, "bike_id": "6420c8589b97fc8f79cf591cabaef1ed"}, {"fusion_lat": 0.0, "fusion_lon": 0.0, "is_disabled": 0, "type": "electric_bike", "rental_uris": {"ios": "https://dc.lft.to/lastmile_qr_scan", "android": "https://dc.lft.to/lastmile_qr_scan"}, "lat": 38.938955, "name": "e7c454716911104e1a6992f6569027ea", "lon": -76.963183, "is_reserved": 0, "bike_id": "e7c454716911104e1a6992f6569027ea"}, {"fusion_lat": 0.0, "fusion_lon": 0.0, "is_disabled": 0, "type": "electric_scooter", "rental_uris": {"ios": "https://dc.lft.to/lastmile_qr_scan", "android": "https://dc.lft.to/lastmile_qr_scan"}, "lat": 38.8887085, "name": "57001c0399d0b3826cb862a9a61e2fb7", "lon": -76.990329, "is_reserved": 0, "bike_id": "57001c0399d0b3826cb862a9a61e2fb7"}, {"fusion_lat": 0.0, "fusion_lon": 0.0, "is_disabled": 0, "type": "electric_bike", "rental_uris": {"ios": "https://dc.lft.to/lastmile_qr_scan", "android": "https://dc.lft.to/lastmile_qr_scan"}, "lat": 38.904739666666664, "name": "458a9fa6651ebbec336b32e130a9ada6", "lon": -77.05675366666667, "is_reserved": 0, "bike_id": "458a9fa6651ebbec336b32e130a9ada6"}, {"fusion_lat": 0.0, "fusion_lon": 0.0, "is_disabled": 0, "type": "electric_scooter", "rental_uris": {"ios": "https://dc.lft.to/lastmile_qr_scan", "android": "https://dc.lft.to/lastmile_qr_scan"}, "lat": 38.93022633333333, "name": "31fe9c53324da6dff9a09095446d4a96", "lon": -77.02076483333333, "is_reserved": 0, "bike_id": "31fe9c53324da6dff9a09095446d4a96"}, {"fusion_lat": 0.0, "fusion_lon": 0.0, "is_disabled": 0, "type": "electric_scooter", "rental_uris": {"ios": "https://dc.lft.to/lastmile_qr_scan", "android": "https://dc.lft.to/lastmile_qr_scan"}, "lat": 38.90137416666666, "name": "8865c970ed47bb5a061156e2f9c97cd7", "lon": -77.04995733333334, "is_reserved": 0, "bike_id": "8865c970ed47bb5a061156e2f9c97cd7"}, {"fusion_lat": 0.0, "fusion_lon": 0.0, "is_disabled": 0, "type": "electric_scooter", "rental_uris": {"ios": "https://dc.lft.to/lastmile_qr_scan", "android": "https://dc.lft.to/lastmile_qr_scan"}, "lat": 38.9492205, "name": "b1abfa8bcf16e6fc8fa1ce5cd0e706f4", "lon": -77.0185695, "is_reserved": 0, "bike_id": "b1abfa8bcf16e6fc8fa1ce5cd0e706f4"}, {"fusion_lat": 0.0, "fusion_lon": 0.0, "is_disabled": 0, "type": "electric_scooter", "rental_uris": {"ios": "https://dc.lft.to/lastmile_qr_scan", "android": "https://dc.lft.to/lastmile_qr_scan"}, "lat": 38.876055, "name": "23fe172cc9461b1619699b97bce09317", "lon": -77.01381116666667, "is_reserved": 0, "bike_id": "23fe172cc9461b1619699b97bce09317"}, {"fusion_lat": 0.0, "fusion_lon": 0.0, "is_disabled": 0, "type": "electric_scooter", "rental_uris": {"ios": "https://dc.lft.to/lastmile_qr_scan", "android": "https://dc.lft.to/lastmile_qr_scan"}, "lat": 38.900633, "name": "da1b64deb5414c72f64c74439a02948d", "lon": -76.99837033333333, "is_reserved": 0, "bike_id": "da1b64deb5414c72f64c74439a02948d"}, {"fusion_lat": 0.0, "fusion_lon": 0.0, "is_disabled": 0, "type": "electric_scooter", "rental_uris": {"ios": "https://dc.lft.to/lastmile_qr_scan", "android": "https://dc.lft.to/lastmile_qr_scan"}, "lat": 38.91107683333333, "name": "d2e9bbaaaeb0500857b77f71f931d1c4", "lon": -77.04229783333334, "is_reserved": 0, "bike_id": "d2e9bbaaaeb0500857b77f71f931d1c4"}, {"fusion_lat": 0.0, "fusion_lon": 0.0, "is_disabled": 0, "type": "electric_scooter", "rental_uris": {"ios": "https://dc.lft.to/lastmile_qr_scan", "android": "https://dc.lft.to/lastmile_qr_scan"}, "lat": 38.92578016666667, "name": "4b75b0010ad32ea7ac47366db7c7935c", "lon": -76.99497983333333, "is_reserved": 0, "bike_id": "4b75b0010ad32ea7ac47366db7c7935c"}, {"fusion_lat": 0.0, "fusion_lon": 0.0, "is_disabled": 0, "type": "electric_scooter", "rental_uris": {"ios": "https://dc.lft.to/lastmile_qr_scan", "android": "https://dc.lft.to/lastmile_qr_scan"}, "lat": 38.89964466666667, "name": "33c01c4316ed93e997041a297130325d", "lon": -77.02831066666667, "is_reserved": 0, "bike_id": "33c01c4316ed93e997041a297130325d"}, {"fusion_lat": 0.0, "fusion_lon": 0.0, "is_disabled": 0, "type": "electric_scooter", "rental_uris": {"ios": "https://dc.lft.to/lastmile_qr_scan", "android": "https://dc.lft.to/lastmile_qr_scan"}, "lat": 38.92027916666667, "name": "6551241b64ba8c268fcdca5d24486546", "lon": -77.03727133333334, "is_reserved": 0, "bike_id": "6551241b64ba8c268fcdca5d24486546"}, {"fusion_lat": 0.0, "fusion_lon": 0.0, "is_disabled": 0, "type": "electric_bike", "rental_uris": {"ios": "https://dc.lft.to/lastmile_qr_scan", "android": "https://dc.lft.to/lastmile_qr_scan"}, "lat": 38.836065166666664, "name": "587638d21f4e34049991de8238508557", "lon": -77.00375666666666, "is_reserved": 0, "bike_id": "587638d21f4e34049991de8238508557"}, {"fusion_lat": 0.0, "fusion_lon": 0.0, "is_disabled": 0, "type": "electric_scooter", "rental_uris": {"ios": "https://dc.lft.to/lastmile_qr_scan", "android": "https://dc.lft.to/lastmile_qr_scan"}, "lat": 38.902608, "name": "a878cb5449fb0574423a97b2089c7b59", "lon": -76.992918, "is_reserved": 0, "bike_id": "a878cb5449fb0574423a97b2089c7b59"}, {"fusion_lat": 0.0, "fusion_lon": 0.0, "is_disabled": 0, "type": "electric_scooter", "rental_uris": {"ios": "https://dc.lft.to/lastmile_qr_scan", "android": "https://dc.lft.to/lastmile_qr_scan"}, "lat": 38.9068455, "name": "3f8ef4152187ddcb91c983465be7b362", "lon": -77.03764266666667, "is_reserved": 0, "bike_id": "3f8ef4152187ddcb91c983465be7b362"}, {"fusion_lat": 0.0, "fusion_lon": 0.0, "is_disabled": 0, "type": "electric_bike", "rental_uris": {"ios": "https://dc.lft.to/lastmile_qr_scan", "android": "https://dc.lft.to/lastmile_qr_scan"}, "lat": 38.838377333333334, "name": "71b29831622c4b2e093ce988514ee6f0", "lon": -77.00278183333333, "is_reserved": 0, "bike_id": "71b29831622c4b2e093ce988514ee6f0"}, {"fusion_lat": 0.0, "fusion_lon": 0.0, "is_disabled": 0, "type": "electric_scooter", "rental_uris": {"ios": "https://dc.lft.to/lastmile_qr_scan", "android": "https://dc.lft.to/lastmile_qr_scan"}, "lat": 38.901493333333335, "name": "67f4c1e4e8641c9f3eb1fbcc36fdc5b3", "lon": -77.0588825, "is_reserved": 0, "bike_id": "67f4c1e4e8641c9f3eb1fbcc36fdc5b3"}, {"fusion_lat": 0.0, "fusion_lon": 0.0, "is_disabled": 0, "type": "electric_scooter", "rental_uris": {"ios": "https://dc.lft.to/lastmile_qr_scan", "android": "https://dc.lft.to/lastmile_qr_scan"}, "lat": 38.9593355, "name": "0c4ecdac958876ceac61756af908b92a", "lon": -77.03160316666667, "is_reserved": 0, "bike_id": "0c4ecdac958876ceac61756af908b92a"}, {"fusion_lat": 0.0, "fusion_lon": 0.0, "is_disabled": 0, "type": "electric_scooter", "rental_uris": {"ios": "https://dc.lft.to/lastmile_qr_scan", "android": "https://dc.lft.to/lastmile_qr_scan"}, "lat": 38.91921383333333, "name": "0a7f073233d01d34f5e4063e81fb0275", "lon": -77.0481555, "is_reserved": 0, "bike_id": "0a7f073233d01d34f5e4063e81fb0275"}, {"fusion_lat": 0.0, "fusion_lon": 0.0, "is_disabled": 0, "type": "electric_scooter", "rental_uris": {"ios": "https://dc.lft.to/lastmile_qr_scan", "android": "https://dc.lft.to/lastmile_qr_scan"}, "lat": 38.898157, "name": "84e2fcbc30e2779b16aed915609a9f77", "lon": -77.01365166666666, "is_reserved": 0, "bike_id": "84e2fcbc30e2779b16aed915609a9f77"}, {"fusion_lat": 0.0, "fusion_lon": 0.0, "is_disabled": 0, "type": "electric_scooter", "rental_uris": {"ios": "https://dc.lft.to/lastmile_qr_scan", "android": "https://dc.lft.to/lastmile_qr_scan"}, "lat": 38.9175215, "name": "bddb48a7b59bfc9bd9fcc84ec1c3de47", "lon": -77.02292683333333, "is_reserved": 0, "bike_id": "bddb48a7b59bfc9bd9fcc84ec1c3de47"}, {"fusion_lat": 0.0, "fusion_lon": 0.0, "is_disabled": 0, "type": "electric_scooter", "rental_uris": {"ios": "https://dc.lft.to/lastmile_qr_scan", "android": "https://dc.lft.to/lastmile_qr_scan"}, "lat": 38.9253025, "name": "92f6c5f3d8f32fcbe1d8b7f97978cf3f", "lon": -77.03859716666666, "is_reserved": 0, "bike_id": "92f6c5f3d8f32fcbe1d8b7f97978cf3f"}, {"fusion_lat": 0.0, "fusion_lon": 0.0, "is_disabled": 0, "type": "electric_scooter", "rental_uris": {"ios": "https://dc.lft.to/lastmile_qr_scan", "android": "https://dc.lft.to/lastmile_qr_scan"}, "lat": 38.8996705, "name": "a1b9a69cc1b25e073656e1fb3bc1b370", "lon": -77.03371566666667, "is_reserved": 0, "bike_id": "a1b9a69cc1b25e073656e1fb3bc1b370"}, {"fusion_lat": 0.0, "fusion_lon": 0.0, "is_disabled": 0, "type": "electric_scooter", "rental_uris": {"ios": "https://dc.lft.to/lastmile_qr_scan", "android": "https://dc.lft.to/lastmile_qr_scan"}, "lat": 38.91091816666667, "name": "40d3a688b13088787d9c9deea618efdd", "lon": -77.02189966666667, "is_reserved": 0, "bike_id": "40d3a688b13088787d9c9deea618efdd"}, {"fusion_lat": 0.0, "fusion_lon": 0.0, "is_disabled": 0, "type": "electric_scooter", "rental_uris": {"ios": "https://dc.lft.to/lastmile_qr_scan", "android": "https://dc.lft.to/lastmile_qr_scan"}, "lat": 38.9287235, "name": "423ab3c3ff300665b8a257e6d3a86ca5", "lon": -77.0192155, "is_reserved": 0, "bike_id": "423ab3c3ff300665b8a257e6d3a86ca5"}, {"fusion_lat": 0.0, "fusion_lon": 0.0, "is_disabled": 0, "type": "electric_scooter", "rental_uris": {"ios": "https://dc.lft.to/lastmile_qr_scan", "android": "https://dc.lft.to/lastmile_qr_scan"}, "lat": 38.943127833333335, "name": "d10466f48f4fca78eb630457b0e985d8", "lon": -77.06128466666667, "is_reserved": 0, "bike_id": "d10466f48f4fca78eb630457b0e985d8"}, {"fusion_lat": 0.0, "fusion_lon": 0.0, "is_disabled": 0, "type": "electric_scooter", "rental_uris": {"ios": "https://dc.lft.to/lastmile_qr_scan", "android": "https://dc.lft.to/lastmile_qr_scan"}, "lat": 38.904658166666664, "name": "aea18bf48a4f9459eedd7a0a8c89ec96", "lon": -77.0281725, "is_reserved": 0, "bike_id": "aea18bf48a4f9459eedd7a0a8c89ec96"}, {"fusion_lat": 0.0, "fusion_lon": 0.0, "is_disabled": 0, "type": "electric_scooter", "rental_uris": {"ios": "https://dc.lft.to/lastmile_qr_scan", "android": "https://dc.lft.to/lastmile_qr_scan"}, "lat": 38.909709, "name": "eae0da018f2ac0836671f6f6fc7caa48", "lon": -77.01105683333333, "is_reserved": 0, "bike_id": "eae0da018f2ac0836671f6f6fc7caa48"}, {"fusion_lat": 0.0, "fusion_lon": 0.0, "is_disabled": 0, "type": "electric_scooter", "rental_uris": {"ios": "https://dc.lft.to/lastmile_qr_scan", "android": "https://dc.lft.to/lastmile_qr_scan"}, "lat": 38.9066295, "name": "bb1d19264b3c49ed54065b262f5093c9", "lon": -77.02696916666666, "is_reserved": 0, "bike_id": "bb1d19264b3c49ed54065b262f5093c9"}, {"fusion_lat": 0.0, "fusion_lon": 0.0, "is_disabled": 0, "type": "electric_scooter", "rental_uris": {"ios": "https://dc.lft.to/lastmile_qr_scan", "android": "https://dc.lft.to/lastmile_qr_scan"}, "lat": 38.90332183333334, "name": "26716a956673725fd77f8958a098eefc", "lon": -77.0528, "is_reserved": 0, "bike_id": "26716a956673725fd77f8958a098eefc"}, {"fusion_lat": 0.0, "fusion_lon": 0.0, "is_disabled": 0, "type": "electric_scooter", "rental_uris": {"ios": "https://dc.lft.to/lastmile_qr_scan", "android": "https://dc.lft.to/lastmile_qr_scan"}, "lat": 38.9075375, "name": "e2ff9eb1adb57d1a4682f831e569f130", "lon": -77.0452225, "is_reserved": 0, "bike_id": "e2ff9eb1adb57d1a4682f831e569f130"}, {"fusion_lat": 0.0, "fusion_lon": 0.0, "is_disabled": 0, "type": "electric_scooter", "rental_uris": {"ios": "https://dc.lft.to/lastmile_qr_scan", "android": "https://dc.lft.to/lastmile_qr_scan"}, "lat": 38.901534, "name": "cdc6a43f6119dd378d2282bda113cd4e", "lon": -77.022991, "is_reserved": 0, "bike_id": "cdc6a43f6119dd378d2282bda113cd4e"}, {"fusion_lat": 0.0, "fusion_lon": 0.0, "is_disabled": 0, "type": "electric_bike", "rental_uris": {"ios": "https://dc.lft.to/lastmile_qr_scan", "android": "https://dc.lft.to/lastmile_qr_scan"}, "lat": 38.93684983333333, "name": "c488252da573c6f030554bf0b58f7bc7", "lon": -76.98632833333333, "is_reserved": 0, "bike_id": "c488252da573c6f030554bf0b58f7bc7"}, {"fusion_lat": 0.0, "fusion_lon": 0.0, "is_disabled": 0, "type": "electric_scooter", "rental_uris": {"ios": "https://dc.lft.to/lastmile_qr_scan", "android": "https://dc.lft.to/lastmile_qr_scan"}, "lat": 38.90087783333333, "name": "e9cbf0c3ef599a76ad7d2b048aeecd9d", "lon": -76.98334166666666, "is_reserved": 0, "bike_id": "e9cbf0c3ef599a76ad7d2b048aeecd9d"}, {"fusion_lat": 0.0, "fusion_lon": 0.0, "is_disabled": 0, "type": "electric_scooter", "rental_uris": {"ios": "https://dc.lft.to/lastmile_qr_scan", "android": "https://dc.lft.to/lastmile_qr_scan"}, "lat": 38.90908566666667, "name": "c5f0f25566f67b30b106bc4ec64c7775", "lon": -76.991845, "is_reserved": 0, "bike_id": "c5f0f25566f67b30b106bc4ec64c7775"}, {"fusion_lat": 0.0, "fusion_lon": 0.0, "is_disabled": 0, "type": "electric_scooter", "rental_uris": {"ios": "https://dc.lft.to/lastmile_qr_scan", "android": "https://dc.lft.to/lastmile_qr_scan"}, "lat": 38.919274333333334, "name": "96c374c6ddcbb009d99c5106137eef86", "lon": -77.03188883333333, "is_reserved": 0, "bike_id": "96c374c6ddcbb009d99c5106137eef86"}, {"fusion_lat": 0.0, "fusion_lon": 0.0, "is_disabled": 0, "type": "electric_scooter", "rental_uris": {"ios": "https://dc.lft.to/lastmile_qr_scan", "android": "https://dc.lft.to/lastmile_qr_scan"}, "lat": 38.89916783333334, "name": "63ed53a32b9a14cb5728d6ff7f4e2d60", "lon": -77.01375016666667, "is_reserved": 0, "bike_id": "63ed53a32b9a14cb5728d6ff7f4e2d60"}, {"fusion_lat": 0.0, "fusion_lon": 0.0, "is_disabled": 0, "type": "electric_scooter", "rental_uris": {"ios": "https://dc.lft.to/lastmile_qr_scan", "android": "https://dc.lft.to/lastmile_qr_scan"}, "lat": 38.901198, "name": "5e7a25a26f0e87fd552257d7e752c93e", "lon": -77.04159166666666, "is_reserved": 0, "bike_id": "5e7a25a26f0e87fd552257d7e752c93e"}, {"fusion_lat": 0.0, "fusion_lon": 0.0, "is_disabled": 0, "type": "electric_scooter", "rental_uris": {"ios": "https://dc.lft.to/lastmile_qr_scan", "android": "https://dc.lft.to/lastmile_qr_scan"}, "lat": 38.90852233333333, "name": "55a2b03db290858ea1de628242bb2a51", "lon": -77.01055366666667, "is_reserved": 0, "bike_id": "55a2b03db290858ea1de628242bb2a51"}, {"fusion_lat": 0.0, "fusion_lon": 0.0, "is_disabled": 0, "type": "electric_scooter", "rental_uris": {"ios": "https://dc.lft.to/lastmile_qr_scan", "android": "https://dc.lft.to/lastmile_qr_scan"}, "lat": 38.8903685, "name": "e49237111c2ee0d7ba468377239d39ba", "lon": -76.93752583333334, "is_reserved": 0, "bike_id": "e49237111c2ee0d7ba468377239d39ba"}, {"fusion_lat": 0.0, "fusion_lon": 0.0, "is_disabled": 0, "type": "electric_scooter", "rental_uris": {"ios": "https://dc.lft.to/lastmile_qr_scan", "android": "https://dc.lft.to/lastmile_qr_scan"}, "lat": 38.88503333333333, "name": "a8d4f57a228bcfde998530ecdbc78e95", "lon": -77.00566533333334, "is_reserved": 0, "bike_id": "a8d4f57a228bcfde998530ecdbc78e95"}, {"fusion_lat": 0.0, "fusion_lon": 0.0, "is_disabled": 0, "type": "electric_scooter", "rental_uris": {"ios": "https://dc.lft.to/lastmile_qr_scan", "android": "https://dc.lft.to/lastmile_qr_scan"}, "lat": 38.92475833333334, "name": "9b8dbbe9d6f668c4979c7b70a0987209", "lon": -77.02202283333334, "is_reserved": 0, "bike_id": "9b8dbbe9d6f668c4979c7b70a0987209"}, {"fusion_lat": 0.0, "fusion_lon": 0.0, "is_disabled": 0, "type": "electric_scooter", "rental_uris": {"ios": "https://dc.lft.to/lastmile_qr_scan", "android": "https://dc.lft.to/lastmile_qr_scan"}, "lat": 38.931004333333334, "name": "3585a18e5e7ede54673917cce18e8022", "lon": -77.02482783333333, "is_reserved": 0, "bike_id": "3585a18e5e7ede54673917cce18e8022"}, {"fusion_lat": 0.0, "fusion_lon": 0.0, "is_disabled": 0, "type": "electric_scooter", "rental_uris": {"ios": "https://dc.lft.to/lastmile_qr_scan", "android": "https://dc.lft.to/lastmile_qr_scan"}, "lat": 38.9274195, "name": "17569950ebbff3e46326dac246df4ed4", "lon": -77.02148033333333, "is_reserved": 0, "bike_id": "17569950ebbff3e46326dac246df4ed4"}, {"fusion_lat": 0.0, "fusion_lon": 0.0, "is_disabled": 0, "type": "electric_scooter", "rental_uris": {"ios": "https://dc.lft.to/lastmile_qr_scan", "android": "https://dc.lft.to/lastmile_qr_scan"}, "lat": 38.929405, "name": "113f9c60bf3fb311af27a5bde290bbf6", "lon": -77.03286083333333, "is_reserved": 0, "bike_id": "113f9c60bf3fb311af27a5bde290bbf6"}, {"fusion_lat": 0.0, "fusion_lon": 0.0, "is_disabled": 0, "type": "electric_scooter", "rental_uris": {"ios": "https://dc.lft.to/lastmile_qr_scan", "android": "https://dc.lft.to/lastmile_qr_scan"}, "lat": 38.907529833333335, "name": "fe858abafb800f00f5e872e325e2b15b", "lon": -77.0010615, "is_reserved": 0, "bike_id": "fe858abafb800f00f5e872e325e2b15b"}, {"fusion_lat": 0.0, "fusion_lon": 0.0, "is_disabled": 0, "type": "electric_scooter", "rental_uris": {"ios": "https://dc.lft.to/lastmile_qr_scan", "android": "https://dc.lft.to/lastmile_qr_scan"}, "lat": 38.922015, "name": "e5618a4594d425a0274ed1734cf5b11e", "lon": -76.9836615, "is_reserved": 0, "bike_id": "e5618a4594d425a0274ed1734cf5b11e"}, {"fusion_lat": 0.0, "fusion_lon": 0.0, "is_disabled": 0, "type": "electric_scooter", "rental_uris": {"ios": "https://dc.lft.to/lastmile_qr_scan", "android": "https://dc.lft.to/lastmile_qr_scan"}, "lat": 38.89533766666667, "name": "36dbc6f731267c22b58b6c4eb88d1d1d", "lon": -76.94887916666667, "is_reserved": 0, "bike_id": "36dbc6f731267c22b58b6c4eb88d1d1d"}, {"fusion_lat": 0.0, "fusion_lon": 0.0, "is_disabled": 0, "type": "electric_scooter", "rental_uris": {"ios": "https://dc.lft.to/lastmile_qr_scan", "android": "https://dc.lft.to/lastmile_qr_scan"}, "lat": 38.896600166666666, "name": "5ebaa77184c09710ac97cb3bb47e92e2", "lon": -77.05138183333334, "is_reserved": 0, "bike_id": "5ebaa77184c09710ac97cb3bb47e92e2"}, {"fusion_lat": 0.0, "fusion_lon": 0.0, "is_disabled": 0, "type": "electric_scooter", "rental_uris": {"ios": "https://dc.lft.to/lastmile_qr_scan", "android": "https://dc.lft.to/lastmile_qr_scan"}, "lat": 38.9167615, "name": "4d17fcfa175659b839942932083d9dd1", "lon": -77.029541, "is_reserved": 0, "bike_id": "4d17fcfa175659b839942932083d9dd1"}, {"fusion_lat": 0.0, "fusion_lon": 0.0, "is_disabled": 0, "type": "electric_scooter", "rental_uris": {"ios": "https://dc.lft.to/lastmile_qr_scan", "android": "https://dc.lft.to/lastmile_qr_scan"}, "lat": 38.91267966666667, "name": "ab6508de8c3b1fd3d719c5d69c5a9fbe", "lon": -77.03833716666666, "is_reserved": 0, "bike_id": "ab6508de8c3b1fd3d719c5d69c5a9fbe"}, {"fusion_lat": 0.0, "fusion_lon": 0.0, "is_disabled": 0, "type": "electric_scooter", "rental_uris": {"ios": "https://dc.lft.to/lastmile_qr_scan", "android": "https://dc.lft.to/lastmile_qr_scan"}, "lat": 38.883380333333335, "name": "ac40ae8914655a2d0113bb9138c89be7", "lon": -77.0656505, "is_reserved": 0, "bike_id": "ac40ae8914655a2d0113bb9138c89be7"}, {"fusion_lat": 0.0, "fusion_lon": 0.0, "is_disabled": 0, "type": "electric_scooter", "rental_uris": {"ios": "https://dc.lft.to/lastmile_qr_scan", "android": "https://dc.lft.to/lastmile_qr_scan"}, "lat": 38.87738733333333, "name": "7cf282daf85aab621635d8f34bfde576", "lon": -76.99633516666667, "is_reserved": 0, "bike_id": "7cf282daf85aab621635d8f34bfde576"}, {"fusion_lat": 0.0, "fusion_lon": 0.0, "is_disabled": 0, "type": "electric_scooter", "rental_uris": {"ios": "https://dc.lft.to/lastmile_qr_scan", "android": "https://dc.lft.to/lastmile_qr_scan"}, "lat": 38.898559666666664, "name": "0bc1c44929ce81b305eccf9d294a3aab", "lon": -77.039775, "is_reserved": 0, "bike_id": "0bc1c44929ce81b305eccf9d294a3aab"}, {"fusion_lat": 0.0, "fusion_lon": 0.0, "is_disabled": 0, "type": "electric_scooter", "rental_uris": {"ios": "https://dc.lft.to/lastmile_qr_scan", "android": "https://dc.lft.to/lastmile_qr_scan"}, "lat": 38.89730483333334, "name": "8fc7311a2e38ed5f4c205ca62efe718b", "lon": -77.0490535, "is_reserved": 0, "bike_id": "8fc7311a2e38ed5f4c205ca62efe718b"}, {"fusion_lat": 0.0, "fusion_lon": 0.0, "is_disabled": 0, "type": "electric_scooter", "rental_uris": {"ios": "https://dc.lft.to/lastmile_qr_scan", "android": "https://dc.lft.to/lastmile_qr_scan"}, "lat": 38.89186983333333, "name": "48cb983afc3c3964793b95783bb5576a", "lon": -76.99852183333333, "is_reserved": 0, "bike_id": "48cb983afc3c3964793b95783bb5576a"}, {"fusion_lat": 0.0, "fusion_lon": 0.0, "is_disabled": 0, "type": "electric_scooter", "rental_uris": {"ios": "https://dc.lft.to/lastmile_qr_scan", "android": "https://dc.lft.to/lastmile_qr_scan"}, "lat": 38.887332666666666, "name": "9bd38b7c9dc684ecac890218b4500bfd", "lon": -77.02835, "is_reserved": 0, "bike_id": "9bd38b7c9dc684ecac890218b4500bfd"}, {"fusion_lat": 0.0, "fusion_lon": 0.0, "is_disabled": 0, "type": "electric_bike", "rental_uris": {"ios": "https://dc.lft.to/lastmile_qr_scan", "android": "https://dc.lft.to/lastmile_qr_scan"}, "lat": 38.940914666666664, "name": "1848a69cdc2d6c4c39f0d47bfdf2194b", "lon": -77.052685, "is_reserved": 0, "bike_id": "1848a69cdc2d6c4c39f0d47bfdf2194b"}, {"fusion_lat": 0.0, "fusion_lon": 0.0, "is_disabled": 0, "type": "electric_bike", "rental_uris": {"ios": "https://dc.lft.to/lastmile_qr_scan", "android": "https://dc.lft.to/lastmile_qr_scan"}, "lat": 38.9950745, "name": "5a307325e0c75eb0cc9e91b989495052", "lon": -77.007163, "is_reserved": 0, "bike_id": "5a307325e0c75eb0cc9e91b989495052"}, {"fusion_lat": 0.0, "fusion_lon": 0.0, "is_disabled": 0, "type": "electric_scooter", "rental_uris": {"ios": "https://dc.lft.to/lastmile_qr_scan", "android": "https://dc.lft.to/lastmile_qr_scan"}, "lat": 38.920284, "name": "d9d2a96029faed25047be923cb31388a", "lon": -77.0407655, "is_reserved": 0, "bike_id": "d9d2a96029faed25047be923cb31388a"}, {"fusion_lat": 0.0, "fusion_lon": 0.0, "is_disabled": 0, "type": "electric_scooter", "rental_uris": {"ios": "https://dc.lft.to/lastmile_qr_scan", "android": "https://dc.lft.to/lastmile_qr_scan"}, "lat": 38.92377833333333, "name": "90d2b17cc2771ec59c546f1f09786133", "lon": -77.02652783333333, "is_reserved": 0, "bike_id": "90d2b17cc2771ec59c546f1f09786133"}, {"fusion_lat": 0.0, "fusion_lon": 0.0, "is_disabled": 0, "type": "electric_scooter", "rental_uris": {"ios": "https://dc.lft.to/lastmile_qr_scan", "android": "https://dc.lft.to/lastmile_qr_scan"}, "lat": 38.89868, "name": "ef1d683ebdea6132d7f3c9f25a8924ec", "lon": -76.94662683333334, "is_reserved": 0, "bike_id": "ef1d683ebdea6132d7f3c9f25a8924ec"}, {"fusion_lat": 0.0, "fusion_lon": 0.0, "is_disabled": 0, "type": "electric_scooter", "rental_uris": {"ios": "https://dc.lft.to/lastmile_qr_scan", "android": "https://dc.lft.to/lastmile_qr_scan"}, "lat": 38.911810833333334, "name": "9a8e7ffa29034e985720decaa9b96905", "lon": -77.02000116666666, "is_reserved": 0, "bike_id": "9a8e7ffa29034e985720decaa9b96905"}, {"fusion_lat": 0.0, "fusion_lon": 0.0, "is_disabled": 0, "type": "electric_scooter", "rental_uris": {"ios": "https://dc.lft.to/lastmile_qr_scan", "android": "https://dc.lft.to/lastmile_qr_scan"}, "lat": 38.90056533333333, "name": "2e50968641d5ec87c510a35305a4b3a0", "lon": -77.04343633333333, "is_reserved": 0, "bike_id": "2e50968641d5ec87c510a35305a4b3a0"}, {"fusion_lat": 0.0, "fusion_lon": 0.0, "is_disabled": 0, "type": "electric_scooter", "rental_uris": {"ios": "https://dc.lft.to/lastmile_qr_scan", "android": "https://dc.lft.to/lastmile_qr_scan"}, "lat": 38.911873, "name": "b09426e70297a815ce23ceee6297bce1", "lon": -77.0385305, "is_reserved": 0, "bike_id": "b09426e70297a815ce23ceee6297bce1"}, {"fusion_lat": 0.0, "fusion_lon": 0.0, "is_disabled": 0, "type": "electric_scooter", "rental_uris": {"ios": "https://dc.lft.to/lastmile_qr_scan", "android": "https://dc.lft.to/lastmile_qr_scan"}, "lat": 38.91559916666667, "name": "768e7d88de659ea71d294932db3ee2da", "lon": -77.03321566666666, "is_reserved": 0, "bike_id": "768e7d88de659ea71d294932db3ee2da"}, {"fusion_lat": 0.0, "fusion_lon": 0.0, "is_disabled": 0, "type": "electric_scooter", "rental_uris": {"ios": "https://dc.lft.to/lastmile_qr_scan", "android": "https://dc.lft.to/lastmile_qr_scan"}, "lat": 38.9058235, "name": "e2447ffd7cd84873d6d29defe4051066", "lon": -77.06271783333334, "is_reserved": 0, "bike_id": "e2447ffd7cd84873d6d29defe4051066"}, {"fusion_lat": 0.0, "fusion_lon": 0.0, "is_disabled": 0, "type": "electric_scooter", "rental_uris": {"ios": "https://dc.lft.to/lastmile_qr_scan", "android": "https://dc.lft.to/lastmile_qr_scan"}, "lat": 38.897224, "name": "2b7cc2c101792db612bf3863966fbd38", "lon": -77.0240465, "is_reserved": 0, "bike_id": "2b7cc2c101792db612bf3863966fbd38"}, {"fusion_lat": 0.0, "fusion_lon": 0.0, "is_disabled": 0, "type": "electric_scooter", "rental_uris": {"ios": "https://dc.lft.to/lastmile_qr_scan", "android": "https://dc.lft.to/lastmile_qr_scan"}, "lat": 38.914212666666664, "name": "bfd9cf2242bc2815bbea5993311f6583", "lon": -77.0390345, "is_reserved": 0, "bike_id": "bfd9cf2242bc2815bbea5993311f6583"}, {"fusion_lat": 0.0, "fusion_lon": 0.0, "is_disabled": 0, "type": "electric_scooter", "rental_uris": {"ios": "https://dc.lft.to/lastmile_qr_scan", "android": "https://dc.lft.to/lastmile_qr_scan"}, "lat": 38.90254766666666, "name": "1e04213cc02a163217817b052bdab565", "lon": -77.05163816666666, "is_reserved": 0, "bike_id": "1e04213cc02a163217817b052bdab565"}, {"fusion_lat": 0.0, "fusion_lon": 0.0, "is_disabled": 0, "type": "electric_scooter", "rental_uris": {"ios": "https://dc.lft.to/lastmile_qr_scan", "android": "https://dc.lft.to/lastmile_qr_scan"}, "lat": 38.93065716666667, "name": "5c2221960e0e5d7dd1e2b5431d956102", "lon": -77.02770116666667, "is_reserved": 0, "bike_id": "5c2221960e0e5d7dd1e2b5431d956102"}, {"fusion_lat": 0.0, "fusion_lon": 0.0, "is_disabled": 0, "type": "electric_scooter", "rental_uris": {"ios": "https://dc.lft.to/lastmile_qr_scan", "android": "https://dc.lft.to/lastmile_qr_scan"}, "lat": 38.894617, "name": "90435ea5142f4f611a2986bcebe346bf", "lon": -77.02112783333334, "is_reserved": 0, "bike_id": "90435ea5142f4f611a2986bcebe346bf"}, {"fusion_lat": 0.0, "fusion_lon": 0.0, "is_disabled": 0, "type": "electric_scooter", "rental_uris": {"ios": "https://dc.lft.to/lastmile_qr_scan", "android": "https://dc.lft.to/lastmile_qr_scan"}, "lat": 38.894824166666666, "name": "a5b7aeefabb2e6420f4f80c8050d38de", "lon": -77.02309066666666, "is_reserved": 0, "bike_id": "a5b7aeefabb2e6420f4f80c8050d38de"}, {"fusion_lat": 0.0, "fusion_lon": 0.0, "is_disabled": 0, "type": "electric_scooter", "rental_uris": {"ios": "https://dc.lft.to/lastmile_qr_scan", "android": "https://dc.lft.to/lastmile_qr_scan"}, "lat": 38.91632416666667, "name": "099f5256a32e65e422ee654c30dd1e78", "lon": -77.02290233333333, "is_reserved": 0, "bike_id": "099f5256a32e65e422ee654c30dd1e78"}, {"fusion_lat": 0.0, "fusion_lon": 0.0, "is_disabled": 0, "type": "electric_scooter", "rental_uris": {"ios": "https://dc.lft.to/lastmile_qr_scan", "android": "https://dc.lft.to/lastmile_qr_scan"}, "lat": 38.915588666666665, "name": "d31bb09528b41d0437ab1fc109678304", "lon": -77.00821216666667, "is_reserved": 0, "bike_id": "d31bb09528b41d0437ab1fc109678304"}, {"fusion_lat": 0.0, "fusion_lon": 0.0, "is_disabled": 0, "type": "electric_scooter", "rental_uris": {"ios": "https://dc.lft.to/lastmile_qr_scan", "android": "https://dc.lft.to/lastmile_qr_scan"}, "lat": 38.93083266666667, "name": "5012522e0a6d6afca823dfef708391dd", "lon": -77.02687516666667, "is_reserved": 0, "bike_id": "5012522e0a6d6afca823dfef708391dd"}, {"fusion_lat": 0.0, "fusion_lon": 0.0, "is_disabled": 0, "type": "electric_bike", "rental_uris": {"ios": "https://dc.lft.to/lastmile_qr_scan", "android": "https://dc.lft.to/lastmile_qr_scan"}, "lat": 39.026236, "name": "c9b0fa6d50640ef907dd05bec2f7ab55", "lon": -77.02005716666666, "is_reserved": 0, "bike_id": "c9b0fa6d50640ef907dd05bec2f7ab55"}, {"fusion_lat": 0.0, "fusion_lon": 0.0, "is_disabled": 0, "type": "electric_bike", "rental_uris": {"ios": "https://dc.lft.to/lastmile_qr_scan", "android": "https://dc.lft.to/lastmile_qr_scan"}, "lat": 38.8668665, "name": "e6a78f63bb5f5101aa7fc065f963b9a2", "lon": -76.9849995, "is_reserved": 0, "bike_id": "e6a78f63bb5f5101aa7fc065f963b9a2"}, {"fusion_lat": 0.0, "fusion_lon": 0.0, "is_disabled": 0, "type": "electric_scooter", "rental_uris": {"ios": "https://dc.lft.to/lastmile_qr_scan", "android": "https://dc.lft.to/lastmile_qr_scan"}, "lat": 38.92672066666667, "name": "722e6d46fba9d14542ce2afdc0586062", "lon": -77.0151035, "is_reserved": 0, "bike_id": "722e6d46fba9d14542ce2afdc0586062"}, {"fusion_lat": 0.0, "fusion_lon": 0.0, "is_disabled": 0, "type": "electric_bike", "rental_uris": {"ios": "https://dc.lft.to/lastmile_qr_scan", "android": "https://dc.lft.to/lastmile_qr_scan"}, "lat": 38.831013666666664, "name": "89e85d32150bd8564063d7a32e8d4f16", "lon": -77.11283166666666, "is_reserved": 0, "bike_id": "89e85d32150bd8564063d7a32e8d4f16"}, {"fusion_lat": 0.0, "fusion_lon": 0.0, "is_disabled": 0, "type": "electric_scooter", "rental_uris": {"ios": "https://dc.lft.to/lastmile_qr_scan", "android": "https://dc.lft.to/lastmile_qr_scan"}, "lat": 38.89084666666667, "name": "7ad95ed272c17fd4d16d4bd44db5c631", "lon": -76.94716533333333, "is_reserved": 0, "bike_id": "7ad95ed272c17fd4d16d4bd44db5c631"}, {"fusion_lat": 0.0, "fusion_lon": 0.0, "is_disabled": 0, "type": "electric_scooter", "rental_uris": {"ios": "https://dc.lft.to/lastmile_qr_scan", "android": "https://dc.lft.to/lastmile_qr_scan"}, "lat": 38.89941533333333, "name": "d3f19a9d0e6d08ed0cbdbc53ac3c713e", "lon": -77.014465, "is_reserved": 0, "bike_id": "d3f19a9d0e6d08ed0cbdbc53ac3c713e"}, {"fusion_lat": 0.0, "fusion_lon": 0.0, "is_disabled": 0, "type": "electric_scooter", "rental_uris": {"ios": "https://dc.lft.to/lastmile_qr_scan", "android": "https://dc.lft.to/lastmile_qr_scan"}, "lat": 38.90141366666667, "name": "56d50a7634b7181daea3ea3b8ff7106c", "lon": -77.04344083333334, "is_reserved": 0, "bike_id": "56d50a7634b7181daea3ea3b8ff7106c"}, {"fusion_lat": 0.0, "fusion_lon": 0.0, "is_disabled": 0, "type": "electric_scooter", "rental_uris": {"ios": "https://dc.lft.to/lastmile_qr_scan", "android": "https://dc.lft.to/lastmile_qr_scan"}, "lat": 38.90879533333333, "name": "4fc20003279c1c744765cd268cd6869d", "lon": -77.0432565, "is_reserved": 0, "bike_id": "4fc20003279c1c744765cd268cd6869d"}, {"fusion_lat": 0.0, "fusion_lon": 0.0, "is_disabled": 0, "type": "electric_bike", "rental_uris": {"ios": "https://dc.lft.to/lastmile_qr_scan", "android": "https://dc.lft.to/lastmile_qr_scan"}, "lat": 38.8408895, "name": "921d315fb366ce0750ef6b0f59c0e84f", "lon": -77.0896575, "is_reserved": 0, "bike_id": "921d315fb366ce0750ef6b0f59c0e84f"}, {"fusion_lat": 0.0, "fusion_lon": 0.0, "is_disabled": 0, "type": "electric_scooter", "rental_uris": {"ios": "https://dc.lft.to/lastmile_qr_scan", "android": "https://dc.lft.to/lastmile_qr_scan"}, "lat": 38.90766933333333, "name": "709349178f939c572dcbace96d30249f", "lon": -76.99297866666667, "is_reserved": 0, "bike_id": "709349178f939c572dcbace96d30249f"}, {"fusion_lat": 0.0, "fusion_lon": 0.0, "is_disabled": 0, "type": "electric_scooter", "rental_uris": {"ios": "https://dc.lft.to/lastmile_qr_scan", "android": "https://dc.lft.to/lastmile_qr_scan"}, "lat": 38.8872975, "name": "15609baa999992c8591ab9f9f5c79d65", "lon": -76.98357233333333, "is_reserved": 0, "bike_id": "15609baa999992c8591ab9f9f5c79d65"}, {"fusion_lat": 0.0, "fusion_lon": 0.0, "is_disabled": 0, "type": "electric_scooter", "rental_uris": {"ios": "https://dc.lft.to/lastmile_qr_scan", "android": "https://dc.lft.to/lastmile_qr_scan"}, "lat": 38.89430633333333, "name": "32ae15a26b5d199f630ecb879779ca43", "lon": -77.024904, "is_reserved": 0, "bike_id": "32ae15a26b5d199f630ecb879779ca43"}, {"fusion_lat": 0.0, "fusion_lon": 0.0, "is_disabled": 0, "type": "electric_scooter", "rental_uris": {"ios": "https://dc.lft.to/lastmile_qr_scan", "android": "https://dc.lft.to/lastmile_qr_scan"}, "lat": 38.92164066666667, "name": "d414660bf4d33b40ebed1b32524b5b08", "lon": -77.04222583333333, "is_reserved": 0, "bike_id": "d414660bf4d33b40ebed1b32524b5b08"}, {"fusion_lat": 0.0, "fusion_lon": 0.0, "is_disabled": 0, "type": "electric_scooter", "rental_uris": {"ios": "https://dc.lft.to/lastmile_qr_scan", "android": "https://dc.lft.to/lastmile_qr_scan"}, "lat": 38.900317666666666, "name": "1d8203609fa48bab6a3d38ecba1246c3", "lon": -76.98860116666667, "is_reserved": 0, "bike_id": "1d8203609fa48bab6a3d38ecba1246c3"}, {"fusion_lat": 0.0, "fusion_lon": 0.0, "is_disabled": 0, "type": "electric_bike", "rental_uris": {"ios": "https://dc.lft.to/lastmile_qr_scan", "android": "https://dc.lft.to/lastmile_qr_scan"}, "lat": 38.922134, "name": "754d3bc4ebade2391218fd1fd1592eaf", "lon": -77.08199383333333, "is_reserved": 0, "bike_id": "754d3bc4ebade2391218fd1fd1592eaf"}, {"fusion_lat": 0.0, "fusion_lon": 0.0, "is_disabled": 0, "type": "electric_scooter", "rental_uris": {"ios": "https://dc.lft.to/lastmile_qr_scan", "android": "https://dc.lft.to/lastmile_qr_scan"}, "lat": 38.91012416666667, "name": "6944db79dab8ef2a3e3c7df31c5eb5aa", "lon": -77.038443, "is_reserved": 0, "bike_id": "6944db79dab8ef2a3e3c7df31c5eb5aa"}, {"fusion_lat": 0.0, "fusion_lon": 0.0, "is_disabled": 0, "type": "electric_scooter", "rental_uris": {"ios": "https://dc.lft.to/lastmile_qr_scan", "android": "https://dc.lft.to/lastmile_qr_scan"}, "lat": 38.92170516666667, "name": "407a4532e4770abcb66fda1801671eb8", "lon": -77.032558, "is_reserved": 0, "bike_id": "407a4532e4770abcb66fda1801671eb8"}, {"fusion_lat": 0.0, "fusion_lon": 0.0, "is_disabled": 0, "type": "electric_bike", "rental_uris": {"ios": "https://dc.lft.to/lastmile_qr_scan", "android": "https://dc.lft.to/lastmile_qr_scan"}, "lat": 38.88857466666666, "name": "ecd1eadd236ebb2d1e10944450f2b592", "lon": -76.9574125, "is_reserved": 0, "bike_id": "ecd1eadd236ebb2d1e10944450f2b592"}, {"fusion_lat": 0.0, "fusion_lon": 0.0, "is_disabled": 0, "type": "electric_scooter", "rental_uris": {"ios": "https://dc.lft.to/lastmile_qr_scan", "android": "https://dc.lft.to/lastmile_qr_scan"}, "lat": 38.8791245, "name": "ddc6430b6b2f0e1d0929f88ea54a8624", "lon": -77.00630633333333, "is_reserved": 0, "bike_id": "ddc6430b6b2f0e1d0929f88ea54a8624"}, {"fusion_lat": 0.0, "fusion_lon": 0.0, "is_disabled": 0, "type": "electric_scooter", "rental_uris": {"ios": "https://dc.lft.to/lastmile_qr_scan", "android": "https://dc.lft.to/lastmile_qr_scan"}, "lat": 38.944193, "name": "d26beac1eb0e01c2276ba0dce1015ef5", "lon": -76.97564033333333, "is_reserved": 0, "bike_id": "d26beac1eb0e01c2276ba0dce1015ef5"}, {"fusion_lat": 0.0, "fusion_lon": 0.0, "is_disabled": 0, "type": "electric_scooter", "rental_uris": {"ios": "https://dc.lft.to/lastmile_qr_scan", "android": "https://dc.lft.to/lastmile_qr_scan"}, "lat": 38.895345666666664, "name": "24bf5fa36d96db52bb79f9508c835c2f", "lon": -76.94929816666667, "is_reserved": 0, "bike_id": "24bf5fa36d96db52bb79f9508c835c2f"}, {"fusion_lat": 0.0, "fusion_lon": 0.0, "is_disabled": 0, "type": "electric_scooter", "rental_uris": {"ios": "https://dc.lft.to/lastmile_qr_scan", "android": "https://dc.lft.to/lastmile_qr_scan"}, "lat": 38.9609475, "name": "304c779561c18a2aa625616af1799999", "lon": -77.07336766666667, "is_reserved": 0, "bike_id": "304c779561c18a2aa625616af1799999"}, {"fusion_lat": 0.0, "fusion_lon": 0.0, "is_disabled": 0, "type": "electric_scooter", "rental_uris": {"ios": "https://dc.lft.to/lastmile_qr_scan", "android": "https://dc.lft.to/lastmile_qr_scan"}, "lat": 38.90377183333333, "name": "acb02ae5fbdd51da9f3fbc715605b46d", "lon": -77.044752, "is_reserved": 0, "bike_id": "acb02ae5fbdd51da9f3fbc715605b46d"}, {"fusion_lat": 0.0, "fusion_lon": 0.0, "is_disabled": 0, "type": "electric_bike", "rental_uris": {"ios": "https://dc.lft.to/lastmile_qr_scan", "android": "https://dc.lft.to/lastmile_qr_scan"}, "lat": 38.9949905, "name": "ab16800999598113876bcb825036e9af", "lon": -77.001353, "is_reserved": 0, "bike_id": "ab16800999598113876bcb825036e9af"}, {"fusion_lat": 0.0, "fusion_lon": 0.0, "is_disabled": 0, "type": "electric_scooter", "rental_uris": {"ios": "https://dc.lft.to/lastmile_qr_scan", "android": "https://dc.lft.to/lastmile_qr_scan"}, "lat": 38.940497666666666, "name": "d5d8a1199723a2c77647a5cf052af1f5", "lon": -77.06039333333334, "is_reserved": 0, "bike_id": "d5d8a1199723a2c77647a5cf052af1f5"}, {"fusion_lat": 0.0, "fusion_lon": 0.0, "is_disabled": 0, "type": "electric_scooter", "rental_uris": {"ios": "https://dc.lft.to/lastmile_qr_scan", "android": "https://dc.lft.to/lastmile_qr_scan"}, "lat": 38.9151495, "name": "c011fa14dbd4a7947b117329a3c1437b", "lon": -77.046075, "is_reserved": 0, "bike_id": "c011fa14dbd4a7947b117329a3c1437b"}, {"fusion_lat": 0.0, "fusion_lon": 0.0, "is_disabled": 0, "type": "electric_scooter", "rental_uris": {"ios": "https://dc.lft.to/lastmile_qr_scan", "android": "https://dc.lft.to/lastmile_qr_scan"}, "lat": 38.927496166666664, "name": "8c21ee09d91985547fd596b9c7656ea7", "lon": -77.03549233333334, "is_reserved": 0, "bike_id": "8c21ee09d91985547fd596b9c7656ea7"}, {"fusion_lat": 0.0, "fusion_lon": 0.0, "is_disabled": 0, "type": "electric_scooter", "rental_uris": {"ios": "https://dc.lft.to/lastmile_qr_scan", "android": "https://dc.lft.to/lastmile_qr_scan"}, "lat": 38.90361, "name": "e384662cfe15ae5acf3ba3f01d725181", "lon": -77.053693, "is_reserved": 0, "bike_id": "e384662cfe15ae5acf3ba3f01d725181"}, {"fusion_lat": 0.0, "fusion_lon": 0.0, "is_disabled": 0, "type": "electric_scooter", "rental_uris": {"ios": "https://dc.lft.to/lastmile_qr_scan", "android": "https://dc.lft.to/lastmile_qr_scan"}, "lat": 38.90543733333333, "name": "b96681fc41c0f7b6b8461f47a021b4d6", "lon": -77.02178716666667, "is_reserved": 0, "bike_id": "b96681fc41c0f7b6b8461f47a021b4d6"}, {"fusion_lat": 0.0, "fusion_lon": 0.0, "is_disabled": 0, "type": "electric_scooter", "rental_uris": {"ios": "https://dc.lft.to/lastmile_qr_scan", "android": "https://dc.lft.to/lastmile_qr_scan"}, "lat": 38.923066666666664, "name": "e21e1692aa9c32aad6513db234fb2834", "lon": -77.03115283333334, "is_reserved": 0, "bike_id": "e21e1692aa9c32aad6513db234fb2834"}, {"fusion_lat": 0.0, "fusion_lon": 0.0, "is_disabled": 0, "type": "electric_bike", "rental_uris": {"ios": "https://dc.lft.to/lastmile_qr_scan", "android": "https://dc.lft.to/lastmile_qr_scan"}, "lat": 38.980422, "name": "c4b00f489ff8f3d0038e9ff3a6f05986", "lon": -76.95795316666667, "is_reserved": 0, "bike_id": "c4b00f489ff8f3d0038e9ff3a6f05986"}, {"fusion_lat": 0.0, "fusion_lon": 0.0, "is_disabled": 0, "type": "electric_scooter", "rental_uris": {"ios": "https://dc.lft.to/lastmile_qr_scan", "android": "https://dc.lft.to/lastmile_qr_scan"},