{"data": {"bikes": [{"type": "electric_scooter", "rental_uris": {"android": "https://dc.lft.to/lastmile_qr_scan", "ios": "https://dc.lft.to/lastmile_qr_scan"}, "fusion_lat": 0.0, "name": "b46c812e7c3a2258860ebf33fc2ac5a3", "lon": -77.03436766666667, "is_disabled": 0, "is_reserved": 0, "fusion_lon": 0.0, "bike_id": "b46c812e7c3a2258860ebf33fc2ac5a3", "lat": 38.903568}, {"type": "electric_scooter", "rental_uris": {"android": "https://dc.lft.to/lastmile_qr_scan", "ios": "https://dc.lft.to/lastmile_qr_scan"}, "fusion_lat": 0.0, "name": "32481b40981adda193b113284d2f4807", "lon": -77.03265066666667, "is_disabled": 0, "is_reserved": 0, "fusion_lon": 0.0, "bike_id": "32481b40981adda193b113284d2f4807", "lat": 38.93720183333333}, {"type": "electric_scooter", "rental_uris": {"android": "https://dc.lft.to/lastmile_qr_scan", "ios": "https://dc.lft.to/lastmile_qr_scan"}, "fusion_lat": 0.0, "name": "634da66ad607c57d1530a97e3a28249b", "lon": -77.02601566666667, "is_disabled": 0, "is_reserved": 0, "fusion_lon": 0.0, "bike_id": "634da66ad607c57d1530a97e3a28249b", "lat": 38.91694716666667}, {"type": "electric_scooter", "rental_uris": {"android": "https://dc.lft.to/lastmile_qr_scan", "ios": "https://dc.lft.to/lastmile_qr_scan"}, "fusion_lat": 0.0, "name": "a4f5867aad4936e091843edb09af3c26", "lon": -77.027645, "is_disabled": 0, "is_reserved": 0, "fusion_lon": 0.0, "bike_id": "a4f5867aad4936e091843edb09af3c26", "lat": 38.95425616666667}, {"type": "electric_scooter", "rental_uris": {"android": "https://dc.lft.to/lastmile_qr_scan", "ios": "https://dc.lft.to/lastmile_qr_scan"}, "fusion_lat": 0.0, "name": "3787e48852911ec8870abf9d778bf1fc", "lon": -77.06486416666667, "is_disabled": 0, "is_reserved": 0, "fusion_lon": 0.0, "bike_id": "3787e48852911ec8870abf9d778bf1fc", "lat": 38.9097965}, {"type": "electric_bike", "rental_uris": {"android": "https://dc.lft.to/lastmile_qr_scan", "ios": "https://dc.lft.to/lastmile_qr_scan"}, "fusion_lat": 0.0, "name": "fa9a31a7ed9d5cfd54cb7728ab86a29b", "lon": -77.06835766666667, "is_disabled": 0, "is_reserved": 0, "fusion_lon": 0.0, "bike_id": "fa9a31a7ed9d5cfd54cb7728ab86a29b", "lat": 38.80567583333333}, {"type": "electric_scooter", "rental_uris": {"android": "https://dc.lft.to/lastmile_qr_scan", "ios": "https://dc.lft.to/lastmile_qr_scan"}, "fusion_lat": 0.0, "name": "4192cd8a7f55e17442ee442d7127c2e2", "lon": -77.0445, "is_disabled": 0, "is_reserved": 0, "fusion_lon": 0.0, "bike_id": "4192cd8a7f55e17442ee442d7127c2e2", "lat": 38.90578633333333}, {"type": "electric_scooter", "rental_uris": {"android": "https://dc.lft.to/lastmile_qr_scan", "ios": "https://dc.lft.to/lastmile_qr_scan"}, "fusion_lat": 0.0, "name": "4b3fad4149a6d2ae523b57e89f1933c0", "lon": -77.04855383333333, "is_disabled": 0, "is_reserved": 0, "fusion_lon": 0.0, "bike_id": "4b3fad4149a6d2ae523b57e89f1933c0", "lat": 38.90471316666667}, {"type": "electric_scooter", "rental_uris": {"android": "https://dc.lft.to/lastmile_qr_scan", "ios": "https://dc.lft.to/lastmile_qr_scan"}, "fusion_lat": 0.0, "name": "afc41b85299be3193fed1689ef6eeee0", "lon": -77.01608216666666, "is_disabled": 0, "is_reserved": 0, "fusion_lon": 0.0, "bike_id": "afc41b85299be3193fed1689ef6eeee0", "lat": 38.895095833333336}, {"type": "electric_scooter", "rental_uris": {"android": "https://dc.lft.to/lastmile_qr_scan", "ios": "https://dc.lft.to/lastmile_qr_scan"}, "fusion_lat": 0.0, "name": "b957b25641a29f3f47cb2ec8ca0f13eb", "lon": -77.033072, "is_disabled": 0, "is_reserved": 0, "fusion_lon": 0.0, "bike_id": "b957b25641a29f3f47cb2ec8ca0f13eb", "lat": 38.956351}, {"type": "electric_scooter", "rental_uris": {"android": "https://dc.lft.to/lastmile_qr_scan", "ios": "https://dc.lft.to/lastmile_qr_scan"}, "fusion_lat": 0.0, "name": "8db91991953d669cd59da5457454c026", "lon": -77.02962283333333, "is_disabled": 0, "is_reserved": 0, "fusion_lon": 0.0, "bike_id": "8db91991953d669cd59da5457454c026", "lat": 38.8961285}, {"type": "electric_bike", "rental_uris": {"android": "https://dc.lft.to/lastmile_qr_scan", "ios": "https://dc.lft.to/lastmile_qr_scan"}, "fusion_lat": 0.0, "name": "4c5da6fdb429409cc4dd4f8a370f7094", "lon": -77.00766766666666, "is_disabled": 0, "is_reserved": 0, "fusion_lon": 0.0, "bike_id": "4c5da6fdb429409cc4dd4f8a370f7094", "lat": 38.92672733333333}, {"type": "electric_scooter", "rental_uris": {"android": "https://dc.lft.to/lastmile_qr_scan", "ios": "https://dc.lft.to/lastmile_qr_scan"}, "fusion_lat": 0.0, "name": "1a98e5a63a63efb3ccb67797af237b60", "lon": -76.98084216666666, "is_disabled": 0, "is_reserved": 0, "fusion_lon": 0.0, "bike_id": "1a98e5a63a63efb3ccb67797af237b60", "lat": 38.907089}, {"type": "electric_scooter", "rental_uris": {"android": "https://dc.lft.to/lastmile_qr_scan", "ios": "https://dc.lft.to/lastmile_qr_scan"}, "fusion_lat": 0.0, "name": "9ccb42469b522a4d2eea5b2ba9d57ffb", "lon": -77.05889, "is_disabled": 0, "is_reserved": 0, "fusion_lon": 0.0, "bike_id": "9ccb42469b522a4d2eea5b2ba9d57ffb", "lat": 38.942967}, {"type": "electric_scooter", "rental_uris": {"android": "https://dc.lft.to/lastmile_qr_scan", "ios": "https://dc.lft.to/lastmile_qr_scan"}, "fusion_lat": 0.0, "name": "b4d6fa99ce8ae388f7ffc0a5b715ae9a", "lon": -76.97710266666667, "is_disabled": 0, "is_reserved": 0, "fusion_lon": 0.0, "bike_id": "b4d6fa99ce8ae388f7ffc0a5b715ae9a", "lat": 38.887775833333336}, {"type": "electric_scooter", "rental_uris": {"android": "https://dc.lft.to/lastmile_qr_scan", "ios": "https://dc.lft.to/lastmile_qr_scan"}, "fusion_lat": 0.0, "name": "f4e85af7b05576a96f943908e385f1ca", "lon": -77.01886783333333, "is_disabled": 0, "is_reserved": 0, "fusion_lon": 0.0, "bike_id": "f4e85af7b05576a96f943908e385f1ca", "lat": 38.91323233333333}, {"type": "electric_scooter", "rental_uris": {"android": "https://dc.lft.to/lastmile_qr_scan", "ios": "https://dc.lft.to/lastmile_qr_scan"}, "fusion_lat": 0.0, "name": "908de46d7bf0f60bada87f3b25bbe17b", "lon": -76.99522133333333, "is_disabled": 0, "is_reserved": 0, "fusion_lon": 0.0, "bike_id": "908de46d7bf0f60bada87f3b25bbe17b", "lat": 38.89547483333333}, {"type": "electric_scooter", "rental_uris": {"android": "https://dc.lft.to/lastmile_qr_scan", "ios": "https://dc.lft.to/lastmile_qr_scan"}, "fusion_lat": 0.0, "name": "37c69ed71c8e112617c5972fa8adeb8e", "lon": -77.01890616666667, "is_disabled": 0, "is_reserved": 0, "fusion_lon": 0.0, "bike_id": "37c69ed71c8e112617c5972fa8adeb8e", "lat": 38.89748066666667}, {"type": "electric_scooter", "rental_uris": {"android": "https://dc.lft.to/lastmile_qr_scan", "ios": "https://dc.lft.to/lastmile_qr_scan"}, "fusion_lat": 0.0, "name": "aee192526fbf2fdca0c764e0d918ac61", "lon": -77.007944, "is_disabled": 0, "is_reserved": 0, "fusion_lon": 0.0, "bike_id": "aee192526fbf2fdca0c764e0d918ac61", "lat": 38.896463833333335}, {"type": "electric_scooter", "rental_uris": {"android": "https://dc.lft.to/lastmile_qr_scan", "ios": "https://dc.lft.to/lastmile_qr_scan"}, "fusion_lat": 0.0, "name": "538402a38955b1a7e6e5e0f51c925d88", "lon": -77.072373, "is_disabled": 0, "is_reserved": 0, "fusion_lon": 0.0, "bike_id": "538402a38955b1a7e6e5e0f51c925d88", "lat": 38.940098}, {"type": "electric_scooter", "rental_uris": {"android": "https://dc.lft.to/lastmile_qr_scan", "ios": "https://dc.lft.to/lastmile_qr_scan"}, "fusion_lat": 0.0, "name": "bc6193a14fdde19c9a593db249b94671", "lon": -76.96773016666667, "is_disabled": 0, "is_reserved": 0, "fusion_lon": 0.0, "bike_id": "bc6193a14fdde19c9a593db249b94671", "lat": 38.85923366666667}, {"type": "electric_scooter", "rental_uris": {"android": "https://dc.lft.to/lastmile_qr_scan", "ios": "https://dc.lft.to/lastmile_qr_scan"}, "fusion_lat": 0.0, "name": "01a04ac0d1f270ef85c5fbb864c24b06", "lon": -76.97549516666666, "is_disabled": 0, "is_reserved": 0, "fusion_lon": 0.0, "bike_id": "01a04ac0d1f270ef85c5fbb864c24b06", "lat": 38.902610833333334}, {"type": "electric_scooter", "rental_uris": {"android": "https://dc.lft.to/lastmile_qr_scan", "ios": "https://dc.lft.to/lastmile_qr_scan"}, "fusion_lat": 0.0, "name": "418c87c4187d9b4de4fbe80bce7cfbda", "lon": -77.027305, "is_disabled": 0, "is_reserved": 0, "fusion_lon": 0.0, "bike_id": "418c87c4187d9b4de4fbe80bce7cfbda", "lat": 38.89740666666667}, {"type": "electric_scooter", "rental_uris": {"android": "https://dc.lft.to/lastmile_qr_scan", "ios": "https://dc.lft.to/lastmile_qr_scan"}, "fusion_lat": 0.0, "name": "badde470d0b2b394222229c93011b17e", "lon": -77.026548, "is_disabled": 0, "is_reserved": 0, "fusion_lon": 0.0, "bike_id": "badde470d0b2b394222229c93011b17e", "lat": 38.97815683333334}, {"type": "electric_scooter", "rental_uris": {"android": "https://dc.lft.to/lastmile_qr_scan", "ios": "https://dc.lft.to/lastmile_qr_scan"}, "fusion_lat": 0.0, "name": "8a2237686ad0bd1312ab796e52335025", "lon": -77.04886633333334, "is_disabled": 0, "is_reserved": 0, "fusion_lon": 0.0, "bike_id": "8a2237686ad0bd1312ab796e52335025", "lat": 38.901123}, {"type": "electric_bike", "rental_uris": {"android": "https://dc.lft.to/lastmile_qr_scan", "ios": "https://dc.lft.to/lastmile_qr_scan"}, "fusion_lat": 0.0, "name": "37313d7d887a0e4a7b27bec82dda221b", "lon": -77.08773216666667, "is_disabled": 0, "is_reserved": 0, "fusion_lon": 0.0, "bike_id": "37313d7d887a0e4a7b27bec82dda221b", "lat": 38.83899916666667}, {"type": "electric_scooter", "rental_uris": {"android": "https://dc.lft.to/lastmile_qr_scan", "ios": "https://dc.lft.to/lastmile_qr_scan"}, "fusion_lat": 0.0, "name": "5cfc2afaa8d0a346ca0a6b8121f379e0", "lon": -77.03583583333334, "is_disabled": 0, "is_reserved": 0, "fusion_lon": 0.0, "bike_id": "5cfc2afaa8d0a346ca0a6b8121f379e0", "lat": 38.91695883333333}, {"type": "electric_scooter", "rental_uris": {"android": "https://dc.lft.to/lastmile_qr_scan", "ios": "https://dc.lft.to/lastmile_qr_scan"}, "fusion_lat": 0.0, "name": "bbd073c412d3033a631116989c3c1895", "lon": -76.98371016666667, "is_disabled": 0, "is_reserved": 0, "fusion_lon": 0.0, "bike_id": "bbd073c412d3033a631116989c3c1895", "lat": 38.86114933333333}, {"type": "electric_scooter", "rental_uris": {"android": "https://dc.lft.to/lastmile_qr_scan", "ios": "https://dc.lft.to/lastmile_qr_scan"}, "fusion_lat": 0.0, "name": "7600dc7a85c14a5c22f10bc096ab95ad", "lon": -77.0328375, "is_disabled": 0, "is_reserved": 0, "fusion_lon": 0.0, "bike_id": "7600dc7a85c14a5c22f10bc096ab95ad", "lat": 38.92836466666667}, {"type": "electric_scooter", "rental_uris": {"android": "https://dc.lft.to/lastmile_qr_scan", "ios": "https://dc.lft.to/lastmile_qr_scan"}, "fusion_lat": 0.0, "name": "98182bc894df00ec08013c6a2f5c014b", "lon": -76.98647866666667, "is_disabled": 0, "is_reserved": 0, "fusion_lon": 0.0, "bike_id": "98182bc894df00ec08013c6a2f5c014b", "lat": 38.90615833333333}, {"type": "electric_scooter", "rental_uris": {"android": "https://dc.lft.to/lastmile_qr_scan", "ios": "https://dc.lft.to/lastmile_qr_scan"}, "fusion_lat": 0.0, "name": "ca84c7c2ee8e65e99dfa7d02283eeda6", "lon": -76.978714, "is_disabled": 0, "is_reserved": 0, "fusion_lon": 0.0, "bike_id": "ca84c7c2ee8e65e99dfa7d02283eeda6", "lat": 38.883039833333335}, {"type": "electric_scooter", "rental_uris": {"android": "https://dc.lft.to/lastmile_qr_scan", "ios": "https://dc.lft.to/lastmile_qr_scan"}, "fusion_lat": 0.0, "name": "616371cdff68690ac9036b89836c7990", "lon": -77.032629, "is_disabled": 0, "is_reserved": 0, "fusion_lon": 0.0, "bike_id": "616371cdff68690ac9036b89836c7990", "lat": 38.93525733333333}, {"type": "electric_scooter", "rental_uris": {"android": "https://dc.lft.to/lastmile_qr_scan", "ios": "https://dc.lft.to/lastmile_qr_scan"}, "fusion_lat": 0.0, "name": "2dc300a9f64f53b43b49d74be5fed742", "lon": -76.97619983333334, "is_disabled": 0, "is_reserved": 0, "fusion_lon": 0.0, "bike_id": "2dc300a9f64f53b43b49d74be5fed742", "lat": 38.8996035}, {"type": "electric_scooter", "rental_uris": {"android": "https://dc.lft.to/lastmile_qr_scan", "ios": "https://dc.lft.to/lastmile_qr_scan"}, "fusion_lat": 0.0, "name": "30f25db1ca7593707f6c8d78a71d0cd4", "lon": -77.04057633333333, "is_disabled": 0, "is_reserved": 0, "fusion_lon": 0.0, "bike_id": "30f25db1ca7593707f6c8d78a71d0cd4", "lat": 38.9187875}, {"type": "electric_scooter", "rental_uris": {"android": "https://dc.lft.to/lastmile_qr_scan", "ios": "https://dc.lft.to/lastmile_qr_scan"}, "fusion_lat": 0.0, "name": "739daad7fd22d6d422437a126600a3ff", "lon": -77.0412915, "is_disabled": 0, "is_reserved": 0, "fusion_lon": 0.0, "bike_id": "739daad7fd22d6d422437a126600a3ff", "lat": 38.917054666666665}, {"type": "electric_scooter", "rental_uris": {"android": "https://dc.lft.to/lastmile_qr_scan", "ios": "https://dc.lft.to/lastmile_qr_scan"}, "fusion_lat": 0.0, "name": "a4ab48101a32c5df8d3ca87ba32f1443", "lon": -77.02550766666667, "is_disabled": 0, "is_reserved": 0, "fusion_lon": 0.0, "bike_id": "a4ab48101a32c5df8d3ca87ba32f1443", "lat": 38.941384666666664}, {"type": "electric_scooter", "rental_uris": {"android": "https://dc.lft.to/lastmile_qr_scan", "ios": "https://dc.lft.to/lastmile_qr_scan"}, "fusion_lat": 0.0, "name": "d9e2924f9cdc621325e61525c93b7223", "lon": -77.0423605, "is_disabled": 0, "is_reserved": 0, "fusion_lon": 0.0, "bike_id": "d9e2924f9cdc621325e61525c93b7223", "lat": 38.90119283333333}, {"type": "electric_scooter", "rental_uris": {"android": "https://dc.lft.to/lastmile_qr_scan", "ios": "https://dc.lft.to/lastmile_qr_scan"}, "fusion_lat": 0.0, "name": "b63b61d24d7c5278a859e9d9feeac43b", "lon": -77.02495066666667, "is_disabled": 0, "is_reserved": 0, "fusion_lon": 0.0, "bike_id": "b63b61d24d7c5278a859e9d9feeac43b", "lat": 38.94205}, {"type": "electric_scooter", "rental_uris": {"android": "https://dc.lft.to/lastmile_qr_scan", "ios": "https://dc.lft.to/lastmile_qr_scan"}, "fusion_lat": 0.0, "name": "e70a2862a6f20308f5a8d181dea696b2", "lon": -76.981473, "is_disabled": 0, "is_reserved": 0, "fusion_lon": 0.0, "bike_id": "e70a2862a6f20308f5a8d181dea696b2", "lat": 38.9032005}, {"type": "electric_scooter", "rental_uris": {"android": "https://dc.lft.to/lastmile_qr_scan", "ios": "https://dc.lft.to/lastmile_qr_scan"}, "fusion_lat": 0.0, "name": "c4542de7a5d8a0d8d4490a92025fa3c8", "lon": -77.05382866666666, "is_disabled": 0, "is_reserved": 0, "fusion_lon": 0.0, "bike_id": "c4542de7a5d8a0d8d4490a92025fa3c8", "lat": 38.89884883333333}, {"type": "electric_scooter", "rental_uris": {"android": "https://dc.lft.to/lastmile_qr_scan", "ios": "https://dc.lft.to/lastmile_qr_scan"}, "fusion_lat": 0.0, "name": "28a4d0e35d0a9f8a033ca0eefc83fee9", "lon": -77.018996, "is_disabled": 0, "is_reserved": 0, "fusion_lon": 0.0, "bike_id": "28a4d0e35d0a9f8a033ca0eefc83fee9", "lat": 38.92371816666667}, {"type": "electric_scooter", "rental_uris": {"android": "https://dc.lft.to/lastmile_qr_scan", "ios": "https://dc.lft.to/lastmile_qr_scan"}, "fusion_lat": 0.0, "name": "c83f65180e6cbaeed679b13dc6448093", "lon": -77.03083083333334, "is_disabled": 0, "is_reserved": 0, "fusion_lon": 0.0, "bike_id": "c83f65180e6cbaeed679b13dc6448093", "lat": 38.92729583333333}, {"type": "electric_scooter", "rental_uris": {"android": "https://dc.lft.to/lastmile_qr_scan", "ios": "https://dc.lft.to/lastmile_qr_scan"}, "fusion_lat": 0.0, "name": "f9a9c9c7a89b69135de70b0fa614abbd", "lon": -77.0359635, "is_disabled": 0, "is_reserved": 0, "fusion_lon": 0.0, "bike_id": "f9a9c9c7a89b69135de70b0fa614abbd", "lat": 38.939394166666666}, {"type": "electric_scooter", "rental_uris": {"android": "https://dc.lft.to/lastmile_qr_scan", "ios": "https://dc.lft.to/lastmile_qr_scan"}, "fusion_lat": 0.0, "name": "6a41ff263f7a914a44e63da9072df08a", "lon": -77.02549866666666, "is_disabled": 0, "is_reserved": 0, "fusion_lon": 0.0, "bike_id": "6a41ff263f7a914a44e63da9072df08a", "lat": 38.917100833333336}, {"type": "electric_scooter", "rental_uris": {"android": "https://dc.lft.to/lastmile_qr_scan", "ios": "https://dc.lft.to/lastmile_qr_scan"}, "fusion_lat": 0.0, "name": "1a83a6f2a359e77497dd7580f5997d42", "lon": -77.03264266666666, "is_disabled": 0, "is_reserved": 0, "fusion_lon": 0.0, "bike_id": "1a83a6f2a359e77497dd7580f5997d42", "lat": 38.93254366666667}, {"type": "electric_scooter", "rental_uris": {"android": "https://dc.lft.to/lastmile_qr_scan", "ios": "https://dc.lft.to/lastmile_qr_scan"}, "fusion_lat": 0.0, "name": "048d4322dcd5755b288acc47e02dfc3c", "lon": -77.07932083333333, "is_disabled": 0, "is_reserved": 0, "fusion_lon": 0.0, "bike_id": "048d4322dcd5755b288acc47e02dfc3c", "lat": 38.931093}, {"type": "electric_scooter", "rental_uris": {"android": "https://dc.lft.to/lastmile_qr_scan", "ios": "https://dc.lft.to/lastmile_qr_scan"}, "fusion_lat": 0.0, "name": "d379ffabba501f9f626656e0e9320ea4", "lon": -77.020602, "is_disabled": 0, "is_reserved": 0, "fusion_lon": 0.0, "bike_id": "d379ffabba501f9f626656e0e9320ea4", "lat": 38.92357}, {"type": "electric_scooter", "rental_uris": {"android": "https://dc.lft.to/lastmile_qr_scan", "ios": "https://dc.lft.to/lastmile_qr_scan"}, "fusion_lat": 0.0, "name": "4e15e80e50209d0d445dc6a343611732", "lon": -77.038618, "is_disabled": 0, "is_reserved": 0, "fusion_lon": 0.0, "bike_id": "4e15e80e50209d0d445dc6a343611732", "lat": 38.903592833333335}, {"type": "electric_scooter", "rental_uris": {"android": "https://dc.lft.to/lastmile_qr_scan", "ios": "https://dc.lft.to/lastmile_qr_scan"}, "fusion_lat": 0.0, "name": "0b740fe9cb56f1fb3cae17b66f5bceae", "lon": -76.99520983333333, "is_disabled": 0, "is_reserved": 0, "fusion_lon": 0.0, "bike_id": "0b740fe9cb56f1fb3cae17b66f5bceae", "lat": 38.89743433333334}, {"type": "electric_bike", "rental_uris": {"android": "https://dc.lft.to/lastmile_qr_scan", "ios": "https://dc.lft.to/lastmile_qr_scan"}, "fusion_lat": 0.0, "name": "28616ea048579d11d73bc9c06eaf7941", "lon": -76.9767415, "is_disabled": 0, "is_reserved": 0, "fusion_lon": 0.0, "bike_id": "28616ea048579d11d73bc9c06eaf7941", "lat": 38.952431}, {"type": "electric_scooter", "rental_uris": {"android": "https://dc.lft.to/lastmile_qr_scan", "ios": "https://dc.lft.to/lastmile_qr_scan"}, "fusion_lat": 0.0, "name": "96b44b868bbedf12c40ff89d063d7b87", "lon": -77.02484166666666, "is_disabled": 0, "is_reserved": 0, "fusion_lon": 0.0, "bike_id": "96b44b868bbedf12c40ff89d063d7b87", "lat": 38.92748483333333}, {"type": "electric_scooter", "rental_uris": {"android": "https://dc.lft.to/lastmile_qr_scan", "ios": "https://dc.lft.to/lastmile_qr_scan"}, "fusion_lat": 0.0, "name": "ceb6943da7345a07e06c8b0726f739b5", "lon": -76.98795183333333, "is_disabled": 0, "is_reserved": 0, "fusion_lon": 0.0, "bike_id": "ceb6943da7345a07e06c8b0726f739b5", "lat": 38.86729366666667}, {"type": "electric_scooter", "rental_uris": {"android": "https://dc.lft.to/lastmile_qr_scan", "ios": "https://dc.lft.to/lastmile_qr_scan"}, "fusion_lat": 0.0, "name": "f7044367aedaf1ac8a3f6932c4f57f06", "lon": -76.9830425, "is_disabled": 0, "is_reserved": 0, "fusion_lon": 0.0, "bike_id": "f7044367aedaf1ac8a3f6932c4f57f06", "lat": 38.90524583333333}, {"type": "electric_scooter", "rental_uris": {"android": "https://dc.lft.to/lastmile_qr_scan", "ios": "https://dc.lft.to/lastmile_qr_scan"}, "fusion_lat": 0.0, "name": "9c39fd43a53d682cf04c8a8510ce5f2e", "lon": -77.0590855, "is_disabled": 0, "is_reserved": 0, "fusion_lon": 0.0, "bike_id": "9c39fd43a53d682cf04c8a8510ce5f2e", "lat": 38.90154316666667}, {"type": "electric_scooter", "rental_uris": {"android": "https://dc.lft.to/lastmile_qr_scan", "ios": "https://dc.lft.to/lastmile_qr_scan"}, "fusion_lat": 0.0, "name": "45d61cea6cbb1d4cd19f7927de89b412", "lon": -77.022758, "is_disabled": 0, "is_reserved": 0, "fusion_lon": 0.0, "bike_id": "45d61cea6cbb1d4cd19f7927de89b412", "lat": 38.87885216666667}, {"type": "electric_bike", "rental_uris": {"android": "https://dc.lft.to/lastmile_qr_scan", "ios": "https://dc.lft.to/lastmile_qr_scan"}, "fusion_lat": 0.0, "name": "80c6e02f1876344a64018ac1cadf9cea", "lon": -76.91804, "is_disabled": 0, "is_reserved": 0, "fusion_lon": 0.0, "bike_id": "80c6e02f1876344a64018ac1cadf9cea", "lat": 38.99999316666667}, {"type": "electric_scooter", "rental_uris": {"android": "https://dc.lft.to/lastmile_qr_scan", "ios": "https://dc.lft.to/lastmile_qr_scan"}, "fusion_lat": 0.0, "name": "c61ea6e2a3474dbb806fa29e6854da38", "lon": -77.05918066666666, "is_disabled": 0, "is_reserved": 0, "fusion_lon": 0.0, "bike_id": "c61ea6e2a3474dbb806fa29e6854da38", "lat": 38.9015655}, {"type": "electric_scooter", "rental_uris": {"android": "https://dc.lft.to/lastmile_qr_scan", "ios": "https://dc.lft.to/lastmile_qr_scan"}, "fusion_lat": 0.0, "name": "18389174164ac404e14acbd7775ab900", "lon": -77.03924383333333, "is_disabled": 0, "is_reserved": 0, "fusion_lon": 0.0, "bike_id": "18389174164ac404e14acbd7775ab900", "lat": 38.900001833333334}, {"type": "electric_scooter", "rental_uris": {"android": "https://dc.lft.to/lastmile_qr_scan", "ios": "https://dc.lft.to/lastmile_qr_scan"}, "fusion_lat": 0.0, "name": "280e84ec3725d13e7f5ae1a3583388f7", "lon": -77.01966433333334, "is_disabled": 0, "is_reserved": 0, "fusion_lon": 0.0, "bike_id": "280e84ec3725d13e7f5ae1a3583388f7", "lat": 38.950218}, {"type": "electric_scooter", "rental_uris": {"android": "https://dc.lft.to/lastmile_qr_scan", "ios": "https://dc.lft.to/lastmile_qr_scan"}, "fusion_lat": 0.0, "name": "611c8200a479996e438dad7773411d28", "lon": -77.05017516666666, "is_disabled": 0, "is_reserved": 0, "fusion_lon": 0.0, "bike_id": "611c8200a479996e438dad7773411d28", "lat": 38.9055595}, {"type": "electric_scooter", "rental_uris": {"android": "https://dc.lft.to/lastmile_qr_scan", "ios": "https://dc.lft.to/lastmile_qr_scan"}, "fusion_lat": 0.0, "name": "5aaee1445cbee9de0ac89f1806c69296", "lon": -76.95403, "is_disabled": 0, "is_reserved": 0, "fusion_lon": 0.0, "bike_id": "5aaee1445cbee9de0ac89f1806c69296", "lat": 38.88470683333333}, {"type": "electric_scooter", "rental_uris": {"android": "https://dc.lft.to/lastmile_qr_scan", "ios": "https://dc.lft.to/lastmile_qr_scan"}, "fusion_lat": 0.0, "name": "fb7ba41f4c057a36e081ff147a4426c0", "lon": -76.9871615, "is_disabled": 0, "is_reserved": 0, "fusion_lon": 0.0, "bike_id": "fb7ba41f4c057a36e081ff147a4426c0", "lat": 38.866263833333335}, {"type": "electric_scooter", "rental_uris": {"android": "https://dc.lft.to/lastmile_qr_scan", "ios": "https://dc.lft.to/lastmile_qr_scan"}, "fusion_lat": 0.0, "name": "e55e2cfa865472ddd7f6b757666a2e71", "lon": -77.022015, "is_disabled": 0, "is_reserved": 0, "fusion_lon": 0.0, "bike_id": "e55e2cfa865472ddd7f6b757666a2e71", "lat": 38.9103435}, {"type": "electric_bike", "rental_uris": {"android": "https://dc.lft.to/lastmile_qr_scan", "ios": "https://dc.lft.to/lastmile_qr_scan"}, "fusion_lat": 0.0, "name": "0d638a8c6f9e609185d057627e32ea8a", "lon": -77.04156716666667, "is_disabled": 0, "is_reserved": 0, "fusion_lon": 0.0, "bike_id": "0d638a8c6f9e609185d057627e32ea8a", "lat": 38.91750483333333}, {"type": "electric_scooter", "rental_uris": {"android": "https://dc.lft.to/lastmile_qr_scan", "ios": "https://dc.lft.to/lastmile_qr_scan"}, "fusion_lat": 0.0, "name": "ad68776699c70bfd722da9c56c88f42a", "lon": -77.03353783333333, "is_disabled": 0, "is_reserved": 0, "fusion_lon": 0.0, "bike_id": "ad68776699c70bfd722da9c56c88f42a", "lat": 38.9223585}, {"type": "electric_scooter", "rental_uris": {"android": "https://dc.lft.to/lastmile_qr_scan", "ios": "https://dc.lft.to/lastmile_qr_scan"}, "fusion_lat": 0.0, "name": "5644185b3fc1f38606bb725291a4c183", "lon": -77.02831666666667, "is_disabled": 0, "is_reserved": 0, "fusion_lon": 0.0, "bike_id": "5644185b3fc1f38606bb725291a4c183", "lat": 38.8873375}, {"type": "electric_scooter", "rental_uris": {"android": "https://dc.lft.to/lastmile_qr_scan", "ios": "https://dc.lft.to/lastmile_qr_scan"}, "fusion_lat": 0.0, "name": "c973e5697681d95478f918199b490807", "lon": -77.0095365, "is_disabled": 0, "is_reserved": 0, "fusion_lon": 0.0, "bike_id": "c973e5697681d95478f918199b490807", "lat": 38.876334666666665}, {"type": "electric_scooter", "rental_uris": {"android": "https://dc.lft.to/lastmile_qr_scan", "ios": "https://dc.lft.to/lastmile_qr_scan"}, "fusion_lat": 0.0, "name": "381a92654ca99e5254d334c996dc4fbd", "lon": -77.05884216666666, "is_disabled": 0, "is_reserved": 0, "fusion_lon": 0.0, "bike_id": "381a92654ca99e5254d334c996dc4fbd", "lat": 38.91824366666667}, {"type": "electric_scooter", "rental_uris": {"android": "https://dc.lft.to/lastmile_qr_scan", "ios": "https://dc.lft.to/lastmile_qr_scan"}, "fusion_lat": 0.0, "name": "955cc961bcc9c0b9ea6dd51ec858aca4", "lon": -77.009583, "is_disabled": 0, "is_reserved": 0, "fusion_lon": 0.0, "bike_id": "955cc961bcc9c0b9ea6dd51ec858aca4", "lat": 38.917033333333336}, {"type": "electric_scooter", "rental_uris": {"android": "https://dc.lft.to/lastmile_qr_scan", "ios": "https://dc.lft.to/lastmile_qr_scan"}, "fusion_lat": 0.0, "name": "fb19250c90a3082d5ae164339af82590", "lon": -77.02611416666667, "is_disabled": 0, "is_reserved": 0, "fusion_lon": 0.0, "bike_id": "fb19250c90a3082d5ae164339af82590", "lat": 38.914039333333335}, {"type": "electric_scooter", "rental_uris": {"android": "https://dc.lft.to/lastmile_qr_scan", "ios": "https://dc.lft.to/lastmile_qr_scan"}, "fusion_lat": 0.0, "name": "36346217ee2445b59f5098ad58285b8e", "lon": -77.02977233333333, "is_disabled": 0, "is_reserved": 0, "fusion_lon": 0.0, "bike_id": "36346217ee2445b59f5098ad58285b8e", "lat": 38.9167895}, {"type": "electric_scooter", "rental_uris": {"android": "https://dc.lft.to/lastmile_qr_scan", "ios": "https://dc.lft.to/lastmile_qr_scan"}, "fusion_lat": 0.0, "name": "6fafcd5b357da6939a1de26c4a30f3cf", "lon": -77.01724866666666, "is_disabled": 0, "is_reserved": 0, "fusion_lon": 0.0, "bike_id": "6fafcd5b357da6939a1de26c4a30f3cf", "lat": 38.97503616666667}, {"type": "electric_scooter", "rental_uris": {"android": "https://dc.lft.to/lastmile_qr_scan", "ios": "https://dc.lft.to/lastmile_qr_scan"}, "fusion_lat": 0.0, "name": "953d038f6cb4a085b8fffbaf9965fbc9", "lon": -77.0468645, "is_disabled": 0, "is_reserved": 0, "fusion_lon": 0.0, "bike_id": "953d038f6cb4a085b8fffbaf9965fbc9", "lat": 38.921398833333335}, {"type": "electric_scooter", "rental_uris": {"android": "https://dc.lft.to/lastmile_qr_scan", "ios": "https://dc.lft.to/lastmile_qr_scan"}, "fusion_lat": 0.0, "name": "de7984766411484862e4778cf2418a84", "lon": -77.050415, "is_disabled": 0, "is_reserved": 0, "fusion_lon": 0.0, "bike_id": "de7984766411484862e4778cf2418a84", "lat": 38.923865}, {"type": "electric_scooter", "rental_uris": {"android": "https://dc.lft.to/lastmile_qr_scan", "ios": "https://dc.lft.to/lastmile_qr_scan"}, "fusion_lat": 0.0, "name": "271d98b70e71781d8c03c55ac5c9ebb1", "lon": -77.04381566666666, "is_disabled": 0, "is_reserved": 0, "fusion_lon": 0.0, "bike_id": "271d98b70e71781d8c03c55ac5c9ebb1", "lat": 38.892191}, {"type": "electric_scooter", "rental_uris": {"android": "https://dc.lft.to/lastmile_qr_scan", "ios": "https://dc.lft.to/lastmile_qr_scan"}, "fusion_lat": 0.0, "name": "9277396311f5b185aff1142262f770b4", "lon": -76.98106683333333, "is_disabled": 0, "is_reserved": 0, "fusion_lon": 0.0, "bike_id": "9277396311f5b185aff1142262f770b4", "lat": 38.9041675}, {"type": "electric_scooter", "rental_uris": {"android": "https://dc.lft.to/lastmile_qr_scan", "ios": "https://dc.lft.to/lastmile_qr_scan"}, "fusion_lat": 0.0, "name": "f58d487d1fe7f9bde6f6e311254d2396", "lon": -77.0487965, "is_disabled": 0, "is_reserved": 0, "fusion_lon": 0.0, "bike_id": "f58d487d1fe7f9bde6f6e311254d2396", "lat": 38.9062275}, {"type": "electric_scooter", "rental_uris": {"android": "https://dc.lft.to/lastmile_qr_scan", "ios": "https://dc.lft.to/lastmile_qr_scan"}, "fusion_lat": 0.0, "name": "826391d5c91da003d106cd60a9a27951", "lon": -77.03491666666666, "is_disabled": 0, "is_reserved": 0, "fusion_lon": 0.0, "bike_id": "826391d5c91da003d106cd60a9a27951", "lat": 38.9192455}, {"type": "electric_scooter", "rental_uris": {"android": "https://dc.lft.to/lastmile_qr_scan", "ios": "https://dc.lft.to/lastmile_qr_scan"}, "fusion_lat": 0.0, "name": "b71344d2fe5a5e67afe8eeb8d739ff67", "lon": -77.02577966666666, "is_disabled": 0, "is_reserved": 0, "fusion_lon": 0.0, "bike_id": "b71344d2fe5a5e67afe8eeb8d739ff67", "lat": 38.898797}, {"type": "electric_scooter", "rental_uris": {"android": "https://dc.lft.to/lastmile_qr_scan", "ios": "https://dc.lft.to/lastmile_qr_scan"}, "fusion_lat": 0.0, "name": "a18a86f278efb9daffb528df96bd4d8f", "lon": -76.99779, "is_disabled": 0, "is_reserved": 0, "fusion_lon": 0.0, "bike_id": "a18a86f278efb9daffb528df96bd4d8f", "lat": 38.844305}, {"type": "electric_scooter", "rental_uris": {"android": "https://dc.lft.to/lastmile_qr_scan", "ios": "https://dc.lft.to/lastmile_qr_scan"}, "fusion_lat": 0.0, "name": "b79beca2e8c270f2b954f13ba7744d9a", "lon": -77.06330883333334, "is_disabled": 0, "is_reserved": 0, "fusion_lon": 0.0, "bike_id": "b79beca2e8c270f2b954f13ba7744d9a", "lat": 38.907644166666664}, {"type": "electric_scooter", "rental_uris": {"android": "https://dc.lft.to/lastmile_qr_scan", "ios": "https://dc.lft.to/lastmile_qr_scan"}, "fusion_lat": 0.0, "name": "bc38f54570f06579d702a049ada60a1c", "lon": -77.01765633333333, "is_disabled": 0, "is_reserved": 0, "fusion_lon": 0.0, "bike_id": "bc38f54570f06579d702a049ada60a1c", "lat": 38.87692}, {"type": "electric_scooter", "rental_uris": {"android": "https://dc.lft.to/lastmile_qr_scan", "ios": "https://dc.lft.to/lastmile_qr_scan"}, "fusion_lat": 0.0, "name": "2e24e42e5111616c150367aa8fcd1495", "lon": -76.99880883333333, "is_disabled": 0, "is_reserved": 0, "fusion_lon": 0.0, "bike_id": "2e24e42e5111616c150367aa8fcd1495", "lat": 38.920578666666664}, {"type": "electric_scooter", "rental_uris": {"android": "https://dc.lft.to/lastmile_qr_scan", "ios": "https://dc.lft.to/lastmile_qr_scan"}, "fusion_lat": 0.0, "name": "51b08bd8644cdaef000db04bfccecb76", "lon": -77.0680415, "is_disabled": 0, "is_reserved": 0, "fusion_lon": 0.0, "bike_id": "51b08bd8644cdaef000db04bfccecb76", "lat": 38.95173833333333}, {"type": "electric_scooter", "rental_uris": {"android": "https://dc.lft.to/lastmile_qr_scan", "ios": "https://dc.lft.to/lastmile_qr_scan"}, "fusion_lat": 0.0, "name": "be000027e98fa599dedc3e1ab4ae6fe6", "lon": -77.0095135, "is_disabled": 0, "is_reserved": 0, "fusion_lon": 0.0, "bike_id": "be000027e98fa599dedc3e1ab4ae6fe6", "lat": 38.897452}, {"type": "electric_scooter", "rental_uris": {"android": "https://dc.lft.to/lastmile_qr_scan", "ios": "https://dc.lft.to/lastmile_qr_scan"}, "fusion_lat": 0.0, "name": "b1d970b61eadfe144bc98f191fe2307f", "lon": -77.00380666666666, "is_disabled": 0, "is_reserved": 0, "fusion_lon": 0.0, "bike_id": "b1d970b61eadfe144bc98f191fe2307f", "lat": 38.907709}, {"type": "electric_scooter", "rental_uris": {"android": "https://dc.lft.to/lastmile_qr_scan", "ios": "https://dc.lft.to/lastmile_qr_scan"}, "fusion_lat": 0.0, "name": "0c7922f02dc9b70530eeb08c10b13f78", "lon": -77.04309433333333, "is_disabled": 0, "is_reserved": 0, "fusion_lon": 0.0, "bike_id": "0c7922f02dc9b70530eeb08c10b13f78", "lat": 38.923745}, {"type": "electric_bike", "rental_uris": {"android": "https://dc.lft.to/lastmile_qr_scan", "ios": "https://dc.lft.to/lastmile_qr_scan"}, "fusion_lat": 0.0, "name": "a68b78c8d02477b1af62f0a6c6adbaab", "lon": -77.0028855, "is_disabled": 0, "is_reserved": 0, "fusion_lon": 0.0, "bike_id": "a68b78c8d02477b1af62f0a6c6adbaab", "lat": 38.957023}, {"type": "electric_scooter", "rental_uris": {"android": "https://dc.lft.to/lastmile_qr_scan", "ios": "https://dc.lft.to/lastmile_qr_scan"}, "fusion_lat": 0.0, "name": "86c8ac60039eb3b974850d628c6a178a", "lon": -77.04675183333333, "is_disabled": 0, "is_reserved": 0, "fusion_lon": 0.0, "bike_id": "86c8ac60039eb3b974850d628c6a178a", "lat": 38.90165233333333}, {"type": "electric_scooter", "rental_uris": {"android": "https://dc.lft.to/lastmile_qr_scan", "ios": "https://dc.lft.to/lastmile_qr_scan"}, "fusion_lat": 0.0, "name": "77b3724dcd60eb6381a87e3e0833faf8", "lon": -77.02854616666667, "is_disabled": 0, "is_reserved": 0, "fusion_lon": 0.0, "bike_id": "77b3724dcd60eb6381a87e3e0833faf8", "lat": 38.9224575}, {"type": "electric_scooter", "rental_uris": {"android": "https://dc.lft.to/lastmile_qr_scan", "ios": "https://dc.lft.to/lastmile_qr_scan"}, "fusion_lat": 0.0, "name": "ca9f1a2a87c5e0e5339b5b64ac405684", "lon": -77.04152033333334, "is_disabled": 0, "is_reserved": 0, "fusion_lon": 0.0, "bike_id": "ca9f1a2a87c5e0e5339b5b64ac405684", "lat": 38.89234316666667}, {"type": "electric_scooter", "rental_uris": {"android": "https://dc.lft.to/lastmile_qr_scan", "ios": "https://dc.lft.to/lastmile_qr_scan"}, "fusion_lat": 0.0, "name": "5f84e9e802f124f6f37dbba3edd733b1", "lon": -77.05234583333333, "is_disabled": 0, "is_reserved": 0, "fusion_lon": 0.0, "bike_id": "5f84e9e802f124f6f37dbba3edd733b1", "lat": 38.900131}, {"type": "electric_scooter", "rental_uris": {"android": "https://dc.lft.to/lastmile_qr_scan", "ios": "https://dc.lft.to/lastmile_qr_scan"}, "fusion_lat": 0.0, "name": "b1eb90a98211309272f3c5166db11466", "lon": -77.04202583333333, "is_disabled": 0, "is_reserved": 0, "fusion_lon": 0.0, "bike_id": "b1eb90a98211309272f3c5166db11466", "lat": 38.9197815}, {"type": "electric_scooter", "rental_uris": {"android": "https://dc.lft.to/lastmile_qr_scan", "ios": "https://dc.lft.to/lastmile_qr_scan"}, "fusion_lat": 0.0, "name": "d4083b83d3c2880b4c44d907450e576c", "lon": -77.04357983333334, "is_disabled": 0, "is_reserved": 0, "fusion_lon": 0.0, "bike_id": "d4083b83d3c2880b4c44d907450e576c", "lat": 38.9057805}, {"type": "electric_scooter", "rental_uris": {"android": "https://dc.lft.to/lastmile_qr_scan", "ios": "https://dc.lft.to/lastmile_qr_scan"}, "fusion_lat": 0.0, "name": "0d08f1f9447ad84f491060c8aa007e6e", "lon": -77.016107, "is_disabled": 0, "is_reserved": 0, "fusion_lon": 0.0, "bike_id": "0d08f1f9447ad84f491060c8aa007e6e", "lat": 38.88345916666667}, {"type": "electric_scooter", "rental_uris": {"android": "https://dc.lft.to/lastmile_qr_scan", "ios": "https://dc.lft.to/lastmile_qr_scan"}, "fusion_lat": 0.0, "name": "656a68716d1e9dadb2557b619f28995c", "lon": -77.03128666666667, "is_disabled": 0, "is_reserved": 0, "fusion_lon": 0.0, "bike_id": "656a68716d1e9dadb2557b619f28995c", "lat": 38.892254}, {"type": "electric_scooter", "rental_uris": {"android": "https://dc.lft.to/lastmile_qr_scan", "ios": "https://dc.lft.to/lastmile_qr_scan"}, "fusion_lat": 0.0, "name": "2096d3c2b1075bce2fe152da1cfb10f0", "lon": -77.027791, "is_disabled": 0, "is_reserved": 0, "fusion_lon": 0.0, "bike_id": "2096d3c2b1075bce2fe152da1cfb10f0", "lat": 38.92685083333333}, {"type": "electric_scooter", "rental_uris": {"android": "https://dc.lft.to/lastmile_qr_scan", "ios": "https://dc.lft.to/lastmile_qr_scan"}, "fusion_lat": 0.0, "name": "c6bb4ab68136acc39d517a9d80fb109e", "lon": -77.05879783333333, "is_disabled": 0, "is_reserved": 0, "fusion_lon": 0.0, "bike_id": "c6bb4ab68136acc39d517a9d80fb109e", "lat": 38.94239683333333}, {"type": "electric_scooter", "rental_uris": {"android": "https://dc.lft.to/lastmile_qr_scan", "ios": "https://dc.lft.to/lastmile_qr_scan"}, "fusion_lat": 0.0, "name": "70b8e578db9c562a0bb393cdf04f04d0", "lon": -77.04149266666667, "is_disabled": 0, "is_reserved": 0, "fusion_lon": 0.0, "bike_id": "70b8e578db9c562a0bb393cdf04f04d0", "lat": 38.91750916666667}, {"type": "electric_scooter", "rental_uris": {"android": "https://dc.lft.to/lastmile_qr_scan", "ios": "https://dc.lft.to/lastmile_qr_scan"}, "fusion_lat": 0.0, "name": "50b56d5afe5e4b613a9427dae93733d6", "lon": -77.07345516666666, "is_disabled": 0, "is_reserved": 0, "fusion_lon": 0.0, "bike_id": "50b56d5afe5e4b613a9427dae93733d6", "lat": 38.9109745}, {"type": "electric_scooter", "rental_uris": {"android": "https://dc.lft.to/lastmile_qr_scan", "ios": "https://dc.lft.to/lastmile_qr_scan"}, "fusion_lat": 0.0, "name": "a1e92306f2e1556b3242e939d9c55391", "lon": -77.04195333333334, "is_disabled": 0, "is_reserved": 0, "fusion_lon": 0.0, "bike_id": "a1e92306f2e1556b3242e939d9c55391", "lat": 38.91697}, {"type": "electric_scooter", "rental_uris": {"android": "https://dc.lft.to/lastmile_qr_scan", "ios": "https://dc.lft.to/lastmile_qr_scan"}, "fusion_lat": 0.0, "name": "9bdd2278e0dc41bf84b792d4f15bfc06", "lon": -77.0328215, "is_disabled": 0, "is_reserved": 0, "fusion_lon": 0.0, "bike_id": "9bdd2278e0dc41bf84b792d4f15bfc06", "lat": 38.93206833333333}, {"type": "electric_scooter", "rental_uris": {"android": "https://dc.lft.to/lastmile_qr_scan", "ios": "https://dc.lft.to/lastmile_qr_scan"}, "fusion_lat": 0.0, "name": "94957f96a97ebc4e941650c25aa267bc", "lon": -77.01745766666667, "is_disabled": 0, "is_reserved": 0, "fusion_lon": 0.0, "bike_id": "94957f96a97ebc4e941650c25aa267bc", "lat": 38.872702333333336}, {"type": "electric_scooter", "rental_uris": {"android": "https://dc.lft.to/lastmile_qr_scan", "ios": "https://dc.lft.to/lastmile_qr_scan"}, "fusion_lat": 0.0, "name": "c7e682d06c0541705f4764b9ae7a7c9a", "lon": -77.04032783333334, "is_disabled": 0, "is_reserved": 0, "fusion_lon": 0.0, "bike_id": "c7e682d06c0541705f4764b9ae7a7c9a", "lat": 38.924476166666665}, {"type": "electric_scooter", "rental_uris": {"android": "https://dc.lft.to/lastmile_qr_scan", "ios": "https://dc.lft.to/lastmile_qr_scan"}, "fusion_lat": 0.0, "name": "83c9cded0fbce32ca11fe006f0c4e979", "lon": -76.98206733333333, "is_disabled": 0, "is_reserved": 0, "fusion_lon": 0.0, "bike_id": "83c9cded0fbce32ca11fe006f0c4e979", "lat": 38.866199333333334}, {"type": "electric_scooter", "rental_uris": {"android": "https://dc.lft.to/lastmile_qr_scan", "ios": "https://dc.lft.to/lastmile_qr_scan"}, "fusion_lat": 0.0, "name": "801e80cb9f31b0b3368176adb1cb8479", "lon": -77.00786316666667, "is_disabled": 0, "is_reserved": 0, "fusion_lon": 0.0, "bike_id": "801e80cb9f31b0b3368176adb1cb8479", "lat": 38.8790985}, {"type": "electric_scooter", "rental_uris": {"android": "https://dc.lft.to/lastmile_qr_scan", "ios": "https://dc.lft.to/lastmile_qr_scan"}, "fusion_lat": 0.0, "name": "e3f1a8d4b71dd8637a7d6f1ad154d397", "lon": -77.029794, "is_disabled": 0, "is_reserved": 0, "fusion_lon": 0.0, "bike_id": "e3f1a8d4b71dd8637a7d6f1ad154d397", "lat": 38.910585833333336}, {"type": "electric_scooter", "rental_uris": {"android": "https://dc.lft.to/lastmile_qr_scan", "ios": "https://dc.lft.to/lastmile_qr_scan"}, "fusion_lat": 0.0, "name": "ecaae500f2121c8b5e2d064a59969cae", "lon": -77.0613335, "is_disabled": 0, "is_reserved": 0, "fusion_lon": 0.0, "bike_id": "ecaae500f2121c8b5e2d064a59969cae", "lat": 38.940867833333336}, {"type": "electric_scooter", "rental_uris": {"android": "https://dc.lft.to/lastmile_qr_scan", "ios": "https://dc.lft.to/lastmile_qr_scan"}, "fusion_lat": 0.0, "name": "62ec367d9c901fc201c425ab72defad5", "lon": -76.98138116666667, "is_disabled": 0, "is_reserved": 0, "fusion_lon": 0.0, "bike_id": "62ec367d9c901fc201c425ab72defad5", "lat": 38.90566416666667}, {"type": "electric_scooter", "rental_uris": {"android": "https://dc.lft.to/lastmile_qr_scan", "ios": "https://dc.lft.to/lastmile_qr_scan"}, "fusion_lat": 0.0, "name": "6226f1652be0872790c650da3797ddc9", "lon": -77.04247383333333, "is_disabled": 0, "is_reserved": 0, "fusion_lon": 0.0, "bike_id": "6226f1652be0872790c650da3797ddc9", "lat": 38.910637}, {"type": "electric_bike", "rental_uris": {"android": "https://dc.lft.to/lastmile_qr_scan", "ios": "https://dc.lft.to/lastmile_qr_scan"}, "fusion_lat": 0.0, "name": "d754cd81f22fcb0e12a2718373e9a0dd", "lon": -76.96061633333333, "is_disabled": 0, "is_reserved": 0, "fusion_lon": 0.0, "bike_id": "d754cd81f22fcb0e12a2718373e9a0dd", "lat": 38.8840605}, {"type": "electric_scooter", "rental_uris": {"android": "https://dc.lft.to/lastmile_qr_scan", "ios": "https://dc.lft.to/lastmile_qr_scan"}, "fusion_lat": 0.0, "name": "039ab1b111a06dd12ce4fcce8f1f9480", "lon": -77.033379, "is_disabled": 0, "is_reserved": 0, "fusion_lon": 0.0, "bike_id": "039ab1b111a06dd12ce4fcce8f1f9480", "lat": 38.93639016666667}, {"type": "electric_scooter", "rental_uris": {"android": "https://dc.lft.to/lastmile_qr_scan", "ios": "https://dc.lft.to/lastmile_qr_scan"}, "fusion_lat": 0.0, "name": "c01a46c34e40c814c01402aa304f2e97", "lon": -77.03429333333334, "is_disabled": 0, "is_reserved": 0, "fusion_lon": 0.0, "bike_id": "c01a46c34e40c814c01402aa304f2e97", "lat": 38.912662}, {"type": "electric_scooter", "rental_uris": {"android": "https://dc.lft.to/lastmile_qr_scan", "ios": "https://dc.lft.to/lastmile_qr_scan"}, "fusion_lat": 0.0, "name": "af1464d7ce5269c54736ca3d3ba743b5", "lon": -76.99477616666667, "is_disabled": 0, "is_reserved": 0, "fusion_lon": 0.0, "bike_id": "af1464d7ce5269c54736ca3d3ba743b5", "lat": 38.8621545}, {"type": "electric_scooter", "rental_uris": {"android": "https://dc.lft.to/lastmile_qr_scan", "ios": "https://dc.lft.to/lastmile_qr_scan"}, "fusion_lat": 0.0, "name": "e7838515b6b2b9089c0d64e1179e2f7c", "lon": -77.04385883333333, "is_disabled": 0, "is_reserved": 0, "fusion_lon": 0.0, "bike_id": "e7838515b6b2b9089c0d64e1179e2f7c", "lat": 38.909137666666666}, {"type": "electric_scooter", "rental_uris": {"android": "https://dc.lft.to/lastmile_qr_scan", "ios": "https://dc.lft.to/lastmile_qr_scan"}, "fusion_lat": 0.0, "name": "3fbade8f0dd32f3407f5a9ecd6f3a8ff", "lon": -76.9872555, "is_disabled": 0, "is_reserved": 0, "fusion_lon": 0.0, "bike_id": "3fbade8f0dd32f3407f5a9ecd6f3a8ff", "lat": 38.867099833333334}, {"type": "electric_scooter", "rental_uris": {"android": "https://dc.lft.to/lastmile_qr_scan", "ios": "https://dc.lft.to/lastmile_qr_scan"}, "fusion_lat": 0.0, "name": "47f56f40b9233559a2d63e8e42c53c5c", "lon": -76.99332066666666, "is_disabled": 0, "is_reserved": 0, "fusion_lon": 0.0, "bike_id": "47f56f40b9233559a2d63e8e42c53c5c", "lat": 38.87144083333333}, {"type": "electric_scooter", "rental_uris": {"android": "https://dc.lft.to/lastmile_qr_scan", "ios": "https://dc.lft.to/lastmile_qr_scan"}, "fusion_lat": 0.0, "name": "ed1dd7c0bcf5ebcc9c9f6d148e911005", "lon": -76.94889483333333, "is_disabled": 0, "is_reserved": 0, "fusion_lon": 0.0, "bike_id": "ed1dd7c0bcf5ebcc9c9f6d148e911005", "lat": 38.895118833333335}, {"type": "electric_bike", "rental_uris": {"android": "https://dc.lft.to/lastmile_qr_scan", "ios": "https://dc.lft.to/lastmile_qr_scan"}, "fusion_lat": 0.0, "name": "9dd77cf7f3ed2da4a207b005c6e08dad", "lon": -77.01050616666667, "is_disabled": 0, "is_reserved": 0, "fusion_lon": 0.0, "bike_id": "9dd77cf7f3ed2da4a207b005c6e08dad", "lat": 38.8776705}, {"type": "electric_bike", "rental_uris": {"android": "https://dc.lft.to/lastmile_qr_scan", "ios": "https://dc.lft.to/lastmile_qr_scan"}, "fusion_lat": 0.0, "name": "27912f9a7089807ff0f0671d7e817099", "lon": -76.9886075, "is_disabled": 0, "is_reserved": 0, "fusion_lon": 0.0, "bike_id": "27912f9a7089807ff0f0671d7e817099", "lat": 38.95485583333333}, {"type": "electric_scooter", "rental_uris": {"android": "https://dc.lft.to/lastmile_qr_scan", "ios": "https://dc.lft.to/lastmile_qr_scan"}, "fusion_lat": 0.0, "name": "968c68801edcfd1c5a62c07750ad8837", "lon": -76.99607716666667, "is_disabled": 0, "is_reserved": 0, "fusion_lon": 0.0, "bike_id": "968c68801edcfd1c5a62c07750ad8837", "lat": 38.90964316666667}, {"type": "electric_scooter", "rental_uris": {"android": "https://dc.lft.to/lastmile_qr_scan", "ios": "https://dc.lft.to/lastmile_qr_scan"}, "fusion_lat": 0.0, "name": "0ae84eaca7ccf9901cd3719e2a257b3a", "lon": -77.026566, "is_disabled": 0, "is_reserved": 0, "fusion_lon": 0.0, "bike_id": "0ae84eaca7ccf9901cd3719e2a257b3a", "lat": 38.892116}, {"type": "electric_scooter", "rental_uris": {"android": "https://dc.lft.to/lastmile_qr_scan", "ios": "https://dc.lft.to/lastmile_qr_scan"}, "fusion_lat": 0.0, "name": "3d3d61e216458e265d63970827c22a42", "lon": -77.00634816666667, "is_disabled": 0, "is_reserved": 0, "fusion_lon": 0.0, "bike_id": "3d3d61e216458e265d63970827c22a42", "lat": 38.95599133333333}, {"type": "electric_scooter", "rental_uris": {"android": "https://dc.lft.to/lastmile_qr_scan", "ios": "https://dc.lft.to/lastmile_qr_scan"}, "fusion_lat": 0.0, "name": "19d10317a5a2680861e8d58adb8c7da9", "lon": -77.02767616666667, "is_disabled": 0, "is_reserved": 0, "fusion_lon": 0.0, "bike_id": "19d10317a5a2680861e8d58adb8c7da9", "lat": 38.897301}, {"type": "electric_scooter", "rental_uris": {"android": "https://dc.lft.to/lastmile_qr_scan", "ios": "https://dc.lft.to/lastmile_qr_scan"}, "fusion_lat": 0.0, "name": "24677f4df03b8ec8f914fb22bbca795f", "lon": -77.04402533333334, "is_disabled": 0, "is_reserved": 0, "fusion_lon": 0.0, "bike_id": "24677f4df03b8ec8f914fb22bbca795f", "lat": 38.8962565}, {"type": "electric_scooter", "rental_uris": {"android": "https://dc.lft.to/lastmile_qr_scan", "ios": "https://dc.lft.to/lastmile_qr_scan"}, "fusion_lat": 0.0, "name": "30b9ca0014d0c2d9a1d179044dbf0142", "lon": -77.03861533333334, "is_disabled": 0, "is_reserved": 0, "fusion_lon": 0.0, "bike_id": "30b9ca0014d0c2d9a1d179044dbf0142", "lat": 38.90364733333333}, {"type": "electric_scooter", "rental_uris": {"android": "https://dc.lft.to/lastmile_qr_scan", "ios": "https://dc.lft.to/lastmile_qr_scan"}, "fusion_lat": 0.0, "name": "aa9f34a18e0ca9a12010894c7bffb8f7", "lon": -77.04563866666666, "is_disabled": 0, "is_reserved": 0, "fusion_lon": 0.0, "bike_id": "aa9f34a18e0ca9a12010894c7bffb8f7", "lat": 38.89606783333333}, {"type": "electric_scooter", "rental_uris": {"android": "https://dc.lft.to/lastmile_qr_scan", "ios": "https://dc.lft.to/lastmile_qr_scan"}, "fusion_lat": 0.0, "name": "1456cc948db2f478a1dd3718a23081c0", "lon": -77.02852716666666, "is_disabled": 0, "is_reserved": 0, "fusion_lon": 0.0, "bike_id": "1456cc948db2f478a1dd3718a23081c0", "lat": 38.933452}, {"type": "electric_scooter", "rental_uris": {"android": "https://dc.lft.to/lastmile_qr_scan", "ios": "https://dc.lft.to/lastmile_qr_scan"}, "fusion_lat": 0.0, "name": "e69f3bc738735d5a621dc12e189b36e3", "lon": -77.03870283333333, "is_disabled": 0, "is_reserved": 0, "fusion_lon": 0.0, "bike_id": "e69f3bc738735d5a621dc12e189b36e3", "lat": 38.92322766666667}, {"type": "electric_scooter", "rental_uris": {"android": "https://dc.lft.to/lastmile_qr_scan", "ios": "https://dc.lft.to/lastmile_qr_scan"}, "fusion_lat": 0.0, "name": "276f8348db821d7a612f0a814f6cdcca", "lon": -76.99530816666666, "is_disabled": 0, "is_reserved": 0, "fusion_lon": 0.0, "bike_id": "276f8348db821d7a612f0a814f6cdcca", "lat": 38.88373083333333}, {"type": "electric_scooter", "rental_uris": {"android": "https://dc.lft.to/lastmile_qr_scan", "ios": "https://dc.lft.to/lastmile_qr_scan"}, "fusion_lat": 0.0, "name": "62637cd942b63e0232d3175058fbf73e", "lon": -77.011002, "is_disabled": 0, "is_reserved": 0, "fusion_lon": 0.0, "bike_id": "62637cd942b63e0232d3175058fbf73e", "lat": 38.90368683333333}, {"type": "electric_scooter", "rental_uris": {"android": "https://dc.lft.to/lastmile_qr_scan", "ios": "https://dc.lft.to/lastmile_qr_scan"}, "fusion_lat": 0.0, "name": "68a4a2d3b5fa927975ace5d710fb5022", "lon": -77.01303333333334, "is_disabled": 0, "is_reserved": 0, "fusion_lon": 0.0, "bike_id": "68a4a2d3b5fa927975ace5d710fb5022", "lat": 38.92999583333334}, {"type": "electric_scooter", "rental_uris": {"android": "https://dc.lft.to/lastmile_qr_scan", "ios": "https://dc.lft.to/lastmile_qr_scan"}, "fusion_lat": 0.0, "name": "07fd456f47cd152b1b410f403d2e4f56", "lon": -77.022485, "is_disabled": 0, "is_reserved": 0, "fusion_lon": 0.0, "bike_id": "07fd456f47cd152b1b410f403d2e4f56", "lat": 38.9127275}, {"type": "electric_scooter", "rental_uris": {"android": "https://dc.lft.to/lastmile_qr_scan", "ios": "https://dc.lft.to/lastmile_qr_scan"}, "fusion_lat": 0.0, "name": "0b50cefba13949072fcf2f64655a8715", "lon": -77.03590033333333, "is_disabled": 0, "is_reserved": 0, "fusion_lon": 0.0, "bike_id": "0b50cefba13949072fcf2f64655a8715", "lat": 38.91703666666667}, {"type": "electric_scooter", "rental_uris": {"android": "https://dc.lft.to/lastmile_qr_scan", "ios": "https://dc.lft.to/lastmile_qr_scan"}, "fusion_lat": 0.0, "name": "c81ae5ae05446758014c46ce1efbe150", "lon": -77.0466755, "is_disabled": 0, "is_reserved": 0, "fusion_lon": 0.0, "bike_id": "c81ae5ae05446758014c46ce1efbe150", "lat": 38.904242833333335}, {"type": "electric_scooter", "rental_uris": {"android": "https://dc.lft.to/lastmile_qr_scan", "ios": "https://dc.lft.to/lastmile_qr_scan"}, "fusion_lat": 0.0, "name": "563709b640ea2b610a524bdb10d965d8", "lon": -77.03151016666666, "is_disabled": 0, "is_reserved": 0, "fusion_lon": 0.0, "bike_id": "563709b640ea2b610a524bdb10d965d8", "lat": 38.90627633333333}, {"type": "electric_scooter", "rental_uris": {"android": "https://dc.lft.to/lastmile_qr_scan", "ios": "https://dc.lft.to/lastmile_qr_scan"}, "fusion_lat": 0.0, "name": "d696e63e29f0cfaa660f7eaf7b6c5190", "lon": -77.00589316666667, "is_disabled": 0, "is_reserved": 0, "fusion_lon": 0.0, "bike_id": "d696e63e29f0cfaa660f7eaf7b6c5190", "lat": 38.905546}, {"type": "electric_bike", "rental_uris": {"android": "https://dc.lft.to/lastmile_qr_scan", "ios": "https://dc.lft.to/lastmile_qr_scan"}, "fusion_lat": 0.0, "name": "6c4204475b161be946e7605688205fc9", "lon": -77.09065133333333, "is_disabled": 0, "is_reserved": 0, "fusion_lon": 0.0, "bike_id": "6c4204475b161be946e7605688205fc9", "lat": 38.862592166666666}, {"type": "electric_scooter", "rental_uris": {"android": "https://dc.lft.to/lastmile_qr_scan", "ios": "https://dc.lft.to/lastmile_qr_scan"}, "fusion_lat": 0.0, "name": "1a47ab9fdefcf6eaf14c9cff60dc71b0", "lon": -76.9438345, "is_disabled": 0, "is_reserved": 0, "fusion_lon": 0.0, "bike_id": "1a47ab9fdefcf6eaf14c9cff60dc71b0", "lat": 38.893270333333334}, {"type": "electric_scooter", "rental_uris": {"android": "https://dc.lft.to/lastmile_qr_scan", "ios": "https://dc.lft.to/lastmile_qr_scan"}, "fusion_lat": 0.0, "name": "c645d53615f53ae3cd4005931f522d3d", "lon": -77.03466183333333, "is_disabled": 0, "is_reserved": 0, "fusion_lon": 0.0, "bike_id": "c645d53615f53ae3cd4005931f522d3d", "lat": 38.918720666666665}, {"type": "electric_scooter", "rental_uris": {"android": "https://dc.lft.to/lastmile_qr_scan", "ios": "https://dc.lft.to/lastmile_qr_scan"}, "fusion_lat": 0.0, "name": "b709852f8652bbcc2100a71fc8d9496f", "lon": -77.02427966666667, "is_disabled": 0, "is_reserved": 0, "fusion_lon": 0.0, "bike_id": "b709852f8652bbcc2100a71fc8d9496f", "lat": 38.937121}, {"type": "electric_scooter", "rental_uris": {"android": "https://dc.lft.to/lastmile_qr_scan", "ios": "https://dc.lft.to/lastmile_qr_scan"}, "fusion_lat": 0.0, "name": "2e92e73588877cda6b03bf37d1a22e93", "lon": -76.9862415, "is_disabled": 0, "is_reserved": 0, "fusion_lon": 0.0, "bike_id": "2e92e73588877cda6b03bf37d1a22e93", "lat": 38.901159}, {"type": "electric_bike", "rental_uris": {"android": "https://dc.lft.to/lastmile_qr_scan", "ios": "https://dc.lft.to/lastmile_qr_scan"}, "fusion_lat": 0.0, "name": "d590c0747c347b7fdbe583c753beeb62", "lon": -76.9782545, "is_disabled": 0, "is_reserved": 0, "fusion_lon": 0.0, "bike_id": "d590c0747c347b7fdbe583c753beeb62", "lat": 38.843728}, {"type": "electric_scooter", "rental_uris": {"android": "https://dc.lft.to/lastmile_qr_scan", "ios": "https://dc.lft.to/lastmile_qr_scan"}, "fusion_lat": 0.0, "name": "c3828a2e099227c2149b3712a7c41d99", "lon": -76.997782, "is_disabled": 0, "is_reserved": 0, "fusion_lon": 0.0, "bike_id": "c3828a2e099227c2149b3712a7c41d99", "lat": 38.844283833333336}, {"type": "electric_scooter", "rental_uris": {"android": "https://dc.lft.to/lastmile_qr_scan", "ios": "https://dc.lft.to/lastmile_qr_scan"}, "fusion_lat": 0.0, "name": "b1336393d153762fc73ba481a2eaf874", "lon": -77.032339, "is_disabled": 0, "is_reserved": 0, "fusion_lon": 0.0, "bike_id": "b1336393d153762fc73ba481a2eaf874", "lat": 38.91556933333333}, {"type": "electric_scooter", "rental_uris": {"android": "https://dc.lft.to/lastmile_qr_scan", "ios": "https://dc.lft.to/lastmile_qr_scan"}, "fusion_lat": 0.0, "name": "38389fe17360a7f06550db997c776007", "lon": -76.97423783333333, "is_disabled": 0, "is_reserved": 0, "fusion_lon": 0.0, "bike_id": "38389fe17360a7f06550db997c776007", "lat": 38.9040615}, {"type": "electric_scooter", "rental_uris": {"android": "https://dc.lft.to/lastmile_qr_scan", "ios": "https://dc.lft.to/lastmile_qr_scan"}, "fusion_lat": 0.0, "name": "5512f176db9a11d3fc7989e57c7bbd0d", "lon": -77.04009783333333, "is_disabled": 0, "is_reserved": 0, "fusion_lon": 0.0, "bike_id": "5512f176db9a11d3fc7989e57c7bbd0d", "lat": 38.915653666666664}, {"type": "electric_scooter", "rental_uris": {"android": "https://dc.lft.to/lastmile_qr_scan", "ios": "https://dc.lft.to/lastmile_qr_scan"}, "fusion_lat": 0.0, "name": "e0bc22fd48a28e22b47df31f2da52afa", "lon": -77.0396975, "is_disabled": 0, "is_reserved": 0, "fusion_lon": 0.0, "bike_id": "e0bc22fd48a28e22b47df31f2da52afa", "lat": 38.8919805}, {"type": "electric_scooter", "rental_uris": {"android": "https://dc.lft.to/lastmile_qr_scan", "ios": "https://dc.lft.to/lastmile_qr_scan"}, "fusion_lat": 0.0, "name": "924bbc1bd8a51da97405e52d474d1904", "lon": -76.98843166666667, "is_disabled": 0, "is_reserved": 0, "fusion_lon": 0.0, "bike_id": "924bbc1bd8a51da97405e52d474d1904", "lat": 38.90038966666667}, {"type": "electric_scooter", "rental_uris": {"android": "https://dc.lft.to/lastmile_qr_scan", "ios": "https://dc.lft.to/lastmile_qr_scan"}, "fusion_lat": 0.0, "name": "61dd1abd974b2cd956dd31d4f52caa5d", "lon": -77.04091333333334, "is_disabled": 0, "is_reserved": 0, "fusion_lon": 0.0, "bike_id": "61dd1abd974b2cd956dd31d4f52caa5d", "lat": 38.9202075}, {"type": "electric_scooter", "rental_uris": {"android": "https://dc.lft.to/lastmile_qr_scan", "ios": "https://dc.lft.to/lastmile_qr_scan"}, "fusion_lat": 0.0, "name": "e6a7767ec4f4c1d9c1f7bd8c8af810df", "lon": -77.00352466666666, "is_disabled": 0, "is_reserved": 0, "fusion_lon": 0.0, "bike_id": "e6a7767ec4f4c1d9c1f7bd8c8af810df", "lat": 38.89521416666667}, {"type": "electric_scooter", "rental_uris": {"android": "https://dc.lft.to/lastmile_qr_scan", "ios": "https://dc.lft.to/lastmile_qr_scan"}, "fusion_lat": 0.0, "name": "e4e69cfab84d61e9ac7f5e4ee51b3b53", "lon": -77.03266266666667, "is_disabled": 0, "is_reserved": 0, "fusion_lon": 0.0, "bike_id": "e4e69cfab84d61e9ac7f5e4ee51b3b53", "lat": 38.938856333333334}, {"type": "electric_scooter", "rental_uris": {"android": "https://dc.lft.to/lastmile_qr_scan", "ios": "https://dc.lft.to/lastmile_qr_scan"}, "fusion_lat": 0.0, "name": "843f6a8a4916ec1607cd5b249166968e", "lon": -77.047292, "is_disabled": 0, "is_reserved": 0, "fusion_lon": 0.0, "bike_id": "843f6a8a4916ec1607cd5b249166968e", "lat": 38.90965633333333}, {"type": "electric_scooter", "rental_uris": {"android": "https://dc.lft.to/lastmile_qr_scan", "ios": "https://dc.lft.to/lastmile_qr_scan"}, "fusion_lat": 0.0, "name": "71631cfcebfc53b0df83f85155f36f8a", "lon": -76.997699, "is_disabled": 0, "is_reserved": 0, "fusion_lon": 0.0, "bike_id": "71631cfcebfc53b0df83f85155f36f8a", "lat": 38.92446733333333}, {"type": "electric_scooter", "rental_uris": {"android": "https://dc.lft.to/lastmile_qr_scan", "ios": "https://dc.lft.to/lastmile_qr_scan"}, "fusion_lat": 0.0, "name": "206e6c4fcb48c84f16d940895f241f0a", "lon": -77.02227466666666, "is_disabled": 0, "is_reserved": 0, "fusion_lon": 0.0, "bike_id": "206e6c4fcb48c84f16d940895f241f0a", "lat": 38.892228}, {"type": "electric_bike", "rental_uris": {"android": "https://dc.lft.to/lastmile_qr_scan", "ios": "https://dc.lft.to/lastmile_qr_scan"}, "fusion_lat": 0.0, "name": "21596b2bf580de6ac11a432619841974", "lon": -76.97746783333334, "is_disabled": 0, "is_reserved": 0, "fusion_lon": 0.0, "bike_id": "21596b2bf580de6ac11a432619841974", "lat": 38.864602}, {"type": "electric_scooter", "rental_uris": {"android": "https://dc.lft.to/lastmile_qr_scan", "ios": "https://dc.lft.to/lastmile_qr_scan"}, "fusion_lat": 0.0, "name": "5cc1e355a33101e8eb9c1983c105d51e", "lon": -77.061142, "is_disabled": 0, "is_reserved": 0, "fusion_lon": 0.0, "bike_id": "5cc1e355a33101e8eb9c1983c105d51e", "lat": 38.904407666666664}, {"type": "electric_scooter", "rental_uris": {"android": "https://dc.lft.to/lastmile_qr_scan", "ios": "https://dc.lft.to/lastmile_qr_scan"}, "fusion_lat": 0.0, "name": "52dbdd03735f24e41f88d27a90152dbd", "lon": -77.01993366666666, "is_disabled": 0, "is_reserved": 0, "fusion_lon": 0.0, "bike_id": "52dbdd03735f24e41f88d27a90152dbd", "lat": 38.91572016666667}, {"type": "electric_bike", "rental_uris": {"android": "https://dc.lft.to/lastmile_qr_scan", "ios": "https://dc.lft.to/lastmile_qr_scan"}, "fusion_lat": 0.0, "name": "5624cdb9af8685be3222b2d13b014f1f", "lon": -77.02987116666667, "is_disabled": 0, "is_reserved": 0, "fusion_lon": 0.0, "bike_id": "5624cdb9af8685be3222b2d13b014f1f", "lat": 38.974380833333335}, {"type": "electric_scooter", "rental_uris": {"android": "https://dc.lft.to/lastmile_qr_scan", "ios": "https://dc.lft.to/lastmile_qr_scan"}, "fusion_lat": 0.0, "name": "508cf05e713f47c9a11c7c2b6b3427d3", "lon": -77.04246883333333, "is_disabled": 0, "is_reserved": 0, "fusion_lon": 0.0, "bike_id": "508cf05e713f47c9a11c7c2b6b3427d3", "lat": 38.90651283333333}, {"type": "electric_scooter", "rental_uris": {"android": "https://dc.lft.to/lastmile_qr_scan", "ios": "https://dc.lft.to/lastmile_qr_scan"}, "fusion_lat": 0.0, "name": "e94fce09678756cefacae1ea33be4b6a", "lon": -77.00930616666666, "is_disabled": 0, "is_reserved": 0, "fusion_lon": 0.0, "bike_id": "e94fce09678756cefacae1ea33be4b6a", "lat": 38.89646316666666}, {"type": "electric_scooter", "rental_uris": {"android": "https://dc.lft.to/lastmile_qr_scan", "ios": "https://dc.lft.to/lastmile_qr_scan"}, "fusion_lat": 0.0, "name": "e3394b77057e7d8800aaf56a64f55ac1", "lon": -77.00563183333334, "is_disabled": 0, "is_reserved": 0, "fusion_lon": 0.0, "bike_id": "e3394b77057e7d8800aaf56a64f55ac1", "lat": 38.905332}, {"type": "electric_scooter", "rental_uris": {"android": "https://dc.lft.to/lastmile_qr_scan", "ios": "https://dc.lft.to/lastmile_qr_scan"}, "fusion_lat": 0.0, "name": "d1c0b7f3bb7a40e598a26a251c3c13d8", "lon": -77.05617616666666, "is_disabled": 0, "is_reserved": 0, "fusion_lon": 0.0, "bike_id": "d1c0b7f3bb7a40e598a26a251c3c13d8", "lat": 38.923345833333336}, {"type": "electric_scooter", "rental_uris": {"android": "https://dc.lft.to/lastmile_qr_scan", "ios": "https://dc.lft.to/lastmile_qr_scan"}, "fusion_lat": 0.0, "name": "ae74f289eccde516061b8f5502228af5", "lon": -76.99855866666667, "is_disabled": 0, "is_reserved": 0, "fusion_lon": 0.0, "bike_id": "ae74f289eccde516061b8f5502228af5", "lat": 38.907791}, {"type": "electric_scooter", "rental_uris": {"android": "https://dc.lft.to/lastmile_qr_scan", "ios": "https://dc.lft.to/lastmile_qr_scan"}, "fusion_lat": 0.0, "name": "27fed44fff3a77bd25663d01979910d3", "lon": -77.02889733333333, "is_disabled": 0, "is_reserved": 0, "fusion_lon": 0.0, "bike_id": "27fed44fff3a77bd25663d01979910d3", "lat": 38.90313333333334}, {"type": "electric_scooter", "rental_uris": {"android": "https://dc.lft.to/lastmile_qr_scan", "ios": "https://dc.lft.to/lastmile_qr_scan"}, "fusion_lat": 0.0, "name": "08582e66ed1fed8125f2ffd5c299e852", "lon": -77.01497116666667, "is_disabled": 0, "is_reserved": 0, "fusion_lon": 0.0, "bike_id": "08582e66ed1fed8125f2ffd5c299e852", "lat": 38.926792}, {"type": "electric_bike", "rental_uris": {"android": "https://dc.lft.to/lastmile_qr_scan", "ios": "https://dc.lft.to/lastmile_qr_scan"}, "fusion_lat": 0.0, "name": "89510a7cc7e3f9eb640ec6d4ab241adf", "lon": -76.99846583333333, "is_disabled": 0, "is_reserved": 0, "fusion_lon": 0.0, "bike_id": "89510a7cc7e3f9eb640ec6d4ab241adf", "lat": 38.886798}, {"type": "electric_scooter", "rental_uris": {"android": "https://dc.lft.to/lastmile_qr_scan", "ios": "https://dc.lft.to/lastmile_qr_scan"}, "fusion_lat": 0.0, "name": "0c1bb377f2f30504905d7a4b18feb346", "lon": -77.01072383333333, "is_disabled": 0, "is_reserved": 0, "fusion_lon": 0.0, "bike_id": "0c1bb377f2f30504905d7a4b18feb346", "lat": 38.9171035}, {"type": "electric_scooter", "rental_uris": {"android": "https://dc.lft.to/lastmile_qr_scan", "ios": "https://dc.lft.to/lastmile_qr_scan"}, "fusion_lat": 0.0, "name": "df8962faac3a18c9074c4107012fb62e", "lon": -77.031803, "is_disabled": 0, "is_reserved": 0, "fusion_lon": 0.0, "bike_id": "df8962faac3a18c9074c4107012fb62e", "lat": 38.9180515}, {"type": "electric_scooter", "rental_uris": {"android": "https://dc.lft.to/lastmile_qr_scan", "ios": "https://dc.lft.to/lastmile_qr_scan"}, "fusion_lat": 0.0, "name": "486dad458505a3bc5cb1e05e343f4802", "lon": -77.0466945, "is_disabled": 0, "is_reserved": 0, "fusion_lon": 0.0, "bike_id": "486dad458505a3bc5cb1e05e343f4802", "lat": 38.913464166666664}, {"type": "electric_scooter", "rental_uris": {"android": "https://dc.lft.to/lastmile_qr_scan", "ios": "https://dc.lft.to/lastmile_qr_scan"}, "fusion_lat": 0.0, "name": "b535401cab646be4b76f1b3789536fad", "lon": -77.023451, "is_disabled": 0, "is_reserved": 0, "fusion_lon": 0.0, "bike_id": "b535401cab646be4b76f1b3789536fad", "lat": 38.92254833333333}, {"type": "electric_scooter", "rental_uris": {"android": "https://dc.lft.to/lastmile_qr_scan", "ios": "https://dc.lft.to/lastmile_qr_scan"}, "fusion_lat": 0.0, "name": "6b41a5ad2d1675a55b13eeb12bfacd87", "lon": -77.0325875, "is_disabled": 0, "is_reserved": 0, "fusion_lon": 0.0, "bike_id": "6b41a5ad2d1675a55b13eeb12bfacd87", "lat": 38.928785833333336}, {"type": "electric_scooter", "rental_uris": {"android": "https://dc.lft.to/lastmile_qr_scan", "ios": "https://dc.lft.to/lastmile_qr_scan"}, "fusion_lat": 0.0, "name": "d412ce432a13114acfbc88d1f2867240", "lon": -77.042698, "is_disabled": 0, "is_reserved": 0, "fusion_lon": 0.0, "bike_id": "d412ce432a13114acfbc88d1f2867240", "lat": 38.922994833333334}, {"type": "electric_scooter", "rental_uris": {"android": "https://dc.lft.to/lastmile_qr_scan", "ios": "https://dc.lft.to/lastmile_qr_scan"}, "fusion_lat": 0.0, "name": "b341775bd99ad2e61428997ed0bfea88", "lon": -77.0430175, "is_disabled": 0, "is_reserved": 0, "fusion_lon": 0.0, "bike_id": "b341775bd99ad2e61428997ed0bfea88", "lat": 38.923349333333334}, {"type": "electric_bike", "rental_uris": {"android": "https://dc.lft.to/lastmile_qr_scan", "ios": "https://dc.lft.to/lastmile_qr_scan"}, "fusion_lat": 0.0, "name": "588c8a92ed703618350ab50fc980f8c1", "lon": -77.16238983333334, "is_disabled": 0, "is_reserved": 0, "fusion_lon": 0.0, "bike_id": "588c8a92ed703618350ab50fc980f8c1", "lat": 38.8865635}, {"type": "electric_scooter", "rental_uris": {"android": "https://dc.lft.to/lastmile_qr_scan", "ios": "https://dc.lft.to/lastmile_qr_scan"}, "fusion_lat": 0.0, "name": "490a912e3413927d5912c83569e038d1", "lon": -77.00472833333333, "is_disabled": 0, "is_reserved": 0, "fusion_lon": 0.0, "bike_id": "490a912e3413927d5912c83569e038d1", "lat": 38.895871166666666}, {"type": "electric_scooter", "rental_uris": {"android": "https://dc.lft.to/lastmile_qr_scan", "ios": "https://dc.lft.to/lastmile_qr_scan"}, "fusion_lat": 0.0, "name": "a06cfe8ce7a204b5e0b21f14d4b22c1e", "lon": -76.956501, "is_disabled": 0, "is_reserved": 0, "fusion_lon": 0.0, "bike_id": "a06cfe8ce7a204b5e0b21f14d4b22c1e", "lat": 38.8961365}, {"type": "electric_bike", "rental_uris": {"android": "https://dc.lft.to/lastmile_qr_scan", "ios": "https://dc.lft.to/lastmile_qr_scan"}, "fusion_lat": 0.0, "name": "d3401c7bf7584f3a0b790e658ee06b6a", "lon": -76.96836733333333, "is_disabled": 0, "is_reserved": 0, "fusion_lon": 0.0, "bike_id": "d3401c7bf7584f3a0b790e658ee06b6a", "lat": 38.943203}, {"type": "electric_scooter", "rental_uris": {"android": "https://dc.lft.to/lastmile_qr_scan", "ios": "https://dc.lft.to/lastmile_qr_scan"}, "fusion_lat": 0.0, "name": "90ec44b2965773c29eef246faaf4ce79", "lon": -77.027073, "is_disabled": 0, "is_reserved": 0, "fusion_lon": 0.0, "bike_id": "90ec44b2965773c29eef246faaf4ce79", "lat": 38.924724}, {"type": "electric_scooter", "rental_uris": {"android": "https://dc.lft.to/lastmile_qr_scan", "ios": "https://dc.lft.to/lastmile_qr_scan"}, "fusion_lat": 0.0, "name": "cbab1d7dcff654b74538b56a8b2c920b", "lon": -77.01808933333334, "is_disabled": 0, "is_reserved": 0, "fusion_lon": 0.0, "bike_id": "cbab1d7dcff654b74538b56a8b2c920b", "lat": 38.964835}, {"type": "electric_scooter", "rental_uris": {"android": "https://dc.lft.to/lastmile_qr_scan", "ios": "https://dc.lft.to/lastmile_qr_scan"}, "fusion_lat": 0.0, "name": "56c864248d8218eb733ccc0be8c295dc", "lon": -76.98822266666667, "is_disabled": 0, "is_reserved": 0, "fusion_lon": 0.0, "bike_id": "56c864248d8218eb733ccc0be8c295dc", "lat": 38.89078}, {"type": "electric_scooter", "rental_uris": {"android": "https://dc.lft.to/lastmile_qr_scan", "ios": "https://dc.lft.to/lastmile_qr_scan"}, "fusion_lat": 0.0, "name": "c8b46092b2ca0f45532a0e4317ebd915", "lon": -77.044779, "is_disabled": 0, "is_reserved": 0, "fusion_lon": 0.0, "bike_id": "c8b46092b2ca0f45532a0e4317ebd915", "lat": 38.91082083333333}, {"type": "electric_scooter", "rental_uris": {"android": "https://dc.lft.to/lastmile_qr_scan", "ios": "https://dc.lft.to/lastmile_qr_scan"}, "fusion_lat": 0.0, "name": "5de703e2a54088df3113e8f35b212b70", "lon": -77.04664283333334, "is_disabled": 0, "is_reserved": 0, "fusion_lon": 0.0, "bike_id": "5de703e2a54088df3113e8f35b212b70", "lat": 38.90373733333333}, {"type": "electric_scooter", "rental_uris": {"android": "https://dc.lft.to/lastmile_qr_scan", "ios": "https://dc.lft.to/lastmile_qr_scan"}, "fusion_lat": 0.0, "name": "974a77fba62a1cb2c24c834d13d304b4", "lon": -77.02303116666667, "is_disabled": 0, "is_reserved": 0, "fusion_lon": 0.0, "bike_id": "974a77fba62a1cb2c24c834d13d304b4", "lat": 38.9087305}, {"type": "electric_scooter", "rental_uris": {"android": "https://dc.lft.to/lastmile_qr_scan", "ios": "https://dc.lft.to/lastmile_qr_scan"}, "fusion_lat": 0.0, "name": "ec8369ffdd2b2a9e40efe616f8541b16", "lon": -77.01852416666667, "is_disabled": 0, "is_reserved": 0, "fusion_lon": 0.0, "bike_id": "ec8369ffdd2b2a9e40efe616f8541b16", "lat": 38.87336466666667}, {"type": "electric_scooter", "rental_uris": {"android": "https://dc.lft.to/lastmile_qr_scan", "ios": "https://dc.lft.to/lastmile_qr_scan"}, "fusion_lat": 0.0, "name": "942d83c9cf4fc16f79706c86c378c243", "lon": -77.03469216666667, "is_disabled": 0, "is_reserved": 0, "fusion_lon": 0.0, "bike_id": "942d83c9cf4fc16f79706c86c378c243", "lat": 38.91701416666667}, {"type": "electric_bike", "rental_uris": {"android": "https://dc.lft.to/lastmile_qr_scan", "ios": "https://dc.lft.to/lastmile_qr_scan"}, "fusion_lat": 0.0, "name": "2423f5f18b85d6341d119651269f6279", "lon": -76.88403566666666, "is_disabled": 0, "is_reserved": 0, "fusion_lon": 0.0, "bike_id": "2423f5f18b85d6341d119651269f6279", "lat": 38.931696}, {"type": "electric_bike", "rental_uris": {"android": "https://dc.lft.to/lastmile_qr_scan", "ios": "https://dc.lft.to/lastmile_qr_scan"}, "fusion_lat": 0.0, "name": "cedd321b041c348a650e2c788807de08", "lon": -77.04648166666666, "is_disabled": 0, "is_reserved": 0, "fusion_lon": 0.0, "bike_id": "cedd321b041c348a650e2c788807de08", "lat": 39.055013}, {"type": "electric_scooter", "rental_uris": {"android": "https://dc.lft.to/lastmile_qr_scan", "ios": "https://dc.lft.to/lastmile_qr_scan"}, "fusion_lat": 0.0, "name": "45b42fcf38db69d7a7f7265d6ae0f568", "lon": -77.04273833333333, "is_disabled": 0, "is_reserved": 0, "fusion_lon": 0.0, "bike_id": "45b42fcf38db69d7a7f7265d6ae0f568", "lat": 38.92307516666666}, {"type": "electric_scooter", "rental_uris": {"android": "https://dc.lft.to/lastmile_qr_scan", "ios": "https://dc.lft.to/lastmile_qr_scan"}, "fusion_lat": 0.0, "name": "7f6a9cd85fdfb5999403013eefd45f6c", "lon": -77.031877, "is_disabled": 0, "is_reserved": 0, "fusion_lon": 0.0, "bike_id": "7f6a9cd85fdfb5999403013eefd45f6c", "lat": 38.91742583333333}, {"type": "electric_scooter", "rental_uris": {"android": "https://dc.lft.to/lastmile_qr_scan", "ios": "https://dc.lft.to/lastmile_qr_scan"}, "fusion_lat": 0.0, "name": "240733daef2bce85a4d49190fd4aa2cd", "lon": -77.06463783333334, "is_disabled": 0, "is_reserved": 0, "fusion_lon": 0.0, "bike_id": "240733daef2bce85a4d49190fd4aa2cd", "lat": 38.92746316666667}, {"type": "electric_scooter", "rental_uris": {"android": "https://dc.lft.to/lastmile_qr_scan", "ios": "https://dc.lft.to/lastmile_qr_scan"}, "fusion_lat": 0.0, "name": "7c33ffc06226640344adc9e949712025", "lon": -76.98230683333334, "is_disabled": 0, "is_reserved": 0, "fusion_lon": 0.0, "bike_id": "7c33ffc06226640344adc9e949712025", "lat": 38.886466}, {"type": "electric_scooter", "rental_uris": {"android": "https://dc.lft.to/lastmile_qr_scan", "ios": "https://dc.lft.to/lastmile_qr_scan"}, "fusion_lat": 0.0, "name": "53b436a2833b3c03fdb45453493beeb7", "lon": -77.04550533333334, "is_disabled": 0, "is_reserved": 0, "fusion_lon": 0.0, "bike_id": "53b436a2833b3c03fdb45453493beeb7", "lat": 38.912609}, {"type": "electric_scooter", "rental_uris": {"android": "https://dc.lft.to/lastmile_qr_scan", "ios": "https://dc.lft.to/lastmile_qr_scan"}, "fusion_lat": 0.0, "name": "3c678ba05d505394165dcf7cd5138ea2", "lon": -76.97324216666667, "is_disabled": 0, "is_reserved": 0, "fusion_lon": 0.0, "bike_id": "3c678ba05d505394165dcf7cd5138ea2", "lat": 38.865825666666666}, {"type": "electric_scooter", "rental_uris": {"android": "https://dc.lft.to/lastmile_qr_scan", "ios": "https://dc.lft.to/lastmile_qr_scan"}, "fusion_lat": 0.0, "name": "b8b3eea992e14d091d8324560049b9e6", "lon": -77.000627, "is_disabled": 0, "is_reserved": 0, "fusion_lon": 0.0, "bike_id": "b8b3eea992e14d091d8324560049b9e6", "lat": 38.876669166666666}, {"type": "electric_scooter", "rental_uris": {"android": "https://dc.lft.to/lastmile_qr_scan", "ios": "https://dc.lft.to/lastmile_qr_scan"}, "fusion_lat": 0.0, "name": "3650973d2000e2a2f639768f91c5c5d8", "lon": -77.034364, "is_disabled": 0, "is_reserved": 0, "fusion_lon": 0.0, "bike_id": "3650973d2000e2a2f639768f91c5c5d8", "lat": 38.91807716666667}, {"type": "electric_scooter", "rental_uris": {"android": "https://dc.lft.to/lastmile_qr_scan", "ios": "https://dc.lft.to/lastmile_qr_scan"}, "fusion_lat": 0.0, "name": "96f63946f60ec19f1b67d2880c30b2de", "lon": -76.98373416666666, "is_disabled": 0, "is_reserved": 0, "fusion_lon": 0.0, "bike_id": "96f63946f60ec19f1b67d2880c30b2de", "lat": 38.91497316666667}, {"type": "electric_scooter", "rental_uris": {"android": "https://dc.lft.to/lastmile_qr_scan", "ios": "https://dc.lft.to/lastmile_qr_scan"}, "fusion_lat": 0.0, "name": "674ec5b7517e3d374a9b5b9ee77a5833", "lon": -77.03490433333333, "is_disabled": 0, "is_reserved": 0, "fusion_lon": 0.0, "bike_id": "674ec5b7517e3d374a9b5b9ee77a5833", "lat": 38.92485583333333}, {"type": "electric_scooter", "rental_uris": {"android": "https://dc.lft.to/lastmile_qr_scan", "ios": "https://dc.lft.to/lastmile_qr_scan"}, "fusion_lat": 0.0, "name": "1bf57f7f75780d7f0a9ca55ac9a9641e", "lon": -77.01586233333333, "is_disabled": 0, "is_reserved": 0, "fusion_lon": 0.0, "bike_id": "1bf57f7f75780d7f0a9ca55ac9a9641e", "lat": 38.886162666666664}, {"type": "electric_scooter", "rental_uris": {"android": "https://dc.lft.to/lastmile_qr_scan", "ios": "https://dc.lft.to/lastmile_qr_scan"}, "fusion_lat": 0.0, "name": "7362f87f9ea95ca06f98ea18266c51df", "lon": -77.02863266666667, "is_disabled": 0, "is_reserved": 0, "fusion_lon": 0.0, "bike_id": "7362f87f9ea95ca06f98ea18266c51df", "lat": 38.887507}, {"type": "electric_scooter", "rental_uris": {"android": "https://dc.lft.to/lastmile_qr_scan", "ios": "https://dc.lft.to/lastmile_qr_scan"}, "fusion_lat": 0.0, "name": "f15125f3de68059e6ebf6baf60b1fcd0", "lon": -77.031852, "is_disabled": 0, "is_reserved": 0, "fusion_lon": 0.0, "bike_id": "f15125f3de68059e6ebf6baf60b1fcd0", "lat": 38.91744633333333}, {"type": "electric_bike", "rental_uris": {"android": "https://dc.lft.to/lastmile_qr_scan", "ios": "https://dc.lft.to/lastmile_qr_scan"}, "fusion_lat": 0.0, "name": "f5ee0ca337bd82b98fe873f15036ceae", "lon": -77.16627966666667, "is_disabled": 0, "is_reserved": 0, "fusion_lon": 0.0, "bike_id": "f5ee0ca337bd82b98fe873f15036ceae", "lat": 38.888415}, {"type": "electric_bike", "rental_uris": {"android": "https://dc.lft.to/lastmile_qr_scan", "ios": "https://dc.lft.to/lastmile_qr_scan"}, "fusion_lat": 0.0, "name": "752de8ec6bf15ee9f5a3b967297aec86", "lon": -77.11167266666666, "is_disabled": 0, "is_reserved": 0, "fusion_lon": 0.0, "bike_id": "752de8ec6bf15ee9f5a3b967297aec86", "lat": 38.85508466666667}, {"type": "electric_scooter", "rental_uris": {"android": "https://dc.lft.to/lastmile_qr_scan", "ios": "https://dc.lft.to/lastmile_qr_scan"}, "fusion_lat": 0.0, "name": "f07a6d9d5deebe42cc2d4be329761cf6", "lon": -77.044909, "is_disabled": 0, "is_reserved": 0, "fusion_lon": 0.0, "bike_id": "f07a6d9d5deebe42cc2d4be329761cf6", "lat": 38.918508833333334}, {"type": "electric_bike", "rental_uris": {"android": "https://dc.lft.to/lastmile_qr_scan", "ios": "https://dc.lft.to/lastmile_qr_scan"}, "fusion_lat": 0.0, "name": "03afa00ef63d999cd04ecbb8315371e1", "lon": -77.046886, "is_disabled": 0, "is_reserved": 0, "fusion_lon": 0.0, "bike_id": "03afa00ef63d999cd04ecbb8315371e1", "lat": 39.02398383333333}, {"type": "electric_bike", "rental_uris": {"android": "https://dc.lft.to/lastmile_qr_scan", "ios": "https://dc.lft.to/lastmile_qr_scan"}, "fusion_lat": 0.0, "name": "c1ced36dc56d08914bf07f1f85757ad8", "lon": -77.0022155, "is_disabled": 0, "is_reserved": 0, "fusion_lon": 0.0, "bike_id": "c1ced36dc56d08914bf07f1f85757ad8", "lat": 38.82376283333333}, {"type": "electric_scooter", "rental_uris": {"android": "https://dc.lft.to/lastmile_qr_scan", "ios": "https://dc.lft.to/lastmile_qr_scan"}, "fusion_lat": 0.0, "name": "775ea8ff9d8d0f85b2f72d7a4e19fb8f", "lon": -77.01222066666666, "is_disabled": 0, "is_reserved": 0, "fusion_lon": 0.0, "bike_id": "775ea8ff9d8d0f85b2f72d7a4e19fb8f", "lat": 38.871885666666664}, {"type": "electric_scooter", "rental_uris": {"android": "https://dc.lft.to/lastmile_qr_scan", "ios": "https://dc.lft.to/lastmile_qr_scan"}, "fusion_lat": 0.0, "name": "7691eb734bde8702e0b5fb415eb43d6d", "lon": -77.04260733333334, "is_disabled": 0, "is_reserved": 0, "fusion_lon": 0.0, "bike_id": "7691eb734bde8702e0b5fb415eb43d6d", "lat": 38.9169645}, {"type": "electric_scooter", "rental_uris": {"android": "https://dc.lft.to/lastmile_qr_scan", "ios": "https://dc.lft.to/lastmile_qr_scan"}, "fusion_lat": 0.0, "name": "884522e1a25554718160cfa207a80036", "lon": -77.02972616666666, "is_disabled": 0, "is_reserved": 0, "fusion_lon": 0.0, "bike_id": "884522e1a25554718160cfa207a80036", "lat": 38.91682766666667}, {"type": "electric_scooter", "rental_uris": {"android": "https://dc.lft.to/lastmile_qr_scan", "ios": "https://dc.lft.to/lastmile_qr_scan"}, "fusion_lat": 0.0, "name": "ae3b1426243395ee83e5f6d1bc95ae55", "lon": -77.00937983333333, "is_disabled": 0, "is_reserved": 0, "fusion_lon": 0.0, "bike_id": "ae3b1426243395ee83e5f6d1bc95ae55", "lat": 38.883183833333334}, {"type": "electric_scooter", "rental_uris": {"android": "https://dc.lft.to/lastmile_qr_scan", "ios": "https://dc.lft.to/lastmile_qr_scan"}, "fusion_lat": 0.0, "name": "9e613470cfb35bc62d66e0629e7360f7", "lon": -77.00920783333333, "is_disabled": 0, "is_reserved": 0, "fusion_lon": 0.0, "bike_id": "9e613470cfb35bc62d66e0629e7360f7", "lat": 38.89556483333333}, {"type": "electric_scooter", "rental_uris": {"android": "https://dc.lft.to/lastmile_qr_scan", "ios": "https://dc.lft.to/lastmile_qr_scan"}, "fusion_lat": 0.0, "name": "8fbaeba0a48ccd16f2d0a6087a909a40", "lon": -77.04108483333333, "is_disabled": 0, "is_reserved": 0, "fusion_lon": 0.0, "bike_id": "8fbaeba0a48ccd16f2d0a6087a909a40", "lat": 38.928009833333334}, {"type": "electric_scooter", "rental_uris": {"android": "https://dc.lft.to/lastmile_qr_scan", "ios": "https://dc.lft.to/lastmile_qr_scan"}, "fusion_lat": 0.0, "name": "8032a7d8e8277c52cc74635817097275", "lon": -77.02602116666667, "is_disabled": 0, "is_reserved": 0, "fusion_lon": 0.0, "bike_id": "8032a7d8e8277c52cc74635817097275", "lat": 38.9004605}, {"type": "electric_scooter", "rental_uris": {"android": "https://dc.lft.to/lastmile_qr_scan", "ios": "https://dc.lft.to/lastmile_qr_scan"}, "fusion_lat": 0.0, "name": "1c04ac86a50e06b882259811471504c4", "lon": -77.02194583333333, "is_disabled": 0, "is_reserved": 0, "fusion_lon": 0.0, "bike_id": "1c04ac86a50e06b882259811471504c4", "lat": 38.917078833333335}, {"type": "electric_scooter", "rental_uris": {"android": "https://dc.lft.to/lastmile_qr_scan", "ios": "https://dc.lft.to/lastmile_qr_scan"}, "fusion_lat": 0.0, "name": "9f3d58933b76cd601198c7c7a1b21b3a", "lon": -77.0273455, "is_disabled": 0, "is_reserved": 0, "fusion_lon": 0.0, "bike_id": "9f3d58933b76cd601198c7c7a1b21b3a", "lat": 38.89745683333334}, {"type": "electric_scooter", "rental_uris": {"android": "https://dc.lft.to/lastmile_qr_scan", "ios": "https://dc.lft.to/lastmile_qr_scan"}, "fusion_lat": 0.0, "name": "9f7fcfb64f116be94c7762846ac713f1", "lon": -77.00199866666667, "is_disabled": 0, "is_reserved": 0, "fusion_lon": 0.0, "bike_id": "9f7fcfb64f116be94c7762846ac713f1", "lat": 38.902346}, {"type": "electric_scooter", "rental_uris": {"android": "https://dc.lft.to/lastmile_qr_scan", "ios": "https://dc.lft.to/lastmile_qr_scan"}, "fusion_lat": 0.0, "name": "b940ef9908a27bce30bdff7a44a31e8f", "lon": -77.03355116666667, "is_disabled": 0, "is_reserved": 0, "fusion_lon": 0.0, "bike_id": "b940ef9908a27bce30bdff7a44a31e8f", "lat": 38.902714333333336}, {"type": "electric_scooter", "rental_uris": {"android": "https://dc.lft.to/lastmile_qr_scan", "ios": "https://dc.lft.to/lastmile_qr_scan"}, "fusion_lat": 0.0, "name": "a5f90dcb130e6f006e76dcb22bc5c47a", "lon": -77.04153233333334, "is_disabled": 0, "is_reserved": 0, "fusion_lon": 0.0, "bike_id": "a5f90dcb130e6f006e76dcb22bc5c47a", "lat": 38.923537833333334}, {"type": "electric_bike", "rental_uris": {"android": "https://dc.lft.to/lastmile_qr_scan", "ios": "https://dc.lft.to/lastmile_qr_scan"}, "fusion_lat": 0.0, "name": "705e83d9bf6a7e34f69e1c4f07229362", "lon": -76.99581233333333, "is_disabled": 0, "is_reserved": 0, "fusion_lon": 0.0, "bike_id": "705e83d9bf6a7e34f69e1c4f07229362", "lat": 38.85293816666667}, {"type": "electric_scooter", "rental_uris": {"android": "https://dc.lft.to/lastmile_qr_scan", "ios": "https://dc.lft.to/lastmile_qr_scan"}, "fusion_lat": 0.0, "name": "3b4d25ac8ca6c8be747904fc52c2809a", "lon": -76.99858516666667, "is_disabled": 0, "is_reserved": 0, "fusion_lon": 0.0, "bike_id": "3b4d25ac8ca6c8be747904fc52c2809a", "lat": 38.90006066666667}, {"type": "electric_bike", "rental_uris": {"android": "https://dc.lft.to/lastmile_qr_scan", "ios": "https://dc.lft.to/lastmile_qr_scan"}, "fusion_lat": 0.0, "name": "90be29f8c4f1cfcab41b931070e2aefc", "lon": -77.01531933333334, "is_disabled": 0, "is_reserved": 0, "fusion_lon": 0.0, "bike_id": "90be29f8c4f1cfcab41b931070e2aefc", "lat": 38.88484916666667}, {"type": "electric_bike", "rental_uris": {"android": "https://dc.lft.to/lastmile_qr_scan", "ios": "https://dc.lft.to/lastmile_qr_scan"}, "fusion_lat": 0.0, "name": "38f44e51c7272ba6a0b6cea652a0ccc5", "lon": -77.11256033333333, "is_disabled": 0, "is_reserved": 0, "fusion_lon": 0.0, "bike_id": "38f44e51c7272ba6a0b6cea652a0ccc5", "lat": 38.856535666666666}, {"type": "electric_scooter", "rental_uris": {"android": "https://dc.lft.to/lastmile_qr_scan", "ios": "https://dc.lft.to/lastmile_qr_scan"}, "fusion_lat": 0.0, "name": "1a18e6b71e33bd36a477a01f974b6d09", "lon": -77.032812, "is_disabled": 0, "is_reserved": 0, "fusion_lon": 0.0, "bike_id": "1a18e6b71e33bd36a477a01f974b6d09", "lat": 38.9283545}, {"type": "electric_scooter", "rental_uris": {"android": "https://dc.lft.to/lastmile_qr_scan", "ios": "https://dc.lft.to/lastmile_qr_scan"}, "fusion_lat": 0.0, "name": "fce2ea5c856d20a3e933d31580bb83ca", "lon": -77.02023133333333, "is_disabled": 0, "is_reserved": 0, "fusion_lon": 0.0, "bike_id": "fce2ea5c856d20a3e933d31580bb83ca", "lat": 38.901929833333334}, {"type": "electric_scooter", "rental_uris": {"android": "https://dc.lft.to/lastmile_qr_scan", "ios": "https://dc.lft.to/lastmile_qr_scan"}, "fusion_lat": 0.0, "name": "b0c9bbe4b56c5ad834c977f8f70511a4", "lon": -77.061732, "is_disabled": 0, "is_reserved": 0, "fusion_lon": 0.0, "bike_id": "b0c9bbe4b56c5ad834c977f8f70511a4", "lat": 38.9432365}, {"type": "electric_scooter", "rental_uris": {"android": "https://dc.lft.to/lastmile_qr_scan", "ios": "https://dc.lft.to/lastmile_qr_scan"}, "fusion_lat": 0.0, "name": "b6f317509b5ec46c86dbe2f59985d375", "lon": -76.988408, "is_disabled": 0, "is_reserved": 0, "fusion_lon": 0.0, "bike_id": "b6f317509b5ec46c86dbe2f59985d375", "lat": 38.900423333333336}, {"type": "electric_scooter", "rental_uris": {"android": "https://dc.lft.to/lastmile_qr_scan", "ios": "https://dc.lft.to/lastmile_qr_scan"}, "fusion_lat": 0.0, "name": "fe53a87511d9407982d6fa5b472df437", "lon": -77.03285433333333, "is_disabled": 0, "is_reserved": 0, "fusion_lon": 0.0, "bike_id": "fe53a87511d9407982d6fa5b472df437", "lat": 38.92835383333333}, {"type": "electric_scooter", "rental_uris": {"android": "https://dc.lft.to/lastmile_qr_scan", "ios": "https://dc.lft.to/lastmile_qr_scan"}, "fusion_lat": 0.0, "name": "0069ecca64358c9591d96a3f8fa4df13", "lon": -77.017665, "is_disabled": 0, "is_reserved": 0, "fusion_lon": 0.0, "bike_id": "0069ecca64358c9591d96a3f8fa4df13", "lat": 38.8769125}, {"type": "electric_scooter", "rental_uris": {"android": "https://dc.lft.to/lastmile_qr_scan", "ios": "https://dc.lft.to/lastmile_qr_scan"}, "fusion_lat": 0.0, "name": "4921ba84f301765df177c0296e05df86", "lon": -77.04011433333334, "is_disabled": 0, "is_reserved": 0, "fusion_lon": 0.0, "bike_id": "4921ba84f301765df177c0296e05df86", "lat": 38.918386166666664}, {"type": "electric_bike", "rental_uris": {"android": "https://dc.lft.to/lastmile_qr_scan", "ios": "https://dc.lft.to/lastmile_qr_scan"}, "fusion_lat": 0.0, "name": "1dd489d0160bb3629621a320f142d6f0", "lon": -77.11707866666667, "is_disabled": 0, "is_reserved": 0, "fusion_lon": 0.0, "bike_id": "1dd489d0160bb3629621a320f142d6f0", "lat": 38.867469166666666}, {"type": "electric_scooter", "rental_uris": {"android": "https://dc.lft.to/lastmile_qr_scan", "ios": "https://dc.lft.to/lastmile_qr_scan"}, "fusion_lat": 0.0, "name": "1b403f51ac49658c847cba73a4695def", "lon": -77.00741016666667, "is_disabled": 0, "is_reserved": 0, "fusion_lon": 0.0, "bike_id": "1b403f51ac49658c847cba73a4695def", "lat": 38.898184}, {"type": "electric_scooter", "rental_uris": {"android": "https://dc.lft.to/lastmile_qr_scan", "ios": "https://dc.lft.to/lastmile_qr_scan"}, "fusion_lat": 0.0, "name": "bf797f6980c0ca40ad536e47657fb50b", "lon": -77.02606066666667, "is_disabled": 0, "is_reserved": 0, "fusion_lon": 0.0, "bike_id": "bf797f6980c0ca40ad536e47657fb50b", "lat": 38.89852966666667}, {"type": "electric_scooter", "rental_uris": {"android": "https://dc.lft.to/lastmile_qr_scan", "ios": "https://dc.lft.to/lastmile_qr_scan"}, "fusion_lat": 0.0, "name": "c0598e63ea3de49b0673120f5ff757dd", "lon": -77.02008516666666, "is_disabled": 0, "is_reserved": 0, "fusion_lon": 0.0, "bike_id": "c0598e63ea3de49b0673120f5ff757dd", "lat": 38.894341}, {"type": "electric_scooter", "rental_uris": {"android": "https://dc.lft.to/lastmile_qr_scan", "ios": "https://dc.lft.to/lastmile_qr_scan"}, "fusion_lat": 0.0, "name": "b6c66863e42793d3de632e5f5df8b701", "lon": -77.038711, "is_disabled": 0, "is_reserved": 0, "fusion_lon": 0.0, "bike_id": "b6c66863e42793d3de632e5f5df8b701", "lat": 38.903639}, {"type": "electric_scooter", "rental_uris": {"android": "https://dc.lft.to/lastmile_qr_scan", "ios": "https://dc.lft.to/lastmile_qr_scan"}, "fusion_lat": 0.0, "name": "a0083c569b9056ccf9ff8b65df0de603", "lon": -77.044901, "is_disabled": 0, "is_reserved": 0, "fusion_lon": 0.0, "bike_id": "a0083c569b9056ccf9ff8b65df0de603", "lat": 38.91310083333333}, {"type": "electric_scooter", "rental_uris": {"android": "https://dc.lft.to/lastmile_qr_scan", "ios": "https://dc.lft.to/lastmile_qr_scan"}, "fusion_lat": 0.0, "name": "66ad032737966d411e4a038a84d5cd1b", "lon": -77.0011775, "is_disabled": 0, "is_reserved": 0, "fusion_lon": 0.0, "bike_id": "66ad032737966d411e4a038a84d5cd1b", "lat": 38.87513666666667}, {"type": "electric_scooter", "rental_uris": {"android": "https://dc.lft.to/lastmile_qr_scan", "ios": "https://dc.lft.to/lastmile_qr_scan"}, "fusion_lat": 0.0, "name": "c17455b4f4dd9ab9dfd142adac64ec3b", "lon": -77.024134, "is_disabled": 0, "is_reserved": 0, "fusion_lon": 0.0, "bike_id": "c17455b4f4dd9ab9dfd142adac64ec3b", "lat": 38.917040666666665}, {"type": "electric_scooter", "rental_uris": {"android": "https://dc.lft.to/lastmile_qr_scan", "ios": "https://dc.lft.to/lastmile_qr_scan"}, "fusion_lat": 0.0, "name": "e308814251d57ae493e0782d672b7e0e", "lon": -77.06158866666667, "is_disabled": 0, "is_reserved": 0, "fusion_lon": 0.0, "bike_id": "e308814251d57ae493e0782d672b7e0e", "lat": 38.90264533333333}, {"type": "electric_scooter", "rental_uris": {"android": "https://dc.lft.to/lastmile_qr_scan", "ios": "https://dc.lft.to/lastmile_qr_scan"}, "fusion_lat": 0.0, "name": "49656a0fbf31b44b2cca212b11f7c379", "lon": -77.032584, "is_disabled": 0, "is_reserved": 0, "fusion_lon": 0.0, "bike_id": "49656a0fbf31b44b2cca212b11f7c379", "lat": 38.939709666666666}, {"type": "electric_scooter", "rental_uris": {"android": "https://dc.lft.to/lastmile_qr_scan", "ios": "https://dc.lft.to/lastmile_qr_scan"}, "fusion_lat": 0.0, "name": "145fa3b2cedeea991e0a46a4946f4dde", "lon": -77.03843033333334, "is_disabled": 0, "is_reserved": 0, "fusion_lon": 0.0, "bike_id": "145fa3b2cedeea991e0a46a4946f4dde", "lat": 38.909906166666666}, {"type": "electric_scooter", "rental_uris": {"android": "https://dc.lft.to/lastmile_qr_scan", "ios": "https://dc.lft.to/lastmile_qr_scan"}, "fusion_lat": 0.0, "name": "e8721cab71f7eb9c9ef79723873980a1", "lon": -76.9942365, "is_disabled": 0, "is_reserved": 0, "fusion_lon": 0.0, "bike_id": "e8721cab71f7eb9c9ef79723873980a1", "lat": 38.920946666666666}, {"type": "electric_bike", "rental_uris": {"android": "https://dc.lft.to/lastmile_qr_scan", "ios": "https://dc.lft.to/lastmile_qr_scan"}, "fusion_lat": 0.0, "name": "6aff65e0311fee81d82b099ac649d551", "lon": -76.98841633333333, "is_disabled": 0, "is_reserved": 0, "fusion_lon": 0.0, "bike_id": "6aff65e0311fee81d82b099ac649d551", "lat": 38.842792833333334}, {"type": "electric_scooter", "rental_uris": {"android": "https://dc.lft.to/lastmile_qr_scan", "ios": "https://dc.lft.to/lastmile_qr_scan"}, "fusion_lat": 0.0, "name": "6773bed12d14c5bfaa7fd6dae65b6ebe", "lon": -77.02624233333333, "is_disabled": 0, "is_reserved": 0, "fusion_lon": 0.0, "bike_id": "6773bed12d14c5bfaa7fd6dae65b6ebe", "lat": 38.894268}, {"type": "electric_scooter", "rental_uris": {"android": "https://dc.lft.to/lastmile_qr_scan", "ios": "https://dc.lft.to/lastmile_qr_scan"}, "fusion_lat": 0.0, "name": "4539d46db8892822e4ccbe156f50912c", "lon": -77.0601565, "is_disabled": 0, "is_reserved": 0, "fusion_lon": 0.0, "bike_id": "4539d46db8892822e4ccbe156f50912c", "lat": 38.9049045}, {"type": "electric_scooter", "rental_uris": {"android": "https://dc.lft.to/lastmile_qr_scan", "ios": "https://dc.lft.to/lastmile_qr_scan"}, "fusion_lat": 0.0, "name": "d3bf4f158fd7b80c445cb18685a815f3", "lon": -77.02723016666667, "is_disabled": 0, "is_reserved": 0, "fusion_lon": 0.0, "bike_id": "d3bf4f158fd7b80c445cb18685a815f3", "lat": 38.932517}, {"type": "electric_scooter", "rental_uris": {"android": "https://dc.lft.to/lastmile_qr_scan", "ios": "https://dc.lft.to/lastmile_qr_scan"}, "fusion_lat": 0.0, "name": "0d86635955fd543719a36010b2dea322", "lon": -77.039561, "is_disabled": 0, "is_reserved": 0, "fusion_lon": 0.0, "bike_id": "0d86635955fd543719a36010b2dea322", "lat": 38.90546833333333}, {"type": "electric_scooter", "rental_uris": {"android": "https://dc.lft.to/lastmile_qr_scan", "ios": "https://dc.lft.to/lastmile_qr_scan"}, "fusion_lat": 0.0, "name": "e6c8902d26f0eca53b8c61de432d2324", "lon": -77.003428, "is_disabled": 0, "is_reserved": 0, "fusion_lon": 0.0, "bike_id": "e6c8902d26f0eca53b8c61de432d2324", "lat": 38.90363133333334}, {"type": "electric_scooter", "rental_uris": {"android": "https://dc.lft.to/lastmile_qr_scan", "ios": "https://dc.lft.to/lastmile_qr_scan"}, "fusion_lat": 0.0, "name": "56d90bfc7d54d358d00942c0117a3eba", "lon": -77.021952, "is_disabled": 0, "is_reserved": 0, "fusion_lon": 0.0, "bike_id": "56d90bfc7d54d358d00942c0117a3eba", "lat": 38.8949045}, {"type": "electric_scooter", "rental_uris": {"android": "https://dc.lft.to/lastmile_qr_scan", "ios": "https://dc.lft.to/lastmile_qr_scan"}, "fusion_lat": 0.0, "name": "cec8c023cb811f22acfc52757381e893", "lon": -77.00204766666667, "is_disabled": 0, "is_reserved": 0, "fusion_lon": 0.0, "bike_id": "cec8c023cb811f22acfc52757381e893", "lat": 38.90234983333333}, {"type": "electric_scooter", "rental_uris": {"android": "https://dc.lft.to/lastmile_qr_scan", "ios": "https://dc.lft.to/lastmile_qr_scan"}, "fusion_lat": 0.0, "name": "d9b6d684c4c54ae9f9681c1cc3508db8", "lon": -77.02010083333333, "is_disabled": 0, "is_reserved": 0, "fusion_lon": 0.0, "bike_id": "d9b6d684c4c54ae9f9681c1cc3508db8", "lat": 38.9016485}, {"type": "electric_scooter", "rental_uris": {"android": "https://dc.lft.to/lastmile_qr_scan", "ios": "https://dc.lft.to/lastmile_qr_scan"}, "fusion_lat": 0.0, "name": "fb5fd2de7c9f8d6ec81909505a9c308c", "lon": -77.03498916666666, "is_disabled": 0, "is_reserved": 0, "fusion_lon": 0.0, "bike_id": "fb5fd2de7c9f8d6ec81909505a9c308c", "lat": 38.90699633333333}, {"type": "electric_scooter", "rental_uris": {"android": "https://dc.lft.to/lastmile_qr_scan", "ios": "https://dc.lft.to/lastmile_qr_scan"}, "fusion_lat": 0.0, "name": "1f9c4207ae2570fc744d90693e3cd6e1", "lon": -77.044681, "is_disabled": 0, "is_reserved": 0, "fusion_lon": 0.0, "bike_id": "1f9c4207ae2570fc744d90693e3cd6e1", "lat": 38.910189333333335}, {"type": "electric_scooter", "rental_uris": {"android": "https://dc.lft.to/lastmile_qr_scan", "ios": "https://dc.lft.to/lastmile_qr_scan"}, "fusion_lat": 0.0, "name": "bf37ea66ae18a99a81a67b22fa5de424", "lon": -76.9761345, "is_disabled": 0, "is_reserved": 0, "fusion_lon": 0.0, "bike_id": "bf37ea66ae18a99a81a67b22fa5de424", "lat": 38.913008833333336}, {"type": "electric_scooter", "rental_uris": {"android": "https://dc.lft.to/lastmile_qr_scan", "ios": "https://dc.lft.to/lastmile_qr_scan"}, "fusion_lat": 0.0, "name": "da0f8a31a85303928f0fd24e64b3b640", "lon": -77.03464483333333, "is_disabled": 0, "is_reserved": 0, "fusion_lon": 0.0, "bike_id": "da0f8a31a85303928f0fd24e64b3b640", "lat": 38.90259566666667}, {"type": "electric_scooter", "rental_uris": {"android": "https://dc.lft.to/lastmile_qr_scan", "ios": "https://dc.lft.to/lastmile_qr_scan"}, "fusion_lat": 0.0, "name": "21e6f66bcac0e4fef0772814261f6b62", "lon": -76.99635549999999, "is_disabled": 0, "is_reserved": 0, "fusion_lon": 0.0, "bike_id": "21e6f66bcac0e4fef0772814261f6b62", "lat": 38.900248500000004}, {"type": "electric_scooter", "rental_uris": {"android": "https://dc.lft.to/lastmile_qr_scan", "ios": "https://dc.lft.to/lastmile_qr_scan"}, "fusion_lat": 0.0, "name": "2f7fc5418e36aa163785f18c6ee3090b", "lon": -77.03500566666666, "is_disabled": 0, "is_reserved": 0, "fusion_lon": 0.0, "bike_id": "2f7fc5418e36aa163785f18c6ee3090b", "lat": 38.9170905}, {"type": "electric_scooter", "rental_uris": {"android": "https://dc.lft.to/lastmile_qr_scan", "ios": "https://dc.lft.to/lastmile_qr_scan"}, "fusion_lat": 0.0, "name": "d4e57827d80746d39546045e5bd30ee2", "lon": -77.00719783333334, "is_disabled": 0, "is_reserved": 0, "fusion_lon": 0.0, "bike_id": "d4e57827d80746d39546045e5bd30ee2", "lat": 38.91702016666667}, {"type": "electric_scooter", "rental_uris": {"android": "https://dc.lft.to/lastmile_qr_scan", "ios": "https://dc.lft.to/lastmile_qr_scan"}, "fusion_lat": 0.0, "name": "361262bbc53aec8b963abc0956bd9c94", "lon": -77.04175583333334, "is_disabled": 0, "is_reserved": 0, "fusion_lon": 0.0, "bike_id": "361262bbc53aec8b963abc0956bd9c94", "lat": 38.90140066666667}, {"type": "electric_scooter", "rental_uris": {"android": "https://dc.lft.to/lastmile_qr_scan", "ios": "https://dc.lft.to/lastmile_qr_scan"}, "fusion_lat": 0.0, "name": "495cbce4d5d93dfa6442b669b29589b0", "lon": -77.02800066666667, "is_disabled": 0, "is_reserved": 0, "fusion_lon": 0.0, "bike_id": "495cbce4d5d93dfa6442b669b29589b0", "lat": 38.932951}, {"type": "electric_bike", "rental_uris": {"android": "https://dc.lft.to/lastmile_qr_scan", "ios": "https://dc.lft.to/lastmile_qr_scan"}, "fusion_lat": 0.0, "name": "dd7b6b34a55c8fbdfd3a092a19196ea3", "lon": -77.0845605, "is_disabled": 0, "is_reserved": 0, "fusion_lon": 0.0, "bike_id": "dd7b6b34a55c8fbdfd3a092a19196ea3", "lat": 38.84819666666667}, {"type": "electric_scooter", "rental_uris": {"android": "https://dc.lft.to/lastmile_qr_scan", "ios": "https://dc.lft.to/lastmile_qr_scan"}, "fusion_lat": 0.0, "name": "9b94320ad758919baca536cbb65aa686", "lon": -77.03808616666667, "is_disabled": 0, "is_reserved": 0, "fusion_lon": 0.0, "bike_id": "9b94320ad758919baca536cbb65aa686", "lat": 38.91410583333333}, {"type": "electric_scooter", "rental_uris": {"android": "https://dc.lft.to/lastmile_qr_scan", "ios": "https://dc.lft.to/lastmile_qr_scan"}, "fusion_lat": 0.0, "name": "1233f19d189037d77b2b4b1012a51099", "lon": -77.02417766666667, "is_disabled": 0, "is_reserved": 0, "fusion_lon": 0.0, "bike_id": "1233f19d189037d77b2b4b1012a51099", "lat": 38.909709166666666}, {"type": "electric_bike", "rental_uris": {"android": "https://dc.lft.to/lastmile_qr_scan", "ios": "https://dc.lft.to/lastmile_qr_scan"}, "fusion_lat": 0.0, "name": "8a7b8108049ef8d29cc972ef8f229dd2", "lon": -77.1873735, "is_disabled": 0, "is_reserved": 0, "fusion_lon": 0.0, "bike_id": "8a7b8108049ef8d29cc972ef8f229dd2", "lat": 38.89352383333333}, {"type": "electric_scooter", "rental_uris": {"android": "https://dc.lft.to/lastmile_qr_scan", "ios": "https://dc.lft.to/lastmile_qr_scan"}, "fusion_lat": 0.0, "name": "c0559564721c33b14bdc89698c6ba109", "lon": -77.01329966666667, "is_disabled": 0, "is_reserved": 0, "fusion_lon": 0.0, "bike_id": "c0559564721c33b14bdc89698c6ba109", "lat": 38.879414833333335}, {"type": "electric_scooter", "rental_uris": {"android": "https://dc.lft.to/lastmile_qr_scan", "ios": "https://dc.lft.to/lastmile_qr_scan"}, "fusion_lat": 0.0, "name": "7397b2537a074ee62cc5cf09c6ed5818", "lon": -77.0437715, "is_disabled": 0, "is_reserved": 0, "fusion_lon": 0.0, "bike_id": "7397b2537a074ee62cc5cf09c6ed5818", "lat": 38.89218733333333}, {"type": "electric_scooter", "rental_uris": {"android": "https://dc.lft.to/lastmile_qr_scan", "ios": "https://dc.lft.to/lastmile_qr_scan"}, "fusion_lat": 0.0, "name": "43c22a4f81b7fbb9e91b43ddb2924f04", "lon": -77.03405716666667, "is_disabled": 0, "is_reserved": 0, "fusion_lon": 0.0, "bike_id": "43c22a4f81b7fbb9e91b43ddb2924f04", "lat": 38.92259083333333}, {"type": "electric_scooter", "rental_uris": {"android": "https://dc.lft.to/lastmile_qr_scan", "ios": "https://dc.lft.to/lastmile_qr_scan"}, "fusion_lat": 0.0, "name": "05e4422b62daeddcc7744ddcec90bb57", "lon": -77.03079233333334, "is_disabled": 0, "is_reserved": 0, "fusion_lon": 0.0, "bike_id": "05e4422b62daeddcc7744ddcec90bb57", "lat": 38.91111466666667}, {"type": "electric_scooter", "rental_uris": {"android": "https://dc.lft.to/lastmile_qr_scan", "ios": "https://dc.lft.to/lastmile_qr_scan"}, "fusion_lat": 0.0, "name": "98fb742d0513fec37eae5c135653ff33", "lon": -77.054375, "is_disabled": 0, "is_reserved": 0, "fusion_lon": 0.0, "bike_id": "98fb742d0513fec37eae5c135653ff33", "lat": 38.896043166666665}, {"type": "electric_scooter", "rental_uris": {"android": "https://dc.lft.to/lastmile_qr_scan", "ios": "https://dc.lft.to/lastmile_qr_scan"}, "fusion_lat": 0.0, "name": "b858c10858560ef5b8ec0f21ca1b4a70", "lon": -76.98520666666667, "is_disabled": 0, "is_reserved": 0, "fusion_lon": 0.0, "bike_id": "b858c10858560ef5b8ec0f21ca1b4a70", "lat": 38.86654816666667}, {"type": "electric_scooter", "rental_uris": {"android": "https://dc.lft.to/lastmile_qr_scan", "ios": "https://dc.lft.to/lastmile_qr_scan"}, "fusion_lat": 0.0, "name": "91d3a0dfc4aa526a5090a4b826d2dee6", "lon": -76.98561183333334, "is_disabled": 0, "is_reserved": 0, "fusion_lon": 0.0, "bike_id": "91d3a0dfc4aa526a5090a4b826d2dee6", "lat": 38.91033916666667}, {"type": "electric_scooter", "rental_uris": {"android": "https://dc.lft.to/lastmile_qr_scan", "ios": "https://dc.lft.to/lastmile_qr_scan"}, "fusion_lat": 0.0, "name": "c8ab5b89068f3760504930411b4b9332", "lon": -76.93024166666666, "is_disabled": 0, "is_reserved": 0, "fusion_lon": 0.0, "bike_id": "c8ab5b89068f3760504930411b4b9332", "lat": 38.901692}, {"type": "electric_scooter", "rental_uris": {"android": "https://dc.lft.to/lastmile_qr_scan", "ios": "https://dc.lft.to/lastmile_qr_scan"}, "fusion_lat": 0.0, "name": "76c330a5f7cc3caeb0336293b9825fbb", "lon": -77.03967133333333, "is_disabled": 0, "is_reserved": 0, "fusion_lon": 0.0, "bike_id": "76c330a5f7cc3caeb0336293b9825fbb", "lat": 38.897185666666665}, {"type": "electric_scooter", "rental_uris": {"android": "https://dc.lft.to/lastmile_qr_scan", "ios": "https://dc.lft.to/lastmile_qr_scan"}, "fusion_lat": 0.0, "name": "fc94182e71ebc598ed74f3400d0a54ed", "lon": -77.05040033333333, "is_disabled": 0, "is_reserved": 0, "fusion_lon": 0.0, "bike_id": "fc94182e71ebc598ed74f3400d0a54ed", "lat": 38.9239085}, {"type": "electric_scooter", "rental_uris": {"android": "https://dc.lft.to/lastmile_qr_scan", "ios": "https://dc.lft.to/lastmile_qr_scan"}, "fusion_lat": 0.0, "name": "6e1952e58d210d2f024ebeb8b599bfd1", "lon": -77.03801333333334, "is_disabled": 0, "is_reserved": 0, "fusion_lon": 0.0, "bike_id": "6e1952e58d210d2f024ebeb8b599bfd1", "lat": 38.920602833333334}, {"type": "electric_scooter", "rental_uris": {"android": "https://dc.lft.to/lastmile_qr_scan", "ios": "https://dc.lft.to/lastmile_qr_scan"}, "fusion_lat": 0.0, "name": "16c77e1af75ad367283c0bc84fd4cee3", "lon": -77.0344525, "is_disabled": 0, "is_reserved": 0, "fusion_lon": 0.0, "bike_id": "16c77e1af75ad367283c0bc84fd4cee3", "lat": 38.90802683333333}, {"type": "electric_bike", "rental_uris": {"android": "https://dc.lft.to/lastmile_qr_scan", "ios": "https://dc.lft.to/lastmile_qr_scan"}, "fusion_lat": 0.0, "name": "06fcd4511d5b41a2f76d98ef270093f2", "lon": -76.93543149999999, "is_disabled": 0, "is_reserved": 0, "fusion_lon": 0.0, "bike_id": "06fcd4511d5b41a2f76d98ef270093f2", "lat": 38.9555315}, {"type": "electric_scooter", "rental_uris": {"android": "https://dc.lft.to/lastmile_qr_scan", "ios": "https://dc.lft.to/lastmile_qr_scan"}, "fusion_lat": 0.0, "name": "f8a58aedc0396535882ca713c25b01fb", "lon": -76.92739533333334, "is_disabled": 0, "is_reserved": 0, "fusion_lon": 0.0, "bike_id": "f8a58aedc0396535882ca713c25b01fb", "lat": 38.88966766666667}, {"type": "electric_scooter", "rental_uris": {"android": "https://dc.lft.to/lastmile_qr_scan", "ios": "https://dc.lft.to/lastmile_qr_scan"}, "fusion_lat": 0.0, "name": "fd8b885b9af323be60c17bf25984e83a", "lon": -76.98286716666667, "is_disabled": 0, "is_reserved": 0, "fusion_lon": 0.0, "bike_id": "fd8b885b9af323be60c17bf25984e83a", "lat": 38.900454}, {"type": "electric_scooter", "rental_uris": {"android": "https://dc.lft.to/lastmile_qr_scan", "ios": "https://dc.lft.to/lastmile_qr_scan"}, "fusion_lat": 0.0, "name": "40915b19b03701f9f12972a3881ccc8d", "lon": -77.00563766666667, "is_disabled": 0, "is_reserved": 0, "fusion_lon": 0.0, "bike_id": "40915b19b03701f9f12972a3881ccc8d", "lat": 38.880486}, {"type": "electric_scooter", "rental_uris": {"android": "https://dc.lft.to/lastmile_qr_scan", "ios": "https://dc.lft.to/lastmile_qr_scan"}, "fusion_lat": 0.0, "name": "1cf70548669bf3515e6f2b258358308a", "lon": -76.933453, "is_disabled": 0, "is_reserved": 0, "fusion_lon": 0.0, "bike_id": "1cf70548669bf3515e6f2b258358308a", "lat": 38.89913466666667}, {"type": "electric_scooter", "rental_uris": {"android": "https://dc.lft.to/lastmile_qr_scan", "ios": "https://dc.lft.to/lastmile_qr_scan"}, "fusion_lat": 0.0, "name": "fb49e9b3cd4cde5e1d499ed7b33d6175", "lon": -77.0221215, "is_disabled": 0, "is_reserved": 0, "fusion_lon": 0.0, "bike_id": "fb49e9b3cd4cde5e1d499ed7b33d6175", "lat": 38.914143}, {"type": "electric_scooter", "rental_uris": {"android": "https://dc.lft.to/lastmile_qr_scan", "ios": "https://dc.lft.to/lastmile_qr_scan"}, "fusion_lat": 0.0, "name": "d945fed8c3b5a40e2aac67ea62f48ee5", "lon": -77.0206895, "is_disabled": 0, "is_reserved": 0, "fusion_lon": 0.0, "bike_id": "d945fed8c3b5a40e2aac67ea62f48ee5", "lat": 38.91564666666667}, {"type": "electric_scooter", "rental_uris": {"android": "https://dc.lft.to/lastmile_qr_scan", "ios": "https://dc.lft.to/lastmile_qr_scan"},