{"data": {"bikes": [{"rental_uris": {"ios": "https://dc.lft.to/lastmile_qr_scan", "android": "https://dc.lft.to/lastmile_qr_scan"}, "lon": -77.02005116666666, "type": "electric_scooter", "fusion_lat": 0.0, "lat": 38.902661333333334, "name": "04ee606becd62a2438db5ee89e46bd9c", "fusion_lon": 0.0, "bike_id": "04ee606becd62a2438db5ee89e46bd9c", "is_disabled": 0, "is_reserved": 0}, {"rental_uris": {"ios": "https://dc.lft.to/lastmile_qr_scan", "android": "https://dc.lft.to/lastmile_qr_scan"}, "lon": -77.01745016666666, "type": "electric_scooter", "fusion_lat": 0.0, "lat": 38.97484683333333, "name": "6d76271a34573b68f298b6c57338490b", "fusion_lon": 0.0, "bike_id": "6d76271a34573b68f298b6c57338490b", "is_disabled": 0, "is_reserved": 0}, {"rental_uris": {"ios": "https://dc.lft.to/lastmile_qr_scan", "android": "https://dc.lft.to/lastmile_qr_scan"}, "lon": -77.03745266666667, "type": "electric_scooter", "fusion_lat": 0.0, "lat": 38.929142166666665, "name": "45109c0071689cd0427bae2f87278835", "fusion_lon": 0.0, "bike_id": "45109c0071689cd0427bae2f87278835", "is_disabled": 0, "is_reserved": 0}, {"rental_uris": {"ios": "https://dc.lft.to/lastmile_qr_scan", "android": "https://dc.lft.to/lastmile_qr_scan"}, "lon": -77.0439235, "type": "electric_bike", "fusion_lat": 0.0, "lat": 38.92941716666667, "name": "9ecc20fcc955cf34be3aa3152108aea8", "fusion_lon": 0.0, "bike_id": "9ecc20fcc955cf34be3aa3152108aea8", "is_disabled": 0, "is_reserved": 0}, {"rental_uris": {"ios": "https://dc.lft.to/lastmile_qr_scan", "android": "https://dc.lft.to/lastmile_qr_scan"}, "lon": -76.97330833333334, "type": "electric_bike", "fusion_lat": 0.0, "lat": 38.85059966666667, "name": "d5dedcbea114b95f613b918481125fd3", "fusion_lon": 0.0, "bike_id": "d5dedcbea114b95f613b918481125fd3", "is_disabled": 0, "is_reserved": 0}, {"rental_uris": {"ios": "https://dc.lft.to/lastmile_qr_scan", "android": "https://dc.lft.to/lastmile_qr_scan"}, "lon": -77.04542166666667, "type": "electric_scooter", "fusion_lat": 0.0, "lat": 38.919369333333336, "name": "18cde7ad95ff8c584e609a7a085ecf11", "fusion_lon": 0.0, "bike_id": "18cde7ad95ff8c584e609a7a085ecf11", "is_disabled": 0, "is_reserved": 0}, {"rental_uris": {"ios": "https://dc.lft.to/lastmile_qr_scan", "android": "https://dc.lft.to/lastmile_qr_scan"}, "lon": -77.03223233333334, "type": "electric_scooter", "fusion_lat": 0.0, "lat": 38.918115, "name": "4927838603796945c40f1fe04ca7a80e", "fusion_lon": 0.0, "bike_id": "4927838603796945c40f1fe04ca7a80e", "is_disabled": 0, "is_reserved": 0}, {"rental_uris": {"ios": "https://dc.lft.to/lastmile_qr_scan", "android": "https://dc.lft.to/lastmile_qr_scan"}, "lon": -77.00888916666666, "type": "electric_scooter", "fusion_lat": 0.0, "lat": 38.9231045, "name": "437afd431be22c995d166df2279ac042", "fusion_lon": 0.0, "bike_id": "437afd431be22c995d166df2279ac042", "is_disabled": 0, "is_reserved": 0}, {"rental_uris": {"ios": "https://dc.lft.to/lastmile_qr_scan", "android": "https://dc.lft.to/lastmile_qr_scan"}, "lon": -77.060964, "type": "electric_scooter", "fusion_lat": 0.0, "lat": 38.91219783333333, "name": "a76a821e406415d0a40fef0a10e0807a", "fusion_lon": 0.0, "bike_id": "a76a821e406415d0a40fef0a10e0807a", "is_disabled": 0, "is_reserved": 0}, {"rental_uris": {"ios": "https://dc.lft.to/lastmile_qr_scan", "android": "https://dc.lft.to/lastmile_qr_scan"}, "lon": -77.03967983333334, "type": "electric_scooter", "fusion_lat": 0.0, "lat": 38.9026445, "name": "710ddcd46debebd21692f320e71cbefb", "fusion_lon": 0.0, "bike_id": "710ddcd46debebd21692f320e71cbefb", "is_disabled": 0, "is_reserved": 0}, {"rental_uris": {"ios": "https://dc.lft.to/lastmile_qr_scan", "android": "https://dc.lft.to/lastmile_qr_scan"}, "lon": -77.0526395, "type": "electric_scooter", "fusion_lat": 0.0, "lat": 38.91014216666667, "name": "a9ec9d788f28c1c23421fe2c8c4c6877", "fusion_lon": 0.0, "bike_id": "a9ec9d788f28c1c23421fe2c8c4c6877", "is_disabled": 0, "is_reserved": 0}, {"rental_uris": {"ios": "https://dc.lft.to/lastmile_qr_scan", "android": "https://dc.lft.to/lastmile_qr_scan"}, "lon": -76.99557633333333, "type": "electric_scooter", "fusion_lat": 0.0, "lat": 38.92304433333334, "name": "b2ca532649aec5e3aaac91d7bd0f1b89", "fusion_lon": 0.0, "bike_id": "b2ca532649aec5e3aaac91d7bd0f1b89", "is_disabled": 0, "is_reserved": 0}, {"rental_uris": {"ios": "https://dc.lft.to/lastmile_qr_scan", "android": "https://dc.lft.to/lastmile_qr_scan"}, "lon": -77.03629766666667, "type": "electric_scooter", "fusion_lat": 0.0, "lat": 38.95641283333333, "name": "65370f4560dd8322eb55958eece5959e", "fusion_lon": 0.0, "bike_id": "65370f4560dd8322eb55958eece5959e", "is_disabled": 0, "is_reserved": 0}, {"rental_uris": {"ios": "https://dc.lft.to/lastmile_qr_scan", "android": "https://dc.lft.to/lastmile_qr_scan"}, "lon": -77.02940916666667, "type": "electric_bike", "fusion_lat": 0.0, "lat": 38.8993135, "name": "96bc91b413918d2ba7532623bda16cd0", "fusion_lon": 0.0, "bike_id": "96bc91b413918d2ba7532623bda16cd0", "is_disabled": 0, "is_reserved": 0}, {"rental_uris": {"ios": "https://dc.lft.to/lastmile_qr_scan", "android": "https://dc.lft.to/lastmile_qr_scan"}, "lon": -76.95756116666666, "type": "electric_scooter", "fusion_lat": 0.0, "lat": 38.88427866666667, "name": "f4da28025df1eaa4ab53836346865fae", "fusion_lon": 0.0, "bike_id": "f4da28025df1eaa4ab53836346865fae", "is_disabled": 0, "is_reserved": 0}, {"rental_uris": {"ios": "https://dc.lft.to/lastmile_qr_scan", "android": "https://dc.lft.to/lastmile_qr_scan"}, "lon": -77.03184033333334, "type": "electric_scooter", "fusion_lat": 0.0, "lat": 38.917943666666666, "name": "e89cb38537febfc8112ed8d4d937ec3b", "fusion_lon": 0.0, "bike_id": "e89cb38537febfc8112ed8d4d937ec3b", "is_disabled": 0, "is_reserved": 0}, {"rental_uris": {"ios": "https://dc.lft.to/lastmile_qr_scan", "android": "https://dc.lft.to/lastmile_qr_scan"}, "lon": -77.125084, "type": "electric_bike", "fusion_lat": 0.0, "lat": 39.0242005, "name": "84bf496bd690717ffabe4378978bd5ff", "fusion_lon": 0.0, "bike_id": "84bf496bd690717ffabe4378978bd5ff", "is_disabled": 0, "is_reserved": 0}, {"rental_uris": {"ios": "https://dc.lft.to/lastmile_qr_scan", "android": "https://dc.lft.to/lastmile_qr_scan"}, "lon": -77.02651066666667, "type": "electric_scooter", "fusion_lat": 0.0, "lat": 38.89856233333333, "name": "cbbca0ab700c7a9ea382ed37da5802fa", "fusion_lon": 0.0, "bike_id": "cbbca0ab700c7a9ea382ed37da5802fa", "is_disabled": 0, "is_reserved": 0}, {"rental_uris": {"ios": "https://dc.lft.to/lastmile_qr_scan", "android": "https://dc.lft.to/lastmile_qr_scan"}, "lon": -77.055048, "type": "electric_scooter", "fusion_lat": 0.0, "lat": 38.929801, "name": "574378c4f3ae99a7464ce4eebea89d4f", "fusion_lon": 0.0, "bike_id": "574378c4f3ae99a7464ce4eebea89d4f", "is_disabled": 0, "is_reserved": 0}, {"rental_uris": {"ios": "https://dc.lft.to/lastmile_qr_scan", "android": "https://dc.lft.to/lastmile_qr_scan"}, "lon": -77.03082266666667, "type": "electric_scooter", "fusion_lat": 0.0, "lat": 38.907559, "name": "2ff785a2db5ecb9157b4c15a6570b53f", "fusion_lon": 0.0, "bike_id": "2ff785a2db5ecb9157b4c15a6570b53f", "is_disabled": 0, "is_reserved": 0}, {"rental_uris": {"ios": "https://dc.lft.to/lastmile_qr_scan", "android": "https://dc.lft.to/lastmile_qr_scan"}, "lon": -77.032307, "type": "electric_scooter", "fusion_lat": 0.0, "lat": 38.914061333333336, "name": "c80353ed0b6fe9e004e5b715ea3176b5", "fusion_lon": 0.0, "bike_id": "c80353ed0b6fe9e004e5b715ea3176b5", "is_disabled": 0, "is_reserved": 0}, {"rental_uris": {"ios": "https://dc.lft.to/lastmile_qr_scan", "android": "https://dc.lft.to/lastmile_qr_scan"}, "lon": -77.02380833333333, "type": "electric_scooter", "fusion_lat": 0.0, "lat": 38.8992385, "name": "918911addea432579ad026d78084fb02", "fusion_lon": 0.0, "bike_id": "918911addea432579ad026d78084fb02", "is_disabled": 0, "is_reserved": 0}, {"rental_uris": {"ios": "https://dc.lft.to/lastmile_qr_scan", "android": "https://dc.lft.to/lastmile_qr_scan"}, "lon": -77.06615666666667, "type": "electric_scooter", "fusion_lat": 0.0, "lat": 38.911884666666666, "name": "058e134ac48dfa2a3e88e8f177c030d2", "fusion_lon": 0.0, "bike_id": "058e134ac48dfa2a3e88e8f177c030d2", "is_disabled": 0, "is_reserved": 0}, {"rental_uris": {"ios": "https://dc.lft.to/lastmile_qr_scan", "android": "https://dc.lft.to/lastmile_qr_scan"}, "lon": -77.04373833333334, "type": "electric_scooter", "fusion_lat": 0.0, "lat": 38.917828666666665, "name": "422b01de5bb797b140e3929e4839504c", "fusion_lon": 0.0, "bike_id": "422b01de5bb797b140e3929e4839504c", "is_disabled": 0, "is_reserved": 0}, {"rental_uris": {"ios": "https://dc.lft.to/lastmile_qr_scan", "android": "https://dc.lft.to/lastmile_qr_scan"}, "lon": -77.06270233333333, "type": "electric_scooter", "fusion_lat": 0.0, "lat": 38.903523666666665, "name": "e766bb7e1938d1607fbd2879614bf00b", "fusion_lon": 0.0, "bike_id": "e766bb7e1938d1607fbd2879614bf00b", "is_disabled": 0, "is_reserved": 0}, {"rental_uris": {"ios": "https://dc.lft.to/lastmile_qr_scan", "android": "https://dc.lft.to/lastmile_qr_scan"}, "lon": -77.03680283333334, "type": "electric_scooter", "fusion_lat": 0.0, "lat": 38.90567683333333, "name": "61cdff3f1e73a3157a69b0a434bb7fca", "fusion_lon": 0.0, "bike_id": "61cdff3f1e73a3157a69b0a434bb7fca", "is_disabled": 0, "is_reserved": 0}, {"rental_uris": {"ios": "https://dc.lft.to/lastmile_qr_scan", "android": "https://dc.lft.to/lastmile_qr_scan"}, "lon": -77.03559583333333, "type": "electric_bike", "fusion_lat": 0.0, "lat": 38.964689666666665, "name": "3b41c6b31e469e746c653955f4fc78d3", "fusion_lon": 0.0, "bike_id": "3b41c6b31e469e746c653955f4fc78d3", "is_disabled": 0, "is_reserved": 0}, {"rental_uris": {"ios": "https://dc.lft.to/lastmile_qr_scan", "android": "https://dc.lft.to/lastmile_qr_scan"}, "lon": -76.99966083333334, "type": "electric_scooter", "fusion_lat": 0.0, "lat": 38.9091745, "name": "78fb1d911a4d5beb8c3c83a7431dceb4", "fusion_lon": 0.0, "bike_id": "78fb1d911a4d5beb8c3c83a7431dceb4", "is_disabled": 0, "is_reserved": 0}, {"rental_uris": {"ios": "https://dc.lft.to/lastmile_qr_scan", "android": "https://dc.lft.to/lastmile_qr_scan"}, "lon": -76.98512766666667, "type": "electric_scooter", "fusion_lat": 0.0, "lat": 38.906062, "name": "307f683258a60bffda872acaa78c681f", "fusion_lon": 0.0, "bike_id": "307f683258a60bffda872acaa78c681f", "is_disabled": 0, "is_reserved": 0}, {"rental_uris": {"ios": "https://dc.lft.to/lastmile_qr_scan", "android": "https://dc.lft.to/lastmile_qr_scan"}, "lon": -77.04167916666667, "type": "electric_scooter", "fusion_lat": 0.0, "lat": 38.91934533333333, "name": "24eda522dc4bd54bdbf5b3e7a6776827", "fusion_lon": 0.0, "bike_id": "24eda522dc4bd54bdbf5b3e7a6776827", "is_disabled": 0, "is_reserved": 0}, {"rental_uris": {"ios": "https://dc.lft.to/lastmile_qr_scan", "android": "https://dc.lft.to/lastmile_qr_scan"}, "lon": -77.0261305, "type": "electric_scooter", "fusion_lat": 0.0, "lat": 38.900505833333334, "name": "316db17535da1ec0494eaa87c3971612", "fusion_lon": 0.0, "bike_id": "316db17535da1ec0494eaa87c3971612", "is_disabled": 0, "is_reserved": 0}, {"rental_uris": {"ios": "https://dc.lft.to/lastmile_qr_scan", "android": "https://dc.lft.to/lastmile_qr_scan"}, "lon": -76.99813333333333, "type": "electric_scooter", "fusion_lat": 0.0, "lat": 38.888767, "name": "dadcde3a59f80e40e7cee9d13905b852", "fusion_lon": 0.0, "bike_id": "dadcde3a59f80e40e7cee9d13905b852", "is_disabled": 0, "is_reserved": 0}, {"rental_uris": {"ios": "https://dc.lft.to/lastmile_qr_scan", "android": "https://dc.lft.to/lastmile_qr_scan"}, "lon": -77.03924066666667, "type": "electric_scooter", "fusion_lat": 0.0, "lat": 38.923141666666666, "name": "7ac4f2e08e58862bff6303ca00da9c85", "fusion_lon": 0.0, "bike_id": "7ac4f2e08e58862bff6303ca00da9c85", "is_disabled": 0, "is_reserved": 0}, {"rental_uris": {"ios": "https://dc.lft.to/lastmile_qr_scan", "android": "https://dc.lft.to/lastmile_qr_scan"}, "lon": -77.0060205, "type": "electric_scooter", "fusion_lat": 0.0, "lat": 38.8771745, "name": "612527558b39d7268b2e2d7822d6c1de", "fusion_lon": 0.0, "bike_id": "612527558b39d7268b2e2d7822d6c1de", "is_disabled": 0, "is_reserved": 0}, {"rental_uris": {"ios": "https://dc.lft.to/lastmile_qr_scan", "android": "https://dc.lft.to/lastmile_qr_scan"}, "lon": -77.0322605, "type": "electric_scooter", "fusion_lat": 0.0, "lat": 38.918208, "name": "0c8b51398ac532a3d0046d5e10c2af36", "fusion_lon": 0.0, "bike_id": "0c8b51398ac532a3d0046d5e10c2af36", "is_disabled": 0, "is_reserved": 0}, {"rental_uris": {"ios": "https://dc.lft.to/lastmile_qr_scan", "android": "https://dc.lft.to/lastmile_qr_scan"}, "lon": -77.00276466666666, "type": "electric_scooter", "fusion_lat": 0.0, "lat": 38.897409333333336, "name": "1c10395e054c2d323a3106cefe6f0bc3", "fusion_lon": 0.0, "bike_id": "1c10395e054c2d323a3106cefe6f0bc3", "is_disabled": 0, "is_reserved": 0}, {"rental_uris": {"ios": "https://dc.lft.to/lastmile_qr_scan", "android": "https://dc.lft.to/lastmile_qr_scan"}, "lon": -77.10507283333334, "type": "electric_bike", "fusion_lat": 0.0, "lat": 38.928468, "name": "36596d2d3f78603162c1cd448829707b", "fusion_lon": 0.0, "bike_id": "36596d2d3f78603162c1cd448829707b", "is_disabled": 0, "is_reserved": 0}, {"rental_uris": {"ios": "https://dc.lft.to/lastmile_qr_scan", "android": "https://dc.lft.to/lastmile_qr_scan"}, "lon": -77.08947616666667, "type": "electric_bike", "fusion_lat": 0.0, "lat": 38.84107266666667, "name": "d0f55f8e450c317f2b6f98df0fc23065", "fusion_lon": 0.0, "bike_id": "d0f55f8e450c317f2b6f98df0fc23065", "is_disabled": 0, "is_reserved": 0}, {"rental_uris": {"ios": "https://dc.lft.to/lastmile_qr_scan", "android": "https://dc.lft.to/lastmile_qr_scan"}, "lon": -77.051348, "type": "electric_scooter", "fusion_lat": 0.0, "lat": 38.905411666666666, "name": "475910a6e742c159d02607a2343aec05", "fusion_lon": 0.0, "bike_id": "475910a6e742c159d02607a2343aec05", "is_disabled": 0, "is_reserved": 0}, {"rental_uris": {"ios": "https://dc.lft.to/lastmile_qr_scan", "android": "https://dc.lft.to/lastmile_qr_scan"}, "lon": -77.0265585, "type": "electric_scooter", "fusion_lat": 0.0, "lat": 38.89222683333333, "name": "01ff842cf77613f960604c72a3dd8e76", "fusion_lon": 0.0, "bike_id": "01ff842cf77613f960604c72a3dd8e76", "is_disabled": 0, "is_reserved": 0}, {"rental_uris": {"ios": "https://dc.lft.to/lastmile_qr_scan", "android": "https://dc.lft.to/lastmile_qr_scan"}, "lon": -77.05350583333333, "type": "electric_scooter", "fusion_lat": 0.0, "lat": 38.92718433333334, "name": "c920e2e2ddfa89f1188bccfefa163de5", "fusion_lon": 0.0, "bike_id": "c920e2e2ddfa89f1188bccfefa163de5", "is_disabled": 0, "is_reserved": 0}, {"rental_uris": {"ios": "https://dc.lft.to/lastmile_qr_scan", "android": "https://dc.lft.to/lastmile_qr_scan"}, "lon": -77.00673933333333, "type": "electric_scooter", "fusion_lat": 0.0, "lat": 38.9004145, "name": "c7faeff4ae32fb1f271b9fa81136511c", "fusion_lon": 0.0, "bike_id": "c7faeff4ae32fb1f271b9fa81136511c", "is_disabled": 0, "is_reserved": 0}, {"rental_uris": {"ios": "https://dc.lft.to/lastmile_qr_scan", "android": "https://dc.lft.to/lastmile_qr_scan"}, "lon": -77.0489875, "type": "electric_scooter", "fusion_lat": 0.0, "lat": 38.903589, "name": "3c57e174343b92f20cad3625eea3acf5", "fusion_lon": 0.0, "bike_id": "3c57e174343b92f20cad3625eea3acf5", "is_disabled": 0, "is_reserved": 0}, {"rental_uris": {"ios": "https://dc.lft.to/lastmile_qr_scan", "android": "https://dc.lft.to/lastmile_qr_scan"}, "lon": -76.984225, "type": "electric_scooter", "fusion_lat": 0.0, "lat": 38.85976266666667, "name": "0699c549ca33582580aa2a2679572d86", "fusion_lon": 0.0, "bike_id": "0699c549ca33582580aa2a2679572d86", "is_disabled": 0, "is_reserved": 0}, {"rental_uris": {"ios": "https://dc.lft.to/lastmile_qr_scan", "android": "https://dc.lft.to/lastmile_qr_scan"}, "lon": -77.02958966666667, "type": "electric_scooter", "fusion_lat": 0.0, "lat": 38.91582366666667, "name": "2b4bab96fabbcf433b3313d2de6ac879", "fusion_lon": 0.0, "bike_id": "2b4bab96fabbcf433b3313d2de6ac879", "is_disabled": 0, "is_reserved": 0}, {"rental_uris": {"ios": "https://dc.lft.to/lastmile_qr_scan", "android": "https://dc.lft.to/lastmile_qr_scan"}, "lon": -77.0320845, "type": "electric_scooter", "fusion_lat": 0.0, "lat": 38.91827816666667, "name": "19705750ae73ecd221d5702280ea189f", "fusion_lon": 0.0, "bike_id": "19705750ae73ecd221d5702280ea189f", "is_disabled": 0, "is_reserved": 0}, {"rental_uris": {"ios": "https://dc.lft.to/lastmile_qr_scan", "android": "https://dc.lft.to/lastmile_qr_scan"}, "lon": -77.01978866666667, "type": "electric_scooter", "fusion_lat": 0.0, "lat": 38.887194666666666, "name": "53752b15611be51854c41baa4f209684", "fusion_lon": 0.0, "bike_id": "53752b15611be51854c41baa4f209684", "is_disabled": 0, "is_reserved": 0}, {"rental_uris": {"ios": "https://dc.lft.to/lastmile_qr_scan", "android": "https://dc.lft.to/lastmile_qr_scan"}, "lon": -76.9662725, "type": "electric_bike", "fusion_lat": 0.0, "lat": 38.94201666666667, "name": "baf4a1f3e20325000ead14e8a1b76e6f", "fusion_lon": 0.0, "bike_id": "baf4a1f3e20325000ead14e8a1b76e6f", "is_disabled": 0, "is_reserved": 0}, {"rental_uris": {"ios": "https://dc.lft.to/lastmile_qr_scan", "android": "https://dc.lft.to/lastmile_qr_scan"}, "lon": -77.00985683333333, "type": "electric_scooter", "fusion_lat": 0.0, "lat": 38.9148875, "name": "48fc3486eb3e0e92d84f92189670255d", "fusion_lon": 0.0, "bike_id": "48fc3486eb3e0e92d84f92189670255d", "is_disabled": 0, "is_reserved": 0}, {"rental_uris": {"ios": "https://dc.lft.to/lastmile_qr_scan", "android": "https://dc.lft.to/lastmile_qr_scan"}, "lon": -77.02391733333333, "type": "electric_scooter", "fusion_lat": 0.0, "lat": 38.952901, "name": "f48664f9b27ba4bbed532e2932ab49e6", "fusion_lon": 0.0, "bike_id": "f48664f9b27ba4bbed532e2932ab49e6", "is_disabled": 0, "is_reserved": 0}, {"rental_uris": {"ios": "https://dc.lft.to/lastmile_qr_scan", "android": "https://dc.lft.to/lastmile_qr_scan"}, "lon": -77.027948, "type": "electric_scooter", "fusion_lat": 0.0, "lat": 38.917608, "name": "4bd8d51d852117bcd7a387d4720cdfbb", "fusion_lon": 0.0, "bike_id": "4bd8d51d852117bcd7a387d4720cdfbb", "is_disabled": 0, "is_reserved": 0}, {"rental_uris": {"ios": "https://dc.lft.to/lastmile_qr_scan", "android": "https://dc.lft.to/lastmile_qr_scan"}, "lon": -77.010553, "type": "electric_scooter", "fusion_lat": 0.0, "lat": 38.8793185, "name": "5f87ec49b2bfe36f71cee4d8d37b43e3", "fusion_lon": 0.0, "bike_id": "5f87ec49b2bfe36f71cee4d8d37b43e3", "is_disabled": 0, "is_reserved": 0}, {"rental_uris": {"ios": "https://dc.lft.to/lastmile_qr_scan", "android": "https://dc.lft.to/lastmile_qr_scan"}, "lon": -77.04506333333333, "type": "electric_scooter", "fusion_lat": 0.0, "lat": 38.892215666666665, "name": "b9fd7674f11ade419442fed816b23acf", "fusion_lon": 0.0, "bike_id": "b9fd7674f11ade419442fed816b23acf", "is_disabled": 0, "is_reserved": 0}, {"rental_uris": {"ios": "https://dc.lft.to/lastmile_qr_scan", "android": "https://dc.lft.to/lastmile_qr_scan"}, "lon": -77.02587816666667, "type": "electric_scooter", "fusion_lat": 0.0, "lat": 38.89610666666667, "name": "20c62595ce00252732efaed32a49d8bc", "fusion_lon": 0.0, "bike_id": "20c62595ce00252732efaed32a49d8bc", "is_disabled": 0, "is_reserved": 0}, {"rental_uris": {"ios": "https://dc.lft.to/lastmile_qr_scan", "android": "https://dc.lft.to/lastmile_qr_scan"}, "lon": -77.03003133333333, "type": "electric_scooter", "fusion_lat": 0.0, "lat": 38.905135, "name": "0be8584b0c158143bbdff0e617c979b7", "fusion_lon": 0.0, "bike_id": "0be8584b0c158143bbdff0e617c979b7", "is_disabled": 0, "is_reserved": 0}, {"rental_uris": {"ios": "https://dc.lft.to/lastmile_qr_scan", "android": "https://dc.lft.to/lastmile_qr_scan"}, "lon": -77.0210145, "type": "electric_scooter", "fusion_lat": 0.0, "lat": 38.913059, "name": "4f4f952ea7ef702d9cb0215e7e05a9eb", "fusion_lon": 0.0, "bike_id": "4f4f952ea7ef702d9cb0215e7e05a9eb", "is_disabled": 0, "is_reserved": 0}, {"rental_uris": {"ios": "https://dc.lft.to/lastmile_qr_scan", "android": "https://dc.lft.to/lastmile_qr_scan"}, "lon": -76.9380355, "type": "electric_scooter", "fusion_lat": 0.0, "lat": 38.8823325, "name": "3835e999e799f3f4cc996f71410e61e5", "fusion_lon": 0.0, "bike_id": "3835e999e799f3f4cc996f71410e61e5", "is_disabled": 0, "is_reserved": 0}, {"rental_uris": {"ios": "https://dc.lft.to/lastmile_qr_scan", "android": "https://dc.lft.to/lastmile_qr_scan"}, "lon": -77.029737, "type": "electric_scooter", "fusion_lat": 0.0, "lat": 38.9167915, "name": "812f41e894fa67fd0ff76152f6839970", "fusion_lon": 0.0, "bike_id": "812f41e894fa67fd0ff76152f6839970", "is_disabled": 0, "is_reserved": 0}, {"rental_uris": {"ios": "https://dc.lft.to/lastmile_qr_scan", "android": "https://dc.lft.to/lastmile_qr_scan"}, "lon": -77.02298216666667, "type": "electric_scooter", "fusion_lat": 0.0, "lat": 38.932956833333336, "name": "1321e301560490b578f0a4243d837953", "fusion_lon": 0.0, "bike_id": "1321e301560490b578f0a4243d837953", "is_disabled": 0, "is_reserved": 0}, {"rental_uris": {"ios": "https://dc.lft.to/lastmile_qr_scan", "android": "https://dc.lft.to/lastmile_qr_scan"}, "lon": -76.99840433333334, "type": "electric_scooter", "fusion_lat": 0.0, "lat": 38.90001016666667, "name": "b424b5ed15c75e5f172598df1c192547", "fusion_lon": 0.0, "bike_id": "b424b5ed15c75e5f172598df1c192547", "is_disabled": 0, "is_reserved": 0}, {"rental_uris": {"ios": "https://dc.lft.to/lastmile_qr_scan", "android": "https://dc.lft.to/lastmile_qr_scan"}, "lon": -77.05523116666667, "type": "electric_scooter", "fusion_lat": 0.0, "lat": 38.89734466666667, "name": "1097d3bc59432cd3f6cedb60a1980f08", "fusion_lon": 0.0, "bike_id": "1097d3bc59432cd3f6cedb60a1980f08", "is_disabled": 0, "is_reserved": 0}, {"rental_uris": {"ios": "https://dc.lft.to/lastmile_qr_scan", "android": "https://dc.lft.to/lastmile_qr_scan"}, "lon": -76.94732316666666, "type": "electric_scooter", "fusion_lat": 0.0, "lat": 38.896948, "name": "40af89da41e1b5429cb48734e641774b", "fusion_lon": 0.0, "bike_id": "40af89da41e1b5429cb48734e641774b", "is_disabled": 0, "is_reserved": 0}, {"rental_uris": {"ios": "https://dc.lft.to/lastmile_qr_scan", "android": "https://dc.lft.to/lastmile_qr_scan"}, "lon": -77.0464665, "type": "electric_bike", "fusion_lat": 0.0, "lat": 38.85209533333333, "name": "3dc323d2ad13946f94401a6eeec1e04b", "fusion_lon": 0.0, "bike_id": "3dc323d2ad13946f94401a6eeec1e04b", "is_disabled": 0, "is_reserved": 0}, {"rental_uris": {"ios": "https://dc.lft.to/lastmile_qr_scan", "android": "https://dc.lft.to/lastmile_qr_scan"}, "lon": -77.05703133333333, "type": "electric_scooter", "fusion_lat": 0.0, "lat": 38.905335, "name": "64d2b192de9829759d00aeed3487a0c3", "fusion_lon": 0.0, "bike_id": "64d2b192de9829759d00aeed3487a0c3", "is_disabled": 0, "is_reserved": 0}, {"rental_uris": {"ios": "https://dc.lft.to/lastmile_qr_scan", "android": "https://dc.lft.to/lastmile_qr_scan"}, "lon": -77.0552445, "type": "electric_scooter", "fusion_lat": 0.0, "lat": 38.897288333333336, "name": "fb51a7bb6e385087ac50088637610d1e", "fusion_lon": 0.0, "bike_id": "fb51a7bb6e385087ac50088637610d1e", "is_disabled": 0, "is_reserved": 0}, {"rental_uris": {"ios": "https://dc.lft.to/lastmile_qr_scan", "android": "https://dc.lft.to/lastmile_qr_scan"}, "lon": -77.04824383333333, "type": "electric_scooter", "fusion_lat": 0.0, "lat": 38.90793983333333, "name": "9177e293d84cdcd2e43279c607f6783f", "fusion_lon": 0.0, "bike_id": "9177e293d84cdcd2e43279c607f6783f", "is_disabled": 0, "is_reserved": 0}, {"rental_uris": {"ios": "https://dc.lft.to/lastmile_qr_scan", "android": "https://dc.lft.to/lastmile_qr_scan"}, "lon": -77.0463095, "type": "electric_scooter", "fusion_lat": 0.0, "lat": 38.906644166666666, "name": "b4b8087bc068b66e9a3f55ee26ffbef5", "fusion_lon": 0.0, "bike_id": "b4b8087bc068b66e9a3f55ee26ffbef5", "is_disabled": 0, "is_reserved": 0}, {"rental_uris": {"ios": "https://dc.lft.to/lastmile_qr_scan", "android": "https://dc.lft.to/lastmile_qr_scan"}, "lon": -76.93367283333333, "type": "electric_scooter", "fusion_lat": 0.0, "lat": 38.899131, "name": "5c2c1a4d2d698c41c55affa8b12a0ebb", "fusion_lon": 0.0, "bike_id": "5c2c1a4d2d698c41c55affa8b12a0ebb", "is_disabled": 0, "is_reserved": 0}, {"rental_uris": {"ios": "https://dc.lft.to/lastmile_qr_scan", "android": "https://dc.lft.to/lastmile_qr_scan"}, "lon": -77.06268966666667, "type": "electric_scooter", "fusion_lat": 0.0, "lat": 38.903567833333334, "name": "4d6563848aa19b8ccdc98b0cc05ccdcc", "fusion_lon": 0.0, "bike_id": "4d6563848aa19b8ccdc98b0cc05ccdcc", "is_disabled": 0, "is_reserved": 0}, {"rental_uris": {"ios": "https://dc.lft.to/lastmile_qr_scan", "android": "https://dc.lft.to/lastmile_qr_scan"}, "lon": -77.05863883333333, "type": "electric_scooter", "fusion_lat": 0.0, "lat": 38.936065666666664, "name": "f02abf8a1d51020039708acf1d4ebbc3", "fusion_lon": 0.0, "bike_id": "f02abf8a1d51020039708acf1d4ebbc3", "is_disabled": 0, "is_reserved": 0}, {"rental_uris": {"ios": "https://dc.lft.to/lastmile_qr_scan", "android": "https://dc.lft.to/lastmile_qr_scan"}, "lon": -77.04684866666666, "type": "electric_scooter", "fusion_lat": 0.0, "lat": 38.90536266666667, "name": "9cc442f028323cbe04caec41df08bcad", "fusion_lon": 0.0, "bike_id": "9cc442f028323cbe04caec41df08bcad", "is_disabled": 0, "is_reserved": 0}, {"rental_uris": {"ios": "https://dc.lft.to/lastmile_qr_scan", "android": "https://dc.lft.to/lastmile_qr_scan"}, "lon": -76.99069983333334, "type": "electric_scooter", "fusion_lat": 0.0, "lat": 38.863561833333335, "name": "ec91ffc466b56cf6c2c7c694db7303e4", "fusion_lon": 0.0, "bike_id": "ec91ffc466b56cf6c2c7c694db7303e4", "is_disabled": 0, "is_reserved": 0}, {"rental_uris": {"ios": "https://dc.lft.to/lastmile_qr_scan", "android": "https://dc.lft.to/lastmile_qr_scan"}, "lon": -77.02942066666667, "type": "electric_scooter", "fusion_lat": 0.0, "lat": 38.903875166666666, "name": "459b26bfc2286426b262c73487e90c58", "fusion_lon": 0.0, "bike_id": "459b26bfc2286426b262c73487e90c58", "is_disabled": 0, "is_reserved": 0}, {"rental_uris": {"ios": "https://dc.lft.to/lastmile_qr_scan", "android": "https://dc.lft.to/lastmile_qr_scan"}, "lon": -76.99797033333333, "type": "electric_bike", "fusion_lat": 0.0, "lat": 38.90858083333333, "name": "567e7340c71bd882f214890d865da6cb", "fusion_lon": 0.0, "bike_id": "567e7340c71bd882f214890d865da6cb", "is_disabled": 0, "is_reserved": 0}, {"rental_uris": {"ios": "https://dc.lft.to/lastmile_qr_scan", "android": "https://dc.lft.to/lastmile_qr_scan"}, "lon": -77.0235395, "type": "electric_scooter", "fusion_lat": 0.0, "lat": 38.935310333333334, "name": "f826d1ec6fcbdc61a643f55c3bf21ef4", "fusion_lon": 0.0, "bike_id": "f826d1ec6fcbdc61a643f55c3bf21ef4", "is_disabled": 0, "is_reserved": 0}, {"rental_uris": {"ios": "https://dc.lft.to/lastmile_qr_scan", "android": "https://dc.lft.to/lastmile_qr_scan"}, "lon": -77.149877, "type": "electric_bike", "fusion_lat": 0.0, "lat": 39.0945985, "name": "ce308e75080529ee94284071956ebc9f", "fusion_lon": 0.0, "bike_id": "ce308e75080529ee94284071956ebc9f", "is_disabled": 0, "is_reserved": 0}, {"rental_uris": {"ios": "https://dc.lft.to/lastmile_qr_scan", "android": "https://dc.lft.to/lastmile_qr_scan"}, "lon": -76.96849666666667, "type": "electric_scooter", "fusion_lat": 0.0, "lat": 38.87464166666667, "name": "bdd132849a5e6e605cbe49e4db79628f", "fusion_lon": 0.0, "bike_id": "bdd132849a5e6e605cbe49e4db79628f", "is_disabled": 0, "is_reserved": 0}, {"rental_uris": {"ios": "https://dc.lft.to/lastmile_qr_scan", "android": "https://dc.lft.to/lastmile_qr_scan"}, "lon": -77.199084, "type": "electric_bike", "fusion_lat": 0.0, "lat": 38.875272333333335, "name": "0586c8685c630a2f6d41d420f48dc871", "fusion_lon": 0.0, "bike_id": "0586c8685c630a2f6d41d420f48dc871", "is_disabled": 0, "is_reserved": 0}, {"rental_uris": {"ios": "https://dc.lft.to/lastmile_qr_scan", "android": "https://dc.lft.to/lastmile_qr_scan"}, "lon": -77.035722, "type": "electric_scooter", "fusion_lat": 0.0, "lat": 38.916358333333335, "name": "edcf4f542555f05708bc375afbaab384", "fusion_lon": 0.0, "bike_id": "edcf4f542555f05708bc375afbaab384", "is_disabled": 0, "is_reserved": 0}, {"rental_uris": {"ios": "https://dc.lft.to/lastmile_qr_scan", "android": "https://dc.lft.to/lastmile_qr_scan"}, "lon": -77.04886983333333, "type": "electric_scooter", "fusion_lat": 0.0, "lat": 38.90394383333334, "name": "e7f8606babe8c2f4fe148a2eec66b5d7", "fusion_lon": 0.0, "bike_id": "e7f8606babe8c2f4fe148a2eec66b5d7", "is_disabled": 0, "is_reserved": 0}, {"rental_uris": {"ios": "https://dc.lft.to/lastmile_qr_scan", "android": "https://dc.lft.to/lastmile_qr_scan"}, "lon": -77.006537, "type": "electric_scooter", "fusion_lat": 0.0, "lat": 38.908609, "name": "cc6cc078a1fc6cb73feb57a4c799920c", "fusion_lon": 0.0, "bike_id": "cc6cc078a1fc6cb73feb57a4c799920c", "is_disabled": 0, "is_reserved": 0}, {"rental_uris": {"ios": "https://dc.lft.to/lastmile_qr_scan", "android": "https://dc.lft.to/lastmile_qr_scan"}, "lon": -77.04176716666667, "type": "electric_scooter", "fusion_lat": 0.0, "lat": 38.9028995, "name": "af2e751eb58709a90e7a9abe1b9e8ff1", "fusion_lon": 0.0, "bike_id": "af2e751eb58709a90e7a9abe1b9e8ff1", "is_disabled": 0, "is_reserved": 0}, {"rental_uris": {"ios": "https://dc.lft.to/lastmile_qr_scan", "android": "https://dc.lft.to/lastmile_qr_scan"}, "lon": -76.9336255, "type": "electric_scooter", "fusion_lat": 0.0, "lat": 38.8991855, "name": "b3ab4cc6effd0fea1502cf73016640b8", "fusion_lon": 0.0, "bike_id": "b3ab4cc6effd0fea1502cf73016640b8", "is_disabled": 0, "is_reserved": 0}, {"rental_uris": {"ios": "https://dc.lft.to/lastmile_qr_scan", "android": "https://dc.lft.to/lastmile_qr_scan"}, "lon": -77.03452483333334, "type": "electric_scooter", "fusion_lat": 0.0, "lat": 38.917640666666664, "name": "71ff871f627bcfbff8915069314b0228", "fusion_lon": 0.0, "bike_id": "71ff871f627bcfbff8915069314b0228", "is_disabled": 0, "is_reserved": 0}, {"rental_uris": {"ios": "https://dc.lft.to/lastmile_qr_scan", "android": "https://dc.lft.to/lastmile_qr_scan"}, "lon": -77.02157833333334, "type": "electric_scooter", "fusion_lat": 0.0, "lat": 38.91627033333333, "name": "afd3c257a678c11b645f435e35106bab", "fusion_lon": 0.0, "bike_id": "afd3c257a678c11b645f435e35106bab", "is_disabled": 0, "is_reserved": 0}, {"rental_uris": {"ios": "https://dc.lft.to/lastmile_qr_scan", "android": "https://dc.lft.to/lastmile_qr_scan"}, "lon": -77.05882066666666, "type": "electric_scooter", "fusion_lat": 0.0, "lat": 38.9363665, "name": "2f448b72724930818442085488fd445a", "fusion_lon": 0.0, "bike_id": "2f448b72724930818442085488fd445a", "is_disabled": 0, "is_reserved": 0}, {"rental_uris": {"ios": "https://dc.lft.to/lastmile_qr_scan", "android": "https://dc.lft.to/lastmile_qr_scan"}, "lon": -76.94654683333333, "type": "electric_scooter", "fusion_lat": 0.0, "lat": 38.89826166666667, "name": "bcff2ff73be824748c6816b0e83edafc", "fusion_lon": 0.0, "bike_id": "bcff2ff73be824748c6816b0e83edafc", "is_disabled": 0, "is_reserved": 0}, {"rental_uris": {"ios": "https://dc.lft.to/lastmile_qr_scan", "android": "https://dc.lft.to/lastmile_qr_scan"}, "lon": -77.0239075, "type": "electric_scooter", "fusion_lat": 0.0, "lat": 38.91599033333333, "name": "18185b316c5907501ff87bd9bac32cfc", "fusion_lon": 0.0, "bike_id": "18185b316c5907501ff87bd9bac32cfc", "is_disabled": 0, "is_reserved": 0}, {"rental_uris": {"ios": "https://dc.lft.to/lastmile_qr_scan", "android": "https://dc.lft.to/lastmile_qr_scan"}, "lon": -77.063482, "type": "electric_bike", "fusion_lat": 0.0, "lat": 38.908521666666665, "name": "e5b3bae0b008a7fb063915b33717ddda", "fusion_lon": 0.0, "bike_id": "e5b3bae0b008a7fb063915b33717ddda", "is_disabled": 0, "is_reserved": 0}, {"rental_uris": {"ios": "https://dc.lft.to/lastmile_qr_scan", "android": "https://dc.lft.to/lastmile_qr_scan"}, "lon": -77.03352583333333, "type": "electric_scooter", "fusion_lat": 0.0, "lat": 38.906375833333335, "name": "c9efa2732f9b398f50345521ab53a58c", "fusion_lon": 0.0, "bike_id": "c9efa2732f9b398f50345521ab53a58c", "is_disabled": 0, "is_reserved": 0}, {"rental_uris": {"ios": "https://dc.lft.to/lastmile_qr_scan", "android": "https://dc.lft.to/lastmile_qr_scan"}, "lon": -77.03193466666667, "type": "electric_scooter", "fusion_lat": 0.0, "lat": 38.919244666666664, "name": "a98c112b926b85147530a2eab4fa388f", "fusion_lon": 0.0, "bike_id": "a98c112b926b85147530a2eab4fa388f", "is_disabled": 0, "is_reserved": 0}, {"rental_uris": {"ios": "https://dc.lft.to/lastmile_qr_scan", "android": "https://dc.lft.to/lastmile_qr_scan"}, "lon": -76.9725325, "type": "electric_bike", "fusion_lat": 0.0, "lat": 38.957396, "name": "e82db7cb8c825d839584a61c698120c7", "fusion_lon": 0.0, "bike_id": "e82db7cb8c825d839584a61c698120c7", "is_disabled": 0, "is_reserved": 0}, {"rental_uris": {"ios": "https://dc.lft.to/lastmile_qr_scan", "android": "https://dc.lft.to/lastmile_qr_scan"}, "lon": -77.00488866666667, "type": "electric_scooter", "fusion_lat": 0.0, "lat": 38.9125825, "name": "fc6c8f00dfe8c8250a2e503fe7e0fa59", "fusion_lon": 0.0, "bike_id": "fc6c8f00dfe8c8250a2e503fe7e0fa59", "is_disabled": 0, "is_reserved": 0}, {"rental_uris": {"ios": "https://dc.lft.to/lastmile_qr_scan", "android": "https://dc.lft.to/lastmile_qr_scan"}, "lon": -77.03211816666666, "type": "electric_scooter", "fusion_lat": 0.0, "lat": 38.937531166666666, "name": "cc718394f17a934e8becf1da4a76fa6e", "fusion_lon": 0.0, "bike_id": "cc718394f17a934e8becf1da4a76fa6e", "is_disabled": 0, "is_reserved": 0}, {"rental_uris": {"ios": "https://dc.lft.to/lastmile_qr_scan", "android": "https://dc.lft.to/lastmile_qr_scan"}, "lon": -77.04997516666667, "type": "electric_scooter", "fusion_lat": 0.0, "lat": 38.9042065, "name": "3158b8568d4327c549be923d00bec7fe", "fusion_lon": 0.0, "bike_id": "3158b8568d4327c549be923d00bec7fe", "is_disabled": 0, "is_reserved": 0}, {"rental_uris": {"ios": "https://dc.lft.to/lastmile_qr_scan", "android": "https://dc.lft.to/lastmile_qr_scan"}, "lon": -77.01557333333334, "type": "electric_scooter", "fusion_lat": 0.0, "lat": 38.90241816666666, "name": "f1c1e82b59598eeb80aeda9a6e45b944", "fusion_lon": 0.0, "bike_id": "f1c1e82b59598eeb80aeda9a6e45b944", "is_disabled": 0, "is_reserved": 0}, {"rental_uris": {"ios": "https://dc.lft.to/lastmile_qr_scan", "android": "https://dc.lft.to/lastmile_qr_scan"}, "lon": -76.996075, "type": "electric_scooter", "fusion_lat": 0.0, "lat": 38.88621366666667, "name": "864df72fc5d1a4948d7e96f9cfaccbae", "fusion_lon": 0.0, "bike_id": "864df72fc5d1a4948d7e96f9cfaccbae", "is_disabled": 0, "is_reserved": 0}, {"rental_uris": {"ios": "https://dc.lft.to/lastmile_qr_scan", "android": "https://dc.lft.to/lastmile_qr_scan"}, "lon": -76.97556016666667, "type": "electric_scooter", "fusion_lat": 0.0, "lat": 38.90440616666667, "name": "336f30c7c2f25f83e2f44b0361be2bab", "fusion_lon": 0.0, "bike_id": "336f30c7c2f25f83e2f44b0361be2bab", "is_disabled": 0, "is_reserved": 0}, {"rental_uris": {"ios": "https://dc.lft.to/lastmile_qr_scan", "android": "https://dc.lft.to/lastmile_qr_scan"}, "lon": -76.9732475, "type": "electric_scooter", "fusion_lat": 0.0, "lat": 38.9302775, "name": "95752c9090d5514451504daee3c4e02d", "fusion_lon": 0.0, "bike_id": "95752c9090d5514451504daee3c4e02d", "is_disabled": 0, "is_reserved": 0}, {"rental_uris": {"ios": "https://dc.lft.to/lastmile_qr_scan", "android": "https://dc.lft.to/lastmile_qr_scan"}, "lon": -76.98562483333333, "type": "electric_scooter", "fusion_lat": 0.0, "lat": 38.8614245, "name": "f48cfd013c091e07d023da9217bbf44a", "fusion_lon": 0.0, "bike_id": "f48cfd013c091e07d023da9217bbf44a", "is_disabled": 0, "is_reserved": 0}, {"rental_uris": {"ios": "https://dc.lft.to/lastmile_qr_scan", "android": "https://dc.lft.to/lastmile_qr_scan"}, "lon": -77.03218816666667, "type": "electric_scooter", "fusion_lat": 0.0, "lat": 38.916836, "name": "250bcafb4acda679c76ef04ef8b7c980", "fusion_lon": 0.0, "bike_id": "250bcafb4acda679c76ef04ef8b7c980", "is_disabled": 0, "is_reserved": 0}, {"rental_uris": {"ios": "https://dc.lft.to/lastmile_qr_scan", "android": "https://dc.lft.to/lastmile_qr_scan"}, "lon": -76.99868616666667, "type": "electric_scooter", "fusion_lat": 0.0, "lat": 38.90033316666667, "name": "da7be2e3418ca996c3993ca359d8b9ce", "fusion_lon": 0.0, "bike_id": "da7be2e3418ca996c3993ca359d8b9ce", "is_disabled": 0, "is_reserved": 0}, {"rental_uris": {"ios": "https://dc.lft.to/lastmile_qr_scan", "android": "https://dc.lft.to/lastmile_qr_scan"}, "lon": -76.97503816666666, "type": "electric_bike", "fusion_lat": 0.0, "lat": 38.919349, "name": "083d193df1f4197d128572fd553db4e7", "fusion_lon": 0.0, "bike_id": "083d193df1f4197d128572fd553db4e7", "is_disabled": 0, "is_reserved": 0}, {"rental_uris": {"ios": "https://dc.lft.to/lastmile_qr_scan", "android": "https://dc.lft.to/lastmile_qr_scan"}, "lon": -77.05180883333334, "type": "electric_scooter", "fusion_lat": 0.0, "lat": 38.92365083333333, "name": "3d528082746bc8565a23c19fd0a9c1fd", "fusion_lon": 0.0, "bike_id": "3d528082746bc8565a23c19fd0a9c1fd", "is_disabled": 0, "is_reserved": 0}, {"rental_uris": {"ios": "https://dc.lft.to/lastmile_qr_scan", "android": "https://dc.lft.to/lastmile_qr_scan"}, "lon": -77.04159183333333, "type": "electric_scooter", "fusion_lat": 0.0, "lat": 38.914851666666664, "name": "18ae12ce906dc54299585a95f64f3a73", "fusion_lon": 0.0, "bike_id": "18ae12ce906dc54299585a95f64f3a73", "is_disabled": 0, "is_reserved": 0}, {"rental_uris": {"ios": "https://dc.lft.to/lastmile_qr_scan", "android": "https://dc.lft.to/lastmile_qr_scan"}, "lon": -77.05679166666667, "type": "electric_scooter", "fusion_lat": 0.0, "lat": 38.90516933333333, "name": "c95080f5449caee1b6140bfc03c5e359", "fusion_lon": 0.0, "bike_id": "c95080f5449caee1b6140bfc03c5e359", "is_disabled": 0, "is_reserved": 0}, {"rental_uris": {"ios": "https://dc.lft.to/lastmile_qr_scan", "android": "https://dc.lft.to/lastmile_qr_scan"}, "lon": -77.03187433333333, "type": "electric_scooter", "fusion_lat": 0.0, "lat": 38.91240883333333, "name": "d2ae00c70db1631a5a6bce90746809d1", "fusion_lon": 0.0, "bike_id": "d2ae00c70db1631a5a6bce90746809d1", "is_disabled": 0, "is_reserved": 0}, {"rental_uris": {"ios": "https://dc.lft.to/lastmile_qr_scan", "android": "https://dc.lft.to/lastmile_qr_scan"}, "lon": -77.02815133333333, "type": "electric_scooter", "fusion_lat": 0.0, "lat": 38.89619033333334, "name": "6518f624ca7fff70e52462b347a3cdd7", "fusion_lon": 0.0, "bike_id": "6518f624ca7fff70e52462b347a3cdd7", "is_disabled": 0, "is_reserved": 0}, {"rental_uris": {"ios": "https://dc.lft.to/lastmile_qr_scan", "android": "https://dc.lft.to/lastmile_qr_scan"}, "lon": -77.03535533333333, "type": "electric_scooter", "fusion_lat": 0.0, "lat": 38.9241095, "name": "dc87c07ec7358c490db8988c46297683", "fusion_lon": 0.0, "bike_id": "dc87c07ec7358c490db8988c46297683", "is_disabled": 0, "is_reserved": 0}, {"rental_uris": {"ios": "https://dc.lft.to/lastmile_qr_scan", "android": "https://dc.lft.to/lastmile_qr_scan"}, "lon": -76.93878166666667, "type": "electric_scooter", "fusion_lat": 0.0, "lat": 38.90083716666667, "name": "114d45f2c33f6ff68597e76d15c7608c", "fusion_lon": 0.0, "bike_id": "114d45f2c33f6ff68597e76d15c7608c", "is_disabled": 0, "is_reserved": 0}, {"rental_uris": {"ios": "https://dc.lft.to/lastmile_qr_scan", "android": "https://dc.lft.to/lastmile_qr_scan"}, "lon": -77.024259, "type": "electric_scooter", "fusion_lat": 0.0, "lat": 38.89523233333333, "name": "d09a299ce9c84e2a7111460f408ba66c", "fusion_lon": 0.0, "bike_id": "d09a299ce9c84e2a7111460f408ba66c", "is_disabled": 0, "is_reserved": 0}, {"rental_uris": {"ios": "https://dc.lft.to/lastmile_qr_scan", "android": "https://dc.lft.to/lastmile_qr_scan"}, "lon": -77.02687483333334, "type": "electric_scooter", "fusion_lat": 0.0, "lat": 38.89220483333333, "name": "03e02f30a0e3db15a8d5bae55ccdba15", "fusion_lon": 0.0, "bike_id": "03e02f30a0e3db15a8d5bae55ccdba15", "is_disabled": 0, "is_reserved": 0}, {"rental_uris": {"ios": "https://dc.lft.to/lastmile_qr_scan", "android": "https://dc.lft.to/lastmile_qr_scan"}, "lon": -77.012147, "type": "electric_scooter", "fusion_lat": 0.0, "lat": 38.9004345, "name": "15f3fa26ec0b1d090c436381090ba24e", "fusion_lon": 0.0, "bike_id": "15f3fa26ec0b1d090c436381090ba24e", "is_disabled": 0, "is_reserved": 0}, {"rental_uris": {"ios": "https://dc.lft.to/lastmile_qr_scan", "android": "https://dc.lft.to/lastmile_qr_scan"}, "lon": -77.04501833333333, "type": "electric_scooter", "fusion_lat": 0.0, "lat": 38.900227, "name": "79395a436ec46d0e1684e9279f1319b9", "fusion_lon": 0.0, "bike_id": "79395a436ec46d0e1684e9279f1319b9", "is_disabled": 0, "is_reserved": 0}, {"rental_uris": {"ios": "https://dc.lft.to/lastmile_qr_scan", "android": "https://dc.lft.to/lastmile_qr_scan"}, "lon": -76.98655683333334, "type": "electric_scooter", "fusion_lat": 0.0, "lat": 38.858050166666665, "name": "3c47d205ff7b4b3fab88c4effa6eda7d", "fusion_lon": 0.0, "bike_id": "3c47d205ff7b4b3fab88c4effa6eda7d", "is_disabled": 0, "is_reserved": 0}, {"rental_uris": {"ios": "https://dc.lft.to/lastmile_qr_scan", "android": "https://dc.lft.to/lastmile_qr_scan"}, "lon": -76.9967, "type": "electric_scooter", "fusion_lat": 0.0, "lat": 38.910104, "name": "3a297d08fc2125953357096b0dfcfa5d", "fusion_lon": 0.0, "bike_id": "3a297d08fc2125953357096b0dfcfa5d", "is_disabled": 0, "is_reserved": 0}, {"rental_uris": {"ios": "https://dc.lft.to/lastmile_qr_scan", "android": "https://dc.lft.to/lastmile_qr_scan"}, "lon": -76.99559966666666, "type": "electric_scooter", "fusion_lat": 0.0, "lat": 38.92882183333333, "name": "c54ffbd06f9dcb92c8e33e1d5521bfd1", "fusion_lon": 0.0, "bike_id": "c54ffbd06f9dcb92c8e33e1d5521bfd1", "is_disabled": 0, "is_reserved": 0}, {"rental_uris": {"ios": "https://dc.lft.to/lastmile_qr_scan", "android": "https://dc.lft.to/lastmile_qr_scan"}, "lon": -77.02322, "type": "electric_scooter", "fusion_lat": 0.0, "lat": 38.916783333333335, "name": "40eb90813996b52a16d37e7526e89f18", "fusion_lon": 0.0, "bike_id": "40eb90813996b52a16d37e7526e89f18", "is_disabled": 0, "is_reserved": 0}, {"rental_uris": {"ios": "https://dc.lft.to/lastmile_qr_scan", "android": "https://dc.lft.to/lastmile_qr_scan"}, "lon": -77.03471216666667, "type": "electric_scooter", "fusion_lat": 0.0, "lat": 38.929886333333336, "name": "e5cfdd0d16fb91e8c7c05a67ea1701a0", "fusion_lon": 0.0, "bike_id": "e5cfdd0d16fb91e8c7c05a67ea1701a0", "is_disabled": 0, "is_reserved": 0}, {"rental_uris": {"ios": "https://dc.lft.to/lastmile_qr_scan", "android": "https://dc.lft.to/lastmile_qr_scan"}, "lon": -77.04899166666667, "type": "electric_bike", "fusion_lat": 0.0, "lat": 38.874912333333334, "name": "6fdfdd86947e90a139f947bf8c551ac5", "fusion_lon": 0.0, "bike_id": "6fdfdd86947e90a139f947bf8c551ac5", "is_disabled": 0, "is_reserved": 0}, {"rental_uris": {"ios": "https://dc.lft.to/lastmile_qr_scan", "android": "https://dc.lft.to/lastmile_qr_scan"}, "lon": -77.02005383333334, "type": "electric_scooter", "fusion_lat": 0.0, "lat": 38.892452, "name": "57ce1a9e285407a3893e88c00723b8d3", "fusion_lon": 0.0, "bike_id": "57ce1a9e285407a3893e88c00723b8d3", "is_disabled": 0, "is_reserved": 0}, {"rental_uris": {"ios": "https://dc.lft.to/lastmile_qr_scan", "android": "https://dc.lft.to/lastmile_qr_scan"}, "lon": -76.99046166666666, "type": "electric_scooter", "fusion_lat": 0.0, "lat": 38.90141766666667, "name": "51040a852509c920d99a1bb28e91fa6d", "fusion_lon": 0.0, "bike_id": "51040a852509c920d99a1bb28e91fa6d", "is_disabled": 0, "is_reserved": 0}, {"rental_uris": {"ios": "https://dc.lft.to/lastmile_qr_scan", "android": "https://dc.lft.to/lastmile_qr_scan"}, "lon": -76.9465205, "type": "electric_scooter", "fusion_lat": 0.0, "lat": 38.8982415, "name": "9780eea958cee1bc05e3483a9476435f", "fusion_lon": 0.0, "bike_id": "9780eea958cee1bc05e3483a9476435f", "is_disabled": 0, "is_reserved": 0}, {"rental_uris": {"ios": "https://dc.lft.to/lastmile_qr_scan", "android": "https://dc.lft.to/lastmile_qr_scan"}, "lon": -77.00359116666667, "type": "electric_scooter", "fusion_lat": 0.0, "lat": 38.89762433333333, "name": "15583d0a98784a9099025a3740867a9f", "fusion_lon": 0.0, "bike_id": "15583d0a98784a9099025a3740867a9f", "is_disabled": 0, "is_reserved": 0}, {"rental_uris": {"ios": "https://dc.lft.to/lastmile_qr_scan", "android": "https://dc.lft.to/lastmile_qr_scan"}, "lon": -76.9865565, "type": "electric_scooter", "fusion_lat": 0.0, "lat": 38.8580675, "name": "43fa080363abc660beafeb76f8d16b98", "fusion_lon": 0.0, "bike_id": "43fa080363abc660beafeb76f8d16b98", "is_disabled": 0, "is_reserved": 0}, {"rental_uris": {"ios": "https://dc.lft.to/lastmile_qr_scan", "android": "https://dc.lft.to/lastmile_qr_scan"}, "lon": -77.06329516666666, "type": "electric_scooter", "fusion_lat": 0.0, "lat": 38.904076, "name": "5f6f8d3f65721fe9c8a634eb81c3f21f", "fusion_lon": 0.0, "bike_id": "5f6f8d3f65721fe9c8a634eb81c3f21f", "is_disabled": 0, "is_reserved": 0}, {"rental_uris": {"ios": "https://dc.lft.to/lastmile_qr_scan", "android": "https://dc.lft.to/lastmile_qr_scan"}, "lon": -76.98656366666667, "type": "electric_scooter", "fusion_lat": 0.0, "lat": 38.85802833333333, "name": "6f3c86f169b4056879938954a15229b6", "fusion_lon": 0.0, "bike_id": "6f3c86f169b4056879938954a15229b6", "is_disabled": 0, "is_reserved": 0}, {"rental_uris": {"ios": "https://dc.lft.to/lastmile_qr_scan", "android": "https://dc.lft.to/lastmile_qr_scan"}, "lon": -76.9857545, "type": "electric_scooter", "fusion_lat": 0.0, "lat": 38.89885533333333, "name": "de27f895a42e174030981e57d70258ed", "fusion_lon": 0.0, "bike_id": "de27f895a42e174030981e57d70258ed", "is_disabled": 0, "is_reserved": 0}, {"rental_uris": {"ios": "https://dc.lft.to/lastmile_qr_scan", "android": "https://dc.lft.to/lastmile_qr_scan"}, "lon": -77.1003155, "type": "electric_bike", "fusion_lat": 0.0, "lat": 38.99063916666667, "name": "c38bac3a3977fae7ae3bb499f5798e8e", "fusion_lon": 0.0, "bike_id": "c38bac3a3977fae7ae3bb499f5798e8e", "is_disabled": 0, "is_reserved": 0}, {"rental_uris": {"ios": "https://dc.lft.to/lastmile_qr_scan", "android": "https://dc.lft.to/lastmile_qr_scan"}, "lon": -76.99950733333333, "type": "electric_scooter", "fusion_lat": 0.0, "lat": 38.842872, "name": "1d141348c809c05fdaca422d5325c199", "fusion_lon": 0.0, "bike_id": "1d141348c809c05fdaca422d5325c199", "is_disabled": 0, "is_reserved": 0}, {"rental_uris": {"ios": "https://dc.lft.to/lastmile_qr_scan", "android": "https://dc.lft.to/lastmile_qr_scan"}, "lon": -77.032132, "type": "electric_scooter", "fusion_lat": 0.0, "lat": 38.962403333333334, "name": "c108297fe9fa71fad2f58330e214c4da", "fusion_lon": 0.0, "bike_id": "c108297fe9fa71fad2f58330e214c4da", "is_disabled": 0, "is_reserved": 0}, {"rental_uris": {"ios": "https://dc.lft.to/lastmile_qr_scan", "android": "https://dc.lft.to/lastmile_qr_scan"}, "lon": -77.02833266666667, "type": "electric_scooter", "fusion_lat": 0.0, "lat": 38.89226983333333, "name": "6230150230b562329df450f10382c10d", "fusion_lon": 0.0, "bike_id": "6230150230b562329df450f10382c10d", "is_disabled": 0, "is_reserved": 0}, {"rental_uris": {"ios": "https://dc.lft.to/lastmile_qr_scan", "android": "https://dc.lft.to/lastmile_qr_scan"}, "lon": -76.95245483333333, "type": "electric_bike", "fusion_lat": 0.0, "lat": 38.9070245, "name": "eec9043b9d9507db70da29bd904185d1", "fusion_lon": 0.0, "bike_id": "eec9043b9d9507db70da29bd904185d1", "is_disabled": 0, "is_reserved": 0}, {"rental_uris": {"ios": "https://dc.lft.to/lastmile_qr_scan", "android": "https://dc.lft.to/lastmile_qr_scan"}, "lon": -77.040315, "type": "electric_scooter", "fusion_lat": 0.0, "lat": 38.923729, "name": "d84a6d7205cb509d4149f3102662e4b7", "fusion_lon": 0.0, "bike_id": "d84a6d7205cb509d4149f3102662e4b7", "is_disabled": 0, "is_reserved": 0}, {"rental_uris": {"ios": "https://dc.lft.to/lastmile_qr_scan", "android": "https://dc.lft.to/lastmile_qr_scan"}, "lon": -76.996671, "type": "electric_scooter", "fusion_lat": 0.0, "lat": 38.92189466666667, "name": "00cab7521c425bb1a1ea5a79a2a45894", "fusion_lon": 0.0, "bike_id": "00cab7521c425bb1a1ea5a79a2a45894", "is_disabled": 0, "is_reserved": 0}, {"rental_uris": {"ios": "https://dc.lft.to/lastmile_qr_scan", "android": "https://dc.lft.to/lastmile_qr_scan"}, "lon": -77.03006483333333, "type": "electric_scooter", "fusion_lat": 0.0, "lat": 38.8921955, "name": "a326de4e61c27c9e0922c2196af28a83", "fusion_lon": 0.0, "bike_id": "a326de4e61c27c9e0922c2196af28a83", "is_disabled": 0, "is_reserved": 0}, {"rental_uris": {"ios": "https://dc.lft.to/lastmile_qr_scan", "android": "https://dc.lft.to/lastmile_qr_scan"}, "lon": -77.01314933333333, "type": "electric_scooter", "fusion_lat": 0.0, "lat": 38.89739183333333, "name": "75723cb5756f69c064bb20d9aaf63d23", "fusion_lon": 0.0, "bike_id": "75723cb5756f69c064bb20d9aaf63d23", "is_disabled": 0, "is_reserved": 0}, {"rental_uris": {"ios": "https://dc.lft.to/lastmile_qr_scan", "android": "https://dc.lft.to/lastmile_qr_scan"}, "lon": -77.01358533333334, "type": "electric_scooter", "fusion_lat": 0.0, "lat": 38.91984933333333, "name": "d955952ed51138da4dd7476a19872d93", "fusion_lon": 0.0, "bike_id": "d955952ed51138da4dd7476a19872d93", "is_disabled": 0, "is_reserved": 0}, {"rental_uris": {"ios": "https://dc.lft.to/lastmile_qr_scan", "android": "https://dc.lft.to/lastmile_qr_scan"}, "lon": -77.02323816666667, "type": "electric_scooter", "fusion_lat": 0.0, "lat": 38.89393416666667, "name": "9bfb21ada7884ff46af56ad5329a747c", "fusion_lon": 0.0, "bike_id": "9bfb21ada7884ff46af56ad5329a747c", "is_disabled": 0, "is_reserved": 0}, {"rental_uris": {"ios": "https://dc.lft.to/lastmile_qr_scan", "android": "https://dc.lft.to/lastmile_qr_scan"}, "lon": -77.044151, "type": "electric_scooter", "fusion_lat": 0.0, "lat": 38.91315916666667, "name": "c3380a3a9ed069bc8ef77508805e053c", "fusion_lon": 0.0, "bike_id": "c3380a3a9ed069bc8ef77508805e053c", "is_disabled": 0, "is_reserved": 0}, {"rental_uris": {"ios": "https://dc.lft.to/lastmile_qr_scan", "android": "https://dc.lft.to/lastmile_qr_scan"}, "lon": -76.97998716666666, "type": "electric_bike", "fusion_lat": 0.0, "lat": 38.9001055, "name": "58e1f197e714ea941cefc8e71b59ba9a", "fusion_lon": 0.0, "bike_id": "58e1f197e714ea941cefc8e71b59ba9a", "is_disabled": 0, "is_reserved": 0}, {"rental_uris": {"ios": "https://dc.lft.to/lastmile_qr_scan", "android": "https://dc.lft.to/lastmile_qr_scan"}, "lon": -77.091399, "type": "electric_bike", "fusion_lat": 0.0, "lat": 38.804203666666666, "name": "9f6afdeb552f0e65455604f2bc7a7daa", "fusion_lon": 0.0, "bike_id": "9f6afdeb552f0e65455604f2bc7a7daa", "is_disabled": 0, "is_reserved": 0}, {"rental_uris": {"ios": "https://dc.lft.to/lastmile_qr_scan", "android": "https://dc.lft.to/lastmile_qr_scan"}, "lon": -77.0017165, "type": "electric_scooter", "fusion_lat": 0.0, "lat": 38.87373766666666, "name": "29c75d993a14a67f796580b375cc5991", "fusion_lon": 0.0, "bike_id": "29c75d993a14a67f796580b375cc5991", "is_disabled": 0, "is_reserved": 0}, {"rental_uris": {"ios": "https://dc.lft.to/lastmile_qr_scan", "android": "https://dc.lft.to/lastmile_qr_scan"}, "lon": -77.05386716666666, "type": "electric_scooter", "fusion_lat": 0.0, "lat": 38.935200333333334, "name": "714dbc82ae01af40c7b28c592bb65a3f", "fusion_lon": 0.0, "bike_id": "714dbc82ae01af40c7b28c592bb65a3f", "is_disabled": 0, "is_reserved": 0}, {"rental_uris": {"ios": "https://dc.lft.to/lastmile_qr_scan", "android": "https://dc.lft.to/lastmile_qr_scan"}, "lon": -77.0073045, "type": "electric_scooter", "fusion_lat": 0.0, "lat": 38.88492633333333, "name": "d7fbda9fe3ed37e492d97f428a2c8edd", "fusion_lon": 0.0, "bike_id": "d7fbda9fe3ed37e492d97f428a2c8edd", "is_disabled": 0, "is_reserved": 0}, {"rental_uris": {"ios": "https://dc.lft.to/lastmile_qr_scan", "android": "https://dc.lft.to/lastmile_qr_scan"}, "lon": -77.08548283333333, "type": "electric_bike", "fusion_lat": 0.0, "lat": 38.85622, "name": "0c7285888dd06550f88ae646de854411", "fusion_lon": 0.0, "bike_id": "0c7285888dd06550f88ae646de854411", "is_disabled": 0, "is_reserved": 0}, {"rental_uris": {"ios": "https://dc.lft.to/lastmile_qr_scan", "android": "https://dc.lft.to/lastmile_qr_scan"}, "lon": -77.041041, "type": "electric_scooter", "fusion_lat": 0.0, "lat": 38.918509666666665, "name": "10891f0bb5f98602cd1a000229d9f1c7", "fusion_lon": 0.0, "bike_id": "10891f0bb5f98602cd1a000229d9f1c7", "is_disabled": 0, "is_reserved": 0}, {"rental_uris": {"ios": "https://dc.lft.to/lastmile_qr_scan", "android": "https://dc.lft.to/lastmile_qr_scan"}, "lon": -77.02890416666666, "type": "electric_scooter", "fusion_lat": 0.0, "lat": 38.923831166666666, "name": "8ab5dcba2dac93620d6f03d2950d69c5", "fusion_lon": 0.0, "bike_id": "8ab5dcba2dac93620d6f03d2950d69c5", "is_disabled": 0, "is_reserved": 0}, {"rental_uris": {"ios": "https://dc.lft.to/lastmile_qr_scan", "android": "https://dc.lft.to/lastmile_qr_scan"}, "lon": -76.99546716666667, "type": "electric_scooter", "fusion_lat": 0.0, "lat": 38.90026966666667, "name": "2af8dfc4b9282a97080d311573874778", "fusion_lon": 0.0, "bike_id": "2af8dfc4b9282a97080d311573874778", "is_disabled": 0, "is_reserved": 0}, {"rental_uris": {"ios": "https://dc.lft.to/lastmile_qr_scan", "android": "https://dc.lft.to/lastmile_qr_scan"}, "lon": -77.17846566666667, "type": "electric_bike", "fusion_lat": 0.0, "lat": 39.088985666666666, "name": "69a7f35543c4d09ef7a60fb3db2911ae", "fusion_lon": 0.0, "bike_id": "69a7f35543c4d09ef7a60fb3db2911ae", "is_disabled": 0, "is_reserved": 0}, {"rental_uris": {"ios": "https://dc.lft.to/lastmile_qr_scan", "android": "https://dc.lft.to/lastmile_qr_scan"}, "lon": -77.02646916666667, "type": "electric_scooter", "fusion_lat": 0.0, "lat": 38.89221166666667, "name": "c19991783fff35f741f7bc0e1e2af9fc", "fusion_lon": 0.0, "bike_id": "c19991783fff35f741f7bc0e1e2af9fc", "is_disabled": 0, "is_reserved": 0}, {"rental_uris": {"ios": "https://dc.lft.to/lastmile_qr_scan", "android": "https://dc.lft.to/lastmile_qr_scan"}, "lon": -77.0319025, "type": "electric_scooter", "fusion_lat": 0.0, "lat": 38.91822033333333, "name": "7b23f7d2233bb84ed900689a32e6ad6e", "fusion_lon": 0.0, "bike_id": "7b23f7d2233bb84ed900689a32e6ad6e", "is_disabled": 0, "is_reserved": 0}, {"rental_uris": {"ios": "https://dc.lft.to/lastmile_qr_scan", "android": "https://dc.lft.to/lastmile_qr_scan"}, "lon": -77.00661816666667, "type": "electric_scooter", "fusion_lat": 0.0, "lat": 38.87479833333333, "name": "fc6f67a4568c0dbfac7703b48a026a26", "fusion_lon": 0.0, "bike_id": "fc6f67a4568c0dbfac7703b48a026a26", "is_disabled": 0, "is_reserved": 0}, {"rental_uris": {"ios": "https://dc.lft.to/lastmile_qr_scan", "android": "https://dc.lft.to/lastmile_qr_scan"}, "lon": -77.029803, "type": "electric_scooter", "fusion_lat": 0.0, "lat": 38.96226683333333, "name": "31567debb38bd746157944627d4ee689", "fusion_lon": 0.0, "bike_id": "31567debb38bd746157944627d4ee689", "is_disabled": 0, "is_reserved": 0}, {"rental_uris": {"ios": "https://dc.lft.to/lastmile_qr_scan", "android": "https://dc.lft.to/lastmile_qr_scan"}, "lon": -77.02286966666667, "type": "electric_scooter", "fusion_lat": 0.0, "lat": 38.91684266666667, "name": "6670cc82a1b04e1d76c0d14f90ea0ea7", "fusion_lon": 0.0, "bike_id": "6670cc82a1b04e1d76c0d14f90ea0ea7", "is_disabled": 0, "is_reserved": 0}, {"rental_uris": {"ios": "https://dc.lft.to/lastmile_qr_scan", "android": "https://dc.lft.to/lastmile_qr_scan"}, "lon": -77.03084383333334, "type": "electric_scooter", "fusion_lat": 0.0, "lat": 38.917072, "name": "c31ddaa5b5fa25a9cf5afd827e60f42c", "fusion_lon": 0.0, "bike_id": "c31ddaa5b5fa25a9cf5afd827e60f42c", "is_disabled": 0, "is_reserved": 0}, {"rental_uris": {"ios": "https://dc.lft.to/lastmile_qr_scan", "android": "https://dc.lft.to/lastmile_qr_scan"}, "lon": -76.9650715, "type": "electric_scooter", "fusion_lat": 0.0, "lat": 38.876473, "name": "9c52f0c84ca58e49de6a0ca79e274b3a", "fusion_lon": 0.0, "bike_id": "9c52f0c84ca58e49de6a0ca79e274b3a", "is_disabled": 0, "is_reserved": 0}, {"rental_uris": {"ios": "https://dc.lft.to/lastmile_qr_scan", "android": "https://dc.lft.to/lastmile_qr_scan"}, "lon": -77.15268316666666, "type": "electric_bike", "fusion_lat": 0.0, "lat": 39.10564516666667, "name": "c883f274e90adf93fac71bcd3c41ec0b", "fusion_lon": 0.0, "bike_id": "c883f274e90adf93fac71bcd3c41ec0b", "is_disabled": 0, "is_reserved": 0}, {"rental_uris": {"ios": "https://dc.lft.to/lastmile_qr_scan", "android": "https://dc.lft.to/lastmile_qr_scan"}, "lon": -77.02901766666666, "type": "electric_scooter", "fusion_lat": 0.0, "lat": 38.884235833333335, "name": "d339ba75b10e4f0b12fa795a994599ca", "fusion_lon": 0.0, "bike_id": "d339ba75b10e4f0b12fa795a994599ca", "is_disabled": 0, "is_reserved": 0}, {"rental_uris": {"ios": "https://dc.lft.to/lastmile_qr_scan", "android": "https://dc.lft.to/lastmile_qr_scan"}, "lon": -77.043313, "type": "electric_scooter", "fusion_lat": 0.0, "lat": 38.90892766666666, "name": "4d5dd5d5a422fea525b3abc4b608a813", "fusion_lon": 0.0, "bike_id": "4d5dd5d5a422fea525b3abc4b608a813", "is_disabled": 0, "is_reserved": 0}, {"rental_uris": {"ios": "https://dc.lft.to/lastmile_qr_scan", "android": "https://dc.lft.to/lastmile_qr_scan"}, "lon": -76.98327283333333, "type": "electric_scooter", "fusion_lat": 0.0, "lat": 38.861702333333334, "name": "62903b2c07d9343a637a32f81032934e", "fusion_lon": 0.0, "bike_id": "62903b2c07d9343a637a32f81032934e", "is_disabled": 0, "is_reserved": 0}, {"rental_uris": {"ios": "https://dc.lft.to/lastmile_qr_scan", "android": "https://dc.lft.to/lastmile_qr_scan"}, "lon": -77.03195966666667, "type": "electric_scooter", "fusion_lat": 0.0, "lat": 38.9306765, "name": "3a86cb20303bfc620e1cfbadb19d30a3", "fusion_lon": 0.0, "bike_id": "3a86cb20303bfc620e1cfbadb19d30a3", "is_disabled": 0, "is_reserved": 0}, {"rental_uris": {"ios": "https://dc.lft.to/lastmile_qr_scan", "android": "https://dc.lft.to/lastmile_qr_scan"}, "lon": -76.957537, "type": "electric_scooter", "fusion_lat": 0.0, "lat": 38.884272833333334, "name": "65529e5aa4d43ecff0023de38754874e", "fusion_lon": 0.0, "bike_id": "65529e5aa4d43ecff0023de38754874e", "is_disabled": 0, "is_reserved": 0}, {"rental_uris": {"ios": "https://dc.lft.to/lastmile_qr_scan", "android": "https://dc.lft.to/lastmile_qr_scan"}, "lon": -76.93795266666666, "type": "electric_scooter", "fusion_lat": 0.0, "lat": 38.890868, "name": "645c4df878280f5aef2d1b76d20bf92d", "fusion_lon": 0.0, "bike_id": "645c4df878280f5aef2d1b76d20bf92d", "is_disabled": 0, "is_reserved": 0}, {"rental_uris": {"ios": "https://dc.lft.to/lastmile_qr_scan", "android": "https://dc.lft.to/lastmile_qr_scan"}, "lon": -77.035307, "type": "electric_scooter", "fusion_lat": 0.0, "lat": 38.914873666666665, "name": "044df3c717d58f191314137c2f2891e5", "fusion_lon": 0.0, "bike_id": "044df3c717d58f191314137c2f2891e5", "is_disabled": 0, "is_reserved": 0}, {"rental_uris": {"ios": "https://dc.lft.to/lastmile_qr_scan", "android": "https://dc.lft.to/lastmile_qr_scan"}, "lon": -77.03199516666666, "type": "electric_scooter", "fusion_lat": 0.0, "lat": 38.91957983333333, "name": "cd031bd9d671ea4ff09fb6898d8b9109", "fusion_lon": 0.0, "bike_id": "cd031bd9d671ea4ff09fb6898d8b9109", "is_disabled": 0, "is_reserved": 0}, {"rental_uris": {"ios": "https://dc.lft.to/lastmile_qr_scan", "android": "https://dc.lft.to/lastmile_qr_scan"}, "lon": -77.0231815, "type": "electric_scooter", "fusion_lat": 0.0, "lat": 38.883346333333336, "name": "644607ff3bdef19b4ee0fe2d14d20a09", "fusion_lon": 0.0, "bike_id": "644607ff3bdef19b4ee0fe2d14d20a09", "is_disabled": 0, "is_reserved": 0}, {"rental_uris": {"ios": "https://dc.lft.to/lastmile_qr_scan", "android": "https://dc.lft.to/lastmile_qr_scan"}, "lon": -77.02179, "type": "electric_scooter", "fusion_lat": 0.0, "lat": 38.8987235, "name": "f47c5667bd1136475a6c8499d1c0577c", "fusion_lon": 0.0, "bike_id": "f47c5667bd1136475a6c8499d1c0577c", "is_disabled": 0, "is_reserved": 0}, {"rental_uris": {"ios": "https://dc.lft.to/lastmile_qr_scan", "android": "https://dc.lft.to/lastmile_qr_scan"}, "lon": -77.09160866666667, "type": "electric_bike", "fusion_lat": 0.0, "lat": 38.967537166666666, "name": "86e80de9b19e6f1b4052e346a2729c64", "fusion_lon": 0.0, "bike_id": "86e80de9b19e6f1b4052e346a2729c64", "is_disabled": 0, "is_reserved": 0}, {"rental_uris": {"ios": "https://dc.lft.to/lastmile_qr_scan", "android": "https://dc.lft.to/lastmile_qr_scan"}, "lon": -77.05594983333333, "type": "electric_scooter", "fusion_lat": 0.0, "lat": 38.936969166666664, "name": "079a5a5fbe9f40e5119251be156d05d8", "fusion_lon": 0.0, "bike_id": "079a5a5fbe9f40e5119251be156d05d8", "is_disabled": 0, "is_reserved": 0}, {"rental_uris": {"ios": "https://dc.lft.to/lastmile_qr_scan", "android": "https://dc.lft.to/lastmile_qr_scan"}, "lon": -77.0470575, "type": "electric_scooter", "fusion_lat": 0.0, "lat": 38.920969666666664, "name": "9d5fdc4126984fc0d4a2bd5c6b60db08", "fusion_lon": 0.0, "bike_id": "9d5fdc4126984fc0d4a2bd5c6b60db08", "is_disabled": 0, "is_reserved": 0}, {"rental_uris": {"ios": "https://dc.lft.to/lastmile_qr_scan", "android": "https://dc.lft.to/lastmile_qr_scan"}, "lon": -76.96806333333333, "type": "electric_bike", "fusion_lat": 0.0, "lat": 38.95529533333333, "name": "1fc6a5dcffe7ff9b6939ab1fc645a412", "fusion_lon": 0.0, "bike_id": "1fc6a5dcffe7ff9b6939ab1fc645a412", "is_disabled": 0, "is_reserved": 0}, {"rental_uris": {"ios": "https://dc.lft.to/lastmile_qr_scan", "android": "https://dc.lft.to/lastmile_qr_scan"}, "lon": -77.023983, "type": "electric_bike", "fusion_lat": 0.0, "lat": 38.95641366666667, "name": "9dead639bcd261d39b997cd4060612ad", "fusion_lon": 0.0, "bike_id": "9dead639bcd261d39b997cd4060612ad", "is_disabled": 0, "is_reserved": 0}, {"rental_uris": {"ios": "https://dc.lft.to/lastmile_qr_scan", "android": "https://dc.lft.to/lastmile_qr_scan"}, "lon": -77.02150333333333, "type": "electric_scooter", "fusion_lat": 0.0, "lat": 38.909685833333334, "name": "f9d58fc01196a42ed76170b07c5c68bf", "fusion_lon": 0.0, "bike_id": "f9d58fc01196a42ed76170b07c5c68bf", "is_disabled": 0, "is_reserved": 0}, {"rental_uris": {"ios": "https://dc.lft.to/lastmile_qr_scan", "android": "https://dc.lft.to/lastmile_qr_scan"}, "lon": -77.04169233333333, "type": "electric_scooter", "fusion_lat": 0.0, "lat": 38.91857383333333, "name": "b6bc65eb3fb754554e69a33f5da83e89", "fusion_lon": 0.0, "bike_id": "b6bc65eb3fb754554e69a33f5da83e89", "is_disabled": 0, "is_reserved": 0}, {"rental_uris": {"ios": "https://dc.lft.to/lastmile_qr_scan", "android": "https://dc.lft.to/lastmile_qr_scan"}, "lon": -77.02943516666667, "type": "electric_scooter", "fusion_lat": 0.0, "lat": 38.903677333333334, "name": "d8c10f61ef2de074fb2b9401fc3f2789", "fusion_lon": 0.0, "bike_id": "d8c10f61ef2de074fb2b9401fc3f2789", "is_disabled": 0, "is_reserved": 0}, {"rental_uris": {"ios": "https://dc.lft.to/lastmile_qr_scan", "android": "https://dc.lft.to/lastmile_qr_scan"}, "lon": -77.0456765, "type": "electric_scooter", "fusion_lat": 0.0, "lat": 38.91312933333333, "name": "8687b51c069130de557e6608749402de", "fusion_lon": 0.0, "bike_id": "8687b51c069130de557e6608749402de", "is_disabled": 0, "is_reserved": 0}, {"rental_uris": {"ios": "https://dc.lft.to/lastmile_qr_scan", "android": "https://dc.lft.to/lastmile_qr_scan"}, "lon": -77.1309335, "type": "electric_bike", "fusion_lat": 0.0, "lat": 38.86162083333333, "name": "60a13a22ffefb60a51df054400616357", "fusion_lon": 0.0, "bike_id": "60a13a22ffefb60a51df054400616357", "is_disabled": 0, "is_reserved": 0}, {"rental_uris": {"ios": "https://dc.lft.to/lastmile_qr_scan", "android": "https://dc.lft.to/lastmile_qr_scan"}, "lon": -77.03788516666667, "type": "electric_scooter", "fusion_lat": 0.0, "lat": 38.930203166666665, "name": "21d4458118600aa0d55bc7eedd633776", "fusion_lon": 0.0, "bike_id": "21d4458118600aa0d55bc7eedd633776", "is_disabled": 0, "is_reserved": 0}, {"rental_uris": {"ios": "https://dc.lft.to/lastmile_qr_scan", "android": "https://dc.lft.to/lastmile_qr_scan"}, "lon": -77.00892283333333, "type": "electric_scooter", "fusion_lat": 0.0, "lat": 38.91230316666667, "name": "6c891d861801bffeb9a624042bfad3d4", "fusion_lon": 0.0, "bike_id": "6c891d861801bffeb9a624042bfad3d4", "is_disabled": 0, "is_reserved": 0}, {"rental_uris": {"ios": "https://dc.lft.to/lastmile_qr_scan", "android": "https://dc.lft.to/lastmile_qr_scan"}, "lon": -77.01607416666667, "type": "electric_scooter", "fusion_lat": 0.0, "lat": 38.91130233333333, "name": "faf6c0f24265f706adda8de67476441e", "fusion_lon": 0.0, "bike_id": "faf6c0f24265f706adda8de67476441e", "is_disabled": 0, "is_reserved": 0}, {"rental_uris": {"ios": "https://dc.lft.to/lastmile_qr_scan", "android": "https://dc.lft.to/lastmile_qr_scan"}, "lon": -76.931747, "type": "electric_scooter", "fusion_lat": 0.0, "lat": 38.89883583333334, "name": "93ca98a55e606868de777801e5692014", "fusion_lon": 0.0, "bike_id": "93ca98a55e606868de777801e5692014", "is_disabled": 0, "is_reserved": 0}, {"rental_uris": {"ios": "https://dc.lft.to/lastmile_qr_scan", "android": "https://dc.lft.to/lastmile_qr_scan"}, "lon": -77.03928383333333, "type": "electric_scooter", "fusion_lat": 0.0, "lat": 38.92488483333333, "name": "a67197ec9fa4274e71be4710f60f261a", "fusion_lon": 0.0, "bike_id": "a67197ec9fa4274e71be4710f60f261a", "is_disabled": 0, "is_reserved": 0}, {"rental_uris": {"ios": "https://dc.lft.to/lastmile_qr_scan", "android": "https://dc.lft.to/lastmile_qr_scan"}, "lon": -76.92711683333333, "type": "electric_scooter", "fusion_lat": 0.0, "lat": 38.88769, "name": "ccad8a9c76a9566c1a9b763d1c369d02", "fusion_lon": 0.0, "bike_id": "ccad8a9c76a9566c1a9b763d1c369d02", "is_disabled": 0, "is_reserved": 0}, {"rental_uris": {"ios": "https://dc.lft.to/lastmile_qr_scan", "android": "https://dc.lft.to/lastmile_qr_scan"}, "lon": -77.04552216666667, "type": "electric_scooter", "fusion_lat": 0.0, "lat": 38.91270516666667, "name": "1a939b6b45dafe37ca87ffad82e2d8ad", "fusion_lon": 0.0, "bike_id": "1a939b6b45dafe37ca87ffad82e2d8ad", "is_disabled": 0, "is_reserved": 0}, {"rental_uris": {"ios": "https://dc.lft.to/lastmile_qr_scan", "android": "https://dc.lft.to/lastmile_qr_scan"}, "lon": -77.033028, "type": "electric_scooter", "fusion_lat": 0.0, "lat": 38.900392, "name": "a753cd31f5595c24623f1f6aa79c29a4", "fusion_lon": 0.0, "bike_id": "a753cd31f5595c24623f1f6aa79c29a4", "is_disabled": 0, "is_reserved": 0}, {"rental_uris": {"ios": "https://dc.lft.to/lastmile_qr_scan", "android": "https://dc.lft.to/lastmile_qr_scan"}, "lon": -77.0179235, "type": "electric_scooter", "fusion_lat": 0.0, "lat": 38.91955683333333, "name": "8dd0e3cc41e8d1735ccf15aa57a8e129", "fusion_lon": 0.0, "bike_id": "8dd0e3cc41e8d1735ccf15aa57a8e129", "is_disabled": 0, "is_reserved": 0}, {"rental_uris": {"ios": "https://dc.lft.to/lastmile_qr_scan", "android": "https://dc.lft.to/lastmile_qr_scan"}, "lon": -76.972184, "type": "electric_bike", "fusion_lat": 0.0, "lat": 38.84482916666666, "name": "7ff61ecf645c48f804c2eb053ef4feb1", "fusion_lon": 0.0, "bike_id": "7ff61ecf645c48f804c2eb053ef4feb1", "is_disabled": 0, "is_reserved": 0}, {"rental_uris": {"ios": "https://dc.lft.to/lastmile_qr_scan", "android": "https://dc.lft.to/lastmile_qr_scan"}, "lon": -77.02478833333333, "type": "electric_scooter", "fusion_lat": 0.0, "lat": 38.9032845, "name": "937bab39f82fdbd2bceb426e6562d368", "fusion_lon": 0.0, "bike_id": "937bab39f82fdbd2bceb426e6562d368", "is_disabled": 0, "is_reserved": 0}, {"rental_uris": {"ios": "https://dc.lft.to/lastmile_qr_scan", "android": "https://dc.lft.to/lastmile_qr_scan"}, "lon": -76.97708366666667, "type": "electric_scooter", "fusion_lat": 0.0, "lat": 38.898932333333335, "name": "a50018384948680f55d1edba21b82bbf", "fusion_lon": 0.0, "bike_id": "a50018384948680f55d1edba21b82bbf", "is_disabled": 0, "is_reserved": 0}, {"rental_uris": {"ios": "https://dc.lft.to/lastmile_qr_scan", "android": "https://dc.lft.to/lastmile_qr_scan"}, "lon": -76.94440683333333, "type": "electric_bike", "fusion_lat": 0.0, "lat": 38.902969, "name": "2e13d92382af03bba6682c675735d9e5", "fusion_lon": 0.0, "bike_id": "2e13d92382af03bba6682c675735d9e5", "is_disabled": 0, "is_reserved": 0}, {"rental_uris": {"ios": "https://dc.lft.to/lastmile_qr_scan", "android": "https://dc.lft.to/lastmile_qr_scan"}, "lon": -77.04167183333334, "type": "electric_scooter", "fusion_lat": 0.0, "lat": 38.909878, "name": "5b89d5750cab01c9a896b728a4070a5a", "fusion_lon": 0.0, "bike_id": "5b89d5750cab01c9a896b728a4070a5a", "is_disabled": 0, "is_reserved": 0}, {"rental_uris": {"ios": "https://dc.lft.to/lastmile_qr_scan", "android": "https://dc.lft.to/lastmile_qr_scan"}, "lon": -77.0320655, "type": "electric_bike", "fusion_lat": 0.0, "lat": 38.917959333333336, "name": "6b07d38914cdb9ef132df70ded816ab3", "fusion_lon": 0.0, "bike_id": "6b07d38914cdb9ef132df70ded816ab3", "is_disabled": 0, "is_reserved": 0}, {"rental_uris": {"ios": "https://dc.lft.to/lastmile_qr_scan", "android": "https://dc.lft.to/lastmile_qr_scan"}, "lon": -76.9888665, "type": "electric_scooter", "fusion_lat": 0.0, "lat": 38.86657233333333, "name": "a900e40385bc3fc4a9cbee3517364f6c", "fusion_lon": 0.0, "bike_id": "a900e40385bc3fc4a9cbee3517364f6c", "is_disabled": 0, "is_reserved": 0}, {"rental_uris": {"ios": "https://dc.lft.to/lastmile_qr_scan", "android": "https://dc.lft.to/lastmile_qr_scan"}, "lon": -77.0319855, "type": "electric_scooter", "fusion_lat": 0.0, "lat": 38.8936135, "name": "7990e2f34304cd4d97c88a5aaeb8cf12", "fusion_lon": 0.0, "bike_id": "7990e2f34304cd4d97c88a5aaeb8cf12", "is_disabled": 0, "is_reserved": 0}, {"rental_uris": {"ios": "https://dc.lft.to/lastmile_qr_scan", "android": "https://dc.lft.to/lastmile_qr_scan"}, "lon": -77.05122333333334, "type": "electric_bike", "fusion_lat": 0.0, "lat": 38.999633, "name": "e54c585804f9b039ac8cf39ec88ce44a", "fusion_lon": 0.0, "bike_id": "e54c585804f9b039ac8cf39ec88ce44a", "is_disabled": 0, "is_reserved": 0}, {"rental_uris": {"ios": "https://dc.lft.to/lastmile_qr_scan", "android": "https://dc.lft.to/lastmile_qr_scan"}, "lon": -77.03470166666666, "type": "electric_scooter", "fusion_lat": 0.0, "lat": 38.908991666666665, "name": "693b0e746a125699c1dd459286cce4dc", "fusion_lon": 0.0, "bike_id": "693b0e746a125699c1dd459286cce4dc", "is_disabled": 0, "is_reserved": 0}, {"rental_uris": {"ios": "https://dc.lft.to/lastmile_qr_scan", "android": "https://dc.lft.to/lastmile_qr_scan"}, "lon": -77.012325, "type": "electric_scooter", "fusion_lat": 0.0, "lat": 38.9154995, "name": "c0ce6f53d0f02a0fc8bd4987fd661d51", "fusion_lon": 0.0, "bike_id": "c0ce6f53d0f02a0fc8bd4987fd661d51", "is_disabled": 0, "is_reserved": 0}, {"rental_uris": {"ios": "https://dc.lft.to/lastmile_qr_scan", "android": "https://dc.lft.to/lastmile_qr_scan"}, "lon": -77.02641583333333, "type": "electric_scooter", "fusion_lat": 0.0, "lat": 38.915668, "name": "dc4c14adb3654f15a923b10335217736", "fusion_lon": 0.0, "bike_id": "dc4c14adb3654f15a923b10335217736", "is_disabled": 0, "is_reserved": 0}, {"rental_uris": {"ios": "https://dc.lft.to/lastmile_qr_scan", "android": "https://dc.lft.to/lastmile_qr_scan"}, "lon": -77.063735, "type": "electric_scooter", "fusion_lat": 0.0, "lat": 38.944213833333336, "name": "6643db5b8c84b60cc5c39b7e820c39ba", "fusion_lon": 0.0, "bike_id": "6643db5b8c84b60cc5c39b7e820c39ba", "is_disabled": 0, "is_reserved": 0}, {"rental_uris": {"ios": "https://dc.lft.to/lastmile_qr_scan", "android": "https://dc.lft.to/lastmile_qr_scan"}, "lon": -77.01770516666667, "type": "electric_scooter", "fusion_lat": 0.0, "lat": 38.902710666666664, "name": "b5944f1314e7352a5de45fce8e403d10", "fusion_lon": 0.0, "bike_id": "b5944f1314e7352a5de45fce8e403d10", "is_disabled": 0, "is_reserved": 0}, {"rental_uris": {"ios": "https://dc.lft.to/lastmile_qr_scan", "android": "https://dc.lft.to/lastmile_qr_scan"}, "lon": -77.005906, "type": "electric_scooter", "fusion_lat": 0.0, "lat": 38.905783166666666, "name": "dcbe752f23cd4899babf4365c33193c7", "fusion_lon": 0.0, "bike_id": "dcbe752f23cd4899babf4365c33193c7", "is_disabled": 0, "is_reserved": 0}, {"rental_uris": {"ios": "https://dc.lft.to/lastmile_qr_scan", "android": "https://dc.lft.to/lastmile_qr_scan"}, "lon": -77.0009615, "type": "electric_scooter", "fusion_lat": 0.0, "lat": 38.90753866666667, "name": "c5ef3fd2130669447c074649e4f7dcb3", "fusion_lon": 0.0, "bike_id": "c5ef3fd2130669447c074649e4f7dcb3", "is_disabled": 0, "is_reserved": 0}, {"rental_uris": {"ios": "https://dc.lft.to/lastmile_qr_scan", "android": "https://dc.lft.to/lastmile_qr_scan"}, "lon": -77.05336933333334, "type": "electric_scooter", "fusion_lat": 0.0, "lat": 38.90593916666667, "name": "af7781f6cbce6a9222341a6e90ffd0e6", "fusion_lon": 0.0, "bike_id": "af7781f6cbce6a9222341a6e90ffd0e6", "is_disabled": 0, "is_reserved": 0}, {"rental_uris": {"ios": "https://dc.lft.to/lastmile_qr_scan", "android": "https://dc.lft.to/lastmile_qr_scan"}, "lon": -77.03497933333334, "type": "electric_scooter", "fusion_lat": 0.0, "lat": 38.918110166666665, "name": "e2428fe9f75d019b5ad38b9d054e8851", "fusion_lon": 0.0, "bike_id": "e2428fe9f75d019b5ad38b9d054e8851", "is_disabled": 0, "is_reserved": 0}, {"rental_uris": {"ios": "https://dc.lft.to/lastmile_qr_scan", "android": "https://dc.lft.to/lastmile_qr_scan"}, "lon": -76.99980783333334, "type": "electric_scooter", "fusion_lat": 0.0, "lat": 38.838332333333334, "name": "192bbb0252147ee19da103af86b08f47", "fusion_lon": 0.0, "bike_id": "192bbb0252147ee19da103af86b08f47", "is_disabled": 0, "is_reserved": 0}, {"rental_uris": {"ios": "https://dc.lft.to/lastmile_qr_scan", "android": "https://dc.lft.to/lastmile_qr_scan"}, "lon": -77.035792, "type": "electric_scooter", "fusion_lat": 0.0, "lat": 38.90399516666667, "name": "1212dc29017b716e9b0967a4857632d5", "fusion_lon": 0.0, "bike_id": "1212dc29017b716e9b0967a4857632d5", "is_disabled": 0, "is_reserved": 0}, {"rental_uris": {"ios": "https://dc.lft.to/lastmile_qr_scan", "android": "https://dc.lft.to/lastmile_qr_scan"}, "lon": -77.03714866666667, "type": "electric_scooter", "fusion_lat": 0.0, "lat": 38.916954, "name": "ff3fda970280f75734bcc8e6c3a6da13", "fusion_lon": 0.0, "bike_id": "ff3fda970280f75734bcc8e6c3a6da13", "is_disabled": 0, "is_reserved": 0}, {"rental_uris": {"ios": "https://dc.lft.to/lastmile_qr_scan", "android": "https://dc.lft.to/lastmile_qr_scan"}, "lon": -77.04425633333334, "type": "electric_scooter", "fusion_lat": 0.0, "lat": 38.921312, "name": "5f71763a423dc03179c68f8bcc8f30d2", "fusion_lon": 0.0, "bike_id": "5f71763a423dc03179c68f8bcc8f30d2", "is_disabled": 0, "is_reserved": 0}, {"rental_uris": {"ios": "https://dc.lft.to/lastmile_qr_scan", "android": "https://dc.lft.to/lastmile_qr_scan"}, "lon": -76.90829566666666, "type": "electric_bike", "fusion_lat": 0.0, "lat": 39.0025475, "name": "5134ac8b11ea1f10b3630c4332fa286c", "fusion_lon": 0.0, "bike_id": "5134ac8b11ea1f10b3630c4332fa286c", "is_disabled": 0, "is_reserved": 0}, {"rental_uris": {"ios": "https://dc.lft.to/lastmile_qr_scan", "android": "https://dc.lft.to/lastmile_qr_scan"}, "lon": -77.11220466666667, "type": "electric_bike", "fusion_lat": 0.0, "lat": 38.8287065, "name": "d47faf7be572257601a5c55d6f275f9e", "fusion_lon": 0.0, "bike_id": "d47faf7be572257601a5c55d6f275f9e", "is_disabled": 0, "is_reserved": 0}, {"rental_uris": {"ios": "https://dc.lft.to/lastmile_qr_scan", "android": "https://dc.lft.to/lastmile_qr_scan"}, "lon": -76.99181866666666, "type": "electric_scooter", "fusion_lat": 0.0, "lat": 38.90455683333333, "name": "1fa55e2ea15e60f6c1aedfae1d1d0257", "fusion_lon": 0.0, "bike_id": "1fa55e2ea15e60f6c1aedfae1d1d0257", "is_disabled": 0, "is_reserved": 0}, {"rental_uris": {"ios": "https://dc.lft.to/lastmile_qr_scan", "android": "https://dc.lft.to/lastmile_qr_scan"}, "lon": -76.99950333333334, "type": "electric_scooter", "fusion_lat": 0.0, "lat": 38.84294233333333, "name": "b06dca8d9e49d71509fbe30da406374d", "fusion_lon": 0.0, "bike_id": "b06dca8d9e49d71509fbe30da406374d", "is_disabled": 0, "is_reserved": 0}, {"rental_uris": {"ios": "https://dc.lft.to/lastmile_qr_scan", "android": "https://dc.lft.to/lastmile_qr_scan"}, "lon": -77.02078083333333, "type": "electric_scooter", "fusion_lat": 0.0, "lat": 38.8818725, "name": "dfdc48da71252c46b0c8e04347bc0e13", "fusion_lon": 0.0, "bike_id": "dfdc48da71252c46b0c8e04347bc0e13", "is_disabled": 0, "is_reserved": 0}, {"rental_uris": {"ios": "https://dc.lft.to/lastmile_qr_scan", "android": "https://dc.lft.to/lastmile_qr_scan"}, "lon": -77.0297025, "type": "electric_scooter", "fusion_lat": 0.0, "lat": 38.93243183333333, "name": "375d2d0c1dbba02be68ed02f8f59baaa", "fusion_lon": 0.0, "bike_id": "375d2d0c1dbba02be68ed02f8f59baaa", "is_disabled": 0, "is_reserved": 0}, {"rental_uris": {"ios": "https://dc.lft.to/lastmile_qr_scan", "android": "https://dc.lft.to/lastmile_qr_scan"}, "lon": -77.03544083333334, "type": "electric_scooter", "fusion_lat": 0.0, "lat": 38.92681183333333, "name": "cf43467101107d8c5612bcfb28f1c450", "fusion_lon": 0.0, "bike_id": "cf43467101107d8c5612bcfb28f1c450", "is_disabled": 0, "is_reserved": 0}, {"rental_uris": {"ios": "https://dc.lft.to/lastmile_qr_scan", "android": "https://dc.lft.to/lastmile_qr_scan"}, "lon": -77.13597533333333, "type": "electric_bike", "fusion_lat": 0.0, "lat": 39.053430166666665, "name": "f3fd55a9f24029dad89c54aeb9b556ed", "fusion_lon": 0.0, "bike_id": "f3fd55a9f24029dad89c54aeb9b556ed", "is_disabled": 0, "is_reserved": 0}, {"rental_uris": {"ios": "https://dc.lft.to/lastmile_qr_scan", "android": "https://dc.lft.to/lastmile_qr_scan"}, "lon": -76.98629633333333, "type": "electric_scooter", "fusion_lat": 0.0, "lat": 38.868194, "name": "4ef65d67627794a14f7d8f0baae46a42", "fusion_lon": 0.0, "bike_id": "4ef65d67627794a14f7d8f0baae46a42", "is_disabled": 0, "is_reserved": 0}, {"rental_uris": {"ios": "https://dc.lft.to/lastmile_qr_scan", "android": "https://dc.lft.to/lastmile_qr_scan"}, "lon": -77.03346933333333, "type": "electric_scooter", "fusion_lat": 0.0, "lat": 38.9190995, "name": "17f4bd0d86059ada647371d0bbc39868", "fusion_lon": 0.0, "bike_id": "17f4bd0d86059ada647371d0bbc39868", "is_disabled": 0, "is_reserved": 0}, {"rental_uris": {"ios": "https://dc.lft.to/lastmile_qr_scan", "android": "https://dc.lft.to/lastmile_qr_scan"}, "lon": -77.05254616666667, "type": "electric_scooter", "fusion_lat": 0.0, "lat": 38.923776333333336, "name": "2d643d89a1304be4bb7700cb0b4e5beb", "fusion_lon": 0.0, "bike_id": "2d643d89a1304be4bb7700cb0b4e5beb", "is_disabled": 0, "is_reserved": 0}, {"rental_uris": {"ios": "https://dc.lft.to/lastmile_qr_scan", "android": "https://dc.lft.to/lastmile_qr_scan"}, "lon": -77.01258833333333, "type": "electric_scooter", "fusion_lat": 0.0, "lat": 38.899672333333335, "name": "2e51d8a036bcc31acaf0cc849ad3f64c", "fusion_lon": 0.0, "bike_id": "2e51d8a036bcc31acaf0cc849ad3f64c", "is_disabled": 0, "is_reserved": 0}, {"rental_uris": {"ios": "https://dc.lft.to/lastmile_qr_scan", "android": "https://dc.lft.to/lastmile_qr_scan"}, "lon": -76.9900425, "type": "electric_scooter", "fusion_lat": 0.0, "lat": 38.865032166666666, "name": "ac91d4f41a6b8c77337428d27c4c189e", "fusion_lon": 0.0, "bike_id": "ac91d4f41a6b8c77337428d27c4c189e", "is_disabled": 0, "is_reserved": 0}, {"rental_uris": {"ios": "https://dc.lft.to/lastmile_qr_scan", "android": "https://dc.lft.to/lastmile_qr_scan"}, "lon": -77.01100483333333, "type": "electric_scooter", "fusion_lat": 0.0, "lat": 38.89545583333334, "name": "8f2c0003f8fc653e1e2c8ef2f98408dd", "fusion_lon": 0.0, "bike_id": "8f2c0003f8fc653e1e2c8ef2f98408dd", "is_disabled": 0, "is_reserved": 0}, {"rental_uris": {"ios": "https://dc.lft.to/lastmile_qr_scan", "android": "https://dc.lft.to/lastmile_qr_scan"}, "lon": -77.031583, "type": "electric_scooter", "fusion_lat": 0.0, "lat": 38.911956833333335, "name": "12024771f36caa39f39cf7a6599bc8be", "fusion_lon": 0.0, "bike_id": "12024771f36caa39f39cf7a6599bc8be", "is_disabled": 0, "is_reserved": 0}, {"rental_uris": {"ios": "https://dc.lft.to/lastmile_qr_scan", "android": "https://dc.lft.to/lastmile_qr_scan"}, "lon": -76.9783225, "type": "electric_bike", "fusion_lat": 0.0, "lat": 38.846111666666665, "name": "e99fae7179a81eb613662a4718bd5af2", "fusion_lon": 0.0, "bike_id": "e99fae7179a81eb613662a4718bd5af2", "is_disabled": 0, "is_reserved": 0}, {"rental_uris": {"ios": "https://dc.lft.to/lastmile_qr_scan", "android": "https://dc.lft.to/lastmile_qr_scan"}, "lon": -76.98395933333333, "type": "electric_bike", "fusion_lat": 0.0, "lat": 38.922018, "name": "7a0cbfb38345c340a5a229f85f1f1c6d", "fusion_lon": 0.0, "bike_id": "7a0cbfb38345c340a5a229f85f1f1c6d", "is_disabled": 0, "is_reserved": 0}, {"rental_uris": {"ios": "https://dc.lft.to/lastmile_qr_scan", "android": "https://dc.lft.to/lastmile_qr_scan"}, "lon": -77.12627866666666, "type": "electric_bike", "fusion_lat": 0.0, "lat": 39.058102, "name": "2979dfdbf1d2a9891aa75c1d88d9d54c", "fusion_lon": 0.0, "bike_id": "2979dfdbf1d2a9891aa75c1d88d9d54c", "is_disabled": 0, "is_reserved": 0}, {"rental_uris": {"ios": "https://dc.lft.to/lastmile_qr_scan", "android": "https://dc.lft.to/lastmile_qr_scan"}, "lon": -77.02697966666666, "type": "electric_scooter", "fusion_lat": 0.0, "lat": 38.906206, "name": "ddee755a65b31c47a1392695a685bc54", "fusion_lon": 0.0, "bike_id": "ddee755a65b31c47a1392695a685bc54", "is_disabled": 0, "is_reserved": 0}, {"rental_uris": {"ios": "https://dc.lft.to/lastmile_qr_scan", "android": "https://dc.lft.to/lastmile_qr_scan"}, "lon": -77.02959633333333, "type": "electric_scooter", "fusion_lat": 0.0, "lat": 38.892216, "name": "2c80a279d854f276e12d1d46f98fd4cf", "fusion_lon": 0.0, "bike_id": "2c80a279d854f276e12d1d46f98fd4cf", "is_disabled": 0, "is_reserved": 0}, {"rental_uris": {"ios": "https://dc.lft.to/lastmile_qr_scan", "android": "https://dc.lft.to/lastmile_qr_scan"}, "lon": -77.06170916666666, "type": "electric_scooter", "fusion_lat": 0.0, "lat": 38.90255166666667, "name": "d72fdba860fc6b6dcc13dfa2746c09da", "fusion_lon": 0.0, "bike_id": "d72fdba860fc6b6dcc13dfa2746c09da", "is_disabled": 0, "is_reserved": 0}, {"rental_uris": {"ios": "https://dc.lft.to/lastmile_qr_scan", "android": "https://dc.lft.to/lastmile_qr_scan"}, "lon": -77.0312335, "type": "electric_scooter", "fusion_lat": 0.0, "lat": 38.91024433333333, "name": "bbdc31192d1c8b58e946aa91be4a883e", "fusion_lon": 0.0, "bike_id": "bbdc31192d1c8b58e946aa91be4a883e", "is_disabled": 0, "is_reserved": 0}, {"rental_uris": {"ios": "https://dc.lft.to/lastmile_qr_scan", "android": "https://dc.lft.to/lastmile_qr_scan"}, "lon": -76.99570566666667, "type": "electric_scooter", "fusion_lat": 0.0, "lat": 38.920132833333334, "name": "789b1dfc1ca151ec42a304fbc4869c9e", "fusion_lon": 0.0, "bike_id": "789b1dfc1ca151ec42a304fbc4869c9e", "is_disabled": 0, "is_reserved": 0}, {"rental_uris": {"ios": "https://dc.lft.to/lastmile_qr_scan", "android": "https://dc.lft.to/lastmile_qr_scan"}, "lon": -77.14121566666667, "type": "electric_bike", "fusion_lat": 0.0, "lat": 38.8160225, "name": "0916f7a1dde88341b99eb267c986b39c", "fusion_lon": 0.0, "bike_id": "0916f7a1dde88341b99eb267c986b39c", "is_disabled": 0, "is_reserved": 0}, {"rental_uris": {"ios": "https://dc.lft.to/lastmile_qr_scan", "android": "https://dc.lft.to/lastmile_qr_scan"}, "lon": -77.036567, "type": "electric_scooter", "fusion_lat": 0.0, "lat": 38.95495116666667, "name": "ec3c30f080e4a4aeaada356de58dce20", "fusion_lon": 0.0, "bike_id": "ec3c30f080e4a4aeaada356de58dce20", "is_disabled": 0, "is_reserved": 0}, {"rental_uris": {"ios": "https://dc.lft.to/lastmile_qr_scan", "android": "https://dc.lft.to/lastmile_qr_scan"}, "lon": -77.03277, "type": "electric_scooter", "fusion_lat": 0.0, "lat": 38.91917866666667, "name": "4cc885665b3ca0c0d5d4b2931f8f72a7", "fusion_lon": 0.0, "bike_id": "4cc885665b3ca0c0d5d4b2931f8f72a7", "is_disabled": 0, "is_reserved": 0}, {"rental_uris": {"ios": "https://dc.lft.to/lastmile_qr_scan", "android": "https://dc.lft.to/lastmile_qr_scan"}, "lon": -76.99518666666667, "type": "electric_scooter", "fusion_lat": 0.0, "lat": 38.862575, "name": "75cec00768a2e369797bef6548fe1e4d", "fusion_lon": 0.0, "bike_id": "75cec00768a2e369797bef6548fe1e4d", "is_disabled": 0, "is_reserved": 0}, {"rental_uris": {"ios": "https://dc.lft.to/lastmile_qr_scan", "android": "https://dc.lft.to/lastmile_qr_scan"}, "lon": -77.0057925, "type": "electric_scooter", "fusion_lat": 0.0, "lat": 38.87418666666667, "name": "fad1278338fc46d0d61ccd74d24c84ef", "fusion_lon": 0.0, "bike_id": "fad1278338fc46d0d61ccd74d24c84ef", "is_disabled": 0, "is_reserved": 0}, {"rental_uris": {"ios": "https://dc.lft.to/lastmile_qr_scan", "android": "https://dc.lft.to/lastmile_qr_scan"}, "lon": -77.01367516666667, "type": "electric_scooter", "fusion_lat": 0.0, "lat": 38.863649333333335, "name": "8e961c37af2214c199c2489745954200", "fusion_lon": 0.0, "bike_id": "8e961c37af2214c199c2489745954200", "is_disabled": 0, "is_reserved": 0}, {"rental_uris": {"ios": "https://dc.lft.to/lastmile_qr_scan", "android": "https://dc.lft.to/lastmile_qr_scan"}, "lon": -77.04545466666667, "type": "electric_scooter", "fusion_lat": 0.0, "lat": 38.9110505, "name": "52f8942ed323a761810d0071c0b60a2b", "fusion_lon": 0.0, "bike_id": "52f8942ed323a761810d0071c0b60a2b", "is_disabled": 0, "is_reserved": 0}, {"rental_uris": {"ios": "https://dc.lft.to/lastmile_qr_scan", "android": "https://dc.lft.to/lastmile_qr_scan"}, "lon": -77.03395216666667, "type": "electric_scooter", "fusion_lat": 0.0, "lat": 38.9191315, "name": "d32414578f8a4bd907e27e41eaf9b95e", "fusion_lon": 0.0, "bike_id": "d32414578f8a4bd907e27e41eaf9b95e", "is_disabled": 0, "is_reserved": 0}, {"rental_uris": {"ios": "https://dc.lft.to/lastmile_qr_scan", "android": "https://dc.lft.to/lastmile_qr_scan"}, "lon": -77.053367, "type": "electric_scooter", "fusion_lat": 0.0, "lat": 38.9023675, "name": "b94ef2da05e420b26ff7fbee05033e25", "fusion_lon": 0.0, "bike_id": "b94ef2da05e420b26ff7fbee05033e25", "is_disabled": 0, "is_reserved": 0}, {"rental_uris": {"ios": "https://dc.lft.to/lastmile_qr_scan", "android": "https://dc.lft.to/lastmile_qr_scan"}, "lon": -77.02760766666667, "type": "electric_scooter", "fusion_lat": 0.0, "lat": 38.891904, "name": "979462eed8cf1185fd259ee898cde41c", "fusion_lon": 0.0, "bike_id": "979462eed8cf1185fd259ee898cde41c", "is_disabled": 0, "is_reserved": 0}, {"rental_uris": {"ios": "https://dc.lft.to/lastmile_qr_scan", "android": "https://dc.lft.to/lastmile_qr_scan"}, "lon": -77.03932183333333, "type": "electric_scooter", "fusion_lat": 0.0, "lat": 38.91759966666667, "name": "ed7d2f659c2097708df45056b6d54802", "fusion_lon": 0.0, "bike_id": "ed7d2f659c2097708df45056b6d54802", "is_disabled": 0, "is_reserved": 0}, {"rental_uris": {"ios": "https://dc.lft.to/lastmile_qr_scan", "android": "https://dc.lft.to/lastmile_qr_scan"}, "lon": -77.02655216666666, "type": "electric_scooter", "fusion_lat": 0.0, "lat": 38.89219633333333, "name": "4ae0b503e355b78a8ee90f3f697631cc", "fusion_lon": 0.0, "bike_id": "4ae0b503e355b78a8ee90f3f697631cc", "is_disabled": 0, "is_reserved": 0}, {"rental_uris": {"ios": "https://dc.lft.to/lastmile_qr_scan", "android": "https://dc.lft.to/lastmile_qr_scan"}, "lon": -76.95405433333333, "type": "electric_bike", "fusion_lat": 0.0, "lat": 38.864725166666666, "name": "35991c8e90aff3883ca943acd34c1dc8", "fusion_lon": 0.0, "bike_id": "35991c8e90aff3883ca943acd34c1dc8", "is_disabled": 0, "is_reserved": 0}, {"rental_uris": {"ios": "https://dc.lft.to/lastmile_qr_scan", "android": "https://dc.lft.to/lastmile_qr_scan"}, "lon": -77.05500733333334, "type": "electric_scooter", "fusion_lat": 0.0, "lat": 38.92978316666667, "name": "0f6136299c24b6956525f926e84dfc0f", "fusion_lon": 0.0, "bike_id": "0f6136299c24b6956525f926e84dfc0f", "is_disabled": 0, "is_reserved": 0}, {"rental_uris": {"ios": "https://dc.lft.to/lastmile_qr_scan", "android": "https://dc.lft.to/lastmile_qr_scan"}, "lon": -77.04818416666667, "type": "electric_scooter", "fusion_lat": 0.0, "lat": 38.91331433333333, "name": "c6a76ccba308753aca0ed901781bcaf8", "fusion_lon": 0.0, "bike_id": "c6a76ccba308753aca0ed901781bcaf8", "is_disabled": 0, "is_reserved": 0}, {"rental_uris": {"ios": "https://dc.lft.to/lastmile_qr_scan", "android": "https://dc.lft.to/lastmile_qr_scan"}, "lon": -76.908163, "type": "electric_bike", "fusion_lat": 0.0, "lat": 38.99454383333333, "name": "f08d9ecc85960c17710852e2ed21f679", "fusion_lon": 0.0, "bike_id": "f08d9ecc85960c17710852e2ed21f679", "is_disabled": 0, "is_reserved": 0}, {"rental_uris": {"ios": "https://dc.lft.to/lastmile_qr_scan", "android": "https://dc.lft.to/lastmile_qr_scan"}, "lon": -77.027186, "type": "electric_scooter", "fusion_lat": 0.0, "lat": 38.91813633333334, "name": "c4efe55b7088b175fa4676f5659f48a4", "fusion_lon": 0.0, "bike_id": "c4efe55b7088b175fa4676f5659f48a4", "is_disabled": 0, "is_reserved": 0}, {"rental_uris": {"ios": "https://dc.lft.to/lastmile_qr_scan", "android": "https://dc.lft.to/lastmile_qr_scan"}, "lon": -77.0298635, "type": "electric_scooter", "fusion_lat": 0.0, "lat": 38.915544, "name": "1d5763fe7a9a655dc5059f3ab16fbcaa", "fusion_lon": 0.0, "bike_id": "1d5763fe7a9a655dc5059f3ab16fbcaa", "is_disabled": 0, "is_reserved": 0}, {"rental_uris": {"ios": "https://dc.lft.to/lastmile_qr_scan", "android": "https://dc.lft.to/lastmile_qr_scan"}, "lon": -77.072353, "type": "electric_scooter", "fusion_lat": 0.0, "lat": 38.93453816666667, "name": "8179575af09e44552a32bc8e8331f3a4", "fusion_lon": 0.0, "bike_id": "8179575af09e44552a32bc8e8331f3a4", "is_disabled": 0, "is_reserved": 0}, {"rental_uris": {"ios": "https://dc.lft.to/lastmile_qr_scan", "android": "https://dc.lft.to/lastmile_qr_scan"}, "lon": -77.062976, "type": "electric_scooter", "fusion_lat": 0.0, "lat": 38.9038855, "name": "467b955d0f3b55bd8566f0dfcb964ef7", "fusion_lon": 0.0, "bike_id": "467b955d0f3b55bd8566f0dfcb964ef7", "is_disabled": 0, "is_reserved": 0}, {"rental_uris": {"ios": "https://dc.lft.to/lastmile_qr_scan", "android": "https://dc.lft.to/lastmile_qr_scan"}, "lon": -77.03214416666667, "type": "electric_scooter", "fusion_lat": 0.0, "lat": 38.91466233333333, "name": "fd579f1bea3f1d2b2cdaa440dd0ca871", "fusion_lon": 0.0, "bike_id": "fd579f1bea3f1d2b2cdaa440dd0ca871", "is_disabled": 0, "is_reserved": 0}, {"rental_uris": {"ios": "https://dc.lft.to/lastmile_qr_scan", "android": "https://dc.lft.to/lastmile_qr_scan"}, "lon": -77.0141495, "type": "electric_scooter", "fusion_lat": 0.0, "lat": 38.915631, "name": "489f918714bace719c43db19b56223ae", "fusion_lon": 0.0, "bike_id": "489f918714bace719c43db19b56223ae", "is_disabled": 0, "is_reserved": 0}, {"rental_uris": {"ios": "https://dc.lft.to/lastmile_qr_scan", "android": "https://dc.lft.to/lastmile_qr_scan"}, "lon": -77.02256283333334, "type": "electric_scooter", "fusion_lat": 0.0, "lat": 38.916535, "name": "1bf69e0f765ed014a4b908e293dad9bb", "fusion_lon": 0.0, "bike_id": "1bf69e0f765ed014a4b908e293dad9bb", "is_disabled": 0, "is_reserved": 0}, {"rental_uris": {"ios": "https://dc.lft.to/lastmile_qr_scan", "android": "https://dc.lft.to/lastmile_qr_scan"}, "lon": -77.03376183333333, "type": "electric_scooter", "fusion_lat": 0.0, "lat": 38.9196195, "name": "2577a9ea698b03ee1946c8654e6cae78", "fusion_lon": 0.0, "bike_id": "2577a9ea698b03ee1946c8654e6cae78", "is_disabled": 0, "is_reserved": 0}, {"rental_uris": {"ios": "https://dc.lft.to/lastmile_qr_scan", "android": "https://dc.lft.to/lastmile_qr_scan"}, "lon": -77.020179, "type": "electric_scooter", "fusion_lat": 0.0, "lat": 38.88363666666667, "name": "b0d66dff2b95ea0acae16dd3c6b7f0a4", "fusion_lon": 0.0, "bike_id": "b0d66dff2b95ea0acae16dd3c6b7f0a4", "is_disabled": 0, "is_reserved": 0}, {"rental_uris": {"ios": "https://dc.lft.to/lastmile_qr_scan", "android": "https://dc.lft.to/lastmile_qr_scan"}, "lon": -76.98413866666667, "type": "electric_scooter", "fusion_lat": 0.0, "lat": 38.91388833333333, "name": "0bfd3f9261db7dff0cbe8ea3fd421c0f", "fusion_lon": 0.0, "bike_id": "0bfd3f9261db7dff0cbe8ea3fd421c0f", "is_disabled": 0, "is_reserved": 0}, {"rental_uris": {"ios": "https://dc.lft.to/lastmile_qr_scan", "android": "https://dc.lft.to/lastmile_qr_scan"}, "lon": -77.02585083333334, "type": "electric_scooter", "fusion_lat": 0.0, "lat": 38.883689, "name": "9873c8d8450bddb0f0f6856c3fce4b2f", "fusion_lon": 0.0, "bike_id": "9873c8d8450bddb0f0f6856c3fce4b2f", "is_disabled": 0, "is_reserved": 0}, {"rental_uris": {"ios": "https://dc.lft.to/lastmile_qr_scan", "android": "https://dc.lft.to/lastmile_qr_scan"}, "lon": -77.0781585, "type": "electric_scooter", "fusion_lat": 0.0, "lat": 38.9262825, "name": "1a15915297442d70cfb212f57ddb6705", "fusion_lon": 0.0, "bike_id": "1a15915297442d70cfb212f57ddb6705", "is_disabled": 0, "is_reserved": 0}, {"rental_uris": {"ios": "https://dc.lft.to/lastmile_qr_scan", "android": "https://dc.lft.to/lastmile_qr_scan"}, "lon": -77.02200466666666, "type": "electric_scooter", "fusion_lat": 0.0, "lat": 38.908323, "name": "27f4be0f04d8d71ede2d026a039bdb41", "fusion_lon": 0.0, "bike_id": "27f4be0f04d8d71ede2d026a039bdb41", "is_disabled": 0, "is_reserved": 0}, {"rental_uris": {"ios": "https://dc.lft.to/lastmile_qr_scan", "android": "https://dc.lft.to/lastmile_qr_scan"}, "lon": -77.05125283333334, "type": "electric_scooter", "fusion_lat": 0.0, "lat": 38.923621833333335, "name": "b1b1c1e0c703acfb40dd49ed5aad7a14", "fusion_lon": 0.0, "bike_id": "b1b1c1e0c703acfb40dd49ed5aad7a14", "is_disabled": 0, "is_reserved": 0}, {"rental_uris": {"ios": "https://dc.lft.to/lastmile_qr_scan", "android": "https://dc.lft.to/lastmile_qr_scan"}, "lon": -77.01494316666667, "type": "electric_scooter", "fusion_lat": 0.0, "lat": 38.887396333333335, "name": "ecbd6b57d32979ff884aafead4549c1a", "fusion_lon": 0.0, "bike_id": "ecbd6b57d32979ff884aafead4549c1a", "is_disabled": 0, "is_reserved": 0}, {"rental_uris": {"ios": "https://dc.lft.to/lastmile_qr_scan", "android": "https://dc.lft.to/lastmile_qr_scan"}, "lon": -76.9835145, "type": "electric_scooter", "fusion_lat": 0.0, "lat": 38.915513833333335, "name": "f2463536a6dddaeda49048d8531a6572", "fusion_lon": 0.0, "bike_id": "f2463536a6dddaeda49048d8531a6572", "is_disabled": 0, "is_reserved": 0}, {"rental_uris": {"ios": "https://dc.lft.to/lastmile_qr_scan", "android": "https://dc.lft.to/lastmile_qr_scan"}, "lon": -77.11429583333333, "type": "electric_bike", "fusion_lat": 0.0, "lat": 38.85246183333334, "name": "6b72754f38fdd47bd560cdcda02193b9", "fusion_lon": 0.0, "bike_id": "6b72754f38fdd47bd560cdcda02193b9", "is_disabled": 0, "is_reserved": 0}, {"rental_uris": {"ios": "https://dc.lft.to/lastmile_qr_scan", "android": "https://dc.lft.to/lastmile_qr_scan"}, "lon": -77.03284633333334, "type": "electric_scooter", "fusion_lat": 0.0, "lat": 38.89566516666667, "name": "1ab00541fa42eb8f9468c0b71a914328", "fusion_lon": 0.0, "bike_id": "1ab00541fa42eb8f9468c0b71a914328", "is_disabled": 0, "is_reserved": 0}, {"rental_uris": {"ios": "https://dc.lft.to/lastmile_qr_scan", "android": "https://dc.lft.to/lastmile_qr_scan"}, "lon": -77.0316515, "type": "electric_scooter", "fusion_lat": 0.0, "lat": 38.899612166666664, "name": "7555193d87355fe3380f11156e251696", "fusion_lon": 0.0, "bike_id": "7555193d87355fe3380f11156e251696", "is_disabled": 0, "is_reserved": 0}, {"rental_uris": {"ios": "https://dc.lft.to/lastmile_qr_scan", "android": "https://dc.lft.to/lastmile_qr_scan"}, "lon": -77.00199916666666, "type": "electric_scooter", "fusion_lat": 0.0, "lat": 38.90071366666667, "name": "84d80faf6d6e384718b536c97b70db79", "fusion_lon": 0.0, "bike_id": "84d80faf6d6e384718b536c97b70db79", "is_disabled": 0, "is_reserved": 0}, {"rental_uris": {"ios": "https://dc.lft.to/lastmile_qr_scan", "android": "https://dc.lft.to/lastmile_qr_scan"}, "lon": -77.00755233333334, "type": "electric_scooter", "fusion_lat": 0.0, "lat": 38.876612, "name": "64e78f7c02b86235335628b5d50ff740", "fusion_lon": 0.0, "bike_id": "64e78f7c02b86235335628b5d50ff740", "is_disabled": 0, "is_reserved": 0}, {"rental_uris": {"ios": "https://dc.lft.to/lastmile_qr_scan", "android": "https://dc.lft.to/lastmile_qr_scan"}, "lon": -77.04177066666666, "type": "electric_scooter", "fusion_lat": 0.0, "lat": 38.919337666666664, "name": "1c546d8b0a1eaff5161fd3b7f90fbf8a", "fusion_lon": 0.0, "bike_id": "1c546d8b0a1eaff5161fd3b7f90fbf8a", "is_disabled": 0, "is_reserved": 0}, {"rental_uris": {"ios": "https://dc.lft.to/lastmile_qr_scan", "android": "https://dc.lft.to/lastmile_qr_scan"}, "lon": -77.03570016666667, "type": "electric_scooter", "fusion_lat": 0.0, "lat": 38.918149666666665, "name": "ada2c1b753c3ab078f53eb5532cf64e9", "fusion_lon": 0.0, "bike_id": "ada2c1b753c3ab078f53eb5532cf64e9", "is_disabled": 0, "is_reserved": 0}, {"rental_uris": {"ios": "https://dc.lft.to/lastmile_qr_scan", "android": "https://dc.lft.to/lastmile_qr_scan"}, "lon": -77.04242716666667, "type": "electric_scooter", "fusion_lat": 0.0, "lat": 38.9222105, "name": "5869ab04dc1ba53501b3985d3c6b6974", "fusion_lon": 0.0, "bike_id": "5869ab04dc1ba53501b3985d3c6b6974", "is_disabled": 0, "is_reserved": 0}, {"rental_uris": {"ios": "https://dc.lft.to/lastmile_qr_scan", "android": "https://dc.lft.to/lastmile_qr_scan"}, "lon": -77.05880916666666, "type": "electric_scooter", "fusion_lat": 0.0, "lat": 38.93635183333333, "name": "f3c7a9ebcb48acb5cb09a64567e91b77", "fusion_lon": 0.0, "bike_id": "f3c7a9ebcb48acb5cb09a64567e91b77", "is_disabled": 0, "is_reserved": 0}, {"rental_uris": {"ios": "https://dc.lft.to/lastmile_qr_scan", "android": "https://dc.lft.to/lastmile_qr_scan"}, "lon": -77.0333205, "type": "electric_scooter", "fusion_lat": 0.0, "lat": 38.892297166666665, "name": "e53bd2660e3844c4d7eb1cd78834113a", "fusion_lon": 0.0, "bike_id": "e53bd2660e3844c4d7eb1cd78834113a", "is_disabled": 0, "is_reserved": 0}, {"rental_uris": {"ios": "https://dc.lft.to/lastmile_qr_scan", "android": "https://dc.lft.to/lastmile_qr_scan"}, "lon": -77.06951533333333, "type": "electric_bike", "fusion_lat": 0.0, "lat": 38.990426, "name": "2c107688c70e6094fc59017f0d6413ea", "fusion_lon": 0.0, "bike_id": "2c107688c70e6094fc59017f0d6413ea", "is_disabled": 0, "is_reserved": 0}, {"rental_uris": {"ios": "https://dc.lft.to/lastmile_qr_scan", "android": "https://dc.lft.to/lastmile_qr_scan"}, "lon": -77.02697933333333, "type": "electric_scooter", "fusion_lat": 0.0, "lat": 38.906637, "name": "2b3bb68471af0fdf5b75b633c04c86be", "fusion_lon": 0.0, "bike_id": "2b3bb68471af0fdf5b75b633c04c86be", "is_disabled": 0, "is_reserved": 0}, {"rental_uris": {"ios": "https://dc.lft.to/lastmile_qr_scan", "android": "https://dc.lft.to/lastmile_qr_scan"}, "lon": -77.02153033333333, "type": "electric_scooter", "fusion_lat": 0.0, "lat": 38.926022333333336, "name": "d4cb0e81f647848a2a6d64bc98b79062", "fusion_lon": 0.0, "bike_id": "d4cb0e81f647848a2a6d64bc98b79062", "is_disabled": 0, "is_reserved": 0}, {"rental_uris": {"ios": "https://dc.lft.to/lastmile_qr_scan", "android": "https://dc.lft.to/lastmile_qr_scan"}, "lon": -77.03833716666666, "type": "electric_scooter", "fusion_lat": 0.0, "lat": 38.921771666666665, "name": "b6167640d566bfa6030c234d5e4af1b7", "fusion_lon": 0.0, "bike_id": "b6167640d566bfa6030c234d5e4af1b7", "is_disabled": 0, "is_reserved": 0}, {"rental_uris": {"ios": "https://dc.lft.to/lastmile_qr_scan", "android": "https://dc.lft.to/lastmile_qr_scan"}, "lon": -76.87820783333333, "type": "electric_bike", "fusion_lat": 0.0, "lat": 38.9922865, "name": "ed1fd77a339f83295a815e36d2ddaa3f", "fusion_lon": 0.0, "bike_id": "ed1fd77a339f83295a815e36d2ddaa3f", "is_disabled": 0, "is_reserved": 0}, {"rental_uris": {"ios": "https://dc.lft.to/lastmile_qr_scan", "android": "https://dc.lft.to/lastmile_qr_scan"}, "lon": -76.97614783333333, "type": "electric_scooter", "fusion_lat": 0.0, "lat": 38.903831333333336, "name": "6e1da51a9bc41d37ef6f22c6f205497b", "fusion_lon": 0.0, "bike_id": "6e1da51a9bc41d37ef6f22c6f205497b", "is_disabled": 0, "is_reserved": 0}, {"rental_uris": {"ios": "https://dc.lft.to/lastmile_qr_scan", "android": "https://dc.lft.to/lastmile_qr_scan"}, "lon": -76.94635683333334, "type": "electric_scooter", "fusion_lat": 0.0, "lat": 38.898323833333336, "name": "3cce0fecafcafc98b764ea68abe24784", "fusion_lon": 0.0, "bike_id": "3cce0fecafcafc98b764ea68abe24784", "is_disabled": 0, "is_reserved": 0}, {"rental_uris": {"ios": "https://dc.lft.to/lastmile_qr_scan", "android": "https://dc.lft.to/lastmile_qr_scan"}, "lon": -76.97750266666667, "type": "electric_scooter", "fusion_lat": 0.0, "lat": 38.90010133333333, "name": "c2c245e8568bb0998b66c10c679a248a", "fusion_lon": 0.0, "bike_id": "c2c245e8568bb0998b66c10c679a248a", "is_disabled": 0, "is_reserved": 0}, {"rental_uris": {"ios": "https://dc.lft.to/lastmile_qr_scan", "android": "https://dc.lft.to/lastmile_qr_scan"},