{"data": {"bikes": [{"lon": -77.0181785, "lat": 38.908107, "name": "4185b15dca2c219b7b8692dd148864f5", "fusion_lat": 0.0, "fusion_lon": 0.0, "rental_uris": {"android": "https://dc.lft.to/lastmile_qr_scan", "ios": "https://dc.lft.to/lastmile_qr_scan"}, "is_reserved": 0, "is_disabled": 0, "type": "electric_scooter", "bike_id": "4185b15dca2c219b7b8692dd148864f5"}, {"lon": -77.0439045, "lat": 38.922797333333335, "name": "bb4d590237d8c7a46573439e41c01bb4", "fusion_lat": 0.0, "fusion_lon": 0.0, "rental_uris": {"android": "https://dc.lft.to/lastmile_qr_scan", "ios": "https://dc.lft.to/lastmile_qr_scan"}, "is_reserved": 0, "is_disabled": 0, "type": "electric_scooter", "bike_id": "bb4d590237d8c7a46573439e41c01bb4"}, {"lon": -77.032101, "lat": 38.91482716666667, "name": "dd5e2ce1f6974b344aad3cd084713325", "fusion_lat": 0.0, "fusion_lon": 0.0, "rental_uris": {"android": "https://dc.lft.to/lastmile_qr_scan", "ios": "https://dc.lft.to/lastmile_qr_scan"}, "is_reserved": 0, "is_disabled": 0, "type": "electric_scooter", "bike_id": "dd5e2ce1f6974b344aad3cd084713325"}, {"lon": -76.96504916666666, "lat": 38.8765115, "name": "24cf07551d78a1365bc7dd8c64bc0a13", "fusion_lat": 0.0, "fusion_lon": 0.0, "rental_uris": {"android": "https://dc.lft.to/lastmile_qr_scan", "ios": "https://dc.lft.to/lastmile_qr_scan"}, "is_reserved": 0, "is_disabled": 0, "type": "electric_scooter", "bike_id": "24cf07551d78a1365bc7dd8c64bc0a13"}, {"lon": -77.0107905, "lat": 38.87110583333333, "name": "61600c4ab8cb59ab6eebce75a7cc5b36", "fusion_lat": 0.0, "fusion_lon": 0.0, "rental_uris": {"android": "https://dc.lft.to/lastmile_qr_scan", "ios": "https://dc.lft.to/lastmile_qr_scan"}, "is_reserved": 0, "is_disabled": 0, "type": "electric_scooter", "bike_id": "61600c4ab8cb59ab6eebce75a7cc5b36"}, {"lon": -77.02365883333333, "lat": 38.90880283333333, "name": "15da04e1ea11c65fdfc6713a7d715e39", "fusion_lat": 0.0, "fusion_lon": 0.0, "rental_uris": {"android": "https://dc.lft.to/lastmile_qr_scan", "ios": "https://dc.lft.to/lastmile_qr_scan"}, "is_reserved": 0, "is_disabled": 0, "type": "electric_scooter", "bike_id": "15da04e1ea11c65fdfc6713a7d715e39"}, {"lon": -77.10916933333333, "lat": 39.052029166666664, "name": "d24406c880f0e39d5c6f298d6b7f8ad3", "fusion_lat": 0.0, "fusion_lon": 0.0, "rental_uris": {"android": "https://dc.lft.to/lastmile_qr_scan", "ios": "https://dc.lft.to/lastmile_qr_scan"}, "is_reserved": 0, "is_disabled": 0, "type": "electric_bike", "bike_id": "d24406c880f0e39d5c6f298d6b7f8ad3"}, {"lon": -77.00576533333333, "lat": 38.90565566666667, "name": "959e0a8bfa3b451bcafc434d40a68911", "fusion_lat": 0.0, "fusion_lon": 0.0, "rental_uris": {"android": "https://dc.lft.to/lastmile_qr_scan", "ios": "https://dc.lft.to/lastmile_qr_scan"}, "is_reserved": 0, "is_disabled": 0, "type": "electric_scooter", "bike_id": "959e0a8bfa3b451bcafc434d40a68911"}, {"lon": -76.99033933333334, "lat": 38.85869983333333, "name": "76c5c3e8240bc5c4a5d49bfb80091131", "fusion_lat": 0.0, "fusion_lon": 0.0, "rental_uris": {"android": "https://dc.lft.to/lastmile_qr_scan", "ios": "https://dc.lft.to/lastmile_qr_scan"}, "is_reserved": 0, "is_disabled": 0, "type": "electric_scooter", "bike_id": "76c5c3e8240bc5c4a5d49bfb80091131"}, {"lon": -77.0240175, "lat": 38.88741483333333, "name": "9f4f26cacb3e8241b8a31f872d003b83", "fusion_lat": 0.0, "fusion_lon": 0.0, "rental_uris": {"android": "https://dc.lft.to/lastmile_qr_scan", "ios": "https://dc.lft.to/lastmile_qr_scan"}, "is_reserved": 0, "is_disabled": 0, "type": "electric_scooter", "bike_id": "9f4f26cacb3e8241b8a31f872d003b83"}, {"lon": -77.001393, "lat": 38.925656333333336, "name": "102db2f5f7d39a4c961e22a50423908b", "fusion_lat": 0.0, "fusion_lon": 0.0, "rental_uris": {"android": "https://dc.lft.to/lastmile_qr_scan", "ios": "https://dc.lft.to/lastmile_qr_scan"}, "is_reserved": 0, "is_disabled": 0, "type": "electric_bike", "bike_id": "102db2f5f7d39a4c961e22a50423908b"}, {"lon": -76.98558716666666, "lat": 38.88391566666667, "name": "078323c728d4c651cdc49b131517a2d8", "fusion_lat": 0.0, "fusion_lon": 0.0, "rental_uris": {"android": "https://dc.lft.to/lastmile_qr_scan", "ios": "https://dc.lft.to/lastmile_qr_scan"}, "is_reserved": 0, "is_disabled": 0, "type": "electric_scooter", "bike_id": "078323c728d4c651cdc49b131517a2d8"}, {"lon": -77.13231483333334, "lat": 38.869767833333334, "name": "457aad6e9055cc1c29a10f0cb755a5ca", "fusion_lat": 0.0, "fusion_lon": 0.0, "rental_uris": {"android": "https://dc.lft.to/lastmile_qr_scan", "ios": "https://dc.lft.to/lastmile_qr_scan"}, "is_reserved": 0, "is_disabled": 0, "type": "electric_bike", "bike_id": "457aad6e9055cc1c29a10f0cb755a5ca"}, {"lon": -77.02919166666666, "lat": 38.903675, "name": "56f6ff0850a1a0a81be3b49d46e911b5", "fusion_lat": 0.0, "fusion_lon": 0.0, "rental_uris": {"android": "https://dc.lft.to/lastmile_qr_scan", "ios": "https://dc.lft.to/lastmile_qr_scan"}, "is_reserved": 0, "is_disabled": 0, "type": "electric_scooter", "bike_id": "56f6ff0850a1a0a81be3b49d46e911b5"}, {"lon": -77.01883783333334, "lat": 38.91184066666667, "name": "a90fc3d6585d5446d139acac2bf500d4", "fusion_lat": 0.0, "fusion_lon": 0.0, "rental_uris": {"android": "https://dc.lft.to/lastmile_qr_scan", "ios": "https://dc.lft.to/lastmile_qr_scan"}, "is_reserved": 0, "is_disabled": 0, "type": "electric_scooter", "bike_id": "a90fc3d6585d5446d139acac2bf500d4"}, {"lon": -77.04882966666666, "lat": 38.909525, "name": "4be26643f06392b11dbfec4d1449d41e", "fusion_lat": 0.0, "fusion_lon": 0.0, "rental_uris": {"android": "https://dc.lft.to/lastmile_qr_scan", "ios": "https://dc.lft.to/lastmile_qr_scan"}, "is_reserved": 0, "is_disabled": 0, "type": "electric_scooter", "bike_id": "4be26643f06392b11dbfec4d1449d41e"}, {"lon": -77.03256533333334, "lat": 38.93242816666667, "name": "8f7cb88377bfd4b1977c4a5c6ab68682", "fusion_lat": 0.0, "fusion_lon": 0.0, "rental_uris": {"android": "https://dc.lft.to/lastmile_qr_scan", "ios": "https://dc.lft.to/lastmile_qr_scan"}, "is_reserved": 0, "is_disabled": 0, "type": "electric_scooter", "bike_id": "8f7cb88377bfd4b1977c4a5c6ab68682"}, {"lon": -76.99955116666666, "lat": 38.90863016666667, "name": "871b92ab70d65b1b04dc3f4250eb368b", "fusion_lat": 0.0, "fusion_lon": 0.0, "rental_uris": {"android": "https://dc.lft.to/lastmile_qr_scan", "ios": "https://dc.lft.to/lastmile_qr_scan"}, "is_reserved": 0, "is_disabled": 0, "type": "electric_scooter", "bike_id": "871b92ab70d65b1b04dc3f4250eb368b"}, {"lon": -77.02588316666667, "lat": 38.904286166666665, "name": "66c4012a781497abc1c6ee8cfec3b943", "fusion_lat": 0.0, "fusion_lon": 0.0, "rental_uris": {"android": "https://dc.lft.to/lastmile_qr_scan", "ios": "https://dc.lft.to/lastmile_qr_scan"}, "is_reserved": 0, "is_disabled": 0, "type": "electric_scooter", "bike_id": "66c4012a781497abc1c6ee8cfec3b943"}, {"lon": -77.03300933333334, "lat": 38.92870516666667, "name": "126e366b287caa9e8aded4f1e14b1e96", "fusion_lat": 0.0, "fusion_lon": 0.0, "rental_uris": {"android": "https://dc.lft.to/lastmile_qr_scan", "ios": "https://dc.lft.to/lastmile_qr_scan"}, "is_reserved": 0, "is_disabled": 0, "type": "electric_scooter", "bike_id": "126e366b287caa9e8aded4f1e14b1e96"}, {"lon": -77.03829316666666, "lat": 38.911900833333334, "name": "9114809bf1adb07b105b83af894c4f33", "fusion_lat": 0.0, "fusion_lon": 0.0, "rental_uris": {"android": "https://dc.lft.to/lastmile_qr_scan", "ios": "https://dc.lft.to/lastmile_qr_scan"}, "is_reserved": 0, "is_disabled": 0, "type": "electric_scooter", "bike_id": "9114809bf1adb07b105b83af894c4f33"}, {"lon": -77.009026, "lat": 38.89727633333333, "name": "40b107c7576fa6f1e10fc655f4b6f19a", "fusion_lat": 0.0, "fusion_lon": 0.0, "rental_uris": {"android": "https://dc.lft.to/lastmile_qr_scan", "ios": "https://dc.lft.to/lastmile_qr_scan"}, "is_reserved": 0, "is_disabled": 0, "type": "electric_scooter", "bike_id": "40b107c7576fa6f1e10fc655f4b6f19a"}, {"lon": -77.02507866666667, "lat": 38.919164, "name": "d35fb6f68c5b225e427477f6cb1039f3", "fusion_lat": 0.0, "fusion_lon": 0.0, "rental_uris": {"android": "https://dc.lft.to/lastmile_qr_scan", "ios": "https://dc.lft.to/lastmile_qr_scan"}, "is_reserved": 0, "is_disabled": 0, "type": "electric_scooter", "bike_id": "d35fb6f68c5b225e427477f6cb1039f3"}, {"lon": -76.99493416666667, "lat": 38.900861, "name": "f0ade0b6830586e5d40f9bea6afea954", "fusion_lat": 0.0, "fusion_lon": 0.0, "rental_uris": {"android": "https://dc.lft.to/lastmile_qr_scan", "ios": "https://dc.lft.to/lastmile_qr_scan"}, "is_reserved": 0, "is_disabled": 0, "type": "electric_scooter", "bike_id": "f0ade0b6830586e5d40f9bea6afea954"}, {"lon": -76.946527, "lat": 38.89826033333333, "name": "3391fe68201d4d2e32d2f662a599e5f3", "fusion_lat": 0.0, "fusion_lon": 0.0, "rental_uris": {"android": "https://dc.lft.to/lastmile_qr_scan", "ios": "https://dc.lft.to/lastmile_qr_scan"}, "is_reserved": 0, "is_disabled": 0, "type": "electric_scooter", "bike_id": "3391fe68201d4d2e32d2f662a599e5f3"}, {"lon": -77.03872666666666, "lat": 38.912672666666666, "name": "6ca25d287d644e0806b417bef8426138", "fusion_lat": 0.0, "fusion_lon": 0.0, "rental_uris": {"android": "https://dc.lft.to/lastmile_qr_scan", "ios": "https://dc.lft.to/lastmile_qr_scan"}, "is_reserved": 0, "is_disabled": 0, "type": "electric_scooter", "bike_id": "6ca25d287d644e0806b417bef8426138"}, {"lon": -77.07819583333334, "lat": 38.92461083333333, "name": "786a97fa8d177ed5e16db84b94bb0da6", "fusion_lat": 0.0, "fusion_lon": 0.0, "rental_uris": {"android": "https://dc.lft.to/lastmile_qr_scan", "ios": "https://dc.lft.to/lastmile_qr_scan"}, "is_reserved": 0, "is_disabled": 0, "type": "electric_scooter", "bike_id": "786a97fa8d177ed5e16db84b94bb0da6"}, {"lon": -77.03367383333334, "lat": 38.8973705, "name": "a2ea1f81007d181582dd2c60c9dcc9b8", "fusion_lat": 0.0, "fusion_lon": 0.0, "rental_uris": {"android": "https://dc.lft.to/lastmile_qr_scan", "ios": "https://dc.lft.to/lastmile_qr_scan"}, "is_reserved": 0, "is_disabled": 0, "type": "electric_scooter", "bike_id": "a2ea1f81007d181582dd2c60c9dcc9b8"}, {"lon": -77.04274366666667, "lat": 38.923156, "name": "247b4fcc77bae389c9492f412b1af83a", "fusion_lat": 0.0, "fusion_lon": 0.0, "rental_uris": {"android": "https://dc.lft.to/lastmile_qr_scan", "ios": "https://dc.lft.to/lastmile_qr_scan"}, "is_reserved": 0, "is_disabled": 0, "type": "electric_scooter", "bike_id": "247b4fcc77bae389c9492f412b1af83a"}, {"lon": -76.9724945, "lat": 38.957409, "name": "291b7766c24c3bf564731f116028acc4", "fusion_lat": 0.0, "fusion_lon": 0.0, "rental_uris": {"android": "https://dc.lft.to/lastmile_qr_scan", "ios": "https://dc.lft.to/lastmile_qr_scan"}, "is_reserved": 0, "is_disabled": 0, "type": "electric_bike", "bike_id": "291b7766c24c3bf564731f116028acc4"}, {"lon": -77.00268283333334, "lat": 38.91198633333333, "name": "b0b58df066c9aa5f623f3a5e6b71d5da", "fusion_lat": 0.0, "fusion_lon": 0.0, "rental_uris": {"android": "https://dc.lft.to/lastmile_qr_scan", "ios": "https://dc.lft.to/lastmile_qr_scan"}, "is_reserved": 0, "is_disabled": 0, "type": "electric_scooter", "bike_id": "b0b58df066c9aa5f623f3a5e6b71d5da"}, {"lon": -76.97135016666667, "lat": 38.8570485, "name": "ec79f09cbd011d4803ce1beabcc15668", "fusion_lat": 0.0, "fusion_lon": 0.0, "rental_uris": {"android": "https://dc.lft.to/lastmile_qr_scan", "ios": "https://dc.lft.to/lastmile_qr_scan"}, "is_reserved": 0, "is_disabled": 0, "type": "electric_scooter", "bike_id": "ec79f09cbd011d4803ce1beabcc15668"}, {"lon": -77.03810783333333, "lat": 38.931152833333336, "name": "053066939268c929226f189c54d797da", "fusion_lat": 0.0, "fusion_lon": 0.0, "rental_uris": {"android": "https://dc.lft.to/lastmile_qr_scan", "ios": "https://dc.lft.to/lastmile_qr_scan"}, "is_reserved": 0, "is_disabled": 0, "type": "electric_scooter", "bike_id": "053066939268c929226f189c54d797da"}, {"lon": -76.95655683333334, "lat": 38.89611566666667, "name": "d516e41e3ce74956491f47c071e14786", "fusion_lat": 0.0, "fusion_lon": 0.0, "rental_uris": {"android": "https://dc.lft.to/lastmile_qr_scan", "ios": "https://dc.lft.to/lastmile_qr_scan"}, "is_reserved": 0, "is_disabled": 0, "type": "electric_scooter", "bike_id": "d516e41e3ce74956491f47c071e14786"}, {"lon": -77.02150916666666, "lat": 38.925012333333335, "name": "d990fcc9fc4cad6527457e5c929e36a9", "fusion_lat": 0.0, "fusion_lon": 0.0, "rental_uris": {"android": "https://dc.lft.to/lastmile_qr_scan", "ios": "https://dc.lft.to/lastmile_qr_scan"}, "is_reserved": 0, "is_disabled": 0, "type": "electric_scooter", "bike_id": "d990fcc9fc4cad6527457e5c929e36a9"}, {"lon": -77.02618083333333, "lat": 38.96202266666667, "name": "e12122ce3addb2136c3af6f15bcaa0e3", "fusion_lat": 0.0, "fusion_lon": 0.0, "rental_uris": {"android": "https://dc.lft.to/lastmile_qr_scan", "ios": "https://dc.lft.to/lastmile_qr_scan"}, "is_reserved": 0, "is_disabled": 0, "type": "electric_bike", "bike_id": "e12122ce3addb2136c3af6f15bcaa0e3"}, {"lon": -77.02323116666666, "lat": 38.883474666666665, "name": "10834658ce6906cf3e481a66650de9fd", "fusion_lat": 0.0, "fusion_lon": 0.0, "rental_uris": {"android": "https://dc.lft.to/lastmile_qr_scan", "ios": "https://dc.lft.to/lastmile_qr_scan"}, "is_reserved": 0, "is_disabled": 0, "type": "electric_scooter", "bike_id": "10834658ce6906cf3e481a66650de9fd"}, {"lon": -77.04405016666666, "lat": 38.87428966666667, "name": "6498c3168888446f56331e9809e804f3", "fusion_lat": 0.0, "fusion_lon": 0.0, "rental_uris": {"android": "https://dc.lft.to/lastmile_qr_scan", "ios": "https://dc.lft.to/lastmile_qr_scan"}, "is_reserved": 0, "is_disabled": 0, "type": "electric_scooter", "bike_id": "6498c3168888446f56331e9809e804f3"}, {"lon": -77.0238815, "lat": 38.91671566666667, "name": "9f2ca8efec0ccf0dbd72c0ab6b24aa15", "fusion_lat": 0.0, "fusion_lon": 0.0, "rental_uris": {"android": "https://dc.lft.to/lastmile_qr_scan", "ios": "https://dc.lft.to/lastmile_qr_scan"}, "is_reserved": 0, "is_disabled": 0, "type": "electric_bike", "bike_id": "9f2ca8efec0ccf0dbd72c0ab6b24aa15"}, {"lon": -77.03856866666666, "lat": 38.91176683333333, "name": "b3d875046643a462835f114481e6a525", "fusion_lat": 0.0, "fusion_lon": 0.0, "rental_uris": {"android": "https://dc.lft.to/lastmile_qr_scan", "ios": "https://dc.lft.to/lastmile_qr_scan"}, "is_reserved": 0, "is_disabled": 0, "type": "electric_scooter", "bike_id": "b3d875046643a462835f114481e6a525"}, {"lon": -77.0326935, "lat": 38.930594666666664, "name": "e645e2b4c52dbcaeea4adce3219c30f0", "fusion_lat": 0.0, "fusion_lon": 0.0, "rental_uris": {"android": "https://dc.lft.to/lastmile_qr_scan", "ios": "https://dc.lft.to/lastmile_qr_scan"}, "is_reserved": 0, "is_disabled": 0, "type": "electric_scooter", "bike_id": "e645e2b4c52dbcaeea4adce3219c30f0"}, {"lon": -77.03415466666667, "lat": 38.903421, "name": "c17001399f2b8dc88734dfdcac68edd1", "fusion_lat": 0.0, "fusion_lon": 0.0, "rental_uris": {"android": "https://dc.lft.to/lastmile_qr_scan", "ios": "https://dc.lft.to/lastmile_qr_scan"}, "is_reserved": 0, "is_disabled": 0, "type": "electric_scooter", "bike_id": "c17001399f2b8dc88734dfdcac68edd1"}, {"lon": -76.9691795, "lat": 38.855264, "name": "6ebe872d87890e2b00b1347f333f77c1", "fusion_lat": 0.0, "fusion_lon": 0.0, "rental_uris": {"android": "https://dc.lft.to/lastmile_qr_scan", "ios": "https://dc.lft.to/lastmile_qr_scan"}, "is_reserved": 0, "is_disabled": 0, "type": "electric_scooter", "bike_id": "6ebe872d87890e2b00b1347f333f77c1"}, {"lon": -77.031227, "lat": 38.97375016666667, "name": "907032e011ecc1dce59d432e1a0ca301", "fusion_lat": 0.0, "fusion_lon": 0.0, "rental_uris": {"android": "https://dc.lft.to/lastmile_qr_scan", "ios": "https://dc.lft.to/lastmile_qr_scan"}, "is_reserved": 0, "is_disabled": 0, "type": "electric_scooter", "bike_id": "907032e011ecc1dce59d432e1a0ca301"}, {"lon": -77.0327055, "lat": 38.9125075, "name": "ab46b9bc8333b1f83af9cdfe9e3303c6", "fusion_lat": 0.0, "fusion_lon": 0.0, "rental_uris": {"android": "https://dc.lft.to/lastmile_qr_scan", "ios": "https://dc.lft.to/lastmile_qr_scan"}, "is_reserved": 0, "is_disabled": 0, "type": "electric_scooter", "bike_id": "ab46b9bc8333b1f83af9cdfe9e3303c6"}, {"lon": -77.091603, "lat": 38.967670166666664, "name": "5f93b550ba46e9d042fb1bf72d2a3240", "fusion_lat": 0.0, "fusion_lon": 0.0, "rental_uris": {"android": "https://dc.lft.to/lastmile_qr_scan", "ios": "https://dc.lft.to/lastmile_qr_scan"}, "is_reserved": 0, "is_disabled": 0, "type": "electric_bike", "bike_id": "5f93b550ba46e9d042fb1bf72d2a3240"}, {"lon": -77.0339325, "lat": 38.91046266666667, "name": "6f3b59a23e550db2373b003a8a9fed79", "fusion_lat": 0.0, "fusion_lon": 0.0, "rental_uris": {"android": "https://dc.lft.to/lastmile_qr_scan", "ios": "https://dc.lft.to/lastmile_qr_scan"}, "is_reserved": 0, "is_disabled": 0, "type": "electric_scooter", "bike_id": "6f3b59a23e550db2373b003a8a9fed79"}, {"lon": -77.055945, "lat": 38.9370225, "name": "d73efa312349ef3c633736c6a1aeee2d", "fusion_lat": 0.0, "fusion_lon": 0.0, "rental_uris": {"android": "https://dc.lft.to/lastmile_qr_scan", "ios": "https://dc.lft.to/lastmile_qr_scan"}, "is_reserved": 0, "is_disabled": 0, "type": "electric_scooter", "bike_id": "d73efa312349ef3c633736c6a1aeee2d"}, {"lon": -77.041182, "lat": 38.921610333333334, "name": "17bcbbd5b94081922ce55110cc28e0d5", "fusion_lat": 0.0, "fusion_lon": 0.0, "rental_uris": {"android": "https://dc.lft.to/lastmile_qr_scan", "ios": "https://dc.lft.to/lastmile_qr_scan"}, "is_reserved": 0, "is_disabled": 0, "type": "electric_scooter", "bike_id": "17bcbbd5b94081922ce55110cc28e0d5"}, {"lon": -77.0345375, "lat": 38.90560383333333, "name": "56e29f4d8b44d539bf5bacf855fe0d23", "fusion_lat": 0.0, "fusion_lon": 0.0, "rental_uris": {"android": "https://dc.lft.to/lastmile_qr_scan", "ios": "https://dc.lft.to/lastmile_qr_scan"}, "is_reserved": 0, "is_disabled": 0, "type": "electric_scooter", "bike_id": "56e29f4d8b44d539bf5bacf855fe0d23"}, {"lon": -77.02325833333333, "lat": 38.91841316666667, "name": "5b642a1232e67e8c507607cbc9bced19", "fusion_lat": 0.0, "fusion_lon": 0.0, "rental_uris": {"android": "https://dc.lft.to/lastmile_qr_scan", "ios": "https://dc.lft.to/lastmile_qr_scan"}, "is_reserved": 0, "is_disabled": 0, "type": "electric_scooter", "bike_id": "5b642a1232e67e8c507607cbc9bced19"}, {"lon": -76.9908315, "lat": 38.8605535, "name": "4a0703496c73e7fafe886c87fb1b3124", "fusion_lat": 0.0, "fusion_lon": 0.0, "rental_uris": {"android": "https://dc.lft.to/lastmile_qr_scan", "ios": "https://dc.lft.to/lastmile_qr_scan"}, "is_reserved": 0, "is_disabled": 0, "type": "electric_scooter", "bike_id": "4a0703496c73e7fafe886c87fb1b3124"}, {"lon": -76.99004216666667, "lat": 38.865096, "name": "609a99d5b30c1b769e6043019b708c04", "fusion_lat": 0.0, "fusion_lon": 0.0, "rental_uris": {"android": "https://dc.lft.to/lastmile_qr_scan", "ios": "https://dc.lft.to/lastmile_qr_scan"}, "is_reserved": 0, "is_disabled": 0, "type": "electric_scooter", "bike_id": "609a99d5b30c1b769e6043019b708c04"}, {"lon": -77.009639, "lat": 38.9078485, "name": "fbc82ffbff5a890d8e2374283721b1b5", "fusion_lat": 0.0, "fusion_lon": 0.0, "rental_uris": {"android": "https://dc.lft.to/lastmile_qr_scan", "ios": "https://dc.lft.to/lastmile_qr_scan"}, "is_reserved": 0, "is_disabled": 0, "type": "electric_scooter", "bike_id": "fbc82ffbff5a890d8e2374283721b1b5"}, {"lon": -77.03896066666667, "lat": 38.923276333333334, "name": "ceac7865285a0b3324453bc47244f10c", "fusion_lat": 0.0, "fusion_lon": 0.0, "rental_uris": {"android": "https://dc.lft.to/lastmile_qr_scan", "ios": "https://dc.lft.to/lastmile_qr_scan"}, "is_reserved": 0, "is_disabled": 0, "type": "electric_scooter", "bike_id": "ceac7865285a0b3324453bc47244f10c"}, {"lon": -76.99363183333334, "lat": 38.928433, "name": "32e9814b21a2bb8b0537f7f0fd7f6d6b", "fusion_lat": 0.0, "fusion_lon": 0.0, "rental_uris": {"android": "https://dc.lft.to/lastmile_qr_scan", "ios": "https://dc.lft.to/lastmile_qr_scan"}, "is_reserved": 0, "is_disabled": 0, "type": "electric_scooter", "bike_id": "32e9814b21a2bb8b0537f7f0fd7f6d6b"}, {"lon": -77.04042316666667, "lat": 38.904720166666664, "name": "d2a5c8acaf11a0580d9b473de02bbb31", "fusion_lat": 0.0, "fusion_lon": 0.0, "rental_uris": {"android": "https://dc.lft.to/lastmile_qr_scan", "ios": "https://dc.lft.to/lastmile_qr_scan"}, "is_reserved": 0, "is_disabled": 0, "type": "electric_scooter", "bike_id": "d2a5c8acaf11a0580d9b473de02bbb31"}, {"lon": -77.02506883333334, "lat": 38.934099, "name": "016f337301e7460d40e8902cc8f6a477", "fusion_lat": 0.0, "fusion_lon": 0.0, "rental_uris": {"android": "https://dc.lft.to/lastmile_qr_scan", "ios": "https://dc.lft.to/lastmile_qr_scan"}, "is_reserved": 0, "is_disabled": 0, "type": "electric_scooter", "bike_id": "016f337301e7460d40e8902cc8f6a477"}, {"lon": -77.0238695, "lat": 38.91675216666667, "name": "e462292da00c373ebb7531cdc9c76e53", "fusion_lat": 0.0, "fusion_lon": 0.0, "rental_uris": {"android": "https://dc.lft.to/lastmile_qr_scan", "ios": "https://dc.lft.to/lastmile_qr_scan"}, "is_reserved": 0, "is_disabled": 0, "type": "electric_scooter", "bike_id": "e462292da00c373ebb7531cdc9c76e53"}, {"lon": -77.03830183333334, "lat": 38.902679, "name": "25f4e99d718c08e539291f57a74332c7", "fusion_lat": 0.0, "fusion_lon": 0.0, "rental_uris": {"android": "https://dc.lft.to/lastmile_qr_scan", "ios": "https://dc.lft.to/lastmile_qr_scan"}, "is_reserved": 0, "is_disabled": 0, "type": "electric_scooter", "bike_id": "25f4e99d718c08e539291f57a74332c7"}, {"lon": -76.999739, "lat": 38.83835283333333, "name": "c0067914769259bc901342c85d6f786a", "fusion_lat": 0.0, "fusion_lon": 0.0, "rental_uris": {"android": "https://dc.lft.to/lastmile_qr_scan", "ios": "https://dc.lft.to/lastmile_qr_scan"}, "is_reserved": 0, "is_disabled": 0, "type": "electric_scooter", "bike_id": "c0067914769259bc901342c85d6f786a"}, {"lon": -77.02799033333334, "lat": 38.94285166666667, "name": "8b7f60a7c784262049d165e93d301487", "fusion_lat": 0.0, "fusion_lon": 0.0, "rental_uris": {"android": "https://dc.lft.to/lastmile_qr_scan", "ios": "https://dc.lft.to/lastmile_qr_scan"}, "is_reserved": 0, "is_disabled": 0, "type": "electric_bike", "bike_id": "8b7f60a7c784262049d165e93d301487"}, {"lon": -77.02693033333334, "lat": 38.90944066666667, "name": "594bef6d090e7e2635e32b6de530ca4a", "fusion_lat": 0.0, "fusion_lon": 0.0, "rental_uris": {"android": "https://dc.lft.to/lastmile_qr_scan", "ios": "https://dc.lft.to/lastmile_qr_scan"}, "is_reserved": 0, "is_disabled": 0, "type": "electric_scooter", "bike_id": "594bef6d090e7e2635e32b6de530ca4a"}, {"lon": -76.96524516666666, "lat": 38.87627466666667, "name": "fa111bf5866da71b06cdaf076984cfb1", "fusion_lat": 0.0, "fusion_lon": 0.0, "rental_uris": {"android": "https://dc.lft.to/lastmile_qr_scan", "ios": "https://dc.lft.to/lastmile_qr_scan"}, "is_reserved": 0, "is_disabled": 0, "type": "electric_scooter", "bike_id": "fa111bf5866da71b06cdaf076984cfb1"}, {"lon": -77.02715216666667, "lat": 38.892150666666666, "name": "7267cebaea9e95687f5344bc01b15190", "fusion_lat": 0.0, "fusion_lon": 0.0, "rental_uris": {"android": "https://dc.lft.to/lastmile_qr_scan", "ios": "https://dc.lft.to/lastmile_qr_scan"}, "is_reserved": 0, "is_disabled": 0, "type": "electric_scooter", "bike_id": "7267cebaea9e95687f5344bc01b15190"}, {"lon": -77.01118633333333, "lat": 38.90353066666667, "name": "5630535a1122cb8d2d4673c2c1fcdc55", "fusion_lat": 0.0, "fusion_lon": 0.0, "rental_uris": {"android": "https://dc.lft.to/lastmile_qr_scan", "ios": "https://dc.lft.to/lastmile_qr_scan"}, "is_reserved": 0, "is_disabled": 0, "type": "electric_scooter", "bike_id": "5630535a1122cb8d2d4673c2c1fcdc55"}, {"lon": -77.02819133333334, "lat": 38.91600066666667, "name": "41413d27f131d8f2ee9163e8e63746fa", "fusion_lat": 0.0, "fusion_lon": 0.0, "rental_uris": {"android": "https://dc.lft.to/lastmile_qr_scan", "ios": "https://dc.lft.to/lastmile_qr_scan"}, "is_reserved": 0, "is_disabled": 0, "type": "electric_scooter", "bike_id": "41413d27f131d8f2ee9163e8e63746fa"}, {"lon": -77.06978016666666, "lat": 38.952723166666665, "name": "2cb011f34b2f33cafca71dc02318112d", "fusion_lat": 0.0, "fusion_lon": 0.0, "rental_uris": {"android": "https://dc.lft.to/lastmile_qr_scan", "ios": "https://dc.lft.to/lastmile_qr_scan"}, "is_reserved": 0, "is_disabled": 0, "type": "electric_bike", "bike_id": "2cb011f34b2f33cafca71dc02318112d"}, {"lon": -77.0222805, "lat": 38.9126845, "name": "6829cb09d9ad6a3a698fa03fb936ea53", "fusion_lat": 0.0, "fusion_lon": 0.0, "rental_uris": {"android": "https://dc.lft.to/lastmile_qr_scan", "ios": "https://dc.lft.to/lastmile_qr_scan"}, "is_reserved": 0, "is_disabled": 0, "type": "electric_scooter", "bike_id": "6829cb09d9ad6a3a698fa03fb936ea53"}, {"lon": -77.03892533333334, "lat": 38.92330916666667, "name": "04cb17aa507eca01b7f0817e0d9e1a4b", "fusion_lat": 0.0, "fusion_lon": 0.0, "rental_uris": {"android": "https://dc.lft.to/lastmile_qr_scan", "ios": "https://dc.lft.to/lastmile_qr_scan"}, "is_reserved": 0, "is_disabled": 0, "type": "electric_scooter", "bike_id": "04cb17aa507eca01b7f0817e0d9e1a4b"}, {"lon": -77.016123, "lat": 38.876958, "name": "d713acb76c4f4292dcf7bf42618df61e", "fusion_lat": 0.0, "fusion_lon": 0.0, "rental_uris": {"android": "https://dc.lft.to/lastmile_qr_scan", "ios": "https://dc.lft.to/lastmile_qr_scan"}, "is_reserved": 0, "is_disabled": 0, "type": "electric_scooter", "bike_id": "d713acb76c4f4292dcf7bf42618df61e"}, {"lon": -76.98833, "lat": 38.90035816666666, "name": "e96955d7891f4a1effc1d218115e6af8", "fusion_lat": 0.0, "fusion_lon": 0.0, "rental_uris": {"android": "https://dc.lft.to/lastmile_qr_scan", "ios": "https://dc.lft.to/lastmile_qr_scan"}, "is_reserved": 0, "is_disabled": 0, "type": "electric_scooter", "bike_id": "e96955d7891f4a1effc1d218115e6af8"}, {"lon": -77.0013, "lat": 38.904053166666664, "name": "40e643f9a69283038175b5eee95d66ce", "fusion_lat": 0.0, "fusion_lon": 0.0, "rental_uris": {"android": "https://dc.lft.to/lastmile_qr_scan", "ios": "https://dc.lft.to/lastmile_qr_scan"}, "is_reserved": 0, "is_disabled": 0, "type": "electric_scooter", "bike_id": "40e643f9a69283038175b5eee95d66ce"}, {"lon": -77.054352, "lat": 38.902683833333334, "name": "55d7ea8d0f8b4ed23e30bf28fb2fb5f7", "fusion_lat": 0.0, "fusion_lon": 0.0, "rental_uris": {"android": "https://dc.lft.to/lastmile_qr_scan", "ios": "https://dc.lft.to/lastmile_qr_scan"}, "is_reserved": 0, "is_disabled": 0, "type": "electric_scooter", "bike_id": "55d7ea8d0f8b4ed23e30bf28fb2fb5f7"}, {"lon": -77.01381316666667, "lat": 38.928755833333334, "name": "8b3d89867eaf0302b227e0955c13454b", "fusion_lat": 0.0, "fusion_lon": 0.0, "rental_uris": {"android": "https://dc.lft.to/lastmile_qr_scan", "ios": "https://dc.lft.to/lastmile_qr_scan"}, "is_reserved": 0, "is_disabled": 0, "type": "electric_scooter", "bike_id": "8b3d89867eaf0302b227e0955c13454b"}, {"lon": -76.999299, "lat": 38.89615466666667, "name": "9990c8873755fed3157602780fb29f76", "fusion_lat": 0.0, "fusion_lon": 0.0, "rental_uris": {"android": "https://dc.lft.to/lastmile_qr_scan", "ios": "https://dc.lft.to/lastmile_qr_scan"}, "is_reserved": 0, "is_disabled": 0, "type": "electric_scooter", "bike_id": "9990c8873755fed3157602780fb29f76"}, {"lon": -77.04161683333334, "lat": 38.915658, "name": "bb2337ac2704d89ec2137548bccc3359", "fusion_lat": 0.0, "fusion_lon": 0.0, "rental_uris": {"android": "https://dc.lft.to/lastmile_qr_scan", "ios": "https://dc.lft.to/lastmile_qr_scan"}, "is_reserved": 0, "is_disabled": 0, "type": "electric_scooter", "bike_id": "bb2337ac2704d89ec2137548bccc3359"}, {"lon": -77.01712466666666, "lat": 38.91593966666667, "name": "3d68fcb299ed7b947caa7fdb6d2f726f", "fusion_lat": 0.0, "fusion_lon": 0.0, "rental_uris": {"android": "https://dc.lft.to/lastmile_qr_scan", "ios": "https://dc.lft.to/lastmile_qr_scan"}, "is_reserved": 0, "is_disabled": 0, "type": "electric_scooter", "bike_id": "3d68fcb299ed7b947caa7fdb6d2f726f"}, {"lon": -76.95205816666666, "lat": 38.93668183333333, "name": "66a91f1057ca9f20a3872b32286478bf", "fusion_lat": 0.0, "fusion_lon": 0.0, "rental_uris": {"android": "https://dc.lft.to/lastmile_qr_scan", "ios": "https://dc.lft.to/lastmile_qr_scan"}, "is_reserved": 0, "is_disabled": 0, "type": "electric_bike", "bike_id": "66a91f1057ca9f20a3872b32286478bf"}, {"lon": -77.02349566666666, "lat": 38.92983783333333, "name": "fed1b4458df78ad0b1edea2f8ff50b98", "fusion_lat": 0.0, "fusion_lon": 0.0, "rental_uris": {"android": "https://dc.lft.to/lastmile_qr_scan", "ios": "https://dc.lft.to/lastmile_qr_scan"}, "is_reserved": 0, "is_disabled": 0, "type": "electric_scooter", "bike_id": "fed1b4458df78ad0b1edea2f8ff50b98"}, {"lon": -77.03409816666667, "lat": 38.919203, "name": "ed32b83612f008add59068663b51e475", "fusion_lat": 0.0, "fusion_lon": 0.0, "rental_uris": {"android": "https://dc.lft.to/lastmile_qr_scan", "ios": "https://dc.lft.to/lastmile_qr_scan"}, "is_reserved": 0, "is_disabled": 0, "type": "electric_scooter", "bike_id": "ed32b83612f008add59068663b51e475"}, {"lon": -77.03215866666666, "lat": 38.92008833333333, "name": "4e2fd180568e8af417d63b5a11f9ce5a", "fusion_lat": 0.0, "fusion_lon": 0.0, "rental_uris": {"android": "https://dc.lft.to/lastmile_qr_scan", "ios": "https://dc.lft.to/lastmile_qr_scan"}, "is_reserved": 0, "is_disabled": 0, "type": "electric_scooter", "bike_id": "4e2fd180568e8af417d63b5a11f9ce5a"}, {"lon": -77.0278705, "lat": 38.927673, "name": "f01c85d6a8ae98cd956880a93d3e78f4", "fusion_lat": 0.0, "fusion_lon": 0.0, "rental_uris": {"android": "https://dc.lft.to/lastmile_qr_scan", "ios": "https://dc.lft.to/lastmile_qr_scan"}, "is_reserved": 0, "is_disabled": 0, "type": "electric_scooter", "bike_id": "f01c85d6a8ae98cd956880a93d3e78f4"}, {"lon": -77.032063, "lat": 38.91729016666667, "name": "e5c0e7b4be385efed6955c520c75d8c4", "fusion_lat": 0.0, "fusion_lon": 0.0, "rental_uris": {"android": "https://dc.lft.to/lastmile_qr_scan", "ios": "https://dc.lft.to/lastmile_qr_scan"}, "is_reserved": 0, "is_disabled": 0, "type": "electric_scooter", "bike_id": "e5c0e7b4be385efed6955c520c75d8c4"}, {"lon": -76.96492983333333, "lat": 38.87554566666667, "name": "f76364f8e93463308cac6cdd4c2ea032", "fusion_lat": 0.0, "fusion_lon": 0.0, "rental_uris": {"android": "https://dc.lft.to/lastmile_qr_scan", "ios": "https://dc.lft.to/lastmile_qr_scan"}, "is_reserved": 0, "is_disabled": 0, "type": "electric_bike", "bike_id": "f76364f8e93463308cac6cdd4c2ea032"}, {"lon": -77.03533883333333, "lat": 38.923810333333336, "name": "4d37df51c631343b214b46a4c30a5e8d", "fusion_lat": 0.0, "fusion_lon": 0.0, "rental_uris": {"android": "https://dc.lft.to/lastmile_qr_scan", "ios": "https://dc.lft.to/lastmile_qr_scan"}, "is_reserved": 0, "is_disabled": 0, "type": "electric_scooter", "bike_id": "4d37df51c631343b214b46a4c30a5e8d"}, {"lon": -76.931818, "lat": 38.898774, "name": "3ee8395582f4ac156fb338b9e53003ab", "fusion_lat": 0.0, "fusion_lon": 0.0, "rental_uris": {"android": "https://dc.lft.to/lastmile_qr_scan", "ios": "https://dc.lft.to/lastmile_qr_scan"}, "is_reserved": 0, "is_disabled": 0, "type": "electric_scooter", "bike_id": "3ee8395582f4ac156fb338b9e53003ab"}, {"lon": -77.01939183333333, "lat": 38.935839333333334, "name": "da3bdc9b924f0296448783beb0d3d8bb", "fusion_lat": 0.0, "fusion_lon": 0.0, "rental_uris": {"android": "https://dc.lft.to/lastmile_qr_scan", "ios": "https://dc.lft.to/lastmile_qr_scan"}, "is_reserved": 0, "is_disabled": 0, "type": "electric_scooter", "bike_id": "da3bdc9b924f0296448783beb0d3d8bb"}, {"lon": -77.03211133333333, "lat": 38.9216245, "name": "d31fa13d5d158b7b1c2b52689c08a072", "fusion_lat": 0.0, "fusion_lon": 0.0, "rental_uris": {"android": "https://dc.lft.to/lastmile_qr_scan", "ios": "https://dc.lft.to/lastmile_qr_scan"}, "is_reserved": 0, "is_disabled": 0, "type": "electric_scooter", "bike_id": "d31fa13d5d158b7b1c2b52689c08a072"}, {"lon": -76.99625283333333, "lat": 38.9003415, "name": "0824981f8649ac5ff81ca89e6fa66fa6", "fusion_lat": 0.0, "fusion_lon": 0.0, "rental_uris": {"android": "https://dc.lft.to/lastmile_qr_scan", "ios": "https://dc.lft.to/lastmile_qr_scan"}, "is_reserved": 0, "is_disabled": 0, "type": "electric_scooter", "bike_id": "0824981f8649ac5ff81ca89e6fa66fa6"}, {"lon": -77.03849933333333, "lat": 38.9147975, "name": "7bd92165a0e682c103e4b0343083eaa8", "fusion_lat": 0.0, "fusion_lon": 0.0, "rental_uris": {"android": "https://dc.lft.to/lastmile_qr_scan", "ios": "https://dc.lft.to/lastmile_qr_scan"}, "is_reserved": 0, "is_disabled": 0, "type": "electric_scooter", "bike_id": "7bd92165a0e682c103e4b0343083eaa8"}, {"lon": -77.02341933333334, "lat": 38.96209983333333, "name": "3fd959ba58353080a55e9da1eb0d7c30", "fusion_lat": 0.0, "fusion_lon": 0.0, "rental_uris": {"android": "https://dc.lft.to/lastmile_qr_scan", "ios": "https://dc.lft.to/lastmile_qr_scan"}, "is_reserved": 0, "is_disabled": 0, "type": "electric_scooter", "bike_id": "3fd959ba58353080a55e9da1eb0d7c30"}, {"lon": -76.98554366666667, "lat": 38.899479666666664, "name": "45d28197455a290d1b1ab5760eab04f1", "fusion_lat": 0.0, "fusion_lon": 0.0, "rental_uris": {"android": "https://dc.lft.to/lastmile_qr_scan", "ios": "https://dc.lft.to/lastmile_qr_scan"}, "is_reserved": 0, "is_disabled": 0, "type": "electric_scooter", "bike_id": "45d28197455a290d1b1ab5760eab04f1"}, {"lon": -77.036443, "lat": 38.93604233333333, "name": "62f3e1d31c6dc759a004eb4b48cb8a9a", "fusion_lat": 0.0, "fusion_lon": 0.0, "rental_uris": {"android": "https://dc.lft.to/lastmile_qr_scan", "ios": "https://dc.lft.to/lastmile_qr_scan"}, "is_reserved": 0, "is_disabled": 0, "type": "electric_scooter", "bike_id": "62f3e1d31c6dc759a004eb4b48cb8a9a"}, {"lon": -77.0572805, "lat": 38.9337435, "name": "069d31482078b00ed8dd5481a68bc56f", "fusion_lat": 0.0, "fusion_lon": 0.0, "rental_uris": {"android": "https://dc.lft.to/lastmile_qr_scan", "ios": "https://dc.lft.to/lastmile_qr_scan"}, "is_reserved": 0, "is_disabled": 0, "type": "electric_scooter", "bike_id": "069d31482078b00ed8dd5481a68bc56f"}, {"lon": -77.00754983333333, "lat": 38.92676616666667, "name": "16f689266085c932a16cfca782b2135f", "fusion_lat": 0.0, "fusion_lon": 0.0, "rental_uris": {"android": "https://dc.lft.to/lastmile_qr_scan", "ios": "https://dc.lft.to/lastmile_qr_scan"}, "is_reserved": 0, "is_disabled": 0, "type": "electric_scooter", "bike_id": "16f689266085c932a16cfca782b2135f"}, {"lon": -77.00062416666667, "lat": 38.875436, "name": "10e2552433b0aecd3f9e091828934ad5", "fusion_lat": 0.0, "fusion_lon": 0.0, "rental_uris": {"android": "https://dc.lft.to/lastmile_qr_scan", "ios": "https://dc.lft.to/lastmile_qr_scan"}, "is_reserved": 0, "is_disabled": 0, "type": "electric_scooter", "bike_id": "10e2552433b0aecd3f9e091828934ad5"}, {"lon": -77.01187166666666, "lat": 38.90030216666667, "name": "a56170dc942764f60e3733941e2a9216", "fusion_lat": 0.0, "fusion_lon": 0.0, "rental_uris": {"android": "https://dc.lft.to/lastmile_qr_scan", "ios": "https://dc.lft.to/lastmile_qr_scan"}, "is_reserved": 0, "is_disabled": 0, "type": "electric_scooter", "bike_id": "a56170dc942764f60e3733941e2a9216"}, {"lon": -77.041667, "lat": 38.9156375, "name": "3154755216d5e5c973c336a243fd3a3a", "fusion_lat": 0.0, "fusion_lon": 0.0, "rental_uris": {"android": "https://dc.lft.to/lastmile_qr_scan", "ios": "https://dc.lft.to/lastmile_qr_scan"}, "is_reserved": 0, "is_disabled": 0, "type": "electric_scooter", "bike_id": "3154755216d5e5c973c336a243fd3a3a"}, {"lon": -77.040432, "lat": 38.90964116666667, "name": "c68b12bc5d7eba74623ff3a699a7d7e4", "fusion_lat": 0.0, "fusion_lon": 0.0, "rental_uris": {"android": "https://dc.lft.to/lastmile_qr_scan", "ios": "https://dc.lft.to/lastmile_qr_scan"}, "is_reserved": 0, "is_disabled": 0, "type": "electric_scooter", "bike_id": "c68b12bc5d7eba74623ff3a699a7d7e4"}, {"lon": -76.99548983333334, "lat": 38.884200166666666, "name": "20a1c9cb3cd1d41bbecde3e0b5c2501e", "fusion_lat": 0.0, "fusion_lon": 0.0, "rental_uris": {"android": "https://dc.lft.to/lastmile_qr_scan", "ios": "https://dc.lft.to/lastmile_qr_scan"}, "is_reserved": 0, "is_disabled": 0, "type": "electric_scooter", "bike_id": "20a1c9cb3cd1d41bbecde3e0b5c2501e"}, {"lon": -77.005159, "lat": 38.928902666666666, "name": "aaf478ee44a8ac044862ae1c9ae8caf6", "fusion_lat": 0.0, "fusion_lon": 0.0, "rental_uris": {"android": "https://dc.lft.to/lastmile_qr_scan", "ios": "https://dc.lft.to/lastmile_qr_scan"}, "is_reserved": 0, "is_disabled": 0, "type": "electric_scooter", "bike_id": "aaf478ee44a8ac044862ae1c9ae8caf6"}, {"lon": -76.9898765, "lat": 38.8643975, "name": "aeb710b6da458ee2131ec450c731e897", "fusion_lat": 0.0, "fusion_lon": 0.0, "rental_uris": {"android": "https://dc.lft.to/lastmile_qr_scan", "ios": "https://dc.lft.to/lastmile_qr_scan"}, "is_reserved": 0, "is_disabled": 0, "type": "electric_scooter", "bike_id": "aeb710b6da458ee2131ec450c731e897"}, {"lon": -77.011111, "lat": 38.96305066666667, "name": "1d0570d81b6ce7d52fdddccfd6c89af7", "fusion_lat": 0.0, "fusion_lon": 0.0, "rental_uris": {"android": "https://dc.lft.to/lastmile_qr_scan", "ios": "https://dc.lft.to/lastmile_qr_scan"}, "is_reserved": 0, "is_disabled": 0, "type": "electric_bike", "bike_id": "1d0570d81b6ce7d52fdddccfd6c89af7"}, {"lon": -77.02424883333333, "lat": 38.92604016666667, "name": "8557cbf887b0422e5f538d17cd3f5c23", "fusion_lat": 0.0, "fusion_lon": 0.0, "rental_uris": {"android": "https://dc.lft.to/lastmile_qr_scan", "ios": "https://dc.lft.to/lastmile_qr_scan"}, "is_reserved": 0, "is_disabled": 0, "type": "electric_bike", "bike_id": "8557cbf887b0422e5f538d17cd3f5c23"}, {"lon": -77.0385675, "lat": 38.91546983333333, "name": "c62c9dd5df992780ffb8b105187a1c16", "fusion_lat": 0.0, "fusion_lon": 0.0, "rental_uris": {"android": "https://dc.lft.to/lastmile_qr_scan", "ios": "https://dc.lft.to/lastmile_qr_scan"}, "is_reserved": 0, "is_disabled": 0, "type": "electric_scooter", "bike_id": "c62c9dd5df992780ffb8b105187a1c16"}, {"lon": -77.0013315, "lat": 38.904103666666664, "name": "f10ad8a122212b4fe7fdc18084fd3e20", "fusion_lat": 0.0, "fusion_lon": 0.0, "rental_uris": {"android": "https://dc.lft.to/lastmile_qr_scan", "ios": "https://dc.lft.to/lastmile_qr_scan"}, "is_reserved": 0, "is_disabled": 0, "type": "electric_scooter", "bike_id": "f10ad8a122212b4fe7fdc18084fd3e20"}, {"lon": -77.022142, "lat": 38.90573783333333, "name": "fe0fa9428a8fa21835c80e99eee3a8e8", "fusion_lat": 0.0, "fusion_lon": 0.0, "rental_uris": {"android": "https://dc.lft.to/lastmile_qr_scan", "ios": "https://dc.lft.to/lastmile_qr_scan"}, "is_reserved": 0, "is_disabled": 0, "type": "electric_scooter", "bike_id": "fe0fa9428a8fa21835c80e99eee3a8e8"}, {"lon": -77.02923366666667, "lat": 38.9063555, "name": "0e4d24c320a3668c77eac9cf328338e8", "fusion_lat": 0.0, "fusion_lon": 0.0, "rental_uris": {"android": "https://dc.lft.to/lastmile_qr_scan", "ios": "https://dc.lft.to/lastmile_qr_scan"}, "is_reserved": 0, "is_disabled": 0, "type": "electric_scooter", "bike_id": "0e4d24c320a3668c77eac9cf328338e8"}, {"lon": -77.108963, "lat": 38.8304445, "name": "ee644bda6e75b2cd54ae8b0d61ab48a2", "fusion_lat": 0.0, "fusion_lon": 0.0, "rental_uris": {"android": "https://dc.lft.to/lastmile_qr_scan", "ios": "https://dc.lft.to/lastmile_qr_scan"}, "is_reserved": 0, "is_disabled": 0, "type": "electric_bike", "bike_id": "ee644bda6e75b2cd54ae8b0d61ab48a2"}, {"lon": -76.95034516666666, "lat": 38.891859, "name": "4bd75a6541e9fe40a2f446f25608743c", "fusion_lat": 0.0, "fusion_lon": 0.0, "rental_uris": {"android": "https://dc.lft.to/lastmile_qr_scan", "ios": "https://dc.lft.to/lastmile_qr_scan"}, "is_reserved": 0, "is_disabled": 0, "type": "electric_bike", "bike_id": "4bd75a6541e9fe40a2f446f25608743c"}, {"lon": -77.03454166666667, "lat": 38.902654166666665, "name": "c676eb6bfa1e8e9dee1dfa995215836d", "fusion_lat": 0.0, "fusion_lon": 0.0, "rental_uris": {"android": "https://dc.lft.to/lastmile_qr_scan", "ios": "https://dc.lft.to/lastmile_qr_scan"}, "is_reserved": 0, "is_disabled": 0, "type": "electric_scooter", "bike_id": "c676eb6bfa1e8e9dee1dfa995215836d"}, {"lon": -77.02945483333333, "lat": 38.90498566666667, "name": "bdff17be90b0a8f926629e106c10123e", "fusion_lat": 0.0, "fusion_lon": 0.0, "rental_uris": {"android": "https://dc.lft.to/lastmile_qr_scan", "ios": "https://dc.lft.to/lastmile_qr_scan"}, "is_reserved": 0, "is_disabled": 0, "type": "electric_scooter", "bike_id": "bdff17be90b0a8f926629e106c10123e"}, {"lon": -76.9733585, "lat": 38.90481533333333, "name": "3fe3df261e939449abbf0d3067966e4a", "fusion_lat": 0.0, "fusion_lon": 0.0, "rental_uris": {"android": "https://dc.lft.to/lastmile_qr_scan", "ios": "https://dc.lft.to/lastmile_qr_scan"}, "is_reserved": 0, "is_disabled": 0, "type": "electric_scooter", "bike_id": "3fe3df261e939449abbf0d3067966e4a"}, {"lon": -77.15268816666666, "lat": 39.10566, "name": "ca7a8860dc6c849b3fc25682ce4aeba2", "fusion_lat": 0.0, "fusion_lon": 0.0, "rental_uris": {"android": "https://dc.lft.to/lastmile_qr_scan", "ios": "https://dc.lft.to/lastmile_qr_scan"}, "is_reserved": 0, "is_disabled": 0, "type": "electric_bike", "bike_id": "ca7a8860dc6c849b3fc25682ce4aeba2"}, {"lon": -77.03029433333333, "lat": 38.91548266666667, "name": "6051de9fff0cb51a7a211f8717c1d42e", "fusion_lat": 0.0, "fusion_lon": 0.0, "rental_uris": {"android": "https://dc.lft.to/lastmile_qr_scan", "ios": "https://dc.lft.to/lastmile_qr_scan"}, "is_reserved": 0, "is_disabled": 0, "type": "electric_scooter", "bike_id": "6051de9fff0cb51a7a211f8717c1d42e"}, {"lon": -76.95756183333333, "lat": 38.88432733333333, "name": "13da9b8ca451d87532b85d4a64e6999f", "fusion_lat": 0.0, "fusion_lon": 0.0, "rental_uris": {"android": "https://dc.lft.to/lastmile_qr_scan", "ios": "https://dc.lft.to/lastmile_qr_scan"}, "is_reserved": 0, "is_disabled": 0, "type": "electric_scooter", "bike_id": "13da9b8ca451d87532b85d4a64e6999f"}, {"lon": -77.03455333333333, "lat": 38.918216666666666, "name": "4b054d34838080c29ef91cf5ce65edc0", "fusion_lat": 0.0, "fusion_lon": 0.0, "rental_uris": {"android": "https://dc.lft.to/lastmile_qr_scan", "ios": "https://dc.lft.to/lastmile_qr_scan"}, "is_reserved": 0, "is_disabled": 0, "type": "electric_scooter", "bike_id": "4b054d34838080c29ef91cf5ce65edc0"}, {"lon": -77.05288316666666, "lat": 38.92545766666667, "name": "cb62176a1224bd8c305cc57427e25408", "fusion_lat": 0.0, "fusion_lon": 0.0, "rental_uris": {"android": "https://dc.lft.to/lastmile_qr_scan", "ios": "https://dc.lft.to/lastmile_qr_scan"}, "is_reserved": 0, "is_disabled": 0, "type": "electric_scooter", "bike_id": "cb62176a1224bd8c305cc57427e25408"}, {"lon": -77.032152, "lat": 38.907575666666666, "name": "8437aba47070eb192fe427558a24524d", "fusion_lat": 0.0, "fusion_lon": 0.0, "rental_uris": {"android": "https://dc.lft.to/lastmile_qr_scan", "ios": "https://dc.lft.to/lastmile_qr_scan"}, "is_reserved": 0, "is_disabled": 0, "type": "electric_scooter", "bike_id": "8437aba47070eb192fe427558a24524d"}, {"lon": -77.02350516666667, "lat": 38.92517133333333, "name": "06a7fa4ce2f35521d81313965caa5871", "fusion_lat": 0.0, "fusion_lon": 0.0, "rental_uris": {"android": "https://dc.lft.to/lastmile_qr_scan", "ios": "https://dc.lft.to/lastmile_qr_scan"}, "is_reserved": 0, "is_disabled": 0, "type": "electric_scooter", "bike_id": "06a7fa4ce2f35521d81313965caa5871"}, {"lon": -77.04046383333333, "lat": 38.927058833333334, "name": "a9deddce1893768dc53cdd30d0855955", "fusion_lat": 0.0, "fusion_lon": 0.0, "rental_uris": {"android": "https://dc.lft.to/lastmile_qr_scan", "ios": "https://dc.lft.to/lastmile_qr_scan"}, "is_reserved": 0, "is_disabled": 0, "type": "electric_scooter", "bike_id": "a9deddce1893768dc53cdd30d0855955"}, {"lon": -76.9650555, "lat": 38.87649433333333, "name": "ef75dddace265aaed0e80362494acefd", "fusion_lat": 0.0, "fusion_lon": 0.0, "rental_uris": {"android": "https://dc.lft.to/lastmile_qr_scan", "ios": "https://dc.lft.to/lastmile_qr_scan"}, "is_reserved": 0, "is_disabled": 0, "type": "electric_scooter", "bike_id": "ef75dddace265aaed0e80362494acefd"}, {"lon": -77.04150566666667, "lat": 38.91897733333333, "name": "2eece29aba146d7e19ef9b1781de8ce6", "fusion_lat": 0.0, "fusion_lon": 0.0, "rental_uris": {"android": "https://dc.lft.to/lastmile_qr_scan", "ios": "https://dc.lft.to/lastmile_qr_scan"}, "is_reserved": 0, "is_disabled": 0, "type": "electric_scooter", "bike_id": "2eece29aba146d7e19ef9b1781de8ce6"}, {"lon": -77.0224055, "lat": 38.8858385, "name": "5a87259a1ca0c7a0dc11717257e522e6", "fusion_lat": 0.0, "fusion_lon": 0.0, "rental_uris": {"android": "https://dc.lft.to/lastmile_qr_scan", "ios": "https://dc.lft.to/lastmile_qr_scan"}, "is_reserved": 0, "is_disabled": 0, "type": "electric_scooter", "bike_id": "5a87259a1ca0c7a0dc11717257e522e6"}, {"lon": -77.034722, "lat": 38.917079333333334, "name": "dab8a8a93b59151292391df4dd57c1ce", "fusion_lat": 0.0, "fusion_lon": 0.0, "rental_uris": {"android": "https://dc.lft.to/lastmile_qr_scan", "ios": "https://dc.lft.to/lastmile_qr_scan"}, "is_reserved": 0, "is_disabled": 0, "type": "electric_scooter", "bike_id": "dab8a8a93b59151292391df4dd57c1ce"}, {"lon": -76.98691866666667, "lat": 38.9000395, "name": "9e1253857f494e27adf82e8be9344483", "fusion_lat": 0.0, "fusion_lon": 0.0, "rental_uris": {"android": "https://dc.lft.to/lastmile_qr_scan", "ios": "https://dc.lft.to/lastmile_qr_scan"}, "is_reserved": 0, "is_disabled": 0, "type": "electric_scooter", "bike_id": "9e1253857f494e27adf82e8be9344483"}, {"lon": -77.02648016666667, "lat": 38.938537833333335, "name": "7782a5e04aaf19b468206199ab372f18", "fusion_lat": 0.0, "fusion_lon": 0.0, "rental_uris": {"android": "https://dc.lft.to/lastmile_qr_scan", "ios": "https://dc.lft.to/lastmile_qr_scan"}, "is_reserved": 0, "is_disabled": 0, "type": "electric_scooter", "bike_id": "7782a5e04aaf19b468206199ab372f18"}, {"lon": -77.0996025, "lat": 38.922412, "name": "a60d345ed7b8b31bbb88c73c8792b442", "fusion_lat": 0.0, "fusion_lon": 0.0, "rental_uris": {"android": "https://dc.lft.to/lastmile_qr_scan", "ios": "https://dc.lft.to/lastmile_qr_scan"}, "is_reserved": 0, "is_disabled": 0, "type": "electric_scooter", "bike_id": "a60d345ed7b8b31bbb88c73c8792b442"}, {"lon": -76.96624366666667, "lat": 38.942023666666664, "name": "8a53f1be060efe777b456ccbef014146", "fusion_lat": 0.0, "fusion_lon": 0.0, "rental_uris": {"android": "https://dc.lft.to/lastmile_qr_scan", "ios": "https://dc.lft.to/lastmile_qr_scan"}, "is_reserved": 0, "is_disabled": 0, "type": "electric_bike", "bike_id": "8a53f1be060efe777b456ccbef014146"}, {"lon": -77.0365625, "lat": 38.92119866666667, "name": "ea10535847e459b25167d62b5e6db455", "fusion_lat": 0.0, "fusion_lon": 0.0, "rental_uris": {"android": "https://dc.lft.to/lastmile_qr_scan", "ios": "https://dc.lft.to/lastmile_qr_scan"}, "is_reserved": 0, "is_disabled": 0, "type": "electric_scooter", "bike_id": "ea10535847e459b25167d62b5e6db455"}, {"lon": -77.04641183333334, "lat": 38.922290333333336, "name": "7620803fcc389a2d699513e02da3b43d", "fusion_lat": 0.0, "fusion_lon": 0.0, "rental_uris": {"android": "https://dc.lft.to/lastmile_qr_scan", "ios": "https://dc.lft.to/lastmile_qr_scan"}, "is_reserved": 0, "is_disabled": 0, "type": "electric_scooter", "bike_id": "7620803fcc389a2d699513e02da3b43d"}, {"lon": -77.0161365, "lat": 38.88764333333334, "name": "deaa15b816654266ab61ddbea5a8a370", "fusion_lat": 0.0, "fusion_lon": 0.0, "rental_uris": {"android": "https://dc.lft.to/lastmile_qr_scan", "ios": "https://dc.lft.to/lastmile_qr_scan"}, "is_reserved": 0, "is_disabled": 0, "type": "electric_scooter", "bike_id": "deaa15b816654266ab61ddbea5a8a370"}, {"lon": -77.07833716666667, "lat": 38.92674233333334, "name": "8e8dc6c695b8ff3b0e84cff5a651936f", "fusion_lat": 0.0, "fusion_lon": 0.0, "rental_uris": {"android": "https://dc.lft.to/lastmile_qr_scan", "ios": "https://dc.lft.to/lastmile_qr_scan"}, "is_reserved": 0, "is_disabled": 0, "type": "electric_scooter", "bike_id": "8e8dc6c695b8ff3b0e84cff5a651936f"}, {"lon": -77.03212683333334, "lat": 38.91428366666667, "name": "9ebaa99dc6a0f0bbdae5989f7ebda195", "fusion_lat": 0.0, "fusion_lon": 0.0, "rental_uris": {"android": "https://dc.lft.to/lastmile_qr_scan", "ios": "https://dc.lft.to/lastmile_qr_scan"}, "is_reserved": 0, "is_disabled": 0, "type": "electric_scooter", "bike_id": "9ebaa99dc6a0f0bbdae5989f7ebda195"}, {"lon": -77.022268, "lat": 38.912640833333334, "name": "0fa49e146ea7a0f472427f0afba9df13", "fusion_lat": 0.0, "fusion_lon": 0.0, "rental_uris": {"android": "https://dc.lft.to/lastmile_qr_scan", "ios": "https://dc.lft.to/lastmile_qr_scan"}, "is_reserved": 0, "is_disabled": 0, "type": "electric_scooter", "bike_id": "0fa49e146ea7a0f472427f0afba9df13"}, {"lon": -77.038592, "lat": 38.910613833333336, "name": "609749186e6f00a653182f00aa232383", "fusion_lat": 0.0, "fusion_lon": 0.0, "rental_uris": {"android": "https://dc.lft.to/lastmile_qr_scan", "ios": "https://dc.lft.to/lastmile_qr_scan"}, "is_reserved": 0, "is_disabled": 0, "type": "electric_scooter", "bike_id": "609749186e6f00a653182f00aa232383"}, {"lon": -77.028961, "lat": 38.9248405, "name": "f5033c56346d83c50ce2804095c762b5", "fusion_lat": 0.0, "fusion_lon": 0.0, "rental_uris": {"android": "https://dc.lft.to/lastmile_qr_scan", "ios": "https://dc.lft.to/lastmile_qr_scan"}, "is_reserved": 0, "is_disabled": 0, "type": "electric_scooter", "bike_id": "f5033c56346d83c50ce2804095c762b5"}, {"lon": -76.98849816666667, "lat": 38.9034515, "name": "c8166f2bbf8bed5984b46dd4af8689df", "fusion_lat": 0.0, "fusion_lon": 0.0, "rental_uris": {"android": "https://dc.lft.to/lastmile_qr_scan", "ios": "https://dc.lft.to/lastmile_qr_scan"}, "is_reserved": 0, "is_disabled": 0, "type": "electric_scooter", "bike_id": "c8166f2bbf8bed5984b46dd4af8689df"}, {"lon": -77.02381933333334, "lat": 38.90731266666667, "name": "947607c076756c478f4ad66263eba97c", "fusion_lat": 0.0, "fusion_lon": 0.0, "rental_uris": {"android": "https://dc.lft.to/lastmile_qr_scan", "ios": "https://dc.lft.to/lastmile_qr_scan"}, "is_reserved": 0, "is_disabled": 0, "type": "electric_scooter", "bike_id": "947607c076756c478f4ad66263eba97c"}, {"lon": -77.04177233333333, "lat": 38.914026166666666, "name": "192edb79891d1b4d4f16491525460b26", "fusion_lat": 0.0, "fusion_lon": 0.0, "rental_uris": {"android": "https://dc.lft.to/lastmile_qr_scan", "ios": "https://dc.lft.to/lastmile_qr_scan"}, "is_reserved": 0, "is_disabled": 0, "type": "electric_scooter", "bike_id": "192edb79891d1b4d4f16491525460b26"}, {"lon": -76.97433366666667, "lat": 38.864095666666664, "name": "5339b47c19e53a13643b64d2c59b7062", "fusion_lat": 0.0, "fusion_lon": 0.0, "rental_uris": {"android": "https://dc.lft.to/lastmile_qr_scan", "ios": "https://dc.lft.to/lastmile_qr_scan"}, "is_reserved": 0, "is_disabled": 0, "type": "electric_bike", "bike_id": "5339b47c19e53a13643b64d2c59b7062"}, {"lon": -77.02712816666667, "lat": 38.90361516666667, "name": "c7456673ddefb2054154e37321112525", "fusion_lat": 0.0, "fusion_lon": 0.0, "rental_uris": {"android": "https://dc.lft.to/lastmile_qr_scan", "ios": "https://dc.lft.to/lastmile_qr_scan"}, "is_reserved": 0, "is_disabled": 0, "type": "electric_scooter", "bike_id": "c7456673ddefb2054154e37321112525"}, {"lon": -77.0352305, "lat": 38.923375666666665, "name": "155385ee67233dd3e6733d4565ec2242", "fusion_lat": 0.0, "fusion_lon": 0.0, "rental_uris": {"android": "https://dc.lft.to/lastmile_qr_scan", "ios": "https://dc.lft.to/lastmile_qr_scan"}, "is_reserved": 0, "is_disabled": 0, "type": "electric_scooter", "bike_id": "155385ee67233dd3e6733d4565ec2242"}, {"lon": -77.027758, "lat": 38.89222566666667, "name": "21e75baf588de874f66b44b8b3e30a3a", "fusion_lat": 0.0, "fusion_lon": 0.0, "rental_uris": {"android": "https://dc.lft.to/lastmile_qr_scan", "ios": "https://dc.lft.to/lastmile_qr_scan"}, "is_reserved": 0, "is_disabled": 0, "type": "electric_scooter", "bike_id": "21e75baf588de874f66b44b8b3e30a3a"}, {"lon": -77.00857583333334, "lat": 38.827282833333335, "name": "fa28236327f9e73579a18809275fca94", "fusion_lat": 0.0, "fusion_lon": 0.0, "rental_uris": {"android": "https://dc.lft.to/lastmile_qr_scan", "ios": "https://dc.lft.to/lastmile_qr_scan"}, "is_reserved": 0, "is_disabled": 0, "type": "electric_bike", "bike_id": "fa28236327f9e73579a18809275fca94"}, {"lon": -77.07365133333333, "lat": 38.943234, "name": "d08a505c253602eaa2e48caed7b3e6fd", "fusion_lat": 0.0, "fusion_lon": 0.0, "rental_uris": {"android": "https://dc.lft.to/lastmile_qr_scan", "ios": "https://dc.lft.to/lastmile_qr_scan"}, "is_reserved": 0, "is_disabled": 0, "type": "electric_scooter", "bike_id": "d08a505c253602eaa2e48caed7b3e6fd"}, {"lon": -77.07268066666667, "lat": 38.93481, "name": "df37ed36e4115f2210719f8a3b5bb7fd", "fusion_lat": 0.0, "fusion_lon": 0.0, "rental_uris": {"android": "https://dc.lft.to/lastmile_qr_scan", "ios": "https://dc.lft.to/lastmile_qr_scan"}, "is_reserved": 0, "is_disabled": 0, "type": "electric_scooter", "bike_id": "df37ed36e4115f2210719f8a3b5bb7fd"}, {"lon": -76.98567183333333, "lat": 38.855864333333336, "name": "283a7f540e8737472c234b269fcf4593", "fusion_lat": 0.0, "fusion_lon": 0.0, "rental_uris": {"android": "https://dc.lft.to/lastmile_qr_scan", "ios": "https://dc.lft.to/lastmile_qr_scan"}, "is_reserved": 0, "is_disabled": 0, "type": "electric_scooter", "bike_id": "283a7f540e8737472c234b269fcf4593"}, {"lon": -77.02589983333333, "lat": 38.900227666666666, "name": "80d5b61af525f13e24f21a1723a35b99", "fusion_lat": 0.0, "fusion_lon": 0.0, "rental_uris": {"android": "https://dc.lft.to/lastmile_qr_scan", "ios": "https://dc.lft.to/lastmile_qr_scan"}, "is_reserved": 0, "is_disabled": 0, "type": "electric_scooter", "bike_id": "80d5b61af525f13e24f21a1723a35b99"}, {"lon": -77.0347005, "lat": 38.90892433333333, "name": "0bd2a66f84dd6be954f966a3932bdd88", "fusion_lat": 0.0, "fusion_lon": 0.0, "rental_uris": {"android": "https://dc.lft.to/lastmile_qr_scan", "ios": "https://dc.lft.to/lastmile_qr_scan"}, "is_reserved": 0, "is_disabled": 0, "type": "electric_scooter", "bike_id": "0bd2a66f84dd6be954f966a3932bdd88"}, {"lon": -77.0367375, "lat": 38.9082735, "name": "b9f6647bc49525309a207b285ac4eb89", "fusion_lat": 0.0, "fusion_lon": 0.0, "rental_uris": {"android": "https://dc.lft.to/lastmile_qr_scan", "ios": "https://dc.lft.to/lastmile_qr_scan"}, "is_reserved": 0, "is_disabled": 0, "type": "electric_scooter", "bike_id": "b9f6647bc49525309a207b285ac4eb89"}, {"lon": -77.03362466666667, "lat": 38.8999645, "name": "95291d7bccfc1d466a48e261bf01e348", "fusion_lat": 0.0, "fusion_lon": 0.0, "rental_uris": {"android": "https://dc.lft.to/lastmile_qr_scan", "ios": "https://dc.lft.to/lastmile_qr_scan"}, "is_reserved": 0, "is_disabled": 0, "type": "electric_scooter", "bike_id": "95291d7bccfc1d466a48e261bf01e348"}, {"lon": -77.0169125, "lat": 38.9132755, "name": "01bd4844da2fe72b28b31abae1598b79", "fusion_lat": 0.0, "fusion_lon": 0.0, "rental_uris": {"android": "https://dc.lft.to/lastmile_qr_scan", "ios": "https://dc.lft.to/lastmile_qr_scan"}, "is_reserved": 0, "is_disabled": 0, "type": "electric_scooter", "bike_id": "01bd4844da2fe72b28b31abae1598b79"}, {"lon": -77.03209966666667, "lat": 38.9171025, "name": "1651c4d869d970e7b3e9ed563702cbd6", "fusion_lat": 0.0, "fusion_lon": 0.0, "rental_uris": {"android": "https://dc.lft.to/lastmile_qr_scan", "ios": "https://dc.lft.to/lastmile_qr_scan"}, "is_reserved": 0, "is_disabled": 0, "type": "electric_scooter", "bike_id": "1651c4d869d970e7b3e9ed563702cbd6"}, {"lon": -77.0405355, "lat": 38.923486833333335, "name": "58eb1f6808b389c3d9b3ca6f69af0c35", "fusion_lat": 0.0, "fusion_lon": 0.0, "rental_uris": {"android": "https://dc.lft.to/lastmile_qr_scan", "ios": "https://dc.lft.to/lastmile_qr_scan"}, "is_reserved": 0, "is_disabled": 0, "type": "electric_scooter", "bike_id": "58eb1f6808b389c3d9b3ca6f69af0c35"}, {"lon": -76.98549583333333, "lat": 38.894042166666665, "name": "74866edc45b979af852b6fcb58ff3ef8", "fusion_lat": 0.0, "fusion_lon": 0.0, "rental_uris": {"android": "https://dc.lft.to/lastmile_qr_scan", "ios": "https://dc.lft.to/lastmile_qr_scan"}, "is_reserved": 0, "is_disabled": 0, "type": "electric_scooter", "bike_id": "74866edc45b979af852b6fcb58ff3ef8"}, {"lon": -77.02577433333333, "lat": 38.9250665, "name": "16c098c473a811ca7a35b1f09a4e452d", "fusion_lat": 0.0, "fusion_lon": 0.0, "rental_uris": {"android": "https://dc.lft.to/lastmile_qr_scan", "ios": "https://dc.lft.to/lastmile_qr_scan"}, "is_reserved": 0, "is_disabled": 0, "type": "electric_scooter", "bike_id": "16c098c473a811ca7a35b1f09a4e452d"}, {"lon": -77.02792233333334, "lat": 38.927742, "name": "5bf8c944e649423320b471645487646d", "fusion_lat": 0.0, "fusion_lon": 0.0, "rental_uris": {"android": "https://dc.lft.to/lastmile_qr_scan", "ios": "https://dc.lft.to/lastmile_qr_scan"}, "is_reserved": 0, "is_disabled": 0, "type": "electric_scooter", "bike_id": "5bf8c944e649423320b471645487646d"}, {"lon": -77.02887633333333, "lat": 38.904305, "name": "4f0ae58c25a1c3734f87beb790ff0cfe", "fusion_lat": 0.0, "fusion_lon": 0.0, "rental_uris": {"android": "https://dc.lft.to/lastmile_qr_scan", "ios": "https://dc.lft.to/lastmile_qr_scan"}, "is_reserved": 0, "is_disabled": 0, "type": "electric_scooter", "bike_id": "4f0ae58c25a1c3734f87beb790ff0cfe"}, {"lon": -77.05923283333334, "lat": 38.936629833333335, "name": "4a83344db24a6e1f5892c428ce647791", "fusion_lat": 0.0, "fusion_lon": 0.0, "rental_uris": {"android": "https://dc.lft.to/lastmile_qr_scan", "ios": "https://dc.lft.to/lastmile_qr_scan"}, "is_reserved": 0, "is_disabled": 0, "type": "electric_scooter", "bike_id": "4a83344db24a6e1f5892c428ce647791"}, {"lon": -77.01369166666667, "lat": 38.8922825, "name": "32bc36c4d63d8256e1ee0ba83cd4f8b8", "fusion_lat": 0.0, "fusion_lon": 0.0, "rental_uris": {"android": "https://dc.lft.to/lastmile_qr_scan", "ios": "https://dc.lft.to/lastmile_qr_scan"}, "is_reserved": 0, "is_disabled": 0, "type": "electric_scooter", "bike_id": "32bc36c4d63d8256e1ee0ba83cd4f8b8"}, {"lon": -77.027216, "lat": 38.9513145, "name": "21b9f8bf69288172e1c8a1dd1c5c01c0", "fusion_lat": 0.0, "fusion_lon": 0.0, "rental_uris": {"android": "https://dc.lft.to/lastmile_qr_scan", "ios": "https://dc.lft.to/lastmile_qr_scan"}, "is_reserved": 0, "is_disabled": 0, "type": "electric_scooter", "bike_id": "21b9f8bf69288172e1c8a1dd1c5c01c0"}, {"lon": -77.00791216666667, "lat": 38.949201333333335, "name": "f692efedadc504df63d2f1507c096b98", "fusion_lat": 0.0, "fusion_lon": 0.0, "rental_uris": {"android": "https://dc.lft.to/lastmile_qr_scan", "ios": "https://dc.lft.to/lastmile_qr_scan"}, "is_reserved": 0, "is_disabled": 0, "type": "electric_bike", "bike_id": "f692efedadc504df63d2f1507c096b98"}, {"lon": -77.02102516666666, "lat": 38.930084666666666, "name": "d8361e73e349e5db640d81e2065b30b1", "fusion_lat": 0.0, "fusion_lon": 0.0, "rental_uris": {"android": "https://dc.lft.to/lastmile_qr_scan", "ios": "https://dc.lft.to/lastmile_qr_scan"}, "is_reserved": 0, "is_disabled": 0, "type": "electric_scooter", "bike_id": "d8361e73e349e5db640d81e2065b30b1"}, {"lon": -77.0336635, "lat": 38.93585983333333, "name": "4684de99483d01a9ab876a9ff24a8a74", "fusion_lat": 0.0, "fusion_lon": 0.0, "rental_uris": {"android": "https://dc.lft.to/lastmile_qr_scan", "ios": "https://dc.lft.to/lastmile_qr_scan"}, "is_reserved": 0, "is_disabled": 0, "type": "electric_scooter", "bike_id": "4684de99483d01a9ab876a9ff24a8a74"}, {"lon": -76.99786366666666, "lat": 38.890875333333334, "name": "ddd5cf26aa785805adf2e652cbf89b72", "fusion_lat": 0.0, "fusion_lon": 0.0, "rental_uris": {"android": "https://dc.lft.to/lastmile_qr_scan", "ios": "https://dc.lft.to/lastmile_qr_scan"}, "is_reserved": 0, "is_disabled": 0, "type": "electric_scooter", "bike_id": "ddd5cf26aa785805adf2e652cbf89b72"}, {"lon": -77.03244316666667, "lat": 38.91561566666667, "name": "555ce05ca0a47d47f14137e76bec6de9", "fusion_lat": 0.0, "fusion_lon": 0.0, "rental_uris": {"android": "https://dc.lft.to/lastmile_qr_scan", "ios": "https://dc.lft.to/lastmile_qr_scan"}, "is_reserved": 0, "is_disabled": 0, "type": "electric_scooter", "bike_id": "555ce05ca0a47d47f14137e76bec6de9"}, {"lon": -77.01838433333333, "lat": 38.908813, "name": "6dd2b6fd2b30e5c28ffc3fe45652d4da", "fusion_lat": 0.0, "fusion_lon": 0.0, "rental_uris": {"android": "https://dc.lft.to/lastmile_qr_scan", "ios": "https://dc.lft.to/lastmile_qr_scan"}, "is_reserved": 0, "is_disabled": 0, "type": "electric_scooter", "bike_id": "6dd2b6fd2b30e5c28ffc3fe45652d4da"}, {"lon": -76.99754983333334, "lat": 38.92269116666667, "name": "194a6bf0888add592ed2aa9828e3f496", "fusion_lat": 0.0, "fusion_lon": 0.0, "rental_uris": {"android": "https://dc.lft.to/lastmile_qr_scan", "ios": "https://dc.lft.to/lastmile_qr_scan"}, "is_reserved": 0, "is_disabled": 0, "type": "electric_scooter", "bike_id": "194a6bf0888add592ed2aa9828e3f496"}, {"lon": -76.99031183333334, "lat": 38.8985175, "name": "912b876a49cf0634ff3178fa51e57b47", "fusion_lat": 0.0, "fusion_lon": 0.0, "rental_uris": {"android": "https://dc.lft.to/lastmile_qr_scan", "ios": "https://dc.lft.to/lastmile_qr_scan"}, "is_reserved": 0, "is_disabled": 0, "type": "electric_scooter", "bike_id": "912b876a49cf0634ff3178fa51e57b47"}, {"lon": -76.97558283333333, "lat": 38.924593, "name": "01eee822165461d7ebe8a39f1b08a75d", "fusion_lat": 0.0, "fusion_lon": 0.0, "rental_uris": {"android": "https://dc.lft.to/lastmile_qr_scan", "ios": "https://dc.lft.to/lastmile_qr_scan"}, "is_reserved": 0, "is_disabled": 0, "type": "electric_bike", "bike_id": "01eee822165461d7ebe8a39f1b08a75d"}, {"lon": -77.0219505, "lat": 38.93132216666667, "name": "82ec3155167ae3ac1ec15dff6f85d44b", "fusion_lat": 0.0, "fusion_lon": 0.0, "rental_uris": {"android": "https://dc.lft.to/lastmile_qr_scan", "ios": "https://dc.lft.to/lastmile_qr_scan"}, "is_reserved": 0, "is_disabled": 0, "type": "electric_scooter", "bike_id": "82ec3155167ae3ac1ec15dff6f85d44b"}, {"lon": -77.0164985, "lat": 38.953330333333334, "name": "48794dc636ce8cf7da3234b33af9641e", "fusion_lat": 0.0, "fusion_lon": 0.0, "rental_uris": {"android": "https://dc.lft.to/lastmile_qr_scan", "ios": "https://dc.lft.to/lastmile_qr_scan"}, "is_reserved": 0, "is_disabled": 0, "type": "electric_scooter", "bike_id": "48794dc636ce8cf7da3234b33af9641e"}, {"lon": -76.98262066666666, "lat": 38.8635285, "name": "0f8b0a1f7d880c10f0ed7acaf838145a", "fusion_lat": 0.0, "fusion_lon": 0.0, "rental_uris": {"android": "https://dc.lft.to/lastmile_qr_scan", "ios": "https://dc.lft.to/lastmile_qr_scan"}, "is_reserved": 0, "is_disabled": 0, "type": "electric_scooter", "bike_id": "0f8b0a1f7d880c10f0ed7acaf838145a"}, {"lon": -77.07796366666666, "lat": 38.95067866666667, "name": "117870fab0ac9f02536b5a23f8cbf5e9", "fusion_lat": 0.0, "fusion_lon": 0.0, "rental_uris": {"android": "https://dc.lft.to/lastmile_qr_scan", "ios": "https://dc.lft.to/lastmile_qr_scan"}, "is_reserved": 0, "is_disabled": 0, "type": "electric_bike", "bike_id": "117870fab0ac9f02536b5a23f8cbf5e9"}, {"lon": -77.04237166666667, "lat": 38.93859033333333, "name": "20e4e2d96be567246d314fcabf34ca0a", "fusion_lat": 0.0, "fusion_lon": 0.0, "rental_uris": {"android": "https://dc.lft.to/lastmile_qr_scan", "ios": "https://dc.lft.to/lastmile_qr_scan"}, "is_reserved": 0, "is_disabled": 0, "type": "electric_bike", "bike_id": "20e4e2d96be567246d314fcabf34ca0a"}, {"lon": -77.03006133333334, "lat": 38.9141255, "name": "e27ed60b4ecce9470b7cd1ea0819d39b", "fusion_lat": 0.0, "fusion_lon": 0.0, "rental_uris": {"android": "https://dc.lft.to/lastmile_qr_scan", "ios": "https://dc.lft.to/lastmile_qr_scan"}, "is_reserved": 0, "is_disabled": 0, "type": "electric_scooter", "bike_id": "e27ed60b4ecce9470b7cd1ea0819d39b"}, {"lon": -77.0325805, "lat": 38.938173166666665, "name": "5ad4598b75276ed6ead7075605f1d351", "fusion_lat": 0.0, "fusion_lon": 0.0, "rental_uris": {"android": "https://dc.lft.to/lastmile_qr_scan", "ios": "https://dc.lft.to/lastmile_qr_scan"}, "is_reserved": 0, "is_disabled": 0, "type": "electric_scooter", "bike_id": "5ad4598b75276ed6ead7075605f1d351"}, {"lon": -76.94280266666667, "lat": 38.954052, "name": "a978e2c6c44cc7988210e3d4de0c4d6c", "fusion_lat": 0.0, "fusion_lon": 0.0, "rental_uris": {"android": "https://dc.lft.to/lastmile_qr_scan", "ios": "https://dc.lft.to/lastmile_qr_scan"}, "is_reserved": 0, "is_disabled": 0, "type": "electric_bike", "bike_id": "a978e2c6c44cc7988210e3d4de0c4d6c"}, {"lon": -77.04175633333334, "lat": 38.914539, "name": "552578c67f10c188020724a99da879f6", "fusion_lat": 0.0, "fusion_lon": 0.0, "rental_uris": {"android": "https://dc.lft.to/lastmile_qr_scan", "ios": "https://dc.lft.to/lastmile_qr_scan"}, "is_reserved": 0, "is_disabled": 0, "type": "electric_scooter", "bike_id": "552578c67f10c188020724a99da879f6"}, {"lon": -77.04452716666667, "lat": 38.91118766666666, "name": "b694ef4a4e759628bd80411159b49ede", "fusion_lat": 0.0, "fusion_lon": 0.0, "rental_uris": {"android": "https://dc.lft.to/lastmile_qr_scan", "ios": "https://dc.lft.to/lastmile_qr_scan"}, "is_reserved": 0, "is_disabled": 0, "type": "electric_scooter", "bike_id": "b694ef4a4e759628bd80411159b49ede"}, {"lon": -76.99774833333333, "lat": 38.844211, "name": "ae45354c379c825b650c25cb9644de36", "fusion_lat": 0.0, "fusion_lon": 0.0, "rental_uris": {"android": "https://dc.lft.to/lastmile_qr_scan", "ios": "https://dc.lft.to/lastmile_qr_scan"}, "is_reserved": 0, "is_disabled": 0, "type": "electric_scooter", "bike_id": "ae45354c379c825b650c25cb9644de36"}, {"lon": -77.0716635, "lat": 38.9145505, "name": "feb29e7ddfecf5a1871604dbc4ec9ffa", "fusion_lat": 0.0, "fusion_lon": 0.0, "rental_uris": {"android": "https://dc.lft.to/lastmile_qr_scan", "ios": "https://dc.lft.to/lastmile_qr_scan"}, "is_reserved": 0, "is_disabled": 0, "type": "electric_scooter", "bike_id": "feb29e7ddfecf5a1871604dbc4ec9ffa"}, {"lon": -77.02818316666666, "lat": 38.965038166666666, "name": "d313529385ee56404cc7dadd9ed620fe", "fusion_lat": 0.0, "fusion_lon": 0.0, "rental_uris": {"android": "https://dc.lft.to/lastmile_qr_scan", "ios": "https://dc.lft.to/lastmile_qr_scan"}, "is_reserved": 0, "is_disabled": 0, "type": "electric_bike", "bike_id": "d313529385ee56404cc7dadd9ed620fe"}, {"lon": -77.03249783333334, "lat": 38.935232, "name": "c8846f6a7d7b3a045495efe5489574d3", "fusion_lat": 0.0, "fusion_lon": 0.0, "rental_uris": {"android": "https://dc.lft.to/lastmile_qr_scan", "ios": "https://dc.lft.to/lastmile_qr_scan"}, "is_reserved": 0, "is_disabled": 0, "type": "electric_scooter", "bike_id": "c8846f6a7d7b3a045495efe5489574d3"}, {"lon": -77.0216735, "lat": 38.88640733333333, "name": "6f1197c0ae2e77fd6c9f2a986eb60420", "fusion_lat": 0.0, "fusion_lon": 0.0, "rental_uris": {"android": "https://dc.lft.to/lastmile_qr_scan", "ios": "https://dc.lft.to/lastmile_qr_scan"}, "is_reserved": 0, "is_disabled": 0, "type": "electric_scooter", "bike_id": "6f1197c0ae2e77fd6c9f2a986eb60420"}, {"lon": -76.99632583333333, "lat": 38.846213, "name": "2d7b5e15733e64bc0b4700e933a99a88", "fusion_lat": 0.0, "fusion_lon": 0.0, "rental_uris": {"android": "https://dc.lft.to/lastmile_qr_scan", "ios": "https://dc.lft.to/lastmile_qr_scan"}, "is_reserved": 0, "is_disabled": 0, "type": "electric_scooter", "bike_id": "2d7b5e15733e64bc0b4700e933a99a88"}, {"lon": -77.028929, "lat": 38.8976005, "name": "3bd2c00897122662881c69ab307d4680", "fusion_lat": 0.0, "fusion_lon": 0.0, "rental_uris": {"android": "https://dc.lft.to/lastmile_qr_scan", "ios": "https://dc.lft.to/lastmile_qr_scan"}, "is_reserved": 0, "is_disabled": 0, "type": "electric_scooter", "bike_id": "3bd2c00897122662881c69ab307d4680"}, {"lon": -77.04257433333333, "lat": 38.92233866666667, "name": "294ac57b14cd19cbbfc6c801bca8cbe7", "fusion_lat": 0.0, "fusion_lon": 0.0, "rental_uris": {"android": "https://dc.lft.to/lastmile_qr_scan", "ios": "https://dc.lft.to/lastmile_qr_scan"}, "is_reserved": 0, "is_disabled": 0, "type": "electric_scooter", "bike_id": "294ac57b14cd19cbbfc6c801bca8cbe7"}, {"lon": -77.0821195, "lat": 38.935618166666664, "name": "beb68c3884d095df1d899296bbac5367", "fusion_lat": 0.0, "fusion_lon": 0.0, "rental_uris": {"android": "https://dc.lft.to/lastmile_qr_scan", "ios": "https://dc.lft.to/lastmile_qr_scan"}, "is_reserved": 0, "is_disabled": 0, "type": "electric_scooter", "bike_id": "beb68c3884d095df1d899296bbac5367"}, {"lon": -77.03918983333334, "lat": 38.91839016666667, "name": "6b55b5668fbbf293c9a778c72dfc6279", "fusion_lat": 0.0, "fusion_lon": 0.0, "rental_uris": {"android": "https://dc.lft.to/lastmile_qr_scan", "ios": "https://dc.lft.to/lastmile_qr_scan"}, "is_reserved": 0, "is_disabled": 0, "type": "electric_scooter", "bike_id": "6b55b5668fbbf293c9a778c72dfc6279"}, {"lon": -77.03436233333333, "lat": 38.91807816666667, "name": "0f003e7513d16807d41761f8c741cfbc", "fusion_lat": 0.0, "fusion_lon": 0.0, "rental_uris": {"android": "https://dc.lft.to/lastmile_qr_scan", "ios": "https://dc.lft.to/lastmile_qr_scan"}, "is_reserved": 0, "is_disabled": 0, "type": "electric_scooter", "bike_id": "0f003e7513d16807d41761f8c741cfbc"}, {"lon": -77.0011445, "lat": 38.894357, "name": "9dc2e43c1a56bf7cd9e316cc8479515f", "fusion_lat": 0.0, "fusion_lon": 0.0, "rental_uris": {"android": "https://dc.lft.to/lastmile_qr_scan", "ios": "https://dc.lft.to/lastmile_qr_scan"}, "is_reserved": 0, "is_disabled": 0, "type": "electric_scooter", "bike_id": "9dc2e43c1a56bf7cd9e316cc8479515f"}, {"lon": -77.04994733333334, "lat": 38.892309166666664, "name": "585316c10f847cc786852a09c4c28ed5", "fusion_lat": 0.0, "fusion_lon": 0.0, "rental_uris": {"android": "https://dc.lft.to/lastmile_qr_scan", "ios": "https://dc.lft.to/lastmile_qr_scan"}, "is_reserved": 0, "is_disabled": 0, "type": "electric_scooter", "bike_id": "585316c10f847cc786852a09c4c28ed5"}, {"lon": -77.03255883333334, "lat": 38.93528966666667, "name": "f7287c540e42a9dd28ad427068dc3fdc", "fusion_lat": 0.0, "fusion_lon": 0.0, "rental_uris": {"android": "https://dc.lft.to/lastmile_qr_scan", "ios": "https://dc.lft.to/lastmile_qr_scan"}, "is_reserved": 0, "is_disabled": 0, "type": "electric_scooter", "bike_id": "f7287c540e42a9dd28ad427068dc3fdc"}, {"lon": -77.0247955, "lat": 38.938783, "name": "94dcfd6a304f4fe8c0ff07f1b5163d59", "fusion_lat": 0.0, "fusion_lon": 0.0, "rental_uris": {"android": "https://dc.lft.to/lastmile_qr_scan", "ios": "https://dc.lft.to/lastmile_qr_scan"}, "is_reserved": 0, "is_disabled": 0, "type": "electric_scooter", "bike_id": "94dcfd6a304f4fe8c0ff07f1b5163d59"}, {"lon": -77.02715016666667, "lat": 38.892154166666664, "name": "3faf275a680cde55a7ed1e24e0681ec4", "fusion_lat": 0.0, "fusion_lon": 0.0, "rental_uris": {"android": "https://dc.lft.to/lastmile_qr_scan", "ios": "https://dc.lft.to/lastmile_qr_scan"}, "is_reserved": 0, "is_disabled": 0, "type": "electric_scooter", "bike_id": "3faf275a680cde55a7ed1e24e0681ec4"}, {"lon": -77.02833233333334, "lat": 38.924692, "name": "989fa89ade6fc36bc9a5bf253188d1a9", "fusion_lat": 0.0, "fusion_lon": 0.0, "rental_uris": {"android": "https://dc.lft.to/lastmile_qr_scan", "ios": "https://dc.lft.to/lastmile_qr_scan"}, "is_reserved": 0, "is_disabled": 0, "type": "electric_scooter", "bike_id": "989fa89ade6fc36bc9a5bf253188d1a9"}, {"lon": -77.034418, "lat": 38.918066, "name": "c5245a53ea5726a680e672ce7189599c", "fusion_lat": 0.0, "fusion_lon": 0.0, "rental_uris": {"android": "https://dc.lft.to/lastmile_qr_scan", "ios": "https://dc.lft.to/lastmile_qr_scan"}, "is_reserved": 0, "is_disabled": 0, "type": "electric_scooter", "bike_id": "c5245a53ea5726a680e672ce7189599c"}, {"lon": -77.05226666666667, "lat": 38.92510166666667, "name": "8a3b94a5739a1f573d364ccbc9659170", "fusion_lat": 0.0, "fusion_lon": 0.0, "rental_uris": {"android": "https://dc.lft.to/lastmile_qr_scan", "ios": "https://dc.lft.to/lastmile_qr_scan"}, "is_reserved": 0, "is_disabled": 0, "type": "electric_scooter", "bike_id": "8a3b94a5739a1f573d364ccbc9659170"}, {"lon": -77.03842016666667, "lat": 38.91233916666667, "name": "3e7df49b79fd990d09db6569d182037c", "fusion_lat": 0.0, "fusion_lon": 0.0, "rental_uris": {"android": "https://dc.lft.to/lastmile_qr_scan", "ios": "https://dc.lft.to/lastmile_qr_scan"}, "is_reserved": 0, "is_disabled": 0, "type": "electric_scooter", "bike_id": "3e7df49b79fd990d09db6569d182037c"}, {"lon": -77.04832666666667, "lat": 38.90068466666666, "name": "bcd646f7729ea7f27d3db66e36125c82", "fusion_lat": 0.0, "fusion_lon": 0.0, "rental_uris": {"android": "https://dc.lft.to/lastmile_qr_scan", "ios": "https://dc.lft.to/lastmile_qr_scan"}, "is_reserved": 0, "is_disabled": 0, "type": "electric_scooter", "bike_id": "bcd646f7729ea7f27d3db66e36125c82"}, {"lon": -77.0497255, "lat": 38.90106466666667, "name": "3b05e79cbacfd8b13adde3ca13cf22b9", "fusion_lat": 0.0, "fusion_lon": 0.0, "rental_uris": {"android": "https://dc.lft.to/lastmile_qr_scan", "ios": "https://dc.lft.to/lastmile_qr_scan"}, "is_reserved": 0, "is_disabled": 0, "type": "electric_scooter", "bike_id": "3b05e79cbacfd8b13adde3ca13cf22b9"}, {"lon": -76.93526866666667, "lat": 38.896744166666664, "name": "7c74d16f747d2dc89ec396e927d9185a", "fusion_lat": 0.0, "fusion_lon": 0.0, "rental_uris": {"android": "https://dc.lft.to/lastmile_qr_scan", "ios": "https://dc.lft.to/lastmile_qr_scan"}, "is_reserved": 0, "is_disabled": 0, "type": "electric_scooter", "bike_id": "7c74d16f747d2dc89ec396e927d9185a"}, {"lon": -77.00592666666667, "lat": 38.874590833333336, "name": "abe543fa7a6256ac4724df3ab3996fae", "fusion_lat": 0.0, "fusion_lon": 0.0, "rental_uris": {"android": "https://dc.lft.to/lastmile_qr_scan", "ios": "https://dc.lft.to/lastmile_qr_scan"}, "is_reserved": 0, "is_disabled": 0, "type": "electric_scooter", "bike_id": "abe543fa7a6256ac4724df3ab3996fae"}, {"lon": -77.02189233333333, "lat": 38.91125733333333, "name": "e2a469936f7f82952711e28e1c399ff4", "fusion_lat": 0.0, "fusion_lon": 0.0, "rental_uris": {"android": "https://dc.lft.to/lastmile_qr_scan", "ios": "https://dc.lft.to/lastmile_qr_scan"}, "is_reserved": 0, "is_disabled": 0, "type": "electric_scooter", "bike_id": "e2a469936f7f82952711e28e1c399ff4"}, {"lon": -77.14119233333334, "lat": 38.816023666666666, "name": "51ac9f854ab09873c4cef70244744455", "fusion_lat": 0.0, "fusion_lon": 0.0, "rental_uris": {"android": "https://dc.lft.to/lastmile_qr_scan", "ios": "https://dc.lft.to/lastmile_qr_scan"}, "is_reserved": 0, "is_disabled": 0, "type": "electric_bike", "bike_id": "51ac9f854ab09873c4cef70244744455"}, {"lon": -77.0235475, "lat": 38.9331865, "name": "28c908395c63257f42a42fa4adf3a205", "fusion_lat": 0.0, "fusion_lon": 0.0, "rental_uris": {"android": "https://dc.lft.to/lastmile_qr_scan", "ios": "https://dc.lft.to/lastmile_qr_scan"}, "is_reserved": 0, "is_disabled": 0, "type": "electric_scooter", "bike_id": "28c908395c63257f42a42fa4adf3a205"}, {"lon": -77.00759183333334, "lat": 38.9074735, "name": "2dc157b7ca55025275bd3fddf68396d7", "fusion_lat": 0.0, "fusion_lon": 0.0, "rental_uris": {"android": "https://dc.lft.to/lastmile_qr_scan", "ios": "https://dc.lft.to/lastmile_qr_scan"}, "is_reserved": 0, "is_disabled": 0, "type": "electric_scooter", "bike_id": "2dc157b7ca55025275bd3fddf68396d7"}, {"lon": -77.00045983333334, "lat": 38.907693333333334, "name": "cc43cb42fb6f50e93683fa4cacfc8161", "fusion_lat": 0.0, "fusion_lon": 0.0, "rental_uris": {"android": "https://dc.lft.to/lastmile_qr_scan", "ios": "https://dc.lft.to/lastmile_qr_scan"}, "is_reserved": 0, "is_disabled": 0, "type": "electric_scooter", "bike_id": "cc43cb42fb6f50e93683fa4cacfc8161"}, {"lon": -77.00683683333334, "lat": 38.8749235, "name": "541cf2107b72b2cc66faa486b3cff297", "fusion_lat": 0.0, "fusion_lon": 0.0, "rental_uris": {"android": "https://dc.lft.to/lastmile_qr_scan", "ios": "https://dc.lft.to/lastmile_qr_scan"}, "is_reserved": 0, "is_disabled": 0, "type": "electric_scooter", "bike_id": "541cf2107b72b2cc66faa486b3cff297"}, {"lon": -77.05561866666666, "lat": 38.89988266666667, "name": "c048c4cafb9f23d674a5d93e52b49564", "fusion_lat": 0.0, "fusion_lon": 0.0, "rental_uris": {"android": "https://dc.lft.to/lastmile_qr_scan", "ios": "https://dc.lft.to/lastmile_qr_scan"}, "is_reserved": 0, "is_disabled": 0, "type": "electric_scooter", "bike_id": "c048c4cafb9f23d674a5d93e52b49564"}, {"lon": -77.02388516666667, "lat": 38.91989233333334, "name": "945235c5e1b61f8f318ecd0946e16a1a", "fusion_lat": 0.0, "fusion_lon": 0.0, "rental_uris": {"android": "https://dc.lft.to/lastmile_qr_scan", "ios": "https://dc.lft.to/lastmile_qr_scan"}, "is_reserved": 0, "is_disabled": 0, "type": "electric_scooter", "bike_id": "945235c5e1b61f8f318ecd0946e16a1a"}, {"lon": -76.9652555, "lat": 38.876268333333336, "name": "b93bf402345ea2850567fbe7bb14dfc9", "fusion_lat": 0.0, "fusion_lon": 0.0, "rental_uris": {"android": "https://dc.lft.to/lastmile_qr_scan", "ios": "https://dc.lft.to/lastmile_qr_scan"}, "is_reserved": 0, "is_disabled": 0, "type": "electric_scooter", "bike_id": "b93bf402345ea2850567fbe7bb14dfc9"}, {"lon": -77.039364, "lat": 38.9141855, "name": "e193351868da969d656487216ad6f39f", "fusion_lat": 0.0, "fusion_lon": 0.0, "rental_uris": {"android": "https://dc.lft.to/lastmile_qr_scan", "ios": "https://dc.lft.to/lastmile_qr_scan"}, "is_reserved": 0, "is_disabled": 0, "type": "electric_scooter", "bike_id": "e193351868da969d656487216ad6f39f"}, {"lon": -76.98161133333333, "lat": 38.9596085, "name": "707b2dc59c6e736908eefe26af465a3f", "fusion_lat": 0.0, "fusion_lon": 0.0, "rental_uris": {"android": "https://dc.lft.to/lastmile_qr_scan", "ios": "https://dc.lft.to/lastmile_qr_scan"}, "is_reserved": 0, "is_disabled": 0, "type": "electric_bike", "bike_id": "707b2dc59c6e736908eefe26af465a3f"}, {"lon": -77.0293, "lat": 38.8822295, "name": "a8d352149f92f55c786f71fb8f7cebaf", "fusion_lat": 0.0, "fusion_lon": 0.0, "rental_uris": {"android": "https://dc.lft.to/lastmile_qr_scan", "ios": "https://dc.lft.to/lastmile_qr_scan"}, "is_reserved": 0, "is_disabled": 0, "type": "electric_scooter", "bike_id": "a8d352149f92f55c786f71fb8f7cebaf"}, {"lon": -77.01866833333334, "lat": 38.94896133333334, "name": "f2e2390e19eb9d57d53525aaa720773b", "fusion_lat": 0.0, "fusion_lon": 0.0, "rental_uris": {"android": "https://dc.lft.to/lastmile_qr_scan", "ios": "https://dc.lft.to/lastmile_qr_scan"}, "is_reserved": 0, "is_disabled": 0, "type": "electric_scooter", "bike_id": "f2e2390e19eb9d57d53525aaa720773b"}, {"lon": -77.010986, "lat": 38.90575416666667, "name": "738f4071fe2efee76267ef635ff0dc2e", "fusion_lat": 0.0, "fusion_lon": 0.0, "rental_uris": {"android": "https://dc.lft.to/lastmile_qr_scan", "ios": "https://dc.lft.to/lastmile_qr_scan"}, "is_reserved": 0, "is_disabled": 0, "type": "electric_scooter", "bike_id": "738f4071fe2efee76267ef635ff0dc2e"}, {"lon": -77.0241125, "lat": 38.9097125, "name": "d4e9041438b7c9f3308df01ad9bc1218", "fusion_lat": 0.0, "fusion_lon": 0.0, "rental_uris": {"android": "https://dc.lft.to/lastmile_qr_scan", "ios": "https://dc.lft.to/lastmile_qr_scan"}, "is_reserved": 0, "is_disabled": 0, "type": "electric_scooter", "bike_id": "d4e9041438b7c9f3308df01ad9bc1218"}, {"lon": -77.024712, "lat": 38.91941416666667, "name": "c4b01fd08cbcf8238b6b255b621aa724", "fusion_lat": 0.0, "fusion_lon": 0.0, "rental_uris": {"android": "https://dc.lft.to/lastmile_qr_scan", "ios": "https://dc.lft.to/lastmile_qr_scan"}, "is_reserved": 0, "is_disabled": 0, "type": "electric_scooter", "bike_id": "c4b01fd08cbcf8238b6b255b621aa724"}, {"lon": -76.95751833333334, "lat": 38.884344166666665, "name": "48ac69402a430b7f22a49cc700fb92d8", "fusion_lat": 0.0, "fusion_lon": 0.0, "rental_uris": {"android": "https://dc.lft.to/lastmile_qr_scan", "ios": "https://dc.lft.to/lastmile_qr_scan"}, "is_reserved": 0, "is_disabled": 0, "type": "electric_scooter", "bike_id": "48ac69402a430b7f22a49cc700fb92d8"}, {"lon": -77.03309533333334, "lat": 38.9012805, "name": "a069b3c47b699bf13481f46f28ce1648", "fusion_lat": 0.0, "fusion_lon": 0.0, "rental_uris": {"android": "https://dc.lft.to/lastmile_qr_scan", "ios": "https://dc.lft.to/lastmile_qr_scan"}, "is_reserved": 0, "is_disabled": 0, "type": "electric_scooter", "bike_id": "a069b3c47b699bf13481f46f28ce1648"}, {"lon": -77.04327416666666, "lat": 38.926184166666665, "name": "068df84f0ae9e6159bddf5122f6f4761", "fusion_lat": 0.0, "fusion_lon": 0.0, "rental_uris": {"android": "https://dc.lft.to/lastmile_qr_scan", "ios": "https://dc.lft.to/lastmile_qr_scan"}, "is_reserved": 0, "is_disabled": 0, "type": "electric_scooter", "bike_id": "068df84f0ae9e6159bddf5122f6f4761"}, {"lon": -77.03846366666667, "lat": 38.91831116666667, "name": "46a7899136cc0193c4ba83b0f09dc4ea", "fusion_lat": 0.0, "fusion_lon": 0.0, "rental_uris": {"android": "https://dc.lft.to/lastmile_qr_scan", "ios": "https://dc.lft.to/lastmile_qr_scan"}, "is_reserved": 0, "is_disabled": 0, "type": "electric_scooter", "bike_id": "46a7899136cc0193c4ba83b0f09dc4ea"}, {"lon": -77.0395685, "lat": 38.902575666666664, "name": "2412340748b5bc5f7cf63b3f7946a2eb", "fusion_lat": 0.0, "fusion_lon": 0.0, "rental_uris": {"android": "https://dc.lft.to/lastmile_qr_scan", "ios": "https://dc.lft.to/lastmile_qr_scan"}, "is_reserved": 0, "is_disabled": 0, "type": "electric_scooter", "bike_id": "2412340748b5bc5f7cf63b3f7946a2eb"}, {"lon": -76.93017666666667, "lat": 38.90085283333333, "name": "3917e2f675fa58fc72bfb57f8cc10e3c", "fusion_lat": 0.0, "fusion_lon": 0.0, "rental_uris": {"android": "https://dc.lft.to/lastmile_qr_scan", "ios": "https://dc.lft.to/lastmile_qr_scan"}, "is_reserved": 0, "is_disabled": 0, "type": "electric_scooter", "bike_id": "3917e2f675fa58fc72bfb57f8cc10e3c"}, {"lon": -77.00516733333333, "lat": 38.916956166666665, "name": "21c4723cd989cb89ee63754e044b763e", "fusion_lat": 0.0, "fusion_lon": 0.0, "rental_uris": {"android": "https://dc.lft.to/lastmile_qr_scan", "ios": "https://dc.lft.to/lastmile_qr_scan"}, "is_reserved": 0, "is_disabled": 0, "type": "electric_scooter", "bike_id": "21c4723cd989cb89ee63754e044b763e"}, {"lon": -77.03436833333333, "lat": 38.918026833333336, "name": "d5b4b2698793e7830471bbad5f334745", "fusion_lat": 0.0, "fusion_lon": 0.0, "rental_uris": {"android": "https://dc.lft.to/lastmile_qr_scan", "ios": "https://dc.lft.to/lastmile_qr_scan"}, "is_reserved": 0, "is_disabled": 0, "type": "electric_scooter", "bike_id": "d5b4b2698793e7830471bbad5f334745"}, {"lon": -77.01997116666666, "lat": 38.966275333333336, "name": "3fe6bb8639410cd638746bcabd5988ad", "fusion_lat": 0.0, "fusion_lon": 0.0, "rental_uris": {"android": "https://dc.lft.to/lastmile_qr_scan", "ios": "https://dc.lft.to/lastmile_qr_scan"}, "is_reserved": 0, "is_disabled": 0, "type": "electric_scooter", "bike_id": "3fe6bb8639410cd638746bcabd5988ad"}, {"lon": -77.02393716666667, "lat": 38.91995333333333, "name": "49f5aa82ac0b34bb972040e7bb55d5fb", "fusion_lat": 0.0, "fusion_lon": 0.0, "rental_uris": {"android": "https://dc.lft.to/lastmile_qr_scan", "ios": "https://dc.lft.to/lastmile_qr_scan"}, "is_reserved": 0, "is_disabled": 0, "type": "electric_scooter", "bike_id": "49f5aa82ac0b34bb972040e7bb55d5fb"}, {"lon": -77.03860966666667, "lat": 38.91719766666667, "name": "f61480cf75f6923b64bfd7f35a9fc336", "fusion_lat": 0.0, "fusion_lon": 0.0, "rental_uris": {"android": "https://dc.lft.to/lastmile_qr_scan", "ios": "https://dc.lft.to/lastmile_qr_scan"}, "is_reserved": 0, "is_disabled": 0, "type": "electric_scooter", "bike_id": "f61480cf75f6923b64bfd7f35a9fc336"}, {"lon": -77.03934333333333, "lat": 38.914131166666664, "name": "b72ee3199fc307692ec879146cf73c3c", "fusion_lat": 0.0, "fusion_lon": 0.0, "rental_uris": {"android": "https://dc.lft.to/lastmile_qr_scan", "ios": "https://dc.lft.to/lastmile_qr_scan"}, "is_reserved": 0, "is_disabled": 0, "type": "electric_scooter", "bike_id": "b72ee3199fc307692ec879146cf73c3c"}, {"lon": -77.00576216666667, "lat": 38.905641, "name": "0f234b29866f659fc0a93b9d0769e5ce", "fusion_lat": 0.0, "fusion_lon": 0.0, "rental_uris": {"android": "https://dc.lft.to/lastmile_qr_scan", "ios": "https://dc.lft.to/lastmile_qr_scan"}, "is_reserved": 0, "is_disabled": 0, "type": "electric_scooter", "bike_id": "0f234b29866f659fc0a93b9d0769e5ce"}, {"lon": -77.0789935, "lat": 38.919311, "name": "e4072028263fcbf2b6a0b03b7aa5997e", "fusion_lat": 0.0, "fusion_lon": 0.0, "rental_uris": {"android": "https://dc.lft.to/lastmile_qr_scan", "ios": "https://dc.lft.to/lastmile_qr_scan"}, "is_reserved": 0, "is_disabled": 0, "type": "electric_scooter", "bike_id": "e4072028263fcbf2b6a0b03b7aa5997e"}, {"lon": -77.036972, "lat": 38.926419833333334, "name": "3d0445ef4977f33262a110b0faa0d19f", "fusion_lat": 0.0, "fusion_lon": 0.0, "rental_uris": {"android": "https://dc.lft.to/lastmile_qr_scan", "ios": "https://dc.lft.to/lastmile_qr_scan"}, "is_reserved": 0, "is_disabled": 0, "type": "electric_scooter", "bike_id": "3d0445ef4977f33262a110b0faa0d19f"}, {"lon": -77.0079485, "lat": 38.917054, "name": "e97a710ffad71bbbf019849b4ba3686b", "fusion_lat": 0.0, "fusion_lon": 0.0, "rental_uris": {"android": "https://dc.lft.to/lastmile_qr_scan", "ios": "https://dc.lft.to/lastmile_qr_scan"}, "is_reserved": 0, "is_disabled": 0, "type": "electric_scooter", "bike_id": "e97a710ffad71bbbf019849b4ba3686b"}, {"lon": -76.97623566666667, "lat": 38.89578983333333, "name": "247cc0cf9ebc66a53cea94b394607f14", "fusion_lat": 0.0, "fusion_lon": 0.0, "rental_uris": {"android": "https://dc.lft.to/lastmile_qr_scan", "ios": "https://dc.lft.to/lastmile_qr_scan"}, "is_reserved": 0, "is_disabled": 0, "type": "electric_bike", "bike_id": "247cc0cf9ebc66a53cea94b394607f14"}, {"lon": -77.010601, "lat": 38.87245166666666, "name": "24e9afcf400a4a3b488148889984b5ff", "fusion_lat": 0.0, "fusion_lon": 0.0, "rental_uris": {"android": "https://dc.lft.to/lastmile_qr_scan", "ios": "https://dc.lft.to/lastmile_qr_scan"}, "is_reserved": 0, "is_disabled": 0, "type": "electric_scooter", "bike_id": "24e9afcf400a4a3b488148889984b5ff"}, {"lon": -77.02980766666667, "lat": 38.9167675, "name": "1e2f6b1e31a41e853ae89aff3e3e2ce7", "fusion_lat": 0.0, "fusion_lon": 0.0, "rental_uris": {"android": "https://dc.lft.to/lastmile_qr_scan", "ios": "https://dc.lft.to/lastmile_qr_scan"}, "is_reserved": 0, "is_disabled": 0, "type": "electric_scooter", "bike_id": "1e2f6b1e31a41e853ae89aff3e3e2ce7"}, {"lon": -77.01592633333334, "lat": 38.9284325, "name": "968e88b79d1e1e01c5884456bcb49ec6", "fusion_lat": 0.0, "fusion_lon": 0.0, "rental_uris": {"android": "https://dc.lft.to/lastmile_qr_scan", "ios": "https://dc.lft.to/lastmile_qr_scan"}, "is_reserved": 0, "is_disabled": 0, "type": "electric_scooter", "bike_id": "968e88b79d1e1e01c5884456bcb49ec6"}, {"lon": -77.002135, "lat": 38.900229833333334, "name": "75bab4285fbc2cf0b077f73169e8333e", "fusion_lat": 0.0, "fusion_lon": 0.0, "rental_uris": {"android": "https://dc.lft.to/lastmile_qr_scan", "ios": "https://dc.lft.to/lastmile_qr_scan"}, "is_reserved": 0, "is_disabled": 0, "type": "electric_scooter", "bike_id": "75bab4285fbc2cf0b077f73169e8333e"}, {"lon": -77.00954083333333, "lat": 38.92136383333333, "name": "43cd19fcfc752d15af92f3a19b031250", "fusion_lat": 0.0, "fusion_lon": 0.0, "rental_uris": {"android": "https://dc.lft.to/lastmile_qr_scan", "ios": "https://dc.lft.to/lastmile_qr_scan"}, "is_reserved": 0, "is_disabled": 0, "type": "electric_scooter", "bike_id": "43cd19fcfc752d15af92f3a19b031250"}, {"lon": -76.9315835, "lat": 38.898805833333334, "name": "3dd4d844413bada814ca352914d5e08c", "fusion_lat": 0.0, "fusion_lon": 0.0, "rental_uris": {"android": "https://dc.lft.to/lastmile_qr_scan", "ios": "https://dc.lft.to/lastmile_qr_scan"}, "is_reserved": 0, "is_disabled": 0, "type": "electric_scooter", "bike_id": "3dd4d844413bada814ca352914d5e08c"}, {"lon": -76.87496716666666, "lat": 38.990896166666666, "name": "d8cb7fdd2bac70f36920800602cd5fe8", "fusion_lat": 0.0, "fusion_lon": 0.0, "rental_uris": {"android": "https://dc.lft.to/lastmile_qr_scan", "ios": "https://dc.lft.to/lastmile_qr_scan"}, "is_reserved": 0, "is_disabled": 0, "type": "electric_bike", "bike_id": "d8cb7fdd2bac70f36920800602cd5fe8"}, {"lon": -77.03128916666667, "lat": 38.915548, "name": "64198e24fcac9f0b8498d469486ed845", "fusion_lat": 0.0, "fusion_lon": 0.0, "rental_uris": {"android": "https://dc.lft.to/lastmile_qr_scan", "ios": "https://dc.lft.to/lastmile_qr_scan"}, "is_reserved": 0, "is_disabled": 0, "type": "electric_scooter", "bike_id": "64198e24fcac9f0b8498d469486ed845"}, {"lon": -76.9962555, "lat": 38.88028116666667, "name": "54abeebb6c3753a83a202d0e77e1f2ff", "fusion_lat": 0.0, "fusion_lon": 0.0, "rental_uris": {"android": "https://dc.lft.to/lastmile_qr_scan", "ios": "https://dc.lft.to/lastmile_qr_scan"}, "is_reserved": 0, "is_disabled": 0, "type": "electric_scooter", "bike_id": "54abeebb6c3753a83a202d0e77e1f2ff"}, {"lon": -77.11217883333333, "lat": 38.82872316666667, "name": "0ca3c30f81e6103330573c1774dc5b7f", "fusion_lat": 0.0, "fusion_lon": 0.0, "rental_uris": {"android": "https://dc.lft.to/lastmile_qr_scan", "ios": "https://dc.lft.to/lastmile_qr_scan"}, "is_reserved": 0, "is_disabled": 0, "type": "electric_bike", "bike_id": "0ca3c30f81e6103330573c1774dc5b7f"}, {"lon": -77.1783435, "lat": 39.08854483333333, "name": "83301b50dbc42d1747376aa648603006", "fusion_lat": 0.0, "fusion_lon": 0.0, "rental_uris": {"android": "https://dc.lft.to/lastmile_qr_scan", "ios": "https://dc.lft.to/lastmile_qr_scan"}, "is_reserved": 0, "is_disabled": 0, "type": "electric_bike", "bike_id": "83301b50dbc42d1747376aa648603006"}, {"lon": -77.04306333333334, "lat": 39.054509, "name": "45a0a427ffb81e422114d1e1a7353548", "fusion_lat": 0.0, "fusion_lon": 0.0, "rental_uris": {"android": "https://dc.lft.to/lastmile_qr_scan", "ios": "https://dc.lft.to/lastmile_qr_scan"}, "is_reserved": 0, "is_disabled": 0, "type": "electric_bike", "bike_id": "45a0a427ffb81e422114d1e1a7353548"}, {"lon": -77.042033, "lat": 38.91414416666667, "name": "194560b92dbc1cfb5e91d7637d806f07", "fusion_lat": 0.0, "fusion_lon": 0.0, "rental_uris": {"android": "https://dc.lft.to/lastmile_qr_scan", "ios": "https://dc.lft.to/lastmile_qr_scan"}, "is_reserved": 0, "is_disabled": 0, "type": "electric_scooter", "bike_id": "194560b92dbc1cfb5e91d7637d806f07"}, {"lon": -77.02704916666667, "lat": 38.94997033333333, "name": "8aaf2da855a29649e5655783261380c0", "fusion_lat": 0.0, "fusion_lon": 0.0, "rental_uris": {"android": "https://dc.lft.to/lastmile_qr_scan", "ios": "https://dc.lft.to/lastmile_qr_scan"}, "is_reserved": 0, "is_disabled": 0, "type": "electric_scooter", "bike_id": "8aaf2da855a29649e5655783261380c0"}, {"lon": -77.00341366666666, "lat": 38.8946185, "name": "725590cd121507e9c7a6a9b9d5d99a21", "fusion_lat": 0.0, "fusion_lon": 0.0, "rental_uris": {"android": "https://dc.lft.to/lastmile_qr_scan", "ios": "https://dc.lft.to/lastmile_qr_scan"}, "is_reserved": 0, "is_disabled": 0, "type": "electric_scooter", "bike_id": "725590cd121507e9c7a6a9b9d5d99a21"}, {"lon": -77.0820885, "lat": 38.93552116666667, "name": "613676d781c8e6c8ef2fca7ae9cae550", "fusion_lat": 0.0, "fusion_lon": 0.0, "rental_uris": {"android": "https://dc.lft.to/lastmile_qr_scan", "ios": "https://dc.lft.to/lastmile_qr_scan"}, "is_reserved": 0, "is_disabled": 0, "type": "electric_scooter", "bike_id": "613676d781c8e6c8ef2fca7ae9cae550"}, {"lon": -77.03659483333334, "lat": 38.91723916666667, "name": "947ad971204ef1e8b879143c47c0d6d6", "fusion_lat": 0.0, "fusion_lon": 0.0, "rental_uris": {"android": "https://dc.lft.to/lastmile_qr_scan", "ios": "https://dc.lft.to/lastmile_qr_scan"}, "is_reserved": 0, "is_disabled": 0, "type": "electric_scooter", "bike_id": "947ad971204ef1e8b879143c47c0d6d6"}, {"lon": -77.04507566666666, "lat": 38.912772333333336, "name": "4e9d53ae4f896ef2eee57368121bda77", "fusion_lat": 0.0, "fusion_lon": 0.0, "rental_uris": {"android": "https://dc.lft.to/lastmile_qr_scan", "ios": "https://dc.lft.to/lastmile_qr_scan"}, "is_reserved": 0, "is_disabled": 0, "type": "electric_scooter", "bike_id": "4e9d53ae4f896ef2eee57368121bda77"}, {"lon": -77.084465, "lat": 38.911702166666664, "name": "9c740ad4c2c8c1321e6994e6cb4161da", "fusion_lat": 0.0, "fusion_lon": 0.0, "rental_uris": {"android": "https://dc.lft.to/lastmile_qr_scan", "ios": "https://dc.lft.to/lastmile_qr_scan"}, "is_reserved": 0, "is_disabled": 0, "type": "electric_scooter", "bike_id": "9c740ad4c2c8c1321e6994e6cb4161da"}, {"lon": -77.03869816666666, "lat": 38.921595833333335, "name": "c9e26976f25b61ff6c63ae1503c45bbb", "fusion_lat": 0.0, "fusion_lon": 0.0, "rental_uris": {"android": "https://dc.lft.to/lastmile_qr_scan", "ios": "https://dc.lft.to/lastmile_qr_scan"}, "is_reserved": 0, "is_disabled": 0, "type": "electric_scooter", "bike_id": "c9e26976f25b61ff6c63ae1503c45bbb"}, {"lon": -77.01298266666667, "lat": 38.930288, "name": "d1566fc5ed53410400b0076e4dcdb102", "fusion_lat": 0.0, "fusion_lon": 0.0, "rental_uris": {"android": "https://dc.lft.to/lastmile_qr_scan", "ios": "https://dc.lft.to/lastmile_qr_scan"}, "is_reserved": 0, "is_disabled": 0, "type": "electric_scooter", "bike_id": "d1566fc5ed53410400b0076e4dcdb102"}, {"lon": -77.026945, "lat": 38.9127305, "name": "e4c9e1d7ee4d7e87148cc63a70fcb5d5", "fusion_lat": 0.0, "fusion_lon": 0.0, "rental_uris": {"android": "https://dc.lft.to/lastmile_qr_scan", "ios": "https://dc.lft.to/lastmile_qr_scan"}, "is_reserved": 0, "is_disabled": 0, "type": "electric_scooter", "bike_id": "e4c9e1d7ee4d7e87148cc63a70fcb5d5"}, {"lon": -77.03634066666666, "lat": 38.91785766666667, "name": "0716a4a4c5af7ad2065c791da60f91d2", "fusion_lat": 0.0, "fusion_lon": 0.0, "rental_uris": {"android": "https://dc.lft.to/lastmile_qr_scan", "ios": "https://dc.lft.to/lastmile_qr_scan"}, "is_reserved": 0, "is_disabled": 0, "type": "electric_scooter", "bike_id": "0716a4a4c5af7ad2065c791da60f91d2"}, {"lon": -77.02405783333333, "lat": 38.911063666666664, "name": "db4b3b11adacf3ea0163010f4d0af7b3", "fusion_lat": 0.0, "fusion_lon": 0.0, "rental_uris": {"android": "https://dc.lft.to/lastmile_qr_scan", "ios": "https://dc.lft.to/lastmile_qr_scan"}, "is_reserved": 0, "is_disabled": 0, "type": "electric_scooter", "bike_id": "db4b3b11adacf3ea0163010f4d0af7b3"}, {"lon": -77.0137805, "lat": 38.92875683333333, "name": "fec63cea877414ecd3a17a40e967b48e", "fusion_lat": 0.0, "fusion_lon": 0.0, "rental_uris": {"android": "https://dc.lft.to/lastmile_qr_scan", "ios": "https://dc.lft.to/lastmile_qr_scan"}, "is_reserved": 0, "is_disabled": 0, "type": "electric_scooter", "bike_id": "fec63cea877414ecd3a17a40e967b48e"}, {"lon": -77.017003, "lat": 38.9201825, "name": "a56824ca451f2df1cecabf7956c4ca37", "fusion_lat": 0.0, "fusion_lon": 0.0, "rental_uris": {"android": "https://dc.lft.to/lastmile_qr_scan", "ios": "https://dc.lft.to/lastmile_qr_scan"}, "is_reserved": 0, "is_disabled": 0, "type": "electric_scooter", "bike_id": "a56824ca451f2df1cecabf7956c4ca37"}, {"lon": -77.001504, "lat": 38.90020283333333, "name": "827e0ec50cd82d45b400a17665887d1f", "fusion_lat": 0.0, "fusion_lon": 0.0, "rental_uris": {"android": "https://dc.lft.to/lastmile_qr_scan", "ios": "https://dc.lft.to/lastmile_qr_scan"}, "is_reserved": 0, "is_disabled": 0, "type": "electric_scooter", "bike_id": "827e0ec50cd82d45b400a17665887d1f"}, {"lon": -77.05004083333333, "lat": 38.89229516666666, "name": "7fa1cceca392d7370d43bcb5bb4152c8", "fusion_lat": 0.0, "fusion_lon": 0.0, "rental_uris": {"android": "https://dc.lft.to/lastmile_qr_scan", "ios": "https://dc.lft.to/lastmile_qr_scan"}, "is_reserved": 0, "is_disabled": 0, "type": "electric_scooter", "bike_id": "7fa1cceca392d7370d43bcb5bb4152c8"}, {"lon": -76.97436583333334, "lat": 38.8641495, "name": "2fbf0321e516a84fc9e35a94127e3cbf", "fusion_lat": 0.0, "fusion_lon": 0.0, "rental_uris": {"android": "https://dc.lft.to/lastmile_qr_scan", "ios": "https://dc.lft.to/lastmile_qr_scan"}, "is_reserved": 0, "is_disabled": 0, "type": "electric_scooter", "bike_id": "2fbf0321e516a84fc9e35a94127e3cbf"}, {"lon": -76.99841933333333, "lat": 38.888138, "name": "9826e9b62802197fc01cf95acbcc89e5", "fusion_lat": 0.0, "fusion_lon": 0.0, "rental_uris": {"android": "https://dc.lft.to/lastmile_qr_scan", "ios": "https://dc.lft.to/lastmile_qr_scan"}, "is_reserved": 0, "is_disabled": 0, "type": "electric_scooter", "bike_id": "9826e9b62802197fc01cf95acbcc89e5"}, {"lon": -77.0330605, "lat": 38.908719, "name": "fdce65bd85b6148b5abdd854e763524f", "fusion_lat": 0.0, "fusion_lon": 0.0, "rental_uris": {"android": "https://dc.lft.to/lastmile_qr_scan", "ios": "https://dc.lft.to/lastmile_qr_scan"}, "is_reserved": 0, "is_disabled": 0, "type": "electric_scooter", "bike_id": "fdce65bd85b6148b5abdd854e763524f"}, {"lon": -76.98573366666666, "lat": 38.899569166666666, "name": "9560942fdf67cf304860965127a39a61", "fusion_lat": 0.0, "fusion_lon": 0.0, "rental_uris": {"android": "https://dc.lft.to/lastmile_qr_scan", "ios": "https://dc.lft.to/lastmile_qr_scan"}, "is_reserved": 0, "is_disabled": 0, "type": "electric_scooter", "bike_id": "9560942fdf67cf304860965127a39a61"}, {"lon": -77.04143833333333, "lat": 38.922975, "name": "0c0846f27bad558566a1038fbb739e27", "fusion_lat": 0.0, "fusion_lon": 0.0, "rental_uris": {"android": "https://dc.lft.to/lastmile_qr_scan", "ios": "https://dc.lft.to/lastmile_qr_scan"}, "is_reserved": 0, "is_disabled": 0, "type": "electric_scooter", "bike_id": "0c0846f27bad558566a1038fbb739e27"}, {"lon": -77.015916, "lat": 38.918593666666666, "name": "116269dd58f59ed56b5a30288f040ce8", "fusion_lat": 0.0, "fusion_lon": 0.0, "rental_uris": {"android": "https://dc.lft.to/lastmile_qr_scan", "ios": "https://dc.lft.to/lastmile_qr_scan"}, "is_reserved": 0, "is_disabled": 0, "type": "electric_scooter", "bike_id": "116269dd58f59ed56b5a30288f040ce8"}, {"lon": -77.03740766666667, "lat": 38.9128485, "name": "076acdcac6790a675a8ab5cb0320fe00", "fusion_lat": 0.0, "fusion_lon": 0.0, "rental_uris": {"android": "https://dc.lft.to/lastmile_qr_scan", "ios": "https://dc.lft.to/lastmile_qr_scan"}, "is_reserved": 0, "is_disabled": 0, "type": "electric_scooter", "bike_id": "076acdcac6790a675a8ab5cb0320fe00"}, {"lon": -77.0278235, "lat": 38.93073016666666, "name": "1cc3bba904da9b617599232f85127157", "fusion_lat": 0.0, "fusion_lon": 0.0, "rental_uris": {"android": "https://dc.lft.to/lastmile_qr_scan", "ios": "https://dc.lft.to/lastmile_qr_scan"}, "is_reserved": 0, "is_disabled": 0, "type": "electric_scooter", "bike_id": "1cc3bba904da9b617599232f85127157"}, {"lon": -77.00113683333333, "lat": 38.90030633333333, "name": "c665323290204cce38f6fac808e70a57", "fusion_lat": 0.0, "fusion_lon": 0.0, "rental_uris": {"android": "https://dc.lft.to/lastmile_qr_scan", "ios": "https://dc.lft.to/lastmile_qr_scan"}, "is_reserved": 0, "is_disabled": 0, "type": "electric_scooter", "bike_id": "c665323290204cce38f6fac808e70a57"}, {"lon": -76.98820733333334, "lat": 38.90027516666667, "name": "bcfe8359474a7dfc1fe9a840e030d698", "fusion_lat": 0.0, "fusion_lon": 0.0, "rental_uris": {"android": "https://dc.lft.to/lastmile_qr_scan", "ios": "https://dc.lft.to/lastmile_qr_scan"}, "is_reserved": 0, "is_disabled": 0, "type": "electric_scooter", "bike_id": "bcfe8359474a7dfc1fe9a840e030d698"}, {"lon": -77.03346316666666, "lat": 38.8953175, "name": "9479e726d3ba2fcc65a1bc916611c398", "fusion_lat": 0.0, "fusion_lon": 0.0, "rental_uris": {"android": "https://dc.lft.to/lastmile_qr_scan", "ios": "https://dc.lft.to/lastmile_qr_scan"}, "is_reserved": 0, "is_disabled": 0, "type": "electric_scooter", "bike_id": "9479e726d3ba2fcc65a1bc916611c398"}, {"lon": -77.0372335, "lat": 38.920231, "name": "b421d2674fd44b3212a40c0c72846f17", "fusion_lat": 0.0, "fusion_lon": 0.0, "rental_uris": {"android": "https://dc.lft.to/lastmile_qr_scan", "ios": "https://dc.lft.to/lastmile_qr_scan"}, "is_reserved": 0, "is_disabled": 0, "type": "electric_scooter", "bike_id": "b421d2674fd44b3212a40c0c72846f17"}, {"lon": -77.07349866666667, "lat": 38.91103233333333, "name": "da70ac5e012a13bfa46afde6db02f2d5", "fusion_lat": 0.0, "fusion_lon": 0.0, "rental_uris": {"android": "https://dc.lft.to/lastmile_qr_scan", "ios": "https://dc.lft.to/lastmile_qr_scan"}, "is_reserved": 0, "is_disabled": 0, "type": "electric_scooter", "bike_id": "da70ac5e012a13bfa46afde6db02f2d5"}, {"lon": -77.05136016666667, "lat": 38.904274666666666, "name": "879e8d18cdf3769f5520e6bb5cd5b055", "fusion_lat": 0.0, "fusion_lon": 0.0, "rental_uris": {"android": "https://dc.lft.to/lastmile_qr_scan", "ios": "https://dc.lft.to/lastmile_qr_scan"}, "is_reserved": 0, "is_disabled": 0, "type": "electric_scooter", "bike_id": "879e8d18cdf3769f5520e6bb5cd5b055"}, {"lon": -77.00719916666667, "lat": 38.904664, "name": "7c8dc3424944cfb56a645080cf194294", "fusion_lat": 0.0, "fusion_lon": 0.0, "rental_uris": {"android": "https://dc.lft.to/lastmile_qr_scan", "ios": "https://dc.lft.to/lastmile_qr_scan"}, "is_reserved": 0, "is_disabled": 0, "type": "electric_scooter", "bike_id": "7c8dc3424944cfb56a645080cf194294"},