{"data": {"bikes": [{"name": "e023b9242dd53f4b81ffcde3b4abd259", "fusion_lon": 0.0, "lat": 38.90255883333333, "is_reserved": 0, "type": "electric_scooter", "bike_id": "e023b9242dd53f4b81ffcde3b4abd259", "is_disabled": 0, "rental_uris": {"android": "https://dc.lft.to/lastmile_qr_scan", "ios": "https://dc.lft.to/lastmile_qr_scan"}, "lon": -77.0175165, "fusion_lat": 0.0}, {"name": "0f1c33f4c1aeb8fe01e4996a5816ae95", "fusion_lon": 0.0, "lat": 38.88458216666667, "is_reserved": 0, "type": "electric_scooter", "bike_id": "0f1c33f4c1aeb8fe01e4996a5816ae95", "is_disabled": 0, "rental_uris": {"android": "https://dc.lft.to/lastmile_qr_scan", "ios": "https://dc.lft.to/lastmile_qr_scan"}, "lon": -76.92620066666667, "fusion_lat": 0.0}, {"name": "24852dfe556b3e1c98cd488b0bbd97e6", "fusion_lon": 0.0, "lat": 38.900205166666666, "is_reserved": 0, "type": "electric_scooter", "bike_id": "24852dfe556b3e1c98cd488b0bbd97e6", "is_disabled": 0, "rental_uris": {"android": "https://dc.lft.to/lastmile_qr_scan", "ios": "https://dc.lft.to/lastmile_qr_scan"}, "lon": -77.04503533333333, "fusion_lat": 0.0}, {"name": "d6535c8b5b3c3313deee79ae3a02d265", "fusion_lon": 0.0, "lat": 38.906082, "is_reserved": 0, "type": "electric_scooter", "bike_id": "d6535c8b5b3c3313deee79ae3a02d265", "is_disabled": 0, "rental_uris": {"android": "https://dc.lft.to/lastmile_qr_scan", "ios": "https://dc.lft.to/lastmile_qr_scan"}, "lon": -77.02106266666667, "fusion_lat": 0.0}, {"name": "620e0beb45f56a5e07896b024e67a346", "fusion_lon": 0.0, "lat": 38.90248066666667, "is_reserved": 0, "type": "electric_scooter", "bike_id": "620e0beb45f56a5e07896b024e67a346", "is_disabled": 0, "rental_uris": {"android": "https://dc.lft.to/lastmile_qr_scan", "ios": "https://dc.lft.to/lastmile_qr_scan"}, "lon": -77.00205183333334, "fusion_lat": 0.0}, {"name": "62f1a1c2338388ac83c52c043e833ff0", "fusion_lon": 0.0, "lat": 38.89234966666667, "is_reserved": 0, "type": "electric_scooter", "bike_id": "62f1a1c2338388ac83c52c043e833ff0", "is_disabled": 0, "rental_uris": {"android": "https://dc.lft.to/lastmile_qr_scan", "ios": "https://dc.lft.to/lastmile_qr_scan"}, "lon": -77.0320925, "fusion_lat": 0.0}, {"name": "5c0a348ca8b200134e54810142586a51", "fusion_lon": 0.0, "lat": 38.83838766666667, "is_reserved": 0, "type": "electric_bike", "bike_id": "5c0a348ca8b200134e54810142586a51", "is_disabled": 0, "rental_uris": {"android": "https://dc.lft.to/lastmile_qr_scan", "ios": "https://dc.lft.to/lastmile_qr_scan"}, "lon": -77.00238333333333, "fusion_lat": 0.0}, {"name": "9bfe7081354faa10104d6c3d84cc0d4d", "fusion_lon": 0.0, "lat": 38.910027666666664, "is_reserved": 0, "type": "electric_scooter", "bike_id": "9bfe7081354faa10104d6c3d84cc0d4d", "is_disabled": 0, "rental_uris": {"android": "https://dc.lft.to/lastmile_qr_scan", "ios": "https://dc.lft.to/lastmile_qr_scan"}, "lon": -77.043624, "fusion_lat": 0.0}, {"name": "0dc4b60c9fe5766c4c1cc3396cf0b2b6", "fusion_lon": 0.0, "lat": 38.90669616666667, "is_reserved": 0, "type": "electric_scooter", "bike_id": "0dc4b60c9fe5766c4c1cc3396cf0b2b6", "is_disabled": 0, "rental_uris": {"android": "https://dc.lft.to/lastmile_qr_scan", "ios": "https://dc.lft.to/lastmile_qr_scan"}, "lon": -77.03866733333334, "fusion_lat": 0.0}, {"name": "ed52c570f5f03a9efea9ece10f9ae028", "fusion_lon": 0.0, "lat": 38.9324395, "is_reserved": 0, "type": "electric_scooter", "bike_id": "ed52c570f5f03a9efea9ece10f9ae028", "is_disabled": 0, "rental_uris": {"android": "https://dc.lft.to/lastmile_qr_scan", "ios": "https://dc.lft.to/lastmile_qr_scan"}, "lon": -77.03853133333334, "fusion_lat": 0.0}, {"name": "80c527123e71baffa06d636ee99a21b6", "fusion_lon": 0.0, "lat": 38.89240866666667, "is_reserved": 0, "type": "electric_scooter", "bike_id": "80c527123e71baffa06d636ee99a21b6", "is_disabled": 0, "rental_uris": {"android": "https://dc.lft.to/lastmile_qr_scan", "ios": "https://dc.lft.to/lastmile_qr_scan"}, "lon": -77.00206866666667, "fusion_lat": 0.0}, {"name": "232f563c3cab8e1674e207a5b35ca178", "fusion_lon": 0.0, "lat": 38.917040166666666, "is_reserved": 0, "type": "electric_scooter", "bike_id": "232f563c3cab8e1674e207a5b35ca178", "is_disabled": 0, "rental_uris": {"android": "https://dc.lft.to/lastmile_qr_scan", "ios": "https://dc.lft.to/lastmile_qr_scan"}, "lon": -77.03763816666667, "fusion_lat": 0.0}, {"name": "53ece88a854a0461ed765adde778c005", "fusion_lon": 0.0, "lat": 38.908547166666665, "is_reserved": 0, "type": "electric_scooter", "bike_id": "53ece88a854a0461ed765adde778c005", "is_disabled": 0, "rental_uris": {"android": "https://dc.lft.to/lastmile_qr_scan", "ios": "https://dc.lft.to/lastmile_qr_scan"}, "lon": -77.02541566666666, "fusion_lat": 0.0}, {"name": "5651e351f7403a37d929b10fddb28269", "fusion_lon": 0.0, "lat": 38.911959833333334, "is_reserved": 0, "type": "electric_scooter", "bike_id": "5651e351f7403a37d929b10fddb28269", "is_disabled": 0, "rental_uris": {"android": "https://dc.lft.to/lastmile_qr_scan", "ios": "https://dc.lft.to/lastmile_qr_scan"}, "lon": -77.03831316666667, "fusion_lat": 0.0}, {"name": "4f1a76fcf5f1b35f3fd746d6d20d408b", "fusion_lon": 0.0, "lat": 38.9247435, "is_reserved": 0, "type": "electric_scooter", "bike_id": "4f1a76fcf5f1b35f3fd746d6d20d408b", "is_disabled": 0, "rental_uris": {"android": "https://dc.lft.to/lastmile_qr_scan", "ios": "https://dc.lft.to/lastmile_qr_scan"}, "lon": -77.0390885, "fusion_lat": 0.0}, {"name": "3da197b56f22d60c0d3bab86225d21e0", "fusion_lon": 0.0, "lat": 38.87086083333333, "is_reserved": 0, "type": "electric_scooter", "bike_id": "3da197b56f22d60c0d3bab86225d21e0", "is_disabled": 0, "rental_uris": {"android": "https://dc.lft.to/lastmile_qr_scan", "ios": "https://dc.lft.to/lastmile_qr_scan"}, "lon": -77.01353583333334, "fusion_lat": 0.0}, {"name": "ed2d1e628f61fcda380d82edd5681a05", "fusion_lon": 0.0, "lat": 38.9622385, "is_reserved": 0, "type": "electric_bike", "bike_id": "ed2d1e628f61fcda380d82edd5681a05", "is_disabled": 0, "rental_uris": {"android": "https://dc.lft.to/lastmile_qr_scan", "ios": "https://dc.lft.to/lastmile_qr_scan"}, "lon": -77.026253, "fusion_lat": 0.0}, {"name": "bd3115eb3d77e72d7fa5a097ea967754", "fusion_lon": 0.0, "lat": 38.90570783333333, "is_reserved": 0, "type": "electric_scooter", "bike_id": "bd3115eb3d77e72d7fa5a097ea967754", "is_disabled": 0, "rental_uris": {"android": "https://dc.lft.to/lastmile_qr_scan", "ios": "https://dc.lft.to/lastmile_qr_scan"}, "lon": -77.04137716666666, "fusion_lat": 0.0}, {"name": "d1bb4775e9d52fc8db1b13925f2a311d", "fusion_lon": 0.0, "lat": 38.920964833333336, "is_reserved": 0, "type": "electric_scooter", "bike_id": "d1bb4775e9d52fc8db1b13925f2a311d", "is_disabled": 0, "rental_uris": {"android": "https://dc.lft.to/lastmile_qr_scan", "ios": "https://dc.lft.to/lastmile_qr_scan"}, "lon": -77.02526866666666, "fusion_lat": 0.0}, {"name": "deabf5505230a2bc5c7b7cc585b41663", "fusion_lon": 0.0, "lat": 38.90076766666667, "is_reserved": 0, "type": "electric_scooter", "bike_id": "deabf5505230a2bc5c7b7cc585b41663", "is_disabled": 0, "rental_uris": {"android": "https://dc.lft.to/lastmile_qr_scan", "ios": "https://dc.lft.to/lastmile_qr_scan"}, "lon": -77.0307805, "fusion_lat": 0.0}, {"name": "f0169173bde860422a51ebad4068c6de", "fusion_lon": 0.0, "lat": 38.92456116666666, "is_reserved": 0, "type": "electric_bike", "bike_id": "f0169173bde860422a51ebad4068c6de", "is_disabled": 0, "rental_uris": {"android": "https://dc.lft.to/lastmile_qr_scan", "ios": "https://dc.lft.to/lastmile_qr_scan"}, "lon": -77.2256225, "fusion_lat": 0.0}, {"name": "cf3be12d037747e83005f30335113413", "fusion_lon": 0.0, "lat": 38.924975, "is_reserved": 0, "type": "electric_scooter", "bike_id": "cf3be12d037747e83005f30335113413", "is_disabled": 0, "rental_uris": {"android": "https://dc.lft.to/lastmile_qr_scan", "ios": "https://dc.lft.to/lastmile_qr_scan"}, "lon": -77.0524445, "fusion_lat": 0.0}, {"name": "c4f03d8c5aa9c00dafc7816f90760e13", "fusion_lon": 0.0, "lat": 38.9132195, "is_reserved": 0, "type": "electric_scooter", "bike_id": "c4f03d8c5aa9c00dafc7816f90760e13", "is_disabled": 0, "rental_uris": {"android": "https://dc.lft.to/lastmile_qr_scan", "ios": "https://dc.lft.to/lastmile_qr_scan"}, "lon": -76.98490016666666, "fusion_lat": 0.0}, {"name": "ce83b2877d78565dce7d6fd48d255ff5", "fusion_lon": 0.0, "lat": 38.837902166666666, "is_reserved": 0, "type": "electric_bike", "bike_id": "ce83b2877d78565dce7d6fd48d255ff5", "is_disabled": 0, "rental_uris": {"android": "https://dc.lft.to/lastmile_qr_scan", "ios": "https://dc.lft.to/lastmile_qr_scan"}, "lon": -76.9975205, "fusion_lat": 0.0}, {"name": "b144eafac7f7a877f08aea76ea7a428d", "fusion_lon": 0.0, "lat": 38.91563266666667, "is_reserved": 0, "type": "electric_scooter", "bike_id": "b144eafac7f7a877f08aea76ea7a428d", "is_disabled": 0, "rental_uris": {"android": "https://dc.lft.to/lastmile_qr_scan", "ios": "https://dc.lft.to/lastmile_qr_scan"}, "lon": -77.031692, "fusion_lat": 0.0}, {"name": "351f7e0004e412e4c9d4a0329f19b50b", "fusion_lon": 0.0, "lat": 38.874557333333335, "is_reserved": 0, "type": "electric_scooter", "bike_id": "351f7e0004e412e4c9d4a0329f19b50b", "is_disabled": 0, "rental_uris": {"android": "https://dc.lft.to/lastmile_qr_scan", "ios": "https://dc.lft.to/lastmile_qr_scan"}, "lon": -77.0035685, "fusion_lat": 0.0}, {"name": "6b1b67eb1809176ce75afe910b64f754", "fusion_lon": 0.0, "lat": 38.90830233333333, "is_reserved": 0, "type": "electric_scooter", "bike_id": "6b1b67eb1809176ce75afe910b64f754", "is_disabled": 0, "rental_uris": {"android": "https://dc.lft.to/lastmile_qr_scan", "ios": "https://dc.lft.to/lastmile_qr_scan"}, "lon": -77.04318983333333, "fusion_lat": 0.0}, {"name": "1fc12055f189be186c155835104b523e", "fusion_lon": 0.0, "lat": 38.88135, "is_reserved": 0, "type": "electric_scooter", "bike_id": "1fc12055f189be186c155835104b523e", "is_disabled": 0, "rental_uris": {"android": "https://dc.lft.to/lastmile_qr_scan", "ios": "https://dc.lft.to/lastmile_qr_scan"}, "lon": -77.01331266666666, "fusion_lat": 0.0}, {"name": "99e19ad0138959833e35d2d6f535455c", "fusion_lon": 0.0, "lat": 38.88743916666667, "is_reserved": 0, "type": "electric_scooter", "bike_id": "99e19ad0138959833e35d2d6f535455c", "is_disabled": 0, "rental_uris": {"android": "https://dc.lft.to/lastmile_qr_scan", "ios": "https://dc.lft.to/lastmile_qr_scan"}, "lon": -77.015335, "fusion_lat": 0.0}, {"name": "f938c4a69c00e106292658d6f265c09d", "fusion_lon": 0.0, "lat": 38.884365333333335, "is_reserved": 0, "type": "electric_scooter", "bike_id": "f938c4a69c00e106292658d6f265c09d", "is_disabled": 0, "rental_uris": {"android": "https://dc.lft.to/lastmile_qr_scan", "ios": "https://dc.lft.to/lastmile_qr_scan"}, "lon": -77.02962633333334, "fusion_lat": 0.0}, {"name": "3a4aad57226d1457ae76293ea2455da8", "fusion_lon": 0.0, "lat": 38.92349133333333, "is_reserved": 0, "type": "electric_scooter", "bike_id": "3a4aad57226d1457ae76293ea2455da8", "is_disabled": 0, "rental_uris": {"android": "https://dc.lft.to/lastmile_qr_scan", "ios": "https://dc.lft.to/lastmile_qr_scan"}, "lon": -77.05083883333333, "fusion_lat": 0.0}, {"name": "b6f3efc24c8b8321d3a068264f504503", "fusion_lon": 0.0, "lat": 38.983642833333334, "is_reserved": 0, "type": "electric_bike", "bike_id": "b6f3efc24c8b8321d3a068264f504503", "is_disabled": 0, "rental_uris": {"android": "https://dc.lft.to/lastmile_qr_scan", "ios": "https://dc.lft.to/lastmile_qr_scan"}, "lon": -76.972117, "fusion_lat": 0.0}, {"name": "45d22176fc7a998192d91b10aee1e2f2", "fusion_lon": 0.0, "lat": 38.924191666666665, "is_reserved": 0, "type": "electric_scooter", "bike_id": "45d22176fc7a998192d91b10aee1e2f2", "is_disabled": 0, "rental_uris": {"android": "https://dc.lft.to/lastmile_qr_scan", "ios": "https://dc.lft.to/lastmile_qr_scan"}, "lon": -77.05062433333333, "fusion_lat": 0.0}, {"name": "579e2e70796ac43f661bbee746d88bc6", "fusion_lon": 0.0, "lat": 38.862458833333335, "is_reserved": 0, "type": "electric_scooter", "bike_id": "579e2e70796ac43f661bbee746d88bc6", "is_disabled": 0, "rental_uris": {"android": "https://dc.lft.to/lastmile_qr_scan", "ios": "https://dc.lft.to/lastmile_qr_scan"}, "lon": -76.99492833333333, "fusion_lat": 0.0}, {"name": "ca9fa50526d9cd84fa2c0684ab302a79", "fusion_lon": 0.0, "lat": 38.9367715, "is_reserved": 0, "type": "electric_scooter", "bike_id": "ca9fa50526d9cd84fa2c0684ab302a79", "is_disabled": 0, "rental_uris": {"android": "https://dc.lft.to/lastmile_qr_scan", "ios": "https://dc.lft.to/lastmile_qr_scan"}, "lon": -77.0356455, "fusion_lat": 0.0}, {"name": "f3af49f61c2ba47ddb1acd2b502c0188", "fusion_lon": 0.0, "lat": 38.9023395, "is_reserved": 0, "type": "electric_scooter", "bike_id": "f3af49f61c2ba47ddb1acd2b502c0188", "is_disabled": 0, "rental_uris": {"android": "https://dc.lft.to/lastmile_qr_scan", "ios": "https://dc.lft.to/lastmile_qr_scan"}, "lon": -77.04435966666667, "fusion_lat": 0.0}, {"name": "5c63be675eb3b34c6635647a7c527222", "fusion_lon": 0.0, "lat": 38.957441, "is_reserved": 0, "type": "electric_scooter", "bike_id": "5c63be675eb3b34c6635647a7c527222", "is_disabled": 0, "rental_uris": {"android": "https://dc.lft.to/lastmile_qr_scan", "ios": "https://dc.lft.to/lastmile_qr_scan"}, "lon": -77.02066, "fusion_lat": 0.0}, {"name": "1d88ff6289156e5f487aaa95769b193a", "fusion_lon": 0.0, "lat": 38.831546833333334, "is_reserved": 0, "type": "electric_scooter", "bike_id": "1d88ff6289156e5f487aaa95769b193a", "is_disabled": 0, "rental_uris": {"android": "https://dc.lft.to/lastmile_qr_scan", "ios": "https://dc.lft.to/lastmile_qr_scan"}, "lon": -77.05127483333334, "fusion_lat": 0.0}, {"name": "03b5cdcd87a950f635d62ef4d56374ee", "fusion_lon": 0.0, "lat": 38.917468, "is_reserved": 0, "type": "electric_scooter", "bike_id": "03b5cdcd87a950f635d62ef4d56374ee", "is_disabled": 0, "rental_uris": {"android": "https://dc.lft.to/lastmile_qr_scan", "ios": "https://dc.lft.to/lastmile_qr_scan"}, "lon": -77.0146365, "fusion_lat": 0.0}, {"name": "9ba40f4b0f615b3efb410f714480d230", "fusion_lon": 0.0, "lat": 38.9182605, "is_reserved": 0, "type": "electric_scooter", "bike_id": "9ba40f4b0f615b3efb410f714480d230", "is_disabled": 0, "rental_uris": {"android": "https://dc.lft.to/lastmile_qr_scan", "ios": "https://dc.lft.to/lastmile_qr_scan"}, "lon": -77.02714166666667, "fusion_lat": 0.0}, {"name": "96753c64c6f1eb5269273311786e9fa0", "fusion_lon": 0.0, "lat": 38.897207, "is_reserved": 0, "type": "electric_scooter", "bike_id": "96753c64c6f1eb5269273311786e9fa0", "is_disabled": 0, "rental_uris": {"android": "https://dc.lft.to/lastmile_qr_scan", "ios": "https://dc.lft.to/lastmile_qr_scan"}, "lon": -76.973429, "fusion_lat": 0.0}, {"name": "20cff017428eff98ad0693e3cbce6d41", "fusion_lon": 0.0, "lat": 38.90759833333333, "is_reserved": 0, "type": "electric_scooter", "bike_id": "20cff017428eff98ad0693e3cbce6d41", "is_disabled": 0, "rental_uris": {"android": "https://dc.lft.to/lastmile_qr_scan", "ios": "https://dc.lft.to/lastmile_qr_scan"}, "lon": -77.0320395, "fusion_lat": 0.0}, {"name": "59e8faf9018701179bcd3df5691afa42", "fusion_lon": 0.0, "lat": 38.916395333333334, "is_reserved": 0, "type": "electric_scooter", "bike_id": "59e8faf9018701179bcd3df5691afa42", "is_disabled": 0, "rental_uris": {"android": "https://dc.lft.to/lastmile_qr_scan", "ios": "https://dc.lft.to/lastmile_qr_scan"}, "lon": -77.0398605, "fusion_lat": 0.0}, {"name": "c0b14801f4456555dae211598e5a8fe6", "fusion_lon": 0.0, "lat": 38.919364333333334, "is_reserved": 0, "type": "electric_scooter", "bike_id": "c0b14801f4456555dae211598e5a8fe6", "is_disabled": 0, "rental_uris": {"android": "https://dc.lft.to/lastmile_qr_scan", "ios": "https://dc.lft.to/lastmile_qr_scan"}, "lon": -77.03188583333333, "fusion_lat": 0.0}, {"name": "a25dcc2a0e84698cde830f1961e81a2e", "fusion_lon": 0.0, "lat": 38.936385, "is_reserved": 0, "type": "electric_scooter", "bike_id": "a25dcc2a0e84698cde830f1961e81a2e", "is_disabled": 0, "rental_uris": {"android": "https://dc.lft.to/lastmile_qr_scan", "ios": "https://dc.lft.to/lastmile_qr_scan"}, "lon": -77.05886116666667, "fusion_lat": 0.0}, {"name": "4d7076a2b8949f3478cc4b99a58a86c0", "fusion_lon": 0.0, "lat": 38.88267533333333, "is_reserved": 0, "type": "electric_scooter", "bike_id": "4d7076a2b8949f3478cc4b99a58a86c0", "is_disabled": 0, "rental_uris": {"android": "https://dc.lft.to/lastmile_qr_scan", "ios": "https://dc.lft.to/lastmile_qr_scan"}, "lon": -76.99253983333334, "fusion_lat": 0.0}, {"name": "a5fb09d352c6f0738877bb98f6dbe064", "fusion_lon": 0.0, "lat": 38.90550483333333, "is_reserved": 0, "type": "electric_scooter", "bike_id": "a5fb09d352c6f0738877bb98f6dbe064", "is_disabled": 0, "rental_uris": {"android": "https://dc.lft.to/lastmile_qr_scan", "ios": "https://dc.lft.to/lastmile_qr_scan"}, "lon": -77.00286066666666, "fusion_lat": 0.0}, {"name": "b32ad562a015c0acb7c85a18d7b1e1f6", "fusion_lon": 0.0, "lat": 38.91462516666667, "is_reserved": 0, "type": "electric_scooter", "bike_id": "b32ad562a015c0acb7c85a18d7b1e1f6", "is_disabled": 0, "rental_uris": {"android": "https://dc.lft.to/lastmile_qr_scan", "ios": "https://dc.lft.to/lastmile_qr_scan"}, "lon": -77.07129866666666, "fusion_lat": 0.0}, {"name": "2e475efd9ffe84798cb1a79fdbd211e2", "fusion_lon": 0.0, "lat": 38.905623, "is_reserved": 0, "type": "electric_scooter", "bike_id": "2e475efd9ffe84798cb1a79fdbd211e2", "is_disabled": 0, "rental_uris": {"android": "https://dc.lft.to/lastmile_qr_scan", "ios": "https://dc.lft.to/lastmile_qr_scan"}, "lon": -77.02507333333334, "fusion_lat": 0.0}, {"name": "0ada36167a754c5525bf9b661a217aa8", "fusion_lon": 0.0, "lat": 38.92405516666667, "is_reserved": 0, "type": "electric_scooter", "bike_id": "0ada36167a754c5525bf9b661a217aa8", "is_disabled": 0, "rental_uris": {"android": "https://dc.lft.to/lastmile_qr_scan", "ios": "https://dc.lft.to/lastmile_qr_scan"}, "lon": -77.05169216666667, "fusion_lat": 0.0}, {"name": "48b5636e90cfd78771fecfa37cb11bbb", "fusion_lon": 0.0, "lat": 38.908257, "is_reserved": 0, "type": "electric_scooter", "bike_id": "48b5636e90cfd78771fecfa37cb11bbb", "is_disabled": 0, "rental_uris": {"android": "https://dc.lft.to/lastmile_qr_scan", "ios": "https://dc.lft.to/lastmile_qr_scan"}, "lon": -77.0238115, "fusion_lat": 0.0}, {"name": "12550287f36da9a17991e9d591fb8d77", "fusion_lon": 0.0, "lat": 38.95627283333334, "is_reserved": 0, "type": "electric_bike", "bike_id": "12550287f36da9a17991e9d591fb8d77", "is_disabled": 0, "rental_uris": {"android": "https://dc.lft.to/lastmile_qr_scan", "ios": "https://dc.lft.to/lastmile_qr_scan"}, "lon": -76.93871233333333, "fusion_lat": 0.0}, {"name": "a80947d8132c63c15779c8866bf9e1d7", "fusion_lon": 0.0, "lat": 38.9843335, "is_reserved": 0, "type": "electric_scooter", "bike_id": "a80947d8132c63c15779c8866bf9e1d7", "is_disabled": 0, "rental_uris": {"android": "https://dc.lft.to/lastmile_qr_scan", "ios": "https://dc.lft.to/lastmile_qr_scan"}, "lon": -77.02673216666666, "fusion_lat": 0.0}, {"name": "75b217ad708e971539f41c2b6ab9af66", "fusion_lon": 0.0, "lat": 38.90399083333333, "is_reserved": 0, "type": "electric_scooter", "bike_id": "75b217ad708e971539f41c2b6ab9af66", "is_disabled": 0, "rental_uris": {"android": "https://dc.lft.to/lastmile_qr_scan", "ios": "https://dc.lft.to/lastmile_qr_scan"}, "lon": -77.01741233333334, "fusion_lat": 0.0}, {"name": "e28b076e3476fcf5e99d7ece7fb86d42", "fusion_lon": 0.0, "lat": 38.89486466666666, "is_reserved": 0, "type": "electric_scooter", "bike_id": "e28b076e3476fcf5e99d7ece7fb86d42", "is_disabled": 0, "rental_uris": {"android": "https://dc.lft.to/lastmile_qr_scan", "ios": "https://dc.lft.to/lastmile_qr_scan"}, "lon": -77.04654533333333, "fusion_lat": 0.0}, {"name": "cd829f41e9f769759aa5ab551f4fd16e", "fusion_lon": 0.0, "lat": 38.892230166666664, "is_reserved": 0, "type": "electric_scooter", "bike_id": "cd829f41e9f769759aa5ab551f4fd16e", "is_disabled": 0, "rental_uris": {"android": "https://dc.lft.to/lastmile_qr_scan", "ios": "https://dc.lft.to/lastmile_qr_scan"}, "lon": -77.04869683333334, "fusion_lat": 0.0}, {"name": "5a3dd11c4f1236514901df22a59c54d9", "fusion_lon": 0.0, "lat": 38.901071333333334, "is_reserved": 0, "type": "electric_scooter", "bike_id": "5a3dd11c4f1236514901df22a59c54d9", "is_disabled": 0, "rental_uris": {"android": "https://dc.lft.to/lastmile_qr_scan", "ios": "https://dc.lft.to/lastmile_qr_scan"}, "lon": -77.00653733333333, "fusion_lat": 0.0}, {"name": "27569f813adf4075412e80305fe8843f", "fusion_lon": 0.0, "lat": 38.89244433333333, "is_reserved": 0, "type": "electric_scooter", "bike_id": "27569f813adf4075412e80305fe8843f", "is_disabled": 0, "rental_uris": {"android": "https://dc.lft.to/lastmile_qr_scan", "ios": "https://dc.lft.to/lastmile_qr_scan"}, "lon": -77.024111, "fusion_lat": 0.0}, {"name": "cb11311f583eb04b51a11ac8ed8a92c0", "fusion_lon": 0.0, "lat": 38.878376333333335, "is_reserved": 0, "type": "electric_scooter", "bike_id": "cb11311f583eb04b51a11ac8ed8a92c0", "is_disabled": 0, "rental_uris": {"android": "https://dc.lft.to/lastmile_qr_scan", "ios": "https://dc.lft.to/lastmile_qr_scan"}, "lon": -77.01597933333333, "fusion_lat": 0.0}, {"name": "f3b0fb622355529e0cc613d8f2dfd07b", "fusion_lon": 0.0, "lat": 38.917352, "is_reserved": 0, "type": "electric_scooter", "bike_id": "f3b0fb622355529e0cc613d8f2dfd07b", "is_disabled": 0, "rental_uris": {"android": "https://dc.lft.to/lastmile_qr_scan", "ios": "https://dc.lft.to/lastmile_qr_scan"}, "lon": -77.03212916666666, "fusion_lat": 0.0}, {"name": "4c7ed9735fea50a7453b1256cd898c5b", "fusion_lon": 0.0, "lat": 38.9076355, "is_reserved": 0, "type": "electric_scooter", "bike_id": "4c7ed9735fea50a7453b1256cd898c5b", "is_disabled": 0, "rental_uris": {"android": "https://dc.lft.to/lastmile_qr_scan", "ios": "https://dc.lft.to/lastmile_qr_scan"}, "lon": -77.0260605, "fusion_lat": 0.0}, {"name": "5a7e40d87a6f34b6b06b7494e3ef4ed4", "fusion_lon": 0.0, "lat": 38.920354, "is_reserved": 0, "type": "electric_scooter", "bike_id": "5a7e40d87a6f34b6b06b7494e3ef4ed4", "is_disabled": 0, "rental_uris": {"android": "https://dc.lft.to/lastmile_qr_scan", "ios": "https://dc.lft.to/lastmile_qr_scan"}, "lon": -77.02586066666667, "fusion_lat": 0.0}, {"name": "114212ec4ae582d0186d2918ffed7b21", "fusion_lon": 0.0, "lat": 38.90241666666667, "is_reserved": 0, "type": "electric_scooter", "bike_id": "114212ec4ae582d0186d2918ffed7b21", "is_disabled": 0, "rental_uris": {"android": "https://dc.lft.to/lastmile_qr_scan", "ios": "https://dc.lft.to/lastmile_qr_scan"}, "lon": -77.04850333333333, "fusion_lat": 0.0}, {"name": "e1dc629ca79d0a19728a3c4dd7973b8f", "fusion_lon": 0.0, "lat": 38.893011, "is_reserved": 0, "type": "electric_scooter", "bike_id": "e1dc629ca79d0a19728a3c4dd7973b8f", "is_disabled": 0, "rental_uris": {"android": "https://dc.lft.to/lastmile_qr_scan", "ios": "https://dc.lft.to/lastmile_qr_scan"}, "lon": -76.93928116666666, "fusion_lat": 0.0}, {"name": "d2a641441033df6da0d2df2f1b849094", "fusion_lon": 0.0, "lat": 38.903847, "is_reserved": 0, "type": "electric_scooter", "bike_id": "d2a641441033df6da0d2df2f1b849094", "is_disabled": 0, "rental_uris": {"android": "https://dc.lft.to/lastmile_qr_scan", "ios": "https://dc.lft.to/lastmile_qr_scan"}, "lon": -77.02619616666667, "fusion_lat": 0.0}, {"name": "f527b8480379e1b361ce80616216beae", "fusion_lon": 0.0, "lat": 38.8723305, "is_reserved": 0, "type": "electric_scooter", "bike_id": "f527b8480379e1b361ce80616216beae", "is_disabled": 0, "rental_uris": {"android": "https://dc.lft.to/lastmile_qr_scan", "ios": "https://dc.lft.to/lastmile_qr_scan"}, "lon": -77.01182933333334, "fusion_lat": 0.0}, {"name": "bdaf7605a10cab5d7965eabbbebfe88f", "fusion_lon": 0.0, "lat": 38.92156766666667, "is_reserved": 0, "type": "electric_scooter", "bike_id": "bdaf7605a10cab5d7965eabbbebfe88f", "is_disabled": 0, "rental_uris": {"android": "https://dc.lft.to/lastmile_qr_scan", "ios": "https://dc.lft.to/lastmile_qr_scan"}, "lon": -77.034631, "fusion_lat": 0.0}, {"name": "9b0f702b418f107bab0b935ae99cba4f", "fusion_lon": 0.0, "lat": 38.928803, "is_reserved": 0, "type": "electric_scooter", "bike_id": "9b0f702b418f107bab0b935ae99cba4f", "is_disabled": 0, "rental_uris": {"android": "https://dc.lft.to/lastmile_qr_scan", "ios": "https://dc.lft.to/lastmile_qr_scan"}, "lon": -77.04229966666666, "fusion_lat": 0.0}, {"name": "051012834e29813d7182cb506b15f567", "fusion_lon": 0.0, "lat": 38.90260333333333, "is_reserved": 0, "type": "electric_scooter", "bike_id": "051012834e29813d7182cb506b15f567", "is_disabled": 0, "rental_uris": {"android": "https://dc.lft.to/lastmile_qr_scan", "ios": "https://dc.lft.to/lastmile_qr_scan"}, "lon": -77.017611, "fusion_lat": 0.0}, {"name": "3ed42f88eb38c064c6f955a8627f0549", "fusion_lon": 0.0, "lat": 38.89896983333333, "is_reserved": 0, "type": "electric_scooter", "bike_id": "3ed42f88eb38c064c6f955a8627f0549", "is_disabled": 0, "rental_uris": {"android": "https://dc.lft.to/lastmile_qr_scan", "ios": "https://dc.lft.to/lastmile_qr_scan"}, "lon": -77.03285216666667, "fusion_lat": 0.0}, {"name": "383b494885e63e6e2268146c21f210f9", "fusion_lon": 0.0, "lat": 38.90026, "is_reserved": 0, "type": "electric_scooter", "bike_id": "383b494885e63e6e2268146c21f210f9", "is_disabled": 0, "rental_uris": {"android": "https://dc.lft.to/lastmile_qr_scan", "ios": "https://dc.lft.to/lastmile_qr_scan"}, "lon": -77.00140316666666, "fusion_lat": 0.0}, {"name": "fa058f821e26e28211c67d28af98f288", "fusion_lon": 0.0, "lat": 38.918436, "is_reserved": 0, "type": "electric_scooter", "bike_id": "fa058f821e26e28211c67d28af98f288", "is_disabled": 0, "rental_uris": {"android": "https://dc.lft.to/lastmile_qr_scan", "ios": "https://dc.lft.to/lastmile_qr_scan"}, "lon": -77.02304916666667, "fusion_lat": 0.0}, {"name": "78f7283858005d688a4d321f452e43a7", "fusion_lon": 0.0, "lat": 38.90058416666667, "is_reserved": 0, "type": "electric_scooter", "bike_id": "78f7283858005d688a4d321f452e43a7", "is_disabled": 0, "rental_uris": {"android": "https://dc.lft.to/lastmile_qr_scan", "ios": "https://dc.lft.to/lastmile_qr_scan"}, "lon": -77.02172483333334, "fusion_lat": 0.0}, {"name": "3d200f6515b8a5a8d7e2e27591f24b8f", "fusion_lon": 0.0, "lat": 38.873498, "is_reserved": 0, "type": "electric_scooter", "bike_id": "3d200f6515b8a5a8d7e2e27591f24b8f", "is_disabled": 0, "rental_uris": {"android": "https://dc.lft.to/lastmile_qr_scan", "ios": "https://dc.lft.to/lastmile_qr_scan"}, "lon": -77.00259733333333, "fusion_lat": 0.0}, {"name": "792e5e47170f27a5f1fe601015a0030d", "fusion_lon": 0.0, "lat": 38.90099216666667, "is_reserved": 0, "type": "electric_scooter", "bike_id": "792e5e47170f27a5f1fe601015a0030d", "is_disabled": 0, "rental_uris": {"android": "https://dc.lft.to/lastmile_qr_scan", "ios": "https://dc.lft.to/lastmile_qr_scan"}, "lon": -77.01215883333333, "fusion_lat": 0.0}, {"name": "c84e14f4c9f523ce50722f2ce55f4cc7", "fusion_lon": 0.0, "lat": 38.94823933333333, "is_reserved": 0, "type": "electric_scooter", "bike_id": "c84e14f4c9f523ce50722f2ce55f4cc7", "is_disabled": 0, "rental_uris": {"android": "https://dc.lft.to/lastmile_qr_scan", "ios": "https://dc.lft.to/lastmile_qr_scan"}, "lon": -77.0788515, "fusion_lat": 0.0}, {"name": "603c9dde297d28d453f735348da6ccb1", "fusion_lon": 0.0, "lat": 38.905886, "is_reserved": 0, "type": "electric_scooter", "bike_id": "603c9dde297d28d453f735348da6ccb1", "is_disabled": 0, "rental_uris": {"android": "https://dc.lft.to/lastmile_qr_scan", "ios": "https://dc.lft.to/lastmile_qr_scan"}, "lon": -77.039739, "fusion_lat": 0.0}, {"name": "2e0ab4048e84df18256e6299749bb096", "fusion_lon": 0.0, "lat": 38.86084833333334, "is_reserved": 0, "type": "electric_scooter", "bike_id": "2e0ab4048e84df18256e6299749bb096", "is_disabled": 0, "rental_uris": {"android": "https://dc.lft.to/lastmile_qr_scan", "ios": "https://dc.lft.to/lastmile_qr_scan"}, "lon": -76.9687405, "fusion_lat": 0.0}, {"name": "f71cea47f74bc878a202a1b033775ad5", "fusion_lon": 0.0, "lat": 38.90470216666667, "is_reserved": 0, "type": "electric_scooter", "bike_id": "f71cea47f74bc878a202a1b033775ad5", "is_disabled": 0, "rental_uris": {"android": "https://dc.lft.to/lastmile_qr_scan", "ios": "https://dc.lft.to/lastmile_qr_scan"}, "lon": -77.05339783333334, "fusion_lat": 0.0}, {"name": "c286f0806f1637c0dabc32eba7c921bc", "fusion_lon": 0.0, "lat": 38.92194216666667, "is_reserved": 0, "type": "electric_scooter", "bike_id": "c286f0806f1637c0dabc32eba7c921bc", "is_disabled": 0, "rental_uris": {"android": "https://dc.lft.to/lastmile_qr_scan", "ios": "https://dc.lft.to/lastmile_qr_scan"}, "lon": -77.024163, "fusion_lat": 0.0}, {"name": "beb3c0ad6826d4e80737c52996626e19", "fusion_lon": 0.0, "lat": 38.875736833333335, "is_reserved": 0, "type": "electric_scooter", "bike_id": "beb3c0ad6826d4e80737c52996626e19", "is_disabled": 0, "rental_uris": {"android": "https://dc.lft.to/lastmile_qr_scan", "ios": "https://dc.lft.to/lastmile_qr_scan"}, "lon": -77.00578333333333, "fusion_lat": 0.0}, {"name": "e83cdbef8b73f5dc89192fe5550d5522", "fusion_lon": 0.0, "lat": 38.92384916666666, "is_reserved": 0, "type": "electric_scooter", "bike_id": "e83cdbef8b73f5dc89192fe5550d5522", "is_disabled": 0, "rental_uris": {"android": "https://dc.lft.to/lastmile_qr_scan", "ios": "https://dc.lft.to/lastmile_qr_scan"}, "lon": -77.0518525, "fusion_lat": 0.0}, {"name": "b606e47d3215c6efae0ef0d16e05a055", "fusion_lon": 0.0, "lat": 38.874736666666664, "is_reserved": 0, "type": "electric_scooter", "bike_id": "b606e47d3215c6efae0ef0d16e05a055", "is_disabled": 0, "rental_uris": {"android": "https://dc.lft.to/lastmile_qr_scan", "ios": "https://dc.lft.to/lastmile_qr_scan"}, "lon": -77.01589233333333, "fusion_lat": 0.0}, {"name": "bf4f3b05e5d5740a0bbc6a70ed3b71cb", "fusion_lon": 0.0, "lat": 38.90973483333333, "is_reserved": 0, "type": "electric_scooter", "bike_id": "bf4f3b05e5d5740a0bbc6a70ed3b71cb", "is_disabled": 0, "rental_uris": {"android": "https://dc.lft.to/lastmile_qr_scan", "ios": "https://dc.lft.to/lastmile_qr_scan"}, "lon": -77.04235266666667, "fusion_lat": 0.0}, {"name": "e10ca62af0de913da364801b68266541", "fusion_lon": 0.0, "lat": 38.9010255, "is_reserved": 0, "type": "electric_scooter", "bike_id": "e10ca62af0de913da364801b68266541", "is_disabled": 0, "rental_uris": {"android": "https://dc.lft.to/lastmile_qr_scan", "ios": "https://dc.lft.to/lastmile_qr_scan"}, "lon": -77.04756683333333, "fusion_lat": 0.0}, {"name": "d8bc5a08fd71b5a490518d58f0c0fe08", "fusion_lon": 0.0, "lat": 38.91692666666667, "is_reserved": 0, "type": "electric_scooter", "bike_id": "d8bc5a08fd71b5a490518d58f0c0fe08", "is_disabled": 0, "rental_uris": {"android": "https://dc.lft.to/lastmile_qr_scan", "ios": "https://dc.lft.to/lastmile_qr_scan"}, "lon": -77.0235685, "fusion_lat": 0.0}, {"name": "5f6b0921ab3ead1cd0ac0f770d3aa20a", "fusion_lon": 0.0, "lat": 38.9234025, "is_reserved": 0, "type": "electric_scooter", "bike_id": "5f6b0921ab3ead1cd0ac0f770d3aa20a", "is_disabled": 0, "rental_uris": {"android": "https://dc.lft.to/lastmile_qr_scan", "ios": "https://dc.lft.to/lastmile_qr_scan"}, "lon": -77.05078583333334, "fusion_lat": 0.0}, {"name": "e9e529e16fb9621632c078aae7538843", "fusion_lon": 0.0, "lat": 39.01373066666667, "is_reserved": 0, "type": "electric_bike", "bike_id": "e9e529e16fb9621632c078aae7538843", "is_disabled": 0, "rental_uris": {"android": "https://dc.lft.to/lastmile_qr_scan", "ios": "https://dc.lft.to/lastmile_qr_scan"}, "lon": -76.92134916666667, "fusion_lat": 0.0}, {"name": "857923073cb372c0b834078afd3a680d", "fusion_lon": 0.0, "lat": 38.919075, "is_reserved": 0, "type": "electric_scooter", "bike_id": "857923073cb372c0b834078afd3a680d", "is_disabled": 0, "rental_uris": {"android": "https://dc.lft.to/lastmile_qr_scan", "ios": "https://dc.lft.to/lastmile_qr_scan"}, "lon": -77.0213345, "fusion_lat": 0.0}, {"name": "a1fc2c44d3b55570f0559872da808876", "fusion_lon": 0.0, "lat": 38.89225066666667, "is_reserved": 0, "type": "electric_scooter", "bike_id": "a1fc2c44d3b55570f0559872da808876", "is_disabled": 0, "rental_uris": {"android": "https://dc.lft.to/lastmile_qr_scan", "ios": "https://dc.lft.to/lastmile_qr_scan"}, "lon": -77.04802816666667, "fusion_lat": 0.0}, {"name": "00680ecbd946d87c06bcbd624a2be6ed", "fusion_lon": 0.0, "lat": 38.8966095, "is_reserved": 0, "type": "electric_scooter", "bike_id": "00680ecbd946d87c06bcbd624a2be6ed", "is_disabled": 0, "rental_uris": {"android": "https://dc.lft.to/lastmile_qr_scan", "ios": "https://dc.lft.to/lastmile_qr_scan"}, "lon": -77.0271905, "fusion_lat": 0.0}, {"name": "c60bbdced3e50d96eb0dcca0cc4e73bb", "fusion_lon": 0.0, "lat": 38.917789166666665, "is_reserved": 0, "type": "electric_scooter", "bike_id": "c60bbdced3e50d96eb0dcca0cc4e73bb", "is_disabled": 0, "rental_uris": {"android": "https://dc.lft.to/lastmile_qr_scan", "ios": "https://dc.lft.to/lastmile_qr_scan"}, "lon": -77.01796116666667, "fusion_lat": 0.0}, {"name": "3bff519c0c23e721514a87cb01c0e262", "fusion_lon": 0.0, "lat": 38.923191, "is_reserved": 0, "type": "electric_scooter", "bike_id": "3bff519c0c23e721514a87cb01c0e262", "is_disabled": 0, "rental_uris": {"android": "https://dc.lft.to/lastmile_qr_scan", "ios": "https://dc.lft.to/lastmile_qr_scan"}, "lon": -77.041776, "fusion_lat": 0.0}, {"name": "da3a9b0311772ededb3a4a21b0b8d129", "fusion_lon": 0.0, "lat": 38.9428315, "is_reserved": 0, "type": "electric_bike", "bike_id": "da3a9b0311772ededb3a4a21b0b8d129", "is_disabled": 0, "rental_uris": {"android": "https://dc.lft.to/lastmile_qr_scan", "ios": "https://dc.lft.to/lastmile_qr_scan"}, "lon": -76.98786866666667, "fusion_lat": 0.0}, {"name": "508c537d8c33cc97a7d00dc457484845", "fusion_lon": 0.0, "lat": 38.88247766666667, "is_reserved": 0, "type": "electric_scooter", "bike_id": "508c537d8c33cc97a7d00dc457484845", "is_disabled": 0, "rental_uris": {"android": "https://dc.lft.to/lastmile_qr_scan", "ios": "https://dc.lft.to/lastmile_qr_scan"}, "lon": -77.00871683333334, "fusion_lat": 0.0}, {"name": "b32b91ba0344b1b83b9189eb1e3e9dc7", "fusion_lon": 0.0, "lat": 38.9196835, "is_reserved": 0, "type": "electric_scooter", "bike_id": "b32b91ba0344b1b83b9189eb1e3e9dc7", "is_disabled": 0, "rental_uris": {"android": "https://dc.lft.to/lastmile_qr_scan", "ios": "https://dc.lft.to/lastmile_qr_scan"}, "lon": -77.03853783333334, "fusion_lat": 0.0}, {"name": "c6a891f0ad7324929c9ba351e671b195", "fusion_lon": 0.0, "lat": 38.88874466666667, "is_reserved": 0, "type": "electric_scooter", "bike_id": "c6a891f0ad7324929c9ba351e671b195", "is_disabled": 0, "rental_uris": {"android": "https://dc.lft.to/lastmile_qr_scan", "ios": "https://dc.lft.to/lastmile_qr_scan"}, "lon": -76.99030733333333, "fusion_lat": 0.0}, {"name": "91e04df2554e7045211b46aa26cdc561", "fusion_lon": 0.0, "lat": 38.925147833333334, "is_reserved": 0, "type": "electric_scooter", "bike_id": "91e04df2554e7045211b46aa26cdc561", "is_disabled": 0, "rental_uris": {"android": "https://dc.lft.to/lastmile_qr_scan", "ios": "https://dc.lft.to/lastmile_qr_scan"}, "lon": -77.05255566666666, "fusion_lat": 0.0}, {"name": "6ef89a10b92e3914297f233d3be3f673", "fusion_lon": 0.0, "lat": 38.9181905, "is_reserved": 0, "type": "electric_scooter", "bike_id": "6ef89a10b92e3914297f233d3be3f673", "is_disabled": 0, "rental_uris": {"android": "https://dc.lft.to/lastmile_qr_scan", "ios": "https://dc.lft.to/lastmile_qr_scan"}, "lon": -77.0249385, "fusion_lat": 0.0}, {"name": "cabdaadeac4b7d91cf318ab28d164a2a", "fusion_lon": 0.0, "lat": 38.9071485, "is_reserved": 0, "type": "electric_scooter", "bike_id": "cabdaadeac4b7d91cf318ab28d164a2a", "is_disabled": 0, "rental_uris": {"android": "https://dc.lft.to/lastmile_qr_scan", "ios": "https://dc.lft.to/lastmile_qr_scan"}, "lon": -77.01014133333334, "fusion_lat": 0.0}, {"name": "332597064a65a1cff925b9bcedae1576", "fusion_lon": 0.0, "lat": 38.92818316666666, "is_reserved": 0, "type": "electric_scooter", "bike_id": "332597064a65a1cff925b9bcedae1576", "is_disabled": 0, "rental_uris": {"android": "https://dc.lft.to/lastmile_qr_scan", "ios": "https://dc.lft.to/lastmile_qr_scan"}, "lon": -77.01403916666666, "fusion_lat": 0.0}, {"name": "db617561212a333551b2d20e3c0e8fd7", "fusion_lon": 0.0, "lat": 38.91924016666667, "is_reserved": 0, "type": "electric_scooter", "bike_id": "db617561212a333551b2d20e3c0e8fd7", "is_disabled": 0, "rental_uris": {"android": "https://dc.lft.to/lastmile_qr_scan", "ios": "https://dc.lft.to/lastmile_qr_scan"}, "lon": -77.02510766666667, "fusion_lat": 0.0}, {"name": "cadc63c6c4256c678da1c5cf3a4f39b7", "fusion_lon": 0.0, "lat": 38.903595833333334, "is_reserved": 0, "type": "electric_scooter", "bike_id": "cadc63c6c4256c678da1c5cf3a4f39b7", "is_disabled": 0, "rental_uris": {"android": "https://dc.lft.to/lastmile_qr_scan", "ios": "https://dc.lft.to/lastmile_qr_scan"}, "lon": -76.97481916666666, "fusion_lat": 0.0}, {"name": "43ae2c864e8a1a5ea2019681a4e88f65", "fusion_lon": 0.0, "lat": 38.921221833333334, "is_reserved": 0, "type": "electric_scooter", "bike_id": "43ae2c864e8a1a5ea2019681a4e88f65", "is_disabled": 0, "rental_uris": {"android": "https://dc.lft.to/lastmile_qr_scan", "ios": "https://dc.lft.to/lastmile_qr_scan"}, "lon": -77.04577766666667, "fusion_lat": 0.0}, {"name": "60af4b7ca8253bfde4f458c0e63df6c6", "fusion_lon": 0.0, "lat": 38.900528333333334, "is_reserved": 0, "type": "electric_scooter", "bike_id": "60af4b7ca8253bfde4f458c0e63df6c6", "is_disabled": 0, "rental_uris": {"android": "https://dc.lft.to/lastmile_qr_scan", "ios": "https://dc.lft.to/lastmile_qr_scan"}, "lon": -77.02911333333333, "fusion_lat": 0.0}, {"name": "3de64d5bdf0c9aff892b2041155d0568", "fusion_lon": 0.0, "lat": 38.905741166666665, "is_reserved": 0, "type": "electric_scooter", "bike_id": "3de64d5bdf0c9aff892b2041155d0568", "is_disabled": 0, "rental_uris": {"android": "https://dc.lft.to/lastmile_qr_scan", "ios": "https://dc.lft.to/lastmile_qr_scan"}, "lon": -77.04348283333333, "fusion_lat": 0.0}, {"name": "90b379dc9b306b209d14583a343514e4", "fusion_lon": 0.0, "lat": 38.909745, "is_reserved": 0, "type": "electric_scooter", "bike_id": "90b379dc9b306b209d14583a343514e4", "is_disabled": 0, "rental_uris": {"android": "https://dc.lft.to/lastmile_qr_scan", "ios": "https://dc.lft.to/lastmile_qr_scan"}, "lon": -77.034408, "fusion_lat": 0.0}, {"name": "2d1addcd0efc425077abe8a32bdbdd7e", "fusion_lon": 0.0, "lat": 38.9370805, "is_reserved": 0, "type": "electric_scooter", "bike_id": "2d1addcd0efc425077abe8a32bdbdd7e", "is_disabled": 0, "rental_uris": {"android": "https://dc.lft.to/lastmile_qr_scan", "ios": "https://dc.lft.to/lastmile_qr_scan"}, "lon": -77.06103733333333, "fusion_lat": 0.0}, {"name": "2b14033f6b172bbfb58efcfb2abc8edb", "fusion_lon": 0.0, "lat": 38.915752499999996, "is_reserved": 0, "type": "electric_scooter", "bike_id": "2b14033f6b172bbfb58efcfb2abc8edb", "is_disabled": 0, "rental_uris": {"android": "https://dc.lft.to/lastmile_qr_scan", "ios": "https://dc.lft.to/lastmile_qr_scan"}, "lon": -77.012492, "fusion_lat": 0.0}, {"name": "9833ebebadfad6654b6249c9b278aeb3", "fusion_lon": 0.0, "lat": 38.90686, "is_reserved": 0, "type": "electric_scooter", "bike_id": "9833ebebadfad6654b6249c9b278aeb3", "is_disabled": 0, "rental_uris": {"android": "https://dc.lft.to/lastmile_qr_scan", "ios": "https://dc.lft.to/lastmile_qr_scan"}, "lon": -77.07179183333334, "fusion_lat": 0.0}, {"name": "5538aa5c23ba7815216750e9db695e70", "fusion_lon": 0.0, "lat": 38.892246166666666, "is_reserved": 0, "type": "electric_scooter", "bike_id": "5538aa5c23ba7815216750e9db695e70", "is_disabled": 0, "rental_uris": {"android": "https://dc.lft.to/lastmile_qr_scan", "ios": "https://dc.lft.to/lastmile_qr_scan"}, "lon": -77.04685933333333, "fusion_lat": 0.0}, {"name": "dc07e85f67f36a11b9c4781a8baf1caa", "fusion_lon": 0.0, "lat": 38.91188116666667, "is_reserved": 0, "type": "electric_scooter", "bike_id": "dc07e85f67f36a11b9c4781a8baf1caa", "is_disabled": 0, "rental_uris": {"android": "https://dc.lft.to/lastmile_qr_scan", "ios": "https://dc.lft.to/lastmile_qr_scan"}, "lon": -77.0349885, "fusion_lat": 0.0}, {"name": "7c5879841447593c4e2b720d8a9e568c", "fusion_lon": 0.0, "lat": 38.90575333333334, "is_reserved": 0, "type": "electric_scooter", "bike_id": "7c5879841447593c4e2b720d8a9e568c", "is_disabled": 0, "rental_uris": {"android": "https://dc.lft.to/lastmile_qr_scan", "ios": "https://dc.lft.to/lastmile_qr_scan"}, "lon": -77.0345945, "fusion_lat": 0.0}, {"name": "244794961f64f6417e58252b686503ef", "fusion_lon": 0.0, "lat": 39.056367333333334, "is_reserved": 0, "type": "electric_bike", "bike_id": "244794961f64f6417e58252b686503ef", "is_disabled": 0, "rental_uris": {"android": "https://dc.lft.to/lastmile_qr_scan", "ios": "https://dc.lft.to/lastmile_qr_scan"}, "lon": -77.1252635, "fusion_lat": 0.0}, {"name": "0f0db751d4e329f2fd680a0def192175", "fusion_lon": 0.0, "lat": 38.89767466666667, "is_reserved": 0, "type": "electric_scooter", "bike_id": "0f0db751d4e329f2fd680a0def192175", "is_disabled": 0, "rental_uris": {"android": "https://dc.lft.to/lastmile_qr_scan", "ios": "https://dc.lft.to/lastmile_qr_scan"}, "lon": -77.00898133333334, "fusion_lat": 0.0}, {"name": "6320af8df1b0ade9e636d8df34216a3b", "fusion_lon": 0.0, "lat": 38.909667166666665, "is_reserved": 0, "type": "electric_scooter", "bike_id": "6320af8df1b0ade9e636d8df34216a3b", "is_disabled": 0, "rental_uris": {"android": "https://dc.lft.to/lastmile_qr_scan", "ios": "https://dc.lft.to/lastmile_qr_scan"}, "lon": -77.00935233333334, "fusion_lat": 0.0}, {"name": "5ac48fd6dbc6c45b756c425e74c3d268", "fusion_lon": 0.0, "lat": 38.92310166666667, "is_reserved": 0, "type": "electric_scooter", "bike_id": "5ac48fd6dbc6c45b756c425e74c3d268", "is_disabled": 0, "rental_uris": {"android": "https://dc.lft.to/lastmile_qr_scan", "ios": "https://dc.lft.to/lastmile_qr_scan"}, "lon": -77.0296615, "fusion_lat": 0.0}, {"name": "66f88cb7c6fc3d62a7e04c96bffec4ec", "fusion_lon": 0.0, "lat": 38.9662875, "is_reserved": 0, "type": "electric_scooter", "bike_id": "66f88cb7c6fc3d62a7e04c96bffec4ec", "is_disabled": 0, "rental_uris": {"android": "https://dc.lft.to/lastmile_qr_scan", "ios": "https://dc.lft.to/lastmile_qr_scan"}, "lon": -77.02251933333334, "fusion_lat": 0.0}, {"name": "63853d4c31ef3c7a30da254f96592699", "fusion_lon": 0.0, "lat": 38.90140483333333, "is_reserved": 0, "type": "electric_scooter", "bike_id": "63853d4c31ef3c7a30da254f96592699", "is_disabled": 0, "rental_uris": {"android": "https://dc.lft.to/lastmile_qr_scan", "ios": "https://dc.lft.to/lastmile_qr_scan"}, "lon": -77.01309083333334, "fusion_lat": 0.0}, {"name": "e5f1b442844cbf0a3c921e73b51f9e46", "fusion_lon": 0.0, "lat": 38.9287625, "is_reserved": 0, "type": "electric_scooter", "bike_id": "e5f1b442844cbf0a3c921e73b51f9e46", "is_disabled": 0, "rental_uris": {"android": "https://dc.lft.to/lastmile_qr_scan", "ios": "https://dc.lft.to/lastmile_qr_scan"}, "lon": -77.04050616666666, "fusion_lat": 0.0}, {"name": "f996bba98b0e501f677118ea2c3ca2dc", "fusion_lon": 0.0, "lat": 38.91638616666667, "is_reserved": 0, "type": "electric_scooter", "bike_id": "f996bba98b0e501f677118ea2c3ca2dc", "is_disabled": 0, "rental_uris": {"android": "https://dc.lft.to/lastmile_qr_scan", "ios": "https://dc.lft.to/lastmile_qr_scan"}, "lon": -77.0313815, "fusion_lat": 0.0}, {"name": "db6a8030a45f7262780e91df6e5d81e3", "fusion_lon": 0.0, "lat": 38.850714333333336, "is_reserved": 0, "type": "electric_scooter", "bike_id": "db6a8030a45f7262780e91df6e5d81e3", "is_disabled": 0, "rental_uris": {"android": "https://dc.lft.to/lastmile_qr_scan", "ios": "https://dc.lft.to/lastmile_qr_scan"}, "lon": -76.97024716666667, "fusion_lat": 0.0}, {"name": "41bc03c02ba6a94d6556788bc5550023", "fusion_lon": 0.0, "lat": 38.9332455, "is_reserved": 0, "type": "electric_scooter", "bike_id": "41bc03c02ba6a94d6556788bc5550023", "is_disabled": 0, "rental_uris": {"android": "https://dc.lft.to/lastmile_qr_scan", "ios": "https://dc.lft.to/lastmile_qr_scan"}, "lon": -77.03249833333334, "fusion_lat": 0.0}, {"name": "f0a4fc85ccc29e0a4bf74df0751dcf37", "fusion_lon": 0.0, "lat": 38.92425166666666, "is_reserved": 0, "type": "electric_scooter", "bike_id": "f0a4fc85ccc29e0a4bf74df0751dcf37", "is_disabled": 0, "rental_uris": {"android": "https://dc.lft.to/lastmile_qr_scan", "ios": "https://dc.lft.to/lastmile_qr_scan"}, "lon": -77.01947466666667, "fusion_lat": 0.0}, {"name": "fbbf68ca7d25e693a52cdaec1507ded1", "fusion_lon": 0.0, "lat": 38.893096166666666, "is_reserved": 0, "type": "electric_scooter", "bike_id": "fbbf68ca7d25e693a52cdaec1507ded1", "is_disabled": 0, "rental_uris": {"android": "https://dc.lft.to/lastmile_qr_scan", "ios": "https://dc.lft.to/lastmile_qr_scan"}, "lon": -76.93980683333334, "fusion_lat": 0.0}, {"name": "807f320512f76cb13c8874e6aaf625dd", "fusion_lon": 0.0, "lat": 38.88374133333333, "is_reserved": 0, "type": "electric_scooter", "bike_id": "807f320512f76cb13c8874e6aaf625dd", "is_disabled": 0, "rental_uris": {"android": "https://dc.lft.to/lastmile_qr_scan", "ios": "https://dc.lft.to/lastmile_qr_scan"}, "lon": -76.995226, "fusion_lat": 0.0}, {"name": "4d1e142ee8d783810902947118410620", "fusion_lon": 0.0, "lat": 38.892289, "is_reserved": 0, "type": "electric_scooter", "bike_id": "4d1e142ee8d783810902947118410620", "is_disabled": 0, "rental_uris": {"android": "https://dc.lft.to/lastmile_qr_scan", "ios": "https://dc.lft.to/lastmile_qr_scan"}, "lon": -77.046549, "fusion_lat": 0.0}, {"name": "3e5af8494f6d42aed28a578fb8ce50f7", "fusion_lon": 0.0, "lat": 38.90261783333333, "is_reserved": 0, "type": "electric_scooter", "bike_id": "3e5af8494f6d42aed28a578fb8ce50f7", "is_disabled": 0, "rental_uris": {"android": "https://dc.lft.to/lastmile_qr_scan", "ios": "https://dc.lft.to/lastmile_qr_scan"}, "lon": -77.0173925, "fusion_lat": 0.0}, {"name": "40e54bf063ce4d665124c1e40a7f5d52", "fusion_lon": 0.0, "lat": 38.906021833333334, "is_reserved": 0, "type": "electric_scooter", "bike_id": "40e54bf063ce4d665124c1e40a7f5d52", "is_disabled": 0, "rental_uris": {"android": "https://dc.lft.to/lastmile_qr_scan", "ios": "https://dc.lft.to/lastmile_qr_scan"}, "lon": -77.02198916666667, "fusion_lat": 0.0}, {"name": "721e2d7810e022ff6aab7ebfe009d70d", "fusion_lon": 0.0, "lat": 38.9293715, "is_reserved": 0, "type": "electric_scooter", "bike_id": "721e2d7810e022ff6aab7ebfe009d70d", "is_disabled": 0, "rental_uris": {"android": "https://dc.lft.to/lastmile_qr_scan", "ios": "https://dc.lft.to/lastmile_qr_scan"}, "lon": -77.03279366666666, "fusion_lat": 0.0}, {"name": "6392c94b0e17280dec72735e9a04a6e8", "fusion_lon": 0.0, "lat": 38.87572333333333, "is_reserved": 0, "type": "electric_scooter", "bike_id": "6392c94b0e17280dec72735e9a04a6e8", "is_disabled": 0, "rental_uris": {"android": "https://dc.lft.to/lastmile_qr_scan", "ios": "https://dc.lft.to/lastmile_qr_scan"}, "lon": -77.005797, "fusion_lat": 0.0}, {"name": "a927dc73742191b73cefb12a7b7100c1", "fusion_lon": 0.0, "lat": 38.905708, "is_reserved": 0, "type": "electric_scooter", "bike_id": "a927dc73742191b73cefb12a7b7100c1", "is_disabled": 0, "rental_uris": {"android": "https://dc.lft.to/lastmile_qr_scan", "ios": "https://dc.lft.to/lastmile_qr_scan"}, "lon": -77.00593766666667, "fusion_lat": 0.0}, {"name": "5bacd2c90f338e673fb930a98a01f047", "fusion_lon": 0.0, "lat": 38.86214783333333, "is_reserved": 0, "type": "electric_bike", "bike_id": "5bacd2c90f338e673fb930a98a01f047", "is_disabled": 0, "rental_uris": {"android": "https://dc.lft.to/lastmile_qr_scan", "ios": "https://dc.lft.to/lastmile_qr_scan"}, "lon": -76.99561083333333, "fusion_lat": 0.0}, {"name": "9eb19cff141295d1e9103052a8e75d64", "fusion_lon": 0.0, "lat": 38.916981166666666, "is_reserved": 0, "type": "electric_scooter", "bike_id": "9eb19cff141295d1e9103052a8e75d64", "is_disabled": 0, "rental_uris": {"android": "https://dc.lft.to/lastmile_qr_scan", "ios": "https://dc.lft.to/lastmile_qr_scan"}, "lon": -77.031541, "fusion_lat": 0.0}, {"name": "a1a381189a0c77cca56f3c886eff4b45", "fusion_lon": 0.0, "lat": 38.908286833333335, "is_reserved": 0, "type": "electric_scooter", "bike_id": "a1a381189a0c77cca56f3c886eff4b45", "is_disabled": 0, "rental_uris": {"android": "https://dc.lft.to/lastmile_qr_scan", "ios": "https://dc.lft.to/lastmile_qr_scan"}, "lon": -77.03839333333333, "fusion_lat": 0.0}, {"name": "7ec0c4fe5548ab3fd5182850c1ab2830", "fusion_lon": 0.0, "lat": 38.832379833333334, "is_reserved": 0, "type": "electric_bike", "bike_id": "7ec0c4fe5548ab3fd5182850c1ab2830", "is_disabled": 0, "rental_uris": {"android": "https://dc.lft.to/lastmile_qr_scan", "ios": "https://dc.lft.to/lastmile_qr_scan"}, "lon": -76.94615166666667, "fusion_lat": 0.0}, {"name": "4e3c0ceb1c79bff70cc988a08fa10b94", "fusion_lon": 0.0, "lat": 38.932505666666664, "is_reserved": 0, "type": "electric_scooter", "bike_id": "4e3c0ceb1c79bff70cc988a08fa10b94", "is_disabled": 0, "rental_uris": {"android": "https://dc.lft.to/lastmile_qr_scan", "ios": "https://dc.lft.to/lastmile_qr_scan"}, "lon": -77.038505, "fusion_lat": 0.0}, {"name": "dd83ec7d8a79bfab43d7cbf0332ad039", "fusion_lon": 0.0, "lat": 38.918422666666665, "is_reserved": 0, "type": "electric_scooter", "bike_id": "dd83ec7d8a79bfab43d7cbf0332ad039", "is_disabled": 0, "rental_uris": {"android": "https://dc.lft.to/lastmile_qr_scan", "ios": "https://dc.lft.to/lastmile_qr_scan"}, "lon": -77.05955216666666, "fusion_lat": 0.0}, {"name": "04061cf114777eeef7d67230742bf18b", "fusion_lon": 0.0, "lat": 39.0505555, "is_reserved": 0, "type": "electric_bike", "bike_id": "04061cf114777eeef7d67230742bf18b", "is_disabled": 0, "rental_uris": {"android": "https://dc.lft.to/lastmile_qr_scan", "ios": "https://dc.lft.to/lastmile_qr_scan"}, "lon": -77.05146666666667, "fusion_lat": 0.0}, {"name": "756162128fd862c4656dfa3b519a8e61", "fusion_lon": 0.0, "lat": 38.92736716666667, "is_reserved": 0, "type": "electric_scooter", "bike_id": "756162128fd862c4656dfa3b519a8e61", "is_disabled": 0, "rental_uris": {"android": "https://dc.lft.to/lastmile_qr_scan", "ios": "https://dc.lft.to/lastmile_qr_scan"}, "lon": -77.05254516666666, "fusion_lat": 0.0}, {"name": "58d3dab8e8732abd398a9a8f4c86737e", "fusion_lon": 0.0, "lat": 38.93028833333334, "is_reserved": 0, "type": "electric_scooter", "bike_id": "58d3dab8e8732abd398a9a8f4c86737e", "is_disabled": 0, "rental_uris": {"android": "https://dc.lft.to/lastmile_qr_scan", "ios": "https://dc.lft.to/lastmile_qr_scan"}, "lon": -77.06312166666666, "fusion_lat": 0.0}, {"name": "986afa99f132806b871fafcb9d10f37c", "fusion_lon": 0.0, "lat": 38.92313466666667, "is_reserved": 0, "type": "electric_scooter", "bike_id": "986afa99f132806b871fafcb9d10f37c", "is_disabled": 0, "rental_uris": {"android": "https://dc.lft.to/lastmile_qr_scan", "ios": "https://dc.lft.to/lastmile_qr_scan"}, "lon": -77.02977466666667, "fusion_lat": 0.0}, {"name": "04b3b8aac5c76596df16ec2c2b4ce81d", "fusion_lon": 0.0, "lat": 38.893611, "is_reserved": 0, "type": "electric_scooter", "bike_id": "04b3b8aac5c76596df16ec2c2b4ce81d", "is_disabled": 0, "rental_uris": {"android": "https://dc.lft.to/lastmile_qr_scan", "ios": "https://dc.lft.to/lastmile_qr_scan"}, "lon": -77.02808683333333, "fusion_lat": 0.0}, {"name": "0f45894918c0879316e07f26adf48b9c", "fusion_lon": 0.0, "lat": 38.92519466666667, "is_reserved": 0, "type": "electric_scooter", "bike_id": "0f45894918c0879316e07f26adf48b9c", "is_disabled": 0, "rental_uris": {"android": "https://dc.lft.to/lastmile_qr_scan", "ios": "https://dc.lft.to/lastmile_qr_scan"}, "lon": -77.0234115, "fusion_lat": 0.0}, {"name": "1d41979b804ba59c637261e04aa2d33d", "fusion_lon": 0.0, "lat": 38.892314166666665, "is_reserved": 0, "type": "electric_scooter", "bike_id": "1d41979b804ba59c637261e04aa2d33d", "is_disabled": 0, "rental_uris": {"android": "https://dc.lft.to/lastmile_qr_scan", "ios": "https://dc.lft.to/lastmile_qr_scan"}, "lon": -77.01724916666667, "fusion_lat": 0.0}, {"name": "acabdccf523084c43edc15c192de7d05", "fusion_lon": 0.0, "lat": 38.9025465, "is_reserved": 0, "type": "electric_scooter", "bike_id": "acabdccf523084c43edc15c192de7d05", "is_disabled": 0, "rental_uris": {"android": "https://dc.lft.to/lastmile_qr_scan", "ios": "https://dc.lft.to/lastmile_qr_scan"}, "lon": -77.03958933333334, "fusion_lat": 0.0}, {"name": "598aef28f600a398d86b769d11c1b59b", "fusion_lon": 0.0, "lat": 38.90225066666667, "is_reserved": 0, "type": "electric_scooter", "bike_id": "598aef28f600a398d86b769d11c1b59b", "is_disabled": 0, "rental_uris": {"android": "https://dc.lft.to/lastmile_qr_scan", "ios": "https://dc.lft.to/lastmile_qr_scan"}, "lon": -77.04815133333334, "fusion_lat": 0.0}, {"name": "6b673f4e05b03c16cc64d57a228df5af", "fusion_lon": 0.0, "lat": 38.87920116666667, "is_reserved": 0, "type": "electric_scooter", "bike_id": "6b673f4e05b03c16cc64d57a228df5af", "is_disabled": 0, "rental_uris": {"android": "https://dc.lft.to/lastmile_qr_scan", "ios": "https://dc.lft.to/lastmile_qr_scan"}, "lon": -76.99979233333333, "fusion_lat": 0.0}, {"name": "79181697dd8977a8f72e52b407e75f63", "fusion_lon": 0.0, "lat": 38.90410416666667, "is_reserved": 0, "type": "electric_scooter", "bike_id": "79181697dd8977a8f72e52b407e75f63", "is_disabled": 0, "rental_uris": {"android": "https://dc.lft.to/lastmile_qr_scan", "ios": "https://dc.lft.to/lastmile_qr_scan"}, "lon": -76.973322, "fusion_lat": 0.0}, {"name": "6d4fc2c4454da30af1f778c14024ffa0", "fusion_lon": 0.0, "lat": 38.90677083333333, "is_reserved": 0, "type": "electric_scooter", "bike_id": "6d4fc2c4454da30af1f778c14024ffa0", "is_disabled": 0, "rental_uris": {"android": "https://dc.lft.to/lastmile_qr_scan", "ios": "https://dc.lft.to/lastmile_qr_scan"}, "lon": -77.029791, "fusion_lat": 0.0}, {"name": "38efa3103e0bd865b02a54273ac81ddd", "fusion_lon": 0.0, "lat": 38.8981145, "is_reserved": 0, "type": "electric_bike", "bike_id": "38efa3103e0bd865b02a54273ac81ddd", "is_disabled": 0, "rental_uris": {"android": "https://dc.lft.to/lastmile_qr_scan", "ios": "https://dc.lft.to/lastmile_qr_scan"}, "lon": -76.99071283333333, "fusion_lat": 0.0}, {"name": "e06b6752dff7cd110d5c585682c82e6b", "fusion_lon": 0.0, "lat": 38.896263166666664, "is_reserved": 0, "type": "electric_scooter", "bike_id": "e06b6752dff7cd110d5c585682c82e6b", "is_disabled": 0, "rental_uris": {"android": "https://dc.lft.to/lastmile_qr_scan", "ios": "https://dc.lft.to/lastmile_qr_scan"}, "lon": -77.02198283333334, "fusion_lat": 0.0}, {"name": "b41d3fc9fb38da008438f146431bd996", "fusion_lon": 0.0, "lat": 38.90007833333333, "is_reserved": 0, "type": "electric_scooter", "bike_id": "b41d3fc9fb38da008438f146431bd996", "is_disabled": 0, "rental_uris": {"android": "https://dc.lft.to/lastmile_qr_scan", "ios": "https://dc.lft.to/lastmile_qr_scan"}, "lon": -76.99634783333333, "fusion_lat": 0.0}, {"name": "04a18b2f4b33c60bc932cc421c3d937d", "fusion_lon": 0.0, "lat": 38.9101015, "is_reserved": 0, "type": "electric_scooter", "bike_id": "04a18b2f4b33c60bc932cc421c3d937d", "is_disabled": 0, "rental_uris": {"android": "https://dc.lft.to/lastmile_qr_scan", "ios": "https://dc.lft.to/lastmile_qr_scan"}, "lon": -77.05268566666666, "fusion_lat": 0.0}, {"name": "c0b5b324844a080c7262b852a91150e9", "fusion_lon": 0.0, "lat": 38.8973615, "is_reserved": 0, "type": "electric_scooter", "bike_id": "c0b5b324844a080c7262b852a91150e9", "is_disabled": 0, "rental_uris": {"android": "https://dc.lft.to/lastmile_qr_scan", "ios": "https://dc.lft.to/lastmile_qr_scan"}, "lon": -77.02154716666666, "fusion_lat": 0.0}, {"name": "7c149a7eb0448b88d98a99518e2eb564", "fusion_lon": 0.0, "lat": 38.874868166666666, "is_reserved": 0, "type": "electric_bike", "bike_id": "7c149a7eb0448b88d98a99518e2eb564", "is_disabled": 0, "rental_uris": {"android": "https://dc.lft.to/lastmile_qr_scan", "ios": "https://dc.lft.to/lastmile_qr_scan"}, "lon": -76.96525866666667, "fusion_lat": 0.0}, {"name": "18ca774660d93a084a10202b80208457", "fusion_lon": 0.0, "lat": 38.904258, "is_reserved": 0, "type": "electric_scooter", "bike_id": "18ca774660d93a084a10202b80208457", "is_disabled": 0, "rental_uris": {"android": "https://dc.lft.to/lastmile_qr_scan", "ios": "https://dc.lft.to/lastmile_qr_scan"}, "lon": -77.0466935, "fusion_lat": 0.0}, {"name": "1070a0ee4af4df79c45837ed7b47dea5", "fusion_lon": 0.0, "lat": 38.934470166666664, "is_reserved": 0, "type": "electric_scooter", "bike_id": "1070a0ee4af4df79c45837ed7b47dea5", "is_disabled": 0, "rental_uris": {"android": "https://dc.lft.to/lastmile_qr_scan", "ios": "https://dc.lft.to/lastmile_qr_scan"}, "lon": -77.03282166666666, "fusion_lat": 0.0}, {"name": "19fb24138609db5ad2804fcac6c9d8b3", "fusion_lon": 0.0, "lat": 38.87363716666667, "is_reserved": 0, "type": "electric_scooter", "bike_id": "19fb24138609db5ad2804fcac6c9d8b3", "is_disabled": 0, "rental_uris": {"android": "https://dc.lft.to/lastmile_qr_scan", "ios": "https://dc.lft.to/lastmile_qr_scan"}, "lon": -77.00585166666667, "fusion_lat": 0.0}, {"name": "a7aefe93d0862ace75fa41e27ac15596", "fusion_lon": 0.0, "lat": 38.917049, "is_reserved": 0, "type": "electric_scooter", "bike_id": "a7aefe93d0862ace75fa41e27ac15596", "is_disabled": 0, "rental_uris": {"android": "https://dc.lft.to/lastmile_qr_scan", "ios": "https://dc.lft.to/lastmile_qr_scan"}, "lon": -77.013368, "fusion_lat": 0.0}, {"name": "4a3cceb2978bb61ee26f6dfa0b7b4873", "fusion_lon": 0.0, "lat": 38.896153166666664, "is_reserved": 0, "type": "electric_scooter", "bike_id": "4a3cceb2978bb61ee26f6dfa0b7b4873", "is_disabled": 0, "rental_uris": {"android": "https://dc.lft.to/lastmile_qr_scan", "ios": "https://dc.lft.to/lastmile_qr_scan"}, "lon": -76.98116683333333, "fusion_lat": 0.0}, {"name": "057c2da4e443348763b5f756536649a6", "fusion_lon": 0.0, "lat": 38.91288483333334, "is_reserved": 0, "type": "electric_scooter", "bike_id": "057c2da4e443348763b5f756536649a6", "is_disabled": 0, "rental_uris": {"android": "https://dc.lft.to/lastmile_qr_scan", "ios": "https://dc.lft.to/lastmile_qr_scan"}, "lon": -77.02384883333333, "fusion_lat": 0.0}, {"name": "918de28a61c02671769b9cb02df7e55c", "fusion_lon": 0.0, "lat": 38.9524345, "is_reserved": 0, "type": "electric_scooter", "bike_id": "918de28a61c02671769b9cb02df7e55c", "is_disabled": 0, "rental_uris": {"android": "https://dc.lft.to/lastmile_qr_scan", "ios": "https://dc.lft.to/lastmile_qr_scan"}, "lon": -77.002103, "fusion_lat": 0.0}, {"name": "e609c0f0ed1ef2532cf9e9598f6bdd04", "fusion_lon": 0.0, "lat": 38.8962475, "is_reserved": 0, "type": "electric_scooter", "bike_id": "e609c0f0ed1ef2532cf9e9598f6bdd04", "is_disabled": 0, "rental_uris": {"android": "https://dc.lft.to/lastmile_qr_scan", "ios": "https://dc.lft.to/lastmile_qr_scan"}, "lon": -77.01594133333333, "fusion_lat": 0.0}, {"name": "33357f5c488ee5676f1388f8b02a012a", "fusion_lon": 0.0, "lat": 38.908396833333335, "is_reserved": 0, "type": "electric_scooter", "bike_id": "33357f5c488ee5676f1388f8b02a012a", "is_disabled": 0, "rental_uris": {"android": "https://dc.lft.to/lastmile_qr_scan", "ios": "https://dc.lft.to/lastmile_qr_scan"}, "lon": -77.03671516666667, "fusion_lat": 0.0}, {"name": "ac769d5ca6e14f57f78737bf34e34d9d", "fusion_lon": 0.0, "lat": 38.930863333333335, "is_reserved": 0, "type": "electric_scooter", "bike_id": "ac769d5ca6e14f57f78737bf34e34d9d", "is_disabled": 0, "rental_uris": {"android": "https://dc.lft.to/lastmile_qr_scan", "ios": "https://dc.lft.to/lastmile_qr_scan"}, "lon": -77.02566383333334, "fusion_lat": 0.0}, {"name": "9fba281ebf2330c042fc327ac7846450", "fusion_lon": 0.0, "lat": 38.89867516666666, "is_reserved": 0, "type": "electric_scooter", "bike_id": "9fba281ebf2330c042fc327ac7846450", "is_disabled": 0, "rental_uris": {"android": "https://dc.lft.to/lastmile_qr_scan", "ios": "https://dc.lft.to/lastmile_qr_scan"}, "lon": -76.9466365, "fusion_lat": 0.0}, {"name": "07746f138042d7c36b490b322cdd1f33", "fusion_lon": 0.0, "lat": 38.94203233333333, "is_reserved": 0, "type": "electric_scooter", "bike_id": "07746f138042d7c36b490b322cdd1f33", "is_disabled": 0, "rental_uris": {"android": "https://dc.lft.to/lastmile_qr_scan", "ios": "https://dc.lft.to/lastmile_qr_scan"}, "lon": -77.02516766666666, "fusion_lat": 0.0}, {"name": "c64a6068f26642b13ffd81e2de4341fd", "fusion_lon": 0.0, "lat": 38.872089, "is_reserved": 0, "type": "electric_scooter", "bike_id": "c64a6068f26642b13ffd81e2de4341fd", "is_disabled": 0, "rental_uris": {"android": "https://dc.lft.to/lastmile_qr_scan", "ios": "https://dc.lft.to/lastmile_qr_scan"}, "lon": -76.97837516666667, "fusion_lat": 0.0}, {"name": "7035840a038907f657cb6fe07e8939fa", "fusion_lon": 0.0, "lat": 38.8851045, "is_reserved": 0, "type": "electric_scooter", "bike_id": "7035840a038907f657cb6fe07e8939fa", "is_disabled": 0, "rental_uris": {"android": "https://dc.lft.to/lastmile_qr_scan", "ios": "https://dc.lft.to/lastmile_qr_scan"}, "lon": -76.99841083333334, "fusion_lat": 0.0}, {"name": "b8b5f106191b498b6e27271253e24d2e", "fusion_lon": 0.0, "lat": 38.93952433333333, "is_reserved": 0, "type": "electric_scooter", "bike_id": "b8b5f106191b498b6e27271253e24d2e", "is_disabled": 0, "rental_uris": {"android": "https://dc.lft.to/lastmile_qr_scan", "ios": "https://dc.lft.to/lastmile_qr_scan"}, "lon": -77.0724715, "fusion_lat": 0.0}, {"name": "83896b17de88d264ad088379ae00d18f", "fusion_lon": 0.0, "lat": 38.89843666666667, "is_reserved": 0, "type": "electric_scooter", "bike_id": "83896b17de88d264ad088379ae00d18f", "is_disabled": 0, "rental_uris": {"android": "https://dc.lft.to/lastmile_qr_scan", "ios": "https://dc.lft.to/lastmile_qr_scan"}, "lon": -77.0334695, "fusion_lat": 0.0}, {"name": "639920075fb08423e1be269ad86640d6", "fusion_lon": 0.0, "lat": 38.90411533333334, "is_reserved": 0, "type": "electric_scooter", "bike_id": "639920075fb08423e1be269ad86640d6", "is_disabled": 0, "rental_uris": {"android": "https://dc.lft.to/lastmile_qr_scan", "ios": "https://dc.lft.to/lastmile_qr_scan"}, "lon": -76.97327216666666, "fusion_lat": 0.0}, {"name": "69673fc50f6259f08ed869eb7fb4ebd3", "fusion_lon": 0.0, "lat": 38.97179783333333, "is_reserved": 0, "type": "electric_scooter", "bike_id": "69673fc50f6259f08ed869eb7fb4ebd3", "is_disabled": 0, "rental_uris": {"android": "https://dc.lft.to/lastmile_qr_scan", "ios": "https://dc.lft.to/lastmile_qr_scan"}, "lon": -77.02694916666667, "fusion_lat": 0.0}, {"name": "6286846008cf915f76af39a8df40fd8f", "fusion_lon": 0.0, "lat": 38.9057005, "is_reserved": 0, "type": "electric_scooter", "bike_id": "6286846008cf915f76af39a8df40fd8f", "is_disabled": 0, "rental_uris": {"android": "https://dc.lft.to/lastmile_qr_scan", "ios": "https://dc.lft.to/lastmile_qr_scan"}, "lon": -77.04340533333334, "fusion_lat": 0.0}, {"name": "11778e66693730ba0f62a844e5abcab1", "fusion_lon": 0.0, "lat": 38.928893333333335, "is_reserved": 0, "type": "electric_scooter", "bike_id": "11778e66693730ba0f62a844e5abcab1", "is_disabled": 0, "rental_uris": {"android": "https://dc.lft.to/lastmile_qr_scan", "ios": "https://dc.lft.to/lastmile_qr_scan"}, "lon": -77.0135945, "fusion_lat": 0.0}, {"name": "a50f1a452c5dd141535ef0a2645f5933", "fusion_lon": 0.0, "lat": 38.87299516666667, "is_reserved": 0, "type": "electric_bike", "bike_id": "a50f1a452c5dd141535ef0a2645f5933", "is_disabled": 0, "rental_uris": {"android": "https://dc.lft.to/lastmile_qr_scan", "ios": "https://dc.lft.to/lastmile_qr_scan"}, "lon": -76.9697975, "fusion_lat": 0.0}, {"name": "fb50653efba40c56de4cbccbcbde0fc4", "fusion_lon": 0.0, "lat": 38.915645833333336, "is_reserved": 0, "type": "electric_scooter", "bike_id": "fb50653efba40c56de4cbccbcbde0fc4", "is_disabled": 0, "rental_uris": {"android": "https://dc.lft.to/lastmile_qr_scan", "ios": "https://dc.lft.to/lastmile_qr_scan"}, "lon": -77.0317085, "fusion_lat": 0.0}, {"name": "c525a78db3122b9ed653bec602a61797", "fusion_lon": 0.0, "lat": 38.949873, "is_reserved": 0, "type": "electric_scooter", "bike_id": "c525a78db3122b9ed653bec602a61797", "is_disabled": 0, "rental_uris": {"android": "https://dc.lft.to/lastmile_qr_scan", "ios": "https://dc.lft.to/lastmile_qr_scan"}, "lon": -77.027043, "fusion_lat": 0.0}, {"name": "56a8bbd6538fd51f65e2f70bcb1ca33c", "fusion_lon": 0.0, "lat": 39.000285, "is_reserved": 0, "type": "electric_bike", "bike_id": "56a8bbd6538fd51f65e2f70bcb1ca33c", "is_disabled": 0, "rental_uris": {"android": "https://dc.lft.to/lastmile_qr_scan", "ios": "https://dc.lft.to/lastmile_qr_scan"}, "lon": -77.04744716666667, "fusion_lat": 0.0}, {"name": "167763ca8a11e62db6165ccc5a524e95", "fusion_lon": 0.0, "lat": 38.884040666666664, "is_reserved": 0, "type": "electric_scooter", "bike_id": "167763ca8a11e62db6165ccc5a524e95", "is_disabled": 0, "rental_uris": {"android": "https://dc.lft.to/lastmile_qr_scan", "ios": "https://dc.lft.to/lastmile_qr_scan"}, "lon": -77.02597733333333, "fusion_lat": 0.0}, {"name": "2ca75b49381dac4a920598647cf284d1", "fusion_lon": 0.0, "lat": 38.87820833333333, "is_reserved": 0, "type": "electric_scooter", "bike_id": "2ca75b49381dac4a920598647cf284d1", "is_disabled": 0, "rental_uris": {"android": "https://dc.lft.to/lastmile_qr_scan", "ios": "https://dc.lft.to/lastmile_qr_scan"}, "lon": -76.93110766666666, "fusion_lat": 0.0}, {"name": "aea0df069572531e60a0b6d4d0a8e4cf", "fusion_lon": 0.0, "lat": 38.89363983333333, "is_reserved": 0, "type": "electric_scooter", "bike_id": "aea0df069572531e60a0b6d4d0a8e4cf", "is_disabled": 0, "rental_uris": {"android": "https://dc.lft.to/lastmile_qr_scan", "ios": "https://dc.lft.to/lastmile_qr_scan"}, "lon": -77.020705, "fusion_lat": 0.0}, {"name": "aec99a62d4ed39d548c55527b816f6eb", "fusion_lon": 0.0, "lat": 38.9189615, "is_reserved": 0, "type": "electric_scooter", "bike_id": "aec99a62d4ed39d548c55527b816f6eb", "is_disabled": 0, "rental_uris": {"android": "https://dc.lft.to/lastmile_qr_scan", "ios": "https://dc.lft.to/lastmile_qr_scan"}, "lon": -77.0229365, "fusion_lat": 0.0}, {"name": "c911e64526e1e349b6db77619a5fa495", "fusion_lon": 0.0, "lat": 38.899331, "is_reserved": 0, "type": "electric_scooter", "bike_id": "c911e64526e1e349b6db77619a5fa495", "is_disabled": 0, "rental_uris": {"android": "https://dc.lft.to/lastmile_qr_scan", "ios": "https://dc.lft.to/lastmile_qr_scan"}, "lon": -77.0412785, "fusion_lat": 0.0}, {"name": "d2454d8684c58894efafee12c56fac77", "fusion_lon": 0.0, "lat": 38.946329166666665, "is_reserved": 0, "type": "electric_scooter", "bike_id": "d2454d8684c58894efafee12c56fac77", "is_disabled": 0, "rental_uris": {"android": "https://dc.lft.to/lastmile_qr_scan", "ios": "https://dc.lft.to/lastmile_qr_scan"}, "lon": -77.01844733333333, "fusion_lat": 0.0}, {"name": "6c8cda3c312fd37fec096815e01342ea", "fusion_lon": 0.0, "lat": 38.9169635, "is_reserved": 0, "type": "electric_scooter", "bike_id": "6c8cda3c312fd37fec096815e01342ea", "is_disabled": 0, "rental_uris": {"android": "https://dc.lft.to/lastmile_qr_scan", "ios": "https://dc.lft.to/lastmile_qr_scan"}, "lon": -77.03124066666666, "fusion_lat": 0.0}, {"name": "7edeb00ced494bdedfd8de1f9d612619", "fusion_lon": 0.0, "lat": 38.90769983333333, "is_reserved": 0, "type": "electric_scooter", "bike_id": "7edeb00ced494bdedfd8de1f9d612619", "is_disabled": 0, "rental_uris": {"android": "https://dc.lft.to/lastmile_qr_scan", "ios": "https://dc.lft.to/lastmile_qr_scan"}, "lon": -76.97829183333333, "fusion_lat": 0.0}, {"name": "6d0b7080fac94bb9b7d6df1f8d4eaff8", "fusion_lon": 0.0, "lat": 38.9007875, "is_reserved": 0, "type": "electric_scooter", "bike_id": "6d0b7080fac94bb9b7d6df1f8d4eaff8", "is_disabled": 0, "rental_uris": {"android": "https://dc.lft.to/lastmile_qr_scan", "ios": "https://dc.lft.to/lastmile_qr_scan"}, "lon": -77.039262, "fusion_lat": 0.0}, {"name": "423536a4fa91bf5c86a471c4ad843734", "fusion_lon": 0.0, "lat": 38.904218, "is_reserved": 0, "type": "electric_scooter", "bike_id": "423536a4fa91bf5c86a471c4ad843734", "is_disabled": 0, "rental_uris": {"android": "https://dc.lft.to/lastmile_qr_scan", "ios": "https://dc.lft.to/lastmile_qr_scan"}, "lon": -77.02515666666666, "fusion_lat": 0.0}, {"name": "02454645c5e8ecde2521f9506706140f", "fusion_lon": 0.0, "lat": 38.9056385, "is_reserved": 0, "type": "electric_scooter", "bike_id": "02454645c5e8ecde2521f9506706140f", "is_disabled": 0, "rental_uris": {"android": "https://dc.lft.to/lastmile_qr_scan", "ios": "https://dc.lft.to/lastmile_qr_scan"}, "lon": -77.00593566666667, "fusion_lat": 0.0}, {"name": "77f36e8d38efc7216f258935313f5910", "fusion_lon": 0.0, "lat": 38.90613883333333, "is_reserved": 0, "type": "electric_scooter", "bike_id": "77f36e8d38efc7216f258935313f5910", "is_disabled": 0, "rental_uris": {"android": "https://dc.lft.to/lastmile_qr_scan", "ios": "https://dc.lft.to/lastmile_qr_scan"}, "lon": -77.038749, "fusion_lat": 0.0}, {"name": "4c69a47189b420d4580b912368bda50d", "fusion_lon": 0.0, "lat": 38.900769833333335, "is_reserved": 0, "type": "electric_scooter", "bike_id": "4c69a47189b420d4580b912368bda50d", "is_disabled": 0, "rental_uris": {"android": "https://dc.lft.to/lastmile_qr_scan", "ios": "https://dc.lft.to/lastmile_qr_scan"}, "lon": -77.0469155, "fusion_lat": 0.0}, {"name": "524272b86174d1f7ab7d3686b7511c29", "fusion_lon": 0.0, "lat": 38.89225066666667, "is_reserved": 0, "type": "electric_scooter", "bike_id": "524272b86174d1f7ab7d3686b7511c29", "is_disabled": 0, "rental_uris": {"android": "https://dc.lft.to/lastmile_qr_scan", "ios": "https://dc.lft.to/lastmile_qr_scan"}, "lon": -77.0237105, "fusion_lat": 0.0}, {"name": "798195a09853b78f60b3e6bbb8d1b7fa", "fusion_lon": 0.0, "lat": 38.91902483333333, "is_reserved": 0, "type": "electric_scooter", "bike_id": "798195a09853b78f60b3e6bbb8d1b7fa", "is_disabled": 0, "rental_uris": {"android": "https://dc.lft.to/lastmile_qr_scan", "ios": "https://dc.lft.to/lastmile_qr_scan"}, "lon": -76.987441, "fusion_lat": 0.0}, {"name": "655f8e475c0704a716102341570f32c2", "fusion_lon": 0.0, "lat": 38.898709833333335, "is_reserved": 0, "type": "electric_scooter", "bike_id": "655f8e475c0704a716102341570f32c2", "is_disabled": 0, "rental_uris": {"android": "https://dc.lft.to/lastmile_qr_scan", "ios": "https://dc.lft.to/lastmile_qr_scan"}, "lon": -76.94666266666667, "fusion_lat": 0.0}, {"name": "6b3631fc0c0c3ac21cd20620425fec2a", "fusion_lon": 0.0, "lat": 38.91416666666667, "is_reserved": 0, "type": "electric_scooter", "bike_id": "6b3631fc0c0c3ac21cd20620425fec2a", "is_disabled": 0, "rental_uris": {"android": "https://dc.lft.to/lastmile_qr_scan", "ios": "https://dc.lft.to/lastmile_qr_scan"}, "lon": -77.0317195, "fusion_lat": 0.0}, {"name": "c2eb65c4f9edb42e96372c2844fca061", "fusion_lon": 0.0, "lat": 38.91631016666667, "is_reserved": 0, "type": "electric_scooter", "bike_id": "c2eb65c4f9edb42e96372c2844fca061", "is_disabled": 0, "rental_uris": {"android": "https://dc.lft.to/lastmile_qr_scan", "ios": "https://dc.lft.to/lastmile_qr_scan"}, "lon": -77.03853266666667, "fusion_lat": 0.0}, {"name": "d9d1acb12894ec55ddff40c3492f1366", "fusion_lon": 0.0, "lat": 38.9001195, "is_reserved": 0, "type": "electric_scooter", "bike_id": "d9d1acb12894ec55ddff40c3492f1366", "is_disabled": 0, "rental_uris": {"android": "https://dc.lft.to/lastmile_qr_scan", "ios": "https://dc.lft.to/lastmile_qr_scan"}, "lon": -76.99619933333334, "fusion_lat": 0.0}, {"name": "69d43aaa5265d735c32adc180932a985", "fusion_lon": 0.0, "lat": 38.882513, "is_reserved": 0, "type": "electric_bike", "bike_id": "69d43aaa5265d735c32adc180932a985", "is_disabled": 0, "rental_uris": {"android": "https://dc.lft.to/lastmile_qr_scan", "ios": "https://dc.lft.to/lastmile_qr_scan"}, "lon": -76.96263166666667, "fusion_lat": 0.0}, {"name": "238b7b2c68d03822f2d182ba1f2afc0a", "fusion_lon": 0.0, "lat": 38.905886833333334, "is_reserved": 0, "type": "electric_scooter", "bike_id": "238b7b2c68d03822f2d182ba1f2afc0a", "is_disabled": 0, "rental_uris": {"android": "https://dc.lft.to/lastmile_qr_scan", "ios": "https://dc.lft.to/lastmile_qr_scan"}, "lon": -77.0414075, "fusion_lat": 0.0}, {"name": "04b36e2bbcff97b047b51a2e45490450", "fusion_lon": 0.0, "lat": 39.043026833333336, "is_reserved": 0, "type": "electric_bike", "bike_id": "04b36e2bbcff97b047b51a2e45490450", "is_disabled": 0, "rental_uris": {"android": "https://dc.lft.to/lastmile_qr_scan", "ios": "https://dc.lft.to/lastmile_qr_scan"}, "lon": -77.05157083333333, "fusion_lat": 0.0}, {"name": "6de21e6f6a4c97714f1fb4c76c16b3fd", "fusion_lon": 0.0, "lat": 38.86056583333333, "is_reserved": 0, "type": "electric_scooter", "bike_id": "6de21e6f6a4c97714f1fb4c76c16b3fd", "is_disabled": 0, "rental_uris": {"android": "https://dc.lft.to/lastmile_qr_scan", "ios": "https://dc.lft.to/lastmile_qr_scan"}, "lon": -76.98505116666666, "fusion_lat": 0.0}, {"name": "07882c434c2c2fc7f4777009d0650e98", "fusion_lon": 0.0, "lat": 38.89611683333333, "is_reserved": 0, "type": "electric_scooter", "bike_id": "07882c434c2c2fc7f4777009d0650e98", "is_disabled": 0, "rental_uris": {"android": "https://dc.lft.to/lastmile_qr_scan", "ios": "https://dc.lft.to/lastmile_qr_scan"}, "lon": -77.04596216666667, "fusion_lat": 0.0}, {"name": "f8cd804ea9ab45d47edb2dbaf1c63688", "fusion_lon": 0.0, "lat": 38.89225066666667, "is_reserved": 0, "type": "electric_scooter", "bike_id": "f8cd804ea9ab45d47edb2dbaf1c63688", "is_disabled": 0, "rental_uris": {"android": "https://dc.lft.to/lastmile_qr_scan", "ios": "https://dc.lft.to/lastmile_qr_scan"}, "lon": -77.04689483333334, "fusion_lat": 0.0}, {"name": "0b53455fe1a1c127b5084f97da6e2765", "fusion_lon": 0.0, "lat": 38.89718533333333, "is_reserved": 0, "type": "electric_scooter", "bike_id": "0b53455fe1a1c127b5084f97da6e2765", "is_disabled": 0, "rental_uris": {"android": "https://dc.lft.to/lastmile_qr_scan", "ios": "https://dc.lft.to/lastmile_qr_scan"}, "lon": -77.0079715, "fusion_lat": 0.0}, {"name": "f2a5b641da3f4d8896e05b7c84059281", "fusion_lon": 0.0, "lat": 38.9199945, "is_reserved": 0, "type": "electric_scooter", "bike_id": "f2a5b641da3f4d8896e05b7c84059281", "is_disabled": 0, "rental_uris": {"android": "https://dc.lft.to/lastmile_qr_scan", "ios": "https://dc.lft.to/lastmile_qr_scan"}, "lon": -77.04186033333333, "fusion_lat": 0.0}, {"name": "b6fecd0f4906a1295e3019bbae4bf163", "fusion_lon": 0.0, "lat": 38.8972295, "is_reserved": 0, "type": "electric_scooter", "bike_id": "b6fecd0f4906a1295e3019bbae4bf163", "is_disabled": 0, "rental_uris": {"android": "https://dc.lft.to/lastmile_qr_scan", "ios": "https://dc.lft.to/lastmile_qr_scan"}, "lon": -77.02380316666667, "fusion_lat": 0.0}, {"name": "2067358ea31ba8910bb76949bd8f3752", "fusion_lon": 0.0, "lat": 38.921640833333335, "is_reserved": 0, "type": "electric_scooter", "bike_id": "2067358ea31ba8910bb76949bd8f3752", "is_disabled": 0, "rental_uris": {"android": "https://dc.lft.to/lastmile_qr_scan", "ios": "https://dc.lft.to/lastmile_qr_scan"}, "lon": -77.03259533333333, "fusion_lat": 0.0}, {"name": "8251df0f3c2c35176e2c729db350f824", "fusion_lon": 0.0, "lat": 38.91544833333333, "is_reserved": 0, "type": "electric_scooter", "bike_id": "8251df0f3c2c35176e2c729db350f824", "is_disabled": 0, "rental_uris": {"android": "https://dc.lft.to/lastmile_qr_scan", "ios": "https://dc.lft.to/lastmile_qr_scan"}, "lon": -76.97011916666666, "fusion_lat": 0.0}, {"name": "f80686e037c91fd358cf237e35f9a341", "fusion_lon": 0.0, "lat": 38.900152166666665, "is_reserved": 0, "type": "electric_scooter", "bike_id": "f80686e037c91fd358cf237e35f9a341", "is_disabled": 0, "rental_uris": {"android": "https://dc.lft.to/lastmile_qr_scan", "ios": "https://dc.lft.to/lastmile_qr_scan"}, "lon": -76.99715316666666, "fusion_lat": 0.0}, {"name": "3eef10f91f07662ec251882903d58e02", "fusion_lon": 0.0, "lat": 38.8948485, "is_reserved": 0, "type": "electric_bike", "bike_id": "3eef10f91f07662ec251882903d58e02", "is_disabled": 0, "rental_uris": {"android": "https://dc.lft.to/lastmile_qr_scan", "ios": "https://dc.lft.to/lastmile_qr_scan"}, "lon": -77.0711595, "fusion_lat": 0.0}, {"name": "2f2c354ab6d76fe4d9d409d53b9c1f17", "fusion_lon": 0.0, "lat": 38.9067405, "is_reserved": 0, "type": "electric_scooter", "bike_id": "2f2c354ab6d76fe4d9d409d53b9c1f17", "is_disabled": 0, "rental_uris": {"android": "https://dc.lft.to/lastmile_qr_scan", "ios": "https://dc.lft.to/lastmile_qr_scan"}, "lon": -77.07119766666666, "fusion_lat": 0.0}, {"name": "509ee439060a2ac2d273a3bc5e2496ca", "fusion_lon": 0.0, "lat": 38.9101935, "is_reserved": 0, "type": "electric_scooter", "bike_id": "509ee439060a2ac2d273a3bc5e2496ca", "is_disabled": 0, "rental_uris": {"android": "https://dc.lft.to/lastmile_qr_scan", "ios": "https://dc.lft.to/lastmile_qr_scan"}, "lon": -77.009169, "fusion_lat": 0.0}, {"name": "3ce36b938efefa31016e5d657d539105", "fusion_lon": 0.0, "lat": 38.893591, "is_reserved": 0, "type": "electric_scooter", "bike_id": "3ce36b938efefa31016e5d657d539105", "is_disabled": 0, "rental_uris": {"android": "https://dc.lft.to/lastmile_qr_scan", "ios": "https://dc.lft.to/lastmile_qr_scan"}, "lon": -76.94933783333333, "fusion_lat": 0.0}, {"name": "c555417f69381e28a011372caf618582", "fusion_lon": 0.0, "lat": 38.884601833333335, "is_reserved": 0, "type": "electric_scooter", "bike_id": "c555417f69381e28a011372caf618582", "is_disabled": 0, "rental_uris": {"android": "https://dc.lft.to/lastmile_qr_scan", "ios": "https://dc.lft.to/lastmile_qr_scan"}, "lon": -76.95740633333334, "fusion_lat": 0.0}, {"name": "b488aaf2d70947e9728483f0a558a62b", "fusion_lon": 0.0, "lat": 38.90025166666667, "is_reserved": 0, "type": "electric_scooter", "bike_id": "b488aaf2d70947e9728483f0a558a62b", "is_disabled": 0, "rental_uris": {"android": "https://dc.lft.to/lastmile_qr_scan", "ios": "https://dc.lft.to/lastmile_qr_scan"}, "lon": -76.99439183333334, "fusion_lat": 0.0}, {"name": "b98a83b3cc104f9aecad34e6db822c2b", "fusion_lon": 0.0, "lat": 39.054976, "is_reserved": 0, "type": "electric_bike", "bike_id": "b98a83b3cc104f9aecad34e6db822c2b", "is_disabled": 0, "rental_uris": {"android": "https://dc.lft.to/lastmile_qr_scan", "ios": "https://dc.lft.to/lastmile_qr_scan"}, "lon": -77.11789633333333, "fusion_lat": 0.0}, {"name": "da3bbbe601dc3e76c5d1c8aea725e1be", "fusion_lon": 0.0, "lat": 39.034210333333334, "is_reserved": 0, "type": "electric_bike", "bike_id": "da3bbbe601dc3e76c5d1c8aea725e1be", "is_disabled": 0, "rental_uris": {"android": "https://dc.lft.to/lastmile_qr_scan", "ios": "https://dc.lft.to/lastmile_qr_scan"}, "lon": -77.04250016666667, "fusion_lat": 0.0}, {"name": "0a8ba13770806789f6605936304558df", "fusion_lon": 0.0, "lat": 38.92663483333333, "is_reserved": 0, "type": "electric_scooter", "bike_id": "0a8ba13770806789f6605936304558df", "is_disabled": 0, "rental_uris": {"android": "https://dc.lft.to/lastmile_qr_scan", "ios": "https://dc.lft.to/lastmile_qr_scan"}, "lon": -77.00871666666667, "fusion_lat": 0.0}, {"name": "9e0fe2ebbce4203d0b1aa57481caf1f9", "fusion_lon": 0.0, "lat": 38.92237883333333, "is_reserved": 0, "type": "electric_scooter", "bike_id": "9e0fe2ebbce4203d0b1aa57481caf1f9", "is_disabled": 0, "rental_uris": {"android": "https://dc.lft.to/lastmile_qr_scan", "ios": "https://dc.lft.to/lastmile_qr_scan"}, "lon": -77.02128133333333, "fusion_lat": 0.0}, {"name": "e8e9e37ff9c21c04f28717c8356d89c2", "fusion_lon": 0.0, "lat": 38.90956583333333, "is_reserved": 0, "type": "electric_scooter", "bike_id": "e8e9e37ff9c21c04f28717c8356d89c2", "is_disabled": 0, "rental_uris": {"android": "https://dc.lft.to/lastmile_qr_scan", "ios": "https://dc.lft.to/lastmile_qr_scan"}, "lon": -77.02383433333334, "fusion_lat": 0.0}, {"name": "2c16d4b42862ce5ce273c232282dbb14", "fusion_lon": 0.0, "lat": 38.903262166666664, "is_reserved": 0, "type": "electric_bike", "bike_id": "2c16d4b42862ce5ce273c232282dbb14", "is_disabled": 0, "rental_uris": {"android": "https://dc.lft.to/lastmile_qr_scan", "ios": "https://dc.lft.to/lastmile_qr_scan"}, "lon": -76.97297366666666, "fusion_lat": 0.0}, {"name": "28d2dd4d13bfb0e82dc1e848cbc0e67f", "fusion_lon": 0.0, "lat": 38.90428983333334, "is_reserved": 0, "type": "electric_scooter", "bike_id": "28d2dd4d13bfb0e82dc1e848cbc0e67f", "is_disabled": 0, "rental_uris": {"android": "https://dc.lft.to/lastmile_qr_scan", "ios": "https://dc.lft.to/lastmile_qr_scan"}, "lon": -77.043429, "fusion_lat": 0.0}, {"name": "9b533f977f40a6f6277837c4776bd6e3", "fusion_lon": 0.0, "lat": 38.90192416666667, "is_reserved": 0, "type": "electric_scooter", "bike_id": "9b533f977f40a6f6277837c4776bd6e3", "is_disabled": 0, "rental_uris": {"android": "https://dc.lft.to/lastmile_qr_scan", "ios": "https://dc.lft.to/lastmile_qr_scan"}, "lon": -77.02181083333333, "fusion_lat": 0.0}, {"name": "154cee1422e80203eec3616633dd3ef1", "fusion_lon": 0.0, "lat": 38.918966166666664, "is_reserved": 0, "type": "electric_scooter", "bike_id": "154cee1422e80203eec3616633dd3ef1", "is_disabled": 0, "rental_uris": {"android": "https://dc.lft.to/lastmile_qr_scan", "ios": "https://dc.lft.to/lastmile_qr_scan"}, "lon": -77.0245585, "fusion_lat": 0.0}, {"name": "ba657911dde922f74c3c4c6220bd3459", "fusion_lon": 0.0, "lat": 38.86244033333333, "is_reserved": 0, "type": "electric_scooter", "bike_id": "ba657911dde922f74c3c4c6220bd3459", "is_disabled": 0, "rental_uris": {"android": "https://dc.lft.to/lastmile_qr_scan", "ios": "https://dc.lft.to/lastmile_qr_scan"}, "lon": -76.994935, "fusion_lat": 0.0}, {"name": "1f0f9bc22f34338786bc71ec7caa2f3c", "fusion_lon": 0.0, "lat": 38.923703333333336, "is_reserved": 0, "type": "electric_scooter", "bike_id": "1f0f9bc22f34338786bc71ec7caa2f3c", "is_disabled": 0, "rental_uris": {"android": "https://dc.lft.to/lastmile_qr_scan", "ios": "https://dc.lft.to/lastmile_qr_scan"}, "lon": -77.0424425, "fusion_lat": 0.0}, {"name": "90765655394c7096672cf9499d7f90ca", "fusion_lon": 0.0, "lat": 38.9095805, "is_reserved": 0, "type": "electric_scooter", "bike_id": "90765655394c7096672cf9499d7f90ca", "is_disabled": 0, "rental_uris": {"android": "https://dc.lft.to/lastmile_qr_scan", "ios": "https://dc.lft.to/lastmile_qr_scan"}, "lon": -77.026847, "fusion_lat": 0.0}, {"name": "def1c955748b708d288e00f0287ceda0", "fusion_lon": 0.0, "lat": 38.91662266666667, "is_reserved": 0, "type": "electric_scooter", "bike_id": "def1c955748b708d288e00f0287ceda0", "is_disabled": 0, "rental_uris": {"android": "https://dc.lft.to/lastmile_qr_scan", "ios": "https://dc.lft.to/lastmile_qr_scan"}, "lon": -77.02971366666667, "fusion_lat": 0.0}, {"name": "32cb21c794e1b939208495eee1dcf032", "fusion_lon": 0.0, "lat": 38.9363765, "is_reserved": 0, "type": "electric_scooter", "bike_id": "32cb21c794e1b939208495eee1dcf032", "is_disabled": 0, "rental_uris": {"android": "https://dc.lft.to/lastmile_qr_scan", "ios": "https://dc.lft.to/lastmile_qr_scan"}, "lon": -77.058843, "fusion_lat": 0.0}, {"name": "8506daaf9b73ef0a0cc4fbf07b66686c", "fusion_lon": 0.0, "lat": 38.8988605, "is_reserved": 0, "type": "electric_scooter", "bike_id": "8506daaf9b73ef0a0cc4fbf07b66686c", "is_disabled": 0, "rental_uris": {"android": "https://dc.lft.to/lastmile_qr_scan", "ios": "https://dc.lft.to/lastmile_qr_scan"}, "lon": -76.99824033333333, "fusion_lat": 0.0}, {"name": "660d45919c1eeb8f82b41dedf3f7fd38", "fusion_lon": 0.0, "lat": 38.895386333333335, "is_reserved": 0, "type": "electric_scooter", "bike_id": "660d45919c1eeb8f82b41dedf3f7fd38", "is_disabled": 0, "rental_uris": {"android": "https://dc.lft.to/lastmile_qr_scan", "ios": "https://dc.lft.to/lastmile_qr_scan"}, "lon": -77.01109933333333, "fusion_lat": 0.0}, {"name": "6e6d0703d4dff86e5d03c142a47a53c3", "fusion_lon": 0.0, "lat": 38.90236183333333, "is_reserved": 0, "type": "electric_scooter", "bike_id": "6e6d0703d4dff86e5d03c142a47a53c3", "is_disabled": 0, "rental_uris": {"android": "https://dc.lft.to/lastmile_qr_scan", "ios": "https://dc.lft.to/lastmile_qr_scan"}, "lon": -77.00197616666667, "fusion_lat": 0.0}, {"name": "4f109820e9294308a9234c63448a39cc", "fusion_lon": 0.0, "lat": 38.920133666666665, "is_reserved": 0, "type": "electric_scooter", "bike_id": "4f109820e9294308a9234c63448a39cc", "is_disabled": 0, "rental_uris": {"android": "https://dc.lft.to/lastmile_qr_scan", "ios": "https://dc.lft.to/lastmile_qr_scan"}, "lon": -77.03885733333334, "fusion_lat": 0.0}, {"name": "1d310d8a6d0fe69a468f94547bba3911", "fusion_lon": 0.0, "lat": 38.95687016666667, "is_reserved": 0, "type": "electric_scooter", "bike_id": "1d310d8a6d0fe69a468f94547bba3911", "is_disabled": 0, "rental_uris": {"android": "https://dc.lft.to/lastmile_qr_scan", "ios": "https://dc.lft.to/lastmile_qr_scan"}, "lon": -77.02233283333334, "fusion_lat": 0.0}, {"name": "dd29e48f6ed6970d2fc097bf27689324", "fusion_lon": 0.0, "lat": 38.904131, "is_reserved": 0, "type": "electric_scooter", "bike_id": "dd29e48f6ed6970d2fc097bf27689324", "is_disabled": 0, "rental_uris": {"android": "https://dc.lft.to/lastmile_qr_scan", "ios": "https://dc.lft.to/lastmile_qr_scan"}, "lon": -77.04991033333333, "fusion_lat": 0.0}, {"name": "abe7abd100e674d68e901430b2bd368a", "fusion_lon": 0.0, "lat": 38.804309, "is_reserved": 0, "type": "electric_bike", "bike_id": "abe7abd100e674d68e901430b2bd368a", "is_disabled": 0, "rental_uris": {"android": "https://dc.lft.to/lastmile_qr_scan", "ios": "https://dc.lft.to/lastmile_qr_scan"}, "lon": -77.055693, "fusion_lat": 0.0}, {"name": "abbaa2e5a6b1d63f4c40ad6f76198bea", "fusion_lon": 0.0, "lat": 38.876633166666664, "is_reserved": 0, "type": "electric_scooter", "bike_id": "abbaa2e5a6b1d63f4c40ad6f76198bea", "is_disabled": 0, "rental_uris": {"android": "https://dc.lft.to/lastmile_qr_scan", "ios": "https://dc.lft.to/lastmile_qr_scan"}, "lon": -77.01825333333333, "fusion_lat": 0.0}, {"name": "eb78836bb7cd14e17744f1f608b77c8c", "fusion_lon": 0.0, "lat": 38.89808133333333, "is_reserved": 0, "type": "electric_scooter", "bike_id": "eb78836bb7cd14e17744f1f608b77c8c", "is_disabled": 0, "rental_uris": {"android": "https://dc.lft.to/lastmile_qr_scan", "ios": "https://dc.lft.to/lastmile_qr_scan"}, "lon": -77.02966033333334, "fusion_lat": 0.0}, {"name": "29433004098c334fdd21760b4692669d", "fusion_lon": 0.0, "lat": 38.92163716666666, "is_reserved": 0, "type": "electric_scooter", "bike_id": "29433004098c334fdd21760b4692669d", "is_disabled": 0, "rental_uris": {"android": "https://dc.lft.to/lastmile_qr_scan", "ios": "https://dc.lft.to/lastmile_qr_scan"}, "lon": -77.03517283333333, "fusion_lat": 0.0}, {"name": "1387f42ed089ea8c8f56d75d91f471e2", "fusion_lon": 0.0, "lat": 38.9111695, "is_reserved": 0, "type": "electric_scooter", "bike_id": "1387f42ed089ea8c8f56d75d91f471e2", "is_disabled": 0, "rental_uris": {"android": "https://dc.lft.to/lastmile_qr_scan", "ios": "https://dc.lft.to/lastmile_qr_scan"}, "lon": -77.04359716666667, "fusion_lat": 0.0}, {"name": "3ef9bc69d2f6596db2550c245a8f7edb", "fusion_lon": 0.0, "lat": 38.98454383333333, "is_reserved": 0, "type": "electric_bike", "bike_id": "3ef9bc69d2f6596db2550c245a8f7edb", "is_disabled": 0, "rental_uris": {"android": "https://dc.lft.to/lastmile_qr_scan", "ios": "https://dc.lft.to/lastmile_qr_scan"}, "lon": -77.02674333333333, "fusion_lat": 0.0}, {"name": "3736eec114be52b60b8adba98122a36b", "fusion_lon": 0.0, "lat": 38.91996183333333, "is_reserved": 0, "type": "electric_scooter", "bike_id": "3736eec114be52b60b8adba98122a36b", "is_disabled": 0, "rental_uris": {"android": "https://dc.lft.to/lastmile_qr_scan", "ios": "https://dc.lft.to/lastmile_qr_scan"}, "lon": -77.023925, "fusion_lat": 0.0}, {"name": "d283d51923d3e7e8680ee08459889e3c", "fusion_lon": 0.0, "lat": 38.9037735, "is_reserved": 0, "type": "electric_scooter", "bike_id": "d283d51923d3e7e8680ee08459889e3c", "is_disabled": 0, "rental_uris": {"android": "https://dc.lft.to/lastmile_qr_scan", "ios": "https://dc.lft.to/lastmile_qr_scan"}, "lon": -77.0295295, "fusion_lat": 0.0}, {"name": "5ac1034935d70c462ec516e77393ac2d", "fusion_lon": 0.0, "lat": 38.911479, "is_reserved": 0, "type": "electric_scooter", "bike_id": "5ac1034935d70c462ec516e77393ac2d", "is_disabled": 0, "rental_uris": {"android": "https://dc.lft.to/lastmile_qr_scan", "ios": "https://dc.lft.to/lastmile_qr_scan"}, "lon": -77.02391316666667, "fusion_lat": 0.0}, {"name": "b46394ae041749d1055169f22251dbe1", "fusion_lon": 0.0, "lat": 38.91681333333333, "is_reserved": 0, "type": "electric_scooter", "bike_id": "b46394ae041749d1055169f22251dbe1", "is_disabled": 0, "rental_uris": {"android": "https://dc.lft.to/lastmile_qr_scan", "ios": "https://dc.lft.to/lastmile_qr_scan"}, "lon": -77.03687816666667, "fusion_lat": 0.0}, {"name": "85c4b044c397ac6c385576082a7f10fb", "fusion_lon": 0.0, "lat": 38.91476016666667, "is_reserved": 0, "type": "electric_scooter", "bike_id": "85c4b044c397ac6c385576082a7f10fb", "is_disabled": 0, "rental_uris": {"android": "https://dc.lft.to/lastmile_qr_scan", "ios": "https://dc.lft.to/lastmile_qr_scan"}, "lon": -77.04533733333334, "fusion_lat": 0.0}, {"name": "5549387192bb7129c5b77631a34f4bd2", "fusion_lon": 0.0, "lat": 38.9068085, "is_reserved": 0, "type": "electric_scooter", "bike_id": "5549387192bb7129c5b77631a34f4bd2", "is_disabled": 0, "rental_uris": {"android": "https://dc.lft.to/lastmile_qr_scan", "ios": "https://dc.lft.to/lastmile_qr_scan"}, "lon": -77.03522266666667, "fusion_lat": 0.0}, {"name": "4665cbaf908a57520615f3922a0f16c3", "fusion_lon": 0.0, "lat": 38.9199485, "is_reserved": 0, "type": "electric_scooter", "bike_id": "4665cbaf908a57520615f3922a0f16c3", "is_disabled": 0, "rental_uris": {"android": "https://dc.lft.to/lastmile_qr_scan", "ios": "https://dc.lft.to/lastmile_qr_scan"}, "lon": -77.0239465, "fusion_lat": 0.0}, {"name": "fb74f0c07ea0fa24e990404c3c619c72", "fusion_lon": 0.0, "lat": 38.898466, "is_reserved": 0, "type": "electric_scooter", "bike_id": "fb74f0c07ea0fa24e990404c3c619c72", "is_disabled": 0, "rental_uris": {"android": "https://dc.lft.to/lastmile_qr_scan", "ios": "https://dc.lft.to/lastmile_qr_scan"}, "lon": -77.02381983333333, "fusion_lat": 0.0}, {"name": "a4f5316bf2d432806c372c5eee38cb40", "fusion_lon": 0.0, "lat": 38.897269333333334, "is_reserved": 0, "type": "electric_scooter", "bike_id": "a4f5316bf2d432806c372c5eee38cb40", "is_disabled": 0, "rental_uris": {"android": "https://dc.lft.to/lastmile_qr_scan", "ios": "https://dc.lft.to/lastmile_qr_scan"}, "lon": -77.00784416666667, "fusion_lat": 0.0}, {"name": "da6f74df414be1b49c65ee3b860f5178", "fusion_lon": 0.0, "lat": 38.90178983333333, "is_reserved": 0, "type": "electric_scooter", "bike_id": "da6f74df414be1b49c65ee3b860f5178", "is_disabled": 0, "rental_uris": {"android": "https://dc.lft.to/lastmile_qr_scan", "ios": "https://dc.lft.to/lastmile_qr_scan"}, "lon": -76.983038, "fusion_lat": 0.0}, {"name": "db8283c4fc59a2ea4a0680e52001affd", "fusion_lon": 0.0, "lat": 38.86521966666667, "is_reserved": 0, "type": "electric_bike", "bike_id": "db8283c4fc59a2ea4a0680e52001affd", "is_disabled": 0, "rental_uris": {"android": "https://dc.lft.to/lastmile_qr_scan", "ios": "https://dc.lft.to/lastmile_qr_scan"}, "lon": -76.9734095, "fusion_lat": 0.0}, {"name": "4db22f12b6e785093edace91206d3fc3", "fusion_lon": 0.0, "lat": 38.92859133333333, "is_reserved": 0, "type": "electric_scooter", "bike_id": "4db22f12b6e785093edace91206d3fc3", "is_disabled": 0, "rental_uris": {"android": "https://dc.lft.to/lastmile_qr_scan", "ios": "https://dc.lft.to/lastmile_qr_scan"}, "lon": -77.03660416666666, "fusion_lat": 0.0}, {"name": "0d3889879ae8c5e94009e8599f700127", "fusion_lon": 0.0, "lat": 38.9529845, "is_reserved": 0, "type": "electric_bike", "bike_id": "0d3889879ae8c5e94009e8599f700127", "is_disabled": 0, "rental_uris": {"android": "https://dc.lft.to/lastmile_qr_scan", "ios": "https://dc.lft.to/lastmile_qr_scan"}, "lon": -77.023992, "fusion_lat": 0.0}, {"name": "8c7623302faa0a8ec4da157ae5165030", "fusion_lon": 0.0, "lat": 38.91557066666667, "is_reserved": 0, "type": "electric_scooter", "bike_id": "8c7623302faa0a8ec4da157ae5165030", "is_disabled": 0, "rental_uris": {"android": "https://dc.lft.to/lastmile_qr_scan", "ios": "https://dc.lft.to/lastmile_qr_scan"}, "lon": -77.04179283333333, "fusion_lat": 0.0}, {"name": "7589a7e41bbc15f2b82efe0eb2081dbf", "fusion_lon": 0.0, "lat": 38.925118166666664, "is_reserved": 0, "type": "electric_scooter", "bike_id": "7589a7e41bbc15f2b82efe0eb2081dbf", "is_disabled": 0, "rental_uris": {"android": "https://dc.lft.to/lastmile_qr_scan", "ios": "https://dc.lft.to/lastmile_qr_scan"}, "lon": -77.023549, "fusion_lat": 0.0}, {"name": "4d8547de6c1484ca867716bf18ad5af0", "fusion_lon": 0.0, "lat": 38.91741316666667, "is_reserved": 0, "type": "electric_scooter", "bike_id": "4d8547de6c1484ca867716bf18ad5af0", "is_disabled": 0, "rental_uris": {"android": "https://dc.lft.to/lastmile_qr_scan", "ios": "https://dc.lft.to/lastmile_qr_scan"}, "lon": -77.02118833333333, "fusion_lat": 0.0}, {"name": "3f6b37c94cc573503ef9a450157640d9", "fusion_lon": 0.0, "lat": 38.9176795, "is_reserved": 0, "type": "electric_scooter", "bike_id": "3f6b37c94cc573503ef9a450157640d9", "is_disabled": 0, "rental_uris": {"android": "https://dc.lft.to/lastmile_qr_scan", "ios": "https://dc.lft.to/lastmile_qr_scan"}, "lon": -77.04060666666666, "fusion_lat": 0.0}, {"name": "d3e0ef9059d48aed126e3b1a8b6e1231", "fusion_lon": 0.0, "lat": 38.91695933333333, "is_reserved": 0, "type": "electric_scooter", "bike_id": "d3e0ef9059d48aed126e3b1a8b6e1231", "is_disabled": 0, "rental_uris": {"android": "https://dc.lft.to/lastmile_qr_scan", "ios": "https://dc.lft.to/lastmile_qr_scan"}, "lon": -77.04260933333333, "fusion_lat": 0.0}, {"name": "6268d771eb99e013915f087a61acdddd", "fusion_lon": 0.0, "lat": 38.878823833333335, "is_reserved": 0, "type": "electric_bike", "bike_id": "6268d771eb99e013915f087a61acdddd", "is_disabled": 0, "rental_uris": {"android": "https://dc.lft.to/lastmile_qr_scan", "ios": "https://dc.lft.to/lastmile_qr_scan"}, "lon": -77.09616383333334, "fusion_lat": 0.0}, {"name": "e6899d04916f8064ec7c21cc740bb768", "fusion_lon": 0.0, "lat": 38.89794, "is_reserved": 0, "type": "electric_scooter", "bike_id": "e6899d04916f8064ec7c21cc740bb768", "is_disabled": 0, "rental_uris": {"android": "https://dc.lft.to/lastmile_qr_scan", "ios": "https://dc.lft.to/lastmile_qr_scan"}, "lon": -77.009184, "fusion_lat": 0.0}, {"name": "f10e1856542d978233b446b25c7c439d", "fusion_lon": 0.0, "lat": 38.924514333333335, "is_reserved": 0, "type": "electric_scooter", "bike_id": "f10e1856542d978233b446b25c7c439d", "is_disabled": 0, "rental_uris": {"android": "https://dc.lft.to/lastmile_qr_scan", "ios": "https://dc.lft.to/lastmile_qr_scan"}, "lon": -77.04111083333333, "fusion_lat": 0.0}, {"name": "b53f61cf359b7eb22e7cfca2f29800f7", "fusion_lon": 0.0, "lat": 38.9127935, "is_reserved": 0, "type": "electric_scooter", "bike_id": "b53f61cf359b7eb22e7cfca2f29800f7", "is_disabled": 0, "rental_uris": {"android": "https://dc.lft.to/lastmile_qr_scan", "ios": "https://dc.lft.to/lastmile_qr_scan"}, "lon": -77.04498633333333, "fusion_lat": 0.0}, {"name": "f0a9ba42c6907e1c6c760767ff674e01", "fusion_lon": 0.0, "lat": 38.90356516666667, "is_reserved": 0, "type": "electric_scooter", "bike_id": "f0a9ba42c6907e1c6c760767ff674e01", "is_disabled": 0, "rental_uris": {"android": "https://dc.lft.to/lastmile_qr_scan", "ios": "https://dc.lft.to/lastmile_qr_scan"}, "lon": -77.05012933333333, "fusion_lat": 0.0}, {"name": "ebfdfec882297cfd69696c5a9987f826", "fusion_lon": 0.0, "lat": 38.89856316666667, "is_reserved": 0, "type": "electric_scooter", "bike_id": "ebfdfec882297cfd69696c5a9987f826", "is_disabled": 0, "rental_uris": {"android": "https://dc.lft.to/lastmile_qr_scan", "ios": "https://dc.lft.to/lastmile_qr_scan"}, "lon": -77.04362566666667, "fusion_lat": 0.0}, {"name": "d23e52e4ebe7c50989e8f4f92d7a28b8", "fusion_lon": 0.0, "lat": 38.871711166666664, "is_reserved": 0, "type": "electric_scooter", "bike_id": "d23e52e4ebe7c50989e8f4f92d7a28b8", "is_disabled": 0, "rental_uris": {"android": "https://dc.lft.to/lastmile_qr_scan", "ios": "https://dc.lft.to/lastmile_qr_scan"}, "lon": -76.97745383333333, "fusion_lat": 0.0}, {"name": "d4f6d343ab380b56882b0c952a799523", "fusion_lon": 0.0, "lat": 38.895874666666664, "is_reserved": 0, "type": "electric_scooter", "bike_id": "d4f6d343ab380b56882b0c952a799523", "is_disabled": 0, "rental_uris": {"android": "https://dc.lft.to/lastmile_qr_scan", "ios": "https://dc.lft.to/lastmile_qr_scan"}, "lon": -77.0258585, "fusion_lat": 0.0}, {"name": "4d45cbb729b3175f82efc8e27e9188c6", "fusion_lon": 0.0, "lat": 38.891839, "is_reserved": 0, "type": "electric_scooter", "bike_id": "4d45cbb729b3175f82efc8e27e9188c6", "is_disabled": 0, "rental_uris": {"android": "https://dc.lft.to/lastmile_qr_scan", "ios": "https://dc.lft.to/lastmile_qr_scan"}, "lon": -76.911912, "fusion_lat": 0.0}, {"name": "1a61470a27142c7ff02e26646eae0039", "fusion_lon": 0.0, "lat": 38.91614766666667, "is_reserved": 0, "type": "electric_scooter", "bike_id": "1a61470a27142c7ff02e26646eae0039", "is_disabled": 0, "rental_uris": {"android": "https://dc.lft.to/lastmile_qr_scan", "ios": "https://dc.lft.to/lastmile_qr_scan"}, "lon": -77.02169016666667, "fusion_lat": 0.0}, {"name": "6a9f7423867f0a19f6bbb6b12343e73a", "fusion_lon": 0.0, "lat": 38.92582933333333, "is_reserved": 0, "type": "electric_scooter", "bike_id": "6a9f7423867f0a19f6bbb6b12343e73a", "is_disabled": 0, "rental_uris": {"android": "https://dc.lft.to/lastmile_qr_scan", "ios": "https://dc.lft.to/lastmile_qr_scan"}, "lon": -77.02613533333333, "fusion_lat": 0.0}, {"name": "6c682c6914b8ae8a6032a21b58823ff1", "fusion_lon": 0.0, "lat": 38.916943333333336, "is_reserved": 0, "type": "electric_scooter", "bike_id": "6c682c6914b8ae8a6032a21b58823ff1", "is_disabled": 0, "rental_uris": {"android": "https://dc.lft.to/lastmile_qr_scan", "ios": "https://dc.lft.to/lastmile_qr_scan"}, "lon": -77.03374283333333, "fusion_lat": 0.0}, {"name": "8842f5f75e823b24946562c612539659", "fusion_lon": 0.0, "lat": 38.89839516666667, "is_reserved": 0, "type": "electric_scooter", "bike_id": "8842f5f75e823b24946562c612539659", "is_disabled": 0, "rental_uris": {"android": "https://dc.lft.to/lastmile_qr_scan", "ios": "https://dc.lft.to/lastmile_qr_scan"}, "lon": -77.033493, "fusion_lat": 0.0}, {"name": "10cb0df217cb4caf0124bb0b972cb869", "fusion_lon": 0.0, "lat": 38.92492416666666, "is_reserved": 0, "type": "electric_scooter", "bike_id": "10cb0df217cb4caf0124bb0b972cb869", "is_disabled": 0, "rental_uris": {"android": "https://dc.lft.to/lastmile_qr_scan", "ios": "https://dc.lft.to/lastmile_qr_scan"}, "lon": -77.02136183333333, "fusion_lat": 0.0}, {"name": "e9405d2f35460c1ed19d05f70a9cea3c", "fusion_lon": 0.0, "lat": 38.940874666666666, "is_reserved": 0, "type": "electric_scooter", "bike_id": "e9405d2f35460c1ed19d05f70a9cea3c", "is_disabled": 0, "rental_uris": {"android": "https://dc.lft.to/lastmile_qr_scan", "ios": "https://dc.lft.to/lastmile_qr_scan"}, "lon": -77.07737483333334, "fusion_lat": 0.0}, {"name": "aaa78e7e593a6c7abb789cf13632be2e", "fusion_lon": 0.0, "lat": 38.91555983333333, "is_reserved": 0, "type": "electric_scooter", "bike_id": "aaa78e7e593a6c7abb789cf13632be2e", "is_disabled": 0, "rental_uris": {"android": "https://dc.lft.to/lastmile_qr_scan", "ios": "https://dc.lft.to/lastmile_qr_scan"}, "lon": -77.024287, "fusion_lat": 0.0}, {"name": "d1a408bd4797b884969e9fe45f40e29f", "fusion_lon": 0.0, "lat": 38.898383333333335, "is_reserved": 0, "type": "electric_scooter", "bike_id": "d1a408bd4797b884969e9fe45f40e29f", "is_disabled": 0, "rental_uris": {"android": "https://dc.lft.to/lastmile_qr_scan", "ios": "https://dc.lft.to/lastmile_qr_scan"}, "lon": -77.04341416666666, "fusion_lat": 0.0}, {"name": "109ec46eff6c8c801c9c1ce8a73878fd", "fusion_lon": 0.0, "lat": 38.99625066666667, "is_reserved": 0, "type": "electric_scooter", "bike_id": "109ec46eff6c8c801c9c1ce8a73878fd", "is_disabled": 0, "rental_uris": {"android": "https://dc.lft.to/lastmile_qr_scan", "ios": "https://dc.lft.to/lastmile_qr_scan"}, "lon": -77.03138266666667, "fusion_lat": 0.0}, {"name": "8f957d4c2f557117d6650624cacb0ef2", "fusion_lon": 0.0, "lat": 38.92337083333334, "is_reserved": 0, "type": "electric_scooter", "bike_id": "8f957d4c2f557117d6650624cacb0ef2", "is_disabled": 0, "rental_uris": {"android": "https://dc.lft.to/lastmile_qr_scan", "ios": "https://dc.lft.to/lastmile_qr_scan"}, "lon": -77.05248366666666, "fusion_lat": 0.0}, {"name": "5ce953a7d102c23d5e67da128b6b7c70", "fusion_lon": 0.0, "lat": 38.9159825, "is_reserved": 0, "type": "electric_scooter", "bike_id": "5ce953a7d102c23d5e67da128b6b7c70", "is_disabled": 0, "rental_uris": {"android": "https://dc.lft.to/lastmile_qr_scan", "ios": "https://dc.lft.to/lastmile_qr_scan"}, "lon": -76.98379183333333, "fusion_lat": 0.0}, {"name": "d102341a7381c3ba3557266c6318ae82", "fusion_lon": 0.0, "lat": 38.874589666666665, "is_reserved": 0, "type": "electric_scooter", "bike_id": "d102341a7381c3ba3557266c6318ae82", "is_disabled": 0, "rental_uris": {"android": "https://dc.lft.to/lastmile_qr_scan", "ios": "https://dc.lft.to/lastmile_qr_scan"}, "lon": -77.0054345, "fusion_lat": 0.0},