{"data": {"bikes": [{"is_disabled": 0, "rental_uris": {"android": "https://dc.lft.to/lastmile_qr_scan", "ios": "https://dc.lft.to/lastmile_qr_scan"}, "is_reserved": 0, "name": "abf0aca3315bd1ef8148eb25a3948679", "lon": -77.03479383333334, "type": "electric_scooter", "bike_id": "abf0aca3315bd1ef8148eb25a3948679", "fusion_lon": 0.0, "lat": 38.9214755, "fusion_lat": 0.0}, {"is_disabled": 0, "rental_uris": {"android": "https://dc.lft.to/lastmile_qr_scan", "ios": "https://dc.lft.to/lastmile_qr_scan"}, "is_reserved": 0, "name": "3a8b7d6ca92c523a96f848d90a2b7e4c", "lon": -77.03919483333334, "type": "electric_scooter", "bike_id": "3a8b7d6ca92c523a96f848d90a2b7e4c", "fusion_lon": 0.0, "lat": 38.91914233333333, "fusion_lat": 0.0}, {"is_disabled": 0, "rental_uris": {"android": "https://dc.lft.to/lastmile_qr_scan", "ios": "https://dc.lft.to/lastmile_qr_scan"}, "is_reserved": 0, "name": "a54128a67a26b4a5365be6c6153086a4", "lon": -77.0322625, "type": "electric_scooter", "bike_id": "a54128a67a26b4a5365be6c6153086a4", "fusion_lon": 0.0, "lat": 38.9183175, "fusion_lat": 0.0}, {"is_disabled": 0, "rental_uris": {"android": "https://dc.lft.to/lastmile_qr_scan", "ios": "https://dc.lft.to/lastmile_qr_scan"}, "is_reserved": 0, "name": "68b8c9b42106a7a3b9841f7d3d42b710", "lon": -77.0218655, "type": "electric_scooter", "bike_id": "68b8c9b42106a7a3b9841f7d3d42b710", "fusion_lon": 0.0, "lat": 38.8951445, "fusion_lat": 0.0}, {"is_disabled": 0, "rental_uris": {"android": "https://dc.lft.to/lastmile_qr_scan", "ios": "https://dc.lft.to/lastmile_qr_scan"}, "is_reserved": 0, "name": "b8aaf14d5466c27a3881c5ea5a481170", "lon": -76.99631433333333, "type": "electric_scooter", "bike_id": "b8aaf14d5466c27a3881c5ea5a481170", "fusion_lon": 0.0, "lat": 38.84622866666667, "fusion_lat": 0.0}, {"is_disabled": 0, "rental_uris": {"android": "https://dc.lft.to/lastmile_qr_scan", "ios": "https://dc.lft.to/lastmile_qr_scan"}, "is_reserved": 0, "name": "218361ed17b138bc27c806c94150aaae", "lon": -77.01486433333334, "type": "electric_scooter", "bike_id": "218361ed17b138bc27c806c94150aaae", "fusion_lon": 0.0, "lat": 38.899080166666664, "fusion_lat": 0.0}, {"is_disabled": 0, "rental_uris": {"android": "https://dc.lft.to/lastmile_qr_scan", "ios": "https://dc.lft.to/lastmile_qr_scan"}, "is_reserved": 0, "name": "cd596ecd4855bfa4db768d12d33a02a6", "lon": -77.04663333333333, "type": "electric_scooter", "bike_id": "cd596ecd4855bfa4db768d12d33a02a6", "fusion_lon": 0.0, "lat": 38.892480166666665, "fusion_lat": 0.0}, {"is_disabled": 0, "rental_uris": {"android": "https://dc.lft.to/lastmile_qr_scan", "ios": "https://dc.lft.to/lastmile_qr_scan"}, "is_reserved": 0, "name": "519f11d8bdb84b5500f5de0bc9c6aaa7", "lon": -77.162328, "type": "electric_bike", "bike_id": "519f11d8bdb84b5500f5de0bc9c6aaa7", "fusion_lon": 0.0, "lat": 38.886626166666666, "fusion_lat": 0.0}, {"is_disabled": 0, "rental_uris": {"android": "https://dc.lft.to/lastmile_qr_scan", "ios": "https://dc.lft.to/lastmile_qr_scan"}, "is_reserved": 0, "name": "b9e2f3e68b7e6da5254be8528222f98c", "lon": -76.93050983333333, "type": "electric_scooter", "bike_id": "b9e2f3e68b7e6da5254be8528222f98c", "fusion_lon": 0.0, "lat": 38.89791916666667, "fusion_lat": 0.0}, {"is_disabled": 0, "rental_uris": {"android": "https://dc.lft.to/lastmile_qr_scan", "ios": "https://dc.lft.to/lastmile_qr_scan"}, "is_reserved": 0, "name": "4415c39440ac559614a9acf06360ab7a", "lon": -76.93740083333333, "type": "electric_scooter", "bike_id": "4415c39440ac559614a9acf06360ab7a", "fusion_lon": 0.0, "lat": 38.890149666666666, "fusion_lat": 0.0}, {"is_disabled": 0, "rental_uris": {"android": "https://dc.lft.to/lastmile_qr_scan", "ios": "https://dc.lft.to/lastmile_qr_scan"}, "is_reserved": 0, "name": "cfa88b8b98face89ab84683ea6bd5e64", "lon": -77.0415845, "type": "electric_scooter", "bike_id": "cfa88b8b98face89ab84683ea6bd5e64", "fusion_lon": 0.0, "lat": 38.914168, "fusion_lat": 0.0}, {"is_disabled": 0, "rental_uris": {"android": "https://dc.lft.to/lastmile_qr_scan", "ios": "https://dc.lft.to/lastmile_qr_scan"}, "is_reserved": 0, "name": "cdb30002c30d867b4ea5f5d07f9f02b9", "lon": -77.03343966666667, "type": "electric_scooter", "bike_id": "cdb30002c30d867b4ea5f5d07f9f02b9", "fusion_lon": 0.0, "lat": 38.9180045, "fusion_lat": 0.0}, {"is_disabled": 0, "rental_uris": {"android": "https://dc.lft.to/lastmile_qr_scan", "ios": "https://dc.lft.to/lastmile_qr_scan"}, "is_reserved": 0, "name": "626f482962adc63f982881e54805f11e", "lon": -77.03204333333333, "type": "electric_scooter", "bike_id": "626f482962adc63f982881e54805f11e", "fusion_lon": 0.0, "lat": 38.9098865, "fusion_lat": 0.0}, {"is_disabled": 0, "rental_uris": {"android": "https://dc.lft.to/lastmile_qr_scan", "ios": "https://dc.lft.to/lastmile_qr_scan"}, "is_reserved": 0, "name": "bc0856b8b3c8c69e8894e5d24c6a95e7", "lon": -76.996917, "type": "electric_bike", "bike_id": "bc0856b8b3c8c69e8894e5d24c6a95e7", "fusion_lon": 0.0, "lat": 38.83151683333333, "fusion_lat": 0.0}, {"is_disabled": 0, "rental_uris": {"android": "https://dc.lft.to/lastmile_qr_scan", "ios": "https://dc.lft.to/lastmile_qr_scan"}, "is_reserved": 0, "name": "42cb09cd5ed6a5eebb9421d675146da3", "lon": -77.02320033333334, "type": "electric_scooter", "bike_id": "42cb09cd5ed6a5eebb9421d675146da3", "fusion_lon": 0.0, "lat": 38.920896, "fusion_lat": 0.0}, {"is_disabled": 0, "rental_uris": {"android": "https://dc.lft.to/lastmile_qr_scan", "ios": "https://dc.lft.to/lastmile_qr_scan"}, "is_reserved": 0, "name": "2fffe86868fb00d095b5e5f7848aca95", "lon": -77.01546183333333, "type": "electric_scooter", "bike_id": "2fffe86868fb00d095b5e5f7848aca95", "fusion_lon": 0.0, "lat": 38.895335833333334, "fusion_lat": 0.0}, {"is_disabled": 0, "rental_uris": {"android": "https://dc.lft.to/lastmile_qr_scan", "ios": "https://dc.lft.to/lastmile_qr_scan"}, "is_reserved": 0, "name": "39a487c4cd2305bc66d1cdee700239f1", "lon": -77.034694, "type": "electric_scooter", "bike_id": "39a487c4cd2305bc66d1cdee700239f1", "fusion_lon": 0.0, "lat": 38.917092, "fusion_lat": 0.0}, {"is_disabled": 0, "rental_uris": {"android": "https://dc.lft.to/lastmile_qr_scan", "ios": "https://dc.lft.to/lastmile_qr_scan"}, "is_reserved": 0, "name": "0e6f2892347904b84c00dd6b83c17100", "lon": -76.94944183333334, "type": "electric_scooter", "bike_id": "0e6f2892347904b84c00dd6b83c17100", "fusion_lon": 0.0, "lat": 38.883218666666664, "fusion_lat": 0.0}, {"is_disabled": 0, "rental_uris": {"android": "https://dc.lft.to/lastmile_qr_scan", "ios": "https://dc.lft.to/lastmile_qr_scan"}, "is_reserved": 0, "name": "d4aeded4dcadf01678199607fb4af390", "lon": -77.0273035, "type": "electric_scooter", "bike_id": "d4aeded4dcadf01678199607fb4af390", "fusion_lon": 0.0, "lat": 38.928671, "fusion_lat": 0.0}, {"is_disabled": 0, "rental_uris": {"android": "https://dc.lft.to/lastmile_qr_scan", "ios": "https://dc.lft.to/lastmile_qr_scan"}, "is_reserved": 0, "name": "8c2196a66dff2433d9c993f49f2bfc58", "lon": -76.9928305, "type": "electric_bike", "bike_id": "8c2196a66dff2433d9c993f49f2bfc58", "fusion_lon": 0.0, "lat": 38.858398666666666, "fusion_lat": 0.0}, {"is_disabled": 0, "rental_uris": {"android": "https://dc.lft.to/lastmile_qr_scan", "ios": "https://dc.lft.to/lastmile_qr_scan"}, "is_reserved": 0, "name": "1e563d2f3e14213069784de587517eb8", "lon": -77.04562133333333, "type": "electric_scooter", "bike_id": "1e563d2f3e14213069784de587517eb8", "fusion_lon": 0.0, "lat": 38.913627166666664, "fusion_lat": 0.0}, {"is_disabled": 0, "rental_uris": {"android": "https://dc.lft.to/lastmile_qr_scan", "ios": "https://dc.lft.to/lastmile_qr_scan"}, "is_reserved": 0, "name": "78566d7c54fdd5dff395a61e7154181d", "lon": -77.01016816666667, "type": "electric_scooter", "bike_id": "78566d7c54fdd5dff395a61e7154181d", "fusion_lon": 0.0, "lat": 38.91816, "fusion_lat": 0.0}, {"is_disabled": 0, "rental_uris": {"android": "https://dc.lft.to/lastmile_qr_scan", "ios": "https://dc.lft.to/lastmile_qr_scan"}, "is_reserved": 0, "name": "052b5588d885fe1a3473d166c680e538", "lon": -76.98301366666666, "type": "electric_scooter", "bike_id": "052b5588d885fe1a3473d166c680e538", "fusion_lon": 0.0, "lat": 38.903837, "fusion_lat": 0.0}, {"is_disabled": 0, "rental_uris": {"android": "https://dc.lft.to/lastmile_qr_scan", "ios": "https://dc.lft.to/lastmile_qr_scan"}, "is_reserved": 0, "name": "72dde5020762fd0abab2fdb2455f1d19", "lon": -77.09441616666666, "type": "electric_scooter", "bike_id": "72dde5020762fd0abab2fdb2455f1d19", "fusion_lon": 0.0, "lat": 38.91793066666666, "fusion_lat": 0.0}, {"is_disabled": 0, "rental_uris": {"android": "https://dc.lft.to/lastmile_qr_scan", "ios": "https://dc.lft.to/lastmile_qr_scan"}, "is_reserved": 0, "name": "c1b9f3d0c5393b3b7edff6adb3301c61", "lon": -77.00197383333334, "type": "electric_scooter", "bike_id": "c1b9f3d0c5393b3b7edff6adb3301c61", "fusion_lon": 0.0, "lat": 38.9024105, "fusion_lat": 0.0}, {"is_disabled": 0, "rental_uris": {"android": "https://dc.lft.to/lastmile_qr_scan", "ios": "https://dc.lft.to/lastmile_qr_scan"}, "is_reserved": 0, "name": "4201880d7ba14e9ed8fe417b5fc653a4", "lon": -77.02487566666667, "type": "electric_scooter", "bike_id": "4201880d7ba14e9ed8fe417b5fc653a4", "fusion_lon": 0.0, "lat": 38.884460833333335, "fusion_lat": 0.0}, {"is_disabled": 0, "rental_uris": {"android": "https://dc.lft.to/lastmile_qr_scan", "ios": "https://dc.lft.to/lastmile_qr_scan"}, "is_reserved": 0, "name": "53aae529439b45af2ffda877cd118cdc", "lon": -77.0805485, "type": "electric_bike", "bike_id": "53aae529439b45af2ffda877cd118cdc", "fusion_lon": 0.0, "lat": 38.84841183333333, "fusion_lat": 0.0}, {"is_disabled": 0, "rental_uris": {"android": "https://dc.lft.to/lastmile_qr_scan", "ios": "https://dc.lft.to/lastmile_qr_scan"}, "is_reserved": 0, "name": "cbb239cdd54a593e9245afce2825d3ba", "lon": -77.04871866666667, "type": "electric_scooter", "bike_id": "cbb239cdd54a593e9245afce2825d3ba", "fusion_lon": 0.0, "lat": 38.90438483333333, "fusion_lat": 0.0}, {"is_disabled": 0, "rental_uris": {"android": "https://dc.lft.to/lastmile_qr_scan", "ios": "https://dc.lft.to/lastmile_qr_scan"}, "is_reserved": 0, "name": "6998fd8de27c36ab316b1a59d23127f9", "lon": -77.019911, "type": "electric_scooter", "bike_id": "6998fd8de27c36ab316b1a59d23127f9", "fusion_lon": 0.0, "lat": 38.87575433333333, "fusion_lat": 0.0}, {"is_disabled": 0, "rental_uris": {"android": "https://dc.lft.to/lastmile_qr_scan", "ios": "https://dc.lft.to/lastmile_qr_scan"}, "is_reserved": 0, "name": "33f96b75bd8159d8c1b67acc61778865", "lon": -77.0347685, "type": "electric_scooter", "bike_id": "33f96b75bd8159d8c1b67acc61778865", "fusion_lon": 0.0, "lat": 38.915542333333335, "fusion_lat": 0.0}, {"is_disabled": 0, "rental_uris": {"android": "https://dc.lft.to/lastmile_qr_scan", "ios": "https://dc.lft.to/lastmile_qr_scan"}, "is_reserved": 0, "name": "6eb3433cf817313b70a6a61ede9b675f", "lon": -77.05191683333334, "type": "electric_scooter", "bike_id": "6eb3433cf817313b70a6a61ede9b675f", "fusion_lon": 0.0, "lat": 38.92552116666667, "fusion_lat": 0.0}, {"is_disabled": 0, "rental_uris": {"android": "https://dc.lft.to/lastmile_qr_scan", "ios": "https://dc.lft.to/lastmile_qr_scan"}, "is_reserved": 0, "name": "050e4c7845f9dfbcafc86d69410c76bf", "lon": -76.9985345, "type": "electric_scooter", "bike_id": "050e4c7845f9dfbcafc86d69410c76bf", "fusion_lon": 0.0, "lat": 38.89999016666667, "fusion_lat": 0.0}, {"is_disabled": 0, "rental_uris": {"android": "https://dc.lft.to/lastmile_qr_scan", "ios": "https://dc.lft.to/lastmile_qr_scan"}, "is_reserved": 0, "name": "505322f603807ff0e3c1dba6756486b6", "lon": -77.03841833333334, "type": "electric_scooter", "bike_id": "505322f603807ff0e3c1dba6756486b6", "fusion_lon": 0.0, "lat": 38.9026145, "fusion_lat": 0.0}, {"is_disabled": 0, "rental_uris": {"android": "https://dc.lft.to/lastmile_qr_scan", "ios": "https://dc.lft.to/lastmile_qr_scan"}, "is_reserved": 0, "name": "f068b708d7504cf6439e9457e1bd96b7", "lon": -77.04658866666666, "type": "electric_scooter", "bike_id": "f068b708d7504cf6439e9457e1bd96b7", "fusion_lon": 0.0, "lat": 38.893412166666664, "fusion_lat": 0.0}, {"is_disabled": 0, "rental_uris": {"android": "https://dc.lft.to/lastmile_qr_scan", "ios": "https://dc.lft.to/lastmile_qr_scan"}, "is_reserved": 0, "name": "cf38129fd6939d3a79ae14b3a8dc6a97", "lon": -77.03283733333333, "type": "electric_scooter", "bike_id": "cf38129fd6939d3a79ae14b3a8dc6a97", "fusion_lon": 0.0, "lat": 38.928694666666665, "fusion_lat": 0.0}, {"is_disabled": 0, "rental_uris": {"android": "https://dc.lft.to/lastmile_qr_scan", "ios": "https://dc.lft.to/lastmile_qr_scan"}, "is_reserved": 0, "name": "6075129c2d170eec4b734d6006128748", "lon": -76.96682833333334, "type": "electric_bike", "bike_id": "6075129c2d170eec4b734d6006128748", "fusion_lon": 0.0, "lat": 38.958898833333336, "fusion_lat": 0.0}, {"is_disabled": 0, "rental_uris": {"android": "https://dc.lft.to/lastmile_qr_scan", "ios": "https://dc.lft.to/lastmile_qr_scan"}, "is_reserved": 0, "name": "b3efc72dc22e116e1fb447661df20205", "lon": -77.02228666666667, "type": "electric_scooter", "bike_id": "b3efc72dc22e116e1fb447661df20205", "fusion_lon": 0.0, "lat": 38.88745316666667, "fusion_lat": 0.0}, {"is_disabled": 0, "rental_uris": {"android": "https://dc.lft.to/lastmile_qr_scan", "ios": "https://dc.lft.to/lastmile_qr_scan"}, "is_reserved": 0, "name": "d50a9071b3cce175b1078a4491590856", "lon": -77.0415915, "type": "electric_scooter", "bike_id": "d50a9071b3cce175b1078a4491590856", "fusion_lon": 0.0, "lat": 38.914202, "fusion_lat": 0.0}, {"is_disabled": 0, "rental_uris": {"android": "https://dc.lft.to/lastmile_qr_scan", "ios": "https://dc.lft.to/lastmile_qr_scan"}, "is_reserved": 0, "name": "9f6076c4a4eef5399d1c946b2fdb353e", "lon": -77.031486, "type": "electric_scooter", "bike_id": "9f6076c4a4eef5399d1c946b2fdb353e", "fusion_lon": 0.0, "lat": 38.91119833333333, "fusion_lat": 0.0}, {"is_disabled": 0, "rental_uris": {"android": "https://dc.lft.to/lastmile_qr_scan", "ios": "https://dc.lft.to/lastmile_qr_scan"}, "is_reserved": 0, "name": "444eba12558d91996f7c8e3d1fcf8894", "lon": -76.99502416666667, "type": "electric_scooter", "bike_id": "444eba12558d91996f7c8e3d1fcf8894", "fusion_lon": 0.0, "lat": 38.925786, "fusion_lat": 0.0}, {"is_disabled": 0, "rental_uris": {"android": "https://dc.lft.to/lastmile_qr_scan", "ios": "https://dc.lft.to/lastmile_qr_scan"}, "is_reserved": 0, "name": "945d5838eff8ce6598efcd701cb673e4", "lon": -77.06526083333333, "type": "electric_scooter", "bike_id": "945d5838eff8ce6598efcd701cb673e4", "fusion_lon": 0.0, "lat": 38.90523316666667, "fusion_lat": 0.0}, {"is_disabled": 0, "rental_uris": {"android": "https://dc.lft.to/lastmile_qr_scan", "ios": "https://dc.lft.to/lastmile_qr_scan"}, "is_reserved": 0, "name": "3929f70eb6d891289be38adf5e346b13", "lon": -76.94705566666667, "type": "electric_scooter", "bike_id": "3929f70eb6d891289be38adf5e346b13", "fusion_lon": 0.0, "lat": 38.89676466666667, "fusion_lat": 0.0}, {"is_disabled": 0, "rental_uris": {"android": "https://dc.lft.to/lastmile_qr_scan", "ios": "https://dc.lft.to/lastmile_qr_scan"}, "is_reserved": 0, "name": "34d31530e648698e6a05cc29bac2b2ae", "lon": -76.96553266666666, "type": "electric_scooter", "bike_id": "34d31530e648698e6a05cc29bac2b2ae", "fusion_lon": 0.0, "lat": 38.918357, "fusion_lat": 0.0}, {"is_disabled": 0, "rental_uris": {"android": "https://dc.lft.to/lastmile_qr_scan", "ios": "https://dc.lft.to/lastmile_qr_scan"}, "is_reserved": 0, "name": "8ff829717cd84a083e411571433b99ad", "lon": -77.014993, "type": "electric_scooter", "bike_id": "8ff829717cd84a083e411571433b99ad", "fusion_lon": 0.0, "lat": 38.92671983333334, "fusion_lat": 0.0}, {"is_disabled": 0, "rental_uris": {"android": "https://dc.lft.to/lastmile_qr_scan", "ios": "https://dc.lft.to/lastmile_qr_scan"}, "is_reserved": 0, "name": "c6ea806dd9354cd3678eb4b87fd45ea9", "lon": -77.0394975, "type": "electric_scooter", "bike_id": "c6ea806dd9354cd3678eb4b87fd45ea9", "fusion_lon": 0.0, "lat": 38.90954966666666, "fusion_lat": 0.0}, {"is_disabled": 0, "rental_uris": {"android": "https://dc.lft.to/lastmile_qr_scan", "ios": "https://dc.lft.to/lastmile_qr_scan"}, "is_reserved": 0, "name": "d662a0099694bbdd4773f3afa68f70c6", "lon": -76.96365716666666, "type": "electric_bike", "bike_id": "d662a0099694bbdd4773f3afa68f70c6", "fusion_lon": 0.0, "lat": 38.948911333333335, "fusion_lat": 0.0}, {"is_disabled": 0, "rental_uris": {"android": "https://dc.lft.to/lastmile_qr_scan", "ios": "https://dc.lft.to/lastmile_qr_scan"}, "is_reserved": 0, "name": "ad6963211f573c2bfd4c3421f2b3db9d", "lon": -77.02276416666666, "type": "electric_scooter", "bike_id": "ad6963211f573c2bfd4c3421f2b3db9d", "fusion_lon": 0.0, "lat": 38.927241333333335, "fusion_lat": 0.0}, {"is_disabled": 0, "rental_uris": {"android": "https://dc.lft.to/lastmile_qr_scan", "ios": "https://dc.lft.to/lastmile_qr_scan"}, "is_reserved": 0, "name": "74b493d860b0ba53d40f331ffdeeaaf8", "lon": -77.04382283333334, "type": "electric_bike", "bike_id": "74b493d860b0ba53d40f331ffdeeaaf8", "fusion_lon": 0.0, "lat": 39.05270016666667, "fusion_lat": 0.0}, {"is_disabled": 0, "rental_uris": {"android": "https://dc.lft.to/lastmile_qr_scan", "ios": "https://dc.lft.to/lastmile_qr_scan"}, "is_reserved": 0, "name": "727acb6263f3f9866cb2f5b392c6a9aa", "lon": -77.04339766666666, "type": "electric_scooter", "bike_id": "727acb6263f3f9866cb2f5b392c6a9aa", "fusion_lon": 0.0, "lat": 38.913802, "fusion_lat": 0.0}, {"is_disabled": 0, "rental_uris": {"android": "https://dc.lft.to/lastmile_qr_scan", "ios": "https://dc.lft.to/lastmile_qr_scan"}, "is_reserved": 0, "name": "bca49285d38d6c43f78a0bc61f86ec85", "lon": -77.03440966666666, "type": "electric_scooter", "bike_id": "bca49285d38d6c43f78a0bc61f86ec85", "fusion_lon": 0.0, "lat": 38.910194833333335, "fusion_lat": 0.0}, {"is_disabled": 0, "rental_uris": {"android": "https://dc.lft.to/lastmile_qr_scan", "ios": "https://dc.lft.to/lastmile_qr_scan"}, "is_reserved": 0, "name": "2c8086e934eaa857d94079c424a23d9a", "lon": -77.04527916666666, "type": "electric_scooter", "bike_id": "2c8086e934eaa857d94079c424a23d9a", "fusion_lon": 0.0, "lat": 38.90383283333333, "fusion_lat": 0.0}, {"is_disabled": 0, "rental_uris": {"android": "https://dc.lft.to/lastmile_qr_scan", "ios": "https://dc.lft.to/lastmile_qr_scan"}, "is_reserved": 0, "name": "3e66e00b8f7e067fecea2d24065740c1", "lon": -76.97946716666667, "type": "electric_scooter", "bike_id": "3e66e00b8f7e067fecea2d24065740c1", "fusion_lon": 0.0, "lat": 38.905003666666666, "fusion_lat": 0.0}, {"is_disabled": 0, "rental_uris": {"android": "https://dc.lft.to/lastmile_qr_scan", "ios": "https://dc.lft.to/lastmile_qr_scan"}, "is_reserved": 0, "name": "57a47b5019c2f0226bfcaaec65399d92", "lon": -76.935324, "type": "electric_scooter", "bike_id": "57a47b5019c2f0226bfcaaec65399d92", "fusion_lon": 0.0, "lat": 38.89685733333334, "fusion_lat": 0.0}, {"is_disabled": 0, "rental_uris": {"android": "https://dc.lft.to/lastmile_qr_scan", "ios": "https://dc.lft.to/lastmile_qr_scan"}, "is_reserved": 0, "name": "778fae2e1bc2c9920e348e6b1fc5863f", "lon": -77.02520416666667, "type": "electric_scooter", "bike_id": "778fae2e1bc2c9920e348e6b1fc5863f", "fusion_lon": 0.0, "lat": 38.92136383333333, "fusion_lat": 0.0}, {"is_disabled": 0, "rental_uris": {"android": "https://dc.lft.to/lastmile_qr_scan", "ios": "https://dc.lft.to/lastmile_qr_scan"}, "is_reserved": 0, "name": "9c03def52b6cfd65ef611de3b0c1abf1", "lon": -77.02009433333333, "type": "electric_scooter", "bike_id": "9c03def52b6cfd65ef611de3b0c1abf1", "fusion_lon": 0.0, "lat": 38.924235, "fusion_lat": 0.0}, {"is_disabled": 0, "rental_uris": {"android": "https://dc.lft.to/lastmile_qr_scan", "ios": "https://dc.lft.to/lastmile_qr_scan"}, "is_reserved": 0, "name": "9c3f5968d57a3d6275b116b6bcc2d232", "lon": -77.03936966666667, "type": "electric_scooter", "bike_id": "9c3f5968d57a3d6275b116b6bcc2d232", "fusion_lon": 0.0, "lat": 38.8978515, "fusion_lat": 0.0}, {"is_disabled": 0, "rental_uris": {"android": "https://dc.lft.to/lastmile_qr_scan", "ios": "https://dc.lft.to/lastmile_qr_scan"}, "is_reserved": 0, "name": "da06877c8be255c7892dee6328610769", "lon": -77.04218033333333, "type": "electric_scooter", "bike_id": "da06877c8be255c7892dee6328610769", "fusion_lon": 0.0, "lat": 38.92113483333333, "fusion_lat": 0.0}, {"is_disabled": 0, "rental_uris": {"android": "https://dc.lft.to/lastmile_qr_scan", "ios": "https://dc.lft.to/lastmile_qr_scan"}, "is_reserved": 0, "name": "fba472fb3f743d650adfae635c9b537d", "lon": -76.99160766666667, "type": "electric_scooter", "bike_id": "fba472fb3f743d650adfae635c9b537d", "fusion_lon": 0.0, "lat": 38.8814615, "fusion_lat": 0.0}, {"is_disabled": 0, "rental_uris": {"android": "https://dc.lft.to/lastmile_qr_scan", "ios": "https://dc.lft.to/lastmile_qr_scan"}, "is_reserved": 0, "name": "9761e89878db97f66cff4c203a5bbf6f", "lon": -77.03174433333334, "type": "electric_scooter", "bike_id": "9761e89878db97f66cff4c203a5bbf6f", "fusion_lon": 0.0, "lat": 38.90135166666666, "fusion_lat": 0.0}, {"is_disabled": 0, "rental_uris": {"android": "https://dc.lft.to/lastmile_qr_scan", "ios": "https://dc.lft.to/lastmile_qr_scan"}, "is_reserved": 0, "name": "3d1880d06e3acf6db9ecf6c0890ce9e7", "lon": -77.01540616666666, "type": "electric_scooter", "bike_id": "3d1880d06e3acf6db9ecf6c0890ce9e7", "fusion_lon": 0.0, "lat": 38.887704, "fusion_lat": 0.0}, {"is_disabled": 0, "rental_uris": {"android": "https://dc.lft.to/lastmile_qr_scan", "ios": "https://dc.lft.to/lastmile_qr_scan"}, "is_reserved": 0, "name": "1e6821c869942ebf85d99570d27c7832", "lon": -77.02959983333334, "type": "electric_scooter", "bike_id": "1e6821c869942ebf85d99570d27c7832", "fusion_lon": 0.0, "lat": 38.9045675, "fusion_lat": 0.0}, {"is_disabled": 0, "rental_uris": {"android": "https://dc.lft.to/lastmile_qr_scan", "ios": "https://dc.lft.to/lastmile_qr_scan"}, "is_reserved": 0, "name": "fff4bfd9d99d5a4b1874fb2c75d646c4", "lon": -76.98742483333334, "type": "electric_scooter", "bike_id": "fff4bfd9d99d5a4b1874fb2c75d646c4", "fusion_lon": 0.0, "lat": 38.879682333333335, "fusion_lat": 0.0}, {"is_disabled": 0, "rental_uris": {"android": "https://dc.lft.to/lastmile_qr_scan", "ios": "https://dc.lft.to/lastmile_qr_scan"}, "is_reserved": 0, "name": "fe61fc82b36b095fa1fc23dc581a9726", "lon": -76.96738316666666, "type": "electric_bike", "bike_id": "fe61fc82b36b095fa1fc23dc581a9726", "fusion_lon": 0.0, "lat": 38.950594333333335, "fusion_lat": 0.0}, {"is_disabled": 0, "rental_uris": {"android": "https://dc.lft.to/lastmile_qr_scan", "ios": "https://dc.lft.to/lastmile_qr_scan"}, "is_reserved": 0, "name": "ae09667ca6938b2206a1190f94801653", "lon": -76.98889416666667, "type": "electric_scooter", "bike_id": "ae09667ca6938b2206a1190f94801653", "fusion_lon": 0.0, "lat": 38.866762666666666, "fusion_lat": 0.0}, {"is_disabled": 0, "rental_uris": {"android": "https://dc.lft.to/lastmile_qr_scan", "ios": "https://dc.lft.to/lastmile_qr_scan"}, "is_reserved": 0, "name": "6af467982af2145bd828d4bca26f2754", "lon": -77.02945033333333, "type": "electric_scooter", "bike_id": "6af467982af2145bd828d4bca26f2754", "fusion_lon": 0.0, "lat": 38.90466833333333, "fusion_lat": 0.0}, {"is_disabled": 0, "rental_uris": {"android": "https://dc.lft.to/lastmile_qr_scan", "ios": "https://dc.lft.to/lastmile_qr_scan"}, "is_reserved": 0, "name": "858c7cab3af5aa8314f2a0a9daf0541f", "lon": -76.96792766666667, "type": "electric_scooter", "bike_id": "858c7cab3af5aa8314f2a0a9daf0541f", "fusion_lon": 0.0, "lat": 38.873436833333336, "fusion_lat": 0.0}, {"is_disabled": 0, "rental_uris": {"android": "https://dc.lft.to/lastmile_qr_scan", "ios": "https://dc.lft.to/lastmile_qr_scan"}, "is_reserved": 0, "name": "1b2e0cd7b73b88cf2ce812e21fbf4626", "lon": -77.03048466666667, "type": "electric_scooter", "bike_id": "1b2e0cd7b73b88cf2ce812e21fbf4626", "fusion_lon": 0.0, "lat": 38.901241, "fusion_lat": 0.0}, {"is_disabled": 0, "rental_uris": {"android": "https://dc.lft.to/lastmile_qr_scan", "ios": "https://dc.lft.to/lastmile_qr_scan"}, "is_reserved": 0, "name": "1f26014b933aeff45d12b1c691021b0d", "lon": -77.00844516666666, "type": "electric_scooter", "bike_id": "1f26014b933aeff45d12b1c691021b0d", "fusion_lon": 0.0, "lat": 38.885013, "fusion_lat": 0.0}, {"is_disabled": 0, "rental_uris": {"android": "https://dc.lft.to/lastmile_qr_scan", "ios": "https://dc.lft.to/lastmile_qr_scan"}, "is_reserved": 0, "name": "38e3c97663790f772100bd88488ebe4a", "lon": -77.002118, "type": "electric_bike", "bike_id": "38e3c97663790f772100bd88488ebe4a", "fusion_lon": 0.0, "lat": 38.81947916666667, "fusion_lat": 0.0}, {"is_disabled": 0, "rental_uris": {"android": "https://dc.lft.to/lastmile_qr_scan", "ios": "https://dc.lft.to/lastmile_qr_scan"}, "is_reserved": 0, "name": "b1f10dee62838a66fbb165c9fa9b5fc2", "lon": -77.01038966666667, "type": "electric_scooter", "bike_id": "b1f10dee62838a66fbb165c9fa9b5fc2", "fusion_lon": 0.0, "lat": 38.8666845, "fusion_lat": 0.0}, {"is_disabled": 0, "rental_uris": {"android": "https://dc.lft.to/lastmile_qr_scan", "ios": "https://dc.lft.to/lastmile_qr_scan"}, "is_reserved": 0, "name": "5d0838ab387487ae849e1212e12308fe", "lon": -76.96091283333334, "type": "electric_bike", "bike_id": "5d0838ab387487ae849e1212e12308fe", "fusion_lon": 0.0, "lat": 38.91855116666667, "fusion_lat": 0.0}, {"is_disabled": 0, "rental_uris": {"android": "https://dc.lft.to/lastmile_qr_scan", "ios": "https://dc.lft.to/lastmile_qr_scan"}, "is_reserved": 0, "name": "12e2b0111ee3d75f35b5479ce756bf71", "lon": -77.05761333333334, "type": "electric_bike", "bike_id": "12e2b0111ee3d75f35b5479ce756bf71", "fusion_lon": 0.0, "lat": 38.96310366666667, "fusion_lat": 0.0}, {"is_disabled": 0, "rental_uris": {"android": "https://dc.lft.to/lastmile_qr_scan", "ios": "https://dc.lft.to/lastmile_qr_scan"}, "is_reserved": 0, "name": "773c90b8bb6f1f8ea1e31a013b51b26b", "lon": -77.03085416666667, "type": "electric_scooter", "bike_id": "773c90b8bb6f1f8ea1e31a013b51b26b", "fusion_lon": 0.0, "lat": 38.922501833333335, "fusion_lat": 0.0}, {"is_disabled": 0, "rental_uris": {"android": "https://dc.lft.to/lastmile_qr_scan", "ios": "https://dc.lft.to/lastmile_qr_scan"}, "is_reserved": 0, "name": "03e5a29312a0a4ddfb4122ce2c1392bf", "lon": -77.06380866666667, "type": "electric_bike", "bike_id": "03e5a29312a0a4ddfb4122ce2c1392bf", "fusion_lon": 0.0, "lat": 39.017359166666665, "fusion_lat": 0.0}, {"is_disabled": 0, "rental_uris": {"android": "https://dc.lft.to/lastmile_qr_scan", "ios": "https://dc.lft.to/lastmile_qr_scan"}, "is_reserved": 0, "name": "f0a23e4254f25f389e0e14756b0c2bd4", "lon": -77.0520705, "type": "electric_scooter", "bike_id": "f0a23e4254f25f389e0e14756b0c2bd4", "fusion_lon": 0.0, "lat": 38.89803, "fusion_lat": 0.0}, {"is_disabled": 0, "rental_uris": {"android": "https://dc.lft.to/lastmile_qr_scan", "ios": "https://dc.lft.to/lastmile_qr_scan"}, "is_reserved": 0, "name": "d8b8d371fa9d11549304c4039e239c5f", "lon": -77.02297666666666, "type": "electric_bike", "bike_id": "d8b8d371fa9d11549304c4039e239c5f", "fusion_lon": 0.0, "lat": 38.92314116666667, "fusion_lat": 0.0}, {"is_disabled": 0, "rental_uris": {"android": "https://dc.lft.to/lastmile_qr_scan", "ios": "https://dc.lft.to/lastmile_qr_scan"}, "is_reserved": 0, "name": "04f77070e3771f8dfd9e7f0b6ca000cf", "lon": -77.03826716666667, "type": "electric_scooter", "bike_id": "04f77070e3771f8dfd9e7f0b6ca000cf", "fusion_lon": 0.0, "lat": 38.9068425, "fusion_lat": 0.0}, {"is_disabled": 0, "rental_uris": {"android": "https://dc.lft.to/lastmile_qr_scan", "ios": "https://dc.lft.to/lastmile_qr_scan"}, "is_reserved": 0, "name": "b0928572d0cf1e2ce3160cc0f80da187", "lon": -77.031521, "type": "electric_scooter", "bike_id": "b0928572d0cf1e2ce3160cc0f80da187", "fusion_lon": 0.0, "lat": 38.90967283333333, "fusion_lat": 0.0}, {"is_disabled": 0, "rental_uris": {"android": "https://dc.lft.to/lastmile_qr_scan", "ios": "https://dc.lft.to/lastmile_qr_scan"}, "is_reserved": 0, "name": "8acc68199b40d952c4f1b9711bb45da1", "lon": -77.00195816666667, "type": "electric_scooter", "bike_id": "8acc68199b40d952c4f1b9711bb45da1", "fusion_lon": 0.0, "lat": 38.91638283333333, "fusion_lat": 0.0}, {"is_disabled": 0, "rental_uris": {"android": "https://dc.lft.to/lastmile_qr_scan", "ios": "https://dc.lft.to/lastmile_qr_scan"}, "is_reserved": 0, "name": "bb94b0c535159ed535e3b7d5cf16d2af", "lon": -77.011804, "type": "electric_scooter", "bike_id": "bb94b0c535159ed535e3b7d5cf16d2af", "fusion_lon": 0.0, "lat": 38.87084883333333, "fusion_lat": 0.0}, {"is_disabled": 0, "rental_uris": {"android": "https://dc.lft.to/lastmile_qr_scan", "ios": "https://dc.lft.to/lastmile_qr_scan"}, "is_reserved": 0, "name": "2a9a2cba04e0cf39e1e6bf0cc54811cb", "lon": -76.961779, "type": "electric_bike", "bike_id": "2a9a2cba04e0cf39e1e6bf0cc54811cb", "fusion_lon": 0.0, "lat": 38.9186395, "fusion_lat": 0.0}, {"is_disabled": 0, "rental_uris": {"android": "https://dc.lft.to/lastmile_qr_scan", "ios": "https://dc.lft.to/lastmile_qr_scan"}, "is_reserved": 0, "name": "36e71f68dcf7cdc4911b64ce99bae701", "lon": -77.02481616666667, "type": "electric_scooter", "bike_id": "36e71f68dcf7cdc4911b64ce99bae701", "fusion_lon": 0.0, "lat": 38.9023945, "fusion_lat": 0.0}, {"is_disabled": 0, "rental_uris": {"android": "https://dc.lft.to/lastmile_qr_scan", "ios": "https://dc.lft.to/lastmile_qr_scan"}, "is_reserved": 0, "name": "10f690eff370ce22924c6908ac13912b", "lon": -77.00591133333333, "type": "electric_bike", "bike_id": "10f690eff370ce22924c6908ac13912b", "fusion_lon": 0.0, "lat": 38.836908666666666, "fusion_lat": 0.0}, {"is_disabled": 0, "rental_uris": {"android": "https://dc.lft.to/lastmile_qr_scan", "ios": "https://dc.lft.to/lastmile_qr_scan"}, "is_reserved": 0, "name": "bf276c87db12e08d9ad027c7bb7dd0be", "lon": -76.9293455, "type": "electric_bike", "bike_id": "bf276c87db12e08d9ad027c7bb7dd0be", "fusion_lon": 0.0, "lat": 38.902836666666666, "fusion_lat": 0.0}, {"is_disabled": 0, "rental_uris": {"android": "https://dc.lft.to/lastmile_qr_scan", "ios": "https://dc.lft.to/lastmile_qr_scan"}, "is_reserved": 0, "name": "a5f89fdd039e9ef79835c75c959601a3", "lon": -76.93387166666666, "type": "electric_scooter", "bike_id": "a5f89fdd039e9ef79835c75c959601a3", "fusion_lon": 0.0, "lat": 38.89910533333333, "fusion_lat": 0.0}, {"is_disabled": 0, "rental_uris": {"android": "https://dc.lft.to/lastmile_qr_scan", "ios": "https://dc.lft.to/lastmile_qr_scan"}, "is_reserved": 0, "name": "4f8e1c5d0f0983c5262be944f544486e", "lon": -76.98797316666666, "type": "electric_scooter", "bike_id": "4f8e1c5d0f0983c5262be944f544486e", "fusion_lon": 0.0, "lat": 38.89211533333334, "fusion_lat": 0.0}, {"is_disabled": 0, "rental_uris": {"android": "https://dc.lft.to/lastmile_qr_scan", "ios": "https://dc.lft.to/lastmile_qr_scan"}, "is_reserved": 0, "name": "a877c72e403158b44d04f9f43427851f", "lon": -77.0266825, "type": "electric_scooter", "bike_id": "a877c72e403158b44d04f9f43427851f", "fusion_lon": 0.0, "lat": 38.976096166666665, "fusion_lat": 0.0}, {"is_disabled": 0, "rental_uris": {"android": "https://dc.lft.to/lastmile_qr_scan", "ios": "https://dc.lft.to/lastmile_qr_scan"}, "is_reserved": 0, "name": "606e9615ea11b3c12a4d78456f5ae2e9", "lon": -77.0308855, "type": "electric_scooter", "bike_id": "606e9615ea11b3c12a4d78456f5ae2e9", "fusion_lon": 0.0, "lat": 38.935401, "fusion_lat": 0.0}, {"is_disabled": 0, "rental_uris": {"android": "https://dc.lft.to/lastmile_qr_scan", "ios": "https://dc.lft.to/lastmile_qr_scan"}, "is_reserved": 0, "name": "851a19ca3972ca6f8b9d9dae597b7499", "lon": -77.03134433333334, "type": "electric_scooter", "bike_id": "851a19ca3972ca6f8b9d9dae597b7499", "fusion_lon": 0.0, "lat": 38.923834, "fusion_lat": 0.0}, {"is_disabled": 0, "rental_uris": {"android": "https://dc.lft.to/lastmile_qr_scan", "ios": "https://dc.lft.to/lastmile_qr_scan"}, "is_reserved": 0, "name": "e9d9a8a86ab56e2e9e8bbbf18d5154ca", "lon": -77.024854, "type": "electric_scooter", "bike_id": "e9d9a8a86ab56e2e9e8bbbf18d5154ca", "fusion_lon": 0.0, "lat": 38.93887983333333, "fusion_lat": 0.0}, {"is_disabled": 0, "rental_uris": {"android": "https://dc.lft.to/lastmile_qr_scan", "ios": "https://dc.lft.to/lastmile_qr_scan"}, "is_reserved": 0, "name": "08953c415ca5d34b21a360f81764a4c1", "lon": -77.007192, "type": "electric_bike", "bike_id": "08953c415ca5d34b21a360f81764a4c1", "fusion_lon": 0.0, "lat": 38.87649733333333, "fusion_lat": 0.0}, {"is_disabled": 0, "rental_uris": {"android": "https://dc.lft.to/lastmile_qr_scan", "ios": "https://dc.lft.to/lastmile_qr_scan"}, "is_reserved": 0, "name": "1c60187f2fe67c643431912e3a4a4268", "lon": -77.02497633333333, "type": "electric_scooter", "bike_id": "1c60187f2fe67c643431912e3a4a4268", "fusion_lon": 0.0, "lat": 38.917538, "fusion_lat": 0.0}, {"is_disabled": 0, "rental_uris": {"android": "https://dc.lft.to/lastmile_qr_scan", "ios": "https://dc.lft.to/lastmile_qr_scan"}, "is_reserved": 0, "name": "3e346ab78a64ad77d3335bfbe0f0ed0a", "lon": -77.0056975, "type": "electric_scooter", "bike_id": "3e346ab78a64ad77d3335bfbe0f0ed0a", "fusion_lon": 0.0, "lat": 38.885067, "fusion_lat": 0.0}, {"is_disabled": 0, "rental_uris": {"android": "https://dc.lft.to/lastmile_qr_scan", "ios": "https://dc.lft.to/lastmile_qr_scan"}, "is_reserved": 0, "name": "82c70b24884f21f76c74a68e32c0ab51", "lon": -77.02879633333333, "type": "electric_bike", "bike_id": "82c70b24884f21f76c74a68e32c0ab51", "fusion_lon": 0.0, "lat": 38.99838033333333, "fusion_lat": 0.0}, {"is_disabled": 0, "rental_uris": {"android": "https://dc.lft.to/lastmile_qr_scan", "ios": "https://dc.lft.to/lastmile_qr_scan"}, "is_reserved": 0, "name": "30956029c78775523d7bba428341cd39", "lon": -77.229338, "type": "electric_bike", "bike_id": "30956029c78775523d7bba428341cd39", "fusion_lon": 0.0, "lat": 38.93192233333333, "fusion_lat": 0.0}, {"is_disabled": 0, "rental_uris": {"android": "https://dc.lft.to/lastmile_qr_scan", "ios": "https://dc.lft.to/lastmile_qr_scan"}, "is_reserved": 0, "name": "4434d15cb2105b8bde4f88357764cfe2", "lon": -76.916569, "type": "electric_bike", "bike_id": "4434d15cb2105b8bde4f88357764cfe2", "fusion_lon": 0.0, "lat": 38.86860083333333, "fusion_lat": 0.0}, {"is_disabled": 0, "rental_uris": {"android": "https://dc.lft.to/lastmile_qr_scan", "ios": "https://dc.lft.to/lastmile_qr_scan"}, "is_reserved": 0, "name": "79a8b96aa681d6efd4d5eec5a03085a3", "lon": -77.03834333333333, "type": "electric_scooter", "bike_id": "79a8b96aa681d6efd4d5eec5a03085a3", "fusion_lon": 0.0, "lat": 38.911117, "fusion_lat": 0.0}, {"is_disabled": 0, "rental_uris": {"android": "https://dc.lft.to/lastmile_qr_scan", "ios": "https://dc.lft.to/lastmile_qr_scan"}, "is_reserved": 0, "name": "a6777185d42ea5eb831ebe782df7d6b5", "lon": -77.03217633333334, "type": "electric_scooter", "bike_id": "a6777185d42ea5eb831ebe782df7d6b5", "fusion_lon": 0.0, "lat": 38.901151, "fusion_lat": 0.0}, {"is_disabled": 0, "rental_uris": {"android": "https://dc.lft.to/lastmile_qr_scan", "ios": "https://dc.lft.to/lastmile_qr_scan"}, "is_reserved": 0, "name": "90e37280f80d065987538e65f83f350f", "lon": -77.03898766666667, "type": "electric_scooter", "bike_id": "90e37280f80d065987538e65f83f350f", "fusion_lon": 0.0, "lat": 38.9142035, "fusion_lat": 0.0}, {"is_disabled": 0, "rental_uris": {"android": "https://dc.lft.to/lastmile_qr_scan", "ios": "https://dc.lft.to/lastmile_qr_scan"}, "is_reserved": 0, "name": "2256aefae750c249f563d48ce96080e3", "lon": -77.00528233333333, "type": "electric_scooter", "bike_id": "2256aefae750c249f563d48ce96080e3", "fusion_lon": 0.0, "lat": 38.88058133333333, "fusion_lat": 0.0}, {"is_disabled": 0, "rental_uris": {"android": "https://dc.lft.to/lastmile_qr_scan", "ios": "https://dc.lft.to/lastmile_qr_scan"}, "is_reserved": 0, "name": "311185e3462a1c0a5795049d9284cb0a", "lon": -77.02802833333334, "type": "electric_scooter", "bike_id": "311185e3462a1c0a5795049d9284cb0a", "fusion_lon": 0.0, "lat": 38.96212933333334, "fusion_lat": 0.0}, {"is_disabled": 0, "rental_uris": {"android": "https://dc.lft.to/lastmile_qr_scan", "ios": "https://dc.lft.to/lastmile_qr_scan"}, "is_reserved": 0, "name": "d33af8e42ce36818eea79df173b27cca", "lon": -77.10029316666666, "type": "electric_bike", "bike_id": "d33af8e42ce36818eea79df173b27cca", "fusion_lon": 0.0, "lat": 38.99067516666667, "fusion_lat": 0.0}, {"is_disabled": 0, "rental_uris": {"android": "https://dc.lft.to/lastmile_qr_scan", "ios": "https://dc.lft.to/lastmile_qr_scan"}, "is_reserved": 0, "name": "669dcac19b7c5fdc73639694aa554eac", "lon": -77.01078633333333, "type": "electric_scooter", "bike_id": "669dcac19b7c5fdc73639694aa554eac", "fusion_lon": 0.0, "lat": 38.876597333333336, "fusion_lat": 0.0}, {"is_disabled": 0, "rental_uris": {"android": "https://dc.lft.to/lastmile_qr_scan", "ios": "https://dc.lft.to/lastmile_qr_scan"}, "is_reserved": 0, "name": "c5006ec6d17a66840c0dee4c64fb439f", "lon": -76.946262, "type": "electric_scooter", "bike_id": "c5006ec6d17a66840c0dee4c64fb439f", "fusion_lon": 0.0, "lat": 38.90253466666667, "fusion_lat": 0.0}, {"is_disabled": 0, "rental_uris": {"android": "https://dc.lft.to/lastmile_qr_scan", "ios": "https://dc.lft.to/lastmile_qr_scan"}, "is_reserved": 0, "name": "ea4e4aa2cbf44741529d66c5ecc899a8", "lon": -77.039324, "type": "electric_scooter", "bike_id": "ea4e4aa2cbf44741529d66c5ecc899a8", "fusion_lon": 0.0, "lat": 38.90353966666667, "fusion_lat": 0.0}, {"is_disabled": 0, "rental_uris": {"android": "https://dc.lft.to/lastmile_qr_scan", "ios": "https://dc.lft.to/lastmile_qr_scan"}, "is_reserved": 0, "name": "51bb719e2bb79dcfba6c74958b2791f6", "lon": -76.87497666666667, "type": "electric_bike", "bike_id": "51bb719e2bb79dcfba6c74958b2791f6", "fusion_lon": 0.0, "lat": 38.990918, "fusion_lat": 0.0}, {"is_disabled": 0, "rental_uris": {"android": "https://dc.lft.to/lastmile_qr_scan", "ios": "https://dc.lft.to/lastmile_qr_scan"}, "is_reserved": 0, "name": "e1c21fcd81a4a1716b31f04f2046a023", "lon": -77.0250985, "type": "electric_scooter", "bike_id": "e1c21fcd81a4a1716b31f04f2046a023", "fusion_lon": 0.0, "lat": 38.904014333333336, "fusion_lat": 0.0}, {"is_disabled": 0, "rental_uris": {"android": "https://dc.lft.to/lastmile_qr_scan", "ios": "https://dc.lft.to/lastmile_qr_scan"}, "is_reserved": 0, "name": "c39c17547129391a2a2136cec43bc10f", "lon": -77.00928716666667, "type": "electric_scooter", "bike_id": "c39c17547129391a2a2136cec43bc10f", "fusion_lon": 0.0, "lat": 38.876234, "fusion_lat": 0.0}, {"is_disabled": 0, "rental_uris": {"android": "https://dc.lft.to/lastmile_qr_scan", "ios": "https://dc.lft.to/lastmile_qr_scan"}, "is_reserved": 0, "name": "13482d0dda2b143d659ce937a837cf8d", "lon": -77.035083, "type": "electric_scooter", "bike_id": "13482d0dda2b143d659ce937a837cf8d", "fusion_lon": 0.0, "lat": 38.92130816666667, "fusion_lat": 0.0}, {"is_disabled": 0, "rental_uris": {"android": "https://dc.lft.to/lastmile_qr_scan", "ios": "https://dc.lft.to/lastmile_qr_scan"}, "is_reserved": 0, "name": "658ef874d42e2f5b8b7fb257c09957dd", "lon": -77.038714, "type": "electric_scooter", "bike_id": "658ef874d42e2f5b8b7fb257c09957dd", "fusion_lon": 0.0, "lat": 38.92150066666667, "fusion_lat": 0.0}, {"is_disabled": 0, "rental_uris": {"android": "https://dc.lft.to/lastmile_qr_scan", "ios": "https://dc.lft.to/lastmile_qr_scan"}, "is_reserved": 0, "name": "0747ee5d4346c5a4c53739f3899381d3", "lon": -77.01406366666667, "type": "electric_scooter", "bike_id": "0747ee5d4346c5a4c53739f3899381d3", "fusion_lon": 0.0, "lat": 38.9283665, "fusion_lat": 0.0}, {"is_disabled": 0, "rental_uris": {"android": "https://dc.lft.to/lastmile_qr_scan", "ios": "https://dc.lft.to/lastmile_qr_scan"}, "is_reserved": 0, "name": "98e0c9e3d8d727404273dd719f1a337c", "lon": -77.03206866666666, "type": "electric_scooter", "bike_id": "98e0c9e3d8d727404273dd719f1a337c", "fusion_lon": 0.0, "lat": 38.918, "fusion_lat": 0.0}, {"is_disabled": 0, "rental_uris": {"android": "https://dc.lft.to/lastmile_qr_scan", "ios": "https://dc.lft.to/lastmile_qr_scan"}, "is_reserved": 0, "name": "936dceaa8c0b561dc3df5297d01f455f", "lon": -77.04899416666666, "type": "electric_bike", "bike_id": "936dceaa8c0b561dc3df5297d01f455f", "fusion_lon": 0.0, "lat": 38.87491166666667, "fusion_lat": 0.0}, {"is_disabled": 0, "rental_uris": {"android": "https://dc.lft.to/lastmile_qr_scan", "ios": "https://dc.lft.to/lastmile_qr_scan"}, "is_reserved": 0, "name": "a64fb5d02a5f38469fd2ea3302301b63", "lon": -77.055115, "type": "electric_scooter", "bike_id": "a64fb5d02a5f38469fd2ea3302301b63", "fusion_lon": 0.0, "lat": 38.9298175, "fusion_lat": 0.0}, {"is_disabled": 0, "rental_uris": {"android": "https://dc.lft.to/lastmile_qr_scan", "ios": "https://dc.lft.to/lastmile_qr_scan"}, "is_reserved": 0, "name": "5324ff363f3d3e7f9ffd444a6a46e56c", "lon": -77.01286583333334, "type": "electric_bike", "bike_id": "5324ff363f3d3e7f9ffd444a6a46e56c", "fusion_lon": 0.0, "lat": 38.95157533333333, "fusion_lat": 0.0}, {"is_disabled": 0, "rental_uris": {"android": "https://dc.lft.to/lastmile_qr_scan", "ios": "https://dc.lft.to/lastmile_qr_scan"}, "is_reserved": 0, "name": "7cde389bda92f8603392b9791319000c", "lon": -77.02516033333333, "type": "electric_scooter", "bike_id": "7cde389bda92f8603392b9791319000c", "fusion_lon": 0.0, "lat": 38.9196545, "fusion_lat": 0.0}, {"is_disabled": 0, "rental_uris": {"android": "https://dc.lft.to/lastmile_qr_scan", "ios": "https://dc.lft.to/lastmile_qr_scan"}, "is_reserved": 0, "name": "abfe9e9db38b3dad4e425822829af6c1", "lon": -77.0281565, "type": "electric_scooter", "bike_id": "abfe9e9db38b3dad4e425822829af6c1", "fusion_lon": 0.0, "lat": 38.904641, "fusion_lat": 0.0}, {"is_disabled": 0, "rental_uris": {"android": "https://dc.lft.to/lastmile_qr_scan", "ios": "https://dc.lft.to/lastmile_qr_scan"}, "is_reserved": 0, "name": "1c6c2994a477f77f54da933746235ff3", "lon": -77.03841666666666, "type": "electric_scooter", "bike_id": "1c6c2994a477f77f54da933746235ff3", "fusion_lon": 0.0, "lat": 38.91498083333333, "fusion_lat": 0.0}, {"is_disabled": 0, "rental_uris": {"android": "https://dc.lft.to/lastmile_qr_scan", "ios": "https://dc.lft.to/lastmile_qr_scan"}, "is_reserved": 0, "name": "d542ccea59b1d16b6eede29769439d10", "lon": -77.021549, "type": "electric_scooter", "bike_id": "d542ccea59b1d16b6eede29769439d10", "fusion_lon": 0.0, "lat": 38.926050333333336, "fusion_lat": 0.0}, {"is_disabled": 0, "rental_uris": {"android": "https://dc.lft.to/lastmile_qr_scan", "ios": "https://dc.lft.to/lastmile_qr_scan"}, "is_reserved": 0, "name": "4a753fd0f69846876f78a640e0c7d314", "lon": -77.01375816666666, "type": "electric_scooter", "bike_id": "4a753fd0f69846876f78a640e0c7d314", "fusion_lon": 0.0, "lat": 38.910337, "fusion_lat": 0.0}, {"is_disabled": 0, "rental_uris": {"android": "https://dc.lft.to/lastmile_qr_scan", "ios": "https://dc.lft.to/lastmile_qr_scan"}, "is_reserved": 0, "name": "f4c1b01a9354a1997d69e77571939bec", "lon": -77.02339733333334, "type": "electric_scooter", "bike_id": "f4c1b01a9354a1997d69e77571939bec", "fusion_lon": 0.0, "lat": 38.90850283333333, "fusion_lat": 0.0}, {"is_disabled": 0, "rental_uris": {"android": "https://dc.lft.to/lastmile_qr_scan", "ios": "https://dc.lft.to/lastmile_qr_scan"}, "is_reserved": 0, "name": "8645a95b40b1be2957fb2452d19d05fe", "lon": -77.03566116666667, "type": "electric_scooter", "bike_id": "8645a95b40b1be2957fb2452d19d05fe", "fusion_lon": 0.0, "lat": 38.91810916666667, "fusion_lat": 0.0}, {"is_disabled": 0, "rental_uris": {"android": "https://dc.lft.to/lastmile_qr_scan", "ios": "https://dc.lft.to/lastmile_qr_scan"}, "is_reserved": 0, "name": "123b27d4af7416d0117bde9ed397fb28", "lon": -76.9900665, "type": "electric_scooter", "bike_id": "123b27d4af7416d0117bde9ed397fb28", "fusion_lon": 0.0, "lat": 38.86509683333333, "fusion_lat": 0.0}, {"is_disabled": 0, "rental_uris": {"android": "https://dc.lft.to/lastmile_qr_scan", "ios": "https://dc.lft.to/lastmile_qr_scan"}, "is_reserved": 0, "name": "be5c0753dc9995357869a97d0f51bd43", "lon": -77.0412505, "type": "electric_scooter", "bike_id": "be5c0753dc9995357869a97d0f51bd43", "fusion_lon": 0.0, "lat": 38.93103216666667, "fusion_lat": 0.0}, {"is_disabled": 0, "rental_uris": {"android": "https://dc.lft.to/lastmile_qr_scan", "ios": "https://dc.lft.to/lastmile_qr_scan"}, "is_reserved": 0, "name": "0941b32380b1be921c73c26a28fd2b17", "lon": -77.0270345, "type": "electric_scooter", "bike_id": "0941b32380b1be921c73c26a28fd2b17", "fusion_lon": 0.0, "lat": 38.949852166666666, "fusion_lat": 0.0}, {"is_disabled": 0, "rental_uris": {"android": "https://dc.lft.to/lastmile_qr_scan", "ios": "https://dc.lft.to/lastmile_qr_scan"}, "is_reserved": 0, "name": "ab76c148e448f8840f0b56f14f316b86", "lon": -77.03849566666666, "type": "electric_scooter", "bike_id": "ab76c148e448f8840f0b56f14f316b86", "fusion_lon": 0.0, "lat": 38.932424, "fusion_lat": 0.0}, {"is_disabled": 0, "rental_uris": {"android": "https://dc.lft.to/lastmile_qr_scan", "ios": "https://dc.lft.to/lastmile_qr_scan"}, "is_reserved": 0, "name": "bfefa18fb919285a64a859f63c2b8992", "lon": -77.0003855, "type": "electric_scooter", "bike_id": "bfefa18fb919285a64a859f63c2b8992", "fusion_lon": 0.0, "lat": 38.89726, "fusion_lat": 0.0}, {"is_disabled": 0, "rental_uris": {"android": "https://dc.lft.to/lastmile_qr_scan", "ios": "https://dc.lft.to/lastmile_qr_scan"}, "is_reserved": 0, "name": "05c904aa54e8ccbf4e84f4417da8b46c", "lon": -77.0333235, "type": "electric_scooter", "bike_id": "05c904aa54e8ccbf4e84f4417da8b46c", "fusion_lon": 0.0, "lat": 38.89736666666667, "fusion_lat": 0.0}, {"is_disabled": 0, "rental_uris": {"android": "https://dc.lft.to/lastmile_qr_scan", "ios": "https://dc.lft.to/lastmile_qr_scan"}, "is_reserved": 0, "name": "620451656a6e498abaeafd44b2607eb9", "lon": -77.09562616666666, "type": "electric_bike", "bike_id": "620451656a6e498abaeafd44b2607eb9", "fusion_lon": 0.0, "lat": 38.916967, "fusion_lat": 0.0}, {"is_disabled": 0, "rental_uris": {"android": "https://dc.lft.to/lastmile_qr_scan", "ios": "https://dc.lft.to/lastmile_qr_scan"}, "is_reserved": 0, "name": "95938d8736be2789da9c3df15d565410", "lon": -77.00598966666666, "type": "electric_scooter", "bike_id": "95938d8736be2789da9c3df15d565410", "fusion_lon": 0.0, "lat": 38.9060395, "fusion_lat": 0.0}, {"is_disabled": 0, "rental_uris": {"android": "https://dc.lft.to/lastmile_qr_scan", "ios": "https://dc.lft.to/lastmile_qr_scan"}, "is_reserved": 0, "name": "682c836868593c8f56f992b9183389ec", "lon": -76.94281516666666, "type": "electric_scooter", "bike_id": "682c836868593c8f56f992b9183389ec", "fusion_lon": 0.0, "lat": 38.88305966666667, "fusion_lat": 0.0}, {"is_disabled": 0, "rental_uris": {"android": "https://dc.lft.to/lastmile_qr_scan", "ios": "https://dc.lft.to/lastmile_qr_scan"}, "is_reserved": 0, "name": "bc686a99da404c74af0ee1bc7132e936", "lon": -77.02176783333333, "type": "electric_scooter", "bike_id": "bc686a99da404c74af0ee1bc7132e936", "fusion_lon": 0.0, "lat": 38.89945916666667, "fusion_lat": 0.0}, {"is_disabled": 0, "rental_uris": {"android": "https://dc.lft.to/lastmile_qr_scan", "ios": "https://dc.lft.to/lastmile_qr_scan"}, "is_reserved": 0, "name": "d931892f1dc1ef81edbf4ba45a5c7521", "lon": -77.0132545, "type": "electric_scooter", "bike_id": "d931892f1dc1ef81edbf4ba45a5c7521", "fusion_lon": 0.0, "lat": 38.89905366666667, "fusion_lat": 0.0}, {"is_disabled": 0, "rental_uris": {"android": "https://dc.lft.to/lastmile_qr_scan", "ios": "https://dc.lft.to/lastmile_qr_scan"}, "is_reserved": 0, "name": "af5e87fe4d2fd2c81743ffaf6afe6d8a", "lon": -77.01219483333334, "type": "electric_scooter", "bike_id": "af5e87fe4d2fd2c81743ffaf6afe6d8a", "fusion_lon": 0.0, "lat": 38.91813533333333, "fusion_lat": 0.0}, {"is_disabled": 0, "rental_uris": {"android": "https://dc.lft.to/lastmile_qr_scan", "ios": "https://dc.lft.to/lastmile_qr_scan"}, "is_reserved": 0, "name": "e04f13e17c5ba0d58255fefb22c8dee4", "lon": -77.02585983333333, "type": "electric_scooter", "bike_id": "e04f13e17c5ba0d58255fefb22c8dee4", "fusion_lon": 0.0, "lat": 38.90756566666667, "fusion_lat": 0.0}, {"is_disabled": 0, "rental_uris": {"android": "https://dc.lft.to/lastmile_qr_scan", "ios": "https://dc.lft.to/lastmile_qr_scan"}, "is_reserved": 0, "name": "da4f3e57aa1517eef5ad33cd7b365ff7", "lon": -76.92230333333333, "type": "electric_scooter", "bike_id": "da4f3e57aa1517eef5ad33cd7b365ff7", "fusion_lon": 0.0, "lat": 38.900012, "fusion_lat": 0.0}, {"is_disabled": 0, "rental_uris": {"android": "https://dc.lft.to/lastmile_qr_scan", "ios": "https://dc.lft.to/lastmile_qr_scan"}, "is_reserved": 0, "name": "8586b08c32748f1f91dcae137a6c149d", "lon": -77.0442475, "type": "electric_scooter", "bike_id": "8586b08c32748f1f91dcae137a6c149d", "fusion_lon": 0.0, "lat": 38.91981616666666, "fusion_lat": 0.0}, {"is_disabled": 0, "rental_uris": {"android": "https://dc.lft.to/lastmile_qr_scan", "ios": "https://dc.lft.to/lastmile_qr_scan"}, "is_reserved": 0, "name": "c2bd6705200823c419721c9dc9b05264", "lon": -76.99490133333333, "type": "electric_scooter", "bike_id": "c2bd6705200823c419721c9dc9b05264", "fusion_lon": 0.0, "lat": 38.9257115, "fusion_lat": 0.0}, {"is_disabled": 0, "rental_uris": {"android": "https://dc.lft.to/lastmile_qr_scan", "ios": "https://dc.lft.to/lastmile_qr_scan"}, "is_reserved": 0, "name": "26d89089956e8cd536c86639094f32d3", "lon": -76.99637016666667, "type": "electric_scooter", "bike_id": "26d89089956e8cd536c86639094f32d3", "fusion_lon": 0.0, "lat": 38.89618433333333, "fusion_lat": 0.0}, {"is_disabled": 0, "rental_uris": {"android": "https://dc.lft.to/lastmile_qr_scan", "ios": "https://dc.lft.to/lastmile_qr_scan"}, "is_reserved": 0, "name": "ef5cbf994cb5e44a1655343c33ff41cb", "lon": -77.00558933333333, "type": "electric_scooter", "bike_id": "ef5cbf994cb5e44a1655343c33ff41cb", "fusion_lon": 0.0, "lat": 38.87474516666666, "fusion_lat": 0.0}, {"is_disabled": 0, "rental_uris": {"android": "https://dc.lft.to/lastmile_qr_scan", "ios": "https://dc.lft.to/lastmile_qr_scan"}, "is_reserved": 0, "name": "7789a4c645cc018371d70c83d8d60cf9", "lon": -77.02374016666667, "type": "electric_scooter", "bike_id": "7789a4c645cc018371d70c83d8d60cf9", "fusion_lon": 0.0, "lat": 38.902125833333336, "fusion_lat": 0.0}, {"is_disabled": 0, "rental_uris": {"android": "https://dc.lft.to/lastmile_qr_scan", "ios": "https://dc.lft.to/lastmile_qr_scan"}, "is_reserved": 0, "name": "1d59b1dc8ed5e7cbcb58ef4c6143f993", "lon": -76.928248, "type": "electric_scooter", "bike_id": "1d59b1dc8ed5e7cbcb58ef4c6143f993", "fusion_lon": 0.0, "lat": 38.901838, "fusion_lat": 0.0}, {"is_disabled": 0, "rental_uris": {"android": "https://dc.lft.to/lastmile_qr_scan", "ios": "https://dc.lft.to/lastmile_qr_scan"}, "is_reserved": 0, "name": "333bfcfd3bd4292b767d69edef1bda33", "lon": -77.025233, "type": "electric_scooter", "bike_id": "333bfcfd3bd4292b767d69edef1bda33", "fusion_lon": 0.0, "lat": 38.920655, "fusion_lat": 0.0}, {"is_disabled": 0, "rental_uris": {"android": "https://dc.lft.to/lastmile_qr_scan", "ios": "https://dc.lft.to/lastmile_qr_scan"}, "is_reserved": 0, "name": "784487438b3ad3c717fc640a997fd9de", "lon": -77.032808, "type": "electric_scooter", "bike_id": "784487438b3ad3c717fc640a997fd9de", "fusion_lon": 0.0, "lat": 38.932544166666666, "fusion_lat": 0.0}, {"is_disabled": 0, "rental_uris": {"android": "https://dc.lft.to/lastmile_qr_scan", "ios": "https://dc.lft.to/lastmile_qr_scan"}, "is_reserved": 0, "name": "c996e185e397e8083d97853f1b964d27", "lon": -77.0461055, "type": "electric_scooter", "bike_id": "c996e185e397e8083d97853f1b964d27", "fusion_lon": 0.0, "lat": 38.8997365, "fusion_lat": 0.0}, {"is_disabled": 0, "rental_uris": {"android": "https://dc.lft.to/lastmile_qr_scan", "ios": "https://dc.lft.to/lastmile_qr_scan"}, "is_reserved": 0, "name": "adadc1f8d3c29bef9a7ecbff2ee048f4", "lon": -77.038322, "type": "electric_scooter", "bike_id": "adadc1f8d3c29bef9a7ecbff2ee048f4", "fusion_lon": 0.0, "lat": 38.91113933333333, "fusion_lat": 0.0}, {"is_disabled": 0, "rental_uris": {"android": "https://dc.lft.to/lastmile_qr_scan", "ios": "https://dc.lft.to/lastmile_qr_scan"}, "is_reserved": 0, "name": "15afa4270f7524e1b6e81e2c3903f837", "lon": -77.00150766666667, "type": "electric_scooter", "bike_id": "15afa4270f7524e1b6e81e2c3903f837", "fusion_lon": 0.0, "lat": 38.9107865, "fusion_lat": 0.0}, {"is_disabled": 0, "rental_uris": {"android": "https://dc.lft.to/lastmile_qr_scan", "ios": "https://dc.lft.to/lastmile_qr_scan"}, "is_reserved": 0, "name": "a5e6494741184b642845c5617ebaf3da", "lon": -76.98020683333333, "type": "electric_bike", "bike_id": "a5e6494741184b642845c5617ebaf3da", "fusion_lon": 0.0, "lat": 38.957527166666665, "fusion_lat": 0.0}, {"is_disabled": 0, "rental_uris": {"android": "https://dc.lft.to/lastmile_qr_scan", "ios": "https://dc.lft.to/lastmile_qr_scan"}, "is_reserved": 0, "name": "74dd59275f0fb2a53a8b34baf59e40f1", "lon": -77.0441675, "type": "electric_scooter", "bike_id": "74dd59275f0fb2a53a8b34baf59e40f1", "fusion_lon": 0.0, "lat": 38.90039633333333, "fusion_lat": 0.0}, {"is_disabled": 0, "rental_uris": {"android": "https://dc.lft.to/lastmile_qr_scan", "ios": "https://dc.lft.to/lastmile_qr_scan"}, "is_reserved": 0, "name": "2ad7dc881d21db6c1ca6e74825cc4103", "lon": -77.02157166666667, "type": "electric_scooter", "bike_id": "2ad7dc881d21db6c1ca6e74825cc4103", "fusion_lon": 0.0, "lat": 38.89743716666667, "fusion_lat": 0.0}, {"is_disabled": 0, "rental_uris": {"android": "https://dc.lft.to/lastmile_qr_scan", "ios": "https://dc.lft.to/lastmile_qr_scan"}, "is_reserved": 0, "name": "1f61cb08ed39ac516e6f803ee5b0cec8", "lon": -77.0200395, "type": "electric_scooter", "bike_id": "1f61cb08ed39ac516e6f803ee5b0cec8", "fusion_lon": 0.0, "lat": 38.9095825, "fusion_lat": 0.0}, {"is_disabled": 0, "rental_uris": {"android": "https://dc.lft.to/lastmile_qr_scan", "ios": "https://dc.lft.to/lastmile_qr_scan"}, "is_reserved": 0, "name": "0e9e67c7ce21622bb0bc92c29f525131", "lon": -76.98782916666667, "type": "electric_scooter", "bike_id": "0e9e67c7ce21622bb0bc92c29f525131", "fusion_lon": 0.0, "lat": 38.844675, "fusion_lat": 0.0}, {"is_disabled": 0, "rental_uris": {"android": "https://dc.lft.to/lastmile_qr_scan", "ios": "https://dc.lft.to/lastmile_qr_scan"}, "is_reserved": 0, "name": "247d50e1c5c34dfca8772bd1b2202df5", "lon": -77.02740916666667, "type": "electric_scooter", "bike_id": "247d50e1c5c34dfca8772bd1b2202df5", "fusion_lon": 0.0, "lat": 38.94306266666667, "fusion_lat": 0.0}, {"is_disabled": 0, "rental_uris": {"android": "https://dc.lft.to/lastmile_qr_scan", "ios": "https://dc.lft.to/lastmile_qr_scan"}, "is_reserved": 0, "name": "9537111c81b7cf9f81dd3c5c95782bec", "lon": -76.98828533333334, "type": "electric_bike", "bike_id": "9537111c81b7cf9f81dd3c5c95782bec", "fusion_lon": 0.0, "lat": 38.985651833333336, "fusion_lat": 0.0}, {"is_disabled": 0, "rental_uris": {"android": "https://dc.lft.to/lastmile_qr_scan", "ios": "https://dc.lft.to/lastmile_qr_scan"}, "is_reserved": 0, "name": "381133191012a7480d9e472c4af91703", "lon": -77.0130835, "type": "electric_scooter", "bike_id": "381133191012a7480d9e472c4af91703", "fusion_lon": 0.0, "lat": 38.90082233333333, "fusion_lat": 0.0}, {"is_disabled": 0, "rental_uris": {"android": "https://dc.lft.to/lastmile_qr_scan", "ios": "https://dc.lft.to/lastmile_qr_scan"}, "is_reserved": 0, "name": "46e439cb5b4b2136bad28bd3dc7d246b", "lon": -76.98064816666667, "type": "electric_scooter", "bike_id": "46e439cb5b4b2136bad28bd3dc7d246b", "fusion_lon": 0.0, "lat": 38.91671183333333, "fusion_lat": 0.0}, {"is_disabled": 0, "rental_uris": {"android": "https://dc.lft.to/lastmile_qr_scan", "ios": "https://dc.lft.to/lastmile_qr_scan"}, "is_reserved": 0, "name": "e6ee63e6cf2bbc37b391765fb01bdd65", "lon": -77.10651916666667, "type": "electric_bike", "bike_id": "e6ee63e6cf2bbc37b391765fb01bdd65", "fusion_lon": 0.0, "lat": 39.030046666666664, "fusion_lat": 0.0}, {"is_disabled": 0, "rental_uris": {"android": "https://dc.lft.to/lastmile_qr_scan", "ios": "https://dc.lft.to/lastmile_qr_scan"}, "is_reserved": 0, "name": "c7a344c11aebe0ff2cdf020ccc391024", "lon": -77.02842866666667, "type": "electric_scooter", "bike_id": "c7a344c11aebe0ff2cdf020ccc391024", "fusion_lon": 0.0, "lat": 38.93295916666667, "fusion_lat": 0.0}, {"is_disabled": 0, "rental_uris": {"android": "https://dc.lft.to/lastmile_qr_scan", "ios": "https://dc.lft.to/lastmile_qr_scan"}, "is_reserved": 0, "name": "5ed70090837ea991af11acc0588c47ee", "lon": -77.0462035, "type": "electric_scooter", "bike_id": "5ed70090837ea991af11acc0588c47ee", "fusion_lon": 0.0, "lat": 38.9231795, "fusion_lat": 0.0}, {"is_disabled": 0, "rental_uris": {"android": "https://dc.lft.to/lastmile_qr_scan", "ios": "https://dc.lft.to/lastmile_qr_scan"}, "is_reserved": 0, "name": "fe45fb9a2faa3df235d2ceb258c516e4", "lon": -77.03351583333334, "type": "electric_scooter", "bike_id": "fe45fb9a2faa3df235d2ceb258c516e4", "fusion_lon": 0.0, "lat": 38.92240366666667, "fusion_lat": 0.0}, {"is_disabled": 0, "rental_uris": {"android": "https://dc.lft.to/lastmile_qr_scan", "ios": "https://dc.lft.to/lastmile_qr_scan"}, "is_reserved": 0, "name": "2bfd4b532b401511d78d0aea44ee28b9", "lon": -77.04696466666667, "type": "electric_scooter", "bike_id": "2bfd4b532b401511d78d0aea44ee28b9", "fusion_lon": 0.0, "lat": 38.897423333333336, "fusion_lat": 0.0}, {"is_disabled": 0, "rental_uris": {"android": "https://dc.lft.to/lastmile_qr_scan", "ios": "https://dc.lft.to/lastmile_qr_scan"}, "is_reserved": 0, "name": "a8c161e712b843af68aadc8a20352947", "lon": -77.036324, "type": "electric_scooter", "bike_id": "a8c161e712b843af68aadc8a20352947", "fusion_lon": 0.0, "lat": 38.930480333333335, "fusion_lat": 0.0}, {"is_disabled": 0, "rental_uris": {"android": "https://dc.lft.to/lastmile_qr_scan", "ios": "https://dc.lft.to/lastmile_qr_scan"}, "is_reserved": 0, "name": "30d532980319b504be8e5cea7c58acb2", "lon": -77.05086733333333, "type": "electric_scooter", "bike_id": "30d532980319b504be8e5cea7c58acb2", "fusion_lon": 0.0, "lat": 38.90527616666667, "fusion_lat": 0.0}, {"is_disabled": 0, "rental_uris": {"android": "https://dc.lft.to/lastmile_qr_scan", "ios": "https://dc.lft.to/lastmile_qr_scan"}, "is_reserved": 0, "name": "1051593fac9ab4fab499cd5ec1994ab4", "lon": -77.073487, "type": "electric_scooter", "bike_id": "1051593fac9ab4fab499cd5ec1994ab4", "fusion_lon": 0.0, "lat": 38.92620183333333, "fusion_lat": 0.0}, {"is_disabled": 0, "rental_uris": {"android": "https://dc.lft.to/lastmile_qr_scan", "ios": "https://dc.lft.to/lastmile_qr_scan"}, "is_reserved": 0, "name": "3e17f760614a7d81e435a4e9267215d0", "lon": -77.02940633333333, "type": "electric_scooter", "bike_id": "3e17f760614a7d81e435a4e9267215d0", "fusion_lon": 0.0, "lat": 38.899714833333334, "fusion_lat": 0.0}, {"is_disabled": 0, "rental_uris": {"android": "https://dc.lft.to/lastmile_qr_scan", "ios": "https://dc.lft.to/lastmile_qr_scan"}, "is_reserved": 0, "name": "566ce7919a310bde259c1412127ff919", "lon": -77.03411516666667, "type": "electric_scooter", "bike_id": "566ce7919a310bde259c1412127ff919", "fusion_lon": 0.0, "lat": 38.919249, "fusion_lat": 0.0}, {"is_disabled": 0, "rental_uris": {"android": "https://dc.lft.to/lastmile_qr_scan", "ios": "https://dc.lft.to/lastmile_qr_scan"}, "is_reserved": 0, "name": "debff32d6e57fcfa9911b94d266a12e0", "lon": -77.03301066666667, "type": "electric_scooter", "bike_id": "debff32d6e57fcfa9911b94d266a12e0", "fusion_lon": 0.0, "lat": 38.92645916666667, "fusion_lat": 0.0}, {"is_disabled": 0, "rental_uris": {"android": "https://dc.lft.to/lastmile_qr_scan", "ios": "https://dc.lft.to/lastmile_qr_scan"}, "is_reserved": 0, "name": "0fa30872b08b7b7423bb3bbc6d2fcd52", "lon": -76.98207466666666, "type": "electric_bike", "bike_id": "0fa30872b08b7b7423bb3bbc6d2fcd52", "fusion_lon": 0.0, "lat": 38.985009833333336, "fusion_lat": 0.0}, {"is_disabled": 0, "rental_uris": {"android": "https://dc.lft.to/lastmile_qr_scan", "ios": "https://dc.lft.to/lastmile_qr_scan"}, "is_reserved": 0, "name": "1a1aded229287607db37838a3eece574", "lon": -76.98776883333333, "type": "electric_scooter", "bike_id": "1a1aded229287607db37838a3eece574", "fusion_lon": 0.0, "lat": 38.89825833333333, "fusion_lat": 0.0}, {"is_disabled": 0, "rental_uris": {"android": "https://dc.lft.to/lastmile_qr_scan", "ios": "https://dc.lft.to/lastmile_qr_scan"}, "is_reserved": 0, "name": "08170ef37413f3b770e70acbfedc13fa", "lon": -76.99691766666666, "type": "electric_scooter", "bike_id": "08170ef37413f3b770e70acbfedc13fa", "fusion_lon": 0.0, "lat": 38.860330833333336, "fusion_lat": 0.0}, {"is_disabled": 0, "rental_uris": {"android": "https://dc.lft.to/lastmile_qr_scan", "ios": "https://dc.lft.to/lastmile_qr_scan"}, "is_reserved": 0, "name": "a717cb0763ba0ca624cb21daae73d7bb", "lon": -77.02594616666667, "type": "electric_scooter", "bike_id": "a717cb0763ba0ca624cb21daae73d7bb", "fusion_lon": 0.0, "lat": 38.89959666666667, "fusion_lat": 0.0}, {"is_disabled": 0, "rental_uris": {"android": "https://dc.lft.to/lastmile_qr_scan", "ios": "https://dc.lft.to/lastmile_qr_scan"}, "is_reserved": 0, "name": "63f13eb1043d27a78ce67537f341cb69", "lon": -77.00265483333334, "type": "electric_scooter", "bike_id": "63f13eb1043d27a78ce67537f341cb69", "fusion_lon": 0.0, "lat": 38.91190016666667, "fusion_lat": 0.0}, {"is_disabled": 0, "rental_uris": {"android": "https://dc.lft.to/lastmile_qr_scan", "ios": "https://dc.lft.to/lastmile_qr_scan"}, "is_reserved": 0, "name": "cbbb188559bccc06fe7fda40ed468fb1", "lon": -77.03629816666667, "type": "electric_scooter", "bike_id": "cbbb188559bccc06fe7fda40ed468fb1", "fusion_lon": 0.0, "lat": 38.95608466666667, "fusion_lat": 0.0}, {"is_disabled": 0, "rental_uris": {"android": "https://dc.lft.to/lastmile_qr_scan", "ios": "https://dc.lft.to/lastmile_qr_scan"}, "is_reserved": 0, "name": "069f461ff7eaf0dd540cc7ddb60f4246", "lon": -77.14774416666667, "type": "electric_bike", "bike_id": "069f461ff7eaf0dd540cc7ddb60f4246", "fusion_lon": 0.0, "lat": 39.095944833333334, "fusion_lat": 0.0}, {"is_disabled": 0, "rental_uris": {"android": "https://dc.lft.to/lastmile_qr_scan", "ios": "https://dc.lft.to/lastmile_qr_scan"}, "is_reserved": 0, "name": "f3f2dd99a128af2d87d2746298e68f2c", "lon": -77.03611633333334, "type": "electric_scooter", "bike_id": "f3f2dd99a128af2d87d2746298e68f2c", "fusion_lon": 0.0, "lat": 38.931474, "fusion_lat": 0.0}, {"is_disabled": 0, "rental_uris": {"android": "https://dc.lft.to/lastmile_qr_scan", "ios": "https://dc.lft.to/lastmile_qr_scan"}, "is_reserved": 0, "name": "da8abeb117c9e215459c5c82b011383d", "lon": -77.00122433333334, "type": "electric_bike", "bike_id": "da8abeb117c9e215459c5c82b011383d", "fusion_lon": 0.0, "lat": 38.9993725, "fusion_lat": 0.0}, {"is_disabled": 0, "rental_uris": {"android": "https://dc.lft.to/lastmile_qr_scan", "ios": "https://dc.lft.to/lastmile_qr_scan"}, "is_reserved": 0, "name": "34b8b848354f0a81c83ca39263cf3551", "lon": -76.94702, "type": "electric_scooter", "bike_id": "34b8b848354f0a81c83ca39263cf3551", "fusion_lon": 0.0, "lat": 38.8974105, "fusion_lat": 0.0}, {"is_disabled": 0, "rental_uris": {"android": "https://dc.lft.to/lastmile_qr_scan", "ios": "https://dc.lft.to/lastmile_qr_scan"}, "is_reserved": 0, "name": "957b75dd0068ebc6b5d8be929425e0ea", "lon": -77.0184845, "type": "electric_scooter", "bike_id": "957b75dd0068ebc6b5d8be929425e0ea", "fusion_lon": 0.0, "lat": 38.903987, "fusion_lat": 0.0}, {"is_disabled": 0, "rental_uris": {"android": "https://dc.lft.to/lastmile_qr_scan", "ios": "https://dc.lft.to/lastmile_qr_scan"}, "is_reserved": 0, "name": "5f1c0c22993221a7d8ec9799d7c6b1a3", "lon": -76.99589416666667, "type": "electric_scooter", "bike_id": "5f1c0c22993221a7d8ec9799d7c6b1a3", "fusion_lon": 0.0, "lat": 38.90015016666667, "fusion_lat": 0.0}, {"is_disabled": 0, "rental_uris": {"android": "https://dc.lft.to/lastmile_qr_scan", "ios": "https://dc.lft.to/lastmile_qr_scan"}, "is_reserved": 0, "name": "7d32e00a335fdbb13acb2173064b93df", "lon": -76.94886033333333, "type": "electric_scooter", "bike_id": "7d32e00a335fdbb13acb2173064b93df", "fusion_lon": 0.0, "lat": 38.8950965, "fusion_lat": 0.0}, {"is_disabled": 0, "rental_uris": {"android": "https://dc.lft.to/lastmile_qr_scan", "ios": "https://dc.lft.to/lastmile_qr_scan"}, "is_reserved": 0, "name": "a95b39d9f7ffc89a31c2c0dd5f143149", "lon": -77.00227133333334, "type": "electric_scooter", "bike_id": "a95b39d9f7ffc89a31c2c0dd5f143149", "fusion_lon": 0.0, "lat": 38.90290266666667, "fusion_lat": 0.0}, {"is_disabled": 0, "rental_uris": {"android": "https://dc.lft.to/lastmile_qr_scan", "ios": "https://dc.lft.to/lastmile_qr_scan"}, "is_reserved": 0, "name": "4bad563407d6ff9c9ee82b5a28ba707a", "lon": -76.9865785, "type": "electric_scooter", "bike_id": "4bad563407d6ff9c9ee82b5a28ba707a", "fusion_lon": 0.0, "lat": 38.9131255, "fusion_lat": 0.0}, {"is_disabled": 0, "rental_uris": {"android": "https://dc.lft.to/lastmile_qr_scan", "ios": "https://dc.lft.to/lastmile_qr_scan"}, "is_reserved": 0, "name": "cb667ab2144bbc6d70ef49b6c2f9a19a", "lon": -76.99342966666667, "type": "electric_scooter", "bike_id": "cb667ab2144bbc6d70ef49b6c2f9a19a", "fusion_lon": 0.0, "lat": 38.89909466666667, "fusion_lat": 0.0}, {"is_disabled": 0, "rental_uris": {"android": "https://dc.lft.to/lastmile_qr_scan", "ios": "https://dc.lft.to/lastmile_qr_scan"}, "is_reserved": 0, "name": "4e9f6a096e7925de98294a6ecd1467e8", "lon": -77.02818383333333, "type": "electric_scooter", "bike_id": "4e9f6a096e7925de98294a6ecd1467e8", "fusion_lon": 0.0, "lat": 38.9046045, "fusion_lat": 0.0}, {"is_disabled": 0, "rental_uris": {"android": "https://dc.lft.to/lastmile_qr_scan", "ios": "https://dc.lft.to/lastmile_qr_scan"}, "is_reserved": 0, "name": "ca0e36d5125bec42f8bfc0e0f8ab6000", "lon": -77.03187583333333, "type": "electric_scooter", "bike_id": "ca0e36d5125bec42f8bfc0e0f8ab6000", "fusion_lon": 0.0, "lat": 38.9103695, "fusion_lat": 0.0}, {"is_disabled": 0, "rental_uris": {"android": "https://dc.lft.to/lastmile_qr_scan", "ios": "https://dc.lft.to/lastmile_qr_scan"}, "is_reserved": 0, "name": "fe40a38ea67b795bcc4f1c63425f2d5f", "lon": -77.04362233333333, "type": "electric_bike", "bike_id": "fe40a38ea67b795bcc4f1c63425f2d5f", "fusion_lon": 0.0, "lat": 38.9017505, "fusion_lat": 0.0}, {"is_disabled": 0, "rental_uris": {"android": "https://dc.lft.to/lastmile_qr_scan", "ios": "https://dc.lft.to/lastmile_qr_scan"}, "is_reserved": 0, "name": "ff8f0f55e96971b20a50b931d236992d", "lon": -77.03532, "type": "electric_scooter", "bike_id": "ff8f0f55e96971b20a50b931d236992d", "fusion_lon": 0.0, "lat": 38.91848933333333, "fusion_lat": 0.0}, {"is_disabled": 0, "rental_uris": {"android": "https://dc.lft.to/lastmile_qr_scan", "ios": "https://dc.lft.to/lastmile_qr_scan"}, "is_reserved": 0, "name": "84367af1726743255d2d4ffb70da9b41", "lon": -77.03425683333333, "type": "electric_scooter", "bike_id": "84367af1726743255d2d4ffb70da9b41", "fusion_lon": 0.0, "lat": 38.91756866666667, "fusion_lat": 0.0}, {"is_disabled": 0, "rental_uris": {"android": "https://dc.lft.to/lastmile_qr_scan", "ios": "https://dc.lft.to/lastmile_qr_scan"}, "is_reserved": 0, "name": "8d29c750e1e6e36c8bf12b5161ef4b92", "lon": -77.0308815, "type": "electric_scooter", "bike_id": "8d29c750e1e6e36c8bf12b5161ef4b92", "fusion_lon": 0.0, "lat": 38.90954716666667, "fusion_lat": 0.0}, {"is_disabled": 0, "rental_uris": {"android": "https://dc.lft.to/lastmile_qr_scan", "ios": "https://dc.lft.to/lastmile_qr_scan"}, "is_reserved": 0, "name": "28b8ed9e7d7f1aa67dda869493d554e4", "lon": -77.04009266666667, "type": "electric_scooter", "bike_id": "28b8ed9e7d7f1aa67dda869493d554e4", "fusion_lon": 0.0, "lat": 38.91036416666667, "fusion_lat": 0.0}, {"is_disabled": 0, "rental_uris": {"android": "https://dc.lft.to/lastmile_qr_scan", "ios": "https://dc.lft.to/lastmile_qr_scan"}, "is_reserved": 0, "name": "6fae469e629cf62d377d664e40c701ac", "lon": -76.98653266666666, "type": "electric_scooter", "bike_id": "6fae469e629cf62d377d664e40c701ac", "fusion_lon": 0.0, "lat": 38.858083, "fusion_lat": 0.0}, {"is_disabled": 0, "rental_uris": {"android": "https://dc.lft.to/lastmile_qr_scan", "ios": "https://dc.lft.to/lastmile_qr_scan"}, "is_reserved": 0, "name": "35f5bb5fccc5ac9c683d1cd74819430c", "lon": -77.03604916666667, "type": "electric_scooter", "bike_id": "35f5bb5fccc5ac9c683d1cd74819430c", "fusion_lon": 0.0, "lat": 38.92860666666667, "fusion_lat": 0.0}, {"is_disabled": 0, "rental_uris": {"android": "https://dc.lft.to/lastmile_qr_scan", "ios": "https://dc.lft.to/lastmile_qr_scan"}, "is_reserved": 0, "name": "47a04cbbf5dbfd89dc55b8a57d149ce8", "lon": -77.0318535, "type": "electric_scooter", "bike_id": "47a04cbbf5dbfd89dc55b8a57d149ce8", "fusion_lon": 0.0, "lat": 38.88354066666667, "fusion_lat": 0.0}, {"is_disabled": 0, "rental_uris": {"android": "https://dc.lft.to/lastmile_qr_scan", "ios": "https://dc.lft.to/lastmile_qr_scan"}, "is_reserved": 0, "name": "d2a9545f48835fbc40e213fd71387e3c", "lon": -77.0408775, "type": "electric_scooter", "bike_id": "d2a9545f48835fbc40e213fd71387e3c", "fusion_lon": 0.0, "lat": 38.91120433333333, "fusion_lat": 0.0}, {"is_disabled": 0, "rental_uris": {"android": "https://dc.lft.to/lastmile_qr_scan", "ios": "https://dc.lft.to/lastmile_qr_scan"}, "is_reserved": 0, "name": "4ecffd58ef965cfc2b4b6c3f2466c0dd", "lon": -77.02592366666667, "type": "electric_scooter", "bike_id": "4ecffd58ef965cfc2b4b6c3f2466c0dd", "fusion_lon": 0.0, "lat": 38.94208733333333, "fusion_lat": 0.0}, {"is_disabled": 0, "rental_uris": {"android": "https://dc.lft.to/lastmile_qr_scan", "ios": "https://dc.lft.to/lastmile_qr_scan"}, "is_reserved": 0, "name": "18dac3ccfe8c75edd70e36bb0f1cb943", "lon": -76.98417066666667, "type": "electric_bike", "bike_id": "18dac3ccfe8c75edd70e36bb0f1cb943", "fusion_lon": 0.0, "lat": 38.91007233333333, "fusion_lat": 0.0}, {"is_disabled": 0, "rental_uris": {"android": "https://dc.lft.to/lastmile_qr_scan", "ios": "https://dc.lft.to/lastmile_qr_scan"}, "is_reserved": 0, "name": "d168b24c0ab1090169bb89ab5b339aac", "lon": -77.017091, "type": "electric_scooter", "bike_id": "d168b24c0ab1090169bb89ab5b339aac", "fusion_lon": 0.0, "lat": 38.9050355, "fusion_lat": 0.0}, {"is_disabled": 0, "rental_uris": {"android": "https://dc.lft.to/lastmile_qr_scan", "ios": "https://dc.lft.to/lastmile_qr_scan"}, "is_reserved": 0, "name": "c459fbdc66e0ae9bc75377d661fe3b7e", "lon": -77.032673, "type": "electric_scooter", "bike_id": "c459fbdc66e0ae9bc75377d661fe3b7e", "fusion_lon": 0.0, "lat": 38.93319016666667, "fusion_lat": 0.0}, {"is_disabled": 0, "rental_uris": {"android": "https://dc.lft.to/lastmile_qr_scan", "ios": "https://dc.lft.to/lastmile_qr_scan"}, "is_reserved": 0, "name": "dee7c62ff64d3194f4800dd75d22516e", "lon": -77.04166783333334, "type": "electric_scooter", "bike_id": "dee7c62ff64d3194f4800dd75d22516e", "fusion_lon": 0.0, "lat": 38.912702333333336, "fusion_lat": 0.0}, {"is_disabled": 0, "rental_uris": {"android": "https://dc.lft.to/lastmile_qr_scan", "ios": "https://dc.lft.to/lastmile_qr_scan"}, "is_reserved": 0, "name": "f2e07f1fa03bcf14fb1a3df7077ed412", "lon": -77.0058045, "type": "electric_scooter", "bike_id": "f2e07f1fa03bcf14fb1a3df7077ed412", "fusion_lon": 0.0, "lat": 38.875987333333335, "fusion_lat": 0.0}, {"is_disabled": 0, "rental_uris": {"android": "https://dc.lft.to/lastmile_qr_scan", "ios": "https://dc.lft.to/lastmile_qr_scan"}, "is_reserved": 0, "name": "87d47d363a89cba15ce00b244c01157c", "lon": -77.03447516666667, "type": "electric_scooter", "bike_id": "87d47d363a89cba15ce00b244c01157c", "fusion_lon": 0.0, "lat": 38.934323, "fusion_lat": 0.0}, {"is_disabled": 0, "rental_uris": {"android": "https://dc.lft.to/lastmile_qr_scan", "ios": "https://dc.lft.to/lastmile_qr_scan"}, "is_reserved": 0, "name": "29b1467e520efb020051c5af94d38c5c", "lon": -77.0469805, "type": "electric_scooter", "bike_id": "29b1467e520efb020051c5af94d38c5c", "fusion_lon": 0.0, "lat": 38.91564916666667, "fusion_lat": 0.0}, {"is_disabled": 0, "rental_uris": {"android": "https://dc.lft.to/lastmile_qr_scan", "ios": "https://dc.lft.to/lastmile_qr_scan"}, "is_reserved": 0, "name": "8df52139561f8806f6baac0ad3a61f0c", "lon": -77.0176255, "type": "electric_scooter", "bike_id": "8df52139561f8806f6baac0ad3a61f0c", "fusion_lon": 0.0, "lat": 38.919025, "fusion_lat": 0.0}, {"is_disabled": 0, "rental_uris": {"android": "https://dc.lft.to/lastmile_qr_scan", "ios": "https://dc.lft.to/lastmile_qr_scan"}, "is_reserved": 0, "name": "19b6fe6bf16c7c57f80ed38cf89d6b22", "lon": -77.04168933333334, "type": "electric_scooter", "bike_id": "19b6fe6bf16c7c57f80ed38cf89d6b22", "fusion_lon": 0.0, "lat": 38.9181385, "fusion_lat": 0.0}, {"is_disabled": 0, "rental_uris": {"android": "https://dc.lft.to/lastmile_qr_scan", "ios": "https://dc.lft.to/lastmile_qr_scan"}, "is_reserved": 0, "name": "48d898b79cdfc59824ed08abb781028e", "lon": -77.03666566666666, "type": "electric_scooter", "bike_id": "48d898b79cdfc59824ed08abb781028e", "fusion_lon": 0.0, "lat": 38.922226333333334, "fusion_lat": 0.0}, {"is_disabled": 0, "rental_uris": {"android": "https://dc.lft.to/lastmile_qr_scan", "ios": "https://dc.lft.to/lastmile_qr_scan"}, "is_reserved": 0, "name": "67e17bb72482a7d6686b4f88473ed2ad", "lon": -76.91806016666666, "type": "electric_bike", "bike_id": "67e17bb72482a7d6686b4f88473ed2ad", "fusion_lon": 0.0, "lat": 39.00001266666667, "fusion_lat": 0.0}, {"is_disabled": 0, "rental_uris": {"android": "https://dc.lft.to/lastmile_qr_scan", "ios": "https://dc.lft.to/lastmile_qr_scan"}, "is_reserved": 0, "name": "aa185d50c3331f48a7ec7b8b2e580136", "lon": -77.01225966666667, "type": "electric_scooter", "bike_id": "aa185d50c3331f48a7ec7b8b2e580136", "fusion_lon": 0.0, "lat": 38.88583166666667, "fusion_lat": 0.0}, {"is_disabled": 0, "rental_uris": {"android": "https://dc.lft.to/lastmile_qr_scan", "ios": "https://dc.lft.to/lastmile_qr_scan"}, "is_reserved": 0, "name": "33f2173c1d444545cddb257db60977d6", "lon": -76.99058483333333, "type": "electric_scooter", "bike_id": "33f2173c1d444545cddb257db60977d6", "fusion_lon": 0.0, "lat": 38.9041665, "fusion_lat": 0.0}, {"is_disabled": 0, "rental_uris": {"android": "https://dc.lft.to/lastmile_qr_scan", "ios": "https://dc.lft.to/lastmile_qr_scan"}, "is_reserved": 0, "name": "2172a6956d92281e5f44725a5d5d4786", "lon": -77.0059955, "type": "electric_scooter", "bike_id": "2172a6956d92281e5f44725a5d5d4786", "fusion_lon": 0.0, "lat": 38.875949166666665, "fusion_lat": 0.0}, {"is_disabled": 0, "rental_uris": {"android": "https://dc.lft.to/lastmile_qr_scan", "ios": "https://dc.lft.to/lastmile_qr_scan"}, "is_reserved": 0, "name": "6916feb258d9bb6fa2af3363b95a4e26", "lon": -77.03982783333333, "type": "electric_scooter", "bike_id": "6916feb258d9bb6fa2af3363b95a4e26", "fusion_lon": 0.0, "lat": 38.91819383333333, "fusion_lat": 0.0}, {"is_disabled": 0, "rental_uris": {"android": "https://dc.lft.to/lastmile_qr_scan", "ios": "https://dc.lft.to/lastmile_qr_scan"}, "is_reserved": 0, "name": "a23154d94e1b5a7340f92e6b6ec866a3", "lon": -76.99696583333333, "type": "electric_scooter", "bike_id": "a23154d94e1b5a7340f92e6b6ec866a3", "fusion_lon": 0.0, "lat": 38.92185683333334, "fusion_lat": 0.0}, {"is_disabled": 0, "rental_uris": {"android": "https://dc.lft.to/lastmile_qr_scan", "ios": "https://dc.lft.to/lastmile_qr_scan"}, "is_reserved": 0, "name": "593bf419704bd819fec52ace73c74313", "lon": -77.0020845, "type": "electric_scooter", "bike_id": "593bf419704bd819fec52ace73c74313", "fusion_lon": 0.0, "lat": 38.9157115, "fusion_lat": 0.0}, {"is_disabled": 0, "rental_uris": {"android": "https://dc.lft.to/lastmile_qr_scan", "ios": "https://dc.lft.to/lastmile_qr_scan"}, "is_reserved": 0, "name": "60a73fb0d00fa1c26eb4f0fa04ac9f40", "lon": -77.03622333333334, "type": "electric_scooter", "bike_id": "60a73fb0d00fa1c26eb4f0fa04ac9f40", "fusion_lon": 0.0, "lat": 38.9286155, "fusion_lat": 0.0}, {"is_disabled": 0, "rental_uris": {"android": "https://dc.lft.to/lastmile_qr_scan", "ios": "https://dc.lft.to/lastmile_qr_scan"}, "is_reserved": 0, "name": "af651152f5f432c42d06097cbc2bd127", "lon": -77.02362766666667, "type": "electric_scooter", "bike_id": "af651152f5f432c42d06097cbc2bd127", "fusion_lon": 0.0, "lat": 38.93130683333333, "fusion_lat": 0.0}, {"is_disabled": 0, "rental_uris": {"android": "https://dc.lft.to/lastmile_qr_scan", "ios": "https://dc.lft.to/lastmile_qr_scan"}, "is_reserved": 0, "name": "8c81ce6a233652f11cdae087a92f4568", "lon": -77.01583866666667, "type": "electric_bike", "bike_id": "8c81ce6a233652f11cdae087a92f4568", "fusion_lon": 0.0, "lat": 38.901353666666665, "fusion_lat": 0.0}, {"is_disabled": 0, "rental_uris": {"android": "https://dc.lft.to/lastmile_qr_scan", "ios": "https://dc.lft.to/lastmile_qr_scan"}, "is_reserved": 0, "name": "d062968db815ce4202f9d5fff8bb0173", "lon": -77.023813, "type": "electric_scooter", "bike_id": "d062968db815ce4202f9d5fff8bb0173", "fusion_lon": 0.0, "lat": 38.91763533333334, "fusion_lat": 0.0}, {"is_disabled": 0, "rental_uris": {"android": "https://dc.lft.to/lastmile_qr_scan", "ios": "https://dc.lft.to/lastmile_qr_scan"}, "is_reserved": 0, "name": "c861e99e66370cb5197d47c5f2970107", "lon": -76.9716765, "type": "electric_bike", "bike_id": "c861e99e66370cb5197d47c5f2970107", "fusion_lon": 0.0, "lat": 38.976790666666666, "fusion_lat": 0.0}, {"is_disabled": 0, "rental_uris": {"android": "https://dc.lft.to/lastmile_qr_scan", "ios": "https://dc.lft.to/lastmile_qr_scan"}, "is_reserved": 0, "name": "6139ba3a5a847cd5683a748c65adbc61", "lon": -77.009269, "type": "electric_scooter", "bike_id": "6139ba3a5a847cd5683a748c65adbc61", "fusion_lon": 0.0, "lat": 38.89607433333333, "fusion_lat": 0.0}, {"is_disabled": 0, "rental_uris": {"android": "https://dc.lft.to/lastmile_qr_scan", "ios": "https://dc.lft.to/lastmile_qr_scan"}, "is_reserved": 0, "name": "56ddc790b91d6f4016f88127a79f280f", "lon": -77.0516105, "type": "electric_scooter", "bike_id": "56ddc790b91d6f4016f88127a79f280f", "fusion_lon": 0.0, "lat": 38.905917333333335, "fusion_lat": 0.0}, {"is_disabled": 0, "rental_uris": {"android": "https://dc.lft.to/lastmile_qr_scan", "ios": "https://dc.lft.to/lastmile_qr_scan"}, "is_reserved": 0, "name": "ebf380c61a39d788b8fda56295b6003f", "lon": -77.05415816666667, "type": "electric_scooter", "bike_id": "ebf380c61a39d788b8fda56295b6003f", "fusion_lon": 0.0, "lat": 38.899189, "fusion_lat": 0.0}, {"is_disabled": 0, "rental_uris": {"android": "https://dc.lft.to/lastmile_qr_scan", "ios": "https://dc.lft.to/lastmile_qr_scan"}, "is_reserved": 0, "name": "79865860e662c8bddca4dde846b51c7a", "lon": -77.00191633333333, "type": "electric_scooter", "bike_id": "79865860e662c8bddca4dde846b51c7a", "fusion_lon": 0.0, "lat": 38.9006085, "fusion_lat": 0.0}, {"is_disabled": 0, "rental_uris": {"android": "https://dc.lft.to/lastmile_qr_scan", "ios": "https://dc.lft.to/lastmile_qr_scan"}, "is_reserved": 0, "name": "75000e624280676d07c7d360e05ba700", "lon": -77.01083733333333, "type": "electric_scooter", "bike_id": "75000e624280676d07c7d360e05ba700", "fusion_lon": 0.0, "lat": 38.91820416666667, "fusion_lat": 0.0}, {"is_disabled": 0, "rental_uris": {"android": "https://dc.lft.to/lastmile_qr_scan", "ios": "https://dc.lft.to/lastmile_qr_scan"}, "is_reserved": 0, "name": "e160674444ef67f1d8c1b9a1ffa2ce74", "lon": -77.023087, "type": "electric_scooter", "bike_id": "e160674444ef67f1d8c1b9a1ffa2ce74", "fusion_lon": 0.0, "lat": 38.915686, "fusion_lat": 0.0}, {"is_disabled": 0, "rental_uris": {"android": "https://dc.lft.to/lastmile_qr_scan", "ios": "https://dc.lft.to/lastmile_qr_scan"}, "is_reserved": 0, "name": "6966b80779d0d30097d4193f8a6a65de", "lon": -77.01404633333334, "type": "electric_scooter", "bike_id": "6966b80779d0d30097d4193f8a6a65de", "fusion_lon": 0.0, "lat": 38.92837566666667, "fusion_lat": 0.0}, {"is_disabled": 0, "rental_uris": {"android": "https://dc.lft.to/lastmile_qr_scan", "ios": "https://dc.lft.to/lastmile_qr_scan"}, "is_reserved": 0, "name": "1adab6aca30277f8cd104f916124eca1", "lon": -76.88908483333333, "type": "electric_bike", "bike_id": "1adab6aca30277f8cd104f916124eca1", "fusion_lon": 0.0, "lat": 38.925935833333334, "fusion_lat": 0.0}, {"is_disabled": 0, "rental_uris": {"android": "https://dc.lft.to/lastmile_qr_scan", "ios": "https://dc.lft.to/lastmile_qr_scan"}, "is_reserved": 0, "name": "83249e62e2cae3700b9f2286096d19c5", "lon": -76.95222683333333, "type": "electric_bike", "bike_id": "83249e62e2cae3700b9f2286096d19c5", "fusion_lon": 0.0, "lat": 38.892361333333334, "fusion_lat": 0.0}, {"is_disabled": 0, "rental_uris": {"android": "https://dc.lft.to/lastmile_qr_scan", "ios": "https://dc.lft.to/lastmile_qr_scan"}, "is_reserved": 0, "name": "38fd44d6dd6477b234306efbafd955ac", "lon": -77.05012233333333, "type": "electric_scooter", "bike_id": "38fd44d6dd6477b234306efbafd955ac", "fusion_lon": 0.0, "lat": 38.9052525, "fusion_lat": 0.0}, {"is_disabled": 0, "rental_uris": {"android": "https://dc.lft.to/lastmile_qr_scan", "ios": "https://dc.lft.to/lastmile_qr_scan"}, "is_reserved": 0, "name": "08e6c1305bf3316c2a8d27424c04d2ac", "lon": -76.99946933333334, "type": "electric_scooter", "bike_id": "08e6c1305bf3316c2a8d27424c04d2ac", "fusion_lon": 0.0, "lat": 38.842964333333335, "fusion_lat": 0.0}, {"is_disabled": 0, "rental_uris": {"android": "https://dc.lft.to/lastmile_qr_scan", "ios": "https://dc.lft.to/lastmile_qr_scan"}, "is_reserved": 0, "name": "786ef6af4bc04719425776f0ce7b0a63", "lon": -77.006959, "type": "electric_scooter", "bike_id": "786ef6af4bc04719425776f0ce7b0a63", "fusion_lon": 0.0, "lat": 38.899972, "fusion_lat": 0.0}, {"is_disabled": 0, "rental_uris": {"android": "https://dc.lft.to/lastmile_qr_scan", "ios": "https://dc.lft.to/lastmile_qr_scan"}, "is_reserved": 0, "name": "41bd09e7d69990f90dd9800b538c32c2", "lon": -76.98232733333333, "type": "electric_scooter", "bike_id": "41bd09e7d69990f90dd9800b538c32c2", "fusion_lon": 0.0, "lat": 38.864792, "fusion_lat": 0.0}, {"is_disabled": 0, "rental_uris": {"android": "https://dc.lft.to/lastmile_qr_scan", "ios": "https://dc.lft.to/lastmile_qr_scan"}, "is_reserved": 0, "name": "66b8d72dcd348b91d0aade9289dd3450", "lon": -76.948889, "type": "electric_scooter", "bike_id": "66b8d72dcd348b91d0aade9289dd3450", "fusion_lon": 0.0, "lat": 38.895325, "fusion_lat": 0.0}, {"is_disabled": 0, "rental_uris": {"android": "https://dc.lft.to/lastmile_qr_scan", "ios": "https://dc.lft.to/lastmile_qr_scan"}, "is_reserved": 0, "name": "3b1a79e3a4104cb0fe35c7748f1769c9", "lon": -77.03517266666667, "type": "electric_scooter", "bike_id": "3b1a79e3a4104cb0fe35c7748f1769c9", "fusion_lon": 0.0, "lat": 38.92200183333333, "fusion_lat": 0.0}, {"is_disabled": 0, "rental_uris": {"android": "https://dc.lft.to/lastmile_qr_scan", "ios": "https://dc.lft.to/lastmile_qr_scan"}, "is_reserved": 0, "name": "2eeb461258ff7929d9fa9c75e13e747d", "lon": -77.00628516666667, "type": "electric_scooter", "bike_id": "2eeb461258ff7929d9fa9c75e13e747d", "fusion_lon": 0.0, "lat": 38.871754833333334, "fusion_lat": 0.0}, {"is_disabled": 0, "rental_uris": {"android": "https://dc.lft.to/lastmile_qr_scan", "ios": "https://dc.lft.to/lastmile_qr_scan"}, "is_reserved": 0, "name": "a27304d47f9a8e471d8d143b3fd07351", "lon": -77.026041, "type": "electric_scooter", "bike_id": "a27304d47f9a8e471d8d143b3fd07351", "fusion_lon": 0.0, "lat": 38.904281, "fusion_lat": 0.0}, {"is_disabled": 0, "rental_uris": {"android": "https://dc.lft.to/lastmile_qr_scan", "ios": "https://dc.lft.to/lastmile_qr_scan"}, "is_reserved": 0, "name": "ace82422d61b265209ffd733ecf86a0b", "lon": -77.03168266666667, "type": "electric_scooter", "bike_id": "ace82422d61b265209ffd733ecf86a0b", "fusion_lon": 0.0, "lat": 38.89817683333333, "fusion_lat": 0.0}, {"is_disabled": 0, "rental_uris": {"android": "https://dc.lft.to/lastmile_qr_scan", "ios": "https://dc.lft.to/lastmile_qr_scan"}, "is_reserved": 0, "name": "704209cfcaf059886e4a7967f42b38fb", "lon": -77.01224383333333, "type": "electric_scooter", "bike_id": "704209cfcaf059886e4a7967f42b38fb", "fusion_lon": 0.0, "lat": 38.885821666666665, "fusion_lat": 0.0}, {"is_disabled": 0, "rental_uris": {"android": "https://dc.lft.to/lastmile_qr_scan", "ios": "https://dc.lft.to/lastmile_qr_scan"}, "is_reserved": 0, "name": "2c45faa2ea41c55957c8fb2b1bfd9a81", "lon": -76.9961135, "type": "electric_scooter", "bike_id": "2c45faa2ea41c55957c8fb2b1bfd9a81", "fusion_lon": 0.0, "lat": 38.86467066666667, "fusion_lat": 0.0}, {"is_disabled": 0, "rental_uris": {"android": "https://dc.lft.to/lastmile_qr_scan", "ios": "https://dc.lft.to/lastmile_qr_scan"}, "is_reserved": 0, "name": "9b999cb7310b7d50284f628aa0464d32", "lon": -77.0267855, "type": "electric_scooter", "bike_id": "9b999cb7310b7d50284f628aa0464d32", "fusion_lon": 0.0, "lat": 38.89600383333333, "fusion_lat": 0.0}, {"is_disabled": 0, "rental_uris": {"android": "https://dc.lft.to/lastmile_qr_scan", "ios": "https://dc.lft.to/lastmile_qr_scan"}, "is_reserved": 0, "name": "0b2865a95e63812c44b811aa768805f7", "lon": -77.07081066666667, "type": "electric_scooter", "bike_id": "0b2865a95e63812c44b811aa768805f7", "fusion_lon": 0.0, "lat": 38.93909466666667, "fusion_lat": 0.0}, {"is_disabled": 0, "rental_uris": {"android": "https://dc.lft.to/lastmile_qr_scan", "ios": "https://dc.lft.to/lastmile_qr_scan"}, "is_reserved": 0, "name": "c4b01ede85d3769914a709cc0a033270", "lon": -77.03184766666666, "type": "electric_scooter", "bike_id": "c4b01ede85d3769914a709cc0a033270", "fusion_lon": 0.0, "lat": 38.910077666666666, "fusion_lat": 0.0}, {"is_disabled": 0, "rental_uris": {"android": "https://dc.lft.to/lastmile_qr_scan", "ios": "https://dc.lft.to/lastmile_qr_scan"}, "is_reserved": 0, "name": "8cf7cb5634520b928fe1341a9bccfe52", "lon": -77.00610133333333, "type": "electric_scooter", "bike_id": "8cf7cb5634520b928fe1341a9bccfe52", "fusion_lon": 0.0, "lat": 38.8718375, "fusion_lat": 0.0}, {"is_disabled": 0, "rental_uris": {"android": "https://dc.lft.to/lastmile_qr_scan", "ios": "https://dc.lft.to/lastmile_qr_scan"}, "is_reserved": 0, "name": "b72ead956f40672cda993fd99ce40612", "lon": -77.00813566666666, "type": "electric_scooter", "bike_id": "b72ead956f40672cda993fd99ce40612", "fusion_lon": 0.0, "lat": 38.8765175, "fusion_lat": 0.0}, {"is_disabled": 0, "rental_uris": {"android": "https://dc.lft.to/lastmile_qr_scan", "ios": "https://dc.lft.to/lastmile_qr_scan"}, "is_reserved": 0, "name": "8a7d27e2224c196061d86c3f5ecd2a23", "lon": -77.02076583333333, "type": "electric_scooter", "bike_id": "8a7d27e2224c196061d86c3f5ecd2a23", "fusion_lon": 0.0, "lat": 38.884837833333336, "fusion_lat": 0.0}, {"is_disabled": 0, "rental_uris": {"android": "https://dc.lft.to/lastmile_qr_scan", "ios": "https://dc.lft.to/lastmile_qr_scan"}, "is_reserved": 0, "name": "6f1be6b4725aae42d42b383e356b2c41", "lon": -77.04319533333333, "type": "electric_scooter", "bike_id": "6f1be6b4725aae42d42b383e356b2c41", "fusion_lon": 0.0, "lat": 38.9085855, "fusion_lat": 0.0}, {"is_disabled": 0, "rental_uris": {"android": "https://dc.lft.to/lastmile_qr_scan", "ios": "https://dc.lft.to/lastmile_qr_scan"}, "is_reserved": 0, "name": "e563d48c0cb35838540f473808b70ae3", "lon": -77.00333516666667, "type": "electric_scooter", "bike_id": "e563d48c0cb35838540f473808b70ae3", "fusion_lon": 0.0, "lat": 38.88985366666667, "fusion_lat": 0.0}, {"is_disabled": 0, "rental_uris": {"android": "https://dc.lft.to/lastmile_qr_scan", "ios": "https://dc.lft.to/lastmile_qr_scan"}, "is_reserved": 0, "name": "e1ae8ee2051c02468bec8aa62571f0ae", "lon": -76.98114316666667, "type": "electric_scooter", "bike_id": "e1ae8ee2051c02468bec8aa62571f0ae", "fusion_lon": 0.0, "lat": 38.89605433333333, "fusion_lat": 0.0}, {"is_disabled": 0, "rental_uris": {"android": "https://dc.lft.to/lastmile_qr_scan", "ios": "https://dc.lft.to/lastmile_qr_scan"}, "is_reserved": 0, "name": "0e51b5a27c08a1f02dcccd0e8ab32891", "lon": -77.00252216666667, "type": "electric_scooter", "bike_id": "0e51b5a27c08a1f02dcccd0e8ab32891", "fusion_lon": 0.0, "lat": 38.911888, "fusion_lat": 0.0}, {"is_disabled": 0, "rental_uris": {"android": "https://dc.lft.to/lastmile_qr_scan", "ios": "https://dc.lft.to/lastmile_qr_scan"}, "is_reserved": 0, "name": "0bc94c0067d5ea62e436df25627156d7", "lon": -77.04984816666666, "type": "electric_scooter", "bike_id": "0bc94c0067d5ea62e436df25627156d7", "fusion_lon": 0.0, "lat": 38.908008, "fusion_lat": 0.0}, {"is_disabled": 0, "rental_uris": {"android": "https://dc.lft.to/lastmile_qr_scan", "ios": "https://dc.lft.to/lastmile_qr_scan"}, "is_reserved": 0, "name": "5957d14d67ba2d496d3ad4b41b828083", "lon": -77.01116316666666, "type": "electric_scooter", "bike_id": "5957d14d67ba2d496d3ad4b41b828083", "fusion_lon": 0.0, "lat": 38.87638466666667, "fusion_lat": 0.0}, {"is_disabled": 0, "rental_uris": {"android": "https://dc.lft.to/lastmile_qr_scan", "ios": "https://dc.lft.to/lastmile_qr_scan"}, "is_reserved": 0, "name": "3d951bced53f23b9bcec69eb53d2cb51", "lon": -76.9509465, "type": "electric_scooter", "bike_id": "3d951bced53f23b9bcec69eb53d2cb51", "fusion_lon": 0.0, "lat": 38.88452633333333, "fusion_lat": 0.0}, {"is_disabled": 0, "rental_uris": {"android": "https://dc.lft.to/lastmile_qr_scan", "ios": "https://dc.lft.to/lastmile_qr_scan"}, "is_reserved": 0, "name": "1bc80bd99c14a25d85349989d44a9be7", "lon": -76.983756, "type": "electric_scooter", "bike_id": "1bc80bd99c14a25d85349989d44a9be7", "fusion_lon": 0.0, "lat": 38.90642966666667, "fusion_lat": 0.0}, {"is_disabled": 0, "rental_uris": {"android": "https://dc.lft.to/lastmile_qr_scan", "ios": "https://dc.lft.to/lastmile_qr_scan"}, "is_reserved": 0, "name": "72565211d0f5ab12e2faee72069e99b2", "lon": -77.04267016666667, "type": "electric_scooter", "bike_id": "72565211d0f5ab12e2faee72069e99b2", "fusion_lon": 0.0, "lat": 38.93413916666667, "fusion_lat": 0.0}, {"is_disabled": 0, "rental_uris": {"android": "https://dc.lft.to/lastmile_qr_scan", "ios": "https://dc.lft.to/lastmile_qr_scan"}, "is_reserved": 0, "name": "3fe7798ccaacdbfa10e5349e608b3632", "lon": -77.00625033333333, "type": "electric_scooter", "bike_id": "3fe7798ccaacdbfa10e5349e608b3632", "fusion_lon": 0.0, "lat": 38.871736, "fusion_lat": 0.0}, {"is_disabled": 0, "rental_uris": {"android": "https://dc.lft.to/lastmile_qr_scan", "ios": "https://dc.lft.to/lastmile_qr_scan"}, "is_reserved": 0, "name": "5d05251935a2386e0b082f3ca2177547", "lon": -77.04182683333333, "type": "electric_scooter", "bike_id": "5d05251935a2386e0b082f3ca2177547", "fusion_lon": 0.0, "lat": 38.91966, "fusion_lat": 0.0}, {"is_disabled": 0, "rental_uris": {"android": "https://dc.lft.to/lastmile_qr_scan", "ios": "https://dc.lft.to/lastmile_qr_scan"}, "is_reserved": 0, "name": "5168b79ce1c7ccb3c04bf924dd967e57", "lon": -77.02658566666666, "type": "electric_scooter", "bike_id": "5168b79ce1c7ccb3c04bf924dd967e57", "fusion_lon": 0.0, "lat": 38.93119216666667, "fusion_lat": 0.0}, {"is_disabled": 0, "rental_uris": {"android": "https://dc.lft.to/lastmile_qr_scan", "ios": "https://dc.lft.to/lastmile_qr_scan"}, "is_reserved": 0, "name": "908a84667c31d0729aa49a824c9ea759", "lon": -76.95195566666666, "type": "electric_bike", "bike_id": "908a84667c31d0729aa49a824c9ea759", "fusion_lon": 0.0, "lat": 38.906813166666666, "fusion_lat": 0.0}, {"is_disabled": 0, "rental_uris": {"android": "https://dc.lft.to/lastmile_qr_scan", "ios": "https://dc.lft.to/lastmile_qr_scan"}, "is_reserved": 0, "name": "b302307f394adeb50b6a94411a1f7c6f", "lon": -76.99506416666667, "type": "electric_scooter", "bike_id": "b302307f394adeb50b6a94411a1f7c6f", "fusion_lon": 0.0, "lat": 38.8829005, "fusion_lat": 0.0}, {"is_disabled": 0, "rental_uris": {"android": "https://dc.lft.to/lastmile_qr_scan", "ios": "https://dc.lft.to/lastmile_qr_scan"}, "is_reserved": 0, "name": "bff7f127524ec4394fc91aa6c9842be9", "lon": -77.02591983333333, "type": "electric_scooter", "bike_id": "bff7f127524ec4394fc91aa6c9842be9", "fusion_lon": 0.0, "lat": 38.92092383333333, "fusion_lat": 0.0}, {"is_disabled": 0, "rental_uris": {"android": "https://dc.lft.to/lastmile_qr_scan", "ios": "https://dc.lft.to/lastmile_qr_scan"}, "is_reserved": 0, "name": "6fc83d39f20e0307e15815e323b3c03a", "lon": -77.0319185, "type": "electric_scooter", "bike_id": "6fc83d39f20e0307e15815e323b3c03a", "fusion_lon": 0.0, "lat": 38.91100433333333, "fusion_lat": 0.0}, {"is_disabled": 0, "rental_uris": {"android": "https://dc.lft.to/lastmile_qr_scan", "ios": "https://dc.lft.to/lastmile_qr_scan"}, "is_reserved": 0, "name": "e779f1220def11a90957f6b5f0f4ff1a", "lon": -77.02270633333333, "type": "electric_scooter", "bike_id": "e779f1220def11a90957f6b5f0f4ff1a", "fusion_lon": 0.0, "lat": 38.91274033333333, "fusion_lat": 0.0}, {"is_disabled": 0, "rental_uris": {"android": "https://dc.lft.to/lastmile_qr_scan", "ios": "https://dc.lft.to/lastmile_qr_scan"}, "is_reserved": 0, "name": "8a556b6cdbcd6b76b5a69540c4012fb1", "lon": -77.031528, "type": "electric_scooter", "bike_id": "8a556b6cdbcd6b76b5a69540c4012fb1", "fusion_lon": 0.0, "lat": 38.88753216666667, "fusion_lat": 0.0}, {"is_disabled": 0, "rental_uris": {"android": "https://dc.lft.to/lastmile_qr_scan", "ios": "https://dc.lft.to/lastmile_qr_scan"}, "is_reserved": 0, "name": "c02b85b8f1c637ae97bc040040eb2a73", "lon": -77.03159483333333, "type": "electric_scooter", "bike_id": "c02b85b8f1c637ae97bc040040eb2a73", "fusion_lon": 0.0, "lat": 38.903007333333335, "fusion_lat": 0.0}, {"is_disabled": 0, "rental_uris": {"android": "https://dc.lft.to/lastmile_qr_scan", "ios": "https://dc.lft.to/lastmile_qr_scan"}, "is_reserved": 0, "name": "ab6d73994cc5ccd3845ab547e45d13fe", "lon": -77.01110616666666, "type": "electric_scooter", "bike_id": "ab6d73994cc5ccd3845ab547e45d13fe", "fusion_lon": 0.0, "lat": 38.90362433333333, "fusion_lat": 0.0}, {"is_disabled": 0, "rental_uris": {"android": "https://dc.lft.to/lastmile_qr_scan", "ios": "https://dc.lft.to/lastmile_qr_scan"}, "is_reserved": 0, "name": "b4b5399be6a3d7f0c2d4264f16638f9a", "lon": -77.024298, "type": "electric_scooter", "bike_id": "b4b5399be6a3d7f0c2d4264f16638f9a", "fusion_lon": 0.0, "lat": 38.912513833333335, "fusion_lat": 0.0}, {"is_disabled": 0, "rental_uris": {"android": "https://dc.lft.to/lastmile_qr_scan", "ios": "https://dc.lft.to/lastmile_qr_scan"}, "is_reserved": 0, "name": "27feace8f4a6edadb04a120f05915f53", "lon": -77.01757933333333, "type": "electric_scooter", "bike_id": "27feace8f4a6edadb04a120f05915f53", "fusion_lon": 0.0, "lat": 38.903939333333334, "fusion_lat": 0.0}, {"is_disabled": 0, "rental_uris": {"android": "https://dc.lft.to/lastmile_qr_scan", "ios": "https://dc.lft.to/lastmile_qr_scan"}, "is_reserved": 0, "name": "5b9342cf459d91d9a902c69937901ce0", "lon": -77.03418133333334, "type": "electric_scooter", "bike_id": "5b9342cf459d91d9a902c69937901ce0", "fusion_lon": 0.0, "lat": 38.911990333333335, "fusion_lat": 0.0}, {"is_disabled": 0, "rental_uris": {"android": "https://dc.lft.to/lastmile_qr_scan", "ios": "https://dc.lft.to/lastmile_qr_scan"}, "is_reserved": 0, "name": "70d916a9987a902b622f88eeaab2049d", "lon": -77.04240683333333, "type": "electric_scooter", "bike_id": "70d916a9987a902b622f88eeaab2049d", "fusion_lon": 0.0, "lat": 38.919186, "fusion_lat": 0.0}, {"is_disabled": 0, "rental_uris": {"android": "https://dc.lft.to/lastmile_qr_scan", "ios": "https://dc.lft.to/lastmile_qr_scan"}, "is_reserved": 0, "name": "12e3f0ea854d89f906c9f5acf32590a3", "lon": -76.97533733333333, "type": "electric_scooter", "bike_id": "12e3f0ea854d89f906c9f5acf32590a3", "fusion_lon": 0.0, "lat": 38.922351166666665, "fusion_lat": 0.0}, {"is_disabled": 0, "rental_uris": {"android": "https://dc.lft.to/lastmile_qr_scan", "ios": "https://dc.lft.to/lastmile_qr_scan"}, "is_reserved": 0, "name": "1e0f0a2b128293cdc8ae55db467d79f4", "lon": -77.05785266666666, "type": "electric_scooter", "bike_id": "1e0f0a2b128293cdc8ae55db467d79f4", "fusion_lon": 0.0, "lat": 38.9051305, "fusion_lat": 0.0}, {"is_disabled": 0, "rental_uris": {"android": "https://dc.lft.to/lastmile_qr_scan", "ios": "https://dc.lft.to/lastmile_qr_scan"}, "is_reserved": 0, "name": "27193d487314e720ca60f4b918d4918f", "lon": -77.0150405, "type": "electric_scooter", "bike_id": "27193d487314e720ca60f4b918d4918f", "fusion_lon": 0.0, "lat": 38.8848555, "fusion_lat": 0.0}, {"is_disabled": 0, "rental_uris": {"android": "https://dc.lft.to/lastmile_qr_scan", "ios": "https://dc.lft.to/lastmile_qr_scan"}, "is_reserved": 0, "name": "65338e3bbb44e3f83f845e52f9e1dd6e", "lon": -77.03279966666666, "type": "electric_scooter", "bike_id": "65338e3bbb44e3f83f845e52f9e1dd6e", "fusion_lon": 0.0, "lat": 38.90441116666667, "fusion_lat": 0.0}, {"is_disabled": 0, "rental_uris": {"android": "https://dc.lft.to/lastmile_qr_scan", "ios": "https://dc.lft.to/lastmile_qr_scan"}, "is_reserved": 0, "name": "7cc6f35f0421bdae47fdd4582f9b1e39", "lon": -77.02594, "type": "electric_scooter", "bike_id": "7cc6f35f0421bdae47fdd4582f9b1e39", "fusion_lon": 0.0, "lat": 38.905729, "fusion_lat": 0.0}, {"is_disabled": 0, "rental_uris": {"android": "https://dc.lft.to/lastmile_qr_scan", "ios": "https://dc.lft.to/lastmile_qr_scan"}, "is_reserved": 0, "name": "cb0fcdaa28074340cf2c18b02fce16b3", "lon": -77.03174416666667, "type": "electric_scooter", "bike_id": "cb0fcdaa28074340cf2c18b02fce16b3", "fusion_lon": 0.0, "lat": 38.916901, "fusion_lat": 0.0}, {"is_disabled": 0, "rental_uris": {"android": "https://dc.lft.to/lastmile_qr_scan", "ios": "https://dc.lft.to/lastmile_qr_scan"}, "is_reserved": 0, "name": "bae4dc23d5f5b3ad0fecb77389c33f87", "lon": -77.03252483333333, "type": "electric_scooter", "bike_id": "bae4dc23d5f5b3ad0fecb77389c33f87", "fusion_lon": 0.0, "lat": 38.901432, "fusion_lat": 0.0}, {"is_disabled": 0, "rental_uris": {"android": "https://dc.lft.to/lastmile_qr_scan", "ios": "https://dc.lft.to/lastmile_qr_scan"}, "is_reserved": 0, "name": "778f96bc7070135b02cbfe8c94748a8d", "lon": -77.04161083333334, "type": "electric_scooter", "bike_id": "778f96bc7070135b02cbfe8c94748a8d", "fusion_lon": 0.0, "lat": 38.91360916666667, "fusion_lat": 0.0}, {"is_disabled": 0, "rental_uris": {"android": "https://dc.lft.to/lastmile_qr_scan", "ios": "https://dc.lft.to/lastmile_qr_scan"}, "is_reserved": 0, "name": "57dd4e508193fefe4772cb018145843e", "lon": -77.02193933333334, "type": "electric_scooter", "bike_id": "57dd4e508193fefe4772cb018145843e", "fusion_lon": 0.0, "lat": 38.9058445, "fusion_lat": 0.0}, {"is_disabled": 0, "rental_uris": {"android": "https://dc.lft.to/lastmile_qr_scan", "ios": "https://dc.lft.to/lastmile_qr_scan"}, "is_reserved": 0, "name": "5632a3f45dc5b15a915d8323355b6fe5", "lon": -76.99646216666666, "type": "electric_scooter", "bike_id": "5632a3f45dc5b15a915d8323355b6fe5", "fusion_lon": 0.0, "lat": 38.8872175, "fusion_lat": 0.0}, {"is_disabled": 0, "rental_uris": {"android": "https://dc.lft.to/lastmile_qr_scan", "ios": "https://dc.lft.to/lastmile_qr_scan"}, "is_reserved": 0, "name": "d94cd155248e44df517383cfd3224bdf", "lon": -77.04102916666666, "type": "electric_scooter", "bike_id": "d94cd155248e44df517383cfd3224bdf", "fusion_lon": 0.0, "lat": 38.908167166666665, "fusion_lat": 0.0}, {"is_disabled": 0, "rental_uris": {"android": "https://dc.lft.to/lastmile_qr_scan", "ios": "https://dc.lft.to/lastmile_qr_scan"}, "is_reserved": 0, "name": "b92bdc5b16f0206a36a64d974ff81387", "lon": -77.027957, "type": "electric_scooter", "bike_id": "b92bdc5b16f0206a36a64d974ff81387", "fusion_lon": 0.0, "lat": 38.91251316666666, "fusion_lat": 0.0}, {"is_disabled": 0, "rental_uris": {"android": "https://dc.lft.to/lastmile_qr_scan", "ios": "https://dc.lft.to/lastmile_qr_scan"}, "is_reserved": 0, "name": "9dbb058398cf0d69a077ce6fe5f7ef1a", "lon": -76.96527666666667, "type": "electric_scooter", "bike_id": "9dbb058398cf0d69a077ce6fe5f7ef1a", "fusion_lon": 0.0, "lat": 38.87632, "fusion_lat": 0.0}, {"is_disabled": 0, "rental_uris": {"android": "https://dc.lft.to/lastmile_qr_scan", "ios": "https://dc.lft.to/lastmile_qr_scan"}, "is_reserved": 0, "name": "3290c779f031404426367a599f3a27b8", "lon": -77.03466533333334, "type": "electric_scooter", "bike_id": "3290c779f031404426367a599f3a27b8", "fusion_lon": 0.0, "lat": 38.91710966666667, "fusion_lat": 0.0}, {"is_disabled": 0, "rental_uris": {"android": "https://dc.lft.to/lastmile_qr_scan", "ios": "https://dc.lft.to/lastmile_qr_scan"}, "is_reserved": 0, "name": "77f417a2e74cb3a04aefaf09ba480ea0", "lon": -77.0489595, "type": "electric_scooter", "bike_id": "77f417a2e74cb3a04aefaf09ba480ea0", "fusion_lon": 0.0, "lat": 38.890051666666665, "fusion_lat": 0.0}, {"is_disabled": 0, "rental_uris": {"android": "https://dc.lft.to/lastmile_qr_scan", "ios": "https://dc.lft.to/lastmile_qr_scan"},