{"data": {"bikes": [{"fusion_lat": 0.0, "name": "a04651bc73df6e24a5a9fc55f1511db4", "is_disabled": 0, "rental_uris": {"android": "https://dc.lft.to/lastmile_qr_scan", "ios": "https://dc.lft.to/lastmile_qr_scan"}, "fusion_lon": 0.0, "lat": 38.800191833333336, "bike_id": "a04651bc73df6e24a5a9fc55f1511db4", "type": "electric_bike", "is_reserved": 0, "lon": -77.05481016666667}, {"fusion_lat": 0.0, "name": "2bb72388883c0f0219da1939909b14a9", "is_disabled": 0, "rental_uris": {"android": "https://dc.lft.to/lastmile_qr_scan", "ios": "https://dc.lft.to/lastmile_qr_scan"}, "fusion_lon": 0.0, "lat": 38.932991666666666, "bike_id": "2bb72388883c0f0219da1939909b14a9", "type": "electric_scooter", "is_reserved": 0, "lon": -77.032725}, {"fusion_lat": 0.0, "name": "7abaa37a1ec7ed85542d24267f70cdd1", "is_disabled": 0, "rental_uris": {"android": "https://dc.lft.to/lastmile_qr_scan", "ios": "https://dc.lft.to/lastmile_qr_scan"}, "fusion_lon": 0.0, "lat": 38.90472033333333, "bike_id": "7abaa37a1ec7ed85542d24267f70cdd1", "type": "electric_scooter", "is_reserved": 0, "lon": -77.04361483333334}, {"fusion_lat": 0.0, "name": "f58aa78114655fb59f1958f3e4e87903", "is_disabled": 0, "rental_uris": {"android": "https://dc.lft.to/lastmile_qr_scan", "ios": "https://dc.lft.to/lastmile_qr_scan"}, "fusion_lon": 0.0, "lat": 38.87331966666667, "bike_id": "f58aa78114655fb59f1958f3e4e87903", "type": "electric_bike", "is_reserved": 0, "lon": -77.0821455}, {"fusion_lat": 0.0, "name": "b004aa380bafa1631858a0cd87944868", "is_disabled": 0, "rental_uris": {"android": "https://dc.lft.to/lastmile_qr_scan", "ios": "https://dc.lft.to/lastmile_qr_scan"}, "fusion_lon": 0.0, "lat": 38.90613966666667, "bike_id": "b004aa380bafa1631858a0cd87944868", "type": "electric_scooter", "is_reserved": 0, "lon": -77.02403133333334}, {"fusion_lat": 0.0, "name": "d3f8463ce76e68e537ebba6ebbdf60c0", "is_disabled": 0, "rental_uris": {"android": "https://dc.lft.to/lastmile_qr_scan", "ios": "https://dc.lft.to/lastmile_qr_scan"}, "fusion_lon": 0.0, "lat": 38.9172845, "bike_id": "d3f8463ce76e68e537ebba6ebbdf60c0", "type": "electric_scooter", "is_reserved": 0, "lon": -77.0335225}, {"fusion_lat": 0.0, "name": "ecfee333efbc2f0f0f512afed61d2234", "is_disabled": 0, "rental_uris": {"android": "https://dc.lft.to/lastmile_qr_scan", "ios": "https://dc.lft.to/lastmile_qr_scan"}, "fusion_lon": 0.0, "lat": 38.91933, "bike_id": "ecfee333efbc2f0f0f512afed61d2234", "type": "electric_scooter", "is_reserved": 0, "lon": -77.0705665}, {"fusion_lat": 0.0, "name": "9a4a30cf972054bc9ad6b6df0ea092d4", "is_disabled": 0, "rental_uris": {"android": "https://dc.lft.to/lastmile_qr_scan", "ios": "https://dc.lft.to/lastmile_qr_scan"}, "fusion_lon": 0.0, "lat": 38.9026515, "bike_id": "9a4a30cf972054bc9ad6b6df0ea092d4", "type": "electric_scooter", "is_reserved": 0, "lon": -77.017317}, {"fusion_lat": 0.0, "name": "843f585b2fa4dda4225e8f755a613825", "is_disabled": 0, "rental_uris": {"android": "https://dc.lft.to/lastmile_qr_scan", "ios": "https://dc.lft.to/lastmile_qr_scan"}, "fusion_lon": 0.0, "lat": 38.86021916666667, "bike_id": "843f585b2fa4dda4225e8f755a613825", "type": "electric_bike", "is_reserved": 0, "lon": -77.12803516666666}, {"fusion_lat": 0.0, "name": "dc91e4cd8ced2e423998e71ef6a35503", "is_disabled": 0, "rental_uris": {"android": "https://dc.lft.to/lastmile_qr_scan", "ios": "https://dc.lft.to/lastmile_qr_scan"}, "fusion_lon": 0.0, "lat": 38.90411433333333, "bike_id": "dc91e4cd8ced2e423998e71ef6a35503", "type": "electric_scooter", "is_reserved": 0, "lon": -76.97329383333333}, {"fusion_lat": 0.0, "name": "b52ab0f016d9b046421e584e99c57410", "is_disabled": 0, "rental_uris": {"android": "https://dc.lft.to/lastmile_qr_scan", "ios": "https://dc.lft.to/lastmile_qr_scan"}, "fusion_lon": 0.0, "lat": 38.907285, "bike_id": "b52ab0f016d9b046421e584e99c57410", "type": "electric_scooter", "is_reserved": 0, "lon": -77.01216483333333}, {"fusion_lat": 0.0, "name": "f11f815b029cf2994c69dd3af2335c68", "is_disabled": 0, "rental_uris": {"android": "https://dc.lft.to/lastmile_qr_scan", "ios": "https://dc.lft.to/lastmile_qr_scan"}, "fusion_lon": 0.0, "lat": 38.90151083333333, "bike_id": "f11f815b029cf2994c69dd3af2335c68", "type": "electric_scooter", "is_reserved": 0, "lon": -77.03325283333334}, {"fusion_lat": 0.0, "name": "12990f27313d90066c7abc09a172106c", "is_disabled": 0, "rental_uris": {"android": "https://dc.lft.to/lastmile_qr_scan", "ios": "https://dc.lft.to/lastmile_qr_scan"}, "fusion_lon": 0.0, "lat": 38.892183333333335, "bike_id": "12990f27313d90066c7abc09a172106c", "type": "electric_scooter", "is_reserved": 0, "lon": -77.03181816666667}, {"fusion_lat": 0.0, "name": "f98f2f30e328c7b6c8754145ee674d90", "is_disabled": 0, "rental_uris": {"android": "https://dc.lft.to/lastmile_qr_scan", "ios": "https://dc.lft.to/lastmile_qr_scan"}, "fusion_lon": 0.0, "lat": 38.902548833333334, "bike_id": "f98f2f30e328c7b6c8754145ee674d90", "type": "electric_scooter", "is_reserved": 0, "lon": -76.97452466666667}, {"fusion_lat": 0.0, "name": "831315028d52c6bf850e5c51f9773378", "is_disabled": 0, "rental_uris": {"android": "https://dc.lft.to/lastmile_qr_scan", "ios": "https://dc.lft.to/lastmile_qr_scan"}, "fusion_lon": 0.0, "lat": 38.95629616666667, "bike_id": "831315028d52c6bf850e5c51f9773378", "type": "electric_scooter", "is_reserved": 0, "lon": -77.02316166666667}, {"fusion_lat": 0.0, "name": "0849257c58a2cf3317b6dbacc9aa1fe9", "is_disabled": 0, "rental_uris": {"android": "https://dc.lft.to/lastmile_qr_scan", "ios": "https://dc.lft.to/lastmile_qr_scan"}, "fusion_lon": 0.0, "lat": 38.88769466666667, "bike_id": "0849257c58a2cf3317b6dbacc9aa1fe9", "type": "electric_scooter", "is_reserved": 0, "lon": -76.996484}, {"fusion_lat": 0.0, "name": "059e1477555ec9b0a58741057f34c73c", "is_disabled": 0, "rental_uris": {"android": "https://dc.lft.to/lastmile_qr_scan", "ios": "https://dc.lft.to/lastmile_qr_scan"}, "fusion_lon": 0.0, "lat": 38.9040525, "bike_id": "059e1477555ec9b0a58741057f34c73c", "type": "electric_scooter", "is_reserved": 0, "lon": -77.02066566666667}, {"fusion_lat": 0.0, "name": "da13257c08188d5f4d0dedab9a769d65", "is_disabled": 0, "rental_uris": {"android": "https://dc.lft.to/lastmile_qr_scan", "ios": "https://dc.lft.to/lastmile_qr_scan"}, "fusion_lon": 0.0, "lat": 38.952311, "bike_id": "da13257c08188d5f4d0dedab9a769d65", "type": "electric_scooter", "is_reserved": 0, "lon": -76.99003616666667}, {"fusion_lat": 0.0, "name": "ff9f80c49ec9e073c93635a8368f3c46", "is_disabled": 0, "rental_uris": {"android": "https://dc.lft.to/lastmile_qr_scan", "ios": "https://dc.lft.to/lastmile_qr_scan"}, "fusion_lon": 0.0, "lat": 38.90979733333333, "bike_id": "ff9f80c49ec9e073c93635a8368f3c46", "type": "electric_scooter", "is_reserved": 0, "lon": -77.02177683333333}, {"fusion_lat": 0.0, "name": "fb9abf733a5ecca716f3dab86f12af0d", "is_disabled": 0, "rental_uris": {"android": "https://dc.lft.to/lastmile_qr_scan", "ios": "https://dc.lft.to/lastmile_qr_scan"}, "fusion_lon": 0.0, "lat": 38.9192475, "bike_id": "fb9abf733a5ecca716f3dab86f12af0d", "type": "electric_scooter", "is_reserved": 0, "lon": -77.03422983333333}, {"fusion_lat": 0.0, "name": "831cc1b168b7d9b582d033d81f3159fa", "is_disabled": 0, "rental_uris": {"android": "https://dc.lft.to/lastmile_qr_scan", "ios": "https://dc.lft.to/lastmile_qr_scan"}, "fusion_lon": 0.0, "lat": 38.880670333333335, "bike_id": "831cc1b168b7d9b582d033d81f3159fa", "type": "electric_scooter", "is_reserved": 0, "lon": -77.02551416666667}, {"fusion_lat": 0.0, "name": "fce8e94513bd44150c7a7e7c691e864d", "is_disabled": 0, "rental_uris": {"android": "https://dc.lft.to/lastmile_qr_scan", "ios": "https://dc.lft.to/lastmile_qr_scan"}, "fusion_lon": 0.0, "lat": 38.930771666666665, "bike_id": "fce8e94513bd44150c7a7e7c691e864d", "type": "electric_scooter", "is_reserved": 0, "lon": -77.07756483333333}, {"fusion_lat": 0.0, "name": "9e6433622b185f827b3b03a7145069f0", "is_disabled": 0, "rental_uris": {"android": "https://dc.lft.to/lastmile_qr_scan", "ios": "https://dc.lft.to/lastmile_qr_scan"}, "fusion_lon": 0.0, "lat": 38.88706716666667, "bike_id": "9e6433622b185f827b3b03a7145069f0", "type": "electric_scooter", "is_reserved": 0, "lon": -77.00248283333333}, {"fusion_lat": 0.0, "name": "630d7fe0e0797dc4e8df50ce9a735cf4", "is_disabled": 0, "rental_uris": {"android": "https://dc.lft.to/lastmile_qr_scan", "ios": "https://dc.lft.to/lastmile_qr_scan"}, "fusion_lon": 0.0, "lat": 38.901105333333334, "bike_id": "630d7fe0e0797dc4e8df50ce9a735cf4", "type": "electric_scooter", "is_reserved": 0, "lon": -77.0218865}, {"fusion_lat": 0.0, "name": "eab7b41b7cc0b295605f4702f94fd0e3", "is_disabled": 0, "rental_uris": {"android": "https://dc.lft.to/lastmile_qr_scan", "ios": "https://dc.lft.to/lastmile_qr_scan"}, "fusion_lon": 0.0, "lat": 38.8044795, "bike_id": "eab7b41b7cc0b295605f4702f94fd0e3", "type": "electric_bike", "is_reserved": 0, "lon": -77.0538045}, {"fusion_lat": 0.0, "name": "b907d641f11e2a9c39100e933b6107bd", "is_disabled": 0, "rental_uris": {"android": "https://dc.lft.to/lastmile_qr_scan", "ios": "https://dc.lft.to/lastmile_qr_scan"}, "fusion_lon": 0.0, "lat": 38.881414, "bike_id": "b907d641f11e2a9c39100e933b6107bd", "type": "electric_scooter", "is_reserved": 0, "lon": -77.02703566666666}, {"fusion_lat": 0.0, "name": "77efd70926545898e44491c732d9a384", "is_disabled": 0, "rental_uris": {"android": "https://dc.lft.to/lastmile_qr_scan", "ios": "https://dc.lft.to/lastmile_qr_scan"}, "fusion_lon": 0.0, "lat": 38.92600983333333, "bike_id": "77efd70926545898e44491c732d9a384", "type": "electric_scooter", "is_reserved": 0, "lon": -77.02152383333333}, {"fusion_lat": 0.0, "name": "dd53df917b385f56c3335c1a2ba5b3cb", "is_disabled": 0, "rental_uris": {"android": "https://dc.lft.to/lastmile_qr_scan", "ios": "https://dc.lft.to/lastmile_qr_scan"}, "fusion_lon": 0.0, "lat": 38.876892833333336, "bike_id": "dd53df917b385f56c3335c1a2ba5b3cb", "type": "electric_scooter", "is_reserved": 0, "lon": -77.01753466666666}, {"fusion_lat": 0.0, "name": "4f4b8779fb9df6bd56d38728c105699e", "is_disabled": 0, "rental_uris": {"android": "https://dc.lft.to/lastmile_qr_scan", "ios": "https://dc.lft.to/lastmile_qr_scan"}, "fusion_lon": 0.0, "lat": 38.91662316666667, "bike_id": "4f4b8779fb9df6bd56d38728c105699e", "type": "electric_scooter", "is_reserved": 0, "lon": -77.02817666666667}, {"fusion_lat": 0.0, "name": "8ea223d21887d581a3cf1ea192afa1ff", "is_disabled": 0, "rental_uris": {"android": "https://dc.lft.to/lastmile_qr_scan", "ios": "https://dc.lft.to/lastmile_qr_scan"}, "fusion_lon": 0.0, "lat": 38.877363333333335, "bike_id": "8ea223d21887d581a3cf1ea192afa1ff", "type": "electric_scooter", "is_reserved": 0, "lon": -76.996315}, {"fusion_lat": 0.0, "name": "f1f6b4bf3c39aae69c02ea2e5b0e719a", "is_disabled": 0, "rental_uris": {"android": "https://dc.lft.to/lastmile_qr_scan", "ios": "https://dc.lft.to/lastmile_qr_scan"}, "fusion_lon": 0.0, "lat": 38.895460666666665, "bike_id": "f1f6b4bf3c39aae69c02ea2e5b0e719a", "type": "electric_scooter", "is_reserved": 0, "lon": -76.9495205}, {"fusion_lat": 0.0, "name": "541605a4aee075ff454d4c9e1b039f50", "is_disabled": 0, "rental_uris": {"android": "https://dc.lft.to/lastmile_qr_scan", "ios": "https://dc.lft.to/lastmile_qr_scan"}, "fusion_lon": 0.0, "lat": 38.9275495, "bike_id": "541605a4aee075ff454d4c9e1b039f50", "type": "electric_scooter", "is_reserved": 0, "lon": -77.0330265}, {"fusion_lat": 0.0, "name": "452f5f0c6707d3ddd968ac4bac60d006", "is_disabled": 0, "rental_uris": {"android": "https://dc.lft.to/lastmile_qr_scan", "ios": "https://dc.lft.to/lastmile_qr_scan"}, "fusion_lon": 0.0, "lat": 38.89965083333333, "bike_id": "452f5f0c6707d3ddd968ac4bac60d006", "type": "electric_scooter", "is_reserved": 0, "lon": -77.04646666666666}, {"fusion_lat": 0.0, "name": "82bb00dd8bdfdd67538522885c3ceeb0", "is_disabled": 0, "rental_uris": {"android": "https://dc.lft.to/lastmile_qr_scan", "ios": "https://dc.lft.to/lastmile_qr_scan"}, "fusion_lon": 0.0, "lat": 38.906428166666664, "bike_id": "82bb00dd8bdfdd67538522885c3ceeb0", "type": "electric_scooter", "is_reserved": 0, "lon": -77.05337016666667}, {"fusion_lat": 0.0, "name": "b8b35fa308e0ef8779f4d40ef54dfea6", "is_disabled": 0, "rental_uris": {"android": "https://dc.lft.to/lastmile_qr_scan", "ios": "https://dc.lft.to/lastmile_qr_scan"}, "fusion_lon": 0.0, "lat": 38.877496666666666, "bike_id": "b8b35fa308e0ef8779f4d40ef54dfea6", "type": "electric_scooter", "is_reserved": 0, "lon": -77.01428383333334}, {"fusion_lat": 0.0, "name": "9e8efdad66d694bbd3141a3ae7632994", "is_disabled": 0, "rental_uris": {"android": "https://dc.lft.to/lastmile_qr_scan", "ios": "https://dc.lft.to/lastmile_qr_scan"}, "fusion_lon": 0.0, "lat": 38.879607, "bike_id": "9e8efdad66d694bbd3141a3ae7632994", "type": "electric_scooter", "is_reserved": 0, "lon": -76.98997433333334}, {"fusion_lat": 0.0, "name": "8bf13db8adf3222ecbda55c90b7eb777", "is_disabled": 0, "rental_uris": {"android": "https://dc.lft.to/lastmile_qr_scan", "ios": "https://dc.lft.to/lastmile_qr_scan"}, "fusion_lon": 0.0, "lat": 38.932645, "bike_id": "8bf13db8adf3222ecbda55c90b7eb777", "type": "electric_scooter", "is_reserved": 0, "lon": -77.02088983333333}, {"fusion_lat": 0.0, "name": "342848affa2c926afe59b706430b4623", "is_disabled": 0, "rental_uris": {"android": "https://dc.lft.to/lastmile_qr_scan", "ios": "https://dc.lft.to/lastmile_qr_scan"}, "fusion_lon": 0.0, "lat": 38.89006633333333, "bike_id": "342848affa2c926afe59b706430b4623", "type": "electric_scooter", "is_reserved": 0, "lon": -76.93744216666667}, {"fusion_lat": 0.0, "name": "9ba89980179bfb224065de55ccf6079f", "is_disabled": 0, "rental_uris": {"android": "https://dc.lft.to/lastmile_qr_scan", "ios": "https://dc.lft.to/lastmile_qr_scan"}, "fusion_lon": 0.0, "lat": 38.917719166666664, "bike_id": "9ba89980179bfb224065de55ccf6079f", "type": "electric_scooter", "is_reserved": 0, "lon": -77.040574}, {"fusion_lat": 0.0, "name": "e3cb00f0ae432cd56bead3e57b475d0c", "is_disabled": 0, "rental_uris": {"android": "https://dc.lft.to/lastmile_qr_scan", "ios": "https://dc.lft.to/lastmile_qr_scan"}, "fusion_lon": 0.0, "lat": 38.896902, "bike_id": "e3cb00f0ae432cd56bead3e57b475d0c", "type": "electric_scooter", "is_reserved": 0, "lon": -77.05103166666666}, {"fusion_lat": 0.0, "name": "6b05b8bafa73ec4de9ed14c65c59ba02", "is_disabled": 0, "rental_uris": {"android": "https://dc.lft.to/lastmile_qr_scan", "ios": "https://dc.lft.to/lastmile_qr_scan"}, "fusion_lon": 0.0, "lat": 38.90867166666666, "bike_id": "6b05b8bafa73ec4de9ed14c65c59ba02", "type": "electric_scooter", "is_reserved": 0, "lon": -77.03219716666666}, {"fusion_lat": 0.0, "name": "706fd8ba1ec5843797c602e485752e39", "is_disabled": 0, "rental_uris": {"android": "https://dc.lft.to/lastmile_qr_scan", "ios": "https://dc.lft.to/lastmile_qr_scan"}, "fusion_lon": 0.0, "lat": 38.82175216666667, "bike_id": "706fd8ba1ec5843797c602e485752e39", "type": "electric_bike", "is_reserved": 0, "lon": -76.995048}, {"fusion_lat": 0.0, "name": "a3da4426d95b11916278f0933e872c80", "is_disabled": 0, "rental_uris": {"android": "https://dc.lft.to/lastmile_qr_scan", "ios": "https://dc.lft.to/lastmile_qr_scan"}, "fusion_lon": 0.0, "lat": 38.91486916666667, "bike_id": "a3da4426d95b11916278f0933e872c80", "type": "electric_scooter", "is_reserved": 0, "lon": -77.0455405}, {"fusion_lat": 0.0, "name": "889423a9b93c8c52e0c55076cd671a43", "is_disabled": 0, "rental_uris": {"android": "https://dc.lft.to/lastmile_qr_scan", "ios": "https://dc.lft.to/lastmile_qr_scan"}, "fusion_lon": 0.0, "lat": 38.90410033333333, "bike_id": "889423a9b93c8c52e0c55076cd671a43", "type": "electric_scooter", "is_reserved": 0, "lon": -76.97331716666666}, {"fusion_lat": 0.0, "name": "79192ba121260d1d2d19b4a3c92fcbcb", "is_disabled": 0, "rental_uris": {"android": "https://dc.lft.to/lastmile_qr_scan", "ios": "https://dc.lft.to/lastmile_qr_scan"}, "fusion_lon": 0.0, "lat": 38.928300166666666, "bike_id": "79192ba121260d1d2d19b4a3c92fcbcb", "type": "electric_scooter", "is_reserved": 0, "lon": -77.05970566666667}, {"fusion_lat": 0.0, "name": "009e19b7c1bcd6056b211a55f7231d22", "is_disabled": 0, "rental_uris": {"android": "https://dc.lft.to/lastmile_qr_scan", "ios": "https://dc.lft.to/lastmile_qr_scan"}, "fusion_lon": 0.0, "lat": 38.900238333333334, "bike_id": "009e19b7c1bcd6056b211a55f7231d22", "type": "electric_scooter", "is_reserved": 0, "lon": -77.0018015}, {"fusion_lat": 0.0, "name": "da333f7b7f43f183a289a709dd37c570", "is_disabled": 0, "rental_uris": {"android": "https://dc.lft.to/lastmile_qr_scan", "ios": "https://dc.lft.to/lastmile_qr_scan"}, "fusion_lon": 0.0, "lat": 39.0360515, "bike_id": "da333f7b7f43f183a289a709dd37c570", "type": "electric_bike", "is_reserved": 0, "lon": -77.05544116666667}, {"fusion_lat": 0.0, "name": "dfc3f5ef9f46fe86f798e494f7228c8d", "is_disabled": 0, "rental_uris": {"android": "https://dc.lft.to/lastmile_qr_scan", "ios": "https://dc.lft.to/lastmile_qr_scan"}, "fusion_lon": 0.0, "lat": 38.906092666666666, "bike_id": "dfc3f5ef9f46fe86f798e494f7228c8d", "type": "electric_scooter", "is_reserved": 0, "lon": -77.05895583333333}, {"fusion_lat": 0.0, "name": "fb8084238f1de637fcafc85d5b9b87db", "is_disabled": 0, "rental_uris": {"android": "https://dc.lft.to/lastmile_qr_scan", "ios": "https://dc.lft.to/lastmile_qr_scan"}, "fusion_lon": 0.0, "lat": 38.92979166666667, "bike_id": "fb8084238f1de637fcafc85d5b9b87db", "type": "electric_scooter", "is_reserved": 0, "lon": -77.0252375}, {"fusion_lat": 0.0, "name": "76ffaf80e7c86ba041f97c210768543d", "is_disabled": 0, "rental_uris": {"android": "https://dc.lft.to/lastmile_qr_scan", "ios": "https://dc.lft.to/lastmile_qr_scan"}, "fusion_lon": 0.0, "lat": 38.92360683333333, "bike_id": "76ffaf80e7c86ba041f97c210768543d", "type": "electric_scooter", "is_reserved": 0, "lon": -77.043152}, {"fusion_lat": 0.0, "name": "9d142d4f4b2354e454a1b0cb0287fa64", "is_disabled": 0, "rental_uris": {"android": "https://dc.lft.to/lastmile_qr_scan", "ios": "https://dc.lft.to/lastmile_qr_scan"}, "fusion_lon": 0.0, "lat": 38.91682633333333, "bike_id": "9d142d4f4b2354e454a1b0cb0287fa64", "type": "electric_scooter", "is_reserved": 0, "lon": -77.04141333333334}, {"fusion_lat": 0.0, "name": "eac77a7aedfe249b2293703fe04c997d", "is_disabled": 0, "rental_uris": {"android": "https://dc.lft.to/lastmile_qr_scan", "ios": "https://dc.lft.to/lastmile_qr_scan"}, "fusion_lon": 0.0, "lat": 38.9163675, "bike_id": "eac77a7aedfe249b2293703fe04c997d", "type": "electric_scooter", "is_reserved": 0, "lon": -77.047965}, {"fusion_lat": 0.0, "name": "d3e6f7c7c30c772df918e28bf36ae070", "is_disabled": 0, "rental_uris": {"android": "https://dc.lft.to/lastmile_qr_scan", "ios": "https://dc.lft.to/lastmile_qr_scan"}, "fusion_lon": 0.0, "lat": 38.88447383333333, "bike_id": "d3e6f7c7c30c772df918e28bf36ae070", "type": "electric_scooter", "is_reserved": 0, "lon": -77.02579233333333}, {"fusion_lat": 0.0, "name": "4f6b7845f84213bb7fa8734f4443d7cb", "is_disabled": 0, "rental_uris": {"android": "https://dc.lft.to/lastmile_qr_scan", "ios": "https://dc.lft.to/lastmile_qr_scan"}, "fusion_lon": 0.0, "lat": 38.899905333333336, "bike_id": "4f6b7845f84213bb7fa8734f4443d7cb", "type": "electric_scooter", "is_reserved": 0, "lon": -76.9843555}, {"fusion_lat": 0.0, "name": "f1532c32e9f6e2b7127e23c58997d264", "is_disabled": 0, "rental_uris": {"android": "https://dc.lft.to/lastmile_qr_scan", "ios": "https://dc.lft.to/lastmile_qr_scan"}, "fusion_lon": 0.0, "lat": 38.906055, "bike_id": "f1532c32e9f6e2b7127e23c58997d264", "type": "electric_scooter", "is_reserved": 0, "lon": -77.02383966666666}, {"fusion_lat": 0.0, "name": "9c186dc6e5d6cf5582faa598fcc7d0c6", "is_disabled": 0, "rental_uris": {"android": "https://dc.lft.to/lastmile_qr_scan", "ios": "https://dc.lft.to/lastmile_qr_scan"}, "fusion_lon": 0.0, "lat": 38.938873, "bike_id": "9c186dc6e5d6cf5582faa598fcc7d0c6", "type": "electric_scooter", "is_reserved": 0, "lon": -77.02465666666667}, {"fusion_lat": 0.0, "name": "86c1a87b45b5eae79eeac2a9b9b9f221", "is_disabled": 0, "rental_uris": {"android": "https://dc.lft.to/lastmile_qr_scan", "ios": "https://dc.lft.to/lastmile_qr_scan"}, "fusion_lon": 0.0, "lat": 38.89876233333333, "bike_id": "86c1a87b45b5eae79eeac2a9b9b9f221", "type": "electric_scooter", "is_reserved": 0, "lon": -76.93183416666666}, {"fusion_lat": 0.0, "name": "470fa0d4b8ef7c84e2e9ace6c20d8eef", "is_disabled": 0, "rental_uris": {"android": "https://dc.lft.to/lastmile_qr_scan", "ios": "https://dc.lft.to/lastmile_qr_scan"}, "fusion_lon": 0.0, "lat": 38.882304500000004, "bike_id": "470fa0d4b8ef7c84e2e9ace6c20d8eef", "type": "electric_scooter", "is_reserved": 0, "lon": -77.0261505}, {"fusion_lat": 0.0, "name": "bf86fbb6dc05022a7473f23da3df1c19", "is_disabled": 0, "rental_uris": {"android": "https://dc.lft.to/lastmile_qr_scan", "ios": "https://dc.lft.to/lastmile_qr_scan"}, "fusion_lon": 0.0, "lat": 38.914200666666666, "bike_id": "bf86fbb6dc05022a7473f23da3df1c19", "type": "electric_scooter", "is_reserved": 0, "lon": -77.03173233333334}, {"fusion_lat": 0.0, "name": "f949bc3127711fc34d75f1a3e05a3b01", "is_disabled": 0, "rental_uris": {"android": "https://dc.lft.to/lastmile_qr_scan", "ios": "https://dc.lft.to/lastmile_qr_scan"}, "fusion_lon": 0.0, "lat": 38.91672533333333, "bike_id": "f949bc3127711fc34d75f1a3e05a3b01", "type": "electric_scooter", "is_reserved": 0, "lon": -77.02951466666667}, {"fusion_lat": 0.0, "name": "53658f1b5a797752f6ab41e66dd6412b", "is_disabled": 0, "rental_uris": {"android": "https://dc.lft.to/lastmile_qr_scan", "ios": "https://dc.lft.to/lastmile_qr_scan"}, "fusion_lon": 0.0, "lat": 38.91414, "bike_id": "53658f1b5a797752f6ab41e66dd6412b", "type": "electric_scooter", "is_reserved": 0, "lon": -77.0393925}, {"fusion_lat": 0.0, "name": "16ffbe409771fe14ba01a66400516ab1", "is_disabled": 0, "rental_uris": {"android": "https://dc.lft.to/lastmile_qr_scan", "ios": "https://dc.lft.to/lastmile_qr_scan"}, "fusion_lon": 0.0, "lat": 38.93469283333334, "bike_id": "16ffbe409771fe14ba01a66400516ab1", "type": "electric_scooter", "is_reserved": 0, "lon": -77.028491}, {"fusion_lat": 0.0, "name": "20035f586431eaaf005faf74a1aaaad9", "is_disabled": 0, "rental_uris": {"android": "https://dc.lft.to/lastmile_qr_scan", "ios": "https://dc.lft.to/lastmile_qr_scan"}, "fusion_lon": 0.0, "lat": 38.985083833333334, "bike_id": "20035f586431eaaf005faf74a1aaaad9", "type": "electric_bike", "is_reserved": 0, "lon": -76.98199916666667}, {"fusion_lat": 0.0, "name": "3f0dde8ad0282d34332469969343af47", "is_disabled": 0, "rental_uris": {"android": "https://dc.lft.to/lastmile_qr_scan", "ios": "https://dc.lft.to/lastmile_qr_scan"}, "fusion_lon": 0.0, "lat": 38.86061933333333, "bike_id": "3f0dde8ad0282d34332469969343af47", "type": "electric_scooter", "is_reserved": 0, "lon": -76.98500066666666}, {"fusion_lat": 0.0, "name": "6a32b80009e9088495848ddb74d76d42", "is_disabled": 0, "rental_uris": {"android": "https://dc.lft.to/lastmile_qr_scan", "ios": "https://dc.lft.to/lastmile_qr_scan"}, "fusion_lon": 0.0, "lat": 38.878786166666664, "bike_id": "6a32b80009e9088495848ddb74d76d42", "type": "electric_scooter", "is_reserved": 0, "lon": -77.02230466666667}, {"fusion_lat": 0.0, "name": "289bec3253a2617f19dcd421f4c55627", "is_disabled": 0, "rental_uris": {"android": "https://dc.lft.to/lastmile_qr_scan", "ios": "https://dc.lft.to/lastmile_qr_scan"}, "fusion_lon": 0.0, "lat": 38.914259333333334, "bike_id": "289bec3253a2617f19dcd421f4c55627", "type": "electric_scooter", "is_reserved": 0, "lon": -77.06420166666666}, {"fusion_lat": 0.0, "name": "9f28b5607d1eb46f024b88d97d1ced24", "is_disabled": 0, "rental_uris": {"android": "https://dc.lft.to/lastmile_qr_scan", "ios": "https://dc.lft.to/lastmile_qr_scan"}, "fusion_lon": 0.0, "lat": 38.878532, "bike_id": "9f28b5607d1eb46f024b88d97d1ced24", "type": "electric_scooter", "is_reserved": 0, "lon": -77.0130815}, {"fusion_lat": 0.0, "name": "4ba37df30c48de063ccda7de9fdeeb1c", "is_disabled": 0, "rental_uris": {"android": "https://dc.lft.to/lastmile_qr_scan", "ios": "https://dc.lft.to/lastmile_qr_scan"}, "fusion_lon": 0.0, "lat": 38.914728333333336, "bike_id": "4ba37df30c48de063ccda7de9fdeeb1c", "type": "electric_scooter", "is_reserved": 0, "lon": -77.02186683333333}, {"fusion_lat": 0.0, "name": "8f36a26feebcdeb34232ca0d15698be9", "is_disabled": 0, "rental_uris": {"android": "https://dc.lft.to/lastmile_qr_scan", "ios": "https://dc.lft.to/lastmile_qr_scan"}, "fusion_lon": 0.0, "lat": 38.8745925, "bike_id": "8f36a26feebcdeb34232ca0d15698be9", "type": "electric_scooter", "is_reserved": 0, "lon": -77.00969133333334}, {"fusion_lat": 0.0, "name": "14652d0dc0f3a938c11bf8c653a0e328", "is_disabled": 0, "rental_uris": {"android": "https://dc.lft.to/lastmile_qr_scan", "ios": "https://dc.lft.to/lastmile_qr_scan"}, "fusion_lon": 0.0, "lat": 38.90096066666667, "bike_id": "14652d0dc0f3a938c11bf8c653a0e328", "type": "electric_scooter", "is_reserved": 0, "lon": -77.05830983333334}, {"fusion_lat": 0.0, "name": "7f1a7c7e09ec65ec0813d9a7878c8454", "is_disabled": 0, "rental_uris": {"android": "https://dc.lft.to/lastmile_qr_scan", "ios": "https://dc.lft.to/lastmile_qr_scan"}, "fusion_lon": 0.0, "lat": 38.90970466666667, "bike_id": "7f1a7c7e09ec65ec0813d9a7878c8454", "type": "electric_scooter", "is_reserved": 0, "lon": -77.02174466666666}, {"fusion_lat": 0.0, "name": "b9b58fb8244397fb3b5a10ce6f44c5c7", "is_disabled": 0, "rental_uris": {"android": "https://dc.lft.to/lastmile_qr_scan", "ios": "https://dc.lft.to/lastmile_qr_scan"}, "fusion_lon": 0.0, "lat": 38.9194465, "bike_id": "b9b58fb8244397fb3b5a10ce6f44c5c7", "type": "electric_scooter", "is_reserved": 0, "lon": -77.025259}, {"fusion_lat": 0.0, "name": "46a02acc3da4eefc3af287ca51ddc0db", "is_disabled": 0, "rental_uris": {"android": "https://dc.lft.to/lastmile_qr_scan", "ios": "https://dc.lft.to/lastmile_qr_scan"}, "fusion_lon": 0.0, "lat": 38.86628233333333, "bike_id": "46a02acc3da4eefc3af287ca51ddc0db", "type": "electric_scooter", "is_reserved": 0, "lon": -76.9871685}, {"fusion_lat": 0.0, "name": "79c157bcc64c8854bb7ea8a289637063", "is_disabled": 0, "rental_uris": {"android": "https://dc.lft.to/lastmile_qr_scan", "ios": "https://dc.lft.to/lastmile_qr_scan"}, "fusion_lon": 0.0, "lat": 38.92416466666667, "bike_id": "79c157bcc64c8854bb7ea8a289637063", "type": "electric_scooter", "is_reserved": 0, "lon": -77.0200605}, {"fusion_lat": 0.0, "name": "06d00824f7056af7e4936a9cce33d235", "is_disabled": 0, "rental_uris": {"android": "https://dc.lft.to/lastmile_qr_scan", "ios": "https://dc.lft.to/lastmile_qr_scan"}, "fusion_lon": 0.0, "lat": 38.88726, "bike_id": "06d00824f7056af7e4936a9cce33d235", "type": "electric_scooter", "is_reserved": 0, "lon": -76.98355816666667}, {"fusion_lat": 0.0, "name": "6777842e6ef4a7e0fb030cea69022cc2", "is_disabled": 0, "rental_uris": {"android": "https://dc.lft.to/lastmile_qr_scan", "ios": "https://dc.lft.to/lastmile_qr_scan"}, "fusion_lon": 0.0, "lat": 38.944459, "bike_id": "6777842e6ef4a7e0fb030cea69022cc2", "type": "electric_scooter", "is_reserved": 0, "lon": -77.02339833333333}, {"fusion_lat": 0.0, "name": "b62abfbb4d904e8b3cbc9541f0b642ca", "is_disabled": 0, "rental_uris": {"android": "https://dc.lft.to/lastmile_qr_scan", "ios": "https://dc.lft.to/lastmile_qr_scan"}, "fusion_lon": 0.0, "lat": 38.90280933333333, "bike_id": "b62abfbb4d904e8b3cbc9541f0b642ca", "type": "electric_scooter", "is_reserved": 0, "lon": -77.04364766666667}, {"fusion_lat": 0.0, "name": "af5c61861ae3d5371c99ad24b2357d14", "is_disabled": 0, "rental_uris": {"android": "https://dc.lft.to/lastmile_qr_scan", "ios": "https://dc.lft.to/lastmile_qr_scan"}, "fusion_lon": 0.0, "lat": 38.931245833333335, "bike_id": "af5c61861ae3d5371c99ad24b2357d14", "type": "electric_scooter", "is_reserved": 0, "lon": -77.0784325}, {"fusion_lat": 0.0, "name": "a3f6ece853cc42c398833f0029e97528", "is_disabled": 0, "rental_uris": {"android": "https://dc.lft.to/lastmile_qr_scan", "ios": "https://dc.lft.to/lastmile_qr_scan"}, "fusion_lon": 0.0, "lat": 38.92005266666666, "bike_id": "a3f6ece853cc42c398833f0029e97528", "type": "electric_scooter", "is_reserved": 0, "lon": -77.02189683333333}, {"fusion_lat": 0.0, "name": "9b8c521ea191b625bf34b010afa558b7", "is_disabled": 0, "rental_uris": {"android": "https://dc.lft.to/lastmile_qr_scan", "ios": "https://dc.lft.to/lastmile_qr_scan"}, "fusion_lon": 0.0, "lat": 38.9181855, "bike_id": "9b8c521ea191b625bf34b010afa558b7", "type": "electric_scooter", "is_reserved": 0, "lon": -77.00256633333333}, {"fusion_lat": 0.0, "name": "3b01e89adbc03f358d313d5077f54b93", "is_disabled": 0, "rental_uris": {"android": "https://dc.lft.to/lastmile_qr_scan", "ios": "https://dc.lft.to/lastmile_qr_scan"}, "fusion_lon": 0.0, "lat": 38.887654166666664, "bike_id": "3b01e89adbc03f358d313d5077f54b93", "type": "electric_scooter", "is_reserved": 0, "lon": -76.99469416666666}, {"fusion_lat": 0.0, "name": "bc5165bfd2409617add1a0e34e3400be", "is_disabled": 0, "rental_uris": {"android": "https://dc.lft.to/lastmile_qr_scan", "ios": "https://dc.lft.to/lastmile_qr_scan"}, "fusion_lon": 0.0, "lat": 38.984752, "bike_id": "bc5165bfd2409617add1a0e34e3400be", "type": "electric_scooter", "is_reserved": 0, "lon": -77.0264095}, {"fusion_lat": 0.0, "name": "0d51d040b5b5d6120fb557a79eff60b1", "is_disabled": 0, "rental_uris": {"android": "https://dc.lft.to/lastmile_qr_scan", "ios": "https://dc.lft.to/lastmile_qr_scan"}, "fusion_lon": 0.0, "lat": 38.958332, "bike_id": "0d51d040b5b5d6120fb557a79eff60b1", "type": "electric_bike", "is_reserved": 0, "lon": -77.01511166666667}, {"fusion_lat": 0.0, "name": "e9de754eba7d8f980c3f1513948ccedd", "is_disabled": 0, "rental_uris": {"android": "https://dc.lft.to/lastmile_qr_scan", "ios": "https://dc.lft.to/lastmile_qr_scan"}, "fusion_lon": 0.0, "lat": 38.921708833333334, "bike_id": "e9de754eba7d8f980c3f1513948ccedd", "type": "electric_scooter", "is_reserved": 0, "lon": -77.0364355}, {"fusion_lat": 0.0, "name": "2a23f8524c74f82e0da7722c424e8b51", "is_disabled": 0, "rental_uris": {"android": "https://dc.lft.to/lastmile_qr_scan", "ios": "https://dc.lft.to/lastmile_qr_scan"}, "fusion_lon": 0.0, "lat": 38.918539333333335, "bike_id": "2a23f8524c74f82e0da7722c424e8b51", "type": "electric_scooter", "is_reserved": 0, "lon": -76.96535733333333}, {"fusion_lat": 0.0, "name": "7c9ce75240b6e0341f156be175b9c6cc", "is_disabled": 0, "rental_uris": {"android": "https://dc.lft.to/lastmile_qr_scan", "ios": "https://dc.lft.to/lastmile_qr_scan"}, "fusion_lon": 0.0, "lat": 38.91707383333333, "bike_id": "7c9ce75240b6e0341f156be175b9c6cc", "type": "electric_scooter", "is_reserved": 0, "lon": -77.027408}, {"fusion_lat": 0.0, "name": "58cac93e16cdf71c1c1d13d905c39b35", "is_disabled": 0, "rental_uris": {"android": "https://dc.lft.to/lastmile_qr_scan", "ios": "https://dc.lft.to/lastmile_qr_scan"}, "fusion_lon": 0.0, "lat": 38.91661466666667, "bike_id": "58cac93e16cdf71c1c1d13d905c39b35", "type": "electric_scooter", "is_reserved": 0, "lon": -77.02806266666667}, {"fusion_lat": 0.0, "name": "045b10919b9730004915ed84b6c4d72a", "is_disabled": 0, "rental_uris": {"android": "https://dc.lft.to/lastmile_qr_scan", "ios": "https://dc.lft.to/lastmile_qr_scan"}, "fusion_lon": 0.0, "lat": 38.90314033333333, "bike_id": "045b10919b9730004915ed84b6c4d72a", "type": "electric_scooter", "is_reserved": 0, "lon": -76.97797183333333}, {"fusion_lat": 0.0, "name": "c969d786d7ba5c15d20d49baa2c800f6", "is_disabled": 0, "rental_uris": {"android": "https://dc.lft.to/lastmile_qr_scan", "ios": "https://dc.lft.to/lastmile_qr_scan"}, "fusion_lon": 0.0, "lat": 38.946219166666666, "bike_id": "c969d786d7ba5c15d20d49baa2c800f6", "type": "electric_scooter", "is_reserved": 0, "lon": -77.03290983333333}, {"fusion_lat": 0.0, "name": "d58ca798ba9425ee26be25b3caf275ce", "is_disabled": 0, "rental_uris": {"android": "https://dc.lft.to/lastmile_qr_scan", "ios": "https://dc.lft.to/lastmile_qr_scan"}, "fusion_lon": 0.0, "lat": 38.8801845, "bike_id": "d58ca798ba9425ee26be25b3caf275ce", "type": "electric_scooter", "is_reserved": 0, "lon": -76.9311595}, {"fusion_lat": 0.0, "name": "29eb41701566b6093516c27ece18b805", "is_disabled": 0, "rental_uris": {"android": "https://dc.lft.to/lastmile_qr_scan", "ios": "https://dc.lft.to/lastmile_qr_scan"}, "fusion_lon": 0.0, "lat": 38.87916933333333, "bike_id": "29eb41701566b6093516c27ece18b805", "type": "electric_scooter", "is_reserved": 0, "lon": -76.99510816666667}, {"fusion_lat": 0.0, "name": "d8962eae7ac487482a409ee0f975137e", "is_disabled": 0, "rental_uris": {"android": "https://dc.lft.to/lastmile_qr_scan", "ios": "https://dc.lft.to/lastmile_qr_scan"}, "fusion_lon": 0.0, "lat": 38.888712166666664, "bike_id": "d8962eae7ac487482a409ee0f975137e", "type": "electric_scooter", "is_reserved": 0, "lon": -76.98455033333333}, {"fusion_lat": 0.0, "name": "8472896fe46d51c52299163025e841fb", "is_disabled": 0, "rental_uris": {"android": "https://dc.lft.to/lastmile_qr_scan", "ios": "https://dc.lft.to/lastmile_qr_scan"}, "fusion_lon": 0.0, "lat": 38.9067315, "bike_id": "8472896fe46d51c52299163025e841fb", "type": "electric_scooter", "is_reserved": 0, "lon": -77.03531433333333}, {"fusion_lat": 0.0, "name": "771000332aa38352206f8efdcbfb8e50", "is_disabled": 0, "rental_uris": {"android": "https://dc.lft.to/lastmile_qr_scan", "ios": "https://dc.lft.to/lastmile_qr_scan"}, "fusion_lon": 0.0, "lat": 38.90159933333333, "bike_id": "771000332aa38352206f8efdcbfb8e50", "type": "electric_scooter", "is_reserved": 0, "lon": -77.01890333333333}, {"fusion_lat": 0.0, "name": "ffe35a1cfbf7e7a375fcbfdec92ee667", "is_disabled": 0, "rental_uris": {"android": "https://dc.lft.to/lastmile_qr_scan", "ios": "https://dc.lft.to/lastmile_qr_scan"}, "fusion_lon": 0.0, "lat": 38.919703166666665, "bike_id": "ffe35a1cfbf7e7a375fcbfdec92ee667", "type": "electric_scooter", "is_reserved": 0, "lon": -77.00106766666667}, {"fusion_lat": 0.0, "name": "fa71f3dafb6afffc029b1636edc06482", "is_disabled": 0, "rental_uris": {"android": "https://dc.lft.to/lastmile_qr_scan", "ios": "https://dc.lft.to/lastmile_qr_scan"}, "fusion_lon": 0.0, "lat": 38.85513516666666, "bike_id": "fa71f3dafb6afffc029b1636edc06482", "type": "electric_bike", "is_reserved": 0, "lon": -77.10537416666666}, {"fusion_lat": 0.0, "name": "f0062dda29d3d34f4bac9b5ad044d584", "is_disabled": 0, "rental_uris": {"android": "https://dc.lft.to/lastmile_qr_scan", "ios": "https://dc.lft.to/lastmile_qr_scan"}, "fusion_lon": 0.0, "lat": 38.90963883333333, "bike_id": "f0062dda29d3d34f4bac9b5ad044d584", "type": "electric_scooter", "is_reserved": 0, "lon": -77.03380483333333}, {"fusion_lat": 0.0, "name": "e79e52059530b223ae47866543080542", "is_disabled": 0, "rental_uris": {"android": "https://dc.lft.to/lastmile_qr_scan", "ios": "https://dc.lft.to/lastmile_qr_scan"}, "fusion_lon": 0.0, "lat": 38.90184416666666, "bike_id": "e79e52059530b223ae47866543080542", "type": "electric_scooter", "is_reserved": 0, "lon": -76.92897083333334}, {"fusion_lat": 0.0, "name": "3b3ff4948642185e85f9b571cc3be7f3", "is_disabled": 0, "rental_uris": {"android": "https://dc.lft.to/lastmile_qr_scan", "ios": "https://dc.lft.to/lastmile_qr_scan"}, "fusion_lon": 0.0, "lat": 38.993611333333334, "bike_id": "3b3ff4948642185e85f9b571cc3be7f3", "type": "electric_bike", "is_reserved": 0, "lon": -77.02588933333334}, {"fusion_lat": 0.0, "name": "446072c12a47bd1a473b7ec563615439", "is_disabled": 0, "rental_uris": {"android": "https://dc.lft.to/lastmile_qr_scan", "ios": "https://dc.lft.to/lastmile_qr_scan"}, "fusion_lon": 0.0, "lat": 38.920481, "bike_id": "446072c12a47bd1a473b7ec563615439", "type": "electric_scooter", "is_reserved": 0, "lon": -77.002087}, {"fusion_lat": 0.0, "name": "4b9f725733ceb786c770f3ddc84a1232", "is_disabled": 0, "rental_uris": {"android": "https://dc.lft.to/lastmile_qr_scan", "ios": "https://dc.lft.to/lastmile_qr_scan"}, "fusion_lon": 0.0, "lat": 38.92326083333333, "bike_id": "4b9f725733ceb786c770f3ddc84a1232", "type": "electric_scooter", "is_reserved": 0, "lon": -77.0432475}, {"fusion_lat": 0.0, "name": "288016ed11be91165374a180982e9ba5", "is_disabled": 0, "rental_uris": {"android": "https://dc.lft.to/lastmile_qr_scan", "ios": "https://dc.lft.to/lastmile_qr_scan"}, "fusion_lon": 0.0, "lat": 38.91738016666667, "bike_id": "288016ed11be91165374a180982e9ba5", "type": "electric_scooter", "is_reserved": 0, "lon": -77.03181583333334}, {"fusion_lat": 0.0, "name": "b540e0e60b47084d1dad64f4b18f70b9", "is_disabled": 0, "rental_uris": {"android": "https://dc.lft.to/lastmile_qr_scan", "ios": "https://dc.lft.to/lastmile_qr_scan"}, "fusion_lon": 0.0, "lat": 38.91802633333333, "bike_id": "b540e0e60b47084d1dad64f4b18f70b9", "type": "electric_scooter", "is_reserved": 0, "lon": -77.0366115}, {"fusion_lat": 0.0, "name": "244a481a0920dfee53b90f1584503794", "is_disabled": 0, "rental_uris": {"android": "https://dc.lft.to/lastmile_qr_scan", "ios": "https://dc.lft.to/lastmile_qr_scan"}, "fusion_lon": 0.0, "lat": 38.96406666666667, "bike_id": "244a481a0920dfee53b90f1584503794", "type": "electric_scooter", "is_reserved": 0, "lon": -77.07531166666666}, {"fusion_lat": 0.0, "name": "3beb34ca01dc96c87a8123155f54a057", "is_disabled": 0, "rental_uris": {"android": "https://dc.lft.to/lastmile_qr_scan", "ios": "https://dc.lft.to/lastmile_qr_scan"}, "fusion_lon": 0.0, "lat": 38.900223833333335, "bike_id": "3beb34ca01dc96c87a8123155f54a057", "type": "electric_scooter", "is_reserved": 0, "lon": -77.001732}, {"fusion_lat": 0.0, "name": "4307e4d77723b3061d874b838bc493ad", "is_disabled": 0, "rental_uris": {"android": "https://dc.lft.to/lastmile_qr_scan", "ios": "https://dc.lft.to/lastmile_qr_scan"}, "fusion_lon": 0.0, "lat": 38.941981166666665, "bike_id": "4307e4d77723b3061d874b838bc493ad", "type": "electric_scooter", "is_reserved": 0, "lon": -77.02591883333334}, {"fusion_lat": 0.0, "name": "635f3e24f166deb1d951c817391a0b86", "is_disabled": 0, "rental_uris": {"android": "https://dc.lft.to/lastmile_qr_scan", "ios": "https://dc.lft.to/lastmile_qr_scan"}, "fusion_lon": 0.0, "lat": 38.922216166666665, "bike_id": "635f3e24f166deb1d951c817391a0b86", "type": "electric_bike", "is_reserved": 0, "lon": -77.2013805}, {"fusion_lat": 0.0, "name": "8fd1773e3722a79a090d0cc276edd52a", "is_disabled": 0, "rental_uris": {"android": "https://dc.lft.to/lastmile_qr_scan", "ios": "https://dc.lft.to/lastmile_qr_scan"}, "fusion_lon": 0.0, "lat": 38.88382266666667, "bike_id": "8fd1773e3722a79a090d0cc276edd52a", "type": "electric_scooter", "is_reserved": 0, "lon": -77.04607183333333}, {"fusion_lat": 0.0, "name": "a9555090fa4b38f515332cc3ec616e2c", "is_disabled": 0, "rental_uris": {"android": "https://dc.lft.to/lastmile_qr_scan", "ios": "https://dc.lft.to/lastmile_qr_scan"}, "fusion_lon": 0.0, "lat": 38.94312933333333, "bike_id": "a9555090fa4b38f515332cc3ec616e2c", "type": "electric_scooter", "is_reserved": 0, "lon": -77.062736}, {"fusion_lat": 0.0, "name": "1251842273504d59a74f2ee196bd5c39", "is_disabled": 0, "rental_uris": {"android": "https://dc.lft.to/lastmile_qr_scan", "ios": "https://dc.lft.to/lastmile_qr_scan"}, "fusion_lon": 0.0, "lat": 38.88040133333333, "bike_id": "1251842273504d59a74f2ee196bd5c39", "type": "electric_bike", "is_reserved": 0, "lon": -77.02523883333333}, {"fusion_lat": 0.0, "name": "e7877ecdd9bdd394d5c2766a6c86b9f7", "is_disabled": 0, "rental_uris": {"android": "https://dc.lft.to/lastmile_qr_scan", "ios": "https://dc.lft.to/lastmile_qr_scan"}, "fusion_lon": 0.0, "lat": 38.90965166666667, "bike_id": "e7877ecdd9bdd394d5c2766a6c86b9f7", "type": "electric_scooter", "is_reserved": 0, "lon": -77.032659}, {"fusion_lat": 0.0, "name": "851501633bfd2614f9d6c09806366776", "is_disabled": 0, "rental_uris": {"android": "https://dc.lft.to/lastmile_qr_scan", "ios": "https://dc.lft.to/lastmile_qr_scan"}, "fusion_lon": 0.0, "lat": 38.9021525, "bike_id": "851501633bfd2614f9d6c09806366776", "type": "electric_scooter", "is_reserved": 0, "lon": -77.02370716666667}, {"fusion_lat": 0.0, "name": "03a11f817132fed36beb63caf0ac8447", "is_disabled": 0, "rental_uris": {"android": "https://dc.lft.to/lastmile_qr_scan", "ios": "https://dc.lft.to/lastmile_qr_scan"}, "fusion_lon": 0.0, "lat": 38.90717516666667, "bike_id": "03a11f817132fed36beb63caf0ac8447", "type": "electric_scooter", "is_reserved": 0, "lon": -77.02981416666667}, {"fusion_lat": 0.0, "name": "6213605d2e94ac1ee1ac0f632daca9dd", "is_disabled": 0, "rental_uris": {"android": "https://dc.lft.to/lastmile_qr_scan", "ios": "https://dc.lft.to/lastmile_qr_scan"}, "fusion_lon": 0.0, "lat": 38.88714616666667, "bike_id": "6213605d2e94ac1ee1ac0f632daca9dd", "type": "electric_scooter", "is_reserved": 0, "lon": -77.01772733333334}, {"fusion_lat": 0.0, "name": "dfcd98e7f545115649ebbf3c048c32bb", "is_disabled": 0, "rental_uris": {"android": "https://dc.lft.to/lastmile_qr_scan", "ios": "https://dc.lft.to/lastmile_qr_scan"}, "fusion_lon": 0.0, "lat": 38.90023466666667, "bike_id": "dfcd98e7f545115649ebbf3c048c32bb", "type": "electric_scooter", "is_reserved": 0, "lon": -76.98850533333334}, {"fusion_lat": 0.0, "name": "386bdc206e375b01aa3b91c95b41dae7", "is_disabled": 0, "rental_uris": {"android": "https://dc.lft.to/lastmile_qr_scan", "ios": "https://dc.lft.to/lastmile_qr_scan"}, "fusion_lon": 0.0, "lat": 38.921526666666665, "bike_id": "386bdc206e375b01aa3b91c95b41dae7", "type": "electric_scooter", "is_reserved": 0, "lon": -77.024227}, {"fusion_lat": 0.0, "name": "bf9b628ef65063dfd307322472b6bc7d", "is_disabled": 0, "rental_uris": {"android": "https://dc.lft.to/lastmile_qr_scan", "ios": "https://dc.lft.to/lastmile_qr_scan"}, "fusion_lon": 0.0, "lat": 38.86763216666667, "bike_id": "bf9b628ef65063dfd307322472b6bc7d", "type": "electric_scooter", "is_reserved": 0, "lon": -76.98270816666667}, {"fusion_lat": 0.0, "name": "e7e2ef3d116f39fbc3248a34706eee35", "is_disabled": 0, "rental_uris": {"android": "https://dc.lft.to/lastmile_qr_scan", "ios": "https://dc.lft.to/lastmile_qr_scan"}, "fusion_lon": 0.0, "lat": 38.87435833333333, "bike_id": "e7e2ef3d116f39fbc3248a34706eee35", "type": "electric_scooter", "is_reserved": 0, "lon": -77.000464}, {"fusion_lat": 0.0, "name": "620cac5756bbbfff0f3daf7cd4c8616a", "is_disabled": 0, "rental_uris": {"android": "https://dc.lft.to/lastmile_qr_scan", "ios": "https://dc.lft.to/lastmile_qr_scan"}, "fusion_lon": 0.0, "lat": 38.896709333333334, "bike_id": "620cac5756bbbfff0f3daf7cd4c8616a", "type": "electric_scooter", "is_reserved": 0, "lon": -77.033442}, {"fusion_lat": 0.0, "name": "cba117e4d7aae03ff879c84f9b4f739f", "is_disabled": 0, "rental_uris": {"android": "https://dc.lft.to/lastmile_qr_scan", "ios": "https://dc.lft.to/lastmile_qr_scan"}, "fusion_lon": 0.0, "lat": 38.88909, "bike_id": "cba117e4d7aae03ff879c84f9b4f739f", "type": "electric_scooter", "is_reserved": 0, "lon": -76.97733816666667}, {"fusion_lat": 0.0, "name": "d07ed1e8dda974f7e04e291559ab7044", "is_disabled": 0, "rental_uris": {"android": "https://dc.lft.to/lastmile_qr_scan", "ios": "https://dc.lft.to/lastmile_qr_scan"}, "fusion_lon": 0.0, "lat": 38.908751, "bike_id": "d07ed1e8dda974f7e04e291559ab7044", "type": "electric_scooter", "is_reserved": 0, "lon": -77.08591466666667}, {"fusion_lat": 0.0, "name": "4c7d492f1d674caae016886900732855", "is_disabled": 0, "rental_uris": {"android": "https://dc.lft.to/lastmile_qr_scan", "ios": "https://dc.lft.to/lastmile_qr_scan"}, "fusion_lon": 0.0, "lat": 38.913632, "bike_id": "4c7d492f1d674caae016886900732855", "type": "electric_scooter", "is_reserved": 0, "lon": -77.04555216666667}, {"fusion_lat": 0.0, "name": "682f2fbd04c72a393aa7b3576fa28a7c", "is_disabled": 0, "rental_uris": {"android": "https://dc.lft.to/lastmile_qr_scan", "ios": "https://dc.lft.to/lastmile_qr_scan"}, "fusion_lon": 0.0, "lat": 38.8768705, "bike_id": "682f2fbd04c72a393aa7b3576fa28a7c", "type": "electric_scooter", "is_reserved": 0, "lon": -77.0074115}, {"fusion_lat": 0.0, "name": "7b1c3b547dd9d37964b60fa93bee9e2b", "is_disabled": 0, "rental_uris": {"android": "https://dc.lft.to/lastmile_qr_scan", "ios": "https://dc.lft.to/lastmile_qr_scan"}, "fusion_lon": 0.0, "lat": 38.8790225, "bike_id": "7b1c3b547dd9d37964b60fa93bee9e2b", "type": "electric_scooter", "is_reserved": 0, "lon": -77.02235233333333}, {"fusion_lat": 0.0, "name": "becdd36e8cb6d18d79ffbdd22a9799a5", "is_disabled": 0, "rental_uris": {"android": "https://dc.lft.to/lastmile_qr_scan", "ios": "https://dc.lft.to/lastmile_qr_scan"}, "fusion_lon": 0.0, "lat": 38.90054033333333, "bike_id": "becdd36e8cb6d18d79ffbdd22a9799a5", "type": "electric_scooter", "is_reserved": 0, "lon": -77.00744166666667}, {"fusion_lat": 0.0, "name": "79685d71f8f6ec2b59ae2b2a5824c2a5", "is_disabled": 0, "rental_uris": {"android": "https://dc.lft.to/lastmile_qr_scan", "ios": "https://dc.lft.to/lastmile_qr_scan"}, "fusion_lon": 0.0, "lat": 38.924993, "bike_id": "79685d71f8f6ec2b59ae2b2a5824c2a5", "type": "electric_scooter", "is_reserved": 0, "lon": -77.05221516666667}, {"fusion_lat": 0.0, "name": "63a2b03aa99c5c442a1220beedebfcb6", "is_disabled": 0, "rental_uris": {"android": "https://dc.lft.to/lastmile_qr_scan", "ios": "https://dc.lft.to/lastmile_qr_scan"}, "fusion_lon": 0.0, "lat": 38.887652333333335, "bike_id": "63a2b03aa99c5c442a1220beedebfcb6", "type": "electric_scooter", "is_reserved": 0, "lon": -76.97753833333333}, {"fusion_lat": 0.0, "name": "09825bb2403919ab6c1fbd535a36138a", "is_disabled": 0, "rental_uris": {"android": "https://dc.lft.to/lastmile_qr_scan", "ios": "https://dc.lft.to/lastmile_qr_scan"}, "fusion_lon": 0.0, "lat": 38.90952683333333, "bike_id": "09825bb2403919ab6c1fbd535a36138a", "type": "electric_scooter", "is_reserved": 0, "lon": -76.985448}, {"fusion_lat": 0.0, "name": "9b586f94e1b29fcf4b36db258c9ce838", "is_disabled": 0, "rental_uris": {"android": "https://dc.lft.to/lastmile_qr_scan", "ios": "https://dc.lft.to/lastmile_qr_scan"}, "fusion_lon": 0.0, "lat": 38.914140333333336, "bike_id": "9b586f94e1b29fcf4b36db258c9ce838", "type": "electric_scooter", "is_reserved": 0, "lon": -77.0394125}, {"fusion_lat": 0.0, "name": "e34cc39f7dca08751b8ff9748c3305fe", "is_disabled": 0, "rental_uris": {"android": "https://dc.lft.to/lastmile_qr_scan", "ios": "https://dc.lft.to/lastmile_qr_scan"}, "fusion_lon": 0.0, "lat": 38.8246445, "bike_id": "e34cc39f7dca08751b8ff9748c3305fe", "type": "electric_bike", "is_reserved": 0, "lon": -77.007947}, {"fusion_lat": 0.0, "name": "4b4905129b0b9fc849356329c4b6265f", "is_disabled": 0, "rental_uris": {"android": "https://dc.lft.to/lastmile_qr_scan", "ios": "https://dc.lft.to/lastmile_qr_scan"}, "fusion_lon": 0.0, "lat": 38.92387433333333, "bike_id": "4b4905129b0b9fc849356329c4b6265f", "type": "electric_scooter", "is_reserved": 0, "lon": -77.036569}, {"fusion_lat": 0.0, "name": "4c679e432bfbf5a3bb9bc26e1bf31718", "is_disabled": 0, "rental_uris": {"android": "https://dc.lft.to/lastmile_qr_scan", "ios": "https://dc.lft.to/lastmile_qr_scan"}, "fusion_lon": 0.0, "lat": 38.89909383333333, "bike_id": "4c679e432bfbf5a3bb9bc26e1bf31718", "type": "electric_scooter", "is_reserved": 0, "lon": -76.9454965}, {"fusion_lat": 0.0, "name": "c4f100841afbb7330eacb232342c36c0", "is_disabled": 0, "rental_uris": {"android": "https://dc.lft.to/lastmile_qr_scan", "ios": "https://dc.lft.to/lastmile_qr_scan"}, "fusion_lon": 0.0, "lat": 38.91419833333333, "bike_id": "c4f100841afbb7330eacb232342c36c0", "type": "electric_scooter", "is_reserved": 0, "lon": -77.0317615}, {"fusion_lat": 0.0, "name": "e4bdb257359f4637296150228268e606", "is_disabled": 0, "rental_uris": {"android": "https://dc.lft.to/lastmile_qr_scan", "ios": "https://dc.lft.to/lastmile_qr_scan"}, "fusion_lon": 0.0, "lat": 38.91560316666666, "bike_id": "e4bdb257359f4637296150228268e606", "type": "electric_scooter", "is_reserved": 0, "lon": -77.03222}, {"fusion_lat": 0.0, "name": "8a88a30e701c4e60e0e1ac3af037db4e", "is_disabled": 0, "rental_uris": {"android": "https://dc.lft.to/lastmile_qr_scan", "ios": "https://dc.lft.to/lastmile_qr_scan"}, "fusion_lon": 0.0, "lat": 38.8870475, "bike_id": "8a88a30e701c4e60e0e1ac3af037db4e", "type": "electric_scooter", "is_reserved": 0, "lon": -77.032088}, {"fusion_lat": 0.0, "name": "249aaec20b93a3439bb5c6227cbcc997", "is_disabled": 0, "rental_uris": {"android": "https://dc.lft.to/lastmile_qr_scan", "ios": "https://dc.lft.to/lastmile_qr_scan"}, "fusion_lon": 0.0, "lat": 38.92422666666667, "bike_id": "249aaec20b93a3439bb5c6227cbcc997", "type": "electric_scooter", "is_reserved": 0, "lon": -77.01955916666667}, {"fusion_lat": 0.0, "name": "6023ca1bc4de728c5ce57e1c9cb725af", "is_disabled": 0, "rental_uris": {"android": "https://dc.lft.to/lastmile_qr_scan", "ios": "https://dc.lft.to/lastmile_qr_scan"}, "fusion_lon": 0.0, "lat": 38.90019066666667, "bike_id": "6023ca1bc4de728c5ce57e1c9cb725af", "type": "electric_scooter", "is_reserved": 0, "lon": -76.98813966666667}, {"fusion_lat": 0.0, "name": "1b3c45f355f79a9d7a105269fba03df4", "is_disabled": 0, "rental_uris": {"android": "https://dc.lft.to/lastmile_qr_scan", "ios": "https://dc.lft.to/lastmile_qr_scan"}, "fusion_lon": 0.0, "lat": 38.91941933333333, "bike_id": "1b3c45f355f79a9d7a105269fba03df4", "type": "electric_scooter", "is_reserved": 0, "lon": -77.0252025}, {"fusion_lat": 0.0, "name": "18e3ca6e0e3a36b6c14315b19b1b578a", "is_disabled": 0, "rental_uris": {"android": "https://dc.lft.to/lastmile_qr_scan", "ios": "https://dc.lft.to/lastmile_qr_scan"}, "fusion_lon": 0.0, "lat": 38.917263, "bike_id": "18e3ca6e0e3a36b6c14315b19b1b578a", "type": "electric_scooter", "is_reserved": 0, "lon": -77.06810633333333}, {"fusion_lat": 0.0, "name": "f268747433ee6f9cbd780597b10965fe", "is_disabled": 0, "rental_uris": {"android": "https://dc.lft.to/lastmile_qr_scan", "ios": "https://dc.lft.to/lastmile_qr_scan"}, "fusion_lon": 0.0, "lat": 38.91308883333333, "bike_id": "f268747433ee6f9cbd780597b10965fe", "type": "electric_scooter", "is_reserved": 0, "lon": -77.0213865}, {"fusion_lat": 0.0, "name": "444d94590332afa52c0de9dfe672281c", "is_disabled": 0, "rental_uris": {"android": "https://dc.lft.to/lastmile_qr_scan", "ios": "https://dc.lft.to/lastmile_qr_scan"}, "fusion_lon": 0.0, "lat": 38.91547083333333, "bike_id": "444d94590332afa52c0de9dfe672281c", "type": "electric_scooter", "is_reserved": 0, "lon": -77.03855366666667}, {"fusion_lat": 0.0, "name": "07d7ac40d18147c97bde90498227d906", "is_disabled": 0, "rental_uris": {"android": "https://dc.lft.to/lastmile_qr_scan", "ios": "https://dc.lft.to/lastmile_qr_scan"}, "fusion_lon": 0.0, "lat": 38.92104066666667, "bike_id": "07d7ac40d18147c97bde90498227d906", "type": "electric_scooter", "is_reserved": 0, "lon": -77.04692333333334}, {"fusion_lat": 0.0, "name": "eeb50ade1e0d7f9880729ef1895e34d3", "is_disabled": 0, "rental_uris": {"android": "https://dc.lft.to/lastmile_qr_scan", "ios": "https://dc.lft.to/lastmile_qr_scan"}, "fusion_lon": 0.0, "lat": 38.92556583333333, "bike_id": "eeb50ade1e0d7f9880729ef1895e34d3", "type": "electric_scooter", "is_reserved": 0, "lon": -76.98299066666667}, {"fusion_lat": 0.0, "name": "611f8576fce6386e77b7830550df752c", "is_disabled": 0, "rental_uris": {"android": "https://dc.lft.to/lastmile_qr_scan", "ios": "https://dc.lft.to/lastmile_qr_scan"}, "fusion_lon": 0.0, "lat": 38.917767166666664, "bike_id": "611f8576fce6386e77b7830550df752c", "type": "electric_scooter", "is_reserved": 0, "lon": -77.02308683333334}, {"fusion_lat": 0.0, "name": "0cb5c8bbb1ff664afa5211996d51da0b", "is_disabled": 0, "rental_uris": {"android": "https://dc.lft.to/lastmile_qr_scan", "ios": "https://dc.lft.to/lastmile_qr_scan"}, "fusion_lon": 0.0, "lat": 38.900338, "bike_id": "0cb5c8bbb1ff664afa5211996d51da0b", "type": "electric_scooter", "is_reserved": 0, "lon": -77.00197083333333}, {"fusion_lat": 0.0, "name": "e9b49f0274ce769ec89c1d4d6a2cf2a3", "is_disabled": 0, "rental_uris": {"android": "https://dc.lft.to/lastmile_qr_scan", "ios": "https://dc.lft.to/lastmile_qr_scan"}, "fusion_lon": 0.0, "lat": 38.91024066666667, "bike_id": "e9b49f0274ce769ec89c1d4d6a2cf2a3", "type": "electric_scooter", "is_reserved": 0, "lon": -77.04313083333334}, {"fusion_lat": 0.0, "name": "0f102598f5c402a21387cf4f24d7ae0c", "is_disabled": 0, "rental_uris": {"android": "https://dc.lft.to/lastmile_qr_scan", "ios": "https://dc.lft.to/lastmile_qr_scan"}, "fusion_lon": 0.0, "lat": 38.8067895, "bike_id": "0f102598f5c402a21387cf4f24d7ae0c", "type": "electric_bike", "is_reserved": 0, "lon": -77.06918416666667}, {"fusion_lat": 0.0, "name": "8acb3a56a78e60b1c2238de1b3374d70", "is_disabled": 0, "rental_uris": {"android": "https://dc.lft.to/lastmile_qr_scan", "ios": "https://dc.lft.to/lastmile_qr_scan"}, "fusion_lon": 0.0, "lat": 38.907231, "bike_id": "8acb3a56a78e60b1c2238de1b3374d70", "type": "electric_scooter", "is_reserved": 0, "lon": -77.04341983333333}, {"fusion_lat": 0.0, "name": "ea7d1bc89072df2af0351049d9dfdebc", "is_disabled": 0, "rental_uris": {"android": "https://dc.lft.to/lastmile_qr_scan", "ios": "https://dc.lft.to/lastmile_qr_scan"}, "fusion_lon": 0.0, "lat": 38.88448916666667, "bike_id": "ea7d1bc89072df2af0351049d9dfdebc", "type": "electric_scooter", "is_reserved": 0, "lon": -76.99389366666666}, {"fusion_lat": 0.0, "name": "f8cde2f11e27361c8d71d712fc91eb55", "is_disabled": 0, "rental_uris": {"android": "https://dc.lft.to/lastmile_qr_scan", "ios": "https://dc.lft.to/lastmile_qr_scan"}, "fusion_lon": 0.0, "lat": 38.911729666666666, "bike_id": "f8cde2f11e27361c8d71d712fc91eb55", "type": "electric_scooter", "is_reserved": 0, "lon": -77.03181033333334}, {"fusion_lat": 0.0, "name": "a5853e319397c4ac864576fbf58ca34b", "is_disabled": 0, "rental_uris": {"android": "https://dc.lft.to/lastmile_qr_scan", "ios": "https://dc.lft.to/lastmile_qr_scan"}, "fusion_lon": 0.0, "lat": 38.956388, "bike_id": "a5853e319397c4ac864576fbf58ca34b", "type": "electric_bike", "is_reserved": 0, "lon": -76.93876716666666}, {"fusion_lat": 0.0, "name": "e8787b6f2b432ab5a4718c50d80a5f5a", "is_disabled": 0, "rental_uris": {"android": "https://dc.lft.to/lastmile_qr_scan", "ios": "https://dc.lft.to/lastmile_qr_scan"}, "fusion_lon": 0.0, "lat": 38.898274, "bike_id": "e8787b6f2b432ab5a4718c50d80a5f5a", "type": "electric_scooter", "is_reserved": 0, "lon": -77.02804733333333}, {"fusion_lat": 0.0, "name": "b61fb56e1ee1e979b3091b2baff8e3b1", "is_disabled": 0, "rental_uris": {"android": "https://dc.lft.to/lastmile_qr_scan", "ios": "https://dc.lft.to/lastmile_qr_scan"}, "fusion_lon": 0.0, "lat": 38.88256916666667, "bike_id": "b61fb56e1ee1e979b3091b2baff8e3b1", "type": "electric_scooter", "is_reserved": 0, "lon": -76.9948655}, {"fusion_lat": 0.0, "name": "f072488dfff38e324320787a9f7c8260", "is_disabled": 0, "rental_uris": {"android": "https://dc.lft.to/lastmile_qr_scan", "ios": "https://dc.lft.to/lastmile_qr_scan"}, "fusion_lon": 0.0, "lat": 38.80448416666667, "bike_id": "f072488dfff38e324320787a9f7c8260", "type": "electric_bike", "is_reserved": 0, "lon": -77.13229983333333}, {"fusion_lat": 0.0, "name": "e3811b9882d8fe9480bd05d365639e9d", "is_disabled": 0, "rental_uris": {"android": "https://dc.lft.to/lastmile_qr_scan", "ios": "https://dc.lft.to/lastmile_qr_scan"}, "fusion_lon": 0.0, "lat": 38.86558466666666, "bike_id": "e3811b9882d8fe9480bd05d365639e9d", "type": "electric_scooter", "is_reserved": 0, "lon": -76.98349766666666}, {"fusion_lat": 0.0, "name": "0bad6ac9f4651e2e53b1cbb683cbf5cb", "is_disabled": 0, "rental_uris": {"android": "https://dc.lft.to/lastmile_qr_scan", "ios": "https://dc.lft.to/lastmile_qr_scan"}, "fusion_lon": 0.0, "lat": 38.89609566666667, "bike_id": "0bad6ac9f4651e2e53b1cbb683cbf5cb", "type": "electric_scooter", "is_reserved": 0, "lon": -76.94816833333333}, {"fusion_lat": 0.0, "name": "0ceb633185ffe1993425f31ef0638b7d", "is_disabled": 0, "rental_uris": {"android": "https://dc.lft.to/lastmile_qr_scan", "ios": "https://dc.lft.to/lastmile_qr_scan"}, "fusion_lon": 0.0, "lat": 38.910041166666666, "bike_id": "0ceb633185ffe1993425f31ef0638b7d", "type": "electric_scooter", "is_reserved": 0, "lon": -77.0447645}, {"fusion_lat": 0.0, "name": "616e79e8539a9911f20171f60990a7ee", "is_disabled": 0, "rental_uris": {"android": "https://dc.lft.to/lastmile_qr_scan", "ios": "https://dc.lft.to/lastmile_qr_scan"}, "fusion_lon": 0.0, "lat": 38.909572, "bike_id": "616e79e8539a9911f20171f60990a7ee", "type": "electric_scooter", "is_reserved": 0, "lon": -77.0316885}, {"fusion_lat": 0.0, "name": "d397c39bc9572fb9b37205805fbda8a6", "is_disabled": 0, "rental_uris": {"android": "https://dc.lft.to/lastmile_qr_scan", "ios": "https://dc.lft.to/lastmile_qr_scan"}, "fusion_lon": 0.0, "lat": 38.9096155, "bike_id": "d397c39bc9572fb9b37205805fbda8a6", "type": "electric_scooter", "is_reserved": 0, "lon": -77.039286}, {"fusion_lat": 0.0, "name": "c5e3959f09983946e04a2ac5db2968a8", "is_disabled": 0, "rental_uris": {"android": "https://dc.lft.to/lastmile_qr_scan", "ios": "https://dc.lft.to/lastmile_qr_scan"}, "fusion_lon": 0.0, "lat": 38.9032765, "bike_id": "c5e3959f09983946e04a2ac5db2968a8", "type": "electric_scooter", "is_reserved": 0, "lon": -77.02540733333333}, {"fusion_lat": 0.0, "name": "ac99a61a66c0cc1ce333d9911c757d36", "is_disabled": 0, "rental_uris": {"android": "https://dc.lft.to/lastmile_qr_scan", "ios": "https://dc.lft.to/lastmile_qr_scan"}, "fusion_lon": 0.0, "lat": 38.86332683333333, "bike_id": "ac99a61a66c0cc1ce333d9911c757d36", "type": "electric_bike", "is_reserved": 0, "lon": -76.98715266666666}, {"fusion_lat": 0.0, "name": "6f227a84abf326bfd359db88bb2e35e3", "is_disabled": 0, "rental_uris": {"android": "https://dc.lft.to/lastmile_qr_scan", "ios": "https://dc.lft.to/lastmile_qr_scan"}, "fusion_lon": 0.0, "lat": 38.93453483333333, "bike_id": "6f227a84abf326bfd359db88bb2e35e3", "type": "electric_scooter", "is_reserved": 0, "lon": -77.02338416666667}, {"fusion_lat": 0.0, "name": "66d28d7cb7ef590c503e5342551a20c6", "is_disabled": 0, "rental_uris": {"android": "https://dc.lft.to/lastmile_qr_scan", "ios": "https://dc.lft.to/lastmile_qr_scan"}, "fusion_lon": 0.0, "lat": 38.90101116666666, "bike_id": "66d28d7cb7ef590c503e5342551a20c6", "type": "electric_scooter", "is_reserved": 0, "lon": -77.058084}, {"fusion_lat": 0.0, "name": "22f3b84443871b62f5c22c97b7adeae5", "is_disabled": 0, "rental_uris": {"android": "https://dc.lft.to/lastmile_qr_scan", "ios": "https://dc.lft.to/lastmile_qr_scan"}, "fusion_lon": 0.0, "lat": 38.87854316666667, "bike_id": "22f3b84443871b62f5c22c97b7adeae5", "type": "electric_scooter", "is_reserved": 0, "lon": -77.00574566666667}, {"fusion_lat": 0.0, "name": "7e1aed6973c9b59e598708cf40b35c2c", "is_disabled": 0, "rental_uris": {"android": "https://dc.lft.to/lastmile_qr_scan", "ios": "https://dc.lft.to/lastmile_qr_scan"}, "fusion_lon": 0.0, "lat": 38.873796166666665, "bike_id": "7e1aed6973c9b59e598708cf40b35c2c", "type": "electric_scooter", "is_reserved": 0, "lon": -77.00089516666667}, {"fusion_lat": 0.0, "name": "8ea7b1427ddb3392ef74697905138c93", "is_disabled": 0, "rental_uris": {"android": "https://dc.lft.to/lastmile_qr_scan", "ios": "https://dc.lft.to/lastmile_qr_scan"}, "fusion_lon": 0.0, "lat": 38.90426983333333, "bike_id": "8ea7b1427ddb3392ef74697905138c93", "type": "electric_scooter", "is_reserved": 0, "lon": -77.02746333333333}, {"fusion_lat": 0.0, "name": "b970820bb69bda66696bb011ae98ab25", "is_disabled": 0, "rental_uris": {"android": "https://dc.lft.to/lastmile_qr_scan", "ios": "https://dc.lft.to/lastmile_qr_scan"}, "fusion_lon": 0.0, "lat": 38.90846033333333, "bike_id": "b970820bb69bda66696bb011ae98ab25", "type": "electric_scooter", "is_reserved": 0, "lon": -77.04527583333333}, {"fusion_lat": 0.0, "name": "b0eebc80ac6a238a195ccabea95a67ce", "is_disabled": 0, "rental_uris": {"android": "https://dc.lft.to/lastmile_qr_scan", "ios": "https://dc.lft.to/lastmile_qr_scan"}, "fusion_lon": 0.0, "lat": 38.89885483333333, "bike_id": "b0eebc80ac6a238a195ccabea95a67ce", "type": "electric_scooter", "is_reserved": 0, "lon": -77.03279866666666}, {"fusion_lat": 0.0, "name": "c56589f726ef55edff398fbc7528a47c", "is_disabled": 0, "rental_uris": {"android": "https://dc.lft.to/lastmile_qr_scan", "ios": "https://dc.lft.to/lastmile_qr_scan"}, "fusion_lon": 0.0, "lat": 38.961250666666665, "bike_id": "c56589f726ef55edff398fbc7528a47c", "type": "electric_bike", "is_reserved": 0, "lon": -77.03270333333333}, {"fusion_lat": 0.0, "name": "c944ec18722536fd700ec15d3e570ccc", "is_disabled": 0, "rental_uris": {"android": "https://dc.lft.to/lastmile_qr_scan", "ios": "https://dc.lft.to/lastmile_qr_scan"}, "fusion_lon": 0.0, "lat": 38.9484015, "bike_id": "c944ec18722536fd700ec15d3e570ccc", "type": "electric_scooter", "is_reserved": 0, "lon": -77.07980766666667}, {"fusion_lat": 0.0, "name": "4de21a60392d794f082ca83c9609217b", "is_disabled": 0, "rental_uris": {"android": "https://dc.lft.to/lastmile_qr_scan", "ios": "https://dc.lft.to/lastmile_qr_scan"}, "fusion_lon": 0.0, "lat": 38.88464333333334, "bike_id": "4de21a60392d794f082ca83c9609217b", "type": "electric_scooter", "is_reserved": 0, "lon": -76.9498275}, {"fusion_lat": 0.0, "name": "722fa8764a8087b60f982f8d19a4d5e2", "is_disabled": 0, "rental_uris": {"android": "https://dc.lft.to/lastmile_qr_scan", "ios": "https://dc.lft.to/lastmile_qr_scan"}, "fusion_lon": 0.0, "lat": 38.928623333333334, "bike_id": "722fa8764a8087b60f982f8d19a4d5e2", "type": "electric_scooter", "is_reserved": 0, "lon": -77.037401}, {"fusion_lat": 0.0, "name": "2d411c130e7444d4f8383f8e99489163", "is_disabled": 0, "rental_uris": {"android": "https://dc.lft.to/lastmile_qr_scan", "ios": "https://dc.lft.to/lastmile_qr_scan"}, "fusion_lon": 0.0, "lat": 38.87659133333333, "bike_id": "2d411c130e7444d4f8383f8e99489163", "type": "electric_scooter", "is_reserved": 0, "lon": -77.001171}, {"fusion_lat": 0.0, "name": "09aa73f2ffb3a4ab064fb46f036140f0", "is_disabled": 0, "rental_uris": {"android": "https://dc.lft.to/lastmile_qr_scan", "ios": "https://dc.lft.to/lastmile_qr_scan"}, "fusion_lon": 0.0, "lat": 38.884998333333336, "bike_id": "09aa73f2ffb3a4ab064fb46f036140f0", "type": "electric_scooter", "is_reserved": 0, "lon": -76.92952766666667}, {"fusion_lat": 0.0, "name": "510740d0a34c7059cbea92a50cb8ebae", "is_disabled": 0, "rental_uris": {"android": "https://dc.lft.to/lastmile_qr_scan", "ios": "https://dc.lft.to/lastmile_qr_scan"}, "fusion_lon": 0.0, "lat": 38.92698383333333, "bike_id": "510740d0a34c7059cbea92a50cb8ebae", "type": "electric_scooter", "is_reserved": 0, "lon": -77.020773}, {"fusion_lat": 0.0, "name": "13348bdc17edad6afd3ce97ad8283644", "is_disabled": 0, "rental_uris": {"android": "https://dc.lft.to/lastmile_qr_scan", "ios": "https://dc.lft.to/lastmile_qr_scan"}, "fusion_lon": 0.0, "lat": 38.91694733333333, "bike_id": "13348bdc17edad6afd3ce97ad8283644", "type": "electric_scooter", "is_reserved": 0, "lon": -77.02598733333333}, {"fusion_lat": 0.0, "name": "9df66a3a4d0d942b545b78e3125fa454", "is_disabled": 0, "rental_uris": {"android": "https://dc.lft.to/lastmile_qr_scan", "ios": "https://dc.lft.to/lastmile_qr_scan"}, "fusion_lon": 0.0, "lat": 38.921559333333335, "bike_id": "9df66a3a4d0d942b545b78e3125fa454", "type": "electric_scooter", "is_reserved": 0, "lon": -77.038699}, {"fusion_lat": 0.0, "name": "385db109139ff2265fbe642881aa6486", "is_disabled": 0, "rental_uris": {"android": "https://dc.lft.to/lastmile_qr_scan", "ios": "https://dc.lft.to/lastmile_qr_scan"}, "fusion_lon": 0.0, "lat": 38.883737833333335, "bike_id": "385db109139ff2265fbe642881aa6486", "type": "electric_scooter", "is_reserved": 0, "lon": -76.93057766666666}, {"fusion_lat": 0.0, "name": "1f1b1753e40c5219b6c2a826e1ad7ac1", "is_disabled": 0, "rental_uris": {"android": "https://dc.lft.to/lastmile_qr_scan", "ios": "https://dc.lft.to/lastmile_qr_scan"}, "fusion_lon": 0.0, "lat": 38.933974166666665, "bike_id": "1f1b1753e40c5219b6c2a826e1ad7ac1", "type": "electric_scooter", "is_reserved": 0, "lon": -77.02844366666666}, {"fusion_lat": 0.0, "name": "cf310ef089e70fb4a2a86073dedc6ac7", "is_disabled": 0, "rental_uris": {"android": "https://dc.lft.to/lastmile_qr_scan", "ios": "https://dc.lft.to/lastmile_qr_scan"}, "fusion_lon": 0.0, "lat": 38.940901833333335, "bike_id": "cf310ef089e70fb4a2a86073dedc6ac7", "type": "electric_scooter", "is_reserved": 0, "lon": -77.06181666666667}, {"fusion_lat": 0.0, "name": "643c7fd39a7b724e38691f1142c8d5d4", "is_disabled": 0, "rental_uris": {"android": "https://dc.lft.to/lastmile_qr_scan", "ios": "https://dc.lft.to/lastmile_qr_scan"}, "fusion_lon": 0.0, "lat": 38.9335845, "bike_id": "643c7fd39a7b724e38691f1142c8d5d4", "type": "electric_scooter", "is_reserved": 0, "lon": -77.03438483333333}, {"fusion_lat": 0.0, "name": "d465e0be0d127b1ced297472a7e89793", "is_disabled": 0, "rental_uris": {"android": "https://dc.lft.to/lastmile_qr_scan", "ios": "https://dc.lft.to/lastmile_qr_scan"}, "fusion_lon": 0.0, "lat": 38.85767883333333, "bike_id": "d465e0be0d127b1ced297472a7e89793", "type": "electric_bike", "is_reserved": 0, "lon": -76.9875195}, {"fusion_lat": 0.0, "name": "857008700bad872aae76773b4f49a887", "is_disabled": 0, "rental_uris": {"android": "https://dc.lft.to/lastmile_qr_scan", "ios": "https://dc.lft.to/lastmile_qr_scan"}, "fusion_lon": 0.0, "lat": 38.91159583333334, "bike_id": "857008700bad872aae76773b4f49a887", "type": "electric_bike", "is_reserved": 0, "lon": -77.00253633333334}, {"fusion_lat": 0.0, "name": "d926bd84f3133edad14c7c233ae68945", "is_disabled": 0, "rental_uris": {"android": "https://dc.lft.to/lastmile_qr_scan", "ios": "https://dc.lft.to/lastmile_qr_scan"}, "fusion_lon": 0.0, "lat": 38.902235833333336, "bike_id": "d926bd84f3133edad14c7c233ae68945", "type": "electric_scooter", "is_reserved": 0, "lon": -77.02599333333333}, {"fusion_lat": 0.0, "name": "08de49753b126859edf6a7bd34b64e4d", "is_disabled": 0, "rental_uris": {"android": "https://dc.lft.to/lastmile_qr_scan", "ios": "https://dc.lft.to/lastmile_qr_scan"}, "fusion_lon": 0.0, "lat": 38.90244333333333, "bike_id": "08de49753b126859edf6a7bd34b64e4d", "type": "electric_scooter", "is_reserved": 0, "lon": -77.03968783333333}, {"fusion_lat": 0.0, "name": "15c0d02954ff5b4aabf0839a9c1d50f6", "is_disabled": 0, "rental_uris": {"android": "https://dc.lft.to/lastmile_qr_scan", "ios": "https://dc.lft.to/lastmile_qr_scan"}, "fusion_lon": 0.0, "lat": 38.89890716666667, "bike_id": "15c0d02954ff5b4aabf0839a9c1d50f6", "type": "electric_scooter", "is_reserved": 0, "lon": -77.02163983333334}, {"fusion_lat": 0.0, "name": "bf0ebd0bbe6a6fb3dac8091abb91c685", "is_disabled": 0, "rental_uris": {"android": "https://dc.lft.to/lastmile_qr_scan", "ios": "https://dc.lft.to/lastmile_qr_scan"}, "fusion_lon": 0.0, "lat": 38.9121215, "bike_id": "bf0ebd0bbe6a6fb3dac8091abb91c685", "type": "electric_scooter", "is_reserved": 0, "lon": -77.04505333333333}, {"fusion_lat": 0.0, "name": "50337d2cf955873e940f87a97a6ddbb1", "is_disabled": 0, "rental_uris": {"android": "https://dc.lft.to/lastmile_qr_scan", "ios": "https://dc.lft.to/lastmile_qr_scan"}, "fusion_lon": 0.0, "lat": 38.932186, "bike_id": "50337d2cf955873e940f87a97a6ddbb1", "type": "electric_scooter", "is_reserved": 0, "lon": -77.03345866666666}, {"fusion_lat": 0.0, "name": "62fee920bef5c8456f8aff2cd416d657", "is_disabled": 0, "rental_uris": {"android": "https://dc.lft.to/lastmile_qr_scan", "ios": "https://dc.lft.to/lastmile_qr_scan"}, "fusion_lon": 0.0, "lat": 38.889927666666665, "bike_id": "62fee920bef5c8456f8aff2cd416d657", "type": "electric_scooter", "is_reserved": 0, "lon": -76.9841335}, {"fusion_lat": 0.0, "name": "04bfb87a50ab0aa2ed69c4edc768e10c", "is_disabled": 0, "rental_uris": {"android": "https://dc.lft.to/lastmile_qr_scan", "ios": "https://dc.lft.to/lastmile_qr_scan"}, "fusion_lon": 0.0, "lat": 38.92797733333333, "bike_id": "04bfb87a50ab0aa2ed69c4edc768e10c", "type": "electric_scooter", "is_reserved": 0, "lon": -77.05521366666666}, {"fusion_lat": 0.0, "name": "ecb7efdfbf7610862a4e73432327bdbd", "is_disabled": 0, "rental_uris": {"android": "https://dc.lft.to/lastmile_qr_scan", "ios": "https://dc.lft.to/lastmile_qr_scan"}, "fusion_lon": 0.0, "lat": 38.91691866666667, "bike_id": "ecb7efdfbf7610862a4e73432327bdbd", "type": "electric_scooter", "is_reserved": 0, "lon": -77.03769966666667}, {"fusion_lat": 0.0, "name": "03a99302a3dafd94adee0a36c934c59d", "is_disabled": 0, "rental_uris": {"android": "https://dc.lft.to/lastmile_qr_scan", "ios": "https://dc.lft.to/lastmile_qr_scan"}, "fusion_lon": 0.0, "lat": 38.85701266666667, "bike_id": "03a99302a3dafd94adee0a36c934c59d", "type": "electric_scooter", "is_reserved": 0, "lon": -76.99591333333333}, {"fusion_lat": 0.0, "name": "216379430dc6cd492dd5bb7b67600098", "is_disabled": 0, "rental_uris": {"android": "https://dc.lft.to/lastmile_qr_scan", "ios": "https://dc.lft.to/lastmile_qr_scan"}, "fusion_lon": 0.0, "lat": 38.90621083333333, "bike_id": "216379430dc6cd492dd5bb7b67600098", "type": "electric_scooter", "is_reserved": 0, "lon": -77.0396615}, {"fusion_lat": 0.0, "name": "1377e04605936093da9302d26cbc3b67", "is_disabled": 0, "rental_uris": {"android": "https://dc.lft.to/lastmile_qr_scan", "ios": "https://dc.lft.to/lastmile_qr_scan"}, "fusion_lon": 0.0, "lat": 38.95699483333333, "bike_id": "1377e04605936093da9302d26cbc3b67", "type": "electric_scooter", "is_reserved": 0, "lon": -77.0325935}, {"fusion_lat": 0.0, "name": "6bbd9e5f8bc34f9f6e9fd2d3895cab22", "is_disabled": 0, "rental_uris": {"android": "https://dc.lft.to/lastmile_qr_scan", "ios": "https://dc.lft.to/lastmile_qr_scan"}, "fusion_lon": 0.0, "lat": 38.88899833333333, "bike_id": "6bbd9e5f8bc34f9f6e9fd2d3895cab22", "type": "electric_scooter", "is_reserved": 0, "lon": -76.9920225}, {"fusion_lat": 0.0, "name": "6c008036cc5d263826f7e374ec877cc3", "is_disabled": 0, "rental_uris": {"android": "https://dc.lft.to/lastmile_qr_scan", "ios": "https://dc.lft.to/lastmile_qr_scan"}, "fusion_lon": 0.0, "lat": 38.894262499999996, "bike_id": "6c008036cc5d263826f7e374ec877cc3", "type": "electric_scooter", "is_reserved": 0, "lon": -77.0010225}, {"fusion_lat": 0.0, "name": "373e1cff6bbf01cf3d1cc381db599a2a", "is_disabled": 0, "rental_uris": {"android": "https://dc.lft.to/lastmile_qr_scan", "ios": "https://dc.lft.to/lastmile_qr_scan"}, "fusion_lon": 0.0, "lat": 38.91041533333333, "bike_id": "373e1cff6bbf01cf3d1cc381db599a2a", "type": "electric_scooter", "is_reserved": 0, "lon": -77.01513583333333}, {"fusion_lat": 0.0, "name": "f0cff9c24b61ad18fc027ffd85701968", "is_disabled": 0, "rental_uris": {"android": "https://dc.lft.to/lastmile_qr_scan", "ios": "https://dc.lft.to/lastmile_qr_scan"}, "fusion_lon": 0.0, "lat": 38.9353315, "bike_id": "f0cff9c24b61ad18fc027ffd85701968", "type": "electric_scooter", "is_reserved": 0, "lon": -77.023516}, {"fusion_lat": 0.0, "name": "4bcf44b083f775c32642b7794e26d01d", "is_disabled": 0, "rental_uris": {"android": "https://dc.lft.to/lastmile_qr_scan", "ios": "https://dc.lft.to/lastmile_qr_scan"}, "fusion_lon": 0.0, "lat": 38.87920483333333, "bike_id": "4bcf44b083f775c32642b7794e26d01d", "type": "electric_scooter", "is_reserved": 0, "lon": -76.94486183333333}, {"fusion_lat": 0.0, "name": "ee176133dde8e889ab650201b0bb6537", "is_disabled": 0, "rental_uris": {"android": "https://dc.lft.to/lastmile_qr_scan", "ios": "https://dc.lft.to/lastmile_qr_scan"}, "fusion_lon": 0.0, "lat": 38.89353766666667, "bike_id": "ee176133dde8e889ab650201b0bb6537", "type": "electric_bike", "is_reserved": 0, "lon": -77.18740666666666}, {"fusion_lat": 0.0, "name": "1a264a81169f2a2ec1261d833bd91720", "is_disabled": 0, "rental_uris": {"android": "https://dc.lft.to/lastmile_qr_scan", "ios": "https://dc.lft.to/lastmile_qr_scan"}, "fusion_lon": 0.0, "lat": 38.92612916666667, "bike_id": "1a264a81169f2a2ec1261d833bd91720", "type": "electric_scooter", "is_reserved": 0, "lon": -77.021591}, {"fusion_lat": 0.0, "name": "d82abf422c02779161405e89563c9e8c", "is_disabled": 0, "rental_uris": {"android": "https://dc.lft.to/lastmile_qr_scan", "ios": "https://dc.lft.to/lastmile_qr_scan"}, "fusion_lon": 0.0, "lat": 38.949552, "bike_id": "d82abf422c02779161405e89563c9e8c", "type": "electric_scooter", "is_reserved": 0, "lon": -77.02310566666667}, {"fusion_lat": 0.0, "name": "0609d6fe84c9e09e5407c1b52328b8a0", "is_disabled": 0, "rental_uris": {"android": "https://dc.lft.to/lastmile_qr_scan", "ios": "https://dc.lft.to/lastmile_qr_scan"}, "fusion_lon": 0.0, "lat": 38.919628333333335, "bike_id": "0609d6fe84c9e09e5407c1b52328b8a0", "type": "electric_scooter", "is_reserved": 0, "lon": -77.02507066666666}, {"fusion_lat": 0.0, "name": "0c2e14153594a2f5410c379f2fab76ba", "is_disabled": 0, "rental_uris": {"android": "https://dc.lft.to/lastmile_qr_scan", "ios": "https://dc.lft.to/lastmile_qr_scan"}, "fusion_lon": 0.0, "lat": 38.89226083333333, "bike_id": "0c2e14153594a2f5410c379f2fab76ba", "type": "electric_scooter", "is_reserved": 0, "lon": -77.03219083333333}, {"fusion_lat": 0.0, "name": "441f4c18d47c7ced971d5b04a4d9f63a", "is_disabled": 0, "rental_uris": {"android": "https://dc.lft.to/lastmile_qr_scan", "ios": "https://dc.lft.to/lastmile_qr_scan"}, "fusion_lon": 0.0, "lat": 38.924805, "bike_id": "441f4c18d47c7ced971d5b04a4d9f63a", "type": "electric_scooter", "is_reserved": 0, "lon": -77.02833183333334}, {"fusion_lat": 0.0, "name": "de67f234d3bb26ea51fdda12115390f4", "is_disabled": 0, "rental_uris": {"android": "https://dc.lft.to/lastmile_qr_scan", "ios": "https://dc.lft.to/lastmile_qr_scan"}, "fusion_lon": 0.0, "lat": 38.96232833333333, "bike_id": "de67f234d3bb26ea51fdda12115390f4", "type": "electric_bike", "is_reserved": 0, "lon": -76.92760883333334}, {"fusion_lat": 0.0, "name": "31c399177a0b9591c079608091bbe5f7", "is_disabled": 0, "rental_uris": {"android": "https://dc.lft.to/lastmile_qr_scan", "ios": "https://dc.lft.to/lastmile_qr_scan"}, "fusion_lon": 0.0, "lat": 38.911151833333335, "bike_id": "31c399177a0b9591c079608091bbe5f7", "type": "electric_scooter", "is_reserved": 0, "lon": -77.00666083333333}, {"fusion_lat": 0.0, "name": "95d59cdf6d587ab713e2d2241036b8b7", "is_disabled": 0, "rental_uris": {"android": "https://dc.lft.to/lastmile_qr_scan", "ios": "https://dc.lft.to/lastmile_qr_scan"}, "fusion_lon": 0.0, "lat": 38.902171333333335, "bike_id": "95d59cdf6d587ab713e2d2241036b8b7", "type": "electric_bike", "is_reserved": 0, "lon": -76.98342466666666}, {"fusion_lat": 0.0, "name": "49ff2c8f60f974207ae50549873f313b", "is_disabled": 0, "rental_uris": {"android": "https://dc.lft.to/lastmile_qr_scan", "ios": "https://dc.lft.to/lastmile_qr_scan"}, "fusion_lon": 0.0, "lat": 38.92066166666667, "bike_id": "49ff2c8f60f974207ae50549873f313b", "type": "electric_scooter", "is_reserved": 0, "lon": -77.04381333333333}, {"fusion_lat": 0.0, "name": "06933820ac00297d88998fcf009a038b", "is_disabled": 0, "rental_uris": {"android": "https://dc.lft.to/lastmile_qr_scan", "ios": "https://dc.lft.to/lastmile_qr_scan"}, "fusion_lon": 0.0, "lat": 38.9098785, "bike_id": "06933820ac00297d88998fcf009a038b", "type": "electric_scooter", "is_reserved": 0, "lon": -77.03172266666667}, {"fusion_lat": 0.0, "name": "0c2a2f88f1d9d97edc010e91b887c2fe", "is_disabled": 0, "rental_uris": {"android": "https://dc.lft.to/lastmile_qr_scan", "ios": "https://dc.lft.to/lastmile_qr_scan"}, "fusion_lon": 0.0, "lat": 38.91563033333333, "bike_id": "0c2a2f88f1d9d97edc010e91b887c2fe", "type": "electric_scooter", "is_reserved": 0, "lon": -77.03148383333334}, {"fusion_lat": 0.0, "name": "d00f08741866f4fe3a6d2de0ce2c9e49", "is_disabled": 0, "rental_uris": {"android": "https://dc.lft.to/lastmile_qr_scan", "ios": "https://dc.lft.to/lastmile_qr_scan"}, "fusion_lon": 0.0, "lat": 38.881252, "bike_id": "d00f08741866f4fe3a6d2de0ce2c9e49", "type": "electric_scooter", "is_reserved": 0, "lon": -76.99516266666667}, {"fusion_lat": 0.0, "name": "b94482e74d4dc47b4dadb53afcf6e9ae", "is_disabled": 0, "rental_uris": {"android": "https://dc.lft.to/lastmile_qr_scan", "ios": "https://dc.lft.to/lastmile_qr_scan"}, "fusion_lon": 0.0, "lat": 38.916887833333334, "bike_id": "b94482e74d4dc47b4dadb53afcf6e9ae", "type": "electric_scooter", "is_reserved": 0, "lon": -77.03772566666666}, {"fusion_lat": 0.0, "name": "eefc90aea059fdc73abf95d3d86e2ef9", "is_disabled": 0, "rental_uris": {"android": "https://dc.lft.to/lastmile_qr_scan", "ios": "https://dc.lft.to/lastmile_qr_scan"}, "fusion_lon": 0.0, "lat": 38.892314, "bike_id": "eefc90aea059fdc73abf95d3d86e2ef9", "type": "electric_scooter", "is_reserved": 0, "lon": -77.04999683333334}, {"fusion_lat": 0.0, "name": "0617a52c8dd68ab8a6f2688327e8454a", "is_disabled": 0, "rental_uris": {"android": "https://dc.lft.to/lastmile_qr_scan", "ios": "https://dc.lft.to/lastmile_qr_scan"}, "fusion_lon": 0.0, "lat": 38.96731316666666, "bike_id": "0617a52c8dd68ab8a6f2688327e8454a", "type": "electric_scooter", "is_reserved": 0, "lon": -77.00916316666667}, {"fusion_lat": 0.0, "name": "6b67f7a3cd1d008b81c8c84033b438e0", "is_disabled": 0, "rental_uris": {"android": "https://dc.lft.to/lastmile_qr_scan", "ios": "https://dc.lft.to/lastmile_qr_scan"}, "fusion_lon": 0.0, "lat": 38.95246133333333, "bike_id": "6b67f7a3cd1d008b81c8c84033b438e0", "type": "electric_scooter", "is_reserved": 0, "lon": -77.023833}, {"fusion_lat": 0.0, "name": "e27c4e16d36d6a3c845562b55335a021", "is_disabled": 0, "rental_uris": {"android": "https://dc.lft.to/lastmile_qr_scan", "ios": "https://dc.lft.to/lastmile_qr_scan"}, "fusion_lon": 0.0, "lat": 38.91915683333333, "bike_id": "e27c4e16d36d6a3c845562b55335a021", "type": "electric_scooter", "is_reserved": 0, "lon": -77.02614333333334}, {"fusion_lat": 0.0, "name": "37e6a5d48cf8995f4315beb33b474c0c", "is_disabled": 0, "rental_uris": {"android": "https://dc.lft.to/lastmile_qr_scan", "ios": "https://dc.lft.to/lastmile_qr_scan"}, "fusion_lon": 0.0, "lat": 38.893523, "bike_id": "37e6a5d48cf8995f4315beb33b474c0c", "type": "electric_scooter", "is_reserved": 0, "lon": -77.0006795}, {"fusion_lat": 0.0, "name": "631691c0d58197afd8f59f7bef7dc186", "is_disabled": 0, "rental_uris": {"android": "https://dc.lft.to/lastmile_qr_scan", "ios": "https://dc.lft.to/lastmile_qr_scan"}, "fusion_lon": 0.0, "lat": 38.9026235, "bike_id": "631691c0d58197afd8f59f7bef7dc186", "type": "electric_scooter", "is_reserved": 0, "lon": -77.01761166666667}, {"fusion_lat": 0.0, "name": "47eaaba9b719fec9d7db2a4f0d775ddc", "is_disabled": 0, "rental_uris": {"android": "https://dc.lft.to/lastmile_qr_scan", "ios": "https://dc.lft.to/lastmile_qr_scan"}, "fusion_lon": 0.0, "lat": 38.896353833333336, "bike_id": "47eaaba9b719fec9d7db2a4f0d775ddc", "type": "electric_scooter", "is_reserved": 0, "lon": -77.02660866666666}, {"fusion_lat": 0.0, "name": "556b74f12eaa70d99395d2b71b475378", "is_disabled": 0, "rental_uris": {"android": "https://dc.lft.to/lastmile_qr_scan", "ios": "https://dc.lft.to/lastmile_qr_scan"}, "fusion_lon": 0.0, "lat": 38.91360066666667, "bike_id": "556b74f12eaa70d99395d2b71b475378", "type": "electric_scooter", "is_reserved": 0, "lon": -77.0205365}, {"fusion_lat": 0.0, "name": "652d7c5fc42f05e45c057124775680a9", "is_disabled": 0, "rental_uris": {"android": "https://dc.lft.to/lastmile_qr_scan", "ios": "https://dc.lft.to/lastmile_qr_scan"}, "fusion_lon": 0.0, "lat": 38.905497833333335, "bike_id": "652d7c5fc42f05e45c057124775680a9", "type": "electric_scooter", "is_reserved": 0, "lon": -77.0427455}, {"fusion_lat": 0.0, "name": "8115c135a3871b8732480814020a4b18", "is_disabled": 0, "rental_uris": {"android": "https://dc.lft.to/lastmile_qr_scan", "ios": "https://dc.lft.to/lastmile_qr_scan"}, "fusion_lon": 0.0, "lat": 38.924636, "bike_id": "8115c135a3871b8732480814020a4b18", "type": "electric_scooter", "is_reserved": 0, "lon": -77.08031366666667}, {"fusion_lat": 0.0, "name": "7431b6c60a810b8de0b2645f1cb3a1ff", "is_disabled": 0, "rental_uris": {"android": "https://dc.lft.to/lastmile_qr_scan", "ios": "https://dc.lft.to/lastmile_qr_scan"}, "fusion_lon": 0.0, "lat": 38.8925825, "bike_id": "7431b6c60a810b8de0b2645f1cb3a1ff", "type": "electric_bike", "is_reserved": 0, "lon": -76.95114666666667}, {"fusion_lat": 0.0, "name": "21e70b94197f7c24ccee5a9f71a07bf6", "is_disabled": 0, "rental_uris": {"android": "https://dc.lft.to/lastmile_qr_scan", "ios": "https://dc.lft.to/lastmile_qr_scan"}, "fusion_lon": 0.0, "lat": 38.88327616666667, "bike_id": "21e70b94197f7c24ccee5a9f71a07bf6", "type": "electric_scooter", "is_reserved": 0, "lon": -77.018244}, {"fusion_lat": 0.0, "name": "8ded10b359f2b44c0e068f01b2401d85", "is_disabled": 0, "rental_uris": {"android": "https://dc.lft.to/lastmile_qr_scan", "ios": "https://dc.lft.to/lastmile_qr_scan"}, "fusion_lon": 0.0, "lat": 38.9181385, "bike_id": "8ded10b359f2b44c0e068f01b2401d85", "type": "electric_scooter", "is_reserved": 0, "lon": -77.02475216666667}, {"fusion_lat": 0.0, "name": "be09072d3a5d6840cd0ca14fec71e58f", "is_disabled": 0, "rental_uris": {"android": "https://dc.lft.to/lastmile_qr_scan", "ios": "https://dc.lft.to/lastmile_qr_scan"}, "fusion_lon": 0.0, "lat": 38.91326333333333, "bike_id": "be09072d3a5d6840cd0ca14fec71e58f", "type": "electric_scooter", "is_reserved": 0, "lon": -77.03181383333333}, {"fusion_lat": 0.0, "name": "2424b846677b167b05fb57709111be4d", "is_disabled": 0, "rental_uris": {"android": "https://dc.lft.to/lastmile_qr_scan", "ios": "https://dc.lft.to/lastmile_qr_scan"}, "fusion_lon": 0.0, "lat": 38.89777866666667, "bike_id": "2424b846677b167b05fb57709111be4d", "type": "electric_scooter", "is_reserved": 0, "lon": -77.03368166666667}, {"fusion_lat": 0.0, "name": "434c220d159a94f2d78bcc5731c64fb0", "is_disabled": 0, "rental_uris": {"android": "https://dc.lft.to/lastmile_qr_scan", "ios": "https://dc.lft.to/lastmile_qr_scan"}, "fusion_lon": 0.0, "lat": 38.905745333333336, "bike_id": "434c220d159a94f2d78bcc5731c64fb0", "type": "electric_scooter", "is_reserved": 0, "lon": -77.03855033333333}, {"fusion_lat": 0.0, "name": "2c8e74b5fa00f79155e14b6c849b49fd", "is_disabled": 0, "rental_uris": {"android": "https://dc.lft.to/lastmile_qr_scan", "ios": "https://dc.lft.to/lastmile_qr_scan"}, "fusion_lon": 0.0, "lat": 38.9159965, "bike_id": "2c8e74b5fa00f79155e14b6c849b49fd", "type": "electric_scooter", "is_reserved": 0, "lon": -77.032094}, {"fusion_lat": 0.0, "name": "88104e466e56c7d97743cc60079de79c", "is_disabled": 0, "rental_uris": {"android": "https://dc.lft.to/lastmile_qr_scan", "ios": "https://dc.lft.to/lastmile_qr_scan"}, "fusion_lon": 0.0, "lat": 38.91549166666667, "bike_id": "88104e466e56c7d97743cc60079de79c", "type": "electric_scooter", "is_reserved": 0, "lon": -77.01204333333334}, {"fusion_lat": 0.0, "name": "b4f52e4d43a0b0d5f3b8b0bcdfb36d0b", "is_disabled": 0, "rental_uris": {"android": "https://dc.lft.to/lastmile_qr_scan", "ios": "https://dc.lft.to/lastmile_qr_scan"}, "fusion_lon": 0.0, "lat": 38.873909, "bike_id": "b4f52e4d43a0b0d5f3b8b0bcdfb36d0b", "type": "electric_scooter", "is_reserved": 0, "lon": -76.99991383333334}, {"fusion_lat": 0.0, "name": "36d12c85929f9eca9f7ad6b7865d4ad7", "is_disabled": 0, "rental_uris": {"android": "https://dc.lft.to/lastmile_qr_scan", "ios": "https://dc.lft.to/lastmile_qr_scan"}, "fusion_lon": 0.0, "lat": 38.917047333333336, "bike_id": "36d12c85929f9eca9f7ad6b7865d4ad7", "type": "electric_scooter", "is_reserved": 0, "lon": -77.02894083333334}, {"fusion_lat": 0.0, "name": "31c95a7053fcb27ed07ee65612950531", "is_disabled": 0, "rental_uris": {"android": "https://dc.lft.to/lastmile_qr_scan", "ios": "https://dc.lft.to/lastmile_qr_scan"}, "fusion_lon": 0.0, "lat": 38.927476666666664, "bike_id": "31c95a7053fcb27ed07ee65612950531", "type": "electric_scooter", "is_reserved": 0, "lon": -77.024329}, {"fusion_lat": 0.0, "name": "08389259e8039490685700c4e83f1c6b", "is_disabled": 0, "rental_uris": {"android": "https://dc.lft.to/lastmile_qr_scan", "ios": "https://dc.lft.to/lastmile_qr_scan"}, "fusion_lon": 0.0, "lat": 39.05253533333333, "bike_id": "08389259e8039490685700c4e83f1c6b", "type": "electric_bike", "is_reserved": 0, "lon": -77.08063616666666}, {"fusion_lat": 0.0, "name": "e1e59b59617469698fcb5cc3ea9070a6", "is_disabled": 0, "rental_uris": {"android": "https://dc.lft.to/lastmile_qr_scan", "ios": "https://dc.lft.to/lastmile_qr_scan"}, "fusion_lon": 0.0, "lat": 38.899308, "bike_id": "e1e59b59617469698fcb5cc3ea9070a6", "type": "electric_scooter", "is_reserved": 0, "lon": -77.00351966666666}, {"fusion_lat": 0.0, "name": "4b81f88e2215f00f0e34d77406dc3f36", "is_disabled": 0, "rental_uris": {"android": "https://dc.lft.to/lastmile_qr_scan", "ios": "https://dc.lft.to/lastmile_qr_scan"}, "fusion_lon": 0.0, "lat": 38.883264, "bike_id": "4b81f88e2215f00f0e34d77406dc3f36", "type": "electric_scooter", "is_reserved": 0, "lon": -77.01756733333333}, {"fusion_lat": 0.0, "name": "389e016482c43e8b2b750588ce361d15", "is_disabled": 0, "rental_uris": {"android": "https://dc.lft.to/lastmile_qr_scan", "ios": "https://dc.lft.to/lastmile_qr_scan"}, "fusion_lon": 0.0, "lat": 38.8962165, "bike_id": "389e016482c43e8b2b750588ce361d15", "type": "electric_scooter", "is_reserved": 0, "lon": -77.00922616666666}, {"fusion_lat": 0.0, "name": "03398c5d225413b74950d87d57ebb699", "is_disabled": 0, "rental_uris": {"android": "https://dc.lft.to/lastmile_qr_scan", "ios": "https://dc.lft.to/lastmile_qr_scan"}, "fusion_lon": 0.0, "lat": 38.93534416666667, "bike_id": "03398c5d225413b74950d87d57ebb699", "type": "electric_scooter", "is_reserved": 0, "lon": -77.07269316666667}, {"fusion_lat": 0.0, "name": "eac831204362d4740b3baecd77ad4133", "is_disabled": 0, "rental_uris": {"android": "https://dc.lft.to/lastmile_qr_scan", "ios": "https://dc.lft.to/lastmile_qr_scan"}, "fusion_lon": 0.0, "lat": 38.89873133333333, "bike_id": "eac831204362d4740b3baecd77ad4133", "type": "electric_scooter", "is_reserved": 0, "lon": -76.9318445}, {"fusion_lat": 0.0, "name": "a400fcc7e754dc9c01e0fd0341ad0129", "is_disabled": 0, "rental_uris": {"android": "https://dc.lft.to/lastmile_qr_scan", "ios": "https://dc.lft.to/lastmile_qr_scan"}, "fusion_lon": 0.0, "lat": 38.86243366666667, "bike_id": "a400fcc7e754dc9c01e0fd0341ad0129", "type": "electric_scooter", "is_reserved": 0, "lon": -76.99496133333334}, {"fusion_lat": 0.0, "name": "f126a6c99b7bcac3d65376504e9f24c0", "is_disabled": 0, "rental_uris": {"android": "https://dc.lft.to/lastmile_qr_scan", "ios": "https://dc.lft.to/lastmile_qr_scan"}, "fusion_lon": 0.0, "lat": 38.88346833333333, "bike_id": "f126a6c99b7bcac3d65376504e9f24c0", "type": "electric_scooter", "is_reserved": 0, "lon": -77.01740066666666}, {"fusion_lat": 0.0, "name": "fc17b221897aab3df0795f574e2b20c0", "is_disabled": 0, "rental_uris": {"android": "https://dc.lft.to/lastmile_qr_scan", "ios": "https://dc.lft.to/lastmile_qr_scan"}, "fusion_lon": 0.0, "lat": 38.90013483333333, "bike_id": "fc17b221897aab3df0795f574e2b20c0", "type": "electric_scooter", "is_reserved": 0, "lon": -77.0330975}, {"fusion_lat": 0.0, "name": "0bb0d5ff967f4b91d72ece09029bca43", "is_disabled": 0, "rental_uris": {"android": "https://dc.lft.to/lastmile_qr_scan", "ios": "https://dc.lft.to/lastmile_qr_scan"}, "fusion_lon": 0.0, "lat": 38.89816316666667, "bike_id": "0bb0d5ff967f4b91d72ece09029bca43", "type": "electric_scooter", "is_reserved": 0, "lon": -77.04669033333333}, {"fusion_lat": 0.0, "name": "081c11914dfa169148b85c5d54946096", "is_disabled": 0, "rental_uris": {"android": "https://dc.lft.to/lastmile_qr_scan", "ios": "https://dc.lft.to/lastmile_qr_scan"}, "fusion_lon": 0.0, "lat": 38.89874666666667, "bike_id": "081c11914dfa169148b85c5d54946096", "type": "electric_scooter", "is_reserved": 0, "lon": -76.93183816666667}, {"fusion_lat": 0.0, "name": "41bd270e1a069452d982488fe0c0e291", "is_disabled": 0, "rental_uris": {"android": "https://dc.lft.to/lastmile_qr_scan", "ios": "https://dc.lft.to/lastmile_qr_scan"}, "fusion_lon": 0.0, "lat": 38.917254666666665, "bike_id": "41bd270e1a069452d982488fe0c0e291", "type": "electric_scooter", "is_reserved": 0, "lon": -77.0415855}, {"fusion_lat": 0.0, "name": "89a87e06640547cbdaafab881e73ce43", "is_disabled": 0, "rental_uris": {"android": "https://dc.lft.to/lastmile_qr_scan", "ios": "https://dc.lft.to/lastmile_qr_scan"}, "fusion_lon": 0.0, "lat": 38.896086, "bike_id": "89a87e06640547cbdaafab881e73ce43", "type": "electric_scooter", "is_reserved": 0, "lon": -77.00927216666666}, {"fusion_lat": 0.0, "name": "9ca4cac15a3a5d41e02d2a5d1a2662ba", "is_disabled": 0, "rental_uris": {"android": "https://dc.lft.to/lastmile_qr_scan", "ios": "https://dc.lft.to/lastmile_qr_scan"}, "fusion_lon": 0.0, "lat": 38.90026566666667, "bike_id": "9ca4cac15a3a5d41e02d2a5d1a2662ba", "type": "electric_scooter", "is_reserved": 0, "lon": -77.03626633333333}, {"fusion_lat": 0.0, "name": "97a3d07fa821f228cacc907d40661b89", "is_disabled": 0, "rental_uris": {"android": "https://dc.lft.to/lastmile_qr_scan", "ios": "https://dc.lft.to/lastmile_qr_scan"}, "fusion_lon": 0.0, "lat": 38.907610166666664, "bike_id": "97a3d07fa821f228cacc907d40661b89", "type": "electric_scooter", "is_reserved": 0, "lon": -77.03187416666667}, {"fusion_lat": 0.0, "name": "b2452ca933b495fdc07515273afa6af7", "is_disabled": 0, "rental_uris": {"android": "https://dc.lft.to/lastmile_qr_scan", "ios": "https://dc.lft.to/lastmile_qr_scan"}, "fusion_lon": 0.0, "lat": 38.92400933333333, "bike_id": "b2452ca933b495fdc07515273afa6af7", "type": "electric_scooter", "is_reserved": 0, "lon": -77.02485483333334}, {"fusion_lat": 0.0, "name": "7dcafd728695203b8be2c70efc577ca1", "is_disabled": 0, "rental_uris": {"android": "https://dc.lft.to/lastmile_qr_scan", "ios": "https://dc.lft.to/lastmile_qr_scan"}, "fusion_lon": 0.0, "lat": 38.877098833333335, "bike_id": "7dcafd728695203b8be2c70efc577ca1", "type": "electric_scooter", "is_reserved": 0, "lon": -76.99385783333334}, {"fusion_lat": 0.0, "name": "ab99d40d76e291c50d7e1927f73de01a", "is_disabled": 0, "rental_uris": {"android": "https://dc.lft.to/lastmile_qr_scan", "ios": "https://dc.lft.to/lastmile_qr_scan"}, "fusion_lon": 0.0, "lat": 38.886153666666665, "bike_id": "ab99d40d76e291c50d7e1927f73de01a", "type": "electric_scooter", "is_reserved": 0, "lon": -77.01554783333333}, {"fusion_lat": 0.0, "name": "3fa46574db6c9f33eb257845bbc0dec4", "is_disabled": 0, "rental_uris": {"android": "https://dc.lft.to/lastmile_qr_scan", "ios": "https://dc.lft.to/lastmile_qr_scan"}, "fusion_lon": 0.0, "lat": 38.9237445, "bike_id": "3fa46574db6c9f33eb257845bbc0dec4", "type": "electric_scooter", "is_reserved": 0, "lon": -77.021381}, {"fusion_lat": 0.0, "name": "67f96834656c0118f7c81f9e17b1eed4", "is_disabled": 0, "rental_uris": {"android": "https://dc.lft.to/lastmile_qr_scan", "ios": "https://dc.lft.to/lastmile_qr_scan"}, "fusion_lon": 0.0, "lat": 38.913043333333334, "bike_id": "67f96834656c0118f7c81f9e17b1eed4", "type": "electric_scooter", "is_reserved": 0, "lon": -77.02147533333333}, {"fusion_lat": 0.0, "name": "8fb4548dbd9d411396e96af51f0c472e", "is_disabled": 0, "rental_uris": {"android": "https://dc.lft.to/lastmile_qr_scan", "ios": "https://dc.lft.to/lastmile_qr_scan"}, "fusion_lon": 0.0, "lat": 38.883281833333335, "bike_id": "8fb4548dbd9d411396e96af51f0c472e", "type": "electric_scooter", "is_reserved": 0, "lon": -77.0165995}, {"fusion_lat": 0.0, "name": "6b619d5961f2140e91590cf089076139", "is_disabled": 0, "rental_uris": {"android": "https://dc.lft.to/lastmile_qr_scan", "ios": "https://dc.lft.to/lastmile_qr_scan"}, "fusion_lon": 0.0, "lat": 38.92330033333333, "bike_id": "6b619d5961f2140e91590cf089076139", "type": "electric_scooter", "is_reserved": 0, "lon": -77.04291266666667}, {"fusion_lat": 0.0, "name": "e09487f15ba79b0738e519f6bed958f3", "is_disabled": 0, "rental_uris": {"android": "https://dc.lft.to/lastmile_qr_scan", "ios": "https://dc.lft.to/lastmile_qr_scan"}, "fusion_lon": 0.0, "lat": 38.89624216666667, "bike_id": "e09487f15ba79b0738e519f6bed958f3", "type": "electric_scooter", "is_reserved": 0, "lon": -77.032087}, {"fusion_lat": 0.0, "name": "9e6a81c5368ba18b64b03a7744c6779b", "is_disabled": 0, "rental_uris": {"android": "https://dc.lft.to/lastmile_qr_scan", "ios": "https://dc.lft.to/lastmile_qr_scan"}, "fusion_lon": 0.0, "lat": 38.90571516666667, "bike_id": "9e6a81c5368ba18b64b03a7744c6779b", "type": "electric_scooter", "is_reserved": 0, "lon": -77.02221366666667}, {"fusion_lat": 0.0, "name": "8e5cbad238f77e9a6e2ce80b441f7e41", "is_disabled": 0, "rental_uris": {"android": "https://dc.lft.to/lastmile_qr_scan", "ios": "https://dc.lft.to/lastmile_qr_scan"}, "fusion_lon": 0.0, "lat": 38.920682166666666, "bike_id": "8e5cbad238f77e9a6e2ce80b441f7e41", "type": "electric_scooter", "is_reserved": 0, "lon": -77.02415466666666}, {"fusion_lat": 0.0, "name": "bcc37130e6dab1d39d13b6bb445cd618", "is_disabled": 0, "rental_uris": {"android": "https://dc.lft.to/lastmile_qr_scan", "ios": "https://dc.lft.to/lastmile_qr_scan"}, "fusion_lon": 0.0, "lat": 38.896113666666665, "bike_id": "bcc37130e6dab1d39d13b6bb445cd618", "type": "electric_scooter", "is_reserved": 0, "lon": -77.00929983333333}, {"fusion_lat": 0.0, "name": "be4aef817b9ce94f34b6efb1ffb8aa00", "is_disabled": 0, "rental_uris": {"android": "https://dc.lft.to/lastmile_qr_scan", "ios": "https://dc.lft.to/lastmile_qr_scan"}, "fusion_lon": 0.0, "lat": 38.97346433333333, "bike_id": "be4aef817b9ce94f34b6efb1ffb8aa00", "type": "electric_bike", "is_reserved": 0, "lon": -77.01794383333333}, {"fusion_lat": 0.0, "name": "77e0ed775311d795be3cf13c346f19b4", "is_disabled": 0, "rental_uris": {"android": "https://dc.lft.to/lastmile_qr_scan", "ios": "https://dc.lft.to/lastmile_qr_scan"}, "fusion_lon": 0.0, "lat": 38.88495133333333, "bike_id": "77e0ed775311d795be3cf13c346f19b4", "type": "electric_scooter", "is_reserved": 0, "lon": -77.010843}, {"fusion_lat": 0.0, "name": "79ec9f395a9df2a371dea9ae70ad113a", "is_disabled": 0, "rental_uris": {"android": "https://dc.lft.to/lastmile_qr_scan", "ios": "https://dc.lft.to/lastmile_qr_scan"}, "fusion_lon": 0.0, "lat": 38.89221833333333, "bike_id": "79ec9f395a9df2a371dea9ae70ad113a", "type": "electric_scooter", "is_reserved": 0, "lon": -77.014598}, {"fusion_lat": 0.0, "name": "e6a64fd76c7257413478670393a4e648", "is_disabled": 0, "rental_uris": {"android": "https://dc.lft.to/lastmile_qr_scan", "ios": "https://dc.lft.to/lastmile_qr_scan"}, "fusion_lon": 0.0, "lat": 38.91804416666667, "bike_id": "e6a64fd76c7257413478670393a4e648", "type": "electric_scooter", "is_reserved": 0, "lon": -77.03660416666666}, {"fusion_lat": 0.0, "name": "7f09030a8e0769342aca52ff54a59cd0", "is_disabled": 0, "rental_uris": {"android": "https://dc.lft.to/lastmile_qr_scan", "ios": "https://dc.lft.to/lastmile_qr_scan"}, "fusion_lon": 0.0, "lat": 38.915650166666666, "bike_id": "7f09030a8e0769342aca52ff54a59cd0", "type": "electric_scooter", "is_reserved": 0, "lon": -77.03154416666666}, {"fusion_lat": 0.0, "name": "ab2cdc188a027527cb889f8076194d59", "is_disabled": 0, "rental_uris": {"android": "https://dc.lft.to/lastmile_qr_scan", "ios": "https://dc.lft.to/lastmile_qr_scan"}, "fusion_lon": 0.0, "lat": 38.93946583333334, "bike_id": "ab2cdc188a027527cb889f8076194d59", "type": "electric_scooter", "is_reserved": 0, "lon": -77.033198}, {"fusion_lat": 0.0, "name": "b41903a36bc1e9aed90e7cc539fabee2", "is_disabled": 0, "rental_uris": {"android": "https://dc.lft.to/lastmile_qr_scan", "ios": "https://dc.lft.to/lastmile_qr_scan"}, "fusion_lon": 0.0, "lat": 38.90932883333333, "bike_id": "b41903a36bc1e9aed90e7cc539fabee2", "type": "electric_scooter", "is_reserved": 0, "lon": -77.02129483333333}, {"fusion_lat": 0.0, "name": "aa66c97fe79fc430463608f94ad4847f", "is_disabled": 0, "rental_uris": {"android": "https://dc.lft.to/lastmile_qr_scan", "ios": "https://dc.lft.to/lastmile_qr_scan"}, "fusion_lon": 0.0, "lat": 38.92252216666667, "bike_id": "aa66c97fe79fc430463608f94ad4847f", "type": "electric_scooter", "is_reserved": 0, "lon": -77.019513}, {"fusion_lat": 0.0, "name": "66cd6754c4a42756d9aa77901e7e5030", "is_disabled": 0, "rental_uris": {"android": "https://dc.lft.to/lastmile_qr_scan", "ios": "https://dc.lft.to/lastmile_qr_scan"}, "fusion_lon": 0.0, "lat": 38.87528616666667, "bike_id": "66cd6754c4a42756d9aa77901e7e5030", "type": "electric_scooter", "is_reserved": 0, "lon": -77.00069216666667}, {"fusion_lat": 0.0, "name": "88b811651d570c84e09b882e278203ef", "is_disabled": 0, "rental_uris": {"android": "https://dc.lft.to/lastmile_qr_scan", "ios": "https://dc.lft.to/lastmile_qr_scan"}, "fusion_lon": 0.0, "lat": 38.90568316666667, "bike_id": "88b811651d570c84e09b882e278203ef", "type": "electric_scooter", "is_reserved": 0, "lon": -77.02214566666666}, {"fusion_lat": 0.0, "name": "b991d0bfc022e0308891ba69fe929d6b", "is_disabled": 0, "rental_uris": {"android": "https://dc.lft.to/lastmile_qr_scan", "ios": "https://dc.lft.to/lastmile_qr_scan"}, "fusion_lon": 0.0, "lat": 38.8763445, "bike_id": "b991d0bfc022e0308891ba69fe929d6b", "type": "electric_scooter", "is_reserved": 0, "lon": -77.015379}, {"fusion_lat": 0.0, "name": "52b797c8c185c0714b9e9d6406442f85", "is_disabled": 0, "rental_uris": {"android": "https://dc.lft.to/lastmile_qr_scan", "ios": "https://dc.lft.to/lastmile_qr_scan"}, "fusion_lon": 0.0, "lat": 38.889877, "bike_id": "52b797c8c185c0714b9e9d6406442f85", "type": "electric_scooter", "is_reserved": 0, "lon": -76.9873115}, {"fusion_lat": 0.0, "name": "37813cb1a550756f2f1a80a9cf7ccabf", "is_disabled": 0, "rental_uris": {"android": "https://dc.lft.to/lastmile_qr_scan", "ios": "https://dc.lft.to/lastmile_qr_scan"}, "fusion_lon": 0.0, "lat": 38.93937666666667, "bike_id": "37813cb1a550756f2f1a80a9cf7ccabf", "type": "electric_bike", "is_reserved": 0, "lon": -76.94005683333333}, {"fusion_lat": 0.0, "name": "02958d51a8f66d44e826d1ccd5abe3d6", "is_disabled": 0, "rental_uris": {"android": "https://dc.lft.to/lastmile_qr_scan", "ios": "https://dc.lft.to/lastmile_qr_scan"}, "fusion_lon": 0.0, "lat": 38.87176633333333, "bike_id": "02958d51a8f66d44e826d1ccd5abe3d6", "type": "electric_scooter", "is_reserved": 0, "lon": -77.00614983333334}, {"fusion_lat": 0.0, "name": "795d18bc4c03d03a1ec87502edd4a9e8", "is_disabled": 0, "rental_uris": {"android": "https://dc.lft.to/lastmile_qr_scan", "ios": "https://dc.lft.to/lastmile_qr_scan"}, "fusion_lon": 0.0, "lat": 38.927004833333335, "bike_id": "795d18bc4c03d03a1ec87502edd4a9e8", "type": "electric_scooter", "is_reserved": 0, "lon": -77.02068366666667}, {"fusion_lat": 0.0, "name": "07c739b49a6214f5e2391b91f57c3204", "is_disabled": 0, "rental_uris": {"android": "https://dc.lft.to/lastmile_qr_scan", "ios": "https://dc.lft.to/lastmile_qr_scan"}, "fusion_lon": 0.0, "lat": 38.91529233333333, "bike_id": "07c739b49a6214f5e2391b91f57c3204", "type": "electric_scooter", "is_reserved": 0, "lon": -77.0727415}, {"fusion_lat": 0.0, "name": "c1ba1dda27caf5db68954d4fcd4ba18d", "is_disabled": 0, "rental_uris": {"android": "https://dc.lft.to/lastmile_qr_scan", "ios": "https://dc.lft.to/lastmile_qr_scan"}, "fusion_lon": 0.0, "lat": 38.8988245, "bike_id": "c1ba1dda27caf5db68954d4fcd4ba18d", "type": "electric_scooter", "is_reserved": 0, "lon": -77.04025766666666}, {"fusion_lat": 0.0, "name": "2a1c9480ea73dc7733d923c1b04e28a5", "is_disabled": 0, "rental_uris": {"android": "https://dc.lft.to/lastmile_qr_scan", "ios": "https://dc.lft.to/lastmile_qr_scan"}, "fusion_lon": 0.0, "lat": 38.92346283333333, "bike_id": "2a1c9480ea73dc7733d923c1b04e28a5", "type": "electric_scooter", "is_reserved": 0, "lon": -77.02016333333333}, {"fusion_lat": 0.0, "name": "5832a76ab65a5e2cd36999017241f2a0", "is_disabled": 0, "rental_uris": {"android": "https://dc.lft.to/lastmile_qr_scan", "ios": "https://dc.lft.to/lastmile_qr_scan"}, "fusion_lon": 0.0, "lat": 38.908058, "bike_id": "5832a76ab65a5e2cd36999017241f2a0", "type": "electric_scooter", "is_reserved": 0, "lon": -76.9969645}, {"fusion_lat": 0.0, "name": "cc9ffc99d7a9e1d8c442503e4f50f935", "is_disabled": 0, "rental_uris": {"android": "https://dc.lft.to/lastmile_qr_scan", "ios": "https://dc.lft.to/lastmile_qr_scan"}, "fusion_lon": 0.0, "lat": 38.913518333333336, "bike_id": "cc9ffc99d7a9e1d8c442503e4f50f935", "type": "electric_scooter", "is_reserved": 0, "lon": -77.0435285}, {"fusion_lat": 0.0, "name": "f240d414953b99cb8c3bcaead22fb9b5", "is_disabled": 0, "rental_uris": {"android": "https://dc.lft.to/lastmile_qr_scan", "ios": "https://dc.lft.to/lastmile_qr_scan"}, "fusion_lon": 0.0, "lat": 38.902738666666664, "bike_id": "f240d414953b99cb8c3bcaead22fb9b5", "type": "electric_scooter", "is_reserved": 0, "lon": -76.97670683333334}, {"fusion_lat": 0.0, "name": "db2cdb049af89a9f867a7ca4266d21da", "is_disabled": 0, "rental_uris": {"android": "https://dc.lft.to/lastmile_qr_scan", "ios": "https://dc.lft.to/lastmile_qr_scan"},