{"data": {"bikes": [{"is_disabled": 0, "fusion_lat": 0.0, "lat": 38.864162666666665, "type": "electric_scooter", "lon": -77.01339583333333, "is_reserved": 0, "fusion_lon": 0.0, "bike_id": "12ee17196507b6641d2e747f4018cd60", "name": "12ee17196507b6641d2e747f4018cd60", "rental_uris": {"ios": "https://dc.lft.to/lastmile_qr_scan", "android": "https://dc.lft.to/lastmile_qr_scan"}}, {"is_disabled": 0, "fusion_lat": 0.0, "lat": 38.90180433333333, "type": "electric_scooter", "lon": -76.9999835, "is_reserved": 0, "fusion_lon": 0.0, "bike_id": "7da2b34de30c56b2b7c2ac2466d4fafb", "name": "7da2b34de30c56b2b7c2ac2466d4fafb", "rental_uris": {"ios": "https://dc.lft.to/lastmile_qr_scan", "android": "https://dc.lft.to/lastmile_qr_scan"}}, {"is_disabled": 0, "fusion_lat": 0.0, "lat": 38.88440116666666, "type": "electric_scooter", "lon": -77.03041883333333, "is_reserved": 0, "fusion_lon": 0.0, "bike_id": "23937abad717e3966e2253fe58111843", "name": "23937abad717e3966e2253fe58111843", "rental_uris": {"ios": "https://dc.lft.to/lastmile_qr_scan", "android": "https://dc.lft.to/lastmile_qr_scan"}}, {"is_disabled": 0, "fusion_lat": 0.0, "lat": 38.89471733333333, "type": "electric_scooter", "lon": -77.00061883333333, "is_reserved": 0, "fusion_lon": 0.0, "bike_id": "b95d5e305e015124a94f35bd3b6bb538", "name": "b95d5e305e015124a94f35bd3b6bb538", "rental_uris": {"ios": "https://dc.lft.to/lastmile_qr_scan", "android": "https://dc.lft.to/lastmile_qr_scan"}}, {"is_disabled": 0, "fusion_lat": 0.0, "lat": 38.90019183333333, "type": "electric_scooter", "lon": -76.98679883333334, "is_reserved": 0, "fusion_lon": 0.0, "bike_id": "63ba32c3ed875174469769e39abfa555", "name": "63ba32c3ed875174469769e39abfa555", "rental_uris": {"ios": "https://dc.lft.to/lastmile_qr_scan", "android": "https://dc.lft.to/lastmile_qr_scan"}}, {"is_disabled": 0, "fusion_lat": 0.0, "lat": 38.90303383333333, "type": "electric_scooter", "lon": -77.0344615, "is_reserved": 0, "fusion_lon": 0.0, "bike_id": "771715d5bed03d4e39b30d2acf793bfc", "name": "771715d5bed03d4e39b30d2acf793bfc", "rental_uris": {"ios": "https://dc.lft.to/lastmile_qr_scan", "android": "https://dc.lft.to/lastmile_qr_scan"}}, {"is_disabled": 0, "fusion_lat": 0.0, "lat": 38.92581933333334, "type": "electric_scooter", "lon": -77.057615, "is_reserved": 0, "fusion_lon": 0.0, "bike_id": "f53111c63c9aad6ea02b4bbc3fe35ddc", "name": "f53111c63c9aad6ea02b4bbc3fe35ddc", "rental_uris": {"ios": "https://dc.lft.to/lastmile_qr_scan", "android": "https://dc.lft.to/lastmile_qr_scan"}}, {"is_disabled": 0, "fusion_lat": 0.0, "lat": 38.9191725, "type": "electric_scooter", "lon": -77.0334325, "is_reserved": 0, "fusion_lon": 0.0, "bike_id": "8783b479d520362f383d825e487c42e6", "name": "8783b479d520362f383d825e487c42e6", "rental_uris": {"ios": "https://dc.lft.to/lastmile_qr_scan", "android": "https://dc.lft.to/lastmile_qr_scan"}}, {"is_disabled": 0, "fusion_lat": 0.0, "lat": 38.92370016666667, "type": "electric_scooter", "lon": -77.05753166666666, "is_reserved": 0, "fusion_lon": 0.0, "bike_id": "360d2b24c3fdc7e86e0232fc16a40247", "name": "360d2b24c3fdc7e86e0232fc16a40247", "rental_uris": {"ios": "https://dc.lft.to/lastmile_qr_scan", "android": "https://dc.lft.to/lastmile_qr_scan"}}, {"is_disabled": 0, "fusion_lat": 0.0, "lat": 38.91403733333333, "type": "electric_scooter", "lon": -77.03265866666666, "is_reserved": 0, "fusion_lon": 0.0, "bike_id": "a15e6141f330c706bcc261db26b12bd5", "name": "a15e6141f330c706bcc261db26b12bd5", "rental_uris": {"ios": "https://dc.lft.to/lastmile_qr_scan", "android": "https://dc.lft.to/lastmile_qr_scan"}}, {"is_disabled": 0, "fusion_lat": 0.0, "lat": 38.930869666666666, "type": "electric_scooter", "lon": -76.96709666666666, "is_reserved": 0, "fusion_lon": 0.0, "bike_id": "9aeacee6c26029f94fda7dc02b6f3428", "name": "9aeacee6c26029f94fda7dc02b6f3428", "rental_uris": {"ios": "https://dc.lft.to/lastmile_qr_scan", "android": "https://dc.lft.to/lastmile_qr_scan"}}, {"is_disabled": 0, "fusion_lat": 0.0, "lat": 38.87465183333333, "type": "electric_scooter", "lon": -77.00488283333334, "is_reserved": 0, "fusion_lon": 0.0, "bike_id": "70ae9fba27e896fd425df54005a0b004", "name": "70ae9fba27e896fd425df54005a0b004", "rental_uris": {"ios": "https://dc.lft.to/lastmile_qr_scan", "android": "https://dc.lft.to/lastmile_qr_scan"}}, {"is_disabled": 0, "fusion_lat": 0.0, "lat": 38.917995, "type": "electric_scooter", "lon": -77.0335715, "is_reserved": 0, "fusion_lon": 0.0, "bike_id": "e7eec06659a113249866d20f3d451e70", "name": "e7eec06659a113249866d20f3d451e70", "rental_uris": {"ios": "https://dc.lft.to/lastmile_qr_scan", "android": "https://dc.lft.to/lastmile_qr_scan"}}, {"is_disabled": 0, "fusion_lat": 0.0, "lat": 38.9076675, "type": "electric_scooter", "lon": -77.06912216666667, "is_reserved": 0, "fusion_lon": 0.0, "bike_id": "cb4ade33b37f34d0be260e87f57950b8", "name": "cb4ade33b37f34d0be260e87f57950b8", "rental_uris": {"ios": "https://dc.lft.to/lastmile_qr_scan", "android": "https://dc.lft.to/lastmile_qr_scan"}}, {"is_disabled": 0, "fusion_lat": 0.0, "lat": 39.03042766666667, "type": "electric_bike", "lon": -77.094671, "is_reserved": 0, "fusion_lon": 0.0, "bike_id": "f58c95140d141511b93f1878483be0e4", "name": "f58c95140d141511b93f1878483be0e4", "rental_uris": {"ios": "https://dc.lft.to/lastmile_qr_scan", "android": "https://dc.lft.to/lastmile_qr_scan"}}, {"is_disabled": 0, "fusion_lat": 0.0, "lat": 38.921837833333335, "type": "electric_scooter", "lon": -77.018282, "is_reserved": 0, "fusion_lon": 0.0, "bike_id": "37bc7ad61d036baf8db9aafa2450d232", "name": "37bc7ad61d036baf8db9aafa2450d232", "rental_uris": {"ios": "https://dc.lft.to/lastmile_qr_scan", "android": "https://dc.lft.to/lastmile_qr_scan"}}, {"is_disabled": 0, "fusion_lat": 0.0, "lat": 38.915806, "type": "electric_scooter", "lon": -77.03175616666667, "is_reserved": 0, "fusion_lon": 0.0, "bike_id": "202f32b43a0207fed4469a9da4297aef", "name": "202f32b43a0207fed4469a9da4297aef", "rental_uris": {"ios": "https://dc.lft.to/lastmile_qr_scan", "android": "https://dc.lft.to/lastmile_qr_scan"}}, {"is_disabled": 0, "fusion_lat": 0.0, "lat": 38.936209, "type": "electric_scooter", "lon": -77.0321615, "is_reserved": 0, "fusion_lon": 0.0, "bike_id": "d9f7eb0011559c3eee39b03f1914f5e4", "name": "d9f7eb0011559c3eee39b03f1914f5e4", "rental_uris": {"ios": "https://dc.lft.to/lastmile_qr_scan", "android": "https://dc.lft.to/lastmile_qr_scan"}}, {"is_disabled": 0, "fusion_lat": 0.0, "lat": 39.024282, "type": "electric_bike", "lon": -77.1310015, "is_reserved": 0, "fusion_lon": 0.0, "bike_id": "b417428285bea4dd7ec071ad696cfa9e", "name": "b417428285bea4dd7ec071ad696cfa9e", "rental_uris": {"ios": "https://dc.lft.to/lastmile_qr_scan", "android": "https://dc.lft.to/lastmile_qr_scan"}}, {"is_disabled": 0, "fusion_lat": 0.0, "lat": 38.918256, "type": "electric_scooter", "lon": -77.03837833333333, "is_reserved": 0, "fusion_lon": 0.0, "bike_id": "95c312a8389c2d661df7fcef2cc7cc0d", "name": "95c312a8389c2d661df7fcef2cc7cc0d", "rental_uris": {"ios": "https://dc.lft.to/lastmile_qr_scan", "android": "https://dc.lft.to/lastmile_qr_scan"}}, {"is_disabled": 0, "fusion_lat": 0.0, "lat": 38.89392633333333, "type": "electric_scooter", "lon": -76.998657, "is_reserved": 0, "fusion_lon": 0.0, "bike_id": "b337bef9c26f3fda6194d2f7fcf3fe98", "name": "b337bef9c26f3fda6194d2f7fcf3fe98", "rental_uris": {"ios": "https://dc.lft.to/lastmile_qr_scan", "android": "https://dc.lft.to/lastmile_qr_scan"}}, {"is_disabled": 0, "fusion_lat": 0.0, "lat": 39.000122833333336, "type": "electric_bike", "lon": -76.91048316666667, "is_reserved": 0, "fusion_lon": 0.0, "bike_id": "30a156663ebdf9d73a24f424a2101499", "name": "30a156663ebdf9d73a24f424a2101499", "rental_uris": {"ios": "https://dc.lft.to/lastmile_qr_scan", "android": "https://dc.lft.to/lastmile_qr_scan"}}, {"is_disabled": 0, "fusion_lat": 0.0, "lat": 38.928266, "type": "electric_scooter", "lon": -77.0225715, "is_reserved": 0, "fusion_lon": 0.0, "bike_id": "1587e053d50b0ca88b9009d35436199d", "name": "1587e053d50b0ca88b9009d35436199d", "rental_uris": {"ios": "https://dc.lft.to/lastmile_qr_scan", "android": "https://dc.lft.to/lastmile_qr_scan"}}, {"is_disabled": 0, "fusion_lat": 0.0, "lat": 38.899669333333335, "type": "electric_scooter", "lon": -77.02113866666667, "is_reserved": 0, "fusion_lon": 0.0, "bike_id": "c2ddac0bb204eeb0c2d1036845925783", "name": "c2ddac0bb204eeb0c2d1036845925783", "rental_uris": {"ios": "https://dc.lft.to/lastmile_qr_scan", "android": "https://dc.lft.to/lastmile_qr_scan"}}, {"is_disabled": 0, "fusion_lat": 0.0, "lat": 38.88546616666667, "type": "electric_bike", "lon": -77.11784616666667, "is_reserved": 0, "fusion_lon": 0.0, "bike_id": "3a45ec3f0649a13af506cf1fc3ca1524", "name": "3a45ec3f0649a13af506cf1fc3ca1524", "rental_uris": {"ios": "https://dc.lft.to/lastmile_qr_scan", "android": "https://dc.lft.to/lastmile_qr_scan"}}, {"is_disabled": 0, "fusion_lat": 0.0, "lat": 38.9342865, "type": "electric_scooter", "lon": -76.9650455, "is_reserved": 0, "fusion_lon": 0.0, "bike_id": "f34e110a3a25ba0b26fb6b8845974c3b", "name": "f34e110a3a25ba0b26fb6b8845974c3b", "rental_uris": {"ios": "https://dc.lft.to/lastmile_qr_scan", "android": "https://dc.lft.to/lastmile_qr_scan"}}, {"is_disabled": 0, "fusion_lat": 0.0, "lat": 38.92076316666667, "type": "electric_scooter", "lon": -77.023863, "is_reserved": 0, "fusion_lon": 0.0, "bike_id": "b16b567a7951a0be02a033c5b77beb0f", "name": "b16b567a7951a0be02a033c5b77beb0f", "rental_uris": {"ios": "https://dc.lft.to/lastmile_qr_scan", "android": "https://dc.lft.to/lastmile_qr_scan"}}, {"is_disabled": 0, "fusion_lat": 0.0, "lat": 38.922122, "type": "electric_scooter", "lon": -77.03651166666667, "is_reserved": 0, "fusion_lon": 0.0, "bike_id": "4b62ec9ba5b4be0c14115bd528bcf1ad", "name": "4b62ec9ba5b4be0c14115bd528bcf1ad", "rental_uris": {"ios": "https://dc.lft.to/lastmile_qr_scan", "android": "https://dc.lft.to/lastmile_qr_scan"}}, {"is_disabled": 0, "fusion_lat": 0.0, "lat": 38.998396166666666, "type": "electric_bike", "lon": -77.02903833333333, "is_reserved": 0, "fusion_lon": 0.0, "bike_id": "6add143f973c2eb5a27ba9823e959f68", "name": "6add143f973c2eb5a27ba9823e959f68", "rental_uris": {"ios": "https://dc.lft.to/lastmile_qr_scan", "android": "https://dc.lft.to/lastmile_qr_scan"}}, {"is_disabled": 0, "fusion_lat": 0.0, "lat": 38.901564, "type": "electric_scooter", "lon": -77.02537533333333, "is_reserved": 0, "fusion_lon": 0.0, "bike_id": "d38b23a26affa400e9b10d05f061d23d", "name": "d38b23a26affa400e9b10d05f061d23d", "rental_uris": {"ios": "https://dc.lft.to/lastmile_qr_scan", "android": "https://dc.lft.to/lastmile_qr_scan"}}, {"is_disabled": 0, "fusion_lat": 0.0, "lat": 38.8720145, "type": "electric_scooter", "lon": -77.00604616666666, "is_reserved": 0, "fusion_lon": 0.0, "bike_id": "c548b71e292601976aa46a3a79a10d8a", "name": "c548b71e292601976aa46a3a79a10d8a", "rental_uris": {"ios": "https://dc.lft.to/lastmile_qr_scan", "android": "https://dc.lft.to/lastmile_qr_scan"}}, {"is_disabled": 0, "fusion_lat": 0.0, "lat": 38.89535433333333, "type": "electric_scooter", "lon": -76.94884816666666, "is_reserved": 0, "fusion_lon": 0.0, "bike_id": "67ac0c7c05af3017ea2ce7fb914d9ab5", "name": "67ac0c7c05af3017ea2ce7fb914d9ab5", "rental_uris": {"ios": "https://dc.lft.to/lastmile_qr_scan", "android": "https://dc.lft.to/lastmile_qr_scan"}}, {"is_disabled": 0, "fusion_lat": 0.0, "lat": 38.880306166666664, "type": "electric_bike", "lon": -77.11080466666667, "is_reserved": 0, "fusion_lon": 0.0, "bike_id": "83c65137a1f15f7569f1960c2e75fdaa", "name": "83c65137a1f15f7569f1960c2e75fdaa", "rental_uris": {"ios": "https://dc.lft.to/lastmile_qr_scan", "android": "https://dc.lft.to/lastmile_qr_scan"}}, {"is_disabled": 0, "fusion_lat": 0.0, "lat": 38.89833566666667, "type": "electric_scooter", "lon": -77.03317866666667, "is_reserved": 0, "fusion_lon": 0.0, "bike_id": "c06786cb0080af28574825957ee5eaaa", "name": "c06786cb0080af28574825957ee5eaaa", "rental_uris": {"ios": "https://dc.lft.to/lastmile_qr_scan", "android": "https://dc.lft.to/lastmile_qr_scan"}}, {"is_disabled": 0, "fusion_lat": 0.0, "lat": 38.90526166666667, "type": "electric_scooter", "lon": -77.02526183333333, "is_reserved": 0, "fusion_lon": 0.0, "bike_id": "5201302a88ca9bbbb0b5cc584c5e10e7", "name": "5201302a88ca9bbbb0b5cc584c5e10e7", "rental_uris": {"ios": "https://dc.lft.to/lastmile_qr_scan", "android": "https://dc.lft.to/lastmile_qr_scan"}}, {"is_disabled": 0, "fusion_lat": 0.0, "lat": 38.89739433333333, "type": "electric_bike", "lon": -76.99225016666666, "is_reserved": 0, "fusion_lon": 0.0, "bike_id": "0555e4cfbeb01a92cf380d93d7bd8298", "name": "0555e4cfbeb01a92cf380d93d7bd8298", "rental_uris": {"ios": "https://dc.lft.to/lastmile_qr_scan", "android": "https://dc.lft.to/lastmile_qr_scan"}}, {"is_disabled": 0, "fusion_lat": 0.0, "lat": 38.918574666666665, "type": "electric_scooter", "lon": -77.0321365, "is_reserved": 0, "fusion_lon": 0.0, "bike_id": "64f5abc5312bd9480f8937b0be2be23f", "name": "64f5abc5312bd9480f8937b0be2be23f", "rental_uris": {"ios": "https://dc.lft.to/lastmile_qr_scan", "android": "https://dc.lft.to/lastmile_qr_scan"}}, {"is_disabled": 0, "fusion_lat": 0.0, "lat": 38.90287216666667, "type": "electric_scooter", "lon": -77.04128233333333, "is_reserved": 0, "fusion_lon": 0.0, "bike_id": "6c2ec6c6289ef0079faf8e4fb400a712", "name": "6c2ec6c6289ef0079faf8e4fb400a712", "rental_uris": {"ios": "https://dc.lft.to/lastmile_qr_scan", "android": "https://dc.lft.to/lastmile_qr_scan"}}, {"is_disabled": 0, "fusion_lat": 0.0, "lat": 38.924650666666665, "type": "electric_bike", "lon": -77.20842083333334, "is_reserved": 0, "fusion_lon": 0.0, "bike_id": "91bcefabd621658ec323892abccdb7d8", "name": "91bcefabd621658ec323892abccdb7d8", "rental_uris": {"ios": "https://dc.lft.to/lastmile_qr_scan", "android": "https://dc.lft.to/lastmile_qr_scan"}}, {"is_disabled": 0, "fusion_lat": 0.0, "lat": 38.91566616666667, "type": "electric_scooter", "lon": -77.03172133333334, "is_reserved": 0, "fusion_lon": 0.0, "bike_id": "46a3967ea691d5167d3a785edfea4e46", "name": "46a3967ea691d5167d3a785edfea4e46", "rental_uris": {"ios": "https://dc.lft.to/lastmile_qr_scan", "android": "https://dc.lft.to/lastmile_qr_scan"}}, {"is_disabled": 0, "fusion_lat": 0.0, "lat": 38.917293666666666, "type": "electric_scooter", "lon": -77.041679, "is_reserved": 0, "fusion_lon": 0.0, "bike_id": "796751bc4f8094f169409e4e3aa349dd", "name": "796751bc4f8094f169409e4e3aa349dd", "rental_uris": {"ios": "https://dc.lft.to/lastmile_qr_scan", "android": "https://dc.lft.to/lastmile_qr_scan"}}, {"is_disabled": 0, "fusion_lat": 0.0, "lat": 38.8581045, "type": "electric_scooter", "lon": -76.9865545, "is_reserved": 0, "fusion_lon": 0.0, "bike_id": "eb4531ce4c69067d64618f73dc21743c", "name": "eb4531ce4c69067d64618f73dc21743c", "rental_uris": {"ios": "https://dc.lft.to/lastmile_qr_scan", "android": "https://dc.lft.to/lastmile_qr_scan"}}, {"is_disabled": 0, "fusion_lat": 0.0, "lat": 38.8918985, "type": "electric_bike", "lon": -77.12255983333333, "is_reserved": 0, "fusion_lon": 0.0, "bike_id": "6665e4d764a5ab01c5fb6cab71ae2937", "name": "6665e4d764a5ab01c5fb6cab71ae2937", "rental_uris": {"ios": "https://dc.lft.to/lastmile_qr_scan", "android": "https://dc.lft.to/lastmile_qr_scan"}}, {"is_disabled": 0, "fusion_lat": 0.0, "lat": 38.9360245, "type": "electric_scooter", "lon": -77.02332766666666, "is_reserved": 0, "fusion_lon": 0.0, "bike_id": "58c685c7b405e44fbffff2d61590b203", "name": "58c685c7b405e44fbffff2d61590b203", "rental_uris": {"ios": "https://dc.lft.to/lastmile_qr_scan", "android": "https://dc.lft.to/lastmile_qr_scan"}}, {"is_disabled": 0, "fusion_lat": 0.0, "lat": 38.91019333333333, "type": "electric_scooter", "lon": -77.05466183333333, "is_reserved": 0, "fusion_lon": 0.0, "bike_id": "17cda1f8bca0d37b1394c76a0002f510", "name": "17cda1f8bca0d37b1394c76a0002f510", "rental_uris": {"ios": "https://dc.lft.to/lastmile_qr_scan", "android": "https://dc.lft.to/lastmile_qr_scan"}}, {"is_disabled": 0, "fusion_lat": 0.0, "lat": 38.89064483333333, "type": "electric_scooter", "lon": -76.94328416666667, "is_reserved": 0, "fusion_lon": 0.0, "bike_id": "e6bd45559329c843de9c4bd6218d638f", "name": "e6bd45559329c843de9c4bd6218d638f", "rental_uris": {"ios": "https://dc.lft.to/lastmile_qr_scan", "android": "https://dc.lft.to/lastmile_qr_scan"}}, {"is_disabled": 0, "fusion_lat": 0.0, "lat": 38.913045, "type": "electric_scooter", "lon": -77.04347783333333, "is_reserved": 0, "fusion_lon": 0.0, "bike_id": "89055d3aa784fd3986acc40cef37aafa", "name": "89055d3aa784fd3986acc40cef37aafa", "rental_uris": {"ios": "https://dc.lft.to/lastmile_qr_scan", "android": "https://dc.lft.to/lastmile_qr_scan"}}, {"is_disabled": 0, "fusion_lat": 0.0, "lat": 38.920764166666665, "type": "electric_scooter", "lon": -77.02388916666666, "is_reserved": 0, "fusion_lon": 0.0, "bike_id": "1e456bfe1bb7a6a50ccfe28ffe578fad", "name": "1e456bfe1bb7a6a50ccfe28ffe578fad", "rental_uris": {"ios": "https://dc.lft.to/lastmile_qr_scan", "android": "https://dc.lft.to/lastmile_qr_scan"}}, {"is_disabled": 0, "fusion_lat": 0.0, "lat": 38.91915566666667, "type": "electric_scooter", "lon": -77.024902, "is_reserved": 0, "fusion_lon": 0.0, "bike_id": "7437a5ce0841e76a564acd34610566e3", "name": "7437a5ce0841e76a564acd34610566e3", "rental_uris": {"ios": "https://dc.lft.to/lastmile_qr_scan", "android": "https://dc.lft.to/lastmile_qr_scan"}}, {"is_disabled": 0, "fusion_lat": 0.0, "lat": 38.9416695, "type": "electric_scooter", "lon": -77.02531316666666, "is_reserved": 0, "fusion_lon": 0.0, "bike_id": "adb296a79f34be4eb8b5f380c0fd20ab", "name": "adb296a79f34be4eb8b5f380c0fd20ab", "rental_uris": {"ios": "https://dc.lft.to/lastmile_qr_scan", "android": "https://dc.lft.to/lastmile_qr_scan"}}, {"is_disabled": 0, "fusion_lat": 0.0, "lat": 38.90716783333333, "type": "electric_scooter", "lon": -76.99793616666666, "is_reserved": 0, "fusion_lon": 0.0, "bike_id": "dac1e3c989469c2e120a55d3c2ac2246", "name": "dac1e3c989469c2e120a55d3c2ac2246", "rental_uris": {"ios": "https://dc.lft.to/lastmile_qr_scan", "android": "https://dc.lft.to/lastmile_qr_scan"}}, {"is_disabled": 0, "fusion_lat": 0.0, "lat": 38.912536333333335, "type": "electric_scooter", "lon": -77.032762, "is_reserved": 0, "fusion_lon": 0.0, "bike_id": "425306602ef2aeaae8dded364bdacd9e", "name": "425306602ef2aeaae8dded364bdacd9e", "rental_uris": {"ios": "https://dc.lft.to/lastmile_qr_scan", "android": "https://dc.lft.to/lastmile_qr_scan"}}, {"is_disabled": 0, "fusion_lat": 0.0, "lat": 38.870373666666666, "type": "electric_bike", "lon": -76.96044583333334, "is_reserved": 0, "fusion_lon": 0.0, "bike_id": "8106438569c89e8ac2135837c6eaeccb", "name": "8106438569c89e8ac2135837c6eaeccb", "rental_uris": {"ios": "https://dc.lft.to/lastmile_qr_scan", "android": "https://dc.lft.to/lastmile_qr_scan"}}, {"is_disabled": 0, "fusion_lat": 0.0, "lat": 38.88294366666667, "type": "electric_scooter", "lon": -76.99145683333333, "is_reserved": 0, "fusion_lon": 0.0, "bike_id": "5107b0e08972b0fa5780f6b2d99b98e5", "name": "5107b0e08972b0fa5780f6b2d99b98e5", "rental_uris": {"ios": "https://dc.lft.to/lastmile_qr_scan", "android": "https://dc.lft.to/lastmile_qr_scan"}}, {"is_disabled": 0, "fusion_lat": 0.0, "lat": 38.914068, "type": "electric_scooter", "lon": -77.02042633333333, "is_reserved": 0, "fusion_lon": 0.0, "bike_id": "ed658d31afd89ce52861f028edf6b2d0", "name": "ed658d31afd89ce52861f028edf6b2d0", "rental_uris": {"ios": "https://dc.lft.to/lastmile_qr_scan", "android": "https://dc.lft.to/lastmile_qr_scan"}}, {"is_disabled": 0, "fusion_lat": 0.0, "lat": 38.86161966666667, "type": "electric_bike", "lon": -77.13092683333333, "is_reserved": 0, "fusion_lon": 0.0, "bike_id": "3c009e11a947ac8d58c28e7c123ad33c", "name": "3c009e11a947ac8d58c28e7c123ad33c", "rental_uris": {"ios": "https://dc.lft.to/lastmile_qr_scan", "android": "https://dc.lft.to/lastmile_qr_scan"}}, {"is_disabled": 0, "fusion_lat": 0.0, "lat": 38.967031666666664, "type": "electric_bike", "lon": -77.10218116666667, "is_reserved": 0, "fusion_lon": 0.0, "bike_id": "198ce59424bccb0edaec7c70980d612f", "name": "198ce59424bccb0edaec7c70980d612f", "rental_uris": {"ios": "https://dc.lft.to/lastmile_qr_scan", "android": "https://dc.lft.to/lastmile_qr_scan"}}, {"is_disabled": 0, "fusion_lat": 0.0, "lat": 38.897493, "type": "electric_scooter", "lon": -77.02699433333333, "is_reserved": 0, "fusion_lon": 0.0, "bike_id": "bddb5f036adf9611ddeb0214327a7b0b", "name": "bddb5f036adf9611ddeb0214327a7b0b", "rental_uris": {"ios": "https://dc.lft.to/lastmile_qr_scan", "android": "https://dc.lft.to/lastmile_qr_scan"}}, {"is_disabled": 0, "fusion_lat": 0.0, "lat": 38.91986266666667, "type": "electric_scooter", "lon": -77.041608, "is_reserved": 0, "fusion_lon": 0.0, "bike_id": "ae6ffab22233bd230998a198e1e47112", "name": "ae6ffab22233bd230998a198e1e47112", "rental_uris": {"ios": "https://dc.lft.to/lastmile_qr_scan", "android": "https://dc.lft.to/lastmile_qr_scan"}}, {"is_disabled": 0, "fusion_lat": 0.0, "lat": 38.89522983333333, "type": "electric_scooter", "lon": -76.98080816666666, "is_reserved": 0, "fusion_lon": 0.0, "bike_id": "6f0f9a85af405f9d224297e268312209", "name": "6f0f9a85af405f9d224297e268312209", "rental_uris": {"ios": "https://dc.lft.to/lastmile_qr_scan", "android": "https://dc.lft.to/lastmile_qr_scan"}}, {"is_disabled": 0, "fusion_lat": 0.0, "lat": 38.90368816666667, "type": "electric_scooter", "lon": -77.04194966666667, "is_reserved": 0, "fusion_lon": 0.0, "bike_id": "5f1e5555448de29a625843829c792682", "name": "5f1e5555448de29a625843829c792682", "rental_uris": {"ios": "https://dc.lft.to/lastmile_qr_scan", "android": "https://dc.lft.to/lastmile_qr_scan"}}, {"is_disabled": 0, "fusion_lat": 0.0, "lat": 38.9211205, "type": "electric_scooter", "lon": -77.042227, "is_reserved": 0, "fusion_lon": 0.0, "bike_id": "447bba893d3f788e17b7eb354b2a81c6", "name": "447bba893d3f788e17b7eb354b2a81c6", "rental_uris": {"ios": "https://dc.lft.to/lastmile_qr_scan", "android": "https://dc.lft.to/lastmile_qr_scan"}}, {"is_disabled": 0, "fusion_lat": 0.0, "lat": 38.908016, "type": "electric_scooter", "lon": -77.0186485, "is_reserved": 0, "fusion_lon": 0.0, "bike_id": "bf1323e8eb0c5295ad56c8ad0ae32e79", "name": "bf1323e8eb0c5295ad56c8ad0ae32e79", "rental_uris": {"ios": "https://dc.lft.to/lastmile_qr_scan", "android": "https://dc.lft.to/lastmile_qr_scan"}}, {"is_disabled": 0, "fusion_lat": 0.0, "lat": 38.948372, "type": "electric_scooter", "lon": -77.0255225, "is_reserved": 0, "fusion_lon": 0.0, "bike_id": "834f15c2c49d80cc14fc0ffdb8536103", "name": "834f15c2c49d80cc14fc0ffdb8536103", "rental_uris": {"ios": "https://dc.lft.to/lastmile_qr_scan", "android": "https://dc.lft.to/lastmile_qr_scan"}}, {"is_disabled": 0, "fusion_lat": 0.0, "lat": 38.865624, "type": "electric_scooter", "lon": -76.98946416666666, "is_reserved": 0, "fusion_lon": 0.0, "bike_id": "faadf6294d609431ff92865c1d347db9", "name": "faadf6294d609431ff92865c1d347db9", "rental_uris": {"ios": "https://dc.lft.to/lastmile_qr_scan", "android": "https://dc.lft.to/lastmile_qr_scan"}}, {"is_disabled": 0, "fusion_lat": 0.0, "lat": 38.900454833333335, "type": "electric_scooter", "lon": -77.00209083333333, "is_reserved": 0, "fusion_lon": 0.0, "bike_id": "366e54e7f1bf32af94b9a6be5b478eeb", "name": "366e54e7f1bf32af94b9a6be5b478eeb", "rental_uris": {"ios": "https://dc.lft.to/lastmile_qr_scan", "android": "https://dc.lft.to/lastmile_qr_scan"}}, {"is_disabled": 0, "fusion_lat": 0.0, "lat": 38.902081333333335, "type": "electric_scooter", "lon": -77.04345116666667, "is_reserved": 0, "fusion_lon": 0.0, "bike_id": "f9303e1220be855305e0a91a9579c812", "name": "f9303e1220be855305e0a91a9579c812", "rental_uris": {"ios": "https://dc.lft.to/lastmile_qr_scan", "android": "https://dc.lft.to/lastmile_qr_scan"}}, {"is_disabled": 0, "fusion_lat": 0.0, "lat": 38.959269166666665, "type": "electric_scooter", "lon": -77.033261, "is_reserved": 0, "fusion_lon": 0.0, "bike_id": "d2019d6c08e9eb447628bd915ac1b1d6", "name": "d2019d6c08e9eb447628bd915ac1b1d6", "rental_uris": {"ios": "https://dc.lft.to/lastmile_qr_scan", "android": "https://dc.lft.to/lastmile_qr_scan"}}, {"is_disabled": 0, "fusion_lat": 0.0, "lat": 38.917616833333334, "type": "electric_scooter", "lon": -77.031874, "is_reserved": 0, "fusion_lon": 0.0, "bike_id": "553961e01dae3b45b5a5272a10a2242f", "name": "553961e01dae3b45b5a5272a10a2242f", "rental_uris": {"ios": "https://dc.lft.to/lastmile_qr_scan", "android": "https://dc.lft.to/lastmile_qr_scan"}}, {"is_disabled": 0, "fusion_lat": 0.0, "lat": 38.922306166666665, "type": "electric_scooter", "lon": -77.04395833333334, "is_reserved": 0, "fusion_lon": 0.0, "bike_id": "4d1240ffcc1ba53acb8ff2223d8c3310", "name": "4d1240ffcc1ba53acb8ff2223d8c3310", "rental_uris": {"ios": "https://dc.lft.to/lastmile_qr_scan", "android": "https://dc.lft.to/lastmile_qr_scan"}}, {"is_disabled": 0, "fusion_lat": 0.0, "lat": 38.896116166666665, "type": "electric_bike", "lon": -76.9779405, "is_reserved": 0, "fusion_lon": 0.0, "bike_id": "0da3987c970db59e8e4f10cf46ac8c1d", "name": "0da3987c970db59e8e4f10cf46ac8c1d", "rental_uris": {"ios": "https://dc.lft.to/lastmile_qr_scan", "android": "https://dc.lft.to/lastmile_qr_scan"}}, {"is_disabled": 0, "fusion_lat": 0.0, "lat": 38.887409166666664, "type": "electric_scooter", "lon": -77.0317945, "is_reserved": 0, "fusion_lon": 0.0, "bike_id": "878ca33ab3d80875bb588d9670a87da8", "name": "878ca33ab3d80875bb588d9670a87da8", "rental_uris": {"ios": "https://dc.lft.to/lastmile_qr_scan", "android": "https://dc.lft.to/lastmile_qr_scan"}}, {"is_disabled": 0, "fusion_lat": 0.0, "lat": 38.87233233333333, "type": "electric_scooter", "lon": -77.01625433333334, "is_reserved": 0, "fusion_lon": 0.0, "bike_id": "5b21ac4c437c49531ea3327bf6ebc107", "name": "5b21ac4c437c49531ea3327bf6ebc107", "rental_uris": {"ios": "https://dc.lft.to/lastmile_qr_scan", "android": "https://dc.lft.to/lastmile_qr_scan"}}, {"is_disabled": 0, "fusion_lat": 0.0, "lat": 38.933967833333334, "type": "electric_scooter", "lon": -77.0412795, "is_reserved": 0, "fusion_lon": 0.0, "bike_id": "f747d325d3cebe3180ffc0e92e1966a5", "name": "f747d325d3cebe3180ffc0e92e1966a5", "rental_uris": {"ios": "https://dc.lft.to/lastmile_qr_scan", "android": "https://dc.lft.to/lastmile_qr_scan"}}, {"is_disabled": 0, "fusion_lat": 0.0, "lat": 38.8665445, "type": "electric_scooter", "lon": -76.98884566666666, "is_reserved": 0, "fusion_lon": 0.0, "bike_id": "ebb57d510ded0edff8a9a95760be9774", "name": "ebb57d510ded0edff8a9a95760be9774", "rental_uris": {"ios": "https://dc.lft.to/lastmile_qr_scan", "android": "https://dc.lft.to/lastmile_qr_scan"}}, {"is_disabled": 0, "fusion_lat": 0.0, "lat": 38.865427333333336, "type": "electric_scooter", "lon": -76.9870675, "is_reserved": 0, "fusion_lon": 0.0, "bike_id": "820f4c33cb056e52564d2baf24085997", "name": "820f4c33cb056e52564d2baf24085997", "rental_uris": {"ios": "https://dc.lft.to/lastmile_qr_scan", "android": "https://dc.lft.to/lastmile_qr_scan"}}, {"is_disabled": 0, "fusion_lat": 0.0, "lat": 38.9548315, "type": "electric_scooter", "lon": -77.065656, "is_reserved": 0, "fusion_lon": 0.0, "bike_id": "bfdaa2be4e9ff51d8a74ab0fa70963a0", "name": "bfdaa2be4e9ff51d8a74ab0fa70963a0", "rental_uris": {"ios": "https://dc.lft.to/lastmile_qr_scan", "android": "https://dc.lft.to/lastmile_qr_scan"}}, {"is_disabled": 0, "fusion_lat": 0.0, "lat": 38.9271615, "type": "electric_scooter", "lon": -77.0419605, "is_reserved": 0, "fusion_lon": 0.0, "bike_id": "b92f7eb4a03aea605b3861dae4b0860a", "name": "b92f7eb4a03aea605b3861dae4b0860a", "rental_uris": {"ios": "https://dc.lft.to/lastmile_qr_scan", "android": "https://dc.lft.to/lastmile_qr_scan"}}, {"is_disabled": 0, "fusion_lat": 0.0, "lat": 38.9133325, "type": "electric_scooter", "lon": -77.042766, "is_reserved": 0, "fusion_lon": 0.0, "bike_id": "02ca89497bb05542b48ec6a0c72e6cc6", "name": "02ca89497bb05542b48ec6a0c72e6cc6", "rental_uris": {"ios": "https://dc.lft.to/lastmile_qr_scan", "android": "https://dc.lft.to/lastmile_qr_scan"}}, {"is_disabled": 0, "fusion_lat": 0.0, "lat": 38.874725833333336, "type": "electric_scooter", "lon": -77.00936233333333, "is_reserved": 0, "fusion_lon": 0.0, "bike_id": "5736ff8d0b4050152431ddbc6abf3419", "name": "5736ff8d0b4050152431ddbc6abf3419", "rental_uris": {"ios": "https://dc.lft.to/lastmile_qr_scan", "android": "https://dc.lft.to/lastmile_qr_scan"}}, {"is_disabled": 0, "fusion_lat": 0.0, "lat": 38.86192, "type": "electric_scooter", "lon": -76.9945065, "is_reserved": 0, "fusion_lon": 0.0, "bike_id": "ef3c036c0550933052cca9a636cdf01e", "name": "ef3c036c0550933052cca9a636cdf01e", "rental_uris": {"ios": "https://dc.lft.to/lastmile_qr_scan", "android": "https://dc.lft.to/lastmile_qr_scan"}}, {"is_disabled": 0, "fusion_lat": 0.0, "lat": 38.917624333333336, "type": "electric_scooter", "lon": -77.02278116666666, "is_reserved": 0, "fusion_lon": 0.0, "bike_id": "895cf291036dfd4b0ebe83213cfdef9f", "name": "895cf291036dfd4b0ebe83213cfdef9f", "rental_uris": {"ios": "https://dc.lft.to/lastmile_qr_scan", "android": "https://dc.lft.to/lastmile_qr_scan"}}, {"is_disabled": 0, "fusion_lat": 0.0, "lat": 38.90502983333333, "type": "electric_scooter", "lon": -77.04049466666666, "is_reserved": 0, "fusion_lon": 0.0, "bike_id": "765d762b3f94140825920a16363765e6", "name": "765d762b3f94140825920a16363765e6", "rental_uris": {"ios": "https://dc.lft.to/lastmile_qr_scan", "android": "https://dc.lft.to/lastmile_qr_scan"}}, {"is_disabled": 0, "fusion_lat": 0.0, "lat": 38.903387333333335, "type": "electric_scooter", "lon": -77.062234, "is_reserved": 0, "fusion_lon": 0.0, "bike_id": "e9394d84241677bade8d26cf896d0ca6", "name": "e9394d84241677bade8d26cf896d0ca6", "rental_uris": {"ios": "https://dc.lft.to/lastmile_qr_scan", "android": "https://dc.lft.to/lastmile_qr_scan"}}, {"is_disabled": 0, "fusion_lat": 0.0, "lat": 38.93398466666667, "type": "electric_scooter", "lon": -77.03883266666666, "is_reserved": 0, "fusion_lon": 0.0, "bike_id": "c215adaa6f9cf5767a25625c3806109f", "name": "c215adaa6f9cf5767a25625c3806109f", "rental_uris": {"ios": "https://dc.lft.to/lastmile_qr_scan", "android": "https://dc.lft.to/lastmile_qr_scan"}}, {"is_disabled": 0, "fusion_lat": 0.0, "lat": 38.93686066666667, "type": "electric_scooter", "lon": -77.0362875, "is_reserved": 0, "fusion_lon": 0.0, "bike_id": "2d81015ab63dd368c191e9e956aca1a7", "name": "2d81015ab63dd368c191e9e956aca1a7", "rental_uris": {"ios": "https://dc.lft.to/lastmile_qr_scan", "android": "https://dc.lft.to/lastmile_qr_scan"}}, {"is_disabled": 0, "fusion_lat": 0.0, "lat": 38.89809916666667, "type": "electric_scooter", "lon": -77.008889, "is_reserved": 0, "fusion_lon": 0.0, "bike_id": "2ace565f958c4117cc537b86bb2f74a2", "name": "2ace565f958c4117cc537b86bb2f74a2", "rental_uris": {"ios": "https://dc.lft.to/lastmile_qr_scan", "android": "https://dc.lft.to/lastmile_qr_scan"}}, {"is_disabled": 0, "fusion_lat": 0.0, "lat": 38.92316183333333, "type": "electric_scooter", "lon": -77.03952866666667, "is_reserved": 0, "fusion_lon": 0.0, "bike_id": "c95eea929c7c19ae44e949a50d6948f0", "name": "c95eea929c7c19ae44e949a50d6948f0", "rental_uris": {"ios": "https://dc.lft.to/lastmile_qr_scan", "android": "https://dc.lft.to/lastmile_qr_scan"}}, {"is_disabled": 0, "fusion_lat": 0.0, "lat": 38.90382366666667, "type": "electric_scooter", "lon": -77.04467616666666, "is_reserved": 0, "fusion_lon": 0.0, "bike_id": "eb82ca5aa276d444a106b3e44d9ef5ef", "name": "eb82ca5aa276d444a106b3e44d9ef5ef", "rental_uris": {"ios": "https://dc.lft.to/lastmile_qr_scan", "android": "https://dc.lft.to/lastmile_qr_scan"}}, {"is_disabled": 0, "fusion_lat": 0.0, "lat": 38.90838683333333, "type": "electric_scooter", "lon": -77.03379366666667, "is_reserved": 0, "fusion_lon": 0.0, "bike_id": "9f2e4d1fe8efd77c7677f6280c6a6a50", "name": "9f2e4d1fe8efd77c7677f6280c6a6a50", "rental_uris": {"ios": "https://dc.lft.to/lastmile_qr_scan", "android": "https://dc.lft.to/lastmile_qr_scan"}}, {"is_disabled": 0, "fusion_lat": 0.0, "lat": 38.914163333333335, "type": "electric_scooter", "lon": -77.01955083333333, "is_reserved": 0, "fusion_lon": 0.0, "bike_id": "d8e6ef4b9a118128378e98c39b435aa6", "name": "d8e6ef4b9a118128378e98c39b435aa6", "rental_uris": {"ios": "https://dc.lft.to/lastmile_qr_scan", "android": "https://dc.lft.to/lastmile_qr_scan"}}, {"is_disabled": 0, "fusion_lat": 0.0, "lat": 38.91105, "type": "electric_scooter", "lon": -77.00210616666666, "is_reserved": 0, "fusion_lon": 0.0, "bike_id": "58bf3189993b19384c20f58219c01838", "name": "58bf3189993b19384c20f58219c01838", "rental_uris": {"ios": "https://dc.lft.to/lastmile_qr_scan", "android": "https://dc.lft.to/lastmile_qr_scan"}}, {"is_disabled": 0, "fusion_lat": 0.0, "lat": 38.89612433333333, "type": "electric_scooter", "lon": -77.0440735, "is_reserved": 0, "fusion_lon": 0.0, "bike_id": "6c5805e507ee8f4795776ee60a71420f", "name": "6c5805e507ee8f4795776ee60a71420f", "rental_uris": {"ios": "https://dc.lft.to/lastmile_qr_scan", "android": "https://dc.lft.to/lastmile_qr_scan"}}, {"is_disabled": 0, "fusion_lat": 0.0, "lat": 38.89560783333334, "type": "electric_bike", "lon": -77.12730866666666, "is_reserved": 0, "fusion_lon": 0.0, "bike_id": "39ad3364a59fbcf7e1f15a792cf946c2", "name": "39ad3364a59fbcf7e1f15a792cf946c2", "rental_uris": {"ios": "https://dc.lft.to/lastmile_qr_scan", "android": "https://dc.lft.to/lastmile_qr_scan"}}, {"is_disabled": 0, "fusion_lat": 0.0, "lat": 38.91887916666667, "type": "electric_scooter", "lon": -77.03909383333334, "is_reserved": 0, "fusion_lon": 0.0, "bike_id": "21beaa33d2827d64c332a0c590051deb", "name": "21beaa33d2827d64c332a0c590051deb", "rental_uris": {"ios": "https://dc.lft.to/lastmile_qr_scan", "android": "https://dc.lft.to/lastmile_qr_scan"}}, {"is_disabled": 0, "fusion_lat": 0.0, "lat": 38.902455333333336, "type": "electric_scooter", "lon": -77.01736733333334, "is_reserved": 0, "fusion_lon": 0.0, "bike_id": "832778f19460e58e3119bb1aa5a902f6", "name": "832778f19460e58e3119bb1aa5a902f6", "rental_uris": {"ios": "https://dc.lft.to/lastmile_qr_scan", "android": "https://dc.lft.to/lastmile_qr_scan"}}, {"is_disabled": 0, "fusion_lat": 0.0, "lat": 38.90573416666667, "type": "electric_scooter", "lon": -77.0347575, "is_reserved": 0, "fusion_lon": 0.0, "bike_id": "1567da0da62782837e09ff63b5b84d2b", "name": "1567da0da62782837e09ff63b5b84d2b", "rental_uris": {"ios": "https://dc.lft.to/lastmile_qr_scan", "android": "https://dc.lft.to/lastmile_qr_scan"}}, {"is_disabled": 0, "fusion_lat": 0.0, "lat": 38.930955, "type": "electric_scooter", "lon": -77.02501016666666, "is_reserved": 0, "fusion_lon": 0.0, "bike_id": "c194a16b4fdbd2e324fd8f828a4cee34", "name": "c194a16b4fdbd2e324fd8f828a4cee34", "rental_uris": {"ios": "https://dc.lft.to/lastmile_qr_scan", "android": "https://dc.lft.to/lastmile_qr_scan"}}, {"is_disabled": 0, "fusion_lat": 0.0, "lat": 38.916793, "type": "electric_scooter", "lon": -77.02966233333333, "is_reserved": 0, "fusion_lon": 0.0, "bike_id": "fb16159bdd2166712c8cabdbe7e5b448", "name": "fb16159bdd2166712c8cabdbe7e5b448", "rental_uris": {"ios": "https://dc.lft.to/lastmile_qr_scan", "android": "https://dc.lft.to/lastmile_qr_scan"}}, {"is_disabled": 0, "fusion_lat": 0.0, "lat": 38.921435333333335, "type": "electric_scooter", "lon": -77.04225933333333, "is_reserved": 0, "fusion_lon": 0.0, "bike_id": "909aa966532e8de8a5468ff294a4a212", "name": "909aa966532e8de8a5468ff294a4a212", "rental_uris": {"ios": "https://dc.lft.to/lastmile_qr_scan", "android": "https://dc.lft.to/lastmile_qr_scan"}}, {"is_disabled": 0, "fusion_lat": 0.0, "lat": 38.918713333333336, "type": "electric_scooter", "lon": -77.02591416666667, "is_reserved": 0, "fusion_lon": 0.0, "bike_id": "9468e1ed53d69442501689feef58ccaf", "name": "9468e1ed53d69442501689feef58ccaf", "rental_uris": {"ios": "https://dc.lft.to/lastmile_qr_scan", "android": "https://dc.lft.to/lastmile_qr_scan"}}, {"is_disabled": 0, "fusion_lat": 0.0, "lat": 38.8962105, "type": "electric_scooter", "lon": -76.95585066666666, "is_reserved": 0, "fusion_lon": 0.0, "bike_id": "0fa201d54f1d2af100769554e48e3790", "name": "0fa201d54f1d2af100769554e48e3790", "rental_uris": {"ios": "https://dc.lft.to/lastmile_qr_scan", "android": "https://dc.lft.to/lastmile_qr_scan"}}, {"is_disabled": 0, "fusion_lat": 0.0, "lat": 38.887218, "type": "electric_scooter", "lon": -77.03217483333333, "is_reserved": 0, "fusion_lon": 0.0, "bike_id": "fa3d6b46e52f0858eee5df925eb5084f", "name": "fa3d6b46e52f0858eee5df925eb5084f", "rental_uris": {"ios": "https://dc.lft.to/lastmile_qr_scan", "android": "https://dc.lft.to/lastmile_qr_scan"}}, {"is_disabled": 0, "fusion_lat": 0.0, "lat": 38.9300975, "type": "electric_scooter", "lon": -77.04432633333333, "is_reserved": 0, "fusion_lon": 0.0, "bike_id": "8f3d4d4d86bfe3471c7bbd440f4fe527", "name": "8f3d4d4d86bfe3471c7bbd440f4fe527", "rental_uris": {"ios": "https://dc.lft.to/lastmile_qr_scan", "android": "https://dc.lft.to/lastmile_qr_scan"}}, {"is_disabled": 0, "fusion_lat": 0.0, "lat": 38.924554666666666, "type": "electric_scooter", "lon": -77.032726, "is_reserved": 0, "fusion_lon": 0.0, "bike_id": "e59bc9c94c52dfd68604358bf7e2a75d", "name": "e59bc9c94c52dfd68604358bf7e2a75d", "rental_uris": {"ios": "https://dc.lft.to/lastmile_qr_scan", "android": "https://dc.lft.to/lastmile_qr_scan"}}, {"is_disabled": 0, "fusion_lat": 0.0, "lat": 38.928523166666665, "type": "electric_bike", "lon": -77.10672683333334, "is_reserved": 0, "fusion_lon": 0.0, "bike_id": "819249fe5c1d795120f77b79071fc909", "name": "819249fe5c1d795120f77b79071fc909", "rental_uris": {"ios": "https://dc.lft.to/lastmile_qr_scan", "android": "https://dc.lft.to/lastmile_qr_scan"}}, {"is_disabled": 0, "fusion_lat": 0.0, "lat": 38.9212695, "type": "electric_scooter", "lon": -77.04563983333334, "is_reserved": 0, "fusion_lon": 0.0, "bike_id": "7d64c31294dcb333dde65bad52768f92", "name": "7d64c31294dcb333dde65bad52768f92", "rental_uris": {"ios": "https://dc.lft.to/lastmile_qr_scan", "android": "https://dc.lft.to/lastmile_qr_scan"}}, {"is_disabled": 0, "fusion_lat": 0.0, "lat": 38.928867833333335, "type": "electric_scooter", "lon": -77.03229716666667, "is_reserved": 0, "fusion_lon": 0.0, "bike_id": "b82ad079755cb9bcb8ad6abf8ef56904", "name": "b82ad079755cb9bcb8ad6abf8ef56904", "rental_uris": {"ios": "https://dc.lft.to/lastmile_qr_scan", "android": "https://dc.lft.to/lastmile_qr_scan"}}, {"is_disabled": 0, "fusion_lat": 0.0, "lat": 38.948365, "type": "electric_scooter", "lon": -77.02421316666667, "is_reserved": 0, "fusion_lon": 0.0, "bike_id": "ff6571dfff234c1ef6fe8e18c7f7bec5", "name": "ff6571dfff234c1ef6fe8e18c7f7bec5", "rental_uris": {"ios": "https://dc.lft.to/lastmile_qr_scan", "android": "https://dc.lft.to/lastmile_qr_scan"}}, {"is_disabled": 0, "fusion_lat": 0.0, "lat": 38.91057083333333, "type": "electric_scooter", "lon": -77.04578633333334, "is_reserved": 0, "fusion_lon": 0.0, "bike_id": "c717df25edfbf6ef4be657b050eecbcf", "name": "c717df25edfbf6ef4be657b050eecbcf", "rental_uris": {"ios": "https://dc.lft.to/lastmile_qr_scan", "android": "https://dc.lft.to/lastmile_qr_scan"}}, {"is_disabled": 0, "fusion_lat": 0.0, "lat": 38.9196525, "type": "electric_scooter", "lon": -77.04143133333334, "is_reserved": 0, "fusion_lon": 0.0, "bike_id": "6bd7a929ee3a2350adf4290df37d774d", "name": "6bd7a929ee3a2350adf4290df37d774d", "rental_uris": {"ios": "https://dc.lft.to/lastmile_qr_scan", "android": "https://dc.lft.to/lastmile_qr_scan"}}, {"is_disabled": 0, "fusion_lat": 0.0, "lat": 38.807465, "type": "electric_bike", "lon": -77.094219, "is_reserved": 0, "fusion_lon": 0.0, "bike_id": "ee7a62936169ce647d9edba64f762a1c", "name": "ee7a62936169ce647d9edba64f762a1c", "rental_uris": {"ios": "https://dc.lft.to/lastmile_qr_scan", "android": "https://dc.lft.to/lastmile_qr_scan"}}, {"is_disabled": 0, "fusion_lat": 0.0, "lat": 38.929147666666665, "type": "electric_bike", "lon": -77.02382983333334, "is_reserved": 0, "fusion_lon": 0.0, "bike_id": "ff73db99b7044b6ad9c7bc5450bc6f09", "name": "ff73db99b7044b6ad9c7bc5450bc6f09", "rental_uris": {"ios": "https://dc.lft.to/lastmile_qr_scan", "android": "https://dc.lft.to/lastmile_qr_scan"}}, {"is_disabled": 0, "fusion_lat": 0.0, "lat": 38.898788, "type": "electric_scooter", "lon": -76.9315925, "is_reserved": 0, "fusion_lon": 0.0, "bike_id": "2175a0088e543d2875d4e823f719a886", "name": "2175a0088e543d2875d4e823f719a886", "rental_uris": {"ios": "https://dc.lft.to/lastmile_qr_scan", "android": "https://dc.lft.to/lastmile_qr_scan"}}, {"is_disabled": 0, "fusion_lat": 0.0, "lat": 38.934238666666666, "type": "electric_scooter", "lon": -77.044064, "is_reserved": 0, "fusion_lon": 0.0, "bike_id": "ecbc5637dbc0a79c2f1555a8d78c856e", "name": "ecbc5637dbc0a79c2f1555a8d78c856e", "rental_uris": {"ios": "https://dc.lft.to/lastmile_qr_scan", "android": "https://dc.lft.to/lastmile_qr_scan"}}, {"is_disabled": 0, "fusion_lat": 0.0, "lat": 38.93147616666667, "type": "electric_scooter", "lon": -77.03084166666666, "is_reserved": 0, "fusion_lon": 0.0, "bike_id": "1a24d0f1e0c66b93a6e8a76e0dd91931", "name": "1a24d0f1e0c66b93a6e8a76e0dd91931", "rental_uris": {"ios": "https://dc.lft.to/lastmile_qr_scan", "android": "https://dc.lft.to/lastmile_qr_scan"}}, {"is_disabled": 0, "fusion_lat": 0.0, "lat": 38.91799916666667, "type": "electric_scooter", "lon": -77.02305283333334, "is_reserved": 0, "fusion_lon": 0.0, "bike_id": "5888557a821e81f0ff3f6ca2b277d7f3", "name": "5888557a821e81f0ff3f6ca2b277d7f3", "rental_uris": {"ios": "https://dc.lft.to/lastmile_qr_scan", "android": "https://dc.lft.to/lastmile_qr_scan"}}, {"is_disabled": 0, "fusion_lat": 0.0, "lat": 38.91878333333333, "type": "electric_scooter", "lon": -77.03498966666666, "is_reserved": 0, "fusion_lon": 0.0, "bike_id": "2c72de9e3643e5a3753e32a0dbc70746", "name": "2c72de9e3643e5a3753e32a0dbc70746", "rental_uris": {"ios": "https://dc.lft.to/lastmile_qr_scan", "android": "https://dc.lft.to/lastmile_qr_scan"}}, {"is_disabled": 0, "fusion_lat": 0.0, "lat": 38.917139166666665, "type": "electric_scooter", "lon": -77.03417666666667, "is_reserved": 0, "fusion_lon": 0.0, "bike_id": "faa016cb954880adb501408767a4f20d", "name": "faa016cb954880adb501408767a4f20d", "rental_uris": {"ios": "https://dc.lft.to/lastmile_qr_scan", "android": "https://dc.lft.to/lastmile_qr_scan"}}, {"is_disabled": 0, "fusion_lat": 0.0, "lat": 38.90610733333333, "type": "electric_scooter", "lon": -77.06513283333334, "is_reserved": 0, "fusion_lon": 0.0, "bike_id": "d3522d6e97afe9ceef9cc14294578dce", "name": "d3522d6e97afe9ceef9cc14294578dce", "rental_uris": {"ios": "https://dc.lft.to/lastmile_qr_scan", "android": "https://dc.lft.to/lastmile_qr_scan"}}, {"is_disabled": 0, "fusion_lat": 0.0, "lat": 38.925385, "type": "electric_scooter", "lon": -77.04076383333333, "is_reserved": 0, "fusion_lon": 0.0, "bike_id": "ebd38569daf96cc8c874a6e1bbdc90bc", "name": "ebd38569daf96cc8c874a6e1bbdc90bc", "rental_uris": {"ios": "https://dc.lft.to/lastmile_qr_scan", "android": "https://dc.lft.to/lastmile_qr_scan"}}, {"is_disabled": 0, "fusion_lat": 0.0, "lat": 38.90041866666667, "type": "electric_scooter", "lon": -76.9883215, "is_reserved": 0, "fusion_lon": 0.0, "bike_id": "d9c68f147bfc3316e3d183c019f52ed5", "name": "d9c68f147bfc3316e3d183c019f52ed5", "rental_uris": {"ios": "https://dc.lft.to/lastmile_qr_scan", "android": "https://dc.lft.to/lastmile_qr_scan"}}, {"is_disabled": 0, "fusion_lat": 0.0, "lat": 38.82727216666667, "type": "electric_bike", "lon": -77.00857333333333, "is_reserved": 0, "fusion_lon": 0.0, "bike_id": "f33811caff7e7e07a73afdccf2db507e", "name": "f33811caff7e7e07a73afdccf2db507e", "rental_uris": {"ios": "https://dc.lft.to/lastmile_qr_scan", "android": "https://dc.lft.to/lastmile_qr_scan"}}, {"is_disabled": 0, "fusion_lat": 0.0, "lat": 38.91375383333333, "type": "electric_scooter", "lon": -77.0199045, "is_reserved": 0, "fusion_lon": 0.0, "bike_id": "c9868cd210822cabb38bda0d809743b5", "name": "c9868cd210822cabb38bda0d809743b5", "rental_uris": {"ios": "https://dc.lft.to/lastmile_qr_scan", "android": "https://dc.lft.to/lastmile_qr_scan"}}, {"is_disabled": 0, "fusion_lat": 0.0, "lat": 38.90423366666667, "type": "electric_scooter", "lon": -77.0436035, "is_reserved": 0, "fusion_lon": 0.0, "bike_id": "496becc3ca85494234e1b61ecd81f610", "name": "496becc3ca85494234e1b61ecd81f610", "rental_uris": {"ios": "https://dc.lft.to/lastmile_qr_scan", "android": "https://dc.lft.to/lastmile_qr_scan"}}, {"is_disabled": 0, "fusion_lat": 0.0, "lat": 38.880266166666665, "type": "electric_scooter", "lon": -76.93126966666667, "is_reserved": 0, "fusion_lon": 0.0, "bike_id": "76d71f3268ee42a383fbb00c8352a105", "name": "76d71f3268ee42a383fbb00c8352a105", "rental_uris": {"ios": "https://dc.lft.to/lastmile_qr_scan", "android": "https://dc.lft.to/lastmile_qr_scan"}}, {"is_disabled": 0, "fusion_lat": 0.0, "lat": 38.9047065, "type": "electric_scooter", "lon": -77.04343983333334, "is_reserved": 0, "fusion_lon": 0.0, "bike_id": "116d39ca8147ab36f1b20be135a90e84", "name": "116d39ca8147ab36f1b20be135a90e84", "rental_uris": {"ios": "https://dc.lft.to/lastmile_qr_scan", "android": "https://dc.lft.to/lastmile_qr_scan"}}, {"is_disabled": 0, "fusion_lat": 0.0, "lat": 38.924889, "type": "electric_scooter", "lon": -77.05251983333333, "is_reserved": 0, "fusion_lon": 0.0, "bike_id": "3f9ac8069f60493046b7322de6e2134b", "name": "3f9ac8069f60493046b7322de6e2134b", "rental_uris": {"ios": "https://dc.lft.to/lastmile_qr_scan", "android": "https://dc.lft.to/lastmile_qr_scan"}}, {"is_disabled": 0, "fusion_lat": 0.0, "lat": 38.9236395, "type": "electric_scooter", "lon": -77.05084933333333, "is_reserved": 0, "fusion_lon": 0.0, "bike_id": "2a19050877ccbb4282a30025b06bb2cf", "name": "2a19050877ccbb4282a30025b06bb2cf", "rental_uris": {"ios": "https://dc.lft.to/lastmile_qr_scan", "android": "https://dc.lft.to/lastmile_qr_scan"}}, {"is_disabled": 0, "fusion_lat": 0.0, "lat": 38.918856166666664, "type": "electric_scooter", "lon": -77.015915, "is_reserved": 0, "fusion_lon": 0.0, "bike_id": "6bcc5e9cbbd1027a55db8c8a78d77d54", "name": "6bcc5e9cbbd1027a55db8c8a78d77d54", "rental_uris": {"ios": "https://dc.lft.to/lastmile_qr_scan", "android": "https://dc.lft.to/lastmile_qr_scan"}}, {"is_disabled": 0, "fusion_lat": 0.0, "lat": 38.884828, "type": "electric_scooter", "lon": -77.033545, "is_reserved": 0, "fusion_lon": 0.0, "bike_id": "ff0be6e97983228e70867b43d4330b5f", "name": "ff0be6e97983228e70867b43d4330b5f", "rental_uris": {"ios": "https://dc.lft.to/lastmile_qr_scan", "android": "https://dc.lft.to/lastmile_qr_scan"}}, {"is_disabled": 0, "fusion_lat": 0.0, "lat": 38.9024225, "type": "electric_scooter", "lon": -77.00196533333333, "is_reserved": 0, "fusion_lon": 0.0, "bike_id": "1c42049d149836fd964602162ec3ceaf", "name": "1c42049d149836fd964602162ec3ceaf", "rental_uris": {"ios": "https://dc.lft.to/lastmile_qr_scan", "android": "https://dc.lft.to/lastmile_qr_scan"}}, {"is_disabled": 0, "fusion_lat": 0.0, "lat": 38.88479683333333, "type": "electric_scooter", "lon": -77.02347183333333, "is_reserved": 0, "fusion_lon": 0.0, "bike_id": "bc0c7763e312a0806bc838fef0b3c182", "name": "bc0c7763e312a0806bc838fef0b3c182", "rental_uris": {"ios": "https://dc.lft.to/lastmile_qr_scan", "android": "https://dc.lft.to/lastmile_qr_scan"}}, {"is_disabled": 0, "fusion_lat": 0.0, "lat": 38.92521766666667, "type": "electric_scooter", "lon": -77.051307, "is_reserved": 0, "fusion_lon": 0.0, "bike_id": "aa09729ab28e785964af4b31b1efa2eb", "name": "aa09729ab28e785964af4b31b1efa2eb", "rental_uris": {"ios": "https://dc.lft.to/lastmile_qr_scan", "android": "https://dc.lft.to/lastmile_qr_scan"}}, {"is_disabled": 0, "fusion_lat": 0.0, "lat": 38.8923905, "type": "electric_scooter", "lon": -77.0395585, "is_reserved": 0, "fusion_lon": 0.0, "bike_id": "a70373eb05c1241fe010125c41928403", "name": "a70373eb05c1241fe010125c41928403", "rental_uris": {"ios": "https://dc.lft.to/lastmile_qr_scan", "android": "https://dc.lft.to/lastmile_qr_scan"}}, {"is_disabled": 0, "fusion_lat": 0.0, "lat": 38.8865845, "type": "electric_scooter", "lon": -77.03379433333333, "is_reserved": 0, "fusion_lon": 0.0, "bike_id": "1a83cdfd4f069db8b288d229cc3d92e0", "name": "1a83cdfd4f069db8b288d229cc3d92e0", "rental_uris": {"ios": "https://dc.lft.to/lastmile_qr_scan", "android": "https://dc.lft.to/lastmile_qr_scan"}}, {"is_disabled": 0, "fusion_lat": 0.0, "lat": 38.87175366666666, "type": "electric_scooter", "lon": -77.00625, "is_reserved": 0, "fusion_lon": 0.0, "bike_id": "80ae08cc271b631f0222a6a3b63d1d16", "name": "80ae08cc271b631f0222a6a3b63d1d16", "rental_uris": {"ios": "https://dc.lft.to/lastmile_qr_scan", "android": "https://dc.lft.to/lastmile_qr_scan"}}, {"is_disabled": 0, "fusion_lat": 0.0, "lat": 38.92069033333333, "type": "electric_scooter", "lon": -77.04683066666666, "is_reserved": 0, "fusion_lon": 0.0, "bike_id": "2d7e5f9fc0b7349a612c0453c314bba8", "name": "2d7e5f9fc0b7349a612c0453c314bba8", "rental_uris": {"ios": "https://dc.lft.to/lastmile_qr_scan", "android": "https://dc.lft.to/lastmile_qr_scan"}}, {"is_disabled": 0, "fusion_lat": 0.0, "lat": 38.901259, "type": "electric_scooter", "lon": -77.04351433333333, "is_reserved": 0, "fusion_lon": 0.0, "bike_id": "ddd91683d1ec4b2751d150ab48590492", "name": "ddd91683d1ec4b2751d150ab48590492", "rental_uris": {"ios": "https://dc.lft.to/lastmile_qr_scan", "android": "https://dc.lft.to/lastmile_qr_scan"}}, {"is_disabled": 0, "fusion_lat": 0.0, "lat": 38.89709583333333, "type": "electric_scooter", "lon": -76.91768683333333, "is_reserved": 0, "fusion_lon": 0.0, "bike_id": "6ec26038703e6176c99faceb1195c624", "name": "6ec26038703e6176c99faceb1195c624", "rental_uris": {"ios": "https://dc.lft.to/lastmile_qr_scan", "android": "https://dc.lft.to/lastmile_qr_scan"}}, {"is_disabled": 0, "fusion_lat": 0.0, "lat": 38.8954945, "type": "electric_scooter", "lon": -76.93362816666667, "is_reserved": 0, "fusion_lon": 0.0, "bike_id": "abbcf6e93ddc8b57fabcccdc37cbef66", "name": "abbcf6e93ddc8b57fabcccdc37cbef66", "rental_uris": {"ios": "https://dc.lft.to/lastmile_qr_scan", "android": "https://dc.lft.to/lastmile_qr_scan"}}, {"is_disabled": 0, "fusion_lat": 0.0, "lat": 38.880812666666664, "type": "electric_bike", "lon": -77.086288, "is_reserved": 0, "fusion_lon": 0.0, "bike_id": "f410a4762066803a5bdfcc39c5d6c21d", "name": "f410a4762066803a5bdfcc39c5d6c21d", "rental_uris": {"ios": "https://dc.lft.to/lastmile_qr_scan", "android": "https://dc.lft.to/lastmile_qr_scan"}}, {"is_disabled": 0, "fusion_lat": 0.0, "lat": 38.916843, "type": "electric_scooter", "lon": -77.01206916666666, "is_reserved": 0, "fusion_lon": 0.0, "bike_id": "f109908646d10ce1f10edb542dcff730", "name": "f109908646d10ce1f10edb542dcff730", "rental_uris": {"ios": "https://dc.lft.to/lastmile_qr_scan", "android": "https://dc.lft.to/lastmile_qr_scan"}}, {"is_disabled": 0, "fusion_lat": 0.0, "lat": 38.9141585, "type": "electric_scooter", "lon": -77.0399485, "is_reserved": 0, "fusion_lon": 0.0, "bike_id": "00bd9b30e82f26139ba2555cd0369459", "name": "00bd9b30e82f26139ba2555cd0369459", "rental_uris": {"ios": "https://dc.lft.to/lastmile_qr_scan", "android": "https://dc.lft.to/lastmile_qr_scan"}}, {"is_disabled": 0, "fusion_lat": 0.0, "lat": 38.88117533333333, "type": "electric_scooter", "lon": -77.0166525, "is_reserved": 0, "fusion_lon": 0.0, "bike_id": "ac12b420cfbaf5f59988161908a5b4a5", "name": "ac12b420cfbaf5f59988161908a5b4a5", "rental_uris": {"ios": "https://dc.lft.to/lastmile_qr_scan", "android": "https://dc.lft.to/lastmile_qr_scan"}}, {"is_disabled": 0, "fusion_lat": 0.0, "lat": 38.89223166666667, "type": "electric_bike", "lon": -77.10783333333333, "is_reserved": 0, "fusion_lon": 0.0, "bike_id": "bb3762c065364e9ffc9c9e581a528b2c", "name": "bb3762c065364e9ffc9c9e581a528b2c", "rental_uris": {"ios": "https://dc.lft.to/lastmile_qr_scan", "android": "https://dc.lft.to/lastmile_qr_scan"}}, {"is_disabled": 0, "fusion_lat": 0.0, "lat": 38.905937, "type": "electric_scooter", "lon": -76.98620666666666, "is_reserved": 0, "fusion_lon": 0.0, "bike_id": "be3ca209503323bb532d0cfb990227d8", "name": "be3ca209503323bb532d0cfb990227d8", "rental_uris": {"ios": "https://dc.lft.to/lastmile_qr_scan", "android": "https://dc.lft.to/lastmile_qr_scan"}}, {"is_disabled": 0, "fusion_lat": 0.0, "lat": 38.908670666666666, "type": "electric_scooter", "lon": -77.02845816666667, "is_reserved": 0, "fusion_lon": 0.0, "bike_id": "cabecd2347b830f35f2f865f993a2d24", "name": "cabecd2347b830f35f2f865f993a2d24", "rental_uris": {"ios": "https://dc.lft.to/lastmile_qr_scan", "android": "https://dc.lft.to/lastmile_qr_scan"}}, {"is_disabled": 0, "fusion_lat": 0.0, "lat": 38.89726616666667, "type": "electric_scooter", "lon": -77.04898433333334, "is_reserved": 0, "fusion_lon": 0.0, "bike_id": "c39158d2ae5986875265fb9771b033ce", "name": "c39158d2ae5986875265fb9771b033ce", "rental_uris": {"ios": "https://dc.lft.to/lastmile_qr_scan", "android": "https://dc.lft.to/lastmile_qr_scan"}}, {"is_disabled": 0, "fusion_lat": 0.0, "lat": 38.90917616666667, "type": "electric_scooter", "lon": -77.08004933333333, "is_reserved": 0, "fusion_lon": 0.0, "bike_id": "6ed0217559028595e457ff7574e58a4c", "name": "6ed0217559028595e457ff7574e58a4c", "rental_uris": {"ios": "https://dc.lft.to/lastmile_qr_scan", "android": "https://dc.lft.to/lastmile_qr_scan"}}, {"is_disabled": 0, "fusion_lat": 0.0, "lat": 38.88735233333333, "type": "electric_scooter", "lon": -77.0153295, "is_reserved": 0, "fusion_lon": 0.0, "bike_id": "ed6bf98d2c96988b409c5380dc3ac80a", "name": "ed6bf98d2c96988b409c5380dc3ac80a", "rental_uris": {"ios": "https://dc.lft.to/lastmile_qr_scan", "android": "https://dc.lft.to/lastmile_qr_scan"}}, {"is_disabled": 0, "fusion_lat": 0.0, "lat": 38.920210833333336, "type": "electric_scooter", "lon": -77.02792633333334, "is_reserved": 0, "fusion_lon": 0.0, "bike_id": "abf482eb6d5d23aa07b6782a436aee1c", "name": "abf482eb6d5d23aa07b6782a436aee1c", "rental_uris": {"ios": "https://dc.lft.to/lastmile_qr_scan", "android": "https://dc.lft.to/lastmile_qr_scan"}}, {"is_disabled": 0, "fusion_lat": 0.0, "lat": 38.8022525, "type": "electric_bike", "lon": -77.07912783333333, "is_reserved": 0, "fusion_lon": 0.0, "bike_id": "7aad354f6e3381f0710c81249c1cef58", "name": "7aad354f6e3381f0710c81249c1cef58", "rental_uris": {"ios": "https://dc.lft.to/lastmile_qr_scan", "android": "https://dc.lft.to/lastmile_qr_scan"}}, {"is_disabled": 0, "fusion_lat": 0.0, "lat": 38.88268216666667, "type": "electric_scooter", "lon": -76.99542933333333, "is_reserved": 0, "fusion_lon": 0.0, "bike_id": "b91daf408d67ce809a3e1eeac0677a9a", "name": "b91daf408d67ce809a3e1eeac0677a9a", "rental_uris": {"ios": "https://dc.lft.to/lastmile_qr_scan", "android": "https://dc.lft.to/lastmile_qr_scan"}}, {"is_disabled": 0, "fusion_lat": 0.0, "lat": 38.86622216666667, "type": "electric_scooter", "lon": -76.98649766666666, "is_reserved": 0, "fusion_lon": 0.0, "bike_id": "cac16af9cc8ed385b8bcc1b468e0b368", "name": "cac16af9cc8ed385b8bcc1b468e0b368", "rental_uris": {"ios": "https://dc.lft.to/lastmile_qr_scan", "android": "https://dc.lft.to/lastmile_qr_scan"}}, {"is_disabled": 0, "fusion_lat": 0.0, "lat": 38.90769016666667, "type": "electric_scooter", "lon": -77.02061566666667, "is_reserved": 0, "fusion_lon": 0.0, "bike_id": "427c819d0882573d10450fafca6739a2", "name": "427c819d0882573d10450fafca6739a2", "rental_uris": {"ios": "https://dc.lft.to/lastmile_qr_scan", "android": "https://dc.lft.to/lastmile_qr_scan"}}, {"is_disabled": 0, "fusion_lat": 0.0, "lat": 38.906872166666666, "type": "electric_bike", "lon": -76.95185, "is_reserved": 0, "fusion_lon": 0.0, "bike_id": "a7a3609cad945240deff37f54c25aea9", "name": "a7a3609cad945240deff37f54c25aea9", "rental_uris": {"ios": "https://dc.lft.to/lastmile_qr_scan", "android": "https://dc.lft.to/lastmile_qr_scan"}}, {"is_disabled": 0, "fusion_lat": 0.0, "lat": 38.86255416666667, "type": "electric_scooter", "lon": -76.9869905, "is_reserved": 0, "fusion_lon": 0.0, "bike_id": "ac270676840eedd621db3b798381f704", "name": "ac270676840eedd621db3b798381f704", "rental_uris": {"ios": "https://dc.lft.to/lastmile_qr_scan", "android": "https://dc.lft.to/lastmile_qr_scan"}}, {"is_disabled": 0, "fusion_lat": 0.0, "lat": 38.90694166666667, "type": "electric_scooter", "lon": -77.063336, "is_reserved": 0, "fusion_lon": 0.0, "bike_id": "e7579b504dfad7a11acf76c0f0dc27cb", "name": "e7579b504dfad7a11acf76c0f0dc27cb", "rental_uris": {"ios": "https://dc.lft.to/lastmile_qr_scan", "android": "https://dc.lft.to/lastmile_qr_scan"}}, {"is_disabled": 0, "fusion_lat": 0.0, "lat": 38.90534516666666, "type": "electric_scooter", "lon": -77.04774416666666, "is_reserved": 0, "fusion_lon": 0.0, "bike_id": "6729fa470dec4da3f8beb7103457e0d7", "name": "6729fa470dec4da3f8beb7103457e0d7", "rental_uris": {"ios": "https://dc.lft.to/lastmile_qr_scan", "android": "https://dc.lft.to/lastmile_qr_scan"}}, {"is_disabled": 0, "fusion_lat": 0.0, "lat": 38.906365, "type": "electric_scooter", "lon": -77.046645, "is_reserved": 0, "fusion_lon": 0.0, "bike_id": "bf3bbf352444b5666a536baf0acc0f26", "name": "bf3bbf352444b5666a536baf0acc0f26", "rental_uris": {"ios": "https://dc.lft.to/lastmile_qr_scan", "android": "https://dc.lft.to/lastmile_qr_scan"}}, {"is_disabled": 0, "fusion_lat": 0.0, "lat": 38.88991216666667, "type": "electric_scooter", "lon": -76.99509916666666, "is_reserved": 0, "fusion_lon": 0.0, "bike_id": "bf43968547f251166eb27126581fe069", "name": "bf43968547f251166eb27126581fe069", "rental_uris": {"ios": "https://dc.lft.to/lastmile_qr_scan", "android": "https://dc.lft.to/lastmile_qr_scan"}}, {"is_disabled": 0, "fusion_lat": 0.0, "lat": 38.9441535, "type": "electric_scooter", "lon": -77.0551495, "is_reserved": 0, "fusion_lon": 0.0, "bike_id": "e606a016a0707d5c615e16ec21742af2", "name": "e606a016a0707d5c615e16ec21742af2", "rental_uris": {"ios": "https://dc.lft.to/lastmile_qr_scan", "android": "https://dc.lft.to/lastmile_qr_scan"}}, {"is_disabled": 0, "fusion_lat": 0.0, "lat": 38.84421483333333, "type": "electric_scooter", "lon": -76.99778066666667, "is_reserved": 0, "fusion_lon": 0.0, "bike_id": "7fb13e1996d89eebf6c42cffa26475d0", "name": "7fb13e1996d89eebf6c42cffa26475d0", "rental_uris": {"ios": "https://dc.lft.to/lastmile_qr_scan", "android": "https://dc.lft.to/lastmile_qr_scan"}}, {"is_disabled": 0, "fusion_lat": 0.0, "lat": 38.90507566666667, "type": "electric_scooter", "lon": -77.059173, "is_reserved": 0, "fusion_lon": 0.0, "bike_id": "5ca1708f6f84c97e19e5fa4e2a358028", "name": "5ca1708f6f84c97e19e5fa4e2a358028", "rental_uris": {"ios": "https://dc.lft.to/lastmile_qr_scan", "android": "https://dc.lft.to/lastmile_qr_scan"}}, {"is_disabled": 0, "fusion_lat": 0.0, "lat": 38.9026005, "type": "electric_scooter", "lon": -77.04917566666667, "is_reserved": 0, "fusion_lon": 0.0, "bike_id": "cbadb56f9ece3449cc976fbcf21fbb07", "name": "cbadb56f9ece3449cc976fbcf21fbb07", "rental_uris": {"ios": "https://dc.lft.to/lastmile_qr_scan", "android": "https://dc.lft.to/lastmile_qr_scan"}}, {"is_disabled": 0, "fusion_lat": 0.0, "lat": 38.9049465, "type": "electric_scooter", "lon": -77.06786366666667, "is_reserved": 0, "fusion_lon": 0.0, "bike_id": "39a16ec418c154cfadfa7a8bd23e6564", "name": "39a16ec418c154cfadfa7a8bd23e6564", "rental_uris": {"ios": "https://dc.lft.to/lastmile_qr_scan", "android": "https://dc.lft.to/lastmile_qr_scan"}}, {"is_disabled": 0, "fusion_lat": 0.0, "lat": 38.933642166666665, "type": "electric_scooter", "lon": -77.05714633333334, "is_reserved": 0, "fusion_lon": 0.0, "bike_id": "df0bf09f0e246dea1c3b15c4a39a01a8", "name": "df0bf09f0e246dea1c3b15c4a39a01a8", "rental_uris": {"ios": "https://dc.lft.to/lastmile_qr_scan", "android": "https://dc.lft.to/lastmile_qr_scan"}}, {"is_disabled": 0, "fusion_lat": 0.0, "lat": 38.9051055, "type": "electric_scooter", "lon": -77.06659333333333, "is_reserved": 0, "fusion_lon": 0.0, "bike_id": "dd1b5d1188c0ce5daff6ed354e54a758", "name": "dd1b5d1188c0ce5daff6ed354e54a758", "rental_uris": {"ios": "https://dc.lft.to/lastmile_qr_scan", "android": "https://dc.lft.to/lastmile_qr_scan"}}, {"is_disabled": 0, "fusion_lat": 0.0, "lat": 38.8766615, "type": "electric_scooter", "lon": -77.0158395, "is_reserved": 0, "fusion_lon": 0.0, "bike_id": "9551fbf7b3140a9c4514355506c625e2", "name": "9551fbf7b3140a9c4514355506c625e2", "rental_uris": {"ios": "https://dc.lft.to/lastmile_qr_scan", "android": "https://dc.lft.to/lastmile_qr_scan"}}, {"is_disabled": 0, "fusion_lat": 0.0, "lat": 38.91048966666666, "type": "electric_scooter", "lon": -77.0151855, "is_reserved": 0, "fusion_lon": 0.0, "bike_id": "b31d537ae22543b330118c1a98808d1d", "name": "b31d537ae22543b330118c1a98808d1d", "rental_uris": {"ios": "https://dc.lft.to/lastmile_qr_scan", "android": "https://dc.lft.to/lastmile_qr_scan"}}, {"is_disabled": 0, "fusion_lat": 0.0, "lat": 38.874965, "type": "electric_scooter", "lon": -77.001174, "is_reserved": 0, "fusion_lon": 0.0, "bike_id": "c97db8f6c776a5c82d0490f18dbc369b", "name": "c97db8f6c776a5c82d0490f18dbc369b", "rental_uris": {"ios": "https://dc.lft.to/lastmile_qr_scan", "android": "https://dc.lft.to/lastmile_qr_scan"}}, {"is_disabled": 0, "fusion_lat": 0.0, "lat": 38.9563785, "type": "electric_scooter", "lon": -77.033031, "is_reserved": 0, "fusion_lon": 0.0, "bike_id": "e11657bd34df9b42c483e47711b0203f", "name": "e11657bd34df9b42c483e47711b0203f", "rental_uris": {"ios": "https://dc.lft.to/lastmile_qr_scan", "android": "https://dc.lft.to/lastmile_qr_scan"}}, {"is_disabled": 0, "fusion_lat": 0.0, "lat": 38.900696833333335, "type": "electric_scooter", "lon": -77.05029, "is_reserved": 0, "fusion_lon": 0.0, "bike_id": "9a6de52881dbb505112dcff6be9dc963", "name": "9a6de52881dbb505112dcff6be9dc963", "rental_uris": {"ios": "https://dc.lft.to/lastmile_qr_scan", "android": "https://dc.lft.to/lastmile_qr_scan"}}, {"is_disabled": 0, "fusion_lat": 0.0, "lat": 38.908648, "type": "electric_scooter", "lon": -77.04482016666667, "is_reserved": 0, "fusion_lon": 0.0, "bike_id": "5612a52a5741e97cb56e113b9f2f8ecb", "name": "5612a52a5741e97cb56e113b9f2f8ecb", "rental_uris": {"ios": "https://dc.lft.to/lastmile_qr_scan", "android": "https://dc.lft.to/lastmile_qr_scan"}}, {"is_disabled": 0, "fusion_lat": 0.0, "lat": 38.872018833333335, "type": "electric_scooter", "lon": -77.006078, "is_reserved": 0, "fusion_lon": 0.0, "bike_id": "9a1a77efdf6c34213e430b693f598a1e", "name": "9a1a77efdf6c34213e430b693f598a1e", "rental_uris": {"ios": "https://dc.lft.to/lastmile_qr_scan", "android": "https://dc.lft.to/lastmile_qr_scan"}}, {"is_disabled": 0, "fusion_lat": 0.0, "lat": 38.9182555, "type": "electric_scooter", "lon": -77.038389, "is_reserved": 0, "fusion_lon": 0.0, "bike_id": "61f7aee2dac109bac1dc1823a224bc3d", "name": "61f7aee2dac109bac1dc1823a224bc3d", "rental_uris": {"ios": "https://dc.lft.to/lastmile_qr_scan", "android": "https://dc.lft.to/lastmile_qr_scan"}}, {"is_disabled": 0, "fusion_lat": 0.0, "lat": 38.8922685, "type": "electric_scooter", "lon": -77.04648233333333, "is_reserved": 0, "fusion_lon": 0.0, "bike_id": "4414eb4e6b1b2fccce2a56ee8026d672", "name": "4414eb4e6b1b2fccce2a56ee8026d672", "rental_uris": {"ios": "https://dc.lft.to/lastmile_qr_scan", "android": "https://dc.lft.to/lastmile_qr_scan"}}, {"is_disabled": 0, "fusion_lat": 0.0, "lat": 38.876545666666665, "type": "electric_scooter", "lon": -77.004179, "is_reserved": 0, "fusion_lon": 0.0, "bike_id": "ab33e7918260692f2c9dc420f96eb2cb", "name": "ab33e7918260692f2c9dc420f96eb2cb", "rental_uris": {"ios": "https://dc.lft.to/lastmile_qr_scan", "android": "https://dc.lft.to/lastmile_qr_scan"}}, {"is_disabled": 0, "fusion_lat": 0.0, "lat": 38.892452666666664, "type": "electric_scooter", "lon": -77.03954916666666, "is_reserved": 0, "fusion_lon": 0.0, "bike_id": "8b629ece6d403ea138ab6bb07d8e4159", "name": "8b629ece6d403ea138ab6bb07d8e4159", "rental_uris": {"ios": "https://dc.lft.to/lastmile_qr_scan", "android": "https://dc.lft.to/lastmile_qr_scan"}}, {"is_disabled": 0, "fusion_lat": 0.0, "lat": 38.91050166666667, "type": "electric_scooter", "lon": -77.02181816666666, "is_reserved": 0, "fusion_lon": 0.0, "bike_id": "2ca5bbb488ce87b4072e557f87d09bee", "name": "2ca5bbb488ce87b4072e557f87d09bee", "rental_uris": {"ios": "https://dc.lft.to/lastmile_qr_scan", "android": "https://dc.lft.to/lastmile_qr_scan"}}, {"is_disabled": 0, "fusion_lat": 0.0, "lat": 38.9176215, "type": "electric_scooter", "lon": -77.03998066666666, "is_reserved": 0, "fusion_lon": 0.0, "bike_id": "14675cc10db8d3a1ff23ba931ec6289f", "name": "14675cc10db8d3a1ff23ba931ec6289f", "rental_uris": {"ios": "https://dc.lft.to/lastmile_qr_scan", "android": "https://dc.lft.to/lastmile_qr_scan"}}, {"is_disabled": 0, "fusion_lat": 0.0, "lat": 38.905475, "type": "electric_scooter", "lon": -77.039855, "is_reserved": 0, "fusion_lon": 0.0, "bike_id": "864cc2984781b274e610226b9aaa9ae1", "name": "864cc2984781b274e610226b9aaa9ae1", "rental_uris": {"ios": "https://dc.lft.to/lastmile_qr_scan", "android": "https://dc.lft.to/lastmile_qr_scan"}}, {"is_disabled": 0, "fusion_lat": 0.0, "lat": 38.99075533333333, "type": "electric_bike", "lon": -76.87467766666667, "is_reserved": 0, "fusion_lon": 0.0, "bike_id": "be534d44667b1f7c7e538518d2c5172d", "name": "be534d44667b1f7c7e538518d2c5172d", "rental_uris": {"ios": "https://dc.lft.to/lastmile_qr_scan", "android": "https://dc.lft.to/lastmile_qr_scan"}}, {"is_disabled": 0, "fusion_lat": 0.0, "lat": 38.91412916666667, "type": "electric_scooter", "lon": -77.04543416666667, "is_reserved": 0, "fusion_lon": 0.0, "bike_id": "027a38d951e2848c7c23afd72dfa811a", "name": "027a38d951e2848c7c23afd72dfa811a", "rental_uris": {"ios": "https://dc.lft.to/lastmile_qr_scan", "android": "https://dc.lft.to/lastmile_qr_scan"}}, {"is_disabled": 0, "fusion_lat": 0.0, "lat": 38.903229833333334, "type": "electric_scooter", "lon": -77.0433165, "is_reserved": 0, "fusion_lon": 0.0, "bike_id": "048c8bb00fd939004178675490f85c08", "name": "048c8bb00fd939004178675490f85c08", "rental_uris": {"ios": "https://dc.lft.to/lastmile_qr_scan", "android": "https://dc.lft.to/lastmile_qr_scan"}}, {"is_disabled": 0, "fusion_lat": 0.0, "lat": 38.884015, "type": "electric_scooter", "lon": -77.01530416666667, "is_reserved": 0, "fusion_lon": 0.0, "bike_id": "3207962e480cade85b54db9a4d9793d1", "name": "3207962e480cade85b54db9a4d9793d1", "rental_uris": {"ios": "https://dc.lft.to/lastmile_qr_scan", "android": "https://dc.lft.to/lastmile_qr_scan"}}, {"is_disabled": 0, "fusion_lat": 0.0, "lat": 38.936316833333336, "type": "electric_scooter", "lon": -77.03657666666666, "is_reserved": 0, "fusion_lon": 0.0, "bike_id": "715c5af291f4bc883cf71963d7f681ad", "name": "715c5af291f4bc883cf71963d7f681ad", "rental_uris": {"ios": "https://dc.lft.to/lastmile_qr_scan", "android": "https://dc.lft.to/lastmile_qr_scan"}}, {"is_disabled": 0, "fusion_lat": 0.0, "lat": 38.82874533333333, "type": "electric_bike", "lon": -77.1121855, "is_reserved": 0, "fusion_lon": 0.0, "bike_id": "71ba33edbb6b1685238e3fdb6908a6d9", "name": "71ba33edbb6b1685238e3fdb6908a6d9", "rental_uris": {"ios": "https://dc.lft.to/lastmile_qr_scan", "android": "https://dc.lft.to/lastmile_qr_scan"}}, {"is_disabled": 0, "fusion_lat": 0.0, "lat": 38.90258033333333, "type": "electric_scooter", "lon": -77.026476, "is_reserved": 0, "fusion_lon": 0.0, "bike_id": "30e759ddfec935f6b9425e22a20b48c5", "name": "30e759ddfec935f6b9425e22a20b48c5", "rental_uris": {"ios": "https://dc.lft.to/lastmile_qr_scan", "android": "https://dc.lft.to/lastmile_qr_scan"}}, {"is_disabled": 0, "fusion_lat": 0.0, "lat": 38.90094416666667, "type": "electric_scooter", "lon": -76.983363, "is_reserved": 0, "fusion_lon": 0.0, "bike_id": "0d22d110a760fd542ef20735b3bbf8cc", "name": "0d22d110a760fd542ef20735b3bbf8cc", "rental_uris": {"ios": "https://dc.lft.to/lastmile_qr_scan", "android": "https://dc.lft.to/lastmile_qr_scan"}}, {"is_disabled": 0, "fusion_lat": 0.0, "lat": 38.9215915, "type": "electric_scooter", "lon": -77.035373, "is_reserved": 0, "fusion_lon": 0.0, "bike_id": "01cebf9994831f9cce5a907e53d9012d", "name": "01cebf9994831f9cce5a907e53d9012d", "rental_uris": {"ios": "https://dc.lft.to/lastmile_qr_scan", "android": "https://dc.lft.to/lastmile_qr_scan"}}, {"is_disabled": 0, "fusion_lat": 0.0, "lat": 38.90332866666667, "type": "electric_scooter", "lon": -77.03781383333333, "is_reserved": 0, "fusion_lon": 0.0, "bike_id": "aea47e265980cc2bd6261fb989069657", "name": "aea47e265980cc2bd6261fb989069657", "rental_uris": {"ios": "https://dc.lft.to/lastmile_qr_scan", "android": "https://dc.lft.to/lastmile_qr_scan"}}, {"is_disabled": 0, "fusion_lat": 0.0, "lat": 38.9204215, "type": "electric_scooter", "lon": -76.9790525, "is_reserved": 0, "fusion_lon": 0.0, "bike_id": "f0155269c71696497bc79cc1dae3f164", "name": "f0155269c71696497bc79cc1dae3f164", "rental_uris": {"ios": "https://dc.lft.to/lastmile_qr_scan", "android": "https://dc.lft.to/lastmile_qr_scan"}}, {"is_disabled": 0, "fusion_lat": 0.0, "lat": 38.916950666666665, "type": "electric_scooter", "lon": -77.03761816666666, "is_reserved": 0, "fusion_lon": 0.0, "bike_id": "6c7aaed523d3e35bfac3327f9c4d9cfd", "name": "6c7aaed523d3e35bfac3327f9c4d9cfd", "rental_uris": {"ios": "https://dc.lft.to/lastmile_qr_scan", "android": "https://dc.lft.to/lastmile_qr_scan"}}, {"is_disabled": 0, "fusion_lat": 0.0, "lat": 38.914066, "type": "electric_scooter", "lon": -77.01838983333333, "is_reserved": 0, "fusion_lon": 0.0, "bike_id": "e644e25f7956e56dc244d347a2c579eb", "name": "e644e25f7956e56dc244d347a2c579eb", "rental_uris": {"ios": "https://dc.lft.to/lastmile_qr_scan", "android": "https://dc.lft.to/lastmile_qr_scan"}}, {"is_disabled": 0, "fusion_lat": 0.0, "lat": 38.90627833333333, "type": "electric_scooter", "lon": -77.03961866666667, "is_reserved": 0, "fusion_lon": 0.0, "bike_id": "be743468ab76d199298d5048d7d8da1e", "name": "be743468ab76d199298d5048d7d8da1e", "rental_uris": {"ios": "https://dc.lft.to/lastmile_qr_scan", "android": "https://dc.lft.to/lastmile_qr_scan"}}, {"is_disabled": 0, "fusion_lat": 0.0, "lat": 38.907221166666666, "type": "electric_scooter", "lon": -77.032169, "is_reserved": 0, "fusion_lon": 0.0, "bike_id": "348326871e39c19d2b91ee27f9efb091", "name": "348326871e39c19d2b91ee27f9efb091", "rental_uris": {"ios": "https://dc.lft.to/lastmile_qr_scan", "android": "https://dc.lft.to/lastmile_qr_scan"}}, {"is_disabled": 0, "fusion_lat": 0.0, "lat": 38.902689333333335, "type": "electric_scooter", "lon": -77.03840783333334, "is_reserved": 0, "fusion_lon": 0.0, "bike_id": "f200ee545d8475f435170058978dc6d7", "name": "f200ee545d8475f435170058978dc6d7", "rental_uris": {"ios": "https://dc.lft.to/lastmile_qr_scan", "android": "https://dc.lft.to/lastmile_qr_scan"}}, {"is_disabled": 0, "fusion_lat": 0.0, "lat": 38.88579333333333, "type": "electric_scooter", "lon": -77.0154235, "is_reserved": 0, "fusion_lon": 0.0, "bike_id": "ddd8a1e7537a508c974cdfe811cdcc9b", "name": "ddd8a1e7537a508c974cdfe811cdcc9b", "rental_uris": {"ios": "https://dc.lft.to/lastmile_qr_scan", "android": "https://dc.lft.to/lastmile_qr_scan"}}, {"is_disabled": 0, "fusion_lat": 0.0, "lat": 38.91722333333333, "type": "electric_scooter", "lon": -77.03104033333334, "is_reserved": 0, "fusion_lon": 0.0, "bike_id": "b8303e58e23e6338e8144c84f92409b7", "name": "b8303e58e23e6338e8144c84f92409b7", "rental_uris": {"ios": "https://dc.lft.to/lastmile_qr_scan", "android": "https://dc.lft.to/lastmile_qr_scan"}}, {"is_disabled": 0, "fusion_lat": 0.0, "lat": 38.928472166666666, "type": "electric_scooter", "lon": -77.0551265, "is_reserved": 0, "fusion_lon": 0.0, "bike_id": "60d539b834aacb914b5f171aac1c4f60", "name": "60d539b834aacb914b5f171aac1c4f60", "rental_uris": {"ios": "https://dc.lft.to/lastmile_qr_scan", "android": "https://dc.lft.to/lastmile_qr_scan"}}, {"is_disabled": 0, "fusion_lat": 0.0, "lat": 38.8998925, "type": "electric_scooter", "lon": -77.03373616666667, "is_reserved": 0, "fusion_lon": 0.0, "bike_id": "1fda8b359a721b77d575e6f21c529531", "name": "1fda8b359a721b77d575e6f21c529531", "rental_uris": {"ios": "https://dc.lft.to/lastmile_qr_scan", "android": "https://dc.lft.to/lastmile_qr_scan"}}, {"is_disabled": 0, "fusion_lat": 0.0, "lat": 38.8843995, "type": "electric_scooter", "lon": -77.02565183333333, "is_reserved": 0, "fusion_lon": 0.0, "bike_id": "c148142a9cc30d89bf5696c6e922d298", "name": "c148142a9cc30d89bf5696c6e922d298", "rental_uris": {"ios": "https://dc.lft.to/lastmile_qr_scan", "android": "https://dc.lft.to/lastmile_qr_scan"}}, {"is_disabled": 0, "fusion_lat": 0.0, "lat": 38.916289666666664, "type": "electric_scooter", "lon": -77.03218166666667, "is_reserved": 0, "fusion_lon": 0.0, "bike_id": "fded2508ec4747608a4acf3939f95a63", "name": "fded2508ec4747608a4acf3939f95a63", "rental_uris": {"ios": "https://dc.lft.to/lastmile_qr_scan", "android": "https://dc.lft.to/lastmile_qr_scan"}}, {"is_disabled": 0, "fusion_lat": 0.0, "lat": 38.92170266666667, "type": "electric_scooter", "lon": -77.04227966666667, "is_reserved": 0, "fusion_lon": 0.0, "bike_id": "18981f18c197c47c50dc6a1c05adf3da", "name": "18981f18c197c47c50dc6a1c05adf3da", "rental_uris": {"ios": "https://dc.lft.to/lastmile_qr_scan", "android": "https://dc.lft.to/lastmile_qr_scan"}}, {"is_disabled": 0, "fusion_lat": 0.0, "lat": 38.924866333333334, "type": "electric_scooter", "lon": -77.02839416666667, "is_reserved": 0, "fusion_lon": 0.0, "bike_id": "de433957ecc9ce278dde8663d4a825b6", "name": "de433957ecc9ce278dde8663d4a825b6", "rental_uris": {"ios": "https://dc.lft.to/lastmile_qr_scan", "android": "https://dc.lft.to/lastmile_qr_scan"}}, {"is_disabled": 0, "fusion_lat": 0.0, "lat": 38.92017933333333, "type": "electric_scooter", "lon": -77.07118966666667, "is_reserved": 0, "fusion_lon": 0.0, "bike_id": "6881dd9fb48349aaebbd3de7bfead3a8", "name": "6881dd9fb48349aaebbd3de7bfead3a8", "rental_uris": {"ios": "https://dc.lft.to/lastmile_qr_scan", "android": "https://dc.lft.to/lastmile_qr_scan"}}, {"is_disabled": 0, "fusion_lat": 0.0, "lat": 38.925812666666666, "type": "electric_scooter", "lon": -77.039213, "is_reserved": 0, "fusion_lon": 0.0, "bike_id": "d7994698577e06300b4d7ccb108155ae", "name": "d7994698577e06300b4d7ccb108155ae", "rental_uris": {"ios": "https://dc.lft.to/lastmile_qr_scan", "android": "https://dc.lft.to/lastmile_qr_scan"}}, {"is_disabled": 0, "fusion_lat": 0.0, "lat": 38.91870016666667, "type": "electric_scooter", "lon": -77.03523833333334, "is_reserved": 0, "fusion_lon": 0.0, "bike_id": "b0a0339ea36ffccd9828305446a666f9", "name": "b0a0339ea36ffccd9828305446a666f9", "rental_uris": {"ios": "https://dc.lft.to/lastmile_qr_scan", "android": "https://dc.lft.to/lastmile_qr_scan"}}, {"is_disabled": 0, "fusion_lat": 0.0, "lat": 38.9278975, "type": "electric_scooter", "lon": -77.0272225, "is_reserved": 0, "fusion_lon": 0.0, "bike_id": "d18a3aeb9b0d96aa8b2148f57647cd17", "name": "d18a3aeb9b0d96aa8b2148f57647cd17", "rental_uris": {"ios": "https://dc.lft.to/lastmile_qr_scan", "android": "https://dc.lft.to/lastmile_qr_scan"}}, {"is_disabled": 0, "fusion_lat": 0.0, "lat": 38.9155545, "type": "electric_scooter", "lon": -77.03059816666666, "is_reserved": 0, "fusion_lon": 0.0, "bike_id": "880d3909b58a0b11d62e5d22ad841095", "name": "880d3909b58a0b11d62e5d22ad841095", "rental_uris": {"ios": "https://dc.lft.to/lastmile_qr_scan", "android": "https://dc.lft.to/lastmile_qr_scan"}}, {"is_disabled": 0, "fusion_lat": 0.0, "lat": 38.900637, "type": "electric_scooter", "lon": -76.93384583333334, "is_reserved": 0, "fusion_lon": 0.0, "bike_id": "dc0760e59ec0c3b1dd3ab86a321c034e", "name": "dc0760e59ec0c3b1dd3ab86a321c034e", "rental_uris": {"ios": "https://dc.lft.to/lastmile_qr_scan", "android": "https://dc.lft.to/lastmile_qr_scan"}}, {"is_disabled": 0, "fusion_lat": 0.0, "lat": 38.9229035, "type": "electric_scooter", "lon": -77.02067966666667, "is_reserved": 0, "fusion_lon": 0.0, "bike_id": "9afaf2ca002edce08bc2105f52ca2b28", "name": "9afaf2ca002edce08bc2105f52ca2b28", "rental_uris": {"ios": "https://dc.lft.to/lastmile_qr_scan", "android": "https://dc.lft.to/lastmile_qr_scan"}}, {"is_disabled": 0, "fusion_lat": 0.0, "lat": 38.90794133333333, "type": "electric_scooter", "lon": -77.02384216666667, "is_reserved": 0, "fusion_lon": 0.0, "bike_id": "3d7e0dd1eec67411addc8f0190567adf", "name": "3d7e0dd1eec67411addc8f0190567adf", "rental_uris": {"ios": "https://dc.lft.to/lastmile_qr_scan", "android": "https://dc.lft.to/lastmile_qr_scan"}}, {"is_disabled": 0, "fusion_lat": 0.0, "lat": 38.91933683333333, "type": "electric_scooter", "lon": -77.081263, "is_reserved": 0, "fusion_lon": 0.0, "bike_id": "a2e21fb636cb5f73aa189ba77113227d", "name": "a2e21fb636cb5f73aa189ba77113227d", "rental_uris": {"ios": "https://dc.lft.to/lastmile_qr_scan", "android": "https://dc.lft.to/lastmile_qr_scan"}}, {"is_disabled": 0, "fusion_lat": 0.0, "lat": 38.8610285, "type": "electric_scooter", "lon": -76.983315, "is_reserved": 0, "fusion_lon": 0.0, "bike_id": "021dd540ee4a5fe51452c33bd8ea7161", "name": "021dd540ee4a5fe51452c33bd8ea7161", "rental_uris": {"ios": "https://dc.lft.to/lastmile_qr_scan", "android": "https://dc.lft.to/lastmile_qr_scan"}}, {"is_disabled": 0, "fusion_lat": 0.0, "lat": 38.990762833333335, "type": "electric_bike", "lon": -76.87466816666667, "is_reserved": 0, "fusion_lon": 0.0, "bike_id": "f89fc895a73561b31ff26e690f5d9304", "name": "f89fc895a73561b31ff26e690f5d9304", "rental_uris": {"ios": "https://dc.lft.to/lastmile_qr_scan", "android": "https://dc.lft.to/lastmile_qr_scan"}}, {"is_disabled": 0, "fusion_lat": 0.0, "lat": 38.919262, "type": "electric_scooter", "lon": -77.03175416666667, "is_reserved": 0, "fusion_lon": 0.0, "bike_id": "90bbe19cde711158d67c81e630c350e9", "name": "90bbe19cde711158d67c81e630c350e9", "rental_uris": {"ios": "https://dc.lft.to/lastmile_qr_scan", "android": "https://dc.lft.to/lastmile_qr_scan"}}, {"is_disabled": 0, "fusion_lat": 0.0, "lat": 38.93182016666667, "type": "electric_scooter", "lon": -77.02820016666666, "is_reserved": 0, "fusion_lon": 0.0, "bike_id": "f434da7437b171cdeb1f7210698685ed", "name": "f434da7437b171cdeb1f7210698685ed", "rental_uris": {"ios": "https://dc.lft.to/lastmile_qr_scan", "android": "https://dc.lft.to/lastmile_qr_scan"}}, {"is_disabled": 0, "fusion_lat": 0.0, "lat": 38.887685, "type": "electric_scooter", "lon": -77.0222795, "is_reserved": 0, "fusion_lon": 0.0, "bike_id": "c1004bee455c0d00586f8b3c6c8992ac", "name": "c1004bee455c0d00586f8b3c6c8992ac", "rental_uris": {"ios": "https://dc.lft.to/lastmile_qr_scan", "android": "https://dc.lft.to/lastmile_qr_scan"}}, {"is_disabled": 0, "fusion_lat": 0.0, "lat": 38.88432866666667, "type": "electric_scooter", "lon": -76.9575315, "is_reserved": 0, "fusion_lon": 0.0, "bike_id": "916a949b74b16c2efe8a93ed4da9d880", "name": "916a949b74b16c2efe8a93ed4da9d880", "rental_uris": {"ios": "https://dc.lft.to/lastmile_qr_scan", "android": "https://dc.lft.to/lastmile_qr_scan"}}, {"is_disabled": 0, "fusion_lat": 0.0, "lat": 38.879242833333336, "type": "electric_scooter", "lon": -76.99244966666667, "is_reserved": 0, "fusion_lon": 0.0, "bike_id": "182001f7b557639d92b43b4698fae861", "name": "182001f7b557639d92b43b4698fae861", "rental_uris": {"ios": "https://dc.lft.to/lastmile_qr_scan", "android": "https://dc.lft.to/lastmile_qr_scan"}}, {"is_disabled": 0, "fusion_lat": 0.0, "lat": 38.922880166666666, "type": "electric_scooter", "lon": -77.04144716666667, "is_reserved": 0, "fusion_lon": 0.0, "bike_id": "6f305056092bb2a879c867ffc9ae5472", "name": "6f305056092bb2a879c867ffc9ae5472", "rental_uris": {"ios": "https://dc.lft.to/lastmile_qr_scan", "android": "https://dc.lft.to/lastmile_qr_scan"}}, {"is_disabled": 0, "fusion_lat": 0.0, "lat": 38.93798366666667, "type": "electric_scooter", "lon": -77.06003666666666, "is_reserved": 0, "fusion_lon": 0.0, "bike_id": "cf31702b433ec40f89da0ca9aa5d2897", "name": "cf31702b433ec40f89da0ca9aa5d2897", "rental_uris": {"ios": "https://dc.lft.to/lastmile_qr_scan", "android": "https://dc.lft.to/lastmile_qr_scan"}}, {"is_disabled": 0, "fusion_lat": 0.0, "lat": 38.912524, "type": "electric_scooter", "lon": -77.02228466666666, "is_reserved": 0, "fusion_lon": 0.0, "bike_id": "f3bf58ec5a26b29f396e2029341c8313", "name": "f3bf58ec5a26b29f396e2029341c8313", "rental_uris": {"ios": "https://dc.lft.to/lastmile_qr_scan", "android": "https://dc.lft.to/lastmile_qr_scan"}}, {"is_disabled": 0, "fusion_lat": 0.0, "lat": 38.91696316666667, "type": "electric_scooter", "lon": -77.01237016666667, "is_reserved": 0, "fusion_lon": 0.0, "bike_id": "e5d09fa91883d5dc3339721635eb90f5", "name": "e5d09fa91883d5dc3339721635eb90f5", "rental_uris": {"ios": "https://dc.lft.to/lastmile_qr_scan", "android": "https://dc.lft.to/lastmile_qr_scan"}}, {"is_disabled": 0, "fusion_lat": 0.0, "lat": 38.876879333333335, "type": "electric_scooter", "lon": -77.00730316666667, "is_reserved": 0, "fusion_lon": 0.0, "bike_id": "fda5abf6513d0f2578c9b16daa741886", "name": "fda5abf6513d0f2578c9b16daa741886", "rental_uris": {"ios": "https://dc.lft.to/lastmile_qr_scan", "android": "https://dc.lft.to/lastmile_qr_scan"}}, {"is_disabled": 0, "fusion_lat": 0.0, "lat": 38.933589166666664, "type": "electric_scooter", "lon": -77.03446, "is_reserved": 0, "fusion_lon": 0.0, "bike_id": "e4b3f0ceca2d19c3d40e1a94f7d97c76", "name": "e4b3f0ceca2d19c3d40e1a94f7d97c76", "rental_uris": {"ios": "https://dc.lft.to/lastmile_qr_scan", "android": "https://dc.lft.to/lastmile_qr_scan"}}, {"is_disabled": 0, "fusion_lat": 0.0, "lat": 38.91331666666667, "type": "electric_scooter", "lon": -77.048113, "is_reserved": 0, "fusion_lon": 0.0, "bike_id": "1033605e2597f76043b4c7a0ac5bd423", "name": "1033605e2597f76043b4c7a0ac5bd423", "rental_uris": {"ios": "https://dc.lft.to/lastmile_qr_scan", "android": "https://dc.lft.to/lastmile_qr_scan"}}, {"is_disabled": 0, "fusion_lat": 0.0, "lat": 38.91304566666667, "type": "electric_bike", "lon": -77.08295783333334, "is_reserved": 0, "fusion_lon": 0.0, "bike_id": "398cda45703f84842217a2064243a876", "name": "398cda45703f84842217a2064243a876", "rental_uris": {"ios": "https://dc.lft.to/lastmile_qr_scan", "android": "https://dc.lft.to/lastmile_qr_scan"}}, {"is_disabled": 0, "fusion_lat": 0.0, "lat": 38.897986, "type": "electric_scooter", "lon": -77.01888416666667, "is_reserved": 0, "fusion_lon": 0.0, "bike_id": "c8af738ff16e24dfbc592c8e3bb422fe", "name": "c8af738ff16e24dfbc592c8e3bb422fe", "rental_uris": {"ios": "https://dc.lft.to/lastmile_qr_scan", "android": "https://dc.lft.to/lastmile_qr_scan"}}, {"is_disabled": 0, "fusion_lat": 0.0, "lat": 38.911959, "type": "electric_scooter", "lon": -77.01615233333334, "is_reserved": 0, "fusion_lon": 0.0, "bike_id": "9e43cf5d39735549b368811c12709384", "name": "9e43cf5d39735549b368811c12709384", "rental_uris": {"ios": "https://dc.lft.to/lastmile_qr_scan", "android": "https://dc.lft.to/lastmile_qr_scan"}}, {"is_disabled": 0, "fusion_lat": 0.0, "lat": 38.91793216666667, "type": "electric_scooter", "lon": -77.036537, "is_reserved": 0, "fusion_lon": 0.0, "bike_id": "09af5225434f5011ad8daf04c8d66e9d", "name": "09af5225434f5011ad8daf04c8d66e9d", "rental_uris": {"ios": "https://dc.lft.to/lastmile_qr_scan", "android": "https://dc.lft.to/lastmile_qr_scan"}}, {"is_disabled": 0, "fusion_lat": 0.0, "lat": 38.92125133333333, "type": "electric_scooter", "lon": -77.01207683333334, "is_reserved": 0, "fusion_lon": 0.0, "bike_id": "4ad9c52f6d2622964d7abf3e42be81d8", "name": "4ad9c52f6d2622964d7abf3e42be81d8", "rental_uris": {"ios": "https://dc.lft.to/lastmile_qr_scan", "android": "https://dc.lft.to/lastmile_qr_scan"}}, {"is_disabled": 0, "fusion_lat": 0.0, "lat": 38.90383116666667, "type": "electric_scooter", "lon": -76.99958416666666, "is_reserved": 0, "fusion_lon": 0.0, "bike_id": "4d09f8417b10dc68edf1a2782dba3c8c", "name": "4d09f8417b10dc68edf1a2782dba3c8c", "rental_uris": {"ios": "https://dc.lft.to/lastmile_qr_scan", "android": "https://dc.lft.to/lastmile_qr_scan"}}, {"is_disabled": 0, "fusion_lat": 0.0, "lat": 38.941756, "type": "electric_scooter", "lon": -77.02499383333334, "is_reserved": 0, "fusion_lon": 0.0, "bike_id": "9a74081e8a350b96fb3ab5281c6cca6e", "name": "9a74081e8a350b96fb3ab5281c6cca6e", "rental_uris": {"ios": "https://dc.lft.to/lastmile_qr_scan", "android": "https://dc.lft.to/lastmile_qr_scan"}}, {"is_disabled": 0, "fusion_lat": 0.0, "lat": 38.87629366666667, "type": "electric_scooter", "lon": -76.965229, "is_reserved": 0, "fusion_lon": 0.0, "bike_id": "4f6479091bc2cf329335482df364d062", "name": "4f6479091bc2cf329335482df364d062", "rental_uris": {"ios": "https://dc.lft.to/lastmile_qr_scan", "android": "https://dc.lft.to/lastmile_qr_scan"}}, {"is_disabled": 0, "fusion_lat": 0.0, "lat": 38.90267683333333, "type": "electric_scooter", "lon": -77.01965666666666, "is_reserved": 0, "fusion_lon": 0.0, "bike_id": "3b414f783106ef48be3f23da13e283e2", "name": "3b414f783106ef48be3f23da13e283e2", "rental_uris": {"ios": "https://dc.lft.to/lastmile_qr_scan", "android": "https://dc.lft.to/lastmile_qr_scan"}}, {"is_disabled": 0, "fusion_lat": 0.0, "lat": 38.902779833333334, "type": "electric_scooter", "lon": -77.0337085, "is_reserved": 0, "fusion_lon": 0.0, "bike_id": "f1bd6c7b6efaffa759d56be364e2c9b7", "name": "f1bd6c7b6efaffa759d56be364e2c9b7", "rental_uris": {"ios": "https://dc.lft.to/lastmile_qr_scan", "android": "https://dc.lft.to/lastmile_qr_scan"}}, {"is_disabled": 0, "fusion_lat": 0.0, "lat": 38.842937666666664, "type": "electric_scooter", "lon": -76.99943583333334, "is_reserved": 0, "fusion_lon": 0.0, "bike_id": "63fb994ecf55791aec6d21236892db76", "name": "63fb994ecf55791aec6d21236892db76", "rental_uris": {"ios": "https://dc.lft.to/lastmile_qr_scan", "android": "https://dc.lft.to/lastmile_qr_scan"}}, {"is_disabled": 0, "fusion_lat": 0.0, "lat": 38.93322116666667, "type": "electric_scooter", "lon": -77.0327945, "is_reserved": 0, "fusion_lon": 0.0, "bike_id": "0660b900bf976199cddec0f81fc932ec", "name": "0660b900bf976199cddec0f81fc932ec", "rental_uris": {"ios": "https://dc.lft.to/lastmile_qr_scan", "android": "https://dc.lft.to/lastmile_qr_scan"}}, {"is_disabled": 0, "fusion_lat": 0.0, "lat": 38.90250316666667, "type": "electric_scooter", "lon": -77.01734116666667, "is_reserved": 0, "fusion_lon": 0.0, "bike_id": "153208ca8b3bb35d6c743652fa9a089d", "name": "153208ca8b3bb35d6c743652fa9a089d", "rental_uris": {"ios": "https://dc.lft.to/lastmile_qr_scan", "android": "https://dc.lft.to/lastmile_qr_scan"}}, {"is_disabled": 0, "fusion_lat": 0.0, "lat": 38.857237833333336, "type": "electric_scooter", "lon": -76.98089116666667, "is_reserved": 0, "fusion_lon": 0.0, "bike_id": "617cfa1bee476ff125042a6eaddc4c8b", "name": "617cfa1bee476ff125042a6eaddc4c8b", "rental_uris": {"ios": "https://dc.lft.to/lastmile_qr_scan", "android": "https://dc.lft.to/lastmile_qr_scan"}}, {"is_disabled": 0, "fusion_lat": 0.0, "lat": 38.89352183333333, "type": "electric_scooter", "lon": -77.01598483333333, "is_reserved": 0, "fusion_lon": 0.0, "bike_id": "240004c994b548735c3c83c0ed8c7aad", "name": "240004c994b548735c3c83c0ed8c7aad", "rental_uris": {"ios": "https://dc.lft.to/lastmile_qr_scan", "android": "https://dc.lft.to/lastmile_qr_scan"}}, {"is_disabled": 0, "fusion_lat": 0.0, "lat": 38.93174783333333, "type": "electric_scooter", "lon": -77.0283525, "is_reserved": 0, "fusion_lon": 0.0, "bike_id": "eb3c187311319982e8a6b35d8a888e0f", "name": "eb3c187311319982e8a6b35d8a888e0f", "rental_uris": {"ios": "https://dc.lft.to/lastmile_qr_scan", "android": "https://dc.lft.to/lastmile_qr_scan"}}, {"is_disabled": 0, "fusion_lat": 0.0, "lat": 38.91193416666667, "type": "electric_scooter", "lon": -77.01056983333334, "is_reserved": 0, "fusion_lon": 0.0, "bike_id": "9d97ff56162912877b6cb447fdf5ae45", "name": "9d97ff56162912877b6cb447fdf5ae45", "rental_uris": {"ios": "https://dc.lft.to/lastmile_qr_scan", "android": "https://dc.lft.to/lastmile_qr_scan"}}, {"is_disabled": 0, "fusion_lat": 0.0, "lat": 38.90243016666667, "type": "electric_scooter", "lon": -77.00188766666666, "is_reserved": 0, "fusion_lon": 0.0, "bike_id": "4585491dbf1cff93fc5f7fb18ef8eba3", "name": "4585491dbf1cff93fc5f7fb18ef8eba3", "rental_uris": {"ios": "https://dc.lft.to/lastmile_qr_scan", "android": "https://dc.lft.to/lastmile_qr_scan"}}, {"is_disabled": 0, "fusion_lat": 0.0, "lat": 38.90501716666667, "type": "electric_scooter", "lon": -76.99012583333334, "is_reserved": 0, "fusion_lon": 0.0, "bike_id": "c16b441d91d1c03cf7ced4dc57fa3459", "name": "c16b441d91d1c03cf7ced4dc57fa3459", "rental_uris": {"ios": "https://dc.lft.to/lastmile_qr_scan", "android": "https://dc.lft.to/lastmile_qr_scan"}}, {"is_disabled": 0, "fusion_lat": 0.0, "lat": 38.902582333333335, "type": "electric_scooter", "lon": -77.0155485, "is_reserved": 0, "fusion_lon": 0.0, "bike_id": "7745536dac09caf39aeca7f7096e353e", "name": "7745536dac09caf39aeca7f7096e353e", "rental_uris": {"ios": "https://dc.lft.to/lastmile_qr_scan", "android": "https://dc.lft.to/lastmile_qr_scan"}}, {"is_disabled": 0, "fusion_lat": 0.0, "lat": 38.918173833333334, "type": "electric_scooter", "lon": -77.0253325, "is_reserved": 0, "fusion_lon": 0.0, "bike_id": "c67c63ae87535ae065a25f4b426db528", "name": "c67c63ae87535ae065a25f4b426db528", "rental_uris": {"ios": "https://dc.lft.to/lastmile_qr_scan", "android": "https://dc.lft.to/lastmile_qr_scan"}}, {"is_disabled": 0, "fusion_lat": 0.0, "lat": 38.965738, "type": "electric_bike", "lon": -77.01615616666666, "is_reserved": 0, "fusion_lon": 0.0, "bike_id": "db0e879744428eb716e89f5ebe893aab", "name": "db0e879744428eb716e89f5ebe893aab", "rental_uris": {"ios": "https://dc.lft.to/lastmile_qr_scan", "android": "https://dc.lft.to/lastmile_qr_scan"}}, {"is_disabled": 0, "fusion_lat": 0.0, "lat": 38.920756833333336, "type": "electric_scooter", "lon": -77.04192816666666, "is_reserved": 0, "fusion_lon": 0.0, "bike_id": "d3ea9d2bfa9d2f8a2ed201bc2d5597bc", "name": "d3ea9d2bfa9d2f8a2ed201bc2d5597bc", "rental_uris": {"ios": "https://dc.lft.to/lastmile_qr_scan", "android": "https://dc.lft.to/lastmile_qr_scan"}}, {"is_disabled": 0, "fusion_lat": 0.0, "lat": 38.9050165, "type": "electric_scooter", "lon": -77.02950333333334, "is_reserved": 0, "fusion_lon": 0.0, "bike_id": "fd77873ce2f0ef5a169754b9c22ddd0f", "name": "fd77873ce2f0ef5a169754b9c22ddd0f", "rental_uris": {"ios": "https://dc.lft.to/lastmile_qr_scan", "android": "https://dc.lft.to/lastmile_qr_scan"}}, {"is_disabled": 0, "fusion_lat": 0.0, "lat": 38.87668033333333, "type": "electric_scooter", "lon": -77.00425733333333, "is_reserved": 0, "fusion_lon": 0.0, "bike_id": "459be3c5cedd8e951144d2da337e1dd2", "name": "459be3c5cedd8e951144d2da337e1dd2", "rental_uris": {"ios": "https://dc.lft.to/lastmile_qr_scan", "android": "https://dc.lft.to/lastmile_qr_scan"}}, {"is_disabled": 0, "fusion_lat": 0.0, "lat": 38.904205166666664, "type": "electric_scooter", "lon": -77.02062683333334, "is_reserved": 0, "fusion_lon": 0.0, "bike_id": "0eaeda665d45aea286533924f92f2c39", "name": "0eaeda665d45aea286533924f92f2c39", "rental_uris": {"ios": "https://dc.lft.to/lastmile_qr_scan", "android": "https://dc.lft.to/lastmile_qr_scan"}}, {"is_disabled": 0, "fusion_lat": 0.0, "lat": 38.90622616666667, "type": "electric_bike", "lon": -76.9861085, "is_reserved": 0, "fusion_lon": 0.0, "bike_id": "fbf607f75de024e655b58014fe1c52af", "name": "fbf607f75de024e655b58014fe1c52af", "rental_uris": {"ios": "https://dc.lft.to/lastmile_qr_scan", "android": "https://dc.lft.to/lastmile_qr_scan"}}, {"is_disabled": 0, "fusion_lat": 0.0, "lat": 38.9105335, "type": "electric_scooter", "lon": -77.02192783333334, "is_reserved": 0, "fusion_lon": 0.0, "bike_id": "44cfdbea2beed455b83dfc048e9350c4", "name": "44cfdbea2beed455b83dfc048e9350c4", "rental_uris": {"ios": "https://dc.lft.to/lastmile_qr_scan", "android": "https://dc.lft.to/lastmile_qr_scan"}}, {"is_disabled": 0, "fusion_lat": 0.0, "lat": 38.96027383333333, "type": "electric_scooter", "lon": -77.02827683333334, "is_reserved": 0, "fusion_lon": 0.0, "bike_id": "ff48f5c9b7a769753a91e6d8fb0c6cbc", "name": "ff48f5c9b7a769753a91e6d8fb0c6cbc", "rental_uris": {"ios": "https://dc.lft.to/lastmile_qr_scan", "android": "https://dc.lft.to/lastmile_qr_scan"}}, {"is_disabled": 0, "fusion_lat": 0.0, "lat": 38.906637833333335, "type": "electric_scooter", "lon": -77.00054533333333, "is_reserved": 0, "fusion_lon": 0.0, "bike_id": "0d2c0ef7628a5d025b9aff07e866256b", "name": "0d2c0ef7628a5d025b9aff07e866256b", "rental_uris": {"ios": "https://dc.lft.to/lastmile_qr_scan", "android": "https://dc.lft.to/lastmile_qr_scan"}}, {"is_disabled": 0, "fusion_lat": 0.0, "lat": 38.904006333333335, "type": "electric_scooter", "lon": -77.03243533333334, "is_reserved": 0, "fusion_lon": 0.0, "bike_id": "10c318d853acf6e73fad336127c86b96", "name": "10c318d853acf6e73fad336127c86b96", "rental_uris": {"ios": "https://dc.lft.to/lastmile_qr_scan", "android": "https://dc.lft.to/lastmile_qr_scan"}}, {"is_disabled": 0, "fusion_lat": 0.0, "lat": 38.89735533333333, "type": "electric_scooter", "lon": -77.04493433333333, "is_reserved": 0, "fusion_lon": 0.0, "bike_id": "b868f3b808c0b57654d018b842170680", "name": "b868f3b808c0b57654d018b842170680", "rental_uris": {"ios": "https://dc.lft.to/lastmile_qr_scan", "android": "https://dc.lft.to/lastmile_qr_scan"}}, {"is_disabled": 0, "fusion_lat": 0.0, "lat": 38.912666, "type": "electric_scooter", "lon": -77.01691283333334, "is_reserved": 0, "fusion_lon": 0.0, "bike_id": "2a8bf3f87a63b499dcfbb83d176e1c0f", "name": "2a8bf3f87a63b499dcfbb83d176e1c0f", "rental_uris": {"ios": "https://dc.lft.to/lastmile_qr_scan", "android": "https://dc.lft.to/lastmile_qr_scan"}}, {"is_disabled": 0, "fusion_lat": 0.0, "lat": 38.9120935, "type": "electric_scooter", "lon": -77.00372766666666, "is_reserved": 0, "fusion_lon": 0.0, "bike_id": "41dd83cc4e3b54babca1619722551504", "name": "41dd83cc4e3b54babca1619722551504", "rental_uris": {"ios": "https://dc.lft.to/lastmile_qr_scan", "android": "https://dc.lft.to/lastmile_qr_scan"}}, {"is_disabled": 0, "fusion_lat": 0.0, "lat": 38.90146383333333, "type": "electric_scooter", "lon": -77.01821433333333, "is_reserved": 0, "fusion_lon": 0.0, "bike_id": "22a491d63fa3e5b3a27c33630f06415a", "name": "22a491d63fa3e5b3a27c33630f06415a", "rental_uris": {"ios": "https://dc.lft.to/lastmile_qr_scan", "android": "https://dc.lft.to/lastmile_qr_scan"}}, {"is_disabled": 0, "fusion_lat": 0.0, "lat": 38.84292, "type": "electric_scooter", "lon": -76.999486, "is_reserved": 0, "fusion_lon": 0.0, "bike_id": "6f461990901cc4fd82e021b4f6cec7e9", "name": "6f461990901cc4fd82e021b4f6cec7e9", "rental_uris": {"ios": "https://dc.lft.to/lastmile_qr_scan", "android": "https://dc.lft.to/lastmile_qr_scan"}}, {"is_disabled": 0, "fusion_lat": 0.0, "lat": 38.916624666666664, "type": "electric_scooter", "lon": -77.00657033333333, "is_reserved": 0, "fusion_lon": 0.0, "bike_id": "6de8f6f27c78b4ab20d95f8892bc028f", "name": "6de8f6f27c78b4ab20d95f8892bc028f", "rental_uris": {"ios": "https://dc.lft.to/lastmile_qr_scan", "android": "https://dc.lft.to/lastmile_qr_scan"}}, {"is_disabled": 0, "fusion_lat": 0.0, "lat": 38.97372466666667, "type": "electric_scooter", "lon": -77.01863266666666, "is_reserved": 0, "fusion_lon": 0.0, "bike_id": "17fdf7fd2fddec2e5b83d281eac24325", "name": "17fdf7fd2fddec2e5b83d281eac24325", "rental_uris": {"ios": "https://dc.lft.to/lastmile_qr_scan", "android": "https://dc.lft.to/lastmile_qr_scan"}}, {"is_disabled": 0, "fusion_lat": 0.0, "lat": 38.914642666666666, "type": "electric_scooter", "lon": -77.0386665, "is_reserved": 0, "fusion_lon": 0.0, "bike_id": "3829a20f8c6c0683cec48254463869b3", "name": "3829a20f8c6c0683cec48254463869b3", "rental_uris": {"ios": "https://dc.lft.to/lastmile_qr_scan", "android": "https://dc.lft.to/lastmile_qr_scan"}}, {"is_disabled": 0, "fusion_lat": 0.0, "lat": 38.903127833333336, "type": "electric_scooter", "lon": -77.03838466666667, "is_reserved": 0, "fusion_lon": 0.0, "bike_id": "563baa3e259c7414027b9a3bf9370cfd", "name": "563baa3e259c7414027b9a3bf9370cfd", "rental_uris": {"ios": "https://dc.lft.to/lastmile_qr_scan", "android": "https://dc.lft.to/lastmile_qr_scan"}}, {"is_disabled": 0, "fusion_lat": 0.0, "lat": 38.9198105, "type": "electric_scooter", "lon": -77.04156716666667, "is_reserved": 0, "fusion_lon": 0.0, "bike_id": "7f4b0e304e58549c485a1bef47092e44", "name": "7f4b0e304e58549c485a1bef47092e44", "rental_uris": {"ios": "https://dc.lft.to/lastmile_qr_scan", "android": "https://dc.lft.to/lastmile_qr_scan"}}, {"is_disabled": 0, "fusion_lat": 0.0, "lat": 38.8671085, "type": "electric_scooter", "lon": -76.98725833333333, "is_reserved": 0, "fusion_lon": 0.0, "bike_id": "ee3bd71934ab65176b01f2de6601b300", "name": "ee3bd71934ab65176b01f2de6601b300", "rental_uris": {"ios": "https://dc.lft.to/lastmile_qr_scan", "android": "https://dc.lft.to/lastmile_qr_scan"}}, {"is_disabled": 0, "fusion_lat": 0.0, "lat": 38.876328666666666, "type": "electric_scooter", "lon": -77.01641433333333, "is_reserved": 0, "fusion_lon": 0.0, "bike_id": "74712e32233e00d564579d023eeb562c", "name": "74712e32233e00d564579d023eeb562c", "rental_uris": {"ios": "https://dc.lft.to/lastmile_qr_scan", "android": "https://dc.lft.to/lastmile_qr_scan"}}, {"is_disabled": 0, "fusion_lat": 0.0, "lat": 38.9405545, "type": "electric_scooter", "lon": -77.09271533333333, "is_reserved": 0, "fusion_lon": 0.0, "bike_id": "d18ecb4cbe3b3f917d1e3c9e781d0855", "name": "d18ecb4cbe3b3f917d1e3c9e781d0855", "rental_uris": {"ios": "https://dc.lft.to/lastmile_qr_scan", "android": "https://dc.lft.to/lastmile_qr_scan"}}, {"is_disabled": 0, "fusion_lat": 0.0, "lat": 38.90130766666667, "type": "electric_scooter", "lon": -76.997102, "is_reserved": 0, "fusion_lon": 0.0, "bike_id": "6f9217b177275441152f7a8ce4c98038", "name": "6f9217b177275441152f7a8ce4c98038", "rental_uris": {"ios": "https://dc.lft.to/lastmile_qr_scan", "android": "https://dc.lft.to/lastmile_qr_scan"}}, {"is_disabled": 0, "fusion_lat": 0.0, "lat": 38.920152, "type": "electric_scooter", "lon": -77.02186633333334, "is_reserved": 0, "fusion_lon": 0.0, "bike_id": "acce7cdc36e04219019433ba8b224fe8", "name": "acce7cdc36e04219019433ba8b224fe8", "rental_uris": {"ios": "https://dc.lft.to/lastmile_qr_scan", "android": "https://dc.lft.to/lastmile_qr_scan"}}, {"is_disabled": 0, "fusion_lat": 0.0, "lat": 38.911598166666664, "type": "electric_scooter", "lon": -76.98656083333333, "is_reserved": 0, "fusion_lon": 0.0, "bike_id": "d68346adb090b076f9e070307eec782e", "name": "d68346adb090b076f9e070307eec782e", "rental_uris": {"ios": "https://dc.lft.to/lastmile_qr_scan", "android": "https://dc.lft.to/lastmile_qr_scan"}}, {"is_disabled": 0, "fusion_lat": 0.0, "lat": 38.95285333333333, "type": "electric_scooter", "lon": -77.06851283333333, "is_reserved": 0, "fusion_lon": 0.0, "bike_id": "3e9b5b155d0b75ca04460a2a8ceb19bf", "name": "3e9b5b155d0b75ca04460a2a8ceb19bf", "rental_uris": {"ios": "https://dc.lft.to/lastmile_qr_scan", "android": "https://dc.lft.to/lastmile_qr_scan"}}, {"is_disabled": 0, "fusion_lat": 0.0, "lat": 38.92707733333334, "type": "electric_scooter", "lon": -77.04055683333333, "is_reserved": 0, "fusion_lon": 0.0, "bike_id": "22cba664f0209b89a5abb96f713cb26b", "name": "22cba664f0209b89a5abb96f713cb26b", "rental_uris": {"ios": "https://dc.lft.to/lastmile_qr_scan", "android": "https://dc.lft.to/lastmile_qr_scan"}}, {"is_disabled": 0, "fusion_lat": 0.0, "lat": 38.92014266666666, "type": "electric_scooter", "lon": -77.04076616666667, "is_reserved": 0, "fusion_lon": 0.0, "bike_id": "7027cf3e82b21c4376443495e2380b85", "name": "7027cf3e82b21c4376443495e2380b85", "rental_uris": {"ios": "https://dc.lft.to/lastmile_qr_scan", "android": "https://dc.lft.to/lastmile_qr_scan"}}, {"is_disabled": 0, "fusion_lat": 0.0, "lat": 38.92973333333333, "type": "electric_scooter", "lon": -77.0281975, "is_reserved": 0, "fusion_lon": 0.0, "bike_id": "1779f9dbae727fd5b0ccff4dc14776cb", "name": "1779f9dbae727fd5b0ccff4dc14776cb", "rental_uris": {"ios": "https://dc.lft.to/lastmile_qr_scan", "android": "https://dc.lft.to/lastmile_qr_scan"}}, {"is_disabled": 0, "fusion_lat": 0.0, "lat": 38.928117666666665, "type": "electric_scooter", "lon": -77.036217, "is_reserved": 0, "fusion_lon": 0.0, "bike_id": "84e5393d75cf6cf6ad8d4ee44c89e913", "name": "84e5393d75cf6cf6ad8d4ee44c89e913", "rental_uris": {"ios": "https://dc.lft.to/lastmile_qr_scan", "android": "https://dc.lft.to/lastmile_qr_scan"}},