{"data": {"bikes": [{"lon": -77.01039116666666, "is_disabled": 0, "lat": 38.915654, "fusion_lat": 0.0, "is_reserved": 0, "rental_uris": {"ios": "https://dc.lft.to/lastmile_qr_scan", "android": "https://dc.lft.to/lastmile_qr_scan"}, "fusion_lon": 0.0, "type": "electric_scooter", "bike_id": "a3dc6c0316bea8fd3b00f7eeb492ecbe", "name": "a3dc6c0316bea8fd3b00f7eeb492ecbe"}, {"lon": -77.043534, "is_disabled": 0, "lat": 38.89633383333333, "fusion_lat": 0.0, "is_reserved": 0, "rental_uris": {"ios": "https://dc.lft.to/lastmile_qr_scan", "android": "https://dc.lft.to/lastmile_qr_scan"}, "fusion_lon": 0.0, "type": "electric_scooter", "bike_id": "c04c9961d8cf5637db4ead384d8383a9", "name": "c04c9961d8cf5637db4ead384d8383a9"}, {"lon": -77.00602766666667, "is_disabled": 0, "lat": 38.897771166666665, "fusion_lat": 0.0, "is_reserved": 0, "rental_uris": {"ios": "https://dc.lft.to/lastmile_qr_scan", "android": "https://dc.lft.to/lastmile_qr_scan"}, "fusion_lon": 0.0, "type": "electric_bike", "bike_id": "e2c5ee824dff86af11b3b3c77ec7320e", "name": "e2c5ee824dff86af11b3b3c77ec7320e"}, {"lon": -77.02180583333333, "is_disabled": 0, "lat": 38.906833, "fusion_lat": 0.0, "is_reserved": 0, "rental_uris": {"ios": "https://dc.lft.to/lastmile_qr_scan", "android": "https://dc.lft.to/lastmile_qr_scan"}, "fusion_lon": 0.0, "type": "electric_scooter", "bike_id": "e257777675165ac3240d4131293bf589", "name": "e257777675165ac3240d4131293bf589"}, {"lon": -77.03126233333333, "is_disabled": 0, "lat": 38.9308845, "fusion_lat": 0.0, "is_reserved": 0, "rental_uris": {"ios": "https://dc.lft.to/lastmile_qr_scan", "android": "https://dc.lft.to/lastmile_qr_scan"}, "fusion_lon": 0.0, "type": "electric_scooter", "bike_id": "014c6bf25a45bfc1a732bea61ab47a7a", "name": "014c6bf25a45bfc1a732bea61ab47a7a"}, {"lon": -77.03277366666667, "is_disabled": 0, "lat": 38.92628966666667, "fusion_lat": 0.0, "is_reserved": 0, "rental_uris": {"ios": "https://dc.lft.to/lastmile_qr_scan", "android": "https://dc.lft.to/lastmile_qr_scan"}, "fusion_lon": 0.0, "type": "electric_scooter", "bike_id": "8f8297f87d956792f1d1aaa7c694e717", "name": "8f8297f87d956792f1d1aaa7c694e717"}, {"lon": -77.02110816666666, "is_disabled": 0, "lat": 38.9141465, "fusion_lat": 0.0, "is_reserved": 0, "rental_uris": {"ios": "https://dc.lft.to/lastmile_qr_scan", "android": "https://dc.lft.to/lastmile_qr_scan"}, "fusion_lon": 0.0, "type": "electric_scooter", "bike_id": "6b5f3a64e5d7a747c04380d1e67fce83", "name": "6b5f3a64e5d7a747c04380d1e67fce83"}, {"lon": -77.04451116666667, "is_disabled": 0, "lat": 38.9153265, "fusion_lat": 0.0, "is_reserved": 0, "rental_uris": {"ios": "https://dc.lft.to/lastmile_qr_scan", "android": "https://dc.lft.to/lastmile_qr_scan"}, "fusion_lon": 0.0, "type": "electric_scooter", "bike_id": "cf4d86b6e51243083114dff6e00fb9cd", "name": "cf4d86b6e51243083114dff6e00fb9cd"}, {"lon": -77.02438416666666, "is_disabled": 0, "lat": 38.92051933333333, "fusion_lat": 0.0, "is_reserved": 0, "rental_uris": {"ios": "https://dc.lft.to/lastmile_qr_scan", "android": "https://dc.lft.to/lastmile_qr_scan"}, "fusion_lon": 0.0, "type": "electric_scooter", "bike_id": "85b83531b78d1773072e31e8516631d3", "name": "85b83531b78d1773072e31e8516631d3"}, {"lon": -77.02178966666666, "is_disabled": 0, "lat": 38.9105265, "fusion_lat": 0.0, "is_reserved": 0, "rental_uris": {"ios": "https://dc.lft.to/lastmile_qr_scan", "android": "https://dc.lft.to/lastmile_qr_scan"}, "fusion_lon": 0.0, "type": "electric_scooter", "bike_id": "0b5f52e92268f520989036000cbd15e3", "name": "0b5f52e92268f520989036000cbd15e3"}, {"lon": -77.01859616666667, "is_disabled": 0, "lat": 38.94921333333333, "fusion_lat": 0.0, "is_reserved": 0, "rental_uris": {"ios": "https://dc.lft.to/lastmile_qr_scan", "android": "https://dc.lft.to/lastmile_qr_scan"}, "fusion_lon": 0.0, "type": "electric_scooter", "bike_id": "7a2f3d1dc61abf6a7650f5d81fe64a4e", "name": "7a2f3d1dc61abf6a7650f5d81fe64a4e"}, {"lon": -77.03952033333333, "is_disabled": 0, "lat": 38.90264633333334, "fusion_lat": 0.0, "is_reserved": 0, "rental_uris": {"ios": "https://dc.lft.to/lastmile_qr_scan", "android": "https://dc.lft.to/lastmile_qr_scan"}, "fusion_lon": 0.0, "type": "electric_scooter", "bike_id": "6bdc8b0827da0f54bdafa29320572c7c", "name": "6bdc8b0827da0f54bdafa29320572c7c"}, {"lon": -77.0267885, "is_disabled": 0, "lat": 38.89714983333333, "fusion_lat": 0.0, "is_reserved": 0, "rental_uris": {"ios": "https://dc.lft.to/lastmile_qr_scan", "android": "https://dc.lft.to/lastmile_qr_scan"}, "fusion_lon": 0.0, "type": "electric_scooter", "bike_id": "2300b4caec4710eb13f1d0f892ce6745", "name": "2300b4caec4710eb13f1d0f892ce6745"}, {"lon": -77.0221755, "is_disabled": 0, "lat": 38.897204, "fusion_lat": 0.0, "is_reserved": 0, "rental_uris": {"ios": "https://dc.lft.to/lastmile_qr_scan", "android": "https://dc.lft.to/lastmile_qr_scan"}, "fusion_lon": 0.0, "type": "electric_scooter", "bike_id": "84bbd4846a9559f479fd01621b6764cf", "name": "84bbd4846a9559f479fd01621b6764cf"}, {"lon": -77.03964333333333, "is_disabled": 0, "lat": 38.894248166666664, "fusion_lat": 0.0, "is_reserved": 0, "rental_uris": {"ios": "https://dc.lft.to/lastmile_qr_scan", "android": "https://dc.lft.to/lastmile_qr_scan"}, "fusion_lon": 0.0, "type": "electric_scooter", "bike_id": "a5969ae2dcf6de17d8b1f0f804c368a7", "name": "a5969ae2dcf6de17d8b1f0f804c368a7"}, {"lon": -76.95252466666666, "is_disabled": 0, "lat": 38.9069675, "fusion_lat": 0.0, "is_reserved": 0, "rental_uris": {"ios": "https://dc.lft.to/lastmile_qr_scan", "android": "https://dc.lft.to/lastmile_qr_scan"}, "fusion_lon": 0.0, "type": "electric_bike", "bike_id": "74bced59d79f5f4104f87968d1377fab", "name": "74bced59d79f5f4104f87968d1377fab"}, {"lon": -77.02225316666667, "is_disabled": 0, "lat": 38.934652166666666, "fusion_lat": 0.0, "is_reserved": 0, "rental_uris": {"ios": "https://dc.lft.to/lastmile_qr_scan", "android": "https://dc.lft.to/lastmile_qr_scan"}, "fusion_lon": 0.0, "type": "electric_scooter", "bike_id": "cb40177a9e43f173ea72d35729e985f0", "name": "cb40177a9e43f173ea72d35729e985f0"}, {"lon": -76.94634633333334, "is_disabled": 0, "lat": 38.8986645, "fusion_lat": 0.0, "is_reserved": 0, "rental_uris": {"ios": "https://dc.lft.to/lastmile_qr_scan", "android": "https://dc.lft.to/lastmile_qr_scan"}, "fusion_lon": 0.0, "type": "electric_scooter", "bike_id": "3d7cef26cd61e050bc97abc48b6cfd93", "name": "3d7cef26cd61e050bc97abc48b6cfd93"}, {"lon": -77.03278283333333, "is_disabled": 0, "lat": 38.922462833333334, "fusion_lat": 0.0, "is_reserved": 0, "rental_uris": {"ios": "https://dc.lft.to/lastmile_qr_scan", "android": "https://dc.lft.to/lastmile_qr_scan"}, "fusion_lon": 0.0, "type": "electric_scooter", "bike_id": "2054a60ea6455c27ade7d33de85f6056", "name": "2054a60ea6455c27ade7d33de85f6056"}, {"lon": -77.02586033333333, "is_disabled": 0, "lat": 38.942052, "fusion_lat": 0.0, "is_reserved": 0, "rental_uris": {"ios": "https://dc.lft.to/lastmile_qr_scan", "android": "https://dc.lft.to/lastmile_qr_scan"}, "fusion_lon": 0.0, "type": "electric_scooter", "bike_id": "b68cb8e6c47cdc1bf24664d206cb639e", "name": "b68cb8e6c47cdc1bf24664d206cb639e"}, {"lon": -77.20138, "is_disabled": 0, "lat": 38.92218733333333, "fusion_lat": 0.0, "is_reserved": 0, "rental_uris": {"ios": "https://dc.lft.to/lastmile_qr_scan", "android": "https://dc.lft.to/lastmile_qr_scan"}, "fusion_lon": 0.0, "type": "electric_bike", "bike_id": "a2e04ea412de78d9c57b55c60909e413", "name": "a2e04ea412de78d9c57b55c60909e413"}, {"lon": -77.09137716666666, "is_disabled": 0, "lat": 38.8614625, "fusion_lat": 0.0, "is_reserved": 0, "rental_uris": {"ios": "https://dc.lft.to/lastmile_qr_scan", "android": "https://dc.lft.to/lastmile_qr_scan"}, "fusion_lon": 0.0, "type": "electric_bike", "bike_id": "50fd40edf7a6ce34896abbed82faa56a", "name": "50fd40edf7a6ce34896abbed82faa56a"}, {"lon": -77.02219833333334, "is_disabled": 0, "lat": 38.915607333333334, "fusion_lat": 0.0, "is_reserved": 0, "rental_uris": {"ios": "https://dc.lft.to/lastmile_qr_scan", "android": "https://dc.lft.to/lastmile_qr_scan"}, "fusion_lon": 0.0, "type": "electric_scooter", "bike_id": "f0ab462d9fbd7ae6dd8ece59ac36fb97", "name": "f0ab462d9fbd7ae6dd8ece59ac36fb97"}, {"lon": -77.04673866666667, "is_disabled": 0, "lat": 38.89323516666666, "fusion_lat": 0.0, "is_reserved": 0, "rental_uris": {"ios": "https://dc.lft.to/lastmile_qr_scan", "android": "https://dc.lft.to/lastmile_qr_scan"}, "fusion_lon": 0.0, "type": "electric_scooter", "bike_id": "ec08dc0441b829139a3bfd426a09b1dc", "name": "ec08dc0441b829139a3bfd426a09b1dc"}, {"lon": -77.047556, "is_disabled": 0, "lat": 38.918693833333336, "fusion_lat": 0.0, "is_reserved": 0, "rental_uris": {"ios": "https://dc.lft.to/lastmile_qr_scan", "android": "https://dc.lft.to/lastmile_qr_scan"}, "fusion_lon": 0.0, "type": "electric_scooter", "bike_id": "7a5a7f4e6d5d2dcfd79dc1580cc00bda", "name": "7a5a7f4e6d5d2dcfd79dc1580cc00bda"}, {"lon": -77.057426, "is_disabled": 0, "lat": 38.933892166666666, "fusion_lat": 0.0, "is_reserved": 0, "rental_uris": {"ios": "https://dc.lft.to/lastmile_qr_scan", "android": "https://dc.lft.to/lastmile_qr_scan"}, "fusion_lon": 0.0, "type": "electric_scooter", "bike_id": "6f18fd8694eadb4a3e9959661313b0fc", "name": "6f18fd8694eadb4a3e9959661313b0fc"}, {"lon": -77.02405316666666, "is_disabled": 0, "lat": 38.917589, "fusion_lat": 0.0, "is_reserved": 0, "rental_uris": {"ios": "https://dc.lft.to/lastmile_qr_scan", "android": "https://dc.lft.to/lastmile_qr_scan"}, "fusion_lon": 0.0, "type": "electric_scooter", "bike_id": "fafb57100894a7ea5a24dfca1229f83b", "name": "fafb57100894a7ea5a24dfca1229f83b"}, {"lon": -76.970972, "is_disabled": 0, "lat": 38.870636166666664, "fusion_lat": 0.0, "is_reserved": 0, "rental_uris": {"ios": "https://dc.lft.to/lastmile_qr_scan", "android": "https://dc.lft.to/lastmile_qr_scan"}, "fusion_lon": 0.0, "type": "electric_scooter", "bike_id": "5a699e961cea8a64e8f0cd5169cb1522", "name": "5a699e961cea8a64e8f0cd5169cb1522"}, {"lon": -77.03153216666666, "is_disabled": 0, "lat": 38.964451333333336, "fusion_lat": 0.0, "is_reserved": 0, "rental_uris": {"ios": "https://dc.lft.to/lastmile_qr_scan", "android": "https://dc.lft.to/lastmile_qr_scan"}, "fusion_lon": 0.0, "type": "electric_bike", "bike_id": "efb39464604717252a17309e6b2a82c6", "name": "efb39464604717252a17309e6b2a82c6"}, {"lon": -77.0230095, "is_disabled": 0, "lat": 38.920585833333334, "fusion_lat": 0.0, "is_reserved": 0, "rental_uris": {"ios": "https://dc.lft.to/lastmile_qr_scan", "android": "https://dc.lft.to/lastmile_qr_scan"}, "fusion_lon": 0.0, "type": "electric_scooter", "bike_id": "8d163e874977a9a13df7675eefeaf491", "name": "8d163e874977a9a13df7675eefeaf491"}, {"lon": -77.0165445, "is_disabled": 0, "lat": 38.88110116666667, "fusion_lat": 0.0, "is_reserved": 0, "rental_uris": {"ios": "https://dc.lft.to/lastmile_qr_scan", "android": "https://dc.lft.to/lastmile_qr_scan"}, "fusion_lon": 0.0, "type": "electric_scooter", "bike_id": "479d5f1c2c40127d07207f5ad6c69750", "name": "479d5f1c2c40127d07207f5ad6c69750"}, {"lon": -77.026974, "is_disabled": 0, "lat": 38.925685666666666, "fusion_lat": 0.0, "is_reserved": 0, "rental_uris": {"ios": "https://dc.lft.to/lastmile_qr_scan", "android": "https://dc.lft.to/lastmile_qr_scan"}, "fusion_lon": 0.0, "type": "electric_scooter", "bike_id": "cb09e632e5dfba4582862b2df66d69c7", "name": "cb09e632e5dfba4582862b2df66d69c7"}, {"lon": -77.0382505, "is_disabled": 0, "lat": 38.912566166666664, "fusion_lat": 0.0, "is_reserved": 0, "rental_uris": {"ios": "https://dc.lft.to/lastmile_qr_scan", "android": "https://dc.lft.to/lastmile_qr_scan"}, "fusion_lon": 0.0, "type": "electric_scooter", "bike_id": "865cf850189d60e0230bad71a169c131", "name": "865cf850189d60e0230bad71a169c131"}, {"lon": -76.98006766666667, "is_disabled": 0, "lat": 38.90681083333333, "fusion_lat": 0.0, "is_reserved": 0, "rental_uris": {"ios": "https://dc.lft.to/lastmile_qr_scan", "android": "https://dc.lft.to/lastmile_qr_scan"}, "fusion_lon": 0.0, "type": "electric_scooter", "bike_id": "3b2b7a6a58049592bf07c3f2904016fe", "name": "3b2b7a6a58049592bf07c3f2904016fe"}, {"lon": -77.181225, "is_disabled": 0, "lat": 38.9322135, "fusion_lat": 0.0, "is_reserved": 0, "rental_uris": {"ios": "https://dc.lft.to/lastmile_qr_scan", "android": "https://dc.lft.to/lastmile_qr_scan"}, "fusion_lon": 0.0, "type": "electric_bike", "bike_id": "312aa9fb9a66e2d3cc2758dc67e70565", "name": "312aa9fb9a66e2d3cc2758dc67e70565"}, {"lon": -77.03863233333334, "is_disabled": 0, "lat": 38.9171565, "fusion_lat": 0.0, "is_reserved": 0, "rental_uris": {"ios": "https://dc.lft.to/lastmile_qr_scan", "android": "https://dc.lft.to/lastmile_qr_scan"}, "fusion_lon": 0.0, "type": "electric_scooter", "bike_id": "6cd50bae9391ab5f8f7842b700b84b8e", "name": "6cd50bae9391ab5f8f7842b700b84b8e"}, {"lon": -77.03856933333333, "is_disabled": 0, "lat": 38.90710966666666, "fusion_lat": 0.0, "is_reserved": 0, "rental_uris": {"ios": "https://dc.lft.to/lastmile_qr_scan", "android": "https://dc.lft.to/lastmile_qr_scan"}, "fusion_lon": 0.0, "type": "electric_scooter", "bike_id": "df5035f09a6cfcb796e925f947e0bccc", "name": "df5035f09a6cfcb796e925f947e0bccc"}, {"lon": -77.02772516666667, "is_disabled": 0, "lat": 38.928734, "fusion_lat": 0.0, "is_reserved": 0, "rental_uris": {"ios": "https://dc.lft.to/lastmile_qr_scan", "android": "https://dc.lft.to/lastmile_qr_scan"}, "fusion_lon": 0.0, "type": "electric_scooter", "bike_id": "c455f519f1ab56d94639b8fd03457588", "name": "c455f519f1ab56d94639b8fd03457588"}, {"lon": -77.00106383333333, "is_disabled": 0, "lat": 38.873753, "fusion_lat": 0.0, "is_reserved": 0, "rental_uris": {"ios": "https://dc.lft.to/lastmile_qr_scan", "android": "https://dc.lft.to/lastmile_qr_scan"}, "fusion_lon": 0.0, "type": "electric_scooter", "bike_id": "79233007e9e05e5881464c3a382719d0", "name": "79233007e9e05e5881464c3a382719d0"}, {"lon": -77.03847683333333, "is_disabled": 0, "lat": 38.90973416666667, "fusion_lat": 0.0, "is_reserved": 0, "rental_uris": {"ios": "https://dc.lft.to/lastmile_qr_scan", "android": "https://dc.lft.to/lastmile_qr_scan"}, "fusion_lon": 0.0, "type": "electric_scooter", "bike_id": "a7e31441900d014565a9e32444075bb8", "name": "a7e31441900d014565a9e32444075bb8"}, {"lon": -77.03442516666667, "is_disabled": 0, "lat": 38.9097365, "fusion_lat": 0.0, "is_reserved": 0, "rental_uris": {"ios": "https://dc.lft.to/lastmile_qr_scan", "android": "https://dc.lft.to/lastmile_qr_scan"}, "fusion_lon": 0.0, "type": "electric_scooter", "bike_id": "5525ec608a57fdadef9678d79c441e51", "name": "5525ec608a57fdadef9678d79c441e51"}, {"lon": -77.0500025, "is_disabled": 0, "lat": 38.89232, "fusion_lat": 0.0, "is_reserved": 0, "rental_uris": {"ios": "https://dc.lft.to/lastmile_qr_scan", "android": "https://dc.lft.to/lastmile_qr_scan"}, "fusion_lon": 0.0, "type": "electric_scooter", "bike_id": "8193fd6fcac57bdae874871b848458a7", "name": "8193fd6fcac57bdae874871b848458a7"}, {"lon": -76.98553016666666, "is_disabled": 0, "lat": 38.899907, "fusion_lat": 0.0, "is_reserved": 0, "rental_uris": {"ios": "https://dc.lft.to/lastmile_qr_scan", "android": "https://dc.lft.to/lastmile_qr_scan"}, "fusion_lon": 0.0, "type": "electric_scooter", "bike_id": "5bd84ba94684704153f1e48c5ca82800", "name": "5bd84ba94684704153f1e48c5ca82800"}, {"lon": -77.02468433333334, "is_disabled": 0, "lat": 38.90244833333333, "fusion_lat": 0.0, "is_reserved": 0, "rental_uris": {"ios": "https://dc.lft.to/lastmile_qr_scan", "android": "https://dc.lft.to/lastmile_qr_scan"}, "fusion_lon": 0.0, "type": "electric_scooter", "bike_id": "03a6d33eda414e52bb2a12aab411883c", "name": "03a6d33eda414e52bb2a12aab411883c"}, {"lon": -77.02273116666667, "is_disabled": 0, "lat": 38.927262166666665, "fusion_lat": 0.0, "is_reserved": 0, "rental_uris": {"ios": "https://dc.lft.to/lastmile_qr_scan", "android": "https://dc.lft.to/lastmile_qr_scan"}, "fusion_lon": 0.0, "type": "electric_scooter", "bike_id": "d951954e20eff09b8ccedf548844a98b", "name": "d951954e20eff09b8ccedf548844a98b"}, {"lon": -77.023869, "is_disabled": 0, "lat": 38.91272766666667, "fusion_lat": 0.0, "is_reserved": 0, "rental_uris": {"ios": "https://dc.lft.to/lastmile_qr_scan", "android": "https://dc.lft.to/lastmile_qr_scan"}, "fusion_lon": 0.0, "type": "electric_scooter", "bike_id": "86cda59b3af2d94bb7bb73fbace89090", "name": "86cda59b3af2d94bb7bb73fbace89090"}, {"lon": -77.04002983333334, "is_disabled": 0, "lat": 38.90807516666667, "fusion_lat": 0.0, "is_reserved": 0, "rental_uris": {"ios": "https://dc.lft.to/lastmile_qr_scan", "android": "https://dc.lft.to/lastmile_qr_scan"}, "fusion_lon": 0.0, "type": "electric_scooter", "bike_id": "295187f22b4b2af1ca01024f0e5c54c3", "name": "295187f22b4b2af1ca01024f0e5c54c3"}, {"lon": -77.00136116666667, "is_disabled": 0, "lat": 38.905124666666666, "fusion_lat": 0.0, "is_reserved": 0, "rental_uris": {"ios": "https://dc.lft.to/lastmile_qr_scan", "android": "https://dc.lft.to/lastmile_qr_scan"}, "fusion_lon": 0.0, "type": "electric_scooter", "bike_id": "4588e364a5f9c5deab95a17db8ccaf3e", "name": "4588e364a5f9c5deab95a17db8ccaf3e"}, {"lon": -76.9562965, "is_disabled": 0, "lat": 38.885125333333335, "fusion_lat": 0.0, "is_reserved": 0, "rental_uris": {"ios": "https://dc.lft.to/lastmile_qr_scan", "android": "https://dc.lft.to/lastmile_qr_scan"}, "fusion_lon": 0.0, "type": "electric_bike", "bike_id": "359123e3e2bc01c4d38406bd03bac484", "name": "359123e3e2bc01c4d38406bd03bac484"}, {"lon": -77.04768866666667, "is_disabled": 0, "lat": 38.91755666666667, "fusion_lat": 0.0, "is_reserved": 0, "rental_uris": {"ios": "https://dc.lft.to/lastmile_qr_scan", "android": "https://dc.lft.to/lastmile_qr_scan"}, "fusion_lon": 0.0, "type": "electric_scooter", "bike_id": "be301e9d6a0585f0a8ba4f887bc3e640", "name": "be301e9d6a0585f0a8ba4f887bc3e640"}, {"lon": -77.04184666666667, "is_disabled": 0, "lat": 38.92040466666667, "fusion_lat": 0.0, "is_reserved": 0, "rental_uris": {"ios": "https://dc.lft.to/lastmile_qr_scan", "android": "https://dc.lft.to/lastmile_qr_scan"}, "fusion_lon": 0.0, "type": "electric_scooter", "bike_id": "f37846aa8936a57e5584c6033f24e0e4", "name": "f37846aa8936a57e5584c6033f24e0e4"}, {"lon": -77.03429916666667, "is_disabled": 0, "lat": 38.908178, "fusion_lat": 0.0, "is_reserved": 0, "rental_uris": {"ios": "https://dc.lft.to/lastmile_qr_scan", "android": "https://dc.lft.to/lastmile_qr_scan"}, "fusion_lon": 0.0, "type": "electric_scooter", "bike_id": "c20f6ccb0f203aa5a091d496a40a9db7", "name": "c20f6ccb0f203aa5a091d496a40a9db7"}, {"lon": -77.03825383333333, "is_disabled": 0, "lat": 38.9077675, "fusion_lat": 0.0, "is_reserved": 0, "rental_uris": {"ios": "https://dc.lft.to/lastmile_qr_scan", "android": "https://dc.lft.to/lastmile_qr_scan"}, "fusion_lon": 0.0, "type": "electric_scooter", "bike_id": "5824e480b7c641224cc68d545a0bd958", "name": "5824e480b7c641224cc68d545a0bd958"}, {"lon": -76.99866816666666, "is_disabled": 0, "lat": 38.844347166666665, "fusion_lat": 0.0, "is_reserved": 0, "rental_uris": {"ios": "https://dc.lft.to/lastmile_qr_scan", "android": "https://dc.lft.to/lastmile_qr_scan"}, "fusion_lon": 0.0, "type": "electric_scooter", "bike_id": "8735cb53c19aa21546c107d6ebde5b85", "name": "8735cb53c19aa21546c107d6ebde5b85"}, {"lon": -77.03246516666667, "is_disabled": 0, "lat": 38.92154, "fusion_lat": 0.0, "is_reserved": 0, "rental_uris": {"ios": "https://dc.lft.to/lastmile_qr_scan", "android": "https://dc.lft.to/lastmile_qr_scan"}, "fusion_lon": 0.0, "type": "electric_scooter", "bike_id": "c1cfeab714862dc20afe654e9f0335bd", "name": "c1cfeab714862dc20afe654e9f0335bd"}, {"lon": -77.0443325, "is_disabled": 0, "lat": 38.9095095, "fusion_lat": 0.0, "is_reserved": 0, "rental_uris": {"ios": "https://dc.lft.to/lastmile_qr_scan", "android": "https://dc.lft.to/lastmile_qr_scan"}, "fusion_lon": 0.0, "type": "electric_scooter", "bike_id": "7dcc2fe48dce0061583fb601ff449aea", "name": "7dcc2fe48dce0061583fb601ff449aea"}, {"lon": -77.00197483333334, "is_disabled": 0, "lat": 38.9649465, "fusion_lat": 0.0, "is_reserved": 0, "rental_uris": {"ios": "https://dc.lft.to/lastmile_qr_scan", "android": "https://dc.lft.to/lastmile_qr_scan"}, "fusion_lon": 0.0, "type": "electric_scooter", "bike_id": "aa804ee736c049aeda85aea6cc20e579", "name": "aa804ee736c049aeda85aea6cc20e579"}, {"lon": -77.00193183333333, "is_disabled": 0, "lat": 38.90228966666667, "fusion_lat": 0.0, "is_reserved": 0, "rental_uris": {"ios": "https://dc.lft.to/lastmile_qr_scan", "android": "https://dc.lft.to/lastmile_qr_scan"}, "fusion_lon": 0.0, "type": "electric_scooter", "bike_id": "56de0e9dce0edddd85923e177ce77237", "name": "56de0e9dce0edddd85923e177ce77237"}, {"lon": -77.01990483333333, "is_disabled": 0, "lat": 38.87671383333333, "fusion_lat": 0.0, "is_reserved": 0, "rental_uris": {"ios": "https://dc.lft.to/lastmile_qr_scan", "android": "https://dc.lft.to/lastmile_qr_scan"}, "fusion_lon": 0.0, "type": "electric_scooter", "bike_id": "0f3ef8f5d88b753eceec886c96d904fe", "name": "0f3ef8f5d88b753eceec886c96d904fe"}, {"lon": -77.0298175, "is_disabled": 0, "lat": 38.98698366666667, "fusion_lat": 0.0, "is_reserved": 0, "rental_uris": {"ios": "https://dc.lft.to/lastmile_qr_scan", "android": "https://dc.lft.to/lastmile_qr_scan"}, "fusion_lon": 0.0, "type": "electric_scooter", "bike_id": "ef78a64cccfa82ddb39d76e7ad8b807f", "name": "ef78a64cccfa82ddb39d76e7ad8b807f"}, {"lon": -77.0318585, "is_disabled": 0, "lat": 38.91324516666667, "fusion_lat": 0.0, "is_reserved": 0, "rental_uris": {"ios": "https://dc.lft.to/lastmile_qr_scan", "android": "https://dc.lft.to/lastmile_qr_scan"}, "fusion_lon": 0.0, "type": "electric_scooter", "bike_id": "66853bdc6fb503e069b1b4676663eb92", "name": "66853bdc6fb503e069b1b4676663eb92"}, {"lon": -77.03179016666667, "is_disabled": 0, "lat": 38.908820166666665, "fusion_lat": 0.0, "is_reserved": 0, "rental_uris": {"ios": "https://dc.lft.to/lastmile_qr_scan", "android": "https://dc.lft.to/lastmile_qr_scan"}, "fusion_lon": 0.0, "type": "electric_scooter", "bike_id": "ce572dd42f2dd21feeeabfc4a41280f6", "name": "ce572dd42f2dd21feeeabfc4a41280f6"}, {"lon": -76.97033133333333, "is_disabled": 0, "lat": 38.87363583333333, "fusion_lat": 0.0, "is_reserved": 0, "rental_uris": {"ios": "https://dc.lft.to/lastmile_qr_scan", "android": "https://dc.lft.to/lastmile_qr_scan"}, "fusion_lon": 0.0, "type": "electric_scooter", "bike_id": "2577ccd6dc9c88b8f4a143579a97c572", "name": "2577ccd6dc9c88b8f4a143579a97c572"}, {"lon": -77.02596216666667, "is_disabled": 0, "lat": 38.9042535, "fusion_lat": 0.0, "is_reserved": 0, "rental_uris": {"ios": "https://dc.lft.to/lastmile_qr_scan", "android": "https://dc.lft.to/lastmile_qr_scan"}, "fusion_lon": 0.0, "type": "electric_scooter", "bike_id": "2ec30a7cea6ec9050b37f8c76b02ee71", "name": "2ec30a7cea6ec9050b37f8c76b02ee71"}, {"lon": -76.97969716666667, "is_disabled": 0, "lat": 38.953619333333336, "fusion_lat": 0.0, "is_reserved": 0, "rental_uris": {"ios": "https://dc.lft.to/lastmile_qr_scan", "android": "https://dc.lft.to/lastmile_qr_scan"}, "fusion_lon": 0.0, "type": "electric_bike", "bike_id": "c63666c904414783085ae971c4e11b0f", "name": "c63666c904414783085ae971c4e11b0f"}, {"lon": -77.044025, "is_disabled": 0, "lat": 38.911137833333335, "fusion_lat": 0.0, "is_reserved": 0, "rental_uris": {"ios": "https://dc.lft.to/lastmile_qr_scan", "android": "https://dc.lft.to/lastmile_qr_scan"}, "fusion_lon": 0.0, "type": "electric_scooter", "bike_id": "db9225e76087261fac5060e691454f62", "name": "db9225e76087261fac5060e691454f62"}, {"lon": -77.01222933333334, "is_disabled": 0, "lat": 38.915440833333335, "fusion_lat": 0.0, "is_reserved": 0, "rental_uris": {"ios": "https://dc.lft.to/lastmile_qr_scan", "android": "https://dc.lft.to/lastmile_qr_scan"}, "fusion_lon": 0.0, "type": "electric_scooter", "bike_id": "674f980e5284ef7636f4422a21ddacaf", "name": "674f980e5284ef7636f4422a21ddacaf"}, {"lon": -77.0223165, "is_disabled": 0, "lat": 38.88026766666667, "fusion_lat": 0.0, "is_reserved": 0, "rental_uris": {"ios": "https://dc.lft.to/lastmile_qr_scan", "android": "https://dc.lft.to/lastmile_qr_scan"}, "fusion_lon": 0.0, "type": "electric_scooter", "bike_id": "97822aeef04c19d6217968c3b74918fa", "name": "97822aeef04c19d6217968c3b74918fa"}, {"lon": -77.0458575, "is_disabled": 0, "lat": 38.91471033333333, "fusion_lat": 0.0, "is_reserved": 0, "rental_uris": {"ios": "https://dc.lft.to/lastmile_qr_scan", "android": "https://dc.lft.to/lastmile_qr_scan"}, "fusion_lon": 0.0, "type": "electric_scooter", "bike_id": "a2e95baddb700db7a2c98e35d3c76ae5", "name": "a2e95baddb700db7a2c98e35d3c76ae5"}, {"lon": -77.06169083333333, "is_disabled": 0, "lat": 38.80708283333333, "fusion_lat": 0.0, "is_reserved": 0, "rental_uris": {"ios": "https://dc.lft.to/lastmile_qr_scan", "android": "https://dc.lft.to/lastmile_qr_scan"}, "fusion_lon": 0.0, "type": "electric_bike", "bike_id": "7a432a2003bd1d07fcbab7c4b5c703e4", "name": "7a432a2003bd1d07fcbab7c4b5c703e4"}, {"lon": -76.97630966666667, "is_disabled": 0, "lat": 38.90158733333333, "fusion_lat": 0.0, "is_reserved": 0, "rental_uris": {"ios": "https://dc.lft.to/lastmile_qr_scan", "android": "https://dc.lft.to/lastmile_qr_scan"}, "fusion_lon": 0.0, "type": "electric_scooter", "bike_id": "b805f58f5ae00bb667945601859ba46f", "name": "b805f58f5ae00bb667945601859ba46f"}, {"lon": -77.01759733333333, "is_disabled": 0, "lat": 38.877056833333334, "fusion_lat": 0.0, "is_reserved": 0, "rental_uris": {"ios": "https://dc.lft.to/lastmile_qr_scan", "android": "https://dc.lft.to/lastmile_qr_scan"}, "fusion_lon": 0.0, "type": "electric_scooter", "bike_id": "56efc04286cdfabe9869690fca024ed4", "name": "56efc04286cdfabe9869690fca024ed4"}, {"lon": -77.03284133333334, "is_disabled": 0, "lat": 38.90953366666667, "fusion_lat": 0.0, "is_reserved": 0, "rental_uris": {"ios": "https://dc.lft.to/lastmile_qr_scan", "android": "https://dc.lft.to/lastmile_qr_scan"}, "fusion_lon": 0.0, "type": "electric_scooter", "bike_id": "d9d84ebe468464309c3f170719d49128", "name": "d9d84ebe468464309c3f170719d49128"}, {"lon": -77.02480283333334, "is_disabled": 0, "lat": 38.93878383333333, "fusion_lat": 0.0, "is_reserved": 0, "rental_uris": {"ios": "https://dc.lft.to/lastmile_qr_scan", "android": "https://dc.lft.to/lastmile_qr_scan"}, "fusion_lon": 0.0, "type": "electric_scooter", "bike_id": "7093e9b2b9e39acd68834d23cb77d58f", "name": "7093e9b2b9e39acd68834d23cb77d58f"}, {"lon": -77.03164516666666, "is_disabled": 0, "lat": 38.887457166666664, "fusion_lat": 0.0, "is_reserved": 0, "rental_uris": {"ios": "https://dc.lft.to/lastmile_qr_scan", "android": "https://dc.lft.to/lastmile_qr_scan"}, "fusion_lon": 0.0, "type": "electric_scooter", "bike_id": "0f6afbd5cbb638458595162f45af88ce", "name": "0f6afbd5cbb638458595162f45af88ce"}, {"lon": -77.04106416666667, "is_disabled": 0, "lat": 38.908757333333334, "fusion_lat": 0.0, "is_reserved": 0, "rental_uris": {"ios": "https://dc.lft.to/lastmile_qr_scan", "android": "https://dc.lft.to/lastmile_qr_scan"}, "fusion_lon": 0.0, "type": "electric_scooter", "bike_id": "7850ef1c8aee833018db2faeef8b8e9c", "name": "7850ef1c8aee833018db2faeef8b8e9c"}, {"lon": -77.04774166666667, "is_disabled": 0, "lat": 38.897700666666665, "fusion_lat": 0.0, "is_reserved": 0, "rental_uris": {"ios": "https://dc.lft.to/lastmile_qr_scan", "android": "https://dc.lft.to/lastmile_qr_scan"}, "fusion_lon": 0.0, "type": "electric_scooter", "bike_id": "3cc5108a6ec9eb41ed0d125a67287453", "name": "3cc5108a6ec9eb41ed0d125a67287453"}, {"lon": -77.048784, "is_disabled": 0, "lat": 38.9064615, "fusion_lat": 0.0, "is_reserved": 0, "rental_uris": {"ios": "https://dc.lft.to/lastmile_qr_scan", "android": "https://dc.lft.to/lastmile_qr_scan"}, "fusion_lon": 0.0, "type": "electric_scooter", "bike_id": "5d62c1cea273e8ac8a1ae74c951123f5", "name": "5d62c1cea273e8ac8a1ae74c951123f5"}, {"lon": -77.02212666666667, "is_disabled": 0, "lat": 38.905562833333335, "fusion_lat": 0.0, "is_reserved": 0, "rental_uris": {"ios": "https://dc.lft.to/lastmile_qr_scan", "android": "https://dc.lft.to/lastmile_qr_scan"}, "fusion_lon": 0.0, "type": "electric_scooter", "bike_id": "0d9a2a9bfece57aa255a559d5ce8f17b", "name": "0d9a2a9bfece57aa255a559d5ce8f17b"}, {"lon": -77.00729133333333, "is_disabled": 0, "lat": 38.88494633333333, "fusion_lat": 0.0, "is_reserved": 0, "rental_uris": {"ios": "https://dc.lft.to/lastmile_qr_scan", "android": "https://dc.lft.to/lastmile_qr_scan"}, "fusion_lon": 0.0, "type": "electric_scooter", "bike_id": "8bf7f137688ae73708b22fe1712df4ef", "name": "8bf7f137688ae73708b22fe1712df4ef"}, {"lon": -77.022739, "is_disabled": 0, "lat": 38.89521966666667, "fusion_lat": 0.0, "is_reserved": 0, "rental_uris": {"ios": "https://dc.lft.to/lastmile_qr_scan", "android": "https://dc.lft.to/lastmile_qr_scan"}, "fusion_lon": 0.0, "type": "electric_scooter", "bike_id": "cadfb912794c73ad75205fa531b03821", "name": "cadfb912794c73ad75205fa531b03821"}, {"lon": -77.072444, "is_disabled": 0, "lat": 38.9078405, "fusion_lat": 0.0, "is_reserved": 0, "rental_uris": {"ios": "https://dc.lft.to/lastmile_qr_scan", "android": "https://dc.lft.to/lastmile_qr_scan"}, "fusion_lon": 0.0, "type": "electric_scooter", "bike_id": "e270a494061bc90bbabe83895c611034", "name": "e270a494061bc90bbabe83895c611034"}, {"lon": -77.06166366666666, "is_disabled": 0, "lat": 38.90525133333333, "fusion_lat": 0.0, "is_reserved": 0, "rental_uris": {"ios": "https://dc.lft.to/lastmile_qr_scan", "android": "https://dc.lft.to/lastmile_qr_scan"}, "fusion_lon": 0.0, "type": "electric_scooter", "bike_id": "fab7d64208fa1d11dbce0e9584fd1037", "name": "fab7d64208fa1d11dbce0e9584fd1037"}, {"lon": -77.07656383333334, "is_disabled": 0, "lat": 38.943307, "fusion_lat": 0.0, "is_reserved": 0, "rental_uris": {"ios": "https://dc.lft.to/lastmile_qr_scan", "android": "https://dc.lft.to/lastmile_qr_scan"}, "fusion_lon": 0.0, "type": "electric_scooter", "bike_id": "390219b3c2442fadba6dfb53d44f221b", "name": "390219b3c2442fadba6dfb53d44f221b"}, {"lon": -77.001082, "is_disabled": 0, "lat": 38.873852, "fusion_lat": 0.0, "is_reserved": 0, "rental_uris": {"ios": "https://dc.lft.to/lastmile_qr_scan", "android": "https://dc.lft.to/lastmile_qr_scan"}, "fusion_lon": 0.0, "type": "electric_scooter", "bike_id": "8fe9cc4b71803abf1c94995902f7ff33", "name": "8fe9cc4b71803abf1c94995902f7ff33"}, {"lon": -77.04000216666667, "is_disabled": 0, "lat": 38.93421633333333, "fusion_lat": 0.0, "is_reserved": 0, "rental_uris": {"ios": "https://dc.lft.to/lastmile_qr_scan", "android": "https://dc.lft.to/lastmile_qr_scan"}, "fusion_lon": 0.0, "type": "electric_scooter", "bike_id": "71c86ae3d790f86ded6749a47e27cff4", "name": "71c86ae3d790f86ded6749a47e27cff4"}, {"lon": -77.0271125, "is_disabled": 0, "lat": 38.897070166666666, "fusion_lat": 0.0, "is_reserved": 0, "rental_uris": {"ios": "https://dc.lft.to/lastmile_qr_scan", "android": "https://dc.lft.to/lastmile_qr_scan"}, "fusion_lon": 0.0, "type": "electric_scooter", "bike_id": "8fa9ebfeea0027d3f047387bd57afafb", "name": "8fa9ebfeea0027d3f047387bd57afafb"}, {"lon": -77.02442933333333, "is_disabled": 0, "lat": 38.938111166666665, "fusion_lat": 0.0, "is_reserved": 0, "rental_uris": {"ios": "https://dc.lft.to/lastmile_qr_scan", "android": "https://dc.lft.to/lastmile_qr_scan"}, "fusion_lon": 0.0, "type": "electric_scooter", "bike_id": "cccb8f6288012ee6da19ffef1d2ffee9", "name": "cccb8f6288012ee6da19ffef1d2ffee9"}, {"lon": -77.04449633333333, "is_disabled": 0, "lat": 38.915388, "fusion_lat": 0.0, "is_reserved": 0, "rental_uris": {"ios": "https://dc.lft.to/lastmile_qr_scan", "android": "https://dc.lft.to/lastmile_qr_scan"}, "fusion_lon": 0.0, "type": "electric_scooter", "bike_id": "8f5851f340605c7a53470dfe06b4be59", "name": "8f5851f340605c7a53470dfe06b4be59"}, {"lon": -77.02354483333333, "is_disabled": 0, "lat": 38.92400116666666, "fusion_lat": 0.0, "is_reserved": 0, "rental_uris": {"ios": "https://dc.lft.to/lastmile_qr_scan", "android": "https://dc.lft.to/lastmile_qr_scan"}, "fusion_lon": 0.0, "type": "electric_scooter", "bike_id": "ca5f3a8ed8b48b6c4da12bae0a642e2d", "name": "ca5f3a8ed8b48b6c4da12bae0a642e2d"}, {"lon": -77.04334816666666, "is_disabled": 0, "lat": 38.9221505, "fusion_lat": 0.0, "is_reserved": 0, "rental_uris": {"ios": "https://dc.lft.to/lastmile_qr_scan", "android": "https://dc.lft.to/lastmile_qr_scan"}, "fusion_lon": 0.0, "type": "electric_scooter", "bike_id": "70d9d84c7d06c309a748df0aa4020147", "name": "70d9d84c7d06c309a748df0aa4020147"}, {"lon": -77.029148, "is_disabled": 0, "lat": 38.910314666666665, "fusion_lat": 0.0, "is_reserved": 0, "rental_uris": {"ios": "https://dc.lft.to/lastmile_qr_scan", "android": "https://dc.lft.to/lastmile_qr_scan"}, "fusion_lon": 0.0, "type": "electric_scooter", "bike_id": "55a1140d25691ae9e7bf8be3371ae74b", "name": "55a1140d25691ae9e7bf8be3371ae74b"}, {"lon": -77.02380566666666, "is_disabled": 0, "lat": 38.93639016666667, "fusion_lat": 0.0, "is_reserved": 0, "rental_uris": {"ios": "https://dc.lft.to/lastmile_qr_scan", "android": "https://dc.lft.to/lastmile_qr_scan"}, "fusion_lon": 0.0, "type": "electric_scooter", "bike_id": "52039576ef4b1fcc000a4010e6852129", "name": "52039576ef4b1fcc000a4010e6852129"}, {"lon": -77.03647783333334, "is_disabled": 0, "lat": 38.923827833333334, "fusion_lat": 0.0, "is_reserved": 0, "rental_uris": {"ios": "https://dc.lft.to/lastmile_qr_scan", "android": "https://dc.lft.to/lastmile_qr_scan"}, "fusion_lon": 0.0, "type": "electric_scooter", "bike_id": "1fadb2b8c2e840ab9fbbfd21cefd13fc", "name": "1fadb2b8c2e840ab9fbbfd21cefd13fc"}, {"lon": -77.0453395, "is_disabled": 0, "lat": 38.93155633333333, "fusion_lat": 0.0, "is_reserved": 0, "rental_uris": {"ios": "https://dc.lft.to/lastmile_qr_scan", "android": "https://dc.lft.to/lastmile_qr_scan"}, "fusion_lon": 0.0, "type": "electric_scooter", "bike_id": "681e94cd3d35e1c3ff49ac1f3222f979", "name": "681e94cd3d35e1c3ff49ac1f3222f979"}, {"lon": -77.0313105, "is_disabled": 0, "lat": 38.91620983333333, "fusion_lat": 0.0, "is_reserved": 0, "rental_uris": {"ios": "https://dc.lft.to/lastmile_qr_scan", "android": "https://dc.lft.to/lastmile_qr_scan"}, "fusion_lon": 0.0, "type": "electric_scooter", "bike_id": "a94251b39ded7df0c5a05d521c387e2f", "name": "a94251b39ded7df0c5a05d521c387e2f"}, {"lon": -76.9863165, "is_disabled": 0, "lat": 38.910114166666666, "fusion_lat": 0.0, "is_reserved": 0, "rental_uris": {"ios": "https://dc.lft.to/lastmile_qr_scan", "android": "https://dc.lft.to/lastmile_qr_scan"}, "fusion_lon": 0.0, "type": "electric_scooter", "bike_id": "88758519529f252a4fbd14926cf1b7a3", "name": "88758519529f252a4fbd14926cf1b7a3"}, {"lon": -77.12938266666667, "is_disabled": 0, "lat": 38.865177833333334, "fusion_lat": 0.0, "is_reserved": 0, "rental_uris": {"ios": "https://dc.lft.to/lastmile_qr_scan", "android": "https://dc.lft.to/lastmile_qr_scan"}, "fusion_lon": 0.0, "type": "electric_bike", "bike_id": "0602b7936341552a193f2317e78c6e97", "name": "0602b7936341552a193f2317e78c6e97"}, {"lon": -77.02173966666666, "is_disabled": 0, "lat": 38.88718, "fusion_lat": 0.0, "is_reserved": 0, "rental_uris": {"ios": "https://dc.lft.to/lastmile_qr_scan", "android": "https://dc.lft.to/lastmile_qr_scan"}, "fusion_lon": 0.0, "type": "electric_scooter", "bike_id": "735b1b03a5d4150aee08d6280aae4054", "name": "735b1b03a5d4150aee08d6280aae4054"}, {"lon": -77.04492116666667, "is_disabled": 0, "lat": 38.89948316666667, "fusion_lat": 0.0, "is_reserved": 0, "rental_uris": {"ios": "https://dc.lft.to/lastmile_qr_scan", "android": "https://dc.lft.to/lastmile_qr_scan"}, "fusion_lon": 0.0, "type": "electric_scooter", "bike_id": "c5d9fc444ed1ad839b1bd24aa4eebb85", "name": "c5d9fc444ed1ad839b1bd24aa4eebb85"}, {"lon": -77.00800316666667, "is_disabled": 0, "lat": 38.9491765, "fusion_lat": 0.0, "is_reserved": 0, "rental_uris": {"ios": "https://dc.lft.to/lastmile_qr_scan", "android": "https://dc.lft.to/lastmile_qr_scan"}, "fusion_lon": 0.0, "type": "electric_scooter", "bike_id": "354b786352939f83b3b107c2cded80c5", "name": "354b786352939f83b3b107c2cded80c5"}, {"lon": -77.00126233333333, "is_disabled": 0, "lat": 38.92530683333333, "fusion_lat": 0.0, "is_reserved": 0, "rental_uris": {"ios": "https://dc.lft.to/lastmile_qr_scan", "android": "https://dc.lft.to/lastmile_qr_scan"}, "fusion_lon": 0.0, "type": "electric_bike", "bike_id": "eb658606a9022286e628e4efe9dc5451", "name": "eb658606a9022286e628e4efe9dc5451"}, {"lon": -77.00343616666666, "is_disabled": 0, "lat": 38.895309, "fusion_lat": 0.0, "is_reserved": 0, "rental_uris": {"ios": "https://dc.lft.to/lastmile_qr_scan", "android": "https://dc.lft.to/lastmile_qr_scan"}, "fusion_lon": 0.0, "type": "electric_scooter", "bike_id": "10c4754688843db0faad21b72d630eab", "name": "10c4754688843db0faad21b72d630eab"}, {"lon": -77.01991016666666, "is_disabled": 0, "lat": 38.939917, "fusion_lat": 0.0, "is_reserved": 0, "rental_uris": {"ios": "https://dc.lft.to/lastmile_qr_scan", "android": "https://dc.lft.to/lastmile_qr_scan"}, "fusion_lon": 0.0, "type": "electric_scooter", "bike_id": "28b4fb09fb3c4fc7e558206e07c9dc71", "name": "28b4fb09fb3c4fc7e558206e07c9dc71"}, {"lon": -76.9889865, "is_disabled": 0, "lat": 38.866266833333334, "fusion_lat": 0.0, "is_reserved": 0, "rental_uris": {"ios": "https://dc.lft.to/lastmile_qr_scan", "android": "https://dc.lft.to/lastmile_qr_scan"}, "fusion_lon": 0.0, "type": "electric_scooter", "bike_id": "5426d1e3390b99af12e0025d1f3eac7d", "name": "5426d1e3390b99af12e0025d1f3eac7d"}, {"lon": -77.001272, "is_disabled": 0, "lat": 38.87490916666667, "fusion_lat": 0.0, "is_reserved": 0, "rental_uris": {"ios": "https://dc.lft.to/lastmile_qr_scan", "android": "https://dc.lft.to/lastmile_qr_scan"}, "fusion_lon": 0.0, "type": "electric_scooter", "bike_id": "f689e1e40ea0f3654d70214952c5e61b", "name": "f689e1e40ea0f3654d70214952c5e61b"}, {"lon": -77.02639483333333, "is_disabled": 0, "lat": 38.910678833333336, "fusion_lat": 0.0, "is_reserved": 0, "rental_uris": {"ios": "https://dc.lft.to/lastmile_qr_scan", "android": "https://dc.lft.to/lastmile_qr_scan"}, "fusion_lon": 0.0, "type": "electric_scooter", "bike_id": "e076d5d3e315d03e458bbebc88c5a0c4", "name": "e076d5d3e315d03e458bbebc88c5a0c4"}, {"lon": -77.02284816666666, "is_disabled": 0, "lat": 38.89508083333333, "fusion_lat": 0.0, "is_reserved": 0, "rental_uris": {"ios": "https://dc.lft.to/lastmile_qr_scan", "android": "https://dc.lft.to/lastmile_qr_scan"}, "fusion_lon": 0.0, "type": "electric_scooter", "bike_id": "fe18060f62fc0c308de48368c3cbf7c3", "name": "fe18060f62fc0c308de48368c3cbf7c3"}, {"lon": -77.0556925, "is_disabled": 0, "lat": 38.80396966666667, "fusion_lat": 0.0, "is_reserved": 0, "rental_uris": {"ios": "https://dc.lft.to/lastmile_qr_scan", "android": "https://dc.lft.to/lastmile_qr_scan"}, "fusion_lon": 0.0, "type": "electric_bike", "bike_id": "2abcf537e8e1d552d0fa14ecbf083713", "name": "2abcf537e8e1d552d0fa14ecbf083713"}, {"lon": -77.1177375, "is_disabled": 0, "lat": 38.831595666666665, "fusion_lat": 0.0, "is_reserved": 0, "rental_uris": {"ios": "https://dc.lft.to/lastmile_qr_scan", "android": "https://dc.lft.to/lastmile_qr_scan"}, "fusion_lon": 0.0, "type": "electric_bike", "bike_id": "e7e1c3304a31776b311280b659f66305", "name": "e7e1c3304a31776b311280b659f66305"}, {"lon": -77.01725383333333, "is_disabled": 0, "lat": 38.87819533333333, "fusion_lat": 0.0, "is_reserved": 0, "rental_uris": {"ios": "https://dc.lft.to/lastmile_qr_scan", "android": "https://dc.lft.to/lastmile_qr_scan"}, "fusion_lon": 0.0, "type": "electric_scooter", "bike_id": "ceec3d26fe15f831b3ed1935c9c9830c", "name": "ceec3d26fe15f831b3ed1935c9c9830c"}, {"lon": -77.034141, "is_disabled": 0, "lat": 38.9055535, "fusion_lat": 0.0, "is_reserved": 0, "rental_uris": {"ios": "https://dc.lft.to/lastmile_qr_scan", "android": "https://dc.lft.to/lastmile_qr_scan"}, "fusion_lon": 0.0, "type": "electric_scooter", "bike_id": "0d854eb3317eccc49e3186974e46ac1c", "name": "0d854eb3317eccc49e3186974e46ac1c"}, {"lon": -77.0607, "is_disabled": 0, "lat": 38.906854333333335, "fusion_lat": 0.0, "is_reserved": 0, "rental_uris": {"ios": "https://dc.lft.to/lastmile_qr_scan", "android": "https://dc.lft.to/lastmile_qr_scan"}, "fusion_lon": 0.0, "type": "electric_scooter", "bike_id": "4247debe4e94084e270d36a0d452374f", "name": "4247debe4e94084e270d36a0d452374f"}, {"lon": -76.995814, "is_disabled": 0, "lat": 38.85175616666667, "fusion_lat": 0.0, "is_reserved": 0, "rental_uris": {"ios": "https://dc.lft.to/lastmile_qr_scan", "android": "https://dc.lft.to/lastmile_qr_scan"}, "fusion_lon": 0.0, "type": "electric_scooter", "bike_id": "2591028767f742dcbe8b3bdc51ff4050", "name": "2591028767f742dcbe8b3bdc51ff4050"}, {"lon": -77.0023225, "is_disabled": 0, "lat": 38.874806666666665, "fusion_lat": 0.0, "is_reserved": 0, "rental_uris": {"ios": "https://dc.lft.to/lastmile_qr_scan", "android": "https://dc.lft.to/lastmile_qr_scan"}, "fusion_lon": 0.0, "type": "electric_scooter", "bike_id": "0470ea19028f9974cf5fab0ede1433c7", "name": "0470ea19028f9974cf5fab0ede1433c7"}, {"lon": -77.02592466666667, "is_disabled": 0, "lat": 38.91103, "fusion_lat": 0.0, "is_reserved": 0, "rental_uris": {"ios": "https://dc.lft.to/lastmile_qr_scan", "android": "https://dc.lft.to/lastmile_qr_scan"}, "fusion_lon": 0.0, "type": "electric_scooter", "bike_id": "4dc367460902d5373101de1fae8b11be", "name": "4dc367460902d5373101de1fae8b11be"}, {"lon": -77.03564983333334, "is_disabled": 0, "lat": 38.9270075, "fusion_lat": 0.0, "is_reserved": 0, "rental_uris": {"ios": "https://dc.lft.to/lastmile_qr_scan", "android": "https://dc.lft.to/lastmile_qr_scan"}, "fusion_lon": 0.0, "type": "electric_scooter", "bike_id": "8cc510b01fffc6ec527aecb31ed669e0", "name": "8cc510b01fffc6ec527aecb31ed669e0"}, {"lon": -77.03656766666667, "is_disabled": 0, "lat": 38.906828, "fusion_lat": 0.0, "is_reserved": 0, "rental_uris": {"ios": "https://dc.lft.to/lastmile_qr_scan", "android": "https://dc.lft.to/lastmile_qr_scan"}, "fusion_lon": 0.0, "type": "electric_scooter", "bike_id": "d314d45cdf5e7c10b2e0edf450edc4f2", "name": "d314d45cdf5e7c10b2e0edf450edc4f2"}, {"lon": -77.04499533333333, "is_disabled": 0, "lat": 38.892412666666665, "fusion_lat": 0.0, "is_reserved": 0, "rental_uris": {"ios": "https://dc.lft.to/lastmile_qr_scan", "android": "https://dc.lft.to/lastmile_qr_scan"}, "fusion_lon": 0.0, "type": "electric_scooter", "bike_id": "65397d8e61fc8b971ff5ca2b63853faa", "name": "65397d8e61fc8b971ff5ca2b63853faa"}, {"lon": -77.01751133333333, "is_disabled": 0, "lat": 38.90293166666667, "fusion_lat": 0.0, "is_reserved": 0, "rental_uris": {"ios": "https://dc.lft.to/lastmile_qr_scan", "android": "https://dc.lft.to/lastmile_qr_scan"}, "fusion_lon": 0.0, "type": "electric_scooter", "bike_id": "7c9e1e4e51c05551b6cc842f207000cf", "name": "7c9e1e4e51c05551b6cc842f207000cf"}, {"lon": -76.98174483333334, "is_disabled": 0, "lat": 38.91660533333334, "fusion_lat": 0.0, "is_reserved": 0, "rental_uris": {"ios": "https://dc.lft.to/lastmile_qr_scan", "android": "https://dc.lft.to/lastmile_qr_scan"}, "fusion_lon": 0.0, "type": "electric_scooter", "bike_id": "0814d68159b622ff4d0f951b1e27c7fa", "name": "0814d68159b622ff4d0f951b1e27c7fa"}, {"lon": -76.97172016666667, "is_disabled": 0, "lat": 38.87816016666667, "fusion_lat": 0.0, "is_reserved": 0, "rental_uris": {"ios": "https://dc.lft.to/lastmile_qr_scan", "android": "https://dc.lft.to/lastmile_qr_scan"}, "fusion_lon": 0.0, "type": "electric_scooter", "bike_id": "260c03262c0f04ade2895853a355bb5a", "name": "260c03262c0f04ade2895853a355bb5a"}, {"lon": -77.03279783333333, "is_disabled": 0, "lat": 38.92850516666667, "fusion_lat": 0.0, "is_reserved": 0, "rental_uris": {"ios": "https://dc.lft.to/lastmile_qr_scan", "android": "https://dc.lft.to/lastmile_qr_scan"}, "fusion_lon": 0.0, "type": "electric_scooter", "bike_id": "c1a810aff9ba2237a041ec414aa99d1b", "name": "c1a810aff9ba2237a041ec414aa99d1b"}, {"lon": -76.9937395, "is_disabled": 0, "lat": 38.990935, "fusion_lat": 0.0, "is_reserved": 0, "rental_uris": {"ios": "https://dc.lft.to/lastmile_qr_scan", "android": "https://dc.lft.to/lastmile_qr_scan"}, "fusion_lon": 0.0, "type": "electric_bike", "bike_id": "447b72f0bb0189fd675e0cd33c50022f", "name": "447b72f0bb0189fd675e0cd33c50022f"}, {"lon": -77.03660983333333, "is_disabled": 0, "lat": 38.91722266666667, "fusion_lat": 0.0, "is_reserved": 0, "rental_uris": {"ios": "https://dc.lft.to/lastmile_qr_scan", "android": "https://dc.lft.to/lastmile_qr_scan"}, "fusion_lon": 0.0, "type": "electric_scooter", "bike_id": "e121eed4b57bfa84d4c2ba53eab9b387", "name": "e121eed4b57bfa84d4c2ba53eab9b387"}, {"lon": -77.02982866666666, "is_disabled": 0, "lat": 38.907402833333336, "fusion_lat": 0.0, "is_reserved": 0, "rental_uris": {"ios": "https://dc.lft.to/lastmile_qr_scan", "android": "https://dc.lft.to/lastmile_qr_scan"}, "fusion_lon": 0.0, "type": "electric_scooter", "bike_id": "a9c1190f92188e73babae8a1c419739c", "name": "a9c1190f92188e73babae8a1c419739c"}, {"lon": -77.024863, "is_disabled": 0, "lat": 38.91918316666667, "fusion_lat": 0.0, "is_reserved": 0, "rental_uris": {"ios": "https://dc.lft.to/lastmile_qr_scan", "android": "https://dc.lft.to/lastmile_qr_scan"}, "fusion_lon": 0.0, "type": "electric_scooter", "bike_id": "e75b0f4e45c884cddc4ba9e68e7e11c1", "name": "e75b0f4e45c884cddc4ba9e68e7e11c1"}, {"lon": -77.037874, "is_disabled": 0, "lat": 38.926279666666666, "fusion_lat": 0.0, "is_reserved": 0, "rental_uris": {"ios": "https://dc.lft.to/lastmile_qr_scan", "android": "https://dc.lft.to/lastmile_qr_scan"}, "fusion_lon": 0.0, "type": "electric_scooter", "bike_id": "d75d22297f99d7666cc94bbe784a78fe", "name": "d75d22297f99d7666cc94bbe784a78fe"}, {"lon": -77.03348933333334, "is_disabled": 0, "lat": 38.898280666666665, "fusion_lat": 0.0, "is_reserved": 0, "rental_uris": {"ios": "https://dc.lft.to/lastmile_qr_scan", "android": "https://dc.lft.to/lastmile_qr_scan"}, "fusion_lon": 0.0, "type": "electric_scooter", "bike_id": "191ad898f73a30c0f88666457693a03e", "name": "191ad898f73a30c0f88666457693a03e"}, {"lon": -77.007276, "is_disabled": 0, "lat": 38.88498116666667, "fusion_lat": 0.0, "is_reserved": 0, "rental_uris": {"ios": "https://dc.lft.to/lastmile_qr_scan", "android": "https://dc.lft.to/lastmile_qr_scan"}, "fusion_lon": 0.0, "type": "electric_scooter", "bike_id": "ba43d1a3be1d2f482ff8b30576ea3724", "name": "ba43d1a3be1d2f482ff8b30576ea3724"}, {"lon": -77.01480016666666, "is_disabled": 0, "lat": 38.91871583333333, "fusion_lat": 0.0, "is_reserved": 0, "rental_uris": {"ios": "https://dc.lft.to/lastmile_qr_scan", "android": "https://dc.lft.to/lastmile_qr_scan"}, "fusion_lon": 0.0, "type": "electric_scooter", "bike_id": "c11a99b22e8c9e90d4f91e7aadd41bc1", "name": "c11a99b22e8c9e90d4f91e7aadd41bc1"}, {"lon": -77.02936016666666, "is_disabled": 0, "lat": 38.89976983333333, "fusion_lat": 0.0, "is_reserved": 0, "rental_uris": {"ios": "https://dc.lft.to/lastmile_qr_scan", "android": "https://dc.lft.to/lastmile_qr_scan"}, "fusion_lon": 0.0, "type": "electric_scooter", "bike_id": "f4856b72d975b9845a69b19b2f01a73a", "name": "f4856b72d975b9845a69b19b2f01a73a"}, {"lon": -77.02811166666666, "is_disabled": 0, "lat": 38.8862085, "fusion_lat": 0.0, "is_reserved": 0, "rental_uris": {"ios": "https://dc.lft.to/lastmile_qr_scan", "android": "https://dc.lft.to/lastmile_qr_scan"}, "fusion_lon": 0.0, "type": "electric_scooter", "bike_id": "5fe50a3b81bbd28f7e58d53223dbaf62", "name": "5fe50a3b81bbd28f7e58d53223dbaf62"}, {"lon": -77.02308333333333, "is_disabled": 0, "lat": 38.92892166666667, "fusion_lat": 0.0, "is_reserved": 0, "rental_uris": {"ios": "https://dc.lft.to/lastmile_qr_scan", "android": "https://dc.lft.to/lastmile_qr_scan"}, "fusion_lon": 0.0, "type": "electric_scooter", "bike_id": "97776260ae66ae2d5141f73b66122de5", "name": "97776260ae66ae2d5141f73b66122de5"}, {"lon": -76.99970833333333, "is_disabled": 0, "lat": 38.9083945, "fusion_lat": 0.0, "is_reserved": 0, "rental_uris": {"ios": "https://dc.lft.to/lastmile_qr_scan", "android": "https://dc.lft.to/lastmile_qr_scan"}, "fusion_lon": 0.0, "type": "electric_scooter", "bike_id": "8226270a9281d552ae2cd6e9461fe6a8", "name": "8226270a9281d552ae2cd6e9461fe6a8"}, {"lon": -77.06389633333333, "is_disabled": 0, "lat": 38.944219333333336, "fusion_lat": 0.0, "is_reserved": 0, "rental_uris": {"ios": "https://dc.lft.to/lastmile_qr_scan", "android": "https://dc.lft.to/lastmile_qr_scan"}, "fusion_lon": 0.0, "type": "electric_scooter", "bike_id": "5ae7e3c641d9104bc457030f115bd1e2", "name": "5ae7e3c641d9104bc457030f115bd1e2"}, {"lon": -77.04684516666667, "is_disabled": 0, "lat": 38.892207166666665, "fusion_lat": 0.0, "is_reserved": 0, "rental_uris": {"ios": "https://dc.lft.to/lastmile_qr_scan", "android": "https://dc.lft.to/lastmile_qr_scan"}, "fusion_lon": 0.0, "type": "electric_scooter", "bike_id": "a6dfe33bdfeb0b57798c1d4c837496d3", "name": "a6dfe33bdfeb0b57798c1d4c837496d3"}, {"lon": -76.947242, "is_disabled": 0, "lat": 38.89733, "fusion_lat": 0.0, "is_reserved": 0, "rental_uris": {"ios": "https://dc.lft.to/lastmile_qr_scan", "android": "https://dc.lft.to/lastmile_qr_scan"}, "fusion_lon": 0.0, "type": "electric_scooter", "bike_id": "a47ce49a8db527f532003683a918b67f", "name": "a47ce49a8db527f532003683a918b67f"}, {"lon": -77.025788, "is_disabled": 0, "lat": 38.93099816666667, "fusion_lat": 0.0, "is_reserved": 0, "rental_uris": {"ios": "https://dc.lft.to/lastmile_qr_scan", "android": "https://dc.lft.to/lastmile_qr_scan"}, "fusion_lon": 0.0, "type": "electric_scooter", "bike_id": "aadafcf3092bd58ee306e175473252f6", "name": "aadafcf3092bd58ee306e175473252f6"}, {"lon": -77.02876633333334, "is_disabled": 0, "lat": 38.924841666666666, "fusion_lat": 0.0, "is_reserved": 0, "rental_uris": {"ios": "https://dc.lft.to/lastmile_qr_scan", "android": "https://dc.lft.to/lastmile_qr_scan"}, "fusion_lon": 0.0, "type": "electric_scooter", "bike_id": "d75c02b1c899884b82fd759cad6e8608", "name": "d75c02b1c899884b82fd759cad6e8608"}, {"lon": -77.00883383333333, "is_disabled": 0, "lat": 38.900740166666665, "fusion_lat": 0.0, "is_reserved": 0, "rental_uris": {"ios": "https://dc.lft.to/lastmile_qr_scan", "android": "https://dc.lft.to/lastmile_qr_scan"}, "fusion_lon": 0.0, "type": "electric_scooter", "bike_id": "e0089619a03b241775e4af1a1cc47422", "name": "e0089619a03b241775e4af1a1cc47422"}, {"lon": -77.03175883333333, "is_disabled": 0, "lat": 38.91914883333333, "fusion_lat": 0.0, "is_reserved": 0, "rental_uris": {"ios": "https://dc.lft.to/lastmile_qr_scan", "android": "https://dc.lft.to/lastmile_qr_scan"}, "fusion_lon": 0.0, "type": "electric_scooter", "bike_id": "096a525a603a8bf8623ef707c073d8e4", "name": "096a525a603a8bf8623ef707c073d8e4"}, {"lon": -77.023679, "is_disabled": 0, "lat": 38.91546483333333, "fusion_lat": 0.0, "is_reserved": 0, "rental_uris": {"ios": "https://dc.lft.to/lastmile_qr_scan", "android": "https://dc.lft.to/lastmile_qr_scan"}, "fusion_lon": 0.0, "type": "electric_scooter", "bike_id": "c94bcb7064e127274d60fbcfb6e57a68", "name": "c94bcb7064e127274d60fbcfb6e57a68"}, {"lon": -77.03733916666667, "is_disabled": 0, "lat": 38.9246715, "fusion_lat": 0.0, "is_reserved": 0, "rental_uris": {"ios": "https://dc.lft.to/lastmile_qr_scan", "android": "https://dc.lft.to/lastmile_qr_scan"}, "fusion_lon": 0.0, "type": "electric_scooter", "bike_id": "3fbab925365f92b94c94f87eb065ff89", "name": "3fbab925365f92b94c94f87eb065ff89"}, {"lon": -77.03179683333333, "is_disabled": 0, "lat": 38.89962033333333, "fusion_lat": 0.0, "is_reserved": 0, "rental_uris": {"ios": "https://dc.lft.to/lastmile_qr_scan", "android": "https://dc.lft.to/lastmile_qr_scan"}, "fusion_lon": 0.0, "type": "electric_scooter", "bike_id": "583006936ff6b4e38678872ad2ef6283", "name": "583006936ff6b4e38678872ad2ef6283"}, {"lon": -77.03338583333333, "is_disabled": 0, "lat": 38.91714833333333, "fusion_lat": 0.0, "is_reserved": 0, "rental_uris": {"ios": "https://dc.lft.to/lastmile_qr_scan", "android": "https://dc.lft.to/lastmile_qr_scan"}, "fusion_lon": 0.0, "type": "electric_scooter", "bike_id": "52a5bac62c45e63197a873620fb1cd17", "name": "52a5bac62c45e63197a873620fb1cd17"}, {"lon": -77.00558066666666, "is_disabled": 0, "lat": 38.87470233333333, "fusion_lat": 0.0, "is_reserved": 0, "rental_uris": {"ios": "https://dc.lft.to/lastmile_qr_scan", "android": "https://dc.lft.to/lastmile_qr_scan"}, "fusion_lon": 0.0, "type": "electric_scooter", "bike_id": "3fe5b07eeaacb95d361971395e7cd17f", "name": "3fe5b07eeaacb95d361971395e7cd17f"}, {"lon": -77.08862283333333, "is_disabled": 0, "lat": 38.916404166666666, "fusion_lat": 0.0, "is_reserved": 0, "rental_uris": {"ios": "https://dc.lft.to/lastmile_qr_scan", "android": "https://dc.lft.to/lastmile_qr_scan"}, "fusion_lon": 0.0, "type": "electric_scooter", "bike_id": "9f1ce32aaa8ee9223191a22c67b0a5a2", "name": "9f1ce32aaa8ee9223191a22c67b0a5a2"}, {"lon": -77.0277305, "is_disabled": 0, "lat": 38.89635766666667, "fusion_lat": 0.0, "is_reserved": 0, "rental_uris": {"ios": "https://dc.lft.to/lastmile_qr_scan", "android": "https://dc.lft.to/lastmile_qr_scan"}, "fusion_lon": 0.0, "type": "electric_scooter", "bike_id": "918ab6b248dd80aa5e7f3dd5c4c1d684", "name": "918ab6b248dd80aa5e7f3dd5c4c1d684"}, {"lon": -77.03348566666666, "is_disabled": 0, "lat": 38.892472, "fusion_lat": 0.0, "is_reserved": 0, "rental_uris": {"ios": "https://dc.lft.to/lastmile_qr_scan", "android": "https://dc.lft.to/lastmile_qr_scan"}, "fusion_lon": 0.0, "type": "electric_scooter", "bike_id": "33cf63325e5e7d622a71dd5e3a97a36f", "name": "33cf63325e5e7d622a71dd5e3a97a36f"}, {"lon": -77.0322015, "is_disabled": 0, "lat": 38.9170965, "fusion_lat": 0.0, "is_reserved": 0, "rental_uris": {"ios": "https://dc.lft.to/lastmile_qr_scan", "android": "https://dc.lft.to/lastmile_qr_scan"}, "fusion_lon": 0.0, "type": "electric_scooter", "bike_id": "3d4e71c263edf63d53315081b35802a1", "name": "3d4e71c263edf63d53315081b35802a1"}, {"lon": -77.0402425, "is_disabled": 0, "lat": 38.91709316666667, "fusion_lat": 0.0, "is_reserved": 0, "rental_uris": {"ios": "https://dc.lft.to/lastmile_qr_scan", "android": "https://dc.lft.to/lastmile_qr_scan"}, "fusion_lon": 0.0, "type": "electric_scooter", "bike_id": "f2db5d0dd14856a6a8b6c83397a85669", "name": "f2db5d0dd14856a6a8b6c83397a85669"}, {"lon": -77.02508033333334, "is_disabled": 0, "lat": 38.92078083333333, "fusion_lat": 0.0, "is_reserved": 0, "rental_uris": {"ios": "https://dc.lft.to/lastmile_qr_scan", "android": "https://dc.lft.to/lastmile_qr_scan"}, "fusion_lon": 0.0, "type": "electric_scooter", "bike_id": "4a8ce278c7fda2f7207f0a82003609e6", "name": "4a8ce278c7fda2f7207f0a82003609e6"}, {"lon": -77.0177575, "is_disabled": 0, "lat": 38.88714566666667, "fusion_lat": 0.0, "is_reserved": 0, "rental_uris": {"ios": "https://dc.lft.to/lastmile_qr_scan", "android": "https://dc.lft.to/lastmile_qr_scan"}, "fusion_lon": 0.0, "type": "electric_scooter", "bike_id": "ce5ce2cdb5a9f469fe6248dd08280810", "name": "ce5ce2cdb5a9f469fe6248dd08280810"}, {"lon": -77.07238366666667, "is_disabled": 0, "lat": 38.93950316666667, "fusion_lat": 0.0, "is_reserved": 0, "rental_uris": {"ios": "https://dc.lft.to/lastmile_qr_scan", "android": "https://dc.lft.to/lastmile_qr_scan"}, "fusion_lon": 0.0, "type": "electric_scooter", "bike_id": "5236d313382458152b461ddf5839bcd1", "name": "5236d313382458152b461ddf5839bcd1"}, {"lon": -77.01732183333333, "is_disabled": 0, "lat": 38.887494333333336, "fusion_lat": 0.0, "is_reserved": 0, "rental_uris": {"ios": "https://dc.lft.to/lastmile_qr_scan", "android": "https://dc.lft.to/lastmile_qr_scan"}, "fusion_lon": 0.0, "type": "electric_scooter", "bike_id": "6fbf26feee0ac72bca894b0b5ecc7b7d", "name": "6fbf26feee0ac72bca894b0b5ecc7b7d"}, {"lon": -77.02156633333334, "is_disabled": 0, "lat": 38.92601466666667, "fusion_lat": 0.0, "is_reserved": 0, "rental_uris": {"ios": "https://dc.lft.to/lastmile_qr_scan", "android": "https://dc.lft.to/lastmile_qr_scan"}, "fusion_lon": 0.0, "type": "electric_scooter", "bike_id": "1d9e0624ea1f7298e83b8a271ff8a4c3", "name": "1d9e0624ea1f7298e83b8a271ff8a4c3"}, {"lon": -77.0295255, "is_disabled": 0, "lat": 38.904991, "fusion_lat": 0.0, "is_reserved": 0, "rental_uris": {"ios": "https://dc.lft.to/lastmile_qr_scan", "android": "https://dc.lft.to/lastmile_qr_scan"}, "fusion_lon": 0.0, "type": "electric_scooter", "bike_id": "808daa96f06de366320e684ffc5f3e9c", "name": "808daa96f06de366320e684ffc5f3e9c"}, {"lon": -76.92045816666666, "is_disabled": 0, "lat": 38.897428, "fusion_lat": 0.0, "is_reserved": 0, "rental_uris": {"ios": "https://dc.lft.to/lastmile_qr_scan", "android": "https://dc.lft.to/lastmile_qr_scan"}, "fusion_lon": 0.0, "type": "electric_bike", "bike_id": "9f7423a4ce0dba7e9d8d723a942e582d", "name": "9f7423a4ce0dba7e9d8d723a942e582d"}, {"lon": -76.98573766666667, "is_disabled": 0, "lat": 38.866795833333335, "fusion_lat": 0.0, "is_reserved": 0, "rental_uris": {"ios": "https://dc.lft.to/lastmile_qr_scan", "android": "https://dc.lft.to/lastmile_qr_scan"}, "fusion_lon": 0.0, "type": "electric_scooter", "bike_id": "607bde0339a7e45876842fb50993b579", "name": "607bde0339a7e45876842fb50993b579"}, {"lon": -77.03646433333333, "is_disabled": 0, "lat": 38.93165916666667, "fusion_lat": 0.0, "is_reserved": 0, "rental_uris": {"ios": "https://dc.lft.to/lastmile_qr_scan", "android": "https://dc.lft.to/lastmile_qr_scan"}, "fusion_lon": 0.0, "type": "electric_scooter", "bike_id": "3bae10ccafd7bbb2a47533877582d02b", "name": "3bae10ccafd7bbb2a47533877582d02b"}, {"lon": -77.02761433333333, "is_disabled": 0, "lat": 38.91684216666667, "fusion_lat": 0.0, "is_reserved": 0, "rental_uris": {"ios": "https://dc.lft.to/lastmile_qr_scan", "android": "https://dc.lft.to/lastmile_qr_scan"}, "fusion_lon": 0.0, "type": "electric_scooter", "bike_id": "cf0a60aaac2b686737d2b11e71f15cb6", "name": "cf0a60aaac2b686737d2b11e71f15cb6"}, {"lon": -77.02630716666667, "is_disabled": 0, "lat": 38.92992016666667, "fusion_lat": 0.0, "is_reserved": 0, "rental_uris": {"ios": "https://dc.lft.to/lastmile_qr_scan", "android": "https://dc.lft.to/lastmile_qr_scan"}, "fusion_lon": 0.0, "type": "electric_scooter", "bike_id": "e89ec9781e6e5d04ef48467f6209669d", "name": "e89ec9781e6e5d04ef48467f6209669d"}, {"lon": -77.02385833333334, "is_disabled": 0, "lat": 38.916781666666665, "fusion_lat": 0.0, "is_reserved": 0, "rental_uris": {"ios": "https://dc.lft.to/lastmile_qr_scan", "android": "https://dc.lft.to/lastmile_qr_scan"}, "fusion_lon": 0.0, "type": "electric_scooter", "bike_id": "c5dfcaad23171997a3346243369228f8", "name": "c5dfcaad23171997a3346243369228f8"}, {"lon": -77.00066466666667, "is_disabled": 0, "lat": 38.900307, "fusion_lat": 0.0, "is_reserved": 0, "rental_uris": {"ios": "https://dc.lft.to/lastmile_qr_scan", "android": "https://dc.lft.to/lastmile_qr_scan"}, "fusion_lon": 0.0, "type": "electric_scooter", "bike_id": "d6847957da4e0a10bc354df89b2fa370", "name": "d6847957da4e0a10bc354df89b2fa370"}, {"lon": -77.03869366666666, "is_disabled": 0, "lat": 38.93451483333333, "fusion_lat": 0.0, "is_reserved": 0, "rental_uris": {"ios": "https://dc.lft.to/lastmile_qr_scan", "android": "https://dc.lft.to/lastmile_qr_scan"}, "fusion_lon": 0.0, "type": "electric_scooter", "bike_id": "408e5a853e37bd68d8ae76df25ec6744", "name": "408e5a853e37bd68d8ae76df25ec6744"}, {"lon": -77.04122766666667, "is_disabled": 0, "lat": 38.9335315, "fusion_lat": 0.0, "is_reserved": 0, "rental_uris": {"ios": "https://dc.lft.to/lastmile_qr_scan", "android": "https://dc.lft.to/lastmile_qr_scan"}, "fusion_lon": 0.0, "type": "electric_scooter", "bike_id": "365a3b5c1e0a49c25f439ea7d4c47374", "name": "365a3b5c1e0a49c25f439ea7d4c47374"}, {"lon": -77.03838683333333, "is_disabled": 0, "lat": 38.913503166666665, "fusion_lat": 0.0, "is_reserved": 0, "rental_uris": {"ios": "https://dc.lft.to/lastmile_qr_scan", "android": "https://dc.lft.to/lastmile_qr_scan"}, "fusion_lon": 0.0, "type": "electric_scooter", "bike_id": "65089c92f20ac597dd1756e2b460c922", "name": "65089c92f20ac597dd1756e2b460c922"}, {"lon": -77.02578516666667, "is_disabled": 0, "lat": 38.898337, "fusion_lat": 0.0, "is_reserved": 0, "rental_uris": {"ios": "https://dc.lft.to/lastmile_qr_scan", "android": "https://dc.lft.to/lastmile_qr_scan"}, "fusion_lon": 0.0, "type": "electric_scooter", "bike_id": "1656a3ea74ddb09d57668ac2f6feefb0", "name": "1656a3ea74ddb09d57668ac2f6feefb0"}, {"lon": -77.018416, "is_disabled": 0, "lat": 38.92879633333333, "fusion_lat": 0.0, "is_reserved": 0, "rental_uris": {"ios": "https://dc.lft.to/lastmile_qr_scan", "android": "https://dc.lft.to/lastmile_qr_scan"}, "fusion_lon": 0.0, "type": "electric_scooter", "bike_id": "c5b1e2335c8e6b2cd0c7105d4dcc4947", "name": "c5b1e2335c8e6b2cd0c7105d4dcc4947"}, {"lon": -77.03863516666667, "is_disabled": 0, "lat": 38.90800683333333, "fusion_lat": 0.0, "is_reserved": 0, "rental_uris": {"ios": "https://dc.lft.to/lastmile_qr_scan", "android": "https://dc.lft.to/lastmile_qr_scan"}, "fusion_lon": 0.0, "type": "electric_scooter", "bike_id": "791664d11dd2f60c151524b9b0ff252a", "name": "791664d11dd2f60c151524b9b0ff252a"}, {"lon": -77.09453333333333, "is_disabled": 0, "lat": 38.80756316666667, "fusion_lat": 0.0, "is_reserved": 0, "rental_uris": {"ios": "https://dc.lft.to/lastmile_qr_scan", "android": "https://dc.lft.to/lastmile_qr_scan"}, "fusion_lon": 0.0, "type": "electric_bike", "bike_id": "d7f9feca3d76b99ed0d7c66836c93028", "name": "d7f9feca3d76b99ed0d7c66836c93028"}, {"lon": -76.98587416666666, "is_disabled": 0, "lat": 38.85870533333333, "fusion_lat": 0.0, "is_reserved": 0, "rental_uris": {"ios": "https://dc.lft.to/lastmile_qr_scan", "android": "https://dc.lft.to/lastmile_qr_scan"}, "fusion_lon": 0.0, "type": "electric_scooter", "bike_id": "5a44455bba68adb19a91afc1e322e5ed", "name": "5a44455bba68adb19a91afc1e322e5ed"}, {"lon": -77.04185866666667, "is_disabled": 0, "lat": 38.9205385, "fusion_lat": 0.0, "is_reserved": 0, "rental_uris": {"ios": "https://dc.lft.to/lastmile_qr_scan", "android": "https://dc.lft.to/lastmile_qr_scan"}, "fusion_lon": 0.0, "type": "electric_scooter", "bike_id": "3df5c6d2b032e27a22eba373baf92485", "name": "3df5c6d2b032e27a22eba373baf92485"}, {"lon": -77.00118366666666, "is_disabled": 0, "lat": 38.88655416666667, "fusion_lat": 0.0, "is_reserved": 0, "rental_uris": {"ios": "https://dc.lft.to/lastmile_qr_scan", "android": "https://dc.lft.to/lastmile_qr_scan"}, "fusion_lon": 0.0, "type": "electric_scooter", "bike_id": "ffbf257888e5cfef9becbc72d1889925", "name": "ffbf257888e5cfef9becbc72d1889925"}, {"lon": -77.0227095, "is_disabled": 0, "lat": 38.89517283333333, "fusion_lat": 0.0, "is_reserved": 0, "rental_uris": {"ios": "https://dc.lft.to/lastmile_qr_scan", "android": "https://dc.lft.to/lastmile_qr_scan"}, "fusion_lon": 0.0, "type": "electric_scooter", "bike_id": "48329a812355d21a25545f2d7fe9f03a", "name": "48329a812355d21a25545f2d7fe9f03a"}, {"lon": -77.02131533333333, "is_disabled": 0, "lat": 38.90201883333334, "fusion_lat": 0.0, "is_reserved": 0, "rental_uris": {"ios": "https://dc.lft.to/lastmile_qr_scan", "android": "https://dc.lft.to/lastmile_qr_scan"}, "fusion_lon": 0.0, "type": "electric_scooter", "bike_id": "2ac96f893ab10308bef71128dceb4fff", "name": "2ac96f893ab10308bef71128dceb4fff"}, {"lon": -76.93019533333333, "is_disabled": 0, "lat": 38.90161666666667, "fusion_lat": 0.0, "is_reserved": 0, "rental_uris": {"ios": "https://dc.lft.to/lastmile_qr_scan", "android": "https://dc.lft.to/lastmile_qr_scan"}, "fusion_lon": 0.0, "type": "electric_scooter", "bike_id": "20a9135828511722ef12be87ad872c35", "name": "20a9135828511722ef12be87ad872c35"}, {"lon": -77.03273566666667, "is_disabled": 0, "lat": 38.8987355, "fusion_lat": 0.0, "is_reserved": 0, "rental_uris": {"ios": "https://dc.lft.to/lastmile_qr_scan", "android": "https://dc.lft.to/lastmile_qr_scan"}, "fusion_lon": 0.0, "type": "electric_scooter", "bike_id": "66aa1f6edb678828fbb9d8f918d306c7", "name": "66aa1f6edb678828fbb9d8f918d306c7"}, {"lon": -77.0211595, "is_disabled": 0, "lat": 38.9173915, "fusion_lat": 0.0, "is_reserved": 0, "rental_uris": {"ios": "https://dc.lft.to/lastmile_qr_scan", "android": "https://dc.lft.to/lastmile_qr_scan"}, "fusion_lon": 0.0, "type": "electric_scooter", "bike_id": "49991a57b141a54e87bfb96ebfd156ad", "name": "49991a57b141a54e87bfb96ebfd156ad"}, {"lon": -77.0119585, "is_disabled": 0, "lat": 38.916946833333334, "fusion_lat": 0.0, "is_reserved": 0, "rental_uris": {"ios": "https://dc.lft.to/lastmile_qr_scan", "android": "https://dc.lft.to/lastmile_qr_scan"}, "fusion_lon": 0.0, "type": "electric_scooter", "bike_id": "bce2a63f76e0b75e4435416ef42779d1", "name": "bce2a63f76e0b75e4435416ef42779d1"}, {"lon": -76.96524483333333, "is_disabled": 0, "lat": 38.874788, "fusion_lat": 0.0, "is_reserved": 0, "rental_uris": {"ios": "https://dc.lft.to/lastmile_qr_scan", "android": "https://dc.lft.to/lastmile_qr_scan"}, "fusion_lon": 0.0, "type": "electric_bike", "bike_id": "8474706643394a5c4de5cc696d8e8f38", "name": "8474706643394a5c4de5cc696d8e8f38"}, {"lon": -77.01149666666667, "is_disabled": 0, "lat": 38.95631983333333, "fusion_lat": 0.0, "is_reserved": 0, "rental_uris": {"ios": "https://dc.lft.to/lastmile_qr_scan", "android": "https://dc.lft.to/lastmile_qr_scan"}, "fusion_lon": 0.0, "type": "electric_scooter", "bike_id": "7c2bc44003e653ed44e0fe9ff6179f30", "name": "7c2bc44003e653ed44e0fe9ff6179f30"}, {"lon": -77.010002, "is_disabled": 0, "lat": 38.956538333333334, "fusion_lat": 0.0, "is_reserved": 0, "rental_uris": {"ios": "https://dc.lft.to/lastmile_qr_scan", "android": "https://dc.lft.to/lastmile_qr_scan"}, "fusion_lon": 0.0, "type": "electric_scooter", "bike_id": "8e4ae16d65bf17ebc2effeab4713a6e0", "name": "8e4ae16d65bf17ebc2effeab4713a6e0"}, {"lon": -77.0630705, "is_disabled": 0, "lat": 38.7985095, "fusion_lat": 0.0, "is_reserved": 0, "rental_uris": {"ios": "https://dc.lft.to/lastmile_qr_scan", "android": "https://dc.lft.to/lastmile_qr_scan"}, "fusion_lon": 0.0, "type": "electric_bike", "bike_id": "a7628f6ea4912c98fa2d28499dadf08d", "name": "a7628f6ea4912c98fa2d28499dadf08d"}, {"lon": -77.0245705, "is_disabled": 0, "lat": 38.94357733333333, "fusion_lat": 0.0, "is_reserved": 0, "rental_uris": {"ios": "https://dc.lft.to/lastmile_qr_scan", "android": "https://dc.lft.to/lastmile_qr_scan"}, "fusion_lon": 0.0, "type": "electric_scooter", "bike_id": "7f55ea3b1ab1bfce2c4798407649d462", "name": "7f55ea3b1ab1bfce2c4798407649d462"}, {"lon": -77.07270183333333, "is_disabled": 0, "lat": 38.934748, "fusion_lat": 0.0, "is_reserved": 0, "rental_uris": {"ios": "https://dc.lft.to/lastmile_qr_scan", "android": "https://dc.lft.to/lastmile_qr_scan"}, "fusion_lon": 0.0, "type": "electric_scooter", "bike_id": "1618e59c2a42f7b257a15a2f43f0f244", "name": "1618e59c2a42f7b257a15a2f43f0f244"}, {"lon": -77.00587233333333, "is_disabled": 0, "lat": 38.905530666666664, "fusion_lat": 0.0, "is_reserved": 0, "rental_uris": {"ios": "https://dc.lft.to/lastmile_qr_scan", "android": "https://dc.lft.to/lastmile_qr_scan"}, "fusion_lon": 0.0, "type": "electric_scooter", "bike_id": "34cee2b5f46d869170d56a95c8cd0124", "name": "34cee2b5f46d869170d56a95c8cd0124"}, {"lon": -77.02974033333334, "is_disabled": 0, "lat": 38.90490666666667, "fusion_lat": 0.0, "is_reserved": 0, "rental_uris": {"ios": "https://dc.lft.to/lastmile_qr_scan", "android": "https://dc.lft.to/lastmile_qr_scan"}, "fusion_lon": 0.0, "type": "electric_scooter", "bike_id": "dfc692cab7698b8ca0c59b6861ed8cb5", "name": "dfc692cab7698b8ca0c59b6861ed8cb5"}, {"lon": -77.05152966666667, "is_disabled": 0, "lat": 38.9237725, "fusion_lat": 0.0, "is_reserved": 0, "rental_uris": {"ios": "https://dc.lft.to/lastmile_qr_scan", "android": "https://dc.lft.to/lastmile_qr_scan"}, "fusion_lon": 0.0, "type": "electric_scooter", "bike_id": "8d780813322f0864b5f8e38edc8ae19f", "name": "8d780813322f0864b5f8e38edc8ae19f"}, {"lon": -77.02084916666666, "is_disabled": 0, "lat": 38.92142033333333, "fusion_lat": 0.0, "is_reserved": 0, "rental_uris": {"ios": "https://dc.lft.to/lastmile_qr_scan", "android": "https://dc.lft.to/lastmile_qr_scan"}, "fusion_lon": 0.0, "type": "electric_scooter", "bike_id": "b66780ffa0f77d4b404068aa2b27a751", "name": "b66780ffa0f77d4b404068aa2b27a751"}, {"lon": -77.0232475, "is_disabled": 0, "lat": 38.90928383333333, "fusion_lat": 0.0, "is_reserved": 0, "rental_uris": {"ios": "https://dc.lft.to/lastmile_qr_scan", "android": "https://dc.lft.to/lastmile_qr_scan"}, "fusion_lon": 0.0, "type": "electric_scooter", "bike_id": "e765c59d1ca0c3864810a6647d03afeb", "name": "e765c59d1ca0c3864810a6647d03afeb"}, {"lon": -77.01777433333334, "is_disabled": 0, "lat": 38.915013, "fusion_lat": 0.0, "is_reserved": 0, "rental_uris": {"ios": "https://dc.lft.to/lastmile_qr_scan", "android": "https://dc.lft.to/lastmile_qr_scan"}, "fusion_lon": 0.0, "type": "electric_scooter", "bike_id": "c2783bd199f16dae38db0053ddd77a3c", "name": "c2783bd199f16dae38db0053ddd77a3c"}, {"lon": -77.03659666666667, "is_disabled": 0, "lat": 38.92260316666667, "fusion_lat": 0.0, "is_reserved": 0, "rental_uris": {"ios": "https://dc.lft.to/lastmile_qr_scan", "android": "https://dc.lft.to/lastmile_qr_scan"}, "fusion_lon": 0.0, "type": "electric_scooter", "bike_id": "d4ffbd31a224a6277cc7ec51b0ca10e9", "name": "d4ffbd31a224a6277cc7ec51b0ca10e9"}, {"lon": -77.0231205, "is_disabled": 0, "lat": 38.90955683333333, "fusion_lat": 0.0, "is_reserved": 0, "rental_uris": {"ios": "https://dc.lft.to/lastmile_qr_scan", "android": "https://dc.lft.to/lastmile_qr_scan"}, "fusion_lon": 0.0, "type": "electric_scooter", "bike_id": "8503b01931e0da245c99973f4e4001c3", "name": "8503b01931e0da245c99973f4e4001c3"}, {"lon": -77.04174033333334, "is_disabled": 0, "lat": 38.91125783333333, "fusion_lat": 0.0, "is_reserved": 0, "rental_uris": {"ios": "https://dc.lft.to/lastmile_qr_scan", "android": "https://dc.lft.to/lastmile_qr_scan"}, "fusion_lon": 0.0, "type": "electric_scooter", "bike_id": "25349c086b7fc94dfd25a32e0ae506d3", "name": "25349c086b7fc94dfd25a32e0ae506d3"}, {"lon": -77.0200855, "is_disabled": 0, "lat": 38.914056333333335, "fusion_lat": 0.0, "is_reserved": 0, "rental_uris": {"ios": "https://dc.lft.to/lastmile_qr_scan", "android": "https://dc.lft.to/lastmile_qr_scan"}, "fusion_lon": 0.0, "type": "electric_scooter", "bike_id": "ecd77c703b2559c2ddb23b17e18d64e7", "name": "ecd77c703b2559c2ddb23b17e18d64e7"}, {"lon": -77.02306983333334, "is_disabled": 0, "lat": 38.896158666666665, "fusion_lat": 0.0, "is_reserved": 0, "rental_uris": {"ios": "https://dc.lft.to/lastmile_qr_scan", "android": "https://dc.lft.to/lastmile_qr_scan"}, "fusion_lon": 0.0, "type": "electric_scooter", "bike_id": "994634939b8b6f6a6a985912c2fb9178", "name": "994634939b8b6f6a6a985912c2fb9178"}, {"lon": -77.0032545, "is_disabled": 0, "lat": 38.877222, "fusion_lat": 0.0, "is_reserved": 0, "rental_uris": {"ios": "https://dc.lft.to/lastmile_qr_scan", "android": "https://dc.lft.to/lastmile_qr_scan"}, "fusion_lon": 0.0, "type": "electric_scooter", "bike_id": "0457629edf4e5f9da953a603a324402d", "name": "0457629edf4e5f9da953a603a324402d"}, {"lon": -77.02488233333334, "is_disabled": 0, "lat": 38.941846166666664, "fusion_lat": 0.0, "is_reserved": 0, "rental_uris": {"ios": "https://dc.lft.to/lastmile_qr_scan", "android": "https://dc.lft.to/lastmile_qr_scan"}, "fusion_lon": 0.0, "type": "electric_scooter", "bike_id": "cae2c9c6d74c994d17fbf5c78be1e23b", "name": "cae2c9c6d74c994d17fbf5c78be1e23b"}, {"lon": -77.04029366666667, "is_disabled": 0, "lat": 38.90368683333333, "fusion_lat": 0.0, "is_reserved": 0, "rental_uris": {"ios": "https://dc.lft.to/lastmile_qr_scan", "android": "https://dc.lft.to/lastmile_qr_scan"}, "fusion_lon": 0.0, "type": "electric_scooter", "bike_id": "85ef930b9aebe864ea62a22a5ebb5f75", "name": "85ef930b9aebe864ea62a22a5ebb5f75"}, {"lon": -77.05326566666666, "is_disabled": 0, "lat": 38.90268666666667, "fusion_lat": 0.0, "is_reserved": 0, "rental_uris": {"ios": "https://dc.lft.to/lastmile_qr_scan", "android": "https://dc.lft.to/lastmile_qr_scan"}, "fusion_lon": 0.0, "type": "electric_scooter", "bike_id": "9a9783a5ce1748f6cd203c31092dead7", "name": "9a9783a5ce1748f6cd203c31092dead7"}, {"lon": -77.02237116666667, "is_disabled": 0, "lat": 38.9224225, "fusion_lat": 0.0, "is_reserved": 0, "rental_uris": {"ios": "https://dc.lft.to/lastmile_qr_scan", "android": "https://dc.lft.to/lastmile_qr_scan"}, "fusion_lon": 0.0, "type": "electric_scooter", "bike_id": "69516e888b7b792f50be57871532a58b", "name": "69516e888b7b792f50be57871532a58b"}, {"lon": -77.02313433333333, "is_disabled": 0, "lat": 38.91781483333333, "fusion_lat": 0.0, "is_reserved": 0, "rental_uris": {"ios": "https://dc.lft.to/lastmile_qr_scan", "android": "https://dc.lft.to/lastmile_qr_scan"}, "fusion_lon": 0.0, "type": "electric_scooter", "bike_id": "4dd814aaee917f65b22477656969e9ad", "name": "4dd814aaee917f65b22477656969e9ad"}, {"lon": -76.98187733333333, "is_disabled": 0, "lat": 38.86202466666667, "fusion_lat": 0.0, "is_reserved": 0, "rental_uris": {"ios": "https://dc.lft.to/lastmile_qr_scan", "android": "https://dc.lft.to/lastmile_qr_scan"}, "fusion_lon": 0.0, "type": "electric_scooter", "bike_id": "cd10fd952c6b5378f84d15a6a02027df", "name": "cd10fd952c6b5378f84d15a6a02027df"}, {"lon": -77.031992, "is_disabled": 0, "lat": 38.8923485, "fusion_lat": 0.0, "is_reserved": 0, "rental_uris": {"ios": "https://dc.lft.to/lastmile_qr_scan", "android": "https://dc.lft.to/lastmile_qr_scan"}, "fusion_lon": 0.0, "type": "electric_scooter", "bike_id": "9680daccc84120773bef5bcbeb774812", "name": "9680daccc84120773bef5bcbeb774812"}, {"lon": -76.93977033333333, "is_disabled": 0, "lat": 38.89309216666667, "fusion_lat": 0.0, "is_reserved": 0, "rental_uris": {"ios": "https://dc.lft.to/lastmile_qr_scan", "android": "https://dc.lft.to/lastmile_qr_scan"}, "fusion_lon": 0.0, "type": "electric_scooter", "bike_id": "0a9e06cde352eb487311c1ec536723fe", "name": "0a9e06cde352eb487311c1ec536723fe"}, {"lon": -76.98855766666667, "is_disabled": 0, "lat": 38.84432866666667, "fusion_lat": 0.0, "is_reserved": 0, "rental_uris": {"ios": "https://dc.lft.to/lastmile_qr_scan", "android": "https://dc.lft.to/lastmile_qr_scan"}, "fusion_lon": 0.0, "type": "electric_scooter", "bike_id": "1917e2edd2f3f373ff00822364f5a394", "name": "1917e2edd2f3f373ff00822364f5a394"}, {"lon": -77.02654333333334, "is_disabled": 0, "lat": 38.916937833333336, "fusion_lat": 0.0, "is_reserved": 0, "rental_uris": {"ios": "https://dc.lft.to/lastmile_qr_scan", "android": "https://dc.lft.to/lastmile_qr_scan"}, "fusion_lon": 0.0, "type": "electric_scooter", "bike_id": "ae26344071977225f21fe3f05f9d100c", "name": "ae26344071977225f21fe3f05f9d100c"}, {"lon": -77.0419515, "is_disabled": 0, "lat": 38.926238, "fusion_lat": 0.0, "is_reserved": 0, "rental_uris": {"ios": "https://dc.lft.to/lastmile_qr_scan", "android": "https://dc.lft.to/lastmile_qr_scan"}, "fusion_lon": 0.0, "type": "electric_scooter", "bike_id": "46c4b59fff7f51f65465b3ce8384ef14", "name": "46c4b59fff7f51f65465b3ce8384ef14"}, {"lon": -76.99492883333333, "is_disabled": 0, "lat": 38.862445666666666, "fusion_lat": 0.0, "is_reserved": 0, "rental_uris": {"ios": "https://dc.lft.to/lastmile_qr_scan", "android": "https://dc.lft.to/lastmile_qr_scan"}, "fusion_lon": 0.0, "type": "electric_scooter", "bike_id": "4ea2e017a311ff6a1686bdf4dc06e26a", "name": "4ea2e017a311ff6a1686bdf4dc06e26a"}, {"lon": -77.04368916666667, "is_disabled": 0, "lat": 38.892191333333336, "fusion_lat": 0.0, "is_reserved": 0, "rental_uris": {"ios": "https://dc.lft.to/lastmile_qr_scan", "android": "https://dc.lft.to/lastmile_qr_scan"}, "fusion_lon": 0.0, "type": "electric_scooter", "bike_id": "3c42d38093a367431ace79e8d3f359c9", "name": "3c42d38093a367431ace79e8d3f359c9"}, {"lon": -77.02456283333333, "is_disabled": 0, "lat": 38.918439166666666, "fusion_lat": 0.0, "is_reserved": 0, "rental_uris": {"ios": "https://dc.lft.to/lastmile_qr_scan", "android": "https://dc.lft.to/lastmile_qr_scan"}, "fusion_lon": 0.0, "type": "electric_scooter", "bike_id": "2ccfe3ae40007e17269d6258fdfba4b8", "name": "2ccfe3ae40007e17269d6258fdfba4b8"}, {"lon": -77.03988366666667, "is_disabled": 0, "lat": 38.90338533333333, "fusion_lat": 0.0, "is_reserved": 0, "rental_uris": {"ios": "https://dc.lft.to/lastmile_qr_scan", "android": "https://dc.lft.to/lastmile_qr_scan"}, "fusion_lon": 0.0, "type": "electric_scooter", "bike_id": "b386e1dd38ef3085d9edc086d64bb84e", "name": "b386e1dd38ef3085d9edc086d64bb84e"}, {"lon": -76.9740825, "is_disabled": 0, "lat": 38.9020645, "fusion_lat": 0.0, "is_reserved": 0, "rental_uris": {"ios": "https://dc.lft.to/lastmile_qr_scan", "android": "https://dc.lft.to/lastmile_qr_scan"}, "fusion_lon": 0.0, "type": "electric_bike", "bike_id": "4f10153c1babb79462f22f76fe0709b4", "name": "4f10153c1babb79462f22f76fe0709b4"}, {"lon": -76.95207183333333, "is_disabled": 0, "lat": 38.93669516666667, "fusion_lat": 0.0, "is_reserved": 0, "rental_uris": {"ios": "https://dc.lft.to/lastmile_qr_scan", "android": "https://dc.lft.to/lastmile_qr_scan"}, "fusion_lon": 0.0, "type": "electric_bike", "bike_id": "449d89c24542bd2729f668a5a554e77b", "name": "449d89c24542bd2729f668a5a554e77b"}, {"lon": -77.2255335, "is_disabled": 0, "lat": 38.924470166666666, "fusion_lat": 0.0, "is_reserved": 0, "rental_uris": {"ios": "https://dc.lft.to/lastmile_qr_scan", "android": "https://dc.lft.to/lastmile_qr_scan"}, "fusion_lon": 0.0, "type": "electric_bike", "bike_id": "3310382f081e30aa5d6f6ffcac37ef99", "name": "3310382f081e30aa5d6f6ffcac37ef99"}, {"lon": -77.01608316666666, "is_disabled": 0, "lat": 38.917596833333334, "fusion_lat": 0.0, "is_reserved": 0, "rental_uris": {"ios": "https://dc.lft.to/lastmile_qr_scan", "android": "https://dc.lft.to/lastmile_qr_scan"}, "fusion_lon": 0.0, "type": "electric_bike", "bike_id": "486b613c4be4e41ecd17242eceecd3fe", "name": "486b613c4be4e41ecd17242eceecd3fe"}, {"lon": -77.02420733333334, "is_disabled": 0, "lat": 38.926591, "fusion_lat": 0.0, "is_reserved": 0, "rental_uris": {"ios": "https://dc.lft.to/lastmile_qr_scan", "android": "https://dc.lft.to/lastmile_qr_scan"}, "fusion_lon": 0.0, "type": "electric_scooter", "bike_id": "d48152aef000a07ceb06f53c41efa19c", "name": "d48152aef000a07ceb06f53c41efa19c"}, {"lon": -76.99483633333334, "is_disabled": 0, "lat": 38.92998883333333, "fusion_lat": 0.0, "is_reserved": 0, "rental_uris": {"ios": "https://dc.lft.to/lastmile_qr_scan", "android": "https://dc.lft.to/lastmile_qr_scan"}, "fusion_lon": 0.0, "type": "electric_scooter", "bike_id": "d8f8ead80d63ec310de1372e2122be52", "name": "d8f8ead80d63ec310de1372e2122be52"}, {"lon": -77.03385516666667, "is_disabled": 0, "lat": 38.9205165, "fusion_lat": 0.0, "is_reserved": 0, "rental_uris": {"ios": "https://dc.lft.to/lastmile_qr_scan", "android": "https://dc.lft.to/lastmile_qr_scan"}, "fusion_lon": 0.0, "type": "electric_scooter", "bike_id": "00d3183296fc1be0b4ddaf052770ac4d", "name": "00d3183296fc1be0b4ddaf052770ac4d"}, {"lon": -77.0333065, "is_disabled": 0, "lat": 38.94176566666667, "fusion_lat": 0.0, "is_reserved": 0, "rental_uris": {"ios": "https://dc.lft.to/lastmile_qr_scan", "android": "https://dc.lft.to/lastmile_qr_scan"}, "fusion_lon": 0.0, "type": "electric_scooter", "bike_id": "d19483454d17fadb9080e75b4d1b8661", "name": "d19483454d17fadb9080e75b4d1b8661"}, {"lon": -77.04352866666666, "is_disabled": 0, "lat": 38.914721, "fusion_lat": 0.0, "is_reserved": 0, "rental_uris": {"ios": "https://dc.lft.to/lastmile_qr_scan", "android": "https://dc.lft.to/lastmile_qr_scan"}, "fusion_lon": 0.0, "type": "electric_scooter", "bike_id": "c0fc169f1391c5863db2d61cab73247a", "name": "c0fc169f1391c5863db2d61cab73247a"}, {"lon": -77.03313266666666, "is_disabled": 0, "lat": 38.920505, "fusion_lat": 0.0, "is_reserved": 0, "rental_uris": {"ios": "https://dc.lft.to/lastmile_qr_scan", "android": "https://dc.lft.to/lastmile_qr_scan"}, "fusion_lon": 0.0, "type": "electric_bike", "bike_id": "565887a07d8011b22a9c73c893b04ded", "name": "565887a07d8011b22a9c73c893b04ded"}, {"lon": -77.01294983333334, "is_disabled": 0, "lat": 38.900492, "fusion_lat": 0.0, "is_reserved": 0, "rental_uris": {"ios": "https://dc.lft.to/lastmile_qr_scan", "android": "https://dc.lft.to/lastmile_qr_scan"}, "fusion_lon": 0.0, "type": "electric_scooter", "bike_id": "47f5867c21e1b383ad7dd2dd51eac358", "name": "47f5867c21e1b383ad7dd2dd51eac358"}, {"lon": -77.01753966666666, "is_disabled": 0, "lat": 38.877081, "fusion_lat": 0.0, "is_reserved": 0, "rental_uris": {"ios": "https://dc.lft.to/lastmile_qr_scan", "android": "https://dc.lft.to/lastmile_qr_scan"}, "fusion_lon": 0.0, "type": "electric_scooter", "bike_id": "3ab44b886f0d2c86f68c5624bf272bdf", "name": "3ab44b886f0d2c86f68c5624bf272bdf"}, {"lon": -76.98424116666666, "is_disabled": 0, "lat": 38.92641783333333, "fusion_lat": 0.0, "is_reserved": 0, "rental_uris": {"ios": "https://dc.lft.to/lastmile_qr_scan", "android": "https://dc.lft.to/lastmile_qr_scan"}, "fusion_lon": 0.0, "type": "electric_bike", "bike_id": "6a0bef89e9561ad1dfad0a86918e9e4a", "name": "6a0bef89e9561ad1dfad0a86918e9e4a"}, {"lon": -77.0219345, "is_disabled": 0, "lat": 38.92680383333333, "fusion_lat": 0.0, "is_reserved": 0, "rental_uris": {"ios": "https://dc.lft.to/lastmile_qr_scan", "android": "https://dc.lft.to/lastmile_qr_scan"}, "fusion_lon": 0.0, "type": "electric_scooter", "bike_id": "815defe0bbffb09154eac245c851750d", "name": "815defe0bbffb09154eac245c851750d"}, {"lon": -77.02405716666667, "is_disabled": 0, "lat": 38.91914933333334, "fusion_lat": 0.0, "is_reserved": 0, "rental_uris": {"ios": "https://dc.lft.to/lastmile_qr_scan", "android": "https://dc.lft.to/lastmile_qr_scan"}, "fusion_lon": 0.0, "type": "electric_scooter", "bike_id": "c1f4a6593bc3a1cc13cd4b62b59bd06d", "name": "c1f4a6593bc3a1cc13cd4b62b59bd06d"}, {"lon": -77.03273683333333, "is_disabled": 0, "lat": 38.927557, "fusion_lat": 0.0, "is_reserved": 0, "rental_uris": {"ios": "https://dc.lft.to/lastmile_qr_scan", "android": "https://dc.lft.to/lastmile_qr_scan"}, "fusion_lon": 0.0, "type": "electric_scooter", "bike_id": "1cb96fdd4f5d6a94c9c6d307b6f70a92", "name": "1cb96fdd4f5d6a94c9c6d307b6f70a92"}, {"lon": -77.0353575, "is_disabled": 0, "lat": 38.922408, "fusion_lat": 0.0, "is_reserved": 0, "rental_uris": {"ios": "https://dc.lft.to/lastmile_qr_scan", "android": "https://dc.lft.to/lastmile_qr_scan"}, "fusion_lon": 0.0, "type": "electric_scooter", "bike_id": "de71f3d8b6f2288fe9cba89d3d382cce", "name": "de71f3d8b6f2288fe9cba89d3d382cce"}, {"lon": -77.032089, "is_disabled": 0, "lat": 38.919902, "fusion_lat": 0.0, "is_reserved": 0, "rental_uris": {"ios": "https://dc.lft.to/lastmile_qr_scan", "android": "https://dc.lft.to/lastmile_qr_scan"}, "fusion_lon": 0.0, "type": "electric_scooter", "bike_id": "66b15e3a300ee479234bf676f37a9348", "name": "66b15e3a300ee479234bf676f37a9348"}, {"lon": -77.0080115, "is_disabled": 0, "lat": 38.94919383333333, "fusion_lat": 0.0, "is_reserved": 0, "rental_uris": {"ios": "https://dc.lft.to/lastmile_qr_scan", "android": "https://dc.lft.to/lastmile_qr_scan"}, "fusion_lon": 0.0, "type": "electric_bike", "bike_id": "4e609635fb23a938ca47c517cf41195f", "name": "4e609635fb23a938ca47c517cf41195f"}, {"lon": -77.04649283333333, "is_disabled": 0, "lat": 38.90347783333333, "fusion_lat": 0.0, "is_reserved": 0, "rental_uris": {"ios": "https://dc.lft.to/lastmile_qr_scan", "android": "https://dc.lft.to/lastmile_qr_scan"}, "fusion_lon": 0.0, "type": "electric_scooter", "bike_id": "628696730224bf05b5dfaec4be3df76a", "name": "628696730224bf05b5dfaec4be3df76a"}, {"lon": -77.0052015, "is_disabled": 0, "lat": 38.874697166666664, "fusion_lat": 0.0, "is_reserved": 0, "rental_uris": {"ios": "https://dc.lft.to/lastmile_qr_scan", "android": "https://dc.lft.to/lastmile_qr_scan"}, "fusion_lon": 0.0, "type": "electric_scooter", "bike_id": "2cdf1048bea406013a3a3f2c16569429", "name": "2cdf1048bea406013a3a3f2c16569429"}, {"lon": -77.01865616666667, "is_disabled": 0, "lat": 38.874568333333336, "fusion_lat": 0.0, "is_reserved": 0, "rental_uris": {"ios": "https://dc.lft.to/lastmile_qr_scan", "android": "https://dc.lft.to/lastmile_qr_scan"}, "fusion_lon": 0.0, "type": "electric_scooter", "bike_id": "e00988ec157c911de90839707d9c2275", "name": "e00988ec157c911de90839707d9c2275"}, {"lon": -77.0842775, "is_disabled": 0, "lat": 38.93184933333333, "fusion_lat": 0.0, "is_reserved": 0, "rental_uris": {"ios": "https://dc.lft.to/lastmile_qr_scan", "android": "https://dc.lft.to/lastmile_qr_scan"}, "fusion_lon": 0.0, "type": "electric_scooter", "bike_id": "e3f9df2d2c4b6d4f624f72252bd79990", "name": "e3f9df2d2c4b6d4f624f72252bd79990"}, {"lon": -77.04158783333334, "is_disabled": 0, "lat": 38.90140783333333, "fusion_lat": 0.0, "is_reserved": 0, "rental_uris": {"ios": "https://dc.lft.to/lastmile_qr_scan", "android": "https://dc.lft.to/lastmile_qr_scan"}, "fusion_lon": 0.0, "type": "electric_scooter", "bike_id": "8583e61b3fcefdf8cd5174182e869e9d", "name": "8583e61b3fcefdf8cd5174182e869e9d"}, {"lon": -76.9456665, "is_disabled": 0, "lat": 38.86623766666666, "fusion_lat": 0.0, "is_reserved": 0, "rental_uris": {"ios": "https://dc.lft.to/lastmile_qr_scan", "android": "https://dc.lft.to/lastmile_qr_scan"}, "fusion_lon": 0.0, "type": "electric_bike", "bike_id": "3b74e385e9da2ce6a55e3e3efad94892", "name": "3b74e385e9da2ce6a55e3e3efad94892"}, {"lon": -77.0452565, "is_disabled": 0, "lat": 38.91330416666667, "fusion_lat": 0.0, "is_reserved": 0, "rental_uris": {"ios": "https://dc.lft.to/lastmile_qr_scan", "android": "https://dc.lft.to/lastmile_qr_scan"}, "fusion_lon": 0.0, "type": "electric_scooter", "bike_id": "03f60437894b7f49540c1ed48b0b842a", "name": "03f60437894b7f49540c1ed48b0b842a"}, {"lon": -77.00679766666667, "is_disabled": 0, "lat": 38.87167733333333, "fusion_lat": 0.0, "is_reserved": 0, "rental_uris": {"ios": "https://dc.lft.to/lastmile_qr_scan", "android": "https://dc.lft.to/lastmile_qr_scan"}, "fusion_lon": 0.0, "type": "electric_scooter", "bike_id": "a2c11fe68c7d3383c407d5c31d6210cb", "name": "a2c11fe68c7d3383c407d5c31d6210cb"}, {"lon": -76.94888416666667, "is_disabled": 0, "lat": 38.8953065, "fusion_lat": 0.0, "is_reserved": 0, "rental_uris": {"ios": "https://dc.lft.to/lastmile_qr_scan", "android": "https://dc.lft.to/lastmile_qr_scan"}, "fusion_lon": 0.0, "type": "electric_scooter", "bike_id": "7e30d640c4260934ecd79fff0afed06a", "name": "7e30d640c4260934ecd79fff0afed06a"}, {"lon": -77.02396716666667, "is_disabled": 0, "lat": 38.915449, "fusion_lat": 0.0, "is_reserved": 0, "rental_uris": {"ios": "https://dc.lft.to/lastmile_qr_scan", "android": "https://dc.lft.to/lastmile_qr_scan"}, "fusion_lon": 0.0, "type": "electric_scooter", "bike_id": "7cdb1a193b3343b9341f16b9df767ef2", "name": "7cdb1a193b3343b9341f16b9df767ef2"}, {"lon": -77.06934766666667, "is_disabled": 0, "lat": 38.952172, "fusion_lat": 0.0, "is_reserved": 0, "rental_uris": {"ios": "https://dc.lft.to/lastmile_qr_scan", "android": "https://dc.lft.to/lastmile_qr_scan"}, "fusion_lon": 0.0, "type": "electric_scooter", "bike_id": "be83a13c4cd3364f77940a3c9b31818a", "name": "be83a13c4cd3364f77940a3c9b31818a"}, {"lon": -77.05150233333333, "is_disabled": 0, "lat": 38.923753833333336, "fusion_lat": 0.0, "is_reserved": 0, "rental_uris": {"ios": "https://dc.lft.to/lastmile_qr_scan", "android": "https://dc.lft.to/lastmile_qr_scan"}, "fusion_lon": 0.0, "type": "electric_scooter", "bike_id": "d199219a6449db1aaaf12b5599e3be80", "name": "d199219a6449db1aaaf12b5599e3be80"}, {"lon": -76.94894433333333, "is_disabled": 0, "lat": 38.895337166666664, "fusion_lat": 0.0, "is_reserved": 0, "rental_uris": {"ios": "https://dc.lft.to/lastmile_qr_scan", "android": "https://dc.lft.to/lastmile_qr_scan"}, "fusion_lon": 0.0, "type": "electric_scooter", "bike_id": "4cac8ddae259c2b71173f27d88fe96b0", "name": "4cac8ddae259c2b71173f27d88fe96b0"}, {"lon": -76.991373, "is_disabled": 0, "lat": 38.908641, "fusion_lat": 0.0, "is_reserved": 0, "rental_uris": {"ios": "https://dc.lft.to/lastmile_qr_scan", "android": "https://dc.lft.to/lastmile_qr_scan"}, "fusion_lon": 0.0, "type": "electric_bike", "bike_id": "1035456f89fc738714c64c346cbd2fe5", "name": "1035456f89fc738714c64c346cbd2fe5"}, {"lon": -76.94889416666666, "is_disabled": 0, "lat": 38.89534533333333, "fusion_lat": 0.0, "is_reserved": 0, "rental_uris": {"ios": "https://dc.lft.to/lastmile_qr_scan", "android": "https://dc.lft.to/lastmile_qr_scan"}, "fusion_lon": 0.0, "type": "electric_scooter", "bike_id": "fed6c295ce3dcf76cbb8102c6c0e349b", "name": "fed6c295ce3dcf76cbb8102c6c0e349b"}, {"lon": -77.03193316666666, "is_disabled": 0, "lat": 38.89251483333334, "fusion_lat": 0.0, "is_reserved": 0, "rental_uris": {"ios": "https://dc.lft.to/lastmile_qr_scan", "android": "https://dc.lft.to/lastmile_qr_scan"}, "fusion_lon": 0.0, "type": "electric_scooter", "bike_id": "4e6eaadf73cfb40258f5831f18f9f295", "name": "4e6eaadf73cfb40258f5831f18f9f295"}, {"lon": -77.03211416666667, "is_disabled": 0, "lat": 38.892334166666664, "fusion_lat": 0.0, "is_reserved": 0, "rental_uris": {"ios": "https://dc.lft.to/lastmile_qr_scan", "android": "https://dc.lft.to/lastmile_qr_scan"}, "fusion_lon": 0.0, "type": "electric_scooter", "bike_id": "587958c2f019118f7af08aff0d6581ad", "name": "587958c2f019118f7af08aff0d6581ad"}, {"lon": -77.03338933333333, "is_disabled": 0, "lat": 38.915609, "fusion_lat": 0.0, "is_reserved": 0, "rental_uris": {"ios": "https://dc.lft.to/lastmile_qr_scan", "android": "https://dc.lft.to/lastmile_qr_scan"}, "fusion_lon": 0.0, "type": "electric_scooter", "bike_id": "ee1251e74708041e8106873b18f654d8", "name": "ee1251e74708041e8106873b18f654d8"}, {"lon": -77.0487095, "is_disabled": 0, "lat": 38.909774166666665, "fusion_lat": 0.0, "is_reserved": 0, "rental_uris": {"ios": "https://dc.lft.to/lastmile_qr_scan", "android": "https://dc.lft.to/lastmile_qr_scan"}, "fusion_lon": 0.0, "type": "electric_scooter", "bike_id": "67caced3153e9fb7606540610b870aef", "name": "67caced3153e9fb7606540610b870aef"}, {"lon": -76.91595433333333, "is_disabled": 0, "lat": 38.87985783333333, "fusion_lat": 0.0, "is_reserved": 0, "rental_uris": {"ios": "https://dc.lft.to/lastmile_qr_scan", "android": "https://dc.lft.to/lastmile_qr_scan"}, "fusion_lon": 0.0, "type": "electric_bike", "bike_id": "bb7189dd6cb86af70916a0b4c9e19ee5", "name": "bb7189dd6cb86af70916a0b4c9e19ee5"}, {"lon": -76.985437, "is_disabled": 0, "lat": 38.9095495, "fusion_lat": 0.0, "is_reserved": 0, "rental_uris": {"ios": "https://dc.lft.to/lastmile_qr_scan", "android": "https://dc.lft.to/lastmile_qr_scan"}, "fusion_lon": 0.0, "type": "electric_scooter", "bike_id": "195850e4312a4647c382dda6cef5d7b2", "name": "195850e4312a4647c382dda6cef5d7b2"}, {"lon": -77.05255816666667, "is_disabled": 0, "lat": 38.92779616666667, "fusion_lat": 0.0, "is_reserved": 0, "rental_uris": {"ios": "https://dc.lft.to/lastmile_qr_scan", "android": "https://dc.lft.to/lastmile_qr_scan"}, "fusion_lon": 0.0, "type": "electric_scooter", "bike_id": "7a7d7df98b8abde266f782bf1d6959a5", "name": "7a7d7df98b8abde266f782bf1d6959a5"}, {"lon": -76.99165366666666, "is_disabled": 0, "lat": 38.901384666666665, "fusion_lat": 0.0, "is_reserved": 0, "rental_uris": {"ios": "https://dc.lft.to/lastmile_qr_scan", "android": "https://dc.lft.to/lastmile_qr_scan"}, "fusion_lon": 0.0, "type": "electric_scooter", "bike_id": "f43f2c201cba9c462690dc8fd08dcbdc", "name": "f43f2c201cba9c462690dc8fd08dcbdc"}, {"lon": -77.01406933333334, "is_disabled": 0, "lat": 38.927753833333334, "fusion_lat": 0.0, "is_reserved": 0, "rental_uris": {"ios": "https://dc.lft.to/lastmile_qr_scan", "android": "https://dc.lft.to/lastmile_qr_scan"}, "fusion_lon": 0.0, "type": "electric_scooter", "bike_id": "7204c297663503db792711fcc51376dd", "name": "7204c297663503db792711fcc51376dd"}, {"lon": -76.94862416666666, "is_disabled": 0, "lat": 38.894792, "fusion_lat": 0.0, "is_reserved": 0, "rental_uris": {"ios": "https://dc.lft.to/lastmile_qr_scan", "android": "https://dc.lft.to/lastmile_qr_scan"}, "fusion_lon": 0.0, "type": "electric_scooter", "bike_id": "b0eec6c4b4c3af543d04785a32b2ef2e", "name": "b0eec6c4b4c3af543d04785a32b2ef2e"}, {"lon": -77.00519383333334, "is_disabled": 0, "lat": 38.877071, "fusion_lat": 0.0, "is_reserved": 0, "rental_uris": {"ios": "https://dc.lft.to/lastmile_qr_scan", "android": "https://dc.lft.to/lastmile_qr_scan"}, "fusion_lon": 0.0, "type": "electric_scooter", "bike_id": "d31bad4e9839eaaae1a764bd8338c96e", "name": "d31bad4e9839eaaae1a764bd8338c96e"}, {"lon": -76.97608033333333, "is_disabled": 0, "lat": 38.940178333333336, "fusion_lat": 0.0, "is_reserved": 0, "rental_uris": {"ios": "https://dc.lft.to/lastmile_qr_scan", "android": "https://dc.lft.to/lastmile_qr_scan"}, "fusion_lon": 0.0, "type": "electric_scooter", "bike_id": "a81577774abf50a311d31a4a3ce4bcb7", "name": "a81577774abf50a311d31a4a3ce4bcb7"}, {"lon": -77.01109433333333, "is_disabled": 0, "lat": 38.894991166666664, "fusion_lat": 0.0, "is_reserved": 0, "rental_uris": {"ios": "https://dc.lft.to/lastmile_qr_scan", "android": "https://dc.lft.to/lastmile_qr_scan"}, "fusion_lon": 0.0, "type": "electric_scooter", "bike_id": "15d2e6af7d3bb6687beb297c84f887da", "name": "15d2e6af7d3bb6687beb297c84f887da"}, {"lon": -77.05004116666667, "is_disabled": 0, "lat": 38.89225416666667, "fusion_lat": 0.0, "is_reserved": 0, "rental_uris": {"ios": "https://dc.lft.to/lastmile_qr_scan", "android": "https://dc.lft.to/lastmile_qr_scan"}, "fusion_lon": 0.0, "type": "electric_scooter", "bike_id": "23a2775106f76b64eaa4fcfaa6003ebd", "name": "23a2775106f76b64eaa4fcfaa6003ebd"}, {"lon": -77.02181266666666, "is_disabled": 0, "lat": 38.90971233333333, "fusion_lat": 0.0, "is_reserved": 0, "rental_uris": {"ios": "https://dc.lft.to/lastmile_qr_scan", "android": "https://dc.lft.to/lastmile_qr_scan"}, "fusion_lon": 0.0, "type": "electric_scooter", "bike_id": "160e813d9d48e9147c7d269ffaa9908b", "name": "160e813d9d48e9147c7d269ffaa9908b"}, {"lon": -77.03216016666667, "is_disabled": 0, "lat": 38.917005333333336, "fusion_lat": 0.0, "is_reserved": 0, "rental_uris": {"ios": "https://dc.lft.to/lastmile_qr_scan", "android": "https://dc.lft.to/lastmile_qr_scan"}, "fusion_lon": 0.0, "type": "electric_scooter", "bike_id": "e962bf9e9ab3d5c28fa2614150a9249a", "name": "e962bf9e9ab3d5c28fa2614150a9249a"}, {"lon": -77.04119233333333, "is_disabled": 0, "lat": 38.91704633333333, "fusion_lat": 0.0, "is_reserved": 0, "rental_uris": {"ios": "https://dc.lft.to/lastmile_qr_scan", "android": "https://dc.lft.to/lastmile_qr_scan"}, "fusion_lon": 0.0, "type": "electric_scooter", "bike_id": "840f34d760b3d8ece5f6187636ea2f94", "name": "840f34d760b3d8ece5f6187636ea2f94"}, {"lon": -77.033544, "is_disabled": 0, "lat": 38.892367666666665, "fusion_lat": 0.0, "is_reserved": 0, "rental_uris": {"ios": "https://dc.lft.to/lastmile_qr_scan", "android": "https://dc.lft.to/lastmile_qr_scan"}, "fusion_lon": 0.0, "type": "electric_scooter", "bike_id": "8eeec051ef209ac47127c9f8f7ef0b7c", "name": "8eeec051ef209ac47127c9f8f7ef0b7c"}, {"lon": -77.0344435, "is_disabled": 0, "lat": 38.9132605, "fusion_lat": 0.0, "is_reserved": 0, "rental_uris": {"ios": "https://dc.lft.to/lastmile_qr_scan", "android": "https://dc.lft.to/lastmile_qr_scan"}, "fusion_lon": 0.0, "type": "electric_scooter", "bike_id": "7a5d457d47761a71f7975ca98b80f0e4", "name": "7a5d457d47761a71f7975ca98b80f0e4"}, {"lon": -77.077248, "is_disabled": 0, "lat": 38.9251685, "fusion_lat": 0.0, "is_reserved": 0, "rental_uris": {"ios": "https://dc.lft.to/lastmile_qr_scan", "android": "https://dc.lft.to/lastmile_qr_scan"}, "fusion_lon": 0.0, "type": "electric_scooter", "bike_id": "46c25a54cbbd782e153a092f257fdd3a", "name": "46c25a54cbbd782e153a092f257fdd3a"}, {"lon": -77.04141116666666, "is_disabled": 0, "lat": 38.9264795, "fusion_lat": 0.0, "is_reserved": 0, "rental_uris": {"ios": "https://dc.lft.to/lastmile_qr_scan", "android": "https://dc.lft.to/lastmile_qr_scan"}, "fusion_lon": 0.0, "type": "electric_scooter", "bike_id": "142c4168d491e9903da83693c075ef2d", "name": "142c4168d491e9903da83693c075ef2d"}, {"lon": -77.00049066666666, "is_disabled": 0, "lat": 38.884677, "fusion_lat": 0.0, "is_reserved": 0, "rental_uris": {"ios": "https://dc.lft.to/lastmile_qr_scan", "android": "https://dc.lft.to/lastmile_qr_scan"}, "fusion_lon": 0.0, "type": "electric_scooter", "bike_id": "d3a736d54daf2cb1ac99f873f43593a7", "name": "d3a736d54daf2cb1ac99f873f43593a7"}, {"lon": -77.02709583333333, "is_disabled": 0, "lat": 38.90002966666667, "fusion_lat": 0.0, "is_reserved": 0, "rental_uris": {"ios": "https://dc.lft.to/lastmile_qr_scan", "android": "https://dc.lft.to/lastmile_qr_scan"}, "fusion_lon": 0.0, "type": "electric_scooter", "bike_id": "5d7c88ad1e7ebf4b5c2d66dcdfe699d3", "name": "5d7c88ad1e7ebf4b5c2d66dcdfe699d3"}, {"lon": -76.99897216666666, "is_disabled": 0, "lat": 38.92318066666667, "fusion_lat": 0.0, "is_reserved": 0, "rental_uris": {"ios": "https://dc.lft.to/lastmile_qr_scan", "android": "https://dc.lft.to/lastmile_qr_scan"}, "fusion_lon": 0.0, "type": "electric_bike", "bike_id": "c11342bcb65f5138df8cea5704bc8b97", "name": "c11342bcb65f5138df8cea5704bc8b97"}, {"lon": -77.01130983333333, "is_disabled": 0, "lat": 38.895210666666664, "fusion_lat": 0.0, "is_reserved": 0, "rental_uris": {"ios": "https://dc.lft.to/lastmile_qr_scan", "android": "https://dc.lft.to/lastmile_qr_scan"}, "fusion_lon": 0.0, "type": "electric_scooter", "bike_id": "26d4c261fe719cda86ddb662cff26259", "name": "26d4c261fe719cda86ddb662cff26259"}, {"lon": -77.050305, "is_disabled": 0, "lat": 38.896512, "fusion_lat": 0.0, "is_reserved": 0, "rental_uris": {"ios": "https://dc.lft.to/lastmile_qr_scan", "android": "https://dc.lft.to/lastmile_qr_scan"}, "fusion_lon": 0.0, "type": "electric_scooter", "bike_id": "d492356fff4990b7b20b18a05e1bcf87", "name": "d492356fff4990b7b20b18a05e1bcf87"}, {"lon": -77.06278016666667, "is_disabled": 0, "lat": 38.905732666666665, "fusion_lat": 0.0, "is_reserved": 0, "rental_uris": {"ios": "https://dc.lft.to/lastmile_qr_scan", "android": "https://dc.lft.to/lastmile_qr_scan"}, "fusion_lon": 0.0, "type": "electric_scooter", "bike_id": "92b3bae33319b2a656eb23f831b1a4cc", "name": "92b3bae33319b2a656eb23f831b1a4cc"}, {"lon": -77.04861316666667, "is_disabled": 0, "lat": 38.91522066666667, "fusion_lat": 0.0, "is_reserved": 0, "rental_uris": {"ios": "https://dc.lft.to/lastmile_qr_scan", "android": "https://dc.lft.to/lastmile_qr_scan"}, "fusion_lon": 0.0, "type": "electric_scooter", "bike_id": "33d5f303688b282d846d96b1be85563a", "name": "33d5f303688b282d846d96b1be85563a"}, {"lon": -77.0467045, "is_disabled": 0, "lat": 38.902908, "fusion_lat": 0.0, "is_reserved": 0, "rental_uris": {"ios": "https://dc.lft.to/lastmile_qr_scan", "android": "https://dc.lft.to/lastmile_qr_scan"}, "fusion_lon": 0.0, "type": "electric_scooter", "bike_id": "036db6ce9f3a406855cc0420187cc276", "name": "036db6ce9f3a406855cc0420187cc276"}, {"lon": -77.0279255, "is_disabled": 0, "lat": 38.912229333333336, "fusion_lat": 0.0, "is_reserved": 0, "rental_uris": {"ios": "https://dc.lft.to/lastmile_qr_scan", "android": "https://dc.lft.to/lastmile_qr_scan"}, "fusion_lon": 0.0, "type": "electric_scooter", "bike_id": "0695d08cfc9089b8420ee712e890cdc3", "name": "0695d08cfc9089b8420ee712e890cdc3"}, {"lon": -77.04372183333334, "is_disabled": 0, "lat": 38.92231983333333, "fusion_lat": 0.0, "is_reserved": 0, "rental_uris": {"ios": "https://dc.lft.to/lastmile_qr_scan", "android": "https://dc.lft.to/lastmile_qr_scan"}, "fusion_lon": 0.0, "type": "electric_scooter", "bike_id": "189edcb9eb9b752b04986a5a5af1e986", "name": "189edcb9eb9b752b04986a5a5af1e986"}, {"lon": -77.02530166666666, "is_disabled": 0, "lat": 38.94617383333333, "fusion_lat": 0.0, "is_reserved": 0, "rental_uris": {"ios": "https://dc.lft.to/lastmile_qr_scan", "android": "https://dc.lft.to/lastmile_qr_scan"}, "fusion_lon": 0.0, "type": "electric_scooter", "bike_id": "8c81d7845ad01624fdf4cd78aa9f389f", "name": "8c81d7845ad01624fdf4cd78aa9f389f"}, {"lon": -77.02957416666666, "is_disabled": 0, "lat": 38.903842, "fusion_lat": 0.0, "is_reserved": 0, "rental_uris": {"ios": "https://dc.lft.to/lastmile_qr_scan", "android": "https://dc.lft.to/lastmile_qr_scan"}, "fusion_lon": 0.0, "type": "electric_scooter", "bike_id": "350a441e850a18186b4910fe48099354", "name": "350a441e850a18186b4910fe48099354"}, {"lon": -77.017795, "is_disabled": 0, "lat": 38.87709, "fusion_lat": 0.0, "is_reserved": 0, "rental_uris": {"ios": "https://dc.lft.to/lastmile_qr_scan", "android": "https://dc.lft.to/lastmile_qr_scan"}, "fusion_lon": 0.0, "type": "electric_scooter", "bike_id": "343de737d3f47967bce847808db1d981", "name": "343de737d3f47967bce847808db1d981"},