{"data": {"bikes": [{"rental_uris": {"android": "https://dc.lft.to/lastmile_qr_scan", "ios": "https://dc.lft.to/lastmile_qr_scan"}, "is_reserved": 0, "is_disabled": 0, "name": "40134edfbaa54ac2326ead537ff480ad", "bike_id": "40134edfbaa54ac2326ead537ff480ad", "fusion_lat": 0.0, "lon": -77.04265233333334, "type": "electric_scooter", "fusion_lon": 0.0, "lat": 38.92230333333333}, {"rental_uris": {"android": "https://dc.lft.to/lastmile_qr_scan", "ios": "https://dc.lft.to/lastmile_qr_scan"}, "is_reserved": 0, "is_disabled": 0, "name": "549d4407044de37a710c02c2a1f535fe", "bike_id": "549d4407044de37a710c02c2a1f535fe", "fusion_lat": 0.0, "lon": -77.02984183333334, "type": "electric_scooter", "fusion_lon": 0.0, "lat": 38.94271166666667}, {"rental_uris": {"android": "https://dc.lft.to/lastmile_qr_scan", "ios": "https://dc.lft.to/lastmile_qr_scan"}, "is_reserved": 0, "is_disabled": 0, "name": "3e834158c08fb22aeb5ab9d03961ef87", "bike_id": "3e834158c08fb22aeb5ab9d03961ef87", "fusion_lat": 0.0, "lon": -77.01983333333334, "type": "electric_scooter", "fusion_lon": 0.0, "lat": 38.887221}, {"rental_uris": {"android": "https://dc.lft.to/lastmile_qr_scan", "ios": "https://dc.lft.to/lastmile_qr_scan"}, "is_reserved": 0, "is_disabled": 0, "name": "e3a813fe03bc7515cbb9b9ef9425d7ea", "bike_id": "e3a813fe03bc7515cbb9b9ef9425d7ea", "fusion_lat": 0.0, "lon": -77.0447235, "type": "electric_scooter", "fusion_lon": 0.0, "lat": 38.924686666666666}, {"rental_uris": {"android": "https://dc.lft.to/lastmile_qr_scan", "ios": "https://dc.lft.to/lastmile_qr_scan"}, "is_reserved": 0, "is_disabled": 0, "name": "b5d3988f973c389cfd86aecb12b4e76a", "bike_id": "b5d3988f973c389cfd86aecb12b4e76a", "fusion_lat": 0.0, "lon": -77.02398016666666, "type": "electric_scooter", "fusion_lon": 0.0, "lat": 38.9165525}, {"rental_uris": {"android": "https://dc.lft.to/lastmile_qr_scan", "ios": "https://dc.lft.to/lastmile_qr_scan"}, "is_reserved": 0, "is_disabled": 0, "name": "406f74ef688c6985d59bdcff4a0b049a", "bike_id": "406f74ef688c6985d59bdcff4a0b049a", "fusion_lat": 0.0, "lon": -77.01596583333334, "type": "electric_scooter", "fusion_lon": 0.0, "lat": 38.874621166666664}, {"rental_uris": {"android": "https://dc.lft.to/lastmile_qr_scan", "ios": "https://dc.lft.to/lastmile_qr_scan"}, "is_reserved": 0, "is_disabled": 0, "name": "477e621e3ba3b0c73cf9491873c5d4c6", "bike_id": "477e621e3ba3b0c73cf9491873c5d4c6", "fusion_lat": 0.0, "lon": -77.015023, "type": "electric_scooter", "fusion_lon": 0.0, "lat": 38.89310916666667}, {"rental_uris": {"android": "https://dc.lft.to/lastmile_qr_scan", "ios": "https://dc.lft.to/lastmile_qr_scan"}, "is_reserved": 0, "is_disabled": 0, "name": "a55b4fe9ef9c2bba14dd383c53276a68", "bike_id": "a55b4fe9ef9c2bba14dd383c53276a68", "fusion_lat": 0.0, "lon": -77.0038575, "type": "electric_scooter", "fusion_lon": 0.0, "lat": 38.907925666666664}, {"rental_uris": {"android": "https://dc.lft.to/lastmile_qr_scan", "ios": "https://dc.lft.to/lastmile_qr_scan"}, "is_reserved": 0, "is_disabled": 0, "name": "9d249fbeb58c2e24e806570417dfb80a", "bike_id": "9d249fbeb58c2e24e806570417dfb80a", "fusion_lat": 0.0, "lon": -77.01203333333333, "type": "electric_bike", "fusion_lon": 0.0, "lat": 38.950736}, {"rental_uris": {"android": "https://dc.lft.to/lastmile_qr_scan", "ios": "https://dc.lft.to/lastmile_qr_scan"}, "is_reserved": 0, "is_disabled": 0, "name": "2efda2817c89237c59d4fefc5a4ad425", "bike_id": "2efda2817c89237c59d4fefc5a4ad425", "fusion_lat": 0.0, "lon": -77.04684416666667, "type": "electric_scooter", "fusion_lon": 0.0, "lat": 38.92164266666666}, {"rental_uris": {"android": "https://dc.lft.to/lastmile_qr_scan", "ios": "https://dc.lft.to/lastmile_qr_scan"}, "is_reserved": 0, "is_disabled": 0, "name": "a061d525392417a020dba4d28a0d7178", "bike_id": "a061d525392417a020dba4d28a0d7178", "fusion_lat": 0.0, "lon": -77.06302933333333, "type": "electric_scooter", "fusion_lon": 0.0, "lat": 38.903929166666664}, {"rental_uris": {"android": "https://dc.lft.to/lastmile_qr_scan", "ios": "https://dc.lft.to/lastmile_qr_scan"}, "is_reserved": 0, "is_disabled": 0, "name": "5d45517e5f5fb1ca20104bce4fb2f37c", "bike_id": "5d45517e5f5fb1ca20104bce4fb2f37c", "fusion_lat": 0.0, "lon": -77.02816183333333, "type": "electric_scooter", "fusion_lon": 0.0, "lat": 38.9170425}, {"rental_uris": {"android": "https://dc.lft.to/lastmile_qr_scan", "ios": "https://dc.lft.to/lastmile_qr_scan"}, "is_reserved": 0, "is_disabled": 0, "name": "6dd6a6c1a42b1bc27ec7bf7be886ca44", "bike_id": "6dd6a6c1a42b1bc27ec7bf7be886ca44", "fusion_lat": 0.0, "lon": -77.045133, "type": "electric_scooter", "fusion_lon": 0.0, "lat": 38.9029525}, {"rental_uris": {"android": "https://dc.lft.to/lastmile_qr_scan", "ios": "https://dc.lft.to/lastmile_qr_scan"}, "is_reserved": 0, "is_disabled": 0, "name": "b74d2ab84c0e77ef1d7e7aa466e02229", "bike_id": "b74d2ab84c0e77ef1d7e7aa466e02229", "fusion_lat": 0.0, "lon": -76.95565466666666, "type": "electric_bike", "fusion_lon": 0.0, "lat": 38.9849805}, {"rental_uris": {"android": "https://dc.lft.to/lastmile_qr_scan", "ios": "https://dc.lft.to/lastmile_qr_scan"}, "is_reserved": 0, "is_disabled": 0, "name": "e8fd95f609af36228b143c4a197d2746", "bike_id": "e8fd95f609af36228b143c4a197d2746", "fusion_lat": 0.0, "lon": -77.04161566666667, "type": "electric_scooter", "fusion_lon": 0.0, "lat": 38.895612166666666}, {"rental_uris": {"android": "https://dc.lft.to/lastmile_qr_scan", "ios": "https://dc.lft.to/lastmile_qr_scan"}, "is_reserved": 0, "is_disabled": 0, "name": "12ee460242d7e6ec81b55a67578aa12a", "bike_id": "12ee460242d7e6ec81b55a67578aa12a", "fusion_lat": 0.0, "lon": -77.02163266666666, "type": "electric_scooter", "fusion_lon": 0.0, "lat": 38.899335666666666}, {"rental_uris": {"android": "https://dc.lft.to/lastmile_qr_scan", "ios": "https://dc.lft.to/lastmile_qr_scan"}, "is_reserved": 0, "is_disabled": 0, "name": "80e32e58a05a6ab6a68f26f0a3d49c0a", "bike_id": "80e32e58a05a6ab6a68f26f0a3d49c0a", "fusion_lat": 0.0, "lon": -77.04159333333334, "type": "electric_scooter", "fusion_lon": 0.0, "lat": 38.90444866666667}, {"rental_uris": {"android": "https://dc.lft.to/lastmile_qr_scan", "ios": "https://dc.lft.to/lastmile_qr_scan"}, "is_reserved": 0, "is_disabled": 0, "name": "e4ce8e44497ba5eb0c0418a821fb0383", "bike_id": "e4ce8e44497ba5eb0c0418a821fb0383", "fusion_lat": 0.0, "lon": -77.0550595, "type": "electric_scooter", "fusion_lon": 0.0, "lat": 38.92972483333333}, {"rental_uris": {"android": "https://dc.lft.to/lastmile_qr_scan", "ios": "https://dc.lft.to/lastmile_qr_scan"}, "is_reserved": 0, "is_disabled": 0, "name": "c74d80c4842626849aeaad81d6ec2a2e", "bike_id": "c74d80c4842626849aeaad81d6ec2a2e", "fusion_lat": 0.0, "lon": -77.02179016666666, "type": "electric_scooter", "fusion_lon": 0.0, "lat": 38.89231266666667}, {"rental_uris": {"android": "https://dc.lft.to/lastmile_qr_scan", "ios": "https://dc.lft.to/lastmile_qr_scan"}, "is_reserved": 0, "is_disabled": 0, "name": "d6753e63ee2a6270888c9ae80cc8dd38", "bike_id": "d6753e63ee2a6270888c9ae80cc8dd38", "fusion_lat": 0.0, "lon": -76.94878433333334, "type": "electric_scooter", "fusion_lon": 0.0, "lat": 38.894991833333336}, {"rental_uris": {"android": "https://dc.lft.to/lastmile_qr_scan", "ios": "https://dc.lft.to/lastmile_qr_scan"}, "is_reserved": 0, "is_disabled": 0, "name": "95bfc32acf3f9c25802d0985da0e925a", "bike_id": "95bfc32acf3f9c25802d0985da0e925a", "fusion_lat": 0.0, "lon": -77.024116, "type": "electric_scooter", "fusion_lon": 0.0, "lat": 38.941822333333334}, {"rental_uris": {"android": "https://dc.lft.to/lastmile_qr_scan", "ios": "https://dc.lft.to/lastmile_qr_scan"}, "is_reserved": 0, "is_disabled": 0, "name": "1d204dc13b78e7e0bdf554cb1b52663d", "bike_id": "1d204dc13b78e7e0bdf554cb1b52663d", "fusion_lat": 0.0, "lon": -77.04610283333334, "type": "electric_scooter", "fusion_lon": 0.0, "lat": 38.898270333333336}, {"rental_uris": {"android": "https://dc.lft.to/lastmile_qr_scan", "ios": "https://dc.lft.to/lastmile_qr_scan"}, "is_reserved": 0, "is_disabled": 0, "name": "2b3ca0d9bfaee1720f04e4a31904bbcb", "bike_id": "2b3ca0d9bfaee1720f04e4a31904bbcb", "fusion_lat": 0.0, "lon": -76.973372, "type": "electric_bike", "fusion_lon": 0.0, "lat": 38.865062333333334}, {"rental_uris": {"android": "https://dc.lft.to/lastmile_qr_scan", "ios": "https://dc.lft.to/lastmile_qr_scan"}, "is_reserved": 0, "is_disabled": 0, "name": "8d4ea957444a6fa0cc694ed180738b10", "bike_id": "8d4ea957444a6fa0cc694ed180738b10", "fusion_lat": 0.0, "lon": -77.05040466666667, "type": "electric_scooter", "fusion_lon": 0.0, "lat": 38.9236455}, {"rental_uris": {"android": "https://dc.lft.to/lastmile_qr_scan", "ios": "https://dc.lft.to/lastmile_qr_scan"}, "is_reserved": 0, "is_disabled": 0, "name": "b5f35d6a3b23151878ccfdfe93f4f318", "bike_id": "b5f35d6a3b23151878ccfdfe93f4f318", "fusion_lat": 0.0, "lon": -77.148787, "type": "electric_bike", "fusion_lon": 0.0, "lat": 38.877403666666666}, {"rental_uris": {"android": "https://dc.lft.to/lastmile_qr_scan", "ios": "https://dc.lft.to/lastmile_qr_scan"}, "is_reserved": 0, "is_disabled": 0, "name": "80a1f4065f1b4e11f2e2b8c488d69b2f", "bike_id": "80a1f4065f1b4e11f2e2b8c488d69b2f", "fusion_lat": 0.0, "lon": -77.02704683333333, "type": "electric_scooter", "fusion_lon": 0.0, "lat": 38.90086766666667}, {"rental_uris": {"android": "https://dc.lft.to/lastmile_qr_scan", "ios": "https://dc.lft.to/lastmile_qr_scan"}, "is_reserved": 0, "is_disabled": 0, "name": "5f5e11bd9ac49ee068d170e7ce8ba301", "bike_id": "5f5e11bd9ac49ee068d170e7ce8ba301", "fusion_lat": 0.0, "lon": -77.0124175, "type": "electric_scooter", "fusion_lon": 0.0, "lat": 38.91552566666667}, {"rental_uris": {"android": "https://dc.lft.to/lastmile_qr_scan", "ios": "https://dc.lft.to/lastmile_qr_scan"}, "is_reserved": 0, "is_disabled": 0, "name": "bf850c0d2365ca024722777fbc902e17", "bike_id": "bf850c0d2365ca024722777fbc902e17", "fusion_lat": 0.0, "lon": -77.03333666666667, "type": "electric_scooter", "fusion_lon": 0.0, "lat": 38.921692666666665}, {"rental_uris": {"android": "https://dc.lft.to/lastmile_qr_scan", "ios": "https://dc.lft.to/lastmile_qr_scan"}, "is_reserved": 0, "is_disabled": 0, "name": "713661ef6bbb7d1a6dbcccd6b2f19a70", "bike_id": "713661ef6bbb7d1a6dbcccd6b2f19a70", "fusion_lat": 0.0, "lon": -77.03548666666667, "type": "electric_scooter", "fusion_lon": 0.0, "lat": 38.9038985}, {"rental_uris": {"android": "https://dc.lft.to/lastmile_qr_scan", "ios": "https://dc.lft.to/lastmile_qr_scan"}, "is_reserved": 0, "is_disabled": 0, "name": "d27544679c221ee318a3a337716ebb69", "bike_id": "d27544679c221ee318a3a337716ebb69", "fusion_lat": 0.0, "lon": -76.983764, "type": "electric_scooter", "fusion_lon": 0.0, "lat": 38.892636}, {"rental_uris": {"android": "https://dc.lft.to/lastmile_qr_scan", "ios": "https://dc.lft.to/lastmile_qr_scan"}, "is_reserved": 0, "is_disabled": 0, "name": "09e168babf587e73c96d4c3b4432ce82", "bike_id": "09e168babf587e73c96d4c3b4432ce82", "fusion_lat": 0.0, "lon": -76.9296305, "type": "electric_scooter", "fusion_lon": 0.0, "lat": 38.88435666666667}, {"rental_uris": {"android": "https://dc.lft.to/lastmile_qr_scan", "ios": "https://dc.lft.to/lastmile_qr_scan"}, "is_reserved": 0, "is_disabled": 0, "name": "2de19494d9073a82ff7819a378b2dddc", "bike_id": "2de19494d9073a82ff7819a378b2dddc", "fusion_lat": 0.0, "lon": -76.98579283333333, "type": "electric_scooter", "fusion_lon": 0.0, "lat": 38.89627133333333}, {"rental_uris": {"android": "https://dc.lft.to/lastmile_qr_scan", "ios": "https://dc.lft.to/lastmile_qr_scan"}, "is_reserved": 0, "is_disabled": 0, "name": "a200ea668a55d642db0585eef7ba563d", "bike_id": "a200ea668a55d642db0585eef7ba563d", "fusion_lat": 0.0, "lon": -77.044686, "type": "electric_scooter", "fusion_lon": 0.0, "lat": 38.90278833333333}, {"rental_uris": {"android": "https://dc.lft.to/lastmile_qr_scan", "ios": "https://dc.lft.to/lastmile_qr_scan"}, "is_reserved": 0, "is_disabled": 0, "name": "69ad7348f57cf1d3012f3a9554727bfb", "bike_id": "69ad7348f57cf1d3012f3a9554727bfb", "fusion_lat": 0.0, "lon": -77.04320566666667, "type": "electric_scooter", "fusion_lon": 0.0, "lat": 38.9261585}, {"rental_uris": {"android": "https://dc.lft.to/lastmile_qr_scan", "ios": "https://dc.lft.to/lastmile_qr_scan"}, "is_reserved": 0, "is_disabled": 0, "name": "03459185836ae5fe9d16813568322c5a", "bike_id": "03459185836ae5fe9d16813568322c5a", "fusion_lat": 0.0, "lon": -77.0372775, "type": "electric_scooter", "fusion_lon": 0.0, "lat": 38.92651566666667}, {"rental_uris": {"android": "https://dc.lft.to/lastmile_qr_scan", "ios": "https://dc.lft.to/lastmile_qr_scan"}, "is_reserved": 0, "is_disabled": 0, "name": "aa3d19ae71128941bf1a80a6a0f2a4bf", "bike_id": "aa3d19ae71128941bf1a80a6a0f2a4bf", "fusion_lat": 0.0, "lon": -77.03153816666666, "type": "electric_scooter", "fusion_lon": 0.0, "lat": 38.887510166666665}, {"rental_uris": {"android": "https://dc.lft.to/lastmile_qr_scan", "ios": "https://dc.lft.to/lastmile_qr_scan"}, "is_reserved": 0, "is_disabled": 0, "name": "7801b6e8df4a60d96fe489abc4107573", "bike_id": "7801b6e8df4a60d96fe489abc4107573", "fusion_lat": 0.0, "lon": -77.0291455, "type": "electric_scooter", "fusion_lon": 0.0, "lat": 38.952933}, {"rental_uris": {"android": "https://dc.lft.to/lastmile_qr_scan", "ios": "https://dc.lft.to/lastmile_qr_scan"}, "is_reserved": 0, "is_disabled": 0, "name": "8e0952e3758850a1f6a27c9279d9d7b4", "bike_id": "8e0952e3758850a1f6a27c9279d9d7b4", "fusion_lat": 0.0, "lon": -77.00051833333333, "type": "electric_scooter", "fusion_lon": 0.0, "lat": 38.874116}, {"rental_uris": {"android": "https://dc.lft.to/lastmile_qr_scan", "ios": "https://dc.lft.to/lastmile_qr_scan"}, "is_reserved": 0, "is_disabled": 0, "name": "9bf197aa648f5405c0aeb25d3c06fa1f", "bike_id": "9bf197aa648f5405c0aeb25d3c06fa1f", "fusion_lat": 0.0, "lon": -76.98800083333333, "type": "electric_scooter", "fusion_lon": 0.0, "lat": 38.90022416666667}, {"rental_uris": {"android": "https://dc.lft.to/lastmile_qr_scan", "ios": "https://dc.lft.to/lastmile_qr_scan"}, "is_reserved": 0, "is_disabled": 0, "name": "abb2ac1ccd50bbc7ed40cd93f39bca93", "bike_id": "abb2ac1ccd50bbc7ed40cd93f39bca93", "fusion_lat": 0.0, "lon": -77.0192455, "type": "electric_scooter", "fusion_lon": 0.0, "lat": 38.921716833333335}, {"rental_uris": {"android": "https://dc.lft.to/lastmile_qr_scan", "ios": "https://dc.lft.to/lastmile_qr_scan"}, "is_reserved": 0, "is_disabled": 0, "name": "bfa6437a37f5c68b401fc961c542712f", "bike_id": "bfa6437a37f5c68b401fc961c542712f", "fusion_lat": 0.0, "lon": -77.01502666666667, "type": "electric_scooter", "fusion_lon": 0.0, "lat": 38.891171666666665}, {"rental_uris": {"android": "https://dc.lft.to/lastmile_qr_scan", "ios": "https://dc.lft.to/lastmile_qr_scan"}, "is_reserved": 0, "is_disabled": 0, "name": "98c7809dfa4d776b33cdd0eda7c3c5d8", "bike_id": "98c7809dfa4d776b33cdd0eda7c3c5d8", "fusion_lat": 0.0, "lon": -77.02587366666667, "type": "electric_scooter", "fusion_lon": 0.0, "lat": 38.903346666666664}, {"rental_uris": {"android": "https://dc.lft.to/lastmile_qr_scan", "ios": "https://dc.lft.to/lastmile_qr_scan"}, "is_reserved": 0, "is_disabled": 0, "name": "ed5c497d49d20376c6f17d91617384d4", "bike_id": "ed5c497d49d20376c6f17d91617384d4", "fusion_lat": 0.0, "lon": -77.02171133333333, "type": "electric_scooter", "fusion_lon": 0.0, "lat": 38.90192}, {"rental_uris": {"android": "https://dc.lft.to/lastmile_qr_scan", "ios": "https://dc.lft.to/lastmile_qr_scan"}, "is_reserved": 0, "is_disabled": 0, "name": "37425d70001589c482fa190aa9b512b0", "bike_id": "37425d70001589c482fa190aa9b512b0", "fusion_lat": 0.0, "lon": -77.026775, "type": "electric_scooter", "fusion_lon": 0.0, "lat": 38.898391}, {"rental_uris": {"android": "https://dc.lft.to/lastmile_qr_scan", "ios": "https://dc.lft.to/lastmile_qr_scan"}, "is_reserved": 0, "is_disabled": 0, "name": "1f68895db300f302bfd4a3d84c1c63c2", "bike_id": "1f68895db300f302bfd4a3d84c1c63c2", "fusion_lat": 0.0, "lon": -77.01807683333334, "type": "electric_scooter", "fusion_lon": 0.0, "lat": 38.90263016666667}, {"rental_uris": {"android": "https://dc.lft.to/lastmile_qr_scan", "ios": "https://dc.lft.to/lastmile_qr_scan"}, "is_reserved": 0, "is_disabled": 0, "name": "048a605e68df3ae28ab02a783daa92f6", "bike_id": "048a605e68df3ae28ab02a783daa92f6", "fusion_lat": 0.0, "lon": -77.055939, "type": "electric_scooter", "fusion_lon": 0.0, "lat": 38.931166833333336}, {"rental_uris": {"android": "https://dc.lft.to/lastmile_qr_scan", "ios": "https://dc.lft.to/lastmile_qr_scan"}, "is_reserved": 0, "is_disabled": 0, "name": "6b093e9f16ee1b7220dc1e3f5b7ebb9a", "bike_id": "6b093e9f16ee1b7220dc1e3f5b7ebb9a", "fusion_lat": 0.0, "lon": -77.02674966666666, "type": "electric_scooter", "fusion_lon": 0.0, "lat": 38.92474433333334}, {"rental_uris": {"android": "https://dc.lft.to/lastmile_qr_scan", "ios": "https://dc.lft.to/lastmile_qr_scan"}, "is_reserved": 0, "is_disabled": 0, "name": "5a20145fdcada3648dbc5563fa91d612", "bike_id": "5a20145fdcada3648dbc5563fa91d612", "fusion_lat": 0.0, "lon": -77.04069266666667, "type": "electric_scooter", "fusion_lon": 0.0, "lat": 38.89931833333333}, {"rental_uris": {"android": "https://dc.lft.to/lastmile_qr_scan", "ios": "https://dc.lft.to/lastmile_qr_scan"}, "is_reserved": 0, "is_disabled": 0, "name": "f1a0efc0c64047da4bc15c55b7858cba", "bike_id": "f1a0efc0c64047da4bc15c55b7858cba", "fusion_lat": 0.0, "lon": -77.02987983333334, "type": "electric_scooter", "fusion_lon": 0.0, "lat": 38.920480833333336}, {"rental_uris": {"android": "https://dc.lft.to/lastmile_qr_scan", "ios": "https://dc.lft.to/lastmile_qr_scan"}, "is_reserved": 0, "is_disabled": 0, "name": "034714d886956c8dd6ab91f1b3b3f96d", "bike_id": "034714d886956c8dd6ab91f1b3b3f96d", "fusion_lat": 0.0, "lon": -77.00758766666667, "type": "electric_scooter", "fusion_lon": 0.0, "lat": 38.89723133333333}, {"rental_uris": {"android": "https://dc.lft.to/lastmile_qr_scan", "ios": "https://dc.lft.to/lastmile_qr_scan"}, "is_reserved": 0, "is_disabled": 0, "name": "a858f993cfc7f1f634e1c49653640a5c", "bike_id": "a858f993cfc7f1f634e1c49653640a5c", "fusion_lat": 0.0, "lon": -77.02168783333333, "type": "electric_scooter", "fusion_lon": 0.0, "lat": 38.887185}, {"rental_uris": {"android": "https://dc.lft.to/lastmile_qr_scan", "ios": "https://dc.lft.to/lastmile_qr_scan"}, "is_reserved": 0, "is_disabled": 0, "name": "7fca445217376bd523f063db32f292e3", "bike_id": "7fca445217376bd523f063db32f292e3", "fusion_lat": 0.0, "lon": -76.90753566666666, "type": "electric_bike", "fusion_lon": 0.0, "lat": 38.89619616666667}, {"rental_uris": {"android": "https://dc.lft.to/lastmile_qr_scan", "ios": "https://dc.lft.to/lastmile_qr_scan"}, "is_reserved": 0, "is_disabled": 0, "name": "1f4632dd8fd12f39eee339ff95620ada", "bike_id": "1f4632dd8fd12f39eee339ff95620ada", "fusion_lat": 0.0, "lon": -77.03196833333334, "type": "electric_scooter", "fusion_lon": 0.0, "lat": 38.91555233333333}, {"rental_uris": {"android": "https://dc.lft.to/lastmile_qr_scan", "ios": "https://dc.lft.to/lastmile_qr_scan"}, "is_reserved": 0, "is_disabled": 0, "name": "b514ad5ec63e51b2620a893f9efd7617", "bike_id": "b514ad5ec63e51b2620a893f9efd7617", "fusion_lat": 0.0, "lon": -76.9723175, "type": "electric_bike", "fusion_lon": 0.0, "lat": 38.90045166666667}, {"rental_uris": {"android": "https://dc.lft.to/lastmile_qr_scan", "ios": "https://dc.lft.to/lastmile_qr_scan"}, "is_reserved": 0, "is_disabled": 0, "name": "64279916cf43af5b7d1a3f76e97ecc1d", "bike_id": "64279916cf43af5b7d1a3f76e97ecc1d", "fusion_lat": 0.0, "lon": -76.92460066666666, "type": "electric_scooter", "fusion_lon": 0.0, "lat": 38.88516}, {"rental_uris": {"android": "https://dc.lft.to/lastmile_qr_scan", "ios": "https://dc.lft.to/lastmile_qr_scan"}, "is_reserved": 0, "is_disabled": 0, "name": "21427db7d3fd89f159b03ce9f8e4254b", "bike_id": "21427db7d3fd89f159b03ce9f8e4254b", "fusion_lat": 0.0, "lon": -77.00895633333333, "type": "electric_scooter", "fusion_lon": 0.0, "lat": 38.909753333333335}, {"rental_uris": {"android": "https://dc.lft.to/lastmile_qr_scan", "ios": "https://dc.lft.to/lastmile_qr_scan"}, "is_reserved": 0, "is_disabled": 0, "name": "cb7ed7157fe93298b20b9cf0cefd5ccf", "bike_id": "cb7ed7157fe93298b20b9cf0cefd5ccf", "fusion_lat": 0.0, "lon": -77.08491216666667, "type": "electric_bike", "fusion_lon": 0.0, "lat": 38.863094833333335}, {"rental_uris": {"android": "https://dc.lft.to/lastmile_qr_scan", "ios": "https://dc.lft.to/lastmile_qr_scan"}, "is_reserved": 0, "is_disabled": 0, "name": "bfd1e8afaf6d63678d8b1e7ee61964e8", "bike_id": "bfd1e8afaf6d63678d8b1e7ee61964e8", "fusion_lat": 0.0, "lon": -77.0468265, "type": "electric_scooter", "fusion_lon": 0.0, "lat": 38.89500733333333}, {"rental_uris": {"android": "https://dc.lft.to/lastmile_qr_scan", "ios": "https://dc.lft.to/lastmile_qr_scan"}, "is_reserved": 0, "is_disabled": 0, "name": "732e58d89a2a1a2cdfecfa053db35c71", "bike_id": "732e58d89a2a1a2cdfecfa053db35c71", "fusion_lat": 0.0, "lon": -77.04414333333334, "type": "electric_scooter", "fusion_lon": 0.0, "lat": 38.8959235}, {"rental_uris": {"android": "https://dc.lft.to/lastmile_qr_scan", "ios": "https://dc.lft.to/lastmile_qr_scan"}, "is_reserved": 0, "is_disabled": 0, "name": "49fbca8c3abebd4a3b999f913dddba2a", "bike_id": "49fbca8c3abebd4a3b999f913dddba2a", "fusion_lat": 0.0, "lon": -76.960938, "type": "electric_scooter", "fusion_lon": 0.0, "lat": 38.91857366666667}, {"rental_uris": {"android": "https://dc.lft.to/lastmile_qr_scan", "ios": "https://dc.lft.to/lastmile_qr_scan"}, "is_reserved": 0, "is_disabled": 0, "name": "5b73e78671c96652e11d753165ef3b8a", "bike_id": "5b73e78671c96652e11d753165ef3b8a", "fusion_lat": 0.0, "lon": -77.09456183333333, "type": "electric_bike", "fusion_lon": 0.0, "lat": 38.80753583333333}, {"rental_uris": {"android": "https://dc.lft.to/lastmile_qr_scan", "ios": "https://dc.lft.to/lastmile_qr_scan"}, "is_reserved": 0, "is_disabled": 0, "name": "1b993deeef24286a5458c49a272b1656", "bike_id": "1b993deeef24286a5458c49a272b1656", "fusion_lat": 0.0, "lon": -77.06520616666667, "type": "electric_scooter", "fusion_lon": 0.0, "lat": 38.905253}, {"rental_uris": {"android": "https://dc.lft.to/lastmile_qr_scan", "ios": "https://dc.lft.to/lastmile_qr_scan"}, "is_reserved": 0, "is_disabled": 0, "name": "73cd24703d0bd3b39d945624c46235f5", "bike_id": "73cd24703d0bd3b39d945624c46235f5", "fusion_lat": 0.0, "lon": -77.039618, "type": "electric_scooter", "fusion_lon": 0.0, "lat": 38.898429}, {"rental_uris": {"android": "https://dc.lft.to/lastmile_qr_scan", "ios": "https://dc.lft.to/lastmile_qr_scan"}, "is_reserved": 0, "is_disabled": 0, "name": "40d0c172fd848c93a7a86ba58410696c", "bike_id": "40d0c172fd848c93a7a86ba58410696c", "fusion_lat": 0.0, "lon": -77.02284, "type": "electric_scooter", "fusion_lon": 0.0, "lat": 38.89976766666667}, {"rental_uris": {"android": "https://dc.lft.to/lastmile_qr_scan", "ios": "https://dc.lft.to/lastmile_qr_scan"}, "is_reserved": 0, "is_disabled": 0, "name": "f4f48bea6a301faf76908a026379be33", "bike_id": "f4f48bea6a301faf76908a026379be33", "fusion_lat": 0.0, "lon": -77.03176666666667, "type": "electric_scooter", "fusion_lon": 0.0, "lat": 38.89988833333334}, {"rental_uris": {"android": "https://dc.lft.to/lastmile_qr_scan", "ios": "https://dc.lft.to/lastmile_qr_scan"}, "is_reserved": 0, "is_disabled": 0, "name": "f7af6e97b5d6860b5b884647985f7b6f", "bike_id": "f7af6e97b5d6860b5b884647985f7b6f", "fusion_lat": 0.0, "lon": -77.01851233333333, "type": "electric_scooter", "fusion_lon": 0.0, "lat": 38.9097495}, {"rental_uris": {"android": "https://dc.lft.to/lastmile_qr_scan", "ios": "https://dc.lft.to/lastmile_qr_scan"}, "is_reserved": 0, "is_disabled": 0, "name": "07dbec7ad251b9484fc764c290a2b4c6", "bike_id": "07dbec7ad251b9484fc764c290a2b4c6", "fusion_lat": 0.0, "lon": -77.04309983333333, "type": "electric_scooter", "fusion_lon": 0.0, "lat": 38.91877733333333}, {"rental_uris": {"android": "https://dc.lft.to/lastmile_qr_scan", "ios": "https://dc.lft.to/lastmile_qr_scan"}, "is_reserved": 0, "is_disabled": 0, "name": "7e96be3e35c70665c8897b5da8e3c7c2", "bike_id": "7e96be3e35c70665c8897b5da8e3c7c2", "fusion_lat": 0.0, "lon": -77.04814483333334, "type": "electric_scooter", "fusion_lon": 0.0, "lat": 38.900453}, {"rental_uris": {"android": "https://dc.lft.to/lastmile_qr_scan", "ios": "https://dc.lft.to/lastmile_qr_scan"}, "is_reserved": 0, "is_disabled": 0, "name": "481a4cfef3c13c072c820719d09903cf", "bike_id": "481a4cfef3c13c072c820719d09903cf", "fusion_lat": 0.0, "lon": -77.02308033333334, "type": "electric_scooter", "fusion_lon": 0.0, "lat": 38.87893616666667}, {"rental_uris": {"android": "https://dc.lft.to/lastmile_qr_scan", "ios": "https://dc.lft.to/lastmile_qr_scan"}, "is_reserved": 0, "is_disabled": 0, "name": "ac2792ff3a0e880a3d7b698e0e0c8079", "bike_id": "ac2792ff3a0e880a3d7b698e0e0c8079", "fusion_lat": 0.0, "lon": -77.04358816666667, "type": "electric_scooter", "fusion_lon": 0.0, "lat": 38.901467833333335}, {"rental_uris": {"android": "https://dc.lft.to/lastmile_qr_scan", "ios": "https://dc.lft.to/lastmile_qr_scan"}, "is_reserved": 0, "is_disabled": 0, "name": "d3da59fa87a65137fcc2c727b30eea30", "bike_id": "d3da59fa87a65137fcc2c727b30eea30", "fusion_lat": 0.0, "lon": -77.00336083333333, "type": "electric_scooter", "fusion_lon": 0.0, "lat": 38.89357616666667}, {"rental_uris": {"android": "https://dc.lft.to/lastmile_qr_scan", "ios": "https://dc.lft.to/lastmile_qr_scan"}, "is_reserved": 0, "is_disabled": 0, "name": "9b504c401cd234fe956d16b1ebfb9cf2", "bike_id": "9b504c401cd234fe956d16b1ebfb9cf2", "fusion_lat": 0.0, "lon": -77.03201533333333, "type": "electric_scooter", "fusion_lon": 0.0, "lat": 38.902219}, {"rental_uris": {"android": "https://dc.lft.to/lastmile_qr_scan", "ios": "https://dc.lft.to/lastmile_qr_scan"}, "is_reserved": 0, "is_disabled": 0, "name": "f35246a51f7ac1b643d51a0154d68260", "bike_id": "f35246a51f7ac1b643d51a0154d68260", "fusion_lat": 0.0, "lon": -77.04608183333333, "type": "electric_scooter", "fusion_lon": 0.0, "lat": 38.91691733333333}, {"rental_uris": {"android": "https://dc.lft.to/lastmile_qr_scan", "ios": "https://dc.lft.to/lastmile_qr_scan"}, "is_reserved": 0, "is_disabled": 0, "name": "fe124e018a0318cdafbb2b0be5f2f684", "bike_id": "fe124e018a0318cdafbb2b0be5f2f684", "fusion_lat": 0.0, "lon": -77.02344866666667, "type": "electric_scooter", "fusion_lon": 0.0, "lat": 38.95737166666667}, {"rental_uris": {"android": "https://dc.lft.to/lastmile_qr_scan", "ios": "https://dc.lft.to/lastmile_qr_scan"}, "is_reserved": 0, "is_disabled": 0, "name": "e7f4c9957066ab1f14e62f77d4d156cd", "bike_id": "e7f4c9957066ab1f14e62f77d4d156cd", "fusion_lat": 0.0, "lon": -77.03898533333333, "type": "electric_scooter", "fusion_lon": 0.0, "lat": 38.90660733333333}, {"rental_uris": {"android": "https://dc.lft.to/lastmile_qr_scan", "ios": "https://dc.lft.to/lastmile_qr_scan"}, "is_reserved": 0, "is_disabled": 0, "name": "f4b1305904a5356cb0b1940ccdceb609", "bike_id": "f4b1305904a5356cb0b1940ccdceb609", "fusion_lat": 0.0, "lon": -77.03859333333334, "type": "electric_scooter", "fusion_lon": 0.0, "lat": 38.91687566666667}, {"rental_uris": {"android": "https://dc.lft.to/lastmile_qr_scan", "ios": "https://dc.lft.to/lastmile_qr_scan"}, "is_reserved": 0, "is_disabled": 0, "name": "3aa675d3617e9123450d9a521970c37d", "bike_id": "3aa675d3617e9123450d9a521970c37d", "fusion_lat": 0.0, "lon": -77.0399155, "type": "electric_scooter", "fusion_lon": 0.0, "lat": 38.93398833333333}, {"rental_uris": {"android": "https://dc.lft.to/lastmile_qr_scan", "ios": "https://dc.lft.to/lastmile_qr_scan"}, "is_reserved": 0, "is_disabled": 0, "name": "1b26f64f03369d31fcc93b7b664b3d1a", "bike_id": "1b26f64f03369d31fcc93b7b664b3d1a", "fusion_lat": 0.0, "lon": -77.02370433333333, "type": "electric_scooter", "fusion_lon": 0.0, "lat": 38.8792565}, {"rental_uris": {"android": "https://dc.lft.to/lastmile_qr_scan", "ios": "https://dc.lft.to/lastmile_qr_scan"}, "is_reserved": 0, "is_disabled": 0, "name": "db44f6a27a50fc512b51dbfff9a1f7a7", "bike_id": "db44f6a27a50fc512b51dbfff9a1f7a7", "fusion_lat": 0.0, "lon": -77.04508583333333, "type": "electric_scooter", "fusion_lon": 0.0, "lat": 38.89224033333333}, {"rental_uris": {"android": "https://dc.lft.to/lastmile_qr_scan", "ios": "https://dc.lft.to/lastmile_qr_scan"}, "is_reserved": 0, "is_disabled": 0, "name": "f26e6c4038efad36a2c8f291e240f5c6", "bike_id": "f26e6c4038efad36a2c8f291e240f5c6", "fusion_lat": 0.0, "lon": -77.01329, "type": "electric_scooter", "fusion_lon": 0.0, "lat": 38.905991666666665}, {"rental_uris": {"android": "https://dc.lft.to/lastmile_qr_scan", "ios": "https://dc.lft.to/lastmile_qr_scan"}, "is_reserved": 0, "is_disabled": 0, "name": "994bc2291f62db1c4fc8150c0d24336d", "bike_id": "994bc2291f62db1c4fc8150c0d24336d", "fusion_lat": 0.0, "lon": -77.0378715, "type": "electric_scooter", "fusion_lon": 0.0, "lat": 38.933242166666666}, {"rental_uris": {"android": "https://dc.lft.to/lastmile_qr_scan", "ios": "https://dc.lft.to/lastmile_qr_scan"}, "is_reserved": 0, "is_disabled": 0, "name": "560d0efc82c0f368dc86fab47cbfa5e7", "bike_id": "560d0efc82c0f368dc86fab47cbfa5e7", "fusion_lat": 0.0, "lon": -76.9707855, "type": "electric_bike", "fusion_lon": 0.0, "lat": 38.920613833333334}, {"rental_uris": {"android": "https://dc.lft.to/lastmile_qr_scan", "ios": "https://dc.lft.to/lastmile_qr_scan"}, "is_reserved": 0, "is_disabled": 0, "name": "4c38539295286f03e62d9e0bc615ac26", "bike_id": "4c38539295286f03e62d9e0bc615ac26", "fusion_lat": 0.0, "lon": -77.06707116666666, "type": "electric_scooter", "fusion_lon": 0.0, "lat": 38.94992033333333}, {"rental_uris": {"android": "https://dc.lft.to/lastmile_qr_scan", "ios": "https://dc.lft.to/lastmile_qr_scan"}, "is_reserved": 0, "is_disabled": 0, "name": "edc69eaee75adf10c56a581a8b3ad082", "bike_id": "edc69eaee75adf10c56a581a8b3ad082", "fusion_lat": 0.0, "lon": -76.983402, "type": "electric_scooter", "fusion_lon": 0.0, "lat": 38.895406333333334}, {"rental_uris": {"android": "https://dc.lft.to/lastmile_qr_scan", "ios": "https://dc.lft.to/lastmile_qr_scan"}, "is_reserved": 0, "is_disabled": 0, "name": "bf000ecbead47fd36ce05f419040467a", "bike_id": "bf000ecbead47fd36ce05f419040467a", "fusion_lat": 0.0, "lon": -77.01382933333333, "type": "electric_scooter", "fusion_lon": 0.0, "lat": 38.89911716666667}, {"rental_uris": {"android": "https://dc.lft.to/lastmile_qr_scan", "ios": "https://dc.lft.to/lastmile_qr_scan"}, "is_reserved": 0, "is_disabled": 0, "name": "b800dce265d4f957443aa125f20ed867", "bike_id": "b800dce265d4f957443aa125f20ed867", "fusion_lat": 0.0, "lon": -77.01952816666666, "type": "electric_scooter", "fusion_lon": 0.0, "lat": 38.92256033333334}, {"rental_uris": {"android": "https://dc.lft.to/lastmile_qr_scan", "ios": "https://dc.lft.to/lastmile_qr_scan"}, "is_reserved": 0, "is_disabled": 0, "name": "18309fd53f39458bd5abdbcec077c9ea", "bike_id": "18309fd53f39458bd5abdbcec077c9ea", "fusion_lat": 0.0, "lon": -77.05112016666666, "type": "electric_scooter", "fusion_lon": 0.0, "lat": 38.905297833333336}, {"rental_uris": {"android": "https://dc.lft.to/lastmile_qr_scan", "ios": "https://dc.lft.to/lastmile_qr_scan"}, "is_reserved": 0, "is_disabled": 0, "name": "c2c045dd2a96bf37610db6c122933256", "bike_id": "c2c045dd2a96bf37610db6c122933256", "fusion_lat": 0.0, "lon": -77.02412816666667, "type": "electric_scooter", "fusion_lon": 0.0, "lat": 38.89508466666667}, {"rental_uris": {"android": "https://dc.lft.to/lastmile_qr_scan", "ios": "https://dc.lft.to/lastmile_qr_scan"}, "is_reserved": 0, "is_disabled": 0, "name": "e4a26d82a75f8d8621ad24e5f638f3eb", "bike_id": "e4a26d82a75f8d8621ad24e5f638f3eb", "fusion_lat": 0.0, "lon": -77.00012416666667, "type": "electric_scooter", "fusion_lon": 0.0, "lat": 38.87381383333334}, {"rental_uris": {"android": "https://dc.lft.to/lastmile_qr_scan", "ios": "https://dc.lft.to/lastmile_qr_scan"}, "is_reserved": 0, "is_disabled": 0, "name": "0800a14f57cef554d2d0f1a101613cdd", "bike_id": "0800a14f57cef554d2d0f1a101613cdd", "fusion_lat": 0.0, "lon": -77.11406633333333, "type": "electric_bike", "fusion_lon": 0.0, "lat": 38.87318033333333}, {"rental_uris": {"android": "https://dc.lft.to/lastmile_qr_scan", "ios": "https://dc.lft.to/lastmile_qr_scan"}, "is_reserved": 0, "is_disabled": 0, "name": "897b12ef5061375844756cc0a8231c4c", "bike_id": "897b12ef5061375844756cc0a8231c4c", "fusion_lat": 0.0, "lon": -77.0089955, "type": "electric_bike", "fusion_lon": 0.0, "lat": 38.921471}, {"rental_uris": {"android": "https://dc.lft.to/lastmile_qr_scan", "ios": "https://dc.lft.to/lastmile_qr_scan"}, "is_reserved": 0, "is_disabled": 0, "name": "427b1ea19e94e45ac91e2abf35a92242", "bike_id": "427b1ea19e94e45ac91e2abf35a92242", "fusion_lat": 0.0, "lon": -77.04134533333334, "type": "electric_scooter", "fusion_lon": 0.0, "lat": 38.9236525}, {"rental_uris": {"android": "https://dc.lft.to/lastmile_qr_scan", "ios": "https://dc.lft.to/lastmile_qr_scan"}, "is_reserved": 0, "is_disabled": 0, "name": "249067a93b51fe905a3435d5ebfc1418", "bike_id": "249067a93b51fe905a3435d5ebfc1418", "fusion_lat": 0.0, "lon": -77.046897, "type": "electric_scooter", "fusion_lon": 0.0, "lat": 38.90259616666667}, {"rental_uris": {"android": "https://dc.lft.to/lastmile_qr_scan", "ios": "https://dc.lft.to/lastmile_qr_scan"}, "is_reserved": 0, "is_disabled": 0, "name": "e15c5c63be91b0fd2821a836c90edb78", "bike_id": "e15c5c63be91b0fd2821a836c90edb78", "fusion_lat": 0.0, "lon": -77.04338016666667, "type": "electric_scooter", "fusion_lon": 0.0, "lat": 38.92317216666667}, {"rental_uris": {"android": "https://dc.lft.to/lastmile_qr_scan", "ios": "https://dc.lft.to/lastmile_qr_scan"}, "is_reserved": 0, "is_disabled": 0, "name": "a7affaa4d97a37eeef2ce71819b75c6d", "bike_id": "a7affaa4d97a37eeef2ce71819b75c6d", "fusion_lat": 0.0, "lon": -77.04165566666667, "type": "electric_scooter", "fusion_lon": 0.0, "lat": 38.897367333333335}, {"rental_uris": {"android": "https://dc.lft.to/lastmile_qr_scan", "ios": "https://dc.lft.to/lastmile_qr_scan"}, "is_reserved": 0, "is_disabled": 0, "name": "5278086748b3a1943e0c6d59ce8c7a04", "bike_id": "5278086748b3a1943e0c6d59ce8c7a04", "fusion_lat": 0.0, "lon": -76.99734066666667, "type": "electric_scooter", "fusion_lon": 0.0, "lat": 38.900398}, {"rental_uris": {"android": "https://dc.lft.to/lastmile_qr_scan", "ios": "https://dc.lft.to/lastmile_qr_scan"}, "is_reserved": 0, "is_disabled": 0, "name": "6bdb0b625998c98a4cab5e63087c1ace", "bike_id": "6bdb0b625998c98a4cab5e63087c1ace", "fusion_lat": 0.0, "lon": -77.032186, "type": "electric_scooter", "fusion_lon": 0.0, "lat": 38.916021666666666}, {"rental_uris": {"android": "https://dc.lft.to/lastmile_qr_scan", "ios": "https://dc.lft.to/lastmile_qr_scan"}, "is_reserved": 0, "is_disabled": 0, "name": "531a7d8c19dd472319888d04e5745601", "bike_id": "531a7d8c19dd472319888d04e5745601", "fusion_lat": 0.0, "lon": -77.01689683333333, "type": "electric_scooter", "fusion_lon": 0.0, "lat": 38.906492166666666}, {"rental_uris": {"android": "https://dc.lft.to/lastmile_qr_scan", "ios": "https://dc.lft.to/lastmile_qr_scan"}, "is_reserved": 0, "is_disabled": 0, "name": "3438bc24979056b7f75ef4f66c8ad35b", "bike_id": "3438bc24979056b7f75ef4f66c8ad35b", "fusion_lat": 0.0, "lon": -77.02829366666667, "type": "electric_scooter", "fusion_lon": 0.0, "lat": 38.90240416666666}, {"rental_uris": {"android": "https://dc.lft.to/lastmile_qr_scan", "ios": "https://dc.lft.to/lastmile_qr_scan"}, "is_reserved": 0, "is_disabled": 0, "name": "d0a7b7566750852c3955925f0cfcca0a", "bike_id": "d0a7b7566750852c3955925f0cfcca0a", "fusion_lat": 0.0, "lon": -77.0282655, "type": "electric_scooter", "fusion_lon": 0.0, "lat": 38.8873485}, {"rental_uris": {"android": "https://dc.lft.to/lastmile_qr_scan", "ios": "https://dc.lft.to/lastmile_qr_scan"}, "is_reserved": 0, "is_disabled": 0, "name": "dda76af82bb3436e74b5398f37c5b759", "bike_id": "dda76af82bb3436e74b5398f37c5b759", "fusion_lat": 0.0, "lon": -77.03078316666667, "type": "electric_scooter", "fusion_lon": 0.0, "lat": 38.8980695}, {"rental_uris": {"android": "https://dc.lft.to/lastmile_qr_scan", "ios": "https://dc.lft.to/lastmile_qr_scan"}, "is_reserved": 0, "is_disabled": 0, "name": "5eddcb8572f7b7d9f75156570130f5ce", "bike_id": "5eddcb8572f7b7d9f75156570130f5ce", "fusion_lat": 0.0, "lon": -77.02807883333334, "type": "electric_scooter", "fusion_lon": 0.0, "lat": 38.89277883333333}, {"rental_uris": {"android": "https://dc.lft.to/lastmile_qr_scan", "ios": "https://dc.lft.to/lastmile_qr_scan"}, "is_reserved": 0, "is_disabled": 0, "name": "dc7286fb81f010f2b134a97a28356446", "bike_id": "dc7286fb81f010f2b134a97a28356446", "fusion_lat": 0.0, "lon": -77.04498216666667, "type": "electric_scooter", "fusion_lon": 0.0, "lat": 38.89231016666667}, {"rental_uris": {"android": "https://dc.lft.to/lastmile_qr_scan", "ios": "https://dc.lft.to/lastmile_qr_scan"}, "is_reserved": 0, "is_disabled": 0, "name": "d0e2c110fc248446f61780de88eb400d", "bike_id": "d0e2c110fc248446f61780de88eb400d", "fusion_lat": 0.0, "lon": -76.925023, "type": "electric_scooter", "fusion_lon": 0.0, "lat": 38.886037}, {"rental_uris": {"android": "https://dc.lft.to/lastmile_qr_scan", "ios": "https://dc.lft.to/lastmile_qr_scan"}, "is_reserved": 0, "is_disabled": 0, "name": "7f29e7e78fabec7902aaeb8a3f24e19d", "bike_id": "7f29e7e78fabec7902aaeb8a3f24e19d", "fusion_lat": 0.0, "lon": -77.05072566666666, "type": "electric_scooter", "fusion_lon": 0.0, "lat": 38.91134183333333}, {"rental_uris": {"android": "https://dc.lft.to/lastmile_qr_scan", "ios": "https://dc.lft.to/lastmile_qr_scan"}, "is_reserved": 0, "is_disabled": 0, "name": "24fb02fde387903c278e06e9c4cc1c1a", "bike_id": "24fb02fde387903c278e06e9c4cc1c1a", "fusion_lat": 0.0, "lon": -77.0359005, "type": "electric_scooter", "fusion_lon": 0.0, "lat": 38.909656166666664}, {"rental_uris": {"android": "https://dc.lft.to/lastmile_qr_scan", "ios": "https://dc.lft.to/lastmile_qr_scan"}, "is_reserved": 0, "is_disabled": 0, "name": "f1a14f4f2a9c90db55014fe0fb258d50", "bike_id": "f1a14f4f2a9c90db55014fe0fb258d50", "fusion_lat": 0.0, "lon": -77.064446, "type": "electric_scooter", "fusion_lon": 0.0, "lat": 38.94879016666667}, {"rental_uris": {"android": "https://dc.lft.to/lastmile_qr_scan", "ios": "https://dc.lft.to/lastmile_qr_scan"}, "is_reserved": 0, "is_disabled": 0, "name": "af98093ff727f39b1caa1101fa7ba6e3", "bike_id": "af98093ff727f39b1caa1101fa7ba6e3", "fusion_lat": 0.0, "lon": -77.00759883333333, "type": "electric_bike", "fusion_lon": 0.0, "lat": 38.997836166666666}, {"rental_uris": {"android": "https://dc.lft.to/lastmile_qr_scan", "ios": "https://dc.lft.to/lastmile_qr_scan"}, "is_reserved": 0, "is_disabled": 0, "name": "c43f0639666ef093647f63c137beaece", "bike_id": "c43f0639666ef093647f63c137beaece", "fusion_lat": 0.0, "lon": -77.04014416666666, "type": "electric_scooter", "fusion_lon": 0.0, "lat": 38.898603333333334}, {"rental_uris": {"android": "https://dc.lft.to/lastmile_qr_scan", "ios": "https://dc.lft.to/lastmile_qr_scan"}, "is_reserved": 0, "is_disabled": 0, "name": "99f9e913806218784ee02a8b521af49c", "bike_id": "99f9e913806218784ee02a8b521af49c", "fusion_lat": 0.0, "lon": -77.00911416666666, "type": "electric_scooter", "fusion_lon": 0.0, "lat": 38.9003665}, {"rental_uris": {"android": "https://dc.lft.to/lastmile_qr_scan", "ios": "https://dc.lft.to/lastmile_qr_scan"}, "is_reserved": 0, "is_disabled": 0, "name": "eb272bf8c1543e2226b63898295d7caf", "bike_id": "eb272bf8c1543e2226b63898295d7caf", "fusion_lat": 0.0, "lon": -77.02897, "type": "electric_scooter", "fusion_lon": 0.0, "lat": 38.914031}, {"rental_uris": {"android": "https://dc.lft.to/lastmile_qr_scan", "ios": "https://dc.lft.to/lastmile_qr_scan"}, "is_reserved": 0, "is_disabled": 0, "name": "81f931a67c62459ed852654b2e374207", "bike_id": "81f931a67c62459ed852654b2e374207", "fusion_lat": 0.0, "lon": -77.02667233333334, "type": "electric_scooter", "fusion_lon": 0.0, "lat": 38.89626966666667}, {"rental_uris": {"android": "https://dc.lft.to/lastmile_qr_scan", "ios": "https://dc.lft.to/lastmile_qr_scan"}, "is_reserved": 0, "is_disabled": 0, "name": "1bc34716fbadce3f067fd50b564eda57", "bike_id": "1bc34716fbadce3f067fd50b564eda57", "fusion_lat": 0.0, "lon": -77.01664816666667, "type": "electric_scooter", "fusion_lon": 0.0, "lat": 38.87692633333333}, {"rental_uris": {"android": "https://dc.lft.to/lastmile_qr_scan", "ios": "https://dc.lft.to/lastmile_qr_scan"}, "is_reserved": 0, "is_disabled": 0, "name": "b61c4b7d42f67497cac34ad1bea0626c", "bike_id": "b61c4b7d42f67497cac34ad1bea0626c", "fusion_lat": 0.0, "lon": -76.952463, "type": "electric_bike", "fusion_lon": 0.0, "lat": 38.8846375}, {"rental_uris": {"android": "https://dc.lft.to/lastmile_qr_scan", "ios": "https://dc.lft.to/lastmile_qr_scan"}, "is_reserved": 0, "is_disabled": 0, "name": "fdc8ecdd273d54646b90e21835280c27", "bike_id": "fdc8ecdd273d54646b90e21835280c27", "fusion_lat": 0.0, "lon": -77.03276833333334, "type": "electric_bike", "fusion_lon": 0.0, "lat": 38.96125983333334}, {"rental_uris": {"android": "https://dc.lft.to/lastmile_qr_scan", "ios": "https://dc.lft.to/lastmile_qr_scan"}, "is_reserved": 0, "is_disabled": 0, "name": "50223487cdf54617261f030424dc114f", "bike_id": "50223487cdf54617261f030424dc114f", "fusion_lat": 0.0, "lon": -77.02868466666666, "type": "electric_bike", "fusion_lon": 0.0, "lat": 38.921435}, {"rental_uris": {"android": "https://dc.lft.to/lastmile_qr_scan", "ios": "https://dc.lft.to/lastmile_qr_scan"}, "is_reserved": 0, "is_disabled": 0, "name": "5ea019aa110fd83af0dbfd62e8f91752", "bike_id": "5ea019aa110fd83af0dbfd62e8f91752", "fusion_lat": 0.0, "lon": -77.04650666666667, "type": "electric_scooter", "fusion_lon": 0.0, "lat": 38.9005425}, {"rental_uris": {"android": "https://dc.lft.to/lastmile_qr_scan", "ios": "https://dc.lft.to/lastmile_qr_scan"}, "is_reserved": 0, "is_disabled": 0, "name": "4e875c4a9bc0fd1d646f3aa2747cee29", "bike_id": "4e875c4a9bc0fd1d646f3aa2747cee29", "fusion_lat": 0.0, "lon": -77.020873, "type": "electric_scooter", "fusion_lon": 0.0, "lat": 38.92706666666667}, {"rental_uris": {"android": "https://dc.lft.to/lastmile_qr_scan", "ios": "https://dc.lft.to/lastmile_qr_scan"}, "is_reserved": 0, "is_disabled": 0, "name": "03fff70155b0820d59b8f2ac0a44df3e", "bike_id": "03fff70155b0820d59b8f2ac0a44df3e", "fusion_lat": 0.0, "lon": -77.02103133333334, "type": "electric_scooter", "fusion_lon": 0.0, "lat": 38.92180283333333}, {"rental_uris": {"android": "https://dc.lft.to/lastmile_qr_scan", "ios": "https://dc.lft.to/lastmile_qr_scan"}, "is_reserved": 0, "is_disabled": 0, "name": "d95b88e3c6c15121df65d421e404f162", "bike_id": "d95b88e3c6c15121df65d421e404f162", "fusion_lat": 0.0, "lon": -77.03220116666667, "type": "electric_scooter", "fusion_lon": 0.0, "lat": 38.91604183333333}, {"rental_uris": {"android": "https://dc.lft.to/lastmile_qr_scan", "ios": "https://dc.lft.to/lastmile_qr_scan"}, "is_reserved": 0, "is_disabled": 0, "name": "3d3b506ad935cc6c619d54d6a96946c4", "bike_id": "3d3b506ad935cc6c619d54d6a96946c4", "fusion_lat": 0.0, "lon": -77.0253265, "type": "electric_scooter", "fusion_lon": 0.0, "lat": 38.9230765}, {"rental_uris": {"android": "https://dc.lft.to/lastmile_qr_scan", "ios": "https://dc.lft.to/lastmile_qr_scan"}, "is_reserved": 0, "is_disabled": 0, "name": "83e39804c0477781de52e932fd9ded54", "bike_id": "83e39804c0477781de52e932fd9ded54", "fusion_lat": 0.0, "lon": -77.03179983333334, "type": "electric_scooter", "fusion_lon": 0.0, "lat": 38.8873775}, {"rental_uris": {"android": "https://dc.lft.to/lastmile_qr_scan", "ios": "https://dc.lft.to/lastmile_qr_scan"}, "is_reserved": 0, "is_disabled": 0, "name": "36eb9d353de717930c3a3ecb98647058", "bike_id": "36eb9d353de717930c3a3ecb98647058", "fusion_lat": 0.0, "lon": -77.04365233333333, "type": "electric_scooter", "fusion_lon": 0.0, "lat": 38.900100333333334}, {"rental_uris": {"android": "https://dc.lft.to/lastmile_qr_scan", "ios": "https://dc.lft.to/lastmile_qr_scan"}, "is_reserved": 0, "is_disabled": 0, "name": "33f9da232cd3b2024ed8543266c940dc", "bike_id": "33f9da232cd3b2024ed8543266c940dc", "fusion_lat": 0.0, "lon": -77.04173283333333, "type": "electric_scooter", "fusion_lon": 0.0, "lat": 38.916127333333336}, {"rental_uris": {"android": "https://dc.lft.to/lastmile_qr_scan", "ios": "https://dc.lft.to/lastmile_qr_scan"}, "is_reserved": 0, "is_disabled": 0, "name": "bd426530218c0668ab953c51e7d007d2", "bike_id": "bd426530218c0668ab953c51e7d007d2", "fusion_lat": 0.0, "lon": -77.05127633333333, "type": "electric_scooter", "fusion_lon": 0.0, "lat": 38.906389}, {"rental_uris": {"android": "https://dc.lft.to/lastmile_qr_scan", "ios": "https://dc.lft.to/lastmile_qr_scan"}, "is_reserved": 0, "is_disabled": 0, "name": "3cd52b8bb44afd51d04cff40401f589d", "bike_id": "3cd52b8bb44afd51d04cff40401f589d", "fusion_lat": 0.0, "lon": -77.02211033333333, "type": "electric_scooter", "fusion_lon": 0.0, "lat": 38.89613133333334}, {"rental_uris": {"android": "https://dc.lft.to/lastmile_qr_scan", "ios": "https://dc.lft.to/lastmile_qr_scan"}, "is_reserved": 0, "is_disabled": 0, "name": "a91e3abd0d6eef31a64c3affb6730807", "bike_id": "a91e3abd0d6eef31a64c3affb6730807", "fusion_lat": 0.0, "lon": -77.033721, "type": "electric_scooter", "fusion_lon": 0.0, "lat": 38.90295583333333}, {"rental_uris": {"android": "https://dc.lft.to/lastmile_qr_scan", "ios": "https://dc.lft.to/lastmile_qr_scan"}, "is_reserved": 0, "is_disabled": 0, "name": "0b115d0ee82ee8f748f479c2701587df", "bike_id": "0b115d0ee82ee8f748f479c2701587df", "fusion_lat": 0.0, "lon": -77.03621083333333, "type": "electric_scooter", "fusion_lon": 0.0, "lat": 38.9428295}, {"rental_uris": {"android": "https://dc.lft.to/lastmile_qr_scan", "ios": "https://dc.lft.to/lastmile_qr_scan"}, "is_reserved": 0, "is_disabled": 0, "name": "375ee6d0d02dbc2aedcb0e012fd831dc", "bike_id": "375ee6d0d02dbc2aedcb0e012fd831dc", "fusion_lat": 0.0, "lon": -77.02139383333333, "type": "electric_scooter", "fusion_lon": 0.0, "lat": 38.904811333333335}, {"rental_uris": {"android": "https://dc.lft.to/lastmile_qr_scan", "ios": "https://dc.lft.to/lastmile_qr_scan"}, "is_reserved": 0, "is_disabled": 0, "name": "5b7bbdc674e73424d086142bc5c41abe", "bike_id": "5b7bbdc674e73424d086142bc5c41abe", "fusion_lat": 0.0, "lon": -77.02703233333334, "type": "electric_scooter", "fusion_lon": 0.0, "lat": 38.94977466666667}, {"rental_uris": {"android": "https://dc.lft.to/lastmile_qr_scan", "ios": "https://dc.lft.to/lastmile_qr_scan"}, "is_reserved": 0, "is_disabled": 0, "name": "53e98b751aa2575e4bee9df7bcb08e8a", "bike_id": "53e98b751aa2575e4bee9df7bcb08e8a", "fusion_lat": 0.0, "lon": -77.00574483333334, "type": "electric_scooter", "fusion_lon": 0.0, "lat": 38.8850345}, {"rental_uris": {"android": "https://dc.lft.to/lastmile_qr_scan", "ios": "https://dc.lft.to/lastmile_qr_scan"}, "is_reserved": 0, "is_disabled": 0, "name": "e0db41793398162c784944bcede132ab", "bike_id": "e0db41793398162c784944bcede132ab", "fusion_lat": 0.0, "lon": -77.03318583333333, "type": "electric_scooter", "fusion_lon": 0.0, "lat": 38.89998716666667}, {"rental_uris": {"android": "https://dc.lft.to/lastmile_qr_scan", "ios": "https://dc.lft.to/lastmile_qr_scan"}, "is_reserved": 0, "is_disabled": 0, "name": "85d1a65363df09427eabd55d2ff6aa52", "bike_id": "85d1a65363df09427eabd55d2ff6aa52", "fusion_lat": 0.0, "lon": -77.034391, "type": "electric_scooter", "fusion_lon": 0.0, "lat": 38.90464466666667}, {"rental_uris": {"android": "https://dc.lft.to/lastmile_qr_scan", "ios": "https://dc.lft.to/lastmile_qr_scan"}, "is_reserved": 0, "is_disabled": 0, "name": "8855737c1dd96e1f285e5a7ed85921c7", "bike_id": "8855737c1dd96e1f285e5a7ed85921c7", "fusion_lat": 0.0, "lon": -77.02533316666667, "type": "electric_scooter", "fusion_lon": 0.0, "lat": 38.9064915}, {"rental_uris": {"android": "https://dc.lft.to/lastmile_qr_scan", "ios": "https://dc.lft.to/lastmile_qr_scan"}, "is_reserved": 0, "is_disabled": 0, "name": "98b964ff57542bf0b8184366fc273a47", "bike_id": "98b964ff57542bf0b8184366fc273a47", "fusion_lat": 0.0, "lon": -77.04027233333333, "type": "electric_scooter", "fusion_lon": 0.0, "lat": 38.91600483333333}, {"rental_uris": {"android": "https://dc.lft.to/lastmile_qr_scan", "ios": "https://dc.lft.to/lastmile_qr_scan"}, "is_reserved": 0, "is_disabled": 0, "name": "6f2e0704abd25d6591b53459e569e73b", "bike_id": "6f2e0704abd25d6591b53459e569e73b", "fusion_lat": 0.0, "lon": -77.04238116666667, "type": "electric_scooter", "fusion_lon": 0.0, "lat": 38.924437}, {"rental_uris": {"android": "https://dc.lft.to/lastmile_qr_scan", "ios": "https://dc.lft.to/lastmile_qr_scan"}, "is_reserved": 0, "is_disabled": 0, "name": "7bb22083e801c0b0419588af0d8c397c", "bike_id": "7bb22083e801c0b0419588af0d8c397c", "fusion_lat": 0.0, "lon": -77.04689983333333, "type": "electric_scooter", "fusion_lon": 0.0, "lat": 38.89956383333333}, {"rental_uris": {"android": "https://dc.lft.to/lastmile_qr_scan", "ios": "https://dc.lft.to/lastmile_qr_scan"}, "is_reserved": 0, "is_disabled": 0, "name": "4ed2092fdd6d6397317ac52295fcbe19", "bike_id": "4ed2092fdd6d6397317ac52295fcbe19", "fusion_lat": 0.0, "lon": -77.02128866666666, "type": "electric_scooter", "fusion_lon": 0.0, "lat": 38.92371683333333}, {"rental_uris": {"android": "https://dc.lft.to/lastmile_qr_scan", "ios": "https://dc.lft.to/lastmile_qr_scan"}, "is_reserved": 0, "is_disabled": 0, "name": "d245010340735d86ba218d940f2d067a", "bike_id": "d245010340735d86ba218d940f2d067a", "fusion_lat": 0.0, "lon": -77.0282495, "type": "electric_scooter", "fusion_lon": 0.0, "lat": 38.902412166666664}, {"rental_uris": {"android": "https://dc.lft.to/lastmile_qr_scan", "ios": "https://dc.lft.to/lastmile_qr_scan"}, "is_reserved": 0, "is_disabled": 0, "name": "80a93b2a5eade9379db783b4ae076c2c", "bike_id": "80a93b2a5eade9379db783b4ae076c2c", "fusion_lat": 0.0, "lon": -77.0239945, "type": "electric_scooter", "fusion_lon": 0.0, "lat": 38.919903166666664}, {"rental_uris": {"android": "https://dc.lft.to/lastmile_qr_scan", "ios": "https://dc.lft.to/lastmile_qr_scan"}, "is_reserved": 0, "is_disabled": 0, "name": "9b8b8dac9d46468b14e836578f05b90d", "bike_id": "9b8b8dac9d46468b14e836578f05b90d", "fusion_lat": 0.0, "lon": -77.07069416666667, "type": "electric_scooter", "fusion_lon": 0.0, "lat": 38.91930933333333}, {"rental_uris": {"android": "https://dc.lft.to/lastmile_qr_scan", "ios": "https://dc.lft.to/lastmile_qr_scan"}, "is_reserved": 0, "is_disabled": 0, "name": "0f1f3f0fca173103754cca4420da7f5f", "bike_id": "0f1f3f0fca173103754cca4420da7f5f", "fusion_lat": 0.0, "lon": -77.01376066666667, "type": "electric_scooter", "fusion_lon": 0.0, "lat": 38.8867085}, {"rental_uris": {"android": "https://dc.lft.to/lastmile_qr_scan", "ios": "https://dc.lft.to/lastmile_qr_scan"}, "is_reserved": 0, "is_disabled": 0, "name": "b5cb2a2c24c822ce0ad3eb4ef29deeb0", "bike_id": "b5cb2a2c24c822ce0ad3eb4ef29deeb0", "fusion_lat": 0.0, "lon": -77.129191, "type": "electric_bike", "fusion_lon": 0.0, "lat": 39.0622}, {"rental_uris": {"android": "https://dc.lft.to/lastmile_qr_scan", "ios": "https://dc.lft.to/lastmile_qr_scan"}, "is_reserved": 0, "is_disabled": 0, "name": "1e7c3571e1f19edc4018c8bb2d9add4d", "bike_id": "1e7c3571e1f19edc4018c8bb2d9add4d", "fusion_lat": 0.0, "lon": -76.97434483333333, "type": "electric_bike", "fusion_lon": 0.0, "lat": 38.85588883333333}, {"rental_uris": {"android": "https://dc.lft.to/lastmile_qr_scan", "ios": "https://dc.lft.to/lastmile_qr_scan"}, "is_reserved": 0, "is_disabled": 0, "name": "833af5bdeb484c079794c65a7bdfd978", "bike_id": "833af5bdeb484c079794c65a7bdfd978", "fusion_lat": 0.0, "lon": -77.04651433333333, "type": "electric_scooter", "fusion_lon": 0.0, "lat": 38.90965716666667}, {"rental_uris": {"android": "https://dc.lft.to/lastmile_qr_scan", "ios": "https://dc.lft.to/lastmile_qr_scan"}, "is_reserved": 0, "is_disabled": 0, "name": "238d04fa5238b799d6557edc65df46f8", "bike_id": "238d04fa5238b799d6557edc65df46f8", "fusion_lat": 0.0, "lon": -77.0303905, "type": "electric_scooter", "fusion_lon": 0.0, "lat": 38.9508425}, {"rental_uris": {"android": "https://dc.lft.to/lastmile_qr_scan", "ios": "https://dc.lft.to/lastmile_qr_scan"}, "is_reserved": 0, "is_disabled": 0, "name": "c9e8b9c90ac14e45237821b6665b6d53", "bike_id": "c9e8b9c90ac14e45237821b6665b6d53", "fusion_lat": 0.0, "lon": -77.00363666666667, "type": "electric_scooter", "fusion_lon": 0.0, "lat": 38.876683166666666}, {"rental_uris": {"android": "https://dc.lft.to/lastmile_qr_scan", "ios": "https://dc.lft.to/lastmile_qr_scan"}, "is_reserved": 0, "is_disabled": 0, "name": "8cc176a42110fa630813e44cd48f9f43", "bike_id": "8cc176a42110fa630813e44cd48f9f43", "fusion_lat": 0.0, "lon": -77.03229716666667, "type": "electric_scooter", "fusion_lon": 0.0, "lat": 38.8973505}, {"rental_uris": {"android": "https://dc.lft.to/lastmile_qr_scan", "ios": "https://dc.lft.to/lastmile_qr_scan"}, "is_reserved": 0, "is_disabled": 0, "name": "bcbba6012fe01753c774a793da28eb22", "bike_id": "bcbba6012fe01753c774a793da28eb22", "fusion_lat": 0.0, "lon": -77.02162716666666, "type": "electric_scooter", "fusion_lon": 0.0, "lat": 38.887185}, {"rental_uris": {"android": "https://dc.lft.to/lastmile_qr_scan", "ios": "https://dc.lft.to/lastmile_qr_scan"}, "is_reserved": 0, "is_disabled": 0, "name": "6b578a0f1e97061b64b51b5a6a3508fc", "bike_id": "6b578a0f1e97061b64b51b5a6a3508fc", "fusion_lat": 0.0, "lon": -77.01735483333333, "type": "electric_scooter", "fusion_lon": 0.0, "lat": 38.975137833333335}, {"rental_uris": {"android": "https://dc.lft.to/lastmile_qr_scan", "ios": "https://dc.lft.to/lastmile_qr_scan"}, "is_reserved": 0, "is_disabled": 0, "name": "a72be5c49795dbba1ce6f2a6377d9eb5", "bike_id": "a72be5c49795dbba1ce6f2a6377d9eb5", "fusion_lat": 0.0, "lon": -76.96708483333333, "type": "electric_scooter", "fusion_lon": 0.0, "lat": 38.8597065}, {"rental_uris": {"android": "https://dc.lft.to/lastmile_qr_scan", "ios": "https://dc.lft.to/lastmile_qr_scan"}, "is_reserved": 0, "is_disabled": 0, "name": "f4717f4d02d88281e6ce2d7fe4adcaf9", "bike_id": "f4717f4d02d88281e6ce2d7fe4adcaf9", "fusion_lat": 0.0, "lon": -77.0213165, "type": "electric_scooter", "fusion_lon": 0.0, "lat": 38.92273566666667}, {"rental_uris": {"android": "https://dc.lft.to/lastmile_qr_scan", "ios": "https://dc.lft.to/lastmile_qr_scan"}, "is_reserved": 0, "is_disabled": 0, "name": "41d00914fa4510e980cb723751e1006e", "bike_id": "41d00914fa4510e980cb723751e1006e", "fusion_lat": 0.0, "lon": -77.04031033333334, "type": "electric_scooter", "fusion_lon": 0.0, "lat": 38.898293833333334}, {"rental_uris": {"android": "https://dc.lft.to/lastmile_qr_scan", "ios": "https://dc.lft.to/lastmile_qr_scan"}, "is_reserved": 0, "is_disabled": 0, "name": "b9e275afaf7855d89f885e923ef04e67", "bike_id": "b9e275afaf7855d89f885e923ef04e67", "fusion_lat": 0.0, "lon": -77.00682833333333, "type": "electric_scooter", "fusion_lon": 0.0, "lat": 38.899912666666665}, {"rental_uris": {"android": "https://dc.lft.to/lastmile_qr_scan", "ios": "https://dc.lft.to/lastmile_qr_scan"}, "is_reserved": 0, "is_disabled": 0, "name": "21600f43955c0fd29af931272225fa24", "bike_id": "21600f43955c0fd29af931272225fa24", "fusion_lat": 0.0, "lon": -76.96542333333333, "type": "electric_scooter", "fusion_lon": 0.0, "lat": 38.91854516666667}, {"rental_uris": {"android": "https://dc.lft.to/lastmile_qr_scan", "ios": "https://dc.lft.to/lastmile_qr_scan"}, "is_reserved": 0, "is_disabled": 0, "name": "41bea04b00916b3d483fce110dd01557", "bike_id": "41bea04b00916b3d483fce110dd01557", "fusion_lat": 0.0, "lon": -77.027934, "type": "electric_scooter", "fusion_lon": 0.0, "lat": 38.934042166666664}, {"rental_uris": {"android": "https://dc.lft.to/lastmile_qr_scan", "ios": "https://dc.lft.to/lastmile_qr_scan"}, "is_reserved": 0, "is_disabled": 0, "name": "24fc399fe44a4e8b95d9502242a0d0a0", "bike_id": "24fc399fe44a4e8b95d9502242a0d0a0", "fusion_lat": 0.0, "lon": -77.00602966666666, "type": "electric_scooter", "fusion_lon": 0.0, "lat": 38.87184583333333}, {"rental_uris": {"android": "https://dc.lft.to/lastmile_qr_scan", "ios": "https://dc.lft.to/lastmile_qr_scan"}, "is_reserved": 0, "is_disabled": 0, "name": "6fe08b71e71b79ba66d5b41fee1eaf7e", "bike_id": "6fe08b71e71b79ba66d5b41fee1eaf7e", "fusion_lat": 0.0, "lon": -77.02639783333333, "type": "electric_scooter", "fusion_lon": 0.0, "lat": 38.911031666666666}, {"rental_uris": {"android": "https://dc.lft.to/lastmile_qr_scan", "ios": "https://dc.lft.to/lastmile_qr_scan"}, "is_reserved": 0, "is_disabled": 0, "name": "b1c2219a15af1b027aea6dd3dd0c2d5c", "bike_id": "b1c2219a15af1b027aea6dd3dd0c2d5c", "fusion_lat": 0.0, "lon": -77.00641116666667, "type": "electric_scooter", "fusion_lon": 0.0, "lat": 38.90976}, {"rental_uris": {"android": "https://dc.lft.to/lastmile_qr_scan", "ios": "https://dc.lft.to/lastmile_qr_scan"}, "is_reserved": 0, "is_disabled": 0, "name": "f31143ee85ae9ca0d49c6d9cb737b1c4", "bike_id": "f31143ee85ae9ca0d49c6d9cb737b1c4", "fusion_lat": 0.0, "lon": -77.03359283333333, "type": "electric_scooter", "fusion_lon": 0.0, "lat": 38.9357995}, {"rental_uris": {"android": "https://dc.lft.to/lastmile_qr_scan", "ios": "https://dc.lft.to/lastmile_qr_scan"}, "is_reserved": 0, "is_disabled": 0, "name": "85c249baadbe8bac575ff92bc19f94e1", "bike_id": "85c249baadbe8bac575ff92bc19f94e1", "fusion_lat": 0.0, "lon": -77.02083816666666, "type": "electric_scooter", "fusion_lon": 0.0, "lat": 38.92159933333333}, {"rental_uris": {"android": "https://dc.lft.to/lastmile_qr_scan", "ios": "https://dc.lft.to/lastmile_qr_scan"}, "is_reserved": 0, "is_disabled": 0, "name": "3782c41a8c9f6e3d56b785f31b90d48d", "bike_id": "3782c41a8c9f6e3d56b785f31b90d48d", "fusion_lat": 0.0, "lon": -77.02833983333333, "type": "electric_scooter", "fusion_lon": 0.0, "lat": 38.9011995}, {"rental_uris": {"android": "https://dc.lft.to/lastmile_qr_scan", "ios": "https://dc.lft.to/lastmile_qr_scan"}, "is_reserved": 0, "is_disabled": 0, "name": "db9f4778d8d348ac511aeb739ee5d43a", "bike_id": "db9f4778d8d348ac511aeb739ee5d43a", "fusion_lat": 0.0, "lon": -77.08058816666667, "type": "electric_scooter", "fusion_lon": 0.0, "lat": 38.948792}, {"rental_uris": {"android": "https://dc.lft.to/lastmile_qr_scan", "ios": "https://dc.lft.to/lastmile_qr_scan"}, "is_reserved": 0, "is_disabled": 0, "name": "2cdd5da4dd80b2069021e65601d5eeec", "bike_id": "2cdd5da4dd80b2069021e65601d5eeec", "fusion_lat": 0.0, "lon": -77.23179783333333, "type": "electric_bike", "fusion_lon": 0.0, "lat": 38.928925}, {"rental_uris": {"android": "https://dc.lft.to/lastmile_qr_scan", "ios": "https://dc.lft.to/lastmile_qr_scan"}, "is_reserved": 0, "is_disabled": 0, "name": "3a7dab76f862b35de560aaa3656cc56b", "bike_id": "3a7dab76f862b35de560aaa3656cc56b", "fusion_lat": 0.0, "lon": -77.04323866666667, "type": "electric_scooter", "fusion_lon": 0.0, "lat": 38.901079}, {"rental_uris": {"android": "https://dc.lft.to/lastmile_qr_scan", "ios": "https://dc.lft.to/lastmile_qr_scan"}, "is_reserved": 0, "is_disabled": 0, "name": "f883e249eb401b27683664533a1a5114", "bike_id": "f883e249eb401b27683664533a1a5114", "fusion_lat": 0.0, "lon": -77.01957016666667, "type": "electric_scooter", "fusion_lon": 0.0, "lat": 38.923302}, {"rental_uris": {"android": "https://dc.lft.to/lastmile_qr_scan", "ios": "https://dc.lft.to/lastmile_qr_scan"}, "is_reserved": 0, "is_disabled": 0, "name": "4f5a41749aeab3555610816db736fe70", "bike_id": "4f5a41749aeab3555610816db736fe70", "fusion_lat": 0.0, "lon": -77.07918583333333, "type": "electric_bike", "fusion_lon": 0.0, "lat": 38.83826783333333}, {"rental_uris": {"android": "https://dc.lft.to/lastmile_qr_scan", "ios": "https://dc.lft.to/lastmile_qr_scan"}, "is_reserved": 0, "is_disabled": 0, "name": "09789e86d41b371fcbddc11c2d7473b2", "bike_id": "09789e86d41b371fcbddc11c2d7473b2", "fusion_lat": 0.0, "lon": -77.02306366666667, "type": "electric_scooter", "fusion_lon": 0.0, "lat": 38.918366166666665}, {"rental_uris": {"android": "https://dc.lft.to/lastmile_qr_scan", "ios": "https://dc.lft.to/lastmile_qr_scan"}, "is_reserved": 0, "is_disabled": 0, "name": "e3a5116b3fc2d195366844f123c95b1a", "bike_id": "e3a5116b3fc2d195366844f123c95b1a", "fusion_lat": 0.0, "lon": -77.02283216666666, "type": "electric_scooter", "fusion_lon": 0.0, "lat": 38.8984145}, {"rental_uris": {"android": "https://dc.lft.to/lastmile_qr_scan", "ios": "https://dc.lft.to/lastmile_qr_scan"}, "is_reserved": 0, "is_disabled": 0, "name": "41fe18348c737b9909a9851d1fa7cd69", "bike_id": "41fe18348c737b9909a9851d1fa7cd69", "fusion_lat": 0.0, "lon": -77.02180316666667, "type": "electric_scooter", "fusion_lon": 0.0, "lat": 38.89229816666667}, {"rental_uris": {"android": "https://dc.lft.to/lastmile_qr_scan", "ios": "https://dc.lft.to/lastmile_qr_scan"}, "is_reserved": 0, "is_disabled": 0, "name": "d5f2fa2982b760d6ec163299da18e3d6", "bike_id": "d5f2fa2982b760d6ec163299da18e3d6", "fusion_lat": 0.0, "lon": -77.01460416666667, "type": "electric_scooter", "fusion_lon": 0.0, "lat": 38.958076}, {"rental_uris": {"android": "https://dc.lft.to/lastmile_qr_scan", "ios": "https://dc.lft.to/lastmile_qr_scan"}, "is_reserved": 0, "is_disabled": 0, "name": "8b59f6258d8a4547424f4f695e739631", "bike_id": "8b59f6258d8a4547424f4f695e739631", "fusion_lat": 0.0, "lon": -77.036393, "type": "electric_scooter", "fusion_lon": 0.0, "lat": 38.92353933333333}, {"rental_uris": {"android": "https://dc.lft.to/lastmile_qr_scan", "ios": "https://dc.lft.to/lastmile_qr_scan"}, "is_reserved": 0, "is_disabled": 0, "name": "0ce9710c90105b34bf340db49cc7fa79", "bike_id": "0ce9710c90105b34bf340db49cc7fa79", "fusion_lat": 0.0, "lon": -77.0419895, "type": "electric_scooter", "fusion_lon": 0.0, "lat": 38.92043616666667}, {"rental_uris": {"android": "https://dc.lft.to/lastmile_qr_scan", "ios": "https://dc.lft.to/lastmile_qr_scan"}, "is_reserved": 0, "is_disabled": 0, "name": "03c664c4244f1594914f0174e36f22b8", "bike_id": "03c664c4244f1594914f0174e36f22b8", "fusion_lat": 0.0, "lon": -77.0882875, "type": "electric_bike", "fusion_lon": 0.0, "lat": 38.9097285}, {"rental_uris": {"android": "https://dc.lft.to/lastmile_qr_scan", "ios": "https://dc.lft.to/lastmile_qr_scan"}, "is_reserved": 0, "is_disabled": 0, "name": "8c7de803f379466eba5b9ead496666e6", "bike_id": "8c7de803f379466eba5b9ead496666e6", "fusion_lat": 0.0, "lon": -77.0212855, "type": "electric_scooter", "fusion_lon": 0.0, "lat": 38.9237195}, {"rental_uris": {"android": "https://dc.lft.to/lastmile_qr_scan", "ios": "https://dc.lft.to/lastmile_qr_scan"}, "is_reserved": 0, "is_disabled": 0, "name": "ac2c490e5140f7f06c942ca5b4166597", "bike_id": "ac2c490e5140f7f06c942ca5b4166597", "fusion_lat": 0.0, "lon": -77.0249515, "type": "electric_scooter", "fusion_lon": 0.0, "lat": 38.91745433333333}, {"rental_uris": {"android": "https://dc.lft.to/lastmile_qr_scan", "ios": "https://dc.lft.to/lastmile_qr_scan"}, "is_reserved": 0, "is_disabled": 0, "name": "b5e4416b128eb1cd96545120f70b586f", "bike_id": "b5e4416b128eb1cd96545120f70b586f", "fusion_lat": 0.0, "lon": -77.05432833333333, "type": "electric_scooter", "fusion_lon": 0.0, "lat": 38.928441}, {"rental_uris": {"android": "https://dc.lft.to/lastmile_qr_scan", "ios": "https://dc.lft.to/lastmile_qr_scan"}, "is_reserved": 0, "is_disabled": 0, "name": "1e2a322804d9bc86990cb40512607ef4", "bike_id": "1e2a322804d9bc86990cb40512607ef4", "fusion_lat": 0.0, "lon": -77.03228016666667, "type": "electric_scooter", "fusion_lon": 0.0, "lat": 38.92001116666667}, {"rental_uris": {"android": "https://dc.lft.to/lastmile_qr_scan", "ios": "https://dc.lft.to/lastmile_qr_scan"}, "is_reserved": 0, "is_disabled": 0, "name": "aded491606de141e74cb9cbe6f8d4e11", "bike_id": "aded491606de141e74cb9cbe6f8d4e11", "fusion_lat": 0.0, "lon": -77.0220735, "type": "electric_bike", "fusion_lon": 0.0, "lat": 38.964951166666665}, {"rental_uris": {"android": "https://dc.lft.to/lastmile_qr_scan", "ios": "https://dc.lft.to/lastmile_qr_scan"}, "is_reserved": 0, "is_disabled": 0, "name": "eb73c480927c045a63f14fb5cb637fcc", "bike_id": "eb73c480927c045a63f14fb5cb637fcc", "fusion_lat": 0.0, "lon": -76.986395, "type": "electric_scooter", "fusion_lon": 0.0, "lat": 38.90668466666666}, {"rental_uris": {"android": "https://dc.lft.to/lastmile_qr_scan", "ios": "https://dc.lft.to/lastmile_qr_scan"}, "is_reserved": 0, "is_disabled": 0, "name": "8d8e269609238584a5198d8a7378a863", "bike_id": "8d8e269609238584a5198d8a7378a863", "fusion_lat": 0.0, "lon": -77.02139366666667, "type": "electric_scooter", "fusion_lon": 0.0, "lat": 38.923682666666664}, {"rental_uris": {"android": "https://dc.lft.to/lastmile_qr_scan", "ios": "https://dc.lft.to/lastmile_qr_scan"}, "is_reserved": 0, "is_disabled": 0, "name": "93a833eb8c4edb7588ba986dbb32ff09", "bike_id": "93a833eb8c4edb7588ba986dbb32ff09", "fusion_lat": 0.0, "lon": -77.044209, "type": "electric_scooter", "fusion_lon": 0.0, "lat": 38.90886166666667}, {"rental_uris": {"android": "https://dc.lft.to/lastmile_qr_scan", "ios": "https://dc.lft.to/lastmile_qr_scan"}, "is_reserved": 0, "is_disabled": 0, "name": "245a033e5c5ce315a15d52d47f12a2e1", "bike_id": "245a033e5c5ce315a15d52d47f12a2e1", "fusion_lat": 0.0, "lon": -77.031958, "type": "electric_scooter", "fusion_lon": 0.0, "lat": 38.911342833333336}, {"rental_uris": {"android": "https://dc.lft.to/lastmile_qr_scan", "ios": "https://dc.lft.to/lastmile_qr_scan"}, "is_reserved": 0, "is_disabled": 0, "name": "5ea43faa7a111cd5ba48e9263be96ec6", "bike_id": "5ea43faa7a111cd5ba48e9263be96ec6", "fusion_lat": 0.0, "lon": -77.04241833333333, "type": "electric_scooter", "fusion_lon": 0.0, "lat": 38.92213533333333}, {"rental_uris": {"android": "https://dc.lft.to/lastmile_qr_scan", "ios": "https://dc.lft.to/lastmile_qr_scan"}, "is_reserved": 0, "is_disabled": 0, "name": "370930bbf7103790dd36c439847d5f06", "bike_id": "370930bbf7103790dd36c439847d5f06", "fusion_lat": 0.0, "lon": -77.04626, "type": "electric_scooter", "fusion_lon": 0.0, "lat": 38.909567833333334}, {"rental_uris": {"android": "https://dc.lft.to/lastmile_qr_scan", "ios": "https://dc.lft.to/lastmile_qr_scan"}, "is_reserved": 0, "is_disabled": 0, "name": "62367287e6b02d11756af989de5b7741", "bike_id": "62367287e6b02d11756af989de5b7741", "fusion_lat": 0.0, "lon": -77.02772633333333, "type": "electric_scooter", "fusion_lon": 0.0, "lat": 38.952974833333336}, {"rental_uris": {"android": "https://dc.lft.to/lastmile_qr_scan", "ios": "https://dc.lft.to/lastmile_qr_scan"}, "is_reserved": 0, "is_disabled": 0, "name": "e41478c4e9dcf056d6455824a50a4aa5", "bike_id": "e41478c4e9dcf056d6455824a50a4aa5", "fusion_lat": 0.0, "lon": -77.01773283333333, "type": "electric_scooter", "fusion_lon": 0.0, "lat": 38.89826983333333}, {"rental_uris": {"android": "https://dc.lft.to/lastmile_qr_scan", "ios": "https://dc.lft.to/lastmile_qr_scan"}, "is_reserved": 0, "is_disabled": 0, "name": "1669547e7f3536a464896bdf50ab0934", "bike_id": "1669547e7f3536a464896bdf50ab0934", "fusion_lat": 0.0, "lon": -77.02136916666667, "type": "electric_scooter", "fusion_lon": 0.0, "lat": 38.9242115}, {"rental_uris": {"android": "https://dc.lft.to/lastmile_qr_scan", "ios": "https://dc.lft.to/lastmile_qr_scan"}, "is_reserved": 0, "is_disabled": 0, "name": "aa473ecbd6dce04a778e68f43b743c74", "bike_id": "aa473ecbd6dce04a778e68f43b743c74", "fusion_lat": 0.0, "lon": -77.00970416666667, "type": "electric_scooter", "fusion_lon": 0.0, "lat": 38.91701466666667}, {"rental_uris": {"android": "https://dc.lft.to/lastmile_qr_scan", "ios": "https://dc.lft.to/lastmile_qr_scan"}, "is_reserved": 0, "is_disabled": 0, "name": "e077aff7a1cdada27b940e48d46d9ce8", "bike_id": "e077aff7a1cdada27b940e48d46d9ce8", "fusion_lat": 0.0, "lon": -77.0203615, "type": "electric_scooter", "fusion_lon": 0.0, "lat": 38.922092}, {"rental_uris": {"android": "https://dc.lft.to/lastmile_qr_scan", "ios": "https://dc.lft.to/lastmile_qr_scan"}, "is_reserved": 0, "is_disabled": 0, "name": "99cd021939b7a0a897dede2d74f54340", "bike_id": "99cd021939b7a0a897dede2d74f54340", "fusion_lat": 0.0, "lon": -77.02375466666666, "type": "electric_scooter", "fusion_lon": 0.0, "lat": 38.892204}, {"rental_uris": {"android": "https://dc.lft.to/lastmile_qr_scan", "ios": "https://dc.lft.to/lastmile_qr_scan"}, "is_reserved": 0, "is_disabled": 0, "name": "02afeb7bb98e4f6257005b1988ee9f6b", "bike_id": "02afeb7bb98e4f6257005b1988ee9f6b", "fusion_lat": 0.0, "lon": -77.0418375, "type": "electric_scooter", "fusion_lon": 0.0, "lat": 38.91408916666666}, {"rental_uris": {"android": "https://dc.lft.to/lastmile_qr_scan", "ios": "https://dc.lft.to/lastmile_qr_scan"}, "is_reserved": 0, "is_disabled": 0, "name": "8e6d65d4d5b64fa76883959889bb9b21", "bike_id": "8e6d65d4d5b64fa76883959889bb9b21", "fusion_lat": 0.0, "lon": -77.0424555, "type": "electric_scooter", "fusion_lon": 0.0, "lat": 38.90764083333333}, {"rental_uris": {"android": "https://dc.lft.to/lastmile_qr_scan", "ios": "https://dc.lft.to/lastmile_qr_scan"}, "is_reserved": 0, "is_disabled": 0, "name": "7b2bfa2374c16edcdf2a8eec92e7c89f", "bike_id": "7b2bfa2374c16edcdf2a8eec92e7c89f", "fusion_lat": 0.0, "lon": -77.02480983333334, "type": "electric_scooter", "fusion_lon": 0.0, "lat": 38.918116}, {"rental_uris": {"android": "https://dc.lft.to/lastmile_qr_scan", "ios": "https://dc.lft.to/lastmile_qr_scan"}, "is_reserved": 0, "is_disabled": 0, "name": "4befe28d7c38dba17206c3454b0f1601", "bike_id": "4befe28d7c38dba17206c3454b0f1601", "fusion_lat": 0.0, "lon": -77.05336583333333, "type": "electric_scooter", "fusion_lon": 0.0, "lat": 38.9015845}, {"rental_uris": {"android": "https://dc.lft.to/lastmile_qr_scan", "ios": "https://dc.lft.to/lastmile_qr_scan"}, "is_reserved": 0, "is_disabled": 0, "name": "252dfc41bea0261ecb194b9c34dac1b6", "bike_id": "252dfc41bea0261ecb194b9c34dac1b6", "fusion_lat": 0.0, "lon": -77.01237483333334, "type": "electric_bike", "fusion_lon": 0.0, "lat": 38.90865466666666}, {"rental_uris": {"android": "https://dc.lft.to/lastmile_qr_scan", "ios": "https://dc.lft.to/lastmile_qr_scan"}, "is_reserved": 0, "is_disabled": 0, "name": "99d369289e4c69f6bb97d4bd331b8128", "bike_id": "99d369289e4c69f6bb97d4bd331b8128", "fusion_lat": 0.0, "lon": -77.0885405, "type": "electric_bike", "fusion_lon": 0.0, "lat": 38.96607366666667}, {"rental_uris": {"android": "https://dc.lft.to/lastmile_qr_scan", "ios": "https://dc.lft.to/lastmile_qr_scan"}, "is_reserved": 0, "is_disabled": 0, "name": "6fe5dc6e4af9afa515665ee1f8fcc57a", "bike_id": "6fe5dc6e4af9afa515665ee1f8fcc57a", "fusion_lat": 0.0, "lon": -76.99030883333333, "type": "electric_bike", "fusion_lon": 0.0, "lat": 38.83577533333333}, {"rental_uris": {"android": "https://dc.lft.to/lastmile_qr_scan", "ios": "https://dc.lft.to/lastmile_qr_scan"}, "is_reserved": 0, "is_disabled": 0, "name": "a540fa2af455508d60c1cf999adc2cda", "bike_id": "a540fa2af455508d60c1cf999adc2cda", "fusion_lat": 0.0, "lon": -77.01962416666667, "type": "electric_scooter", "fusion_lon": 0.0, "lat": 38.92324683333333}, {"rental_uris": {"android": "https://dc.lft.to/lastmile_qr_scan", "ios": "https://dc.lft.to/lastmile_qr_scan"}, "is_reserved": 0, "is_disabled": 0, "name": "12999ff1a0ef623901c5b804794204a8", "bike_id": "12999ff1a0ef623901c5b804794204a8", "fusion_lat": 0.0, "lon": -77.02577233333334, "type": "electric_bike", "fusion_lon": 0.0, "lat": 38.91244416666667}, {"rental_uris": {"android": "https://dc.lft.to/lastmile_qr_scan", "ios": "https://dc.lft.to/lastmile_qr_scan"}, "is_reserved": 0, "is_disabled": 0, "name": "acbdd2095331e6bf8a4ca42da800cf40", "bike_id": "acbdd2095331e6bf8a4ca42da800cf40", "fusion_lat": 0.0, "lon": -76.94035866666667, "type": "electric_bike", "fusion_lon": 0.0, "lat": 38.9081905}, {"rental_uris": {"android": "https://dc.lft.to/lastmile_qr_scan", "ios": "https://dc.lft.to/lastmile_qr_scan"}, "is_reserved": 0, "is_disabled": 0, "name": "789530d0b22f8d0b55470902bfd2b075", "bike_id": "789530d0b22f8d0b55470902bfd2b075", "fusion_lat": 0.0, "lon": -76.97228166666666, "type": "electric_bike", "fusion_lon": 0.0, "lat": 38.900363666666664}, {"rental_uris": {"android": "https://dc.lft.to/lastmile_qr_scan", "ios": "https://dc.lft.to/lastmile_qr_scan"}, "is_reserved": 0, "is_disabled": 0, "name": "330823810f52184707f549031027f271", "bike_id": "330823810f52184707f549031027f271", "fusion_lat": 0.0, "lon": -77.02580716666667, "type": "electric_scooter", "fusion_lon": 0.0, "lat": 38.926867666666666}, {"rental_uris": {"android": "https://dc.lft.to/lastmile_qr_scan", "ios": "https://dc.lft.to/lastmile_qr_scan"}, "is_reserved": 0, "is_disabled": 0, "name": "743fa816abeeff199dc3075c1d564231", "bike_id": "743fa816abeeff199dc3075c1d564231", "fusion_lat": 0.0, "lon": -77.006097, "type": "electric_scooter", "fusion_lon": 0.0, "lat": 38.90591666666667}, {"rental_uris": {"android": "https://dc.lft.to/lastmile_qr_scan", "ios": "https://dc.lft.to/lastmile_qr_scan"}, "is_reserved": 0, "is_disabled": 0, "name": "bccd75c6dfbbb1b6f3be94bef78d5ae3", "bike_id": "bccd75c6dfbbb1b6f3be94bef78d5ae3", "fusion_lat": 0.0, "lon": -77.02274766666666, "type": "electric_scooter", "fusion_lon": 0.0, "lat": 38.902845166666665}, {"rental_uris": {"android": "https://dc.lft.to/lastmile_qr_scan", "ios": "https://dc.lft.to/lastmile_qr_scan"}, "is_reserved": 0, "is_disabled": 0, "name": "99a209f9ca3a5c8ed5e1fdbee594f5a9", "bike_id": "99a209f9ca3a5c8ed5e1fdbee594f5a9", "fusion_lat": 0.0, "lon": -77.02554133333334, "type": "electric_scooter", "fusion_lon": 0.0, "lat": 38.89194966666667}, {"rental_uris": {"android": "https://dc.lft.to/lastmile_qr_scan", "ios": "https://dc.lft.to/lastmile_qr_scan"}, "is_reserved": 0, "is_disabled": 0, "name": "ac8e9eb82944e56fc882f3b4b2f122f6", "bike_id": "ac8e9eb82944e56fc882f3b4b2f122f6", "fusion_lat": 0.0, "lon": -77.036587, "type": "electric_scooter", "fusion_lon": 0.0, "lat": 38.9212665}, {"rental_uris": {"android": "https://dc.lft.to/lastmile_qr_scan", "ios": "https://dc.lft.to/lastmile_qr_scan"}, "is_reserved": 0, "is_disabled": 0, "name": "cff8263a704521fee661550137c0bca2", "bike_id": "cff8263a704521fee661550137c0bca2", "fusion_lat": 0.0, "lon": -77.02342316666666, "type": "electric_scooter", "fusion_lon": 0.0, "lat": 38.91692}, {"rental_uris": {"android": "https://dc.lft.to/lastmile_qr_scan", "ios": "https://dc.lft.to/lastmile_qr_scan"}, "is_reserved": 0, "is_disabled": 0, "name": "c63f1834d04e4681281184e24e3dfe41", "bike_id": "c63f1834d04e4681281184e24e3dfe41", "fusion_lat": 0.0, "lon": -77.09619633333334, "type": "electric_bike", "fusion_lon": 0.0, "lat": 38.878847}, {"rental_uris": {"android": "https://dc.lft.to/lastmile_qr_scan", "ios": "https://dc.lft.to/lastmile_qr_scan"}, "is_reserved": 0, "is_disabled": 0, "name": "ab7bc1234d9a4eaaaadc578fe11c35f4", "bike_id": "ab7bc1234d9a4eaaaadc578fe11c35f4", "fusion_lat": 0.0, "lon": -77.01359283333333, "type": "electric_scooter", "fusion_lon": 0.0, "lat": 38.887352166666666}, {"rental_uris": {"android": "https://dc.lft.to/lastmile_qr_scan", "ios": "https://dc.lft.to/lastmile_qr_scan"}, "is_reserved": 0, "is_disabled": 0, "name": "ae76f7fa89f775ba968f915033c66a36", "bike_id": "ae76f7fa89f775ba968f915033c66a36", "fusion_lat": 0.0, "lon": -76.98852833333333, "type": "electric_scooter", "fusion_lon": 0.0, "lat": 38.9002005}, {"rental_uris": {"android": "https://dc.lft.to/lastmile_qr_scan", "ios": "https://dc.lft.to/lastmile_qr_scan"}, "is_reserved": 0, "is_disabled": 0, "name": "063a301c4fe3797432f7539bc4a4862c", "bike_id": "063a301c4fe3797432f7539bc4a4862c", "fusion_lat": 0.0, "lon": -76.97957466666666, "type": "electric_bike", "fusion_lon": 0.0, "lat": 38.92037783333333}, {"rental_uris": {"android": "https://dc.lft.to/lastmile_qr_scan", "ios": "https://dc.lft.to/lastmile_qr_scan"}, "is_reserved": 0, "is_disabled": 0, "name": "26300ad30cd47522dc68e92b950861f2", "bike_id": "26300ad30cd47522dc68e92b950861f2", "fusion_lat": 0.0, "lon": -77.05182, "type": "electric_scooter", "fusion_lon": 0.0, "lat": 38.924243}, {"rental_uris": {"android": "https://dc.lft.to/lastmile_qr_scan", "ios": "https://dc.lft.to/lastmile_qr_scan"}, "is_reserved": 0, "is_disabled": 0, "name": "9d46ae354898ef38213006bcdcef22e3", "bike_id": "9d46ae354898ef38213006bcdcef22e3", "fusion_lat": 0.0, "lon": -77.02395033333333, "type": "electric_scooter", "fusion_lon": 0.0, "lat": 38.894247166666666}, {"rental_uris": {"android": "https://dc.lft.to/lastmile_qr_scan", "ios": "https://dc.lft.to/lastmile_qr_scan"}, "is_reserved": 0, "is_disabled": 0, "name": "010ecfbe2b90f0deff119edc87e2e91f", "bike_id": "010ecfbe2b90f0deff119edc87e2e91f", "fusion_lat": 0.0, "lon": -77.02587733333333, "type": "electric_scooter", "fusion_lon": 0.0, "lat": 38.920363}, {"rental_uris": {"android": "https://dc.lft.to/lastmile_qr_scan", "ios": "https://dc.lft.to/lastmile_qr_scan"}, "is_reserved": 0, "is_disabled": 0, "name": "43e791ff520a3602ed1cf5880e450ce9", "bike_id": "43e791ff520a3602ed1cf5880e450ce9", "fusion_lat": 0.0, "lon": -77.04576816666666, "type": "electric_scooter", "fusion_lon": 0.0, "lat": 38.913583}, {"rental_uris": {"android": "https://dc.lft.to/lastmile_qr_scan", "ios": "https://dc.lft.to/lastmile_qr_scan"}, "is_reserved": 0, "is_disabled": 0, "name": "265a6ae3fcd75edffccb3f33d9838e5c", "bike_id": "265a6ae3fcd75edffccb3f33d9838e5c", "fusion_lat": 0.0, "lon": -77.03323533333334, "type": "electric_scooter", "fusion_lon": 0.0, "lat": 38.9389155}, {"rental_uris": {"android": "https://dc.lft.to/lastmile_qr_scan", "ios": "https://dc.lft.to/lastmile_qr_scan"}, "is_reserved": 0, "is_disabled": 0, "name": "3de856b387d0fead9843e639dd32a952", "bike_id": "3de856b387d0fead9843e639dd32a952", "fusion_lat": 0.0, "lon": -76.947265, "type": "electric_bike", "fusion_lon": 0.0, "lat": 38.9838055}, {"rental_uris": {"android": "https://dc.lft.to/lastmile_qr_scan", "ios": "https://dc.lft.to/lastmile_qr_scan"}, "is_reserved": 0, "is_disabled": 0, "name": "fc935d2df208c96e676f1e4959889f3f", "bike_id": "fc935d2df208c96e676f1e4959889f3f", "fusion_lat": 0.0, "lon": -77.050482, "type": "electric_scooter", "fusion_lon": 0.0, "lat": 38.923547166666665}, {"rental_uris": {"android": "https://dc.lft.to/lastmile_qr_scan", "ios": "https://dc.lft.to/lastmile_qr_scan"}, "is_reserved": 0, "is_disabled": 0, "name": "c2c3f51a405532aa8ad4d9a50f29260c", "bike_id": "c2c3f51a405532aa8ad4d9a50f29260c", "fusion_lat": 0.0, "lon": -77.04517766666666, "type": "electric_scooter", "fusion_lon": 0.0, "lat": 38.92145716666667}, {"rental_uris": {"android": "https://dc.lft.to/lastmile_qr_scan", "ios": "https://dc.lft.to/lastmile_qr_scan"}, "is_reserved": 0, "is_disabled": 0, "name": "ee4ee880dc47766ed71d66826f226744", "bike_id": "ee4ee880dc47766ed71d66826f226744", "fusion_lat": 0.0, "lon": -77.02780383333334, "type": "electric_scooter", "fusion_lon": 0.0, "lat": 38.9621675}, {"rental_uris": {"android": "https://dc.lft.to/lastmile_qr_scan", "ios": "https://dc.lft.to/lastmile_qr_scan"}, "is_reserved": 0, "is_disabled": 0, "name": "a3c30ca7e9f9283f8acd80d9a86f7b60", "bike_id": "a3c30ca7e9f9283f8acd80d9a86f7b60", "fusion_lat": 0.0, "lon": -77.0390945, "type": "electric_scooter", "fusion_lon": 0.0, "lat": 38.9148245}, {"rental_uris": {"android": "https://dc.lft.to/lastmile_qr_scan", "ios": "https://dc.lft.to/lastmile_qr_scan"}, "is_reserved": 0, "is_disabled": 0, "name": "998ac59fb56d97d10c3dcea8233e1c4d", "bike_id": "998ac59fb56d97d10c3dcea8233e1c4d", "fusion_lat": 0.0, "lon": -76.93752433333333, "type": "electric_scooter", "fusion_lon": 0.0, "lat": 38.890309}, {"rental_uris": {"android": "https://dc.lft.to/lastmile_qr_scan", "ios": "https://dc.lft.to/lastmile_qr_scan"}, "is_reserved": 0, "is_disabled": 0, "name": "fc3179b3420fdb562d5dd503d6bdfdcb", "bike_id": "fc3179b3420fdb562d5dd503d6bdfdcb", "fusion_lat": 0.0, "lon": -77.09002916666667, "type": "electric_bike", "fusion_lon": 0.0, "lat": 38.909025666666665}, {"rental_uris": {"android": "https://dc.lft.to/lastmile_qr_scan", "ios": "https://dc.lft.to/lastmile_qr_scan"}, "is_reserved": 0, "is_disabled": 0, "name": "6d805b770e4def30208a7ec0553199cd", "bike_id": "6d805b770e4def30208a7ec0553199cd", "fusion_lat": 0.0, "lon": -76.99389566666666, "type": "electric_scooter", "fusion_lon": 0.0, "lat": 38.910053166666664}, {"rental_uris": {"android": "https://dc.lft.to/lastmile_qr_scan", "ios": "https://dc.lft.to/lastmile_qr_scan"}, "is_reserved": 0, "is_disabled": 0, "name": "d66a41df4f921856453c95f5ac9d94f5", "bike_id": "d66a41df4f921856453c95f5ac9d94f5", "fusion_lat": 0.0, "lon": -77.04441116666666, "type": "electric_scooter", "fusion_lon": 0.0, "lat": 38.92228}, {"rental_uris": {"android": "https://dc.lft.to/lastmile_qr_scan", "ios": "https://dc.lft.to/lastmile_qr_scan"}, "is_reserved": 0, "is_disabled": 0, "name": "abb0d0961c1f9aca30a95799ab58fac2", "bike_id": "abb0d0961c1f9aca30a95799ab58fac2", "fusion_lat": 0.0, "lon": -77.0225655, "type": "electric_bike", "fusion_lon": 0.0, "lat": 38.886350166666666}, {"rental_uris": {"android": "https://dc.lft.to/lastmile_qr_scan", "ios": "https://dc.lft.to/lastmile_qr_scan"}, "is_reserved": 0, "is_disabled": 0, "name": "2163ca8648210e3a461ac4482d388523", "bike_id": "2163ca8648210e3a461ac4482d388523", "fusion_lat": 0.0, "lon": -77.03856033333334, "type": "electric_scooter", "fusion_lon": 0.0, "lat": 38.919676833333334}, {"rental_uris": {"android": "https://dc.lft.to/lastmile_qr_scan", "ios": "https://dc.lft.to/lastmile_qr_scan"}, "is_reserved": 0, "is_disabled": 0, "name": "b553a6664d49d7020f3038112e1b19e4", "bike_id": "b553a6664d49d7020f3038112e1b19e4", "fusion_lat": 0.0, "lon": -77.0713605, "type": "electric_scooter", "fusion_lon": 0.0, "lat": 38.92017883333333}, {"rental_uris": {"android": "https://dc.lft.to/lastmile_qr_scan", "ios": "https://dc.lft.to/lastmile_qr_scan"}, "is_reserved": 0, "is_disabled": 0, "name": "97491a9dd4d5eebc68086ecd43227723", "bike_id": "97491a9dd4d5eebc68086ecd43227723", "fusion_lat": 0.0, "lon": -77.0258305, "type": "electric_scooter", "fusion_lon": 0.0, "lat": 38.8872885}, {"rental_uris": {"android": "https://dc.lft.to/lastmile_qr_scan", "ios": "https://dc.lft.to/lastmile_qr_scan"}, "is_reserved": 0, "is_disabled": 0, "name": "0d6ba79e36d110b6ea5441a6e5c86ad9", "bike_id": "0d6ba79e36d110b6ea5441a6e5c86ad9", "fusion_lat": 0.0, "lon": -77.02187683333334, "type": "electric_scooter", "fusion_lon": 0.0, "lat": 38.901857666666665}, {"rental_uris": {"android": "https://dc.lft.to/lastmile_qr_scan", "ios": "https://dc.lft.to/lastmile_qr_scan"}, "is_reserved": 0, "is_disabled": 0, "name": "2e5286e7f7c57d4025f188da3e12d51a", "bike_id": "2e5286e7f7c57d4025f188da3e12d51a", "fusion_lat": 0.0, "lon": -77.0311915, "type": "electric_scooter", "fusion_lon": 0.0, "lat": 38.91916166666667}, {"rental_uris": {"android": "https://dc.lft.to/lastmile_qr_scan", "ios": "https://dc.lft.to/lastmile_qr_scan"}, "is_reserved": 0, "is_disabled": 0, "name": "d3a4c7ef7622ab21af9c33d036940f4a", "bike_id": "d3a4c7ef7622ab21af9c33d036940f4a", "fusion_lat": 0.0, "lon": -77.05044833333334, "type": "electric_scooter", "fusion_lon": 0.0, "lat": 38.92360883333333}, {"rental_uris": {"android": "https://dc.lft.to/lastmile_qr_scan", "ios": "https://dc.lft.to/lastmile_qr_scan"}, "is_reserved": 0, "is_disabled": 0, "name": "4a03d87a0678a7ee64029cc1df42e559", "bike_id": "4a03d87a0678a7ee64029cc1df42e559", "fusion_lat": 0.0, "lon": -77.0191455, "type": "electric_scooter", "fusion_lon": 0.0, "lat": 38.923743333333334}, {"rental_uris": {"android": "https://dc.lft.to/lastmile_qr_scan", "ios": "https://dc.lft.to/lastmile_qr_scan"}, "is_reserved": 0, "is_disabled": 0, "name": "b9fcf0ffde9ccf8826134a49def33890", "bike_id": "b9fcf0ffde9ccf8826134a49def33890", "fusion_lat": 0.0, "lon": -77.0178225, "type": "electric_scooter", "fusion_lon": 0.0, "lat": 38.900571166666666}, {"rental_uris": {"android": "https://dc.lft.to/lastmile_qr_scan", "ios": "https://dc.lft.to/lastmile_qr_scan"}, "is_reserved": 0, "is_disabled": 0, "name": "e530491769209c26f6484b71e91961d4", "bike_id": "e530491769209c26f6484b71e91961d4", "fusion_lat": 0.0, "lon": -77.02407783333334, "type": "electric_scooter", "fusion_lon": 0.0, "lat": 38.9018505}, {"rental_uris": {"android": "https://dc.lft.to/lastmile_qr_scan", "ios": "https://dc.lft.to/lastmile_qr_scan"}, "is_reserved": 0, "is_disabled": 0, "name": "4c18e8b3c8b229d7432b80a4988854d0", "bike_id": "4c18e8b3c8b229d7432b80a4988854d0", "fusion_lat": 0.0, "lon": -77.04083883333334, "type": "electric_bike", "fusion_lon": 0.0, "lat": 38.830664}, {"rental_uris": {"android": "https://dc.lft.to/lastmile_qr_scan", "ios": "https://dc.lft.to/lastmile_qr_scan"}, "is_reserved": 0, "is_disabled": 0, "name": "e9344a236ce720bd22b0e60bf8a067d9", "bike_id": "e9344a236ce720bd22b0e60bf8a067d9", "fusion_lat": 0.0, "lon": -77.0217405, "type": "electric_scooter", "fusion_lon": 0.0, "lat": 38.8974185}, {"rental_uris": {"android": "https://dc.lft.to/lastmile_qr_scan", "ios": "https://dc.lft.to/lastmile_qr_scan"}, "is_reserved": 0, "is_disabled": 0, "name": "63f278480c2f00a2cb5be899010a4916", "bike_id": "63f278480c2f00a2cb5be899010a4916", "fusion_lat": 0.0, "lon": -76.9937575, "type": "electric_scooter", "fusion_lon": 0.0, "lat": 38.9229475}, {"rental_uris": {"android": "https://dc.lft.to/lastmile_qr_scan", "ios": "https://dc.lft.to/lastmile_qr_scan"}, "is_reserved": 0, "is_disabled": 0, "name": "20257bdb34ded3f51a6017c7b8111f6a", "bike_id": "20257bdb34ded3f51a6017c7b8111f6a", "fusion_lat": 0.0, "lon": -77.0345255, "type": "electric_scooter", "fusion_lon": 0.0, "lat": 38.902624}, {"rental_uris": {"android": "https://dc.lft.to/lastmile_qr_scan", "ios": "https://dc.lft.to/lastmile_qr_scan"}, "is_reserved": 0, "is_disabled": 0, "name": "2555b7a24f32dc836294be7ba9f7d354", "bike_id": "2555b7a24f32dc836294be7ba9f7d354", "fusion_lat": 0.0, "lon": -77.02489433333334, "type": "electric_scooter", "fusion_lon": 0.0, "lat": 38.901758}, {"rental_uris": {"android": "https://dc.lft.to/lastmile_qr_scan", "ios": "https://dc.lft.to/lastmile_qr_scan"}, "is_reserved": 0, "is_disabled": 0, "name": "aea5af5484964d22d3d0711c1d55f6b8", "bike_id": "aea5af5484964d22d3d0711c1d55f6b8", "fusion_lat": 0.0, "lon": -77.0255315, "type": "electric_scooter", "fusion_lon": 0.0, "lat": 38.891930333333335}, {"rental_uris": {"android": "https://dc.lft.to/lastmile_qr_scan", "ios": "https://dc.lft.to/lastmile_qr_scan"}, "is_reserved": 0, "is_disabled": 0, "name": "d3f38485306e2bbe3e9fc1b90df0a325", "bike_id": "d3f38485306e2bbe3e9fc1b90df0a325", "fusion_lat": 0.0, "lon": -76.98720683333333, "type": "electric_scooter", "fusion_lon": 0.0, "lat": 38.903734166666666}, {"rental_uris": {"android": "https://dc.lft.to/lastmile_qr_scan", "ios": "https://dc.lft.to/lastmile_qr_scan"}, "is_reserved": 0, "is_disabled": 0, "name": "e60d417c0e27970edf0f16924a77ace0", "bike_id": "e60d417c0e27970edf0f16924a77ace0", "fusion_lat": 0.0, "lon": -77.04883783333334, "type": "electric_scooter", "fusion_lon": 0.0, "lat": 38.897352}, {"rental_uris": {"android": "https://dc.lft.to/lastmile_qr_scan", "ios": "https://dc.lft.to/lastmile_qr_scan"}, "is_reserved": 0, "is_disabled": 0, "name": "01442d22eb8e5920023777b7ae236cc0", "bike_id": "01442d22eb8e5920023777b7ae236cc0", "fusion_lat": 0.0, "lon": -77.03735116666667, "type": "electric_scooter", "fusion_lon": 0.0, "lat": 38.9260065}, {"rental_uris": {"android": "https://dc.lft.to/lastmile_qr_scan", "ios": "https://dc.lft.to/lastmile_qr_scan"}, "is_reserved": 0, "is_disabled": 0, "name": "919c2352a62bb5d2645c24115caf0bea", "bike_id": "919c2352a62bb5d2645c24115caf0bea", "fusion_lat": 0.0, "lon": -77.04338616666666, "type": "electric_scooter", "fusion_lon": 0.0, "lat": 38.898080666666665}, {"rental_uris": {"android": "https://dc.lft.to/lastmile_qr_scan", "ios": "https://dc.lft.to/lastmile_qr_scan"}, "is_reserved": 0, "is_disabled": 0, "name": "bd24279d49727d0c8c6dee6c21c2a9c2", "bike_id": "bd24279d49727d0c8c6dee6c21c2a9c2", "fusion_lat": 0.0, "lon": -77.02954866666667, "type": "electric_scooter", "fusion_lon": 0.0, "lat": 38.896066166666664}, {"rental_uris": {"android": "https://dc.lft.to/lastmile_qr_scan", "ios": "https://dc.lft.to/lastmile_qr_scan"}, "is_reserved": 0, "is_disabled": 0, "name": "d89977279a8ab4f466d0f830d5c4c50e", "bike_id": "d89977279a8ab4f466d0f830d5c4c50e", "fusion_lat": 0.0, "lon": -77.04405983333334, "type": "electric_scooter", "fusion_lon": 0.0, "lat": 38.91658316666667}, {"rental_uris": {"android": "https://dc.lft.to/lastmile_qr_scan", "ios": "https://dc.lft.to/lastmile_qr_scan"}, "is_reserved": 0, "is_disabled": 0, "name": "755d54d16fdafe6160bb743dd99dc5a1", "bike_id": "755d54d16fdafe6160bb743dd99dc5a1", "fusion_lat": 0.0, "lon": -76.99880316666666, "type": "electric_bike", "fusion_lon": 0.0, "lat": 38.942851}, {"rental_uris": {"android": "https://dc.lft.to/lastmile_qr_scan", "ios": "https://dc.lft.to/lastmile_qr_scan"}, "is_reserved": 0, "is_disabled": 0, "name": "73b5242278f26fd8ed0ed535bb87ef3e", "bike_id": "73b5242278f26fd8ed0ed535bb87ef3e", "fusion_lat": 0.0, "lon": -77.02385616666666, "type": "electric_scooter", "fusion_lon": 0.0, "lat": 38.89195566666667}, {"rental_uris": {"android": "https://dc.lft.to/lastmile_qr_scan", "ios": "https://dc.lft.to/lastmile_qr_scan"}, "is_reserved": 0, "is_disabled": 0, "name": "69beaeaac0246d4b2b4b8d4915a7a835", "bike_id": "69beaeaac0246d4b2b4b8d4915a7a835", "fusion_lat": 0.0, "lon": -77.0454335, "type": "electric_scooter", "fusion_lon": 0.0, "lat": 38.901435}, {"rental_uris": {"android": "https://dc.lft.to/lastmile_qr_scan", "ios": "https://dc.lft.to/lastmile_qr_scan"}, "is_reserved": 0, "is_disabled": 0, "name": "ba537e5b7ac8d74ed6c22cb1e7decb02", "bike_id": "ba537e5b7ac8d74ed6c22cb1e7decb02", "fusion_lat": 0.0, "lon": -77.05918233333334, "type": "electric_scooter", "fusion_lon": 0.0, "lat": 38.902247}, {"rental_uris": {"android": "https://dc.lft.to/lastmile_qr_scan", "ios": "https://dc.lft.to/lastmile_qr_scan"}, "is_reserved": 0, "is_disabled": 0, "name": "be37d5684b9aaf52af15f85e0688f9cc", "bike_id": "be37d5684b9aaf52af15f85e0688f9cc", "fusion_lat": 0.0, "lon": -77.0228155, "type": "electric_scooter", "fusion_lon": 0.0, "lat": 38.898377833333335}, {"rental_uris": {"android": "https://dc.lft.to/lastmile_qr_scan", "ios": "https://dc.lft.to/lastmile_qr_scan"}, "is_reserved": 0, "is_disabled": 0, "name": "d03a000fb49396316f872d44993d7ed4", "bike_id": "d03a000fb49396316f872d44993d7ed4", "fusion_lat": 0.0, "lon": -77.02194, "type": "electric_scooter", "fusion_lon": 0.0, "lat": 38.89522683333333}, {"rental_uris": {"android": "https://dc.lft.to/lastmile_qr_scan", "ios": "https://dc.lft.to/lastmile_qr_scan"}, "is_reserved": 0, "is_disabled": 0, "name": "b30fb0f19526e5218c3745630b32781a", "bike_id": "b30fb0f19526e5218c3745630b32781a", "fusion_lat": 0.0, "lon": -76.94581416666666, "type": "electric_scooter", "fusion_lon": 0.0, "lat": 38.8992545}, {"rental_uris": {"android": "https://dc.lft.to/lastmile_qr_scan", "ios": "https://dc.lft.to/lastmile_qr_scan"}, "is_reserved": 0, "is_disabled": 0, "name": "2b76e289cf9ec7d7814a9f774e030fee", "bike_id": "2b76e289cf9ec7d7814a9f774e030fee", "fusion_lat": 0.0, "lon": -77.12740716666667, "type": "electric_bike", "fusion_lon": 0.0, "lat": 38.895634333333334}, {"rental_uris": {"android": "https://dc.lft.to/lastmile_qr_scan", "ios": "https://dc.lft.to/lastmile_qr_scan"}, "is_reserved": 0, "is_disabled": 0, "name": "c9e4780bf228162c09d17d22aea15139", "bike_id": "c9e4780bf228162c09d17d22aea15139", "fusion_lat": 0.0, "lon": -77.00207883333333, "type": "electric_scooter", "fusion_lon": 0.0, "lat": 38.90476983333333}, {"rental_uris": {"android": "https://dc.lft.to/lastmile_qr_scan", "ios": "https://dc.lft.to/lastmile_qr_scan"}, "is_reserved": 0, "is_disabled": 0, "name": "f1ddc9d393f2eb3ecaab57aed9c5321f", "bike_id": "f1ddc9d393f2eb3ecaab57aed9c5321f", "fusion_lat": 0.0, "lon": -77.03885666666666, "type": "electric_bike", "fusion_lon": 0.0, "lat": 39.0262305}, {"rental_uris": {"android": "https://dc.lft.to/lastmile_qr_scan", "ios": "https://dc.lft.to/lastmile_qr_scan"}, "is_reserved": 0, "is_disabled": 0, "name": "8d38305ad1f51760dfe90de99ce4867e", "bike_id": "8d38305ad1f51760dfe90de99ce4867e", "fusion_lat": 0.0, "lon": -77.0293035, "type": "electric_scooter", "fusion_lon": 0.0, "lat": 38.89993616666667}, {"rental_uris": {"android": "https://dc.lft.to/lastmile_qr_scan", "ios": "https://dc.lft.to/lastmile_qr_scan"}, "is_reserved": 0, "is_disabled": 0, "name": "b7505bf8985f145f4353eb1623ac43b0", "bike_id": "b7505bf8985f145f4353eb1623ac43b0", "fusion_lat": 0.0, "lon": -77.02785316666667, "type": "electric_scooter", "fusion_lon": 0.0, "lat": 38.929578666666664}, {"rental_uris": {"android": "https://dc.lft.to/lastmile_qr_scan", "ios": "https://dc.lft.to/lastmile_qr_scan"}, "is_reserved": 0, "is_disabled": 0, "name": "9314379f400aae0cd5017eeb6b48db09", "bike_id": "9314379f400aae0cd5017eeb6b48db09", "fusion_lat": 0.0, "lon": -77.0446755, "type": "electric_scooter", "fusion_lon": 0.0, "lat": 38.902763}, {"rental_uris": {"android": "https://dc.lft.to/lastmile_qr_scan", "ios": "https://dc.lft.to/lastmile_qr_scan"}, "is_reserved": 0, "is_disabled": 0, "name": "6c2eb42ff83ca9a6c6f8c10076d90894", "bike_id": "6c2eb42ff83ca9a6c6f8c10076d90894", "fusion_lat": 0.0, "lon": -77.03444933333333, "type": "electric_scooter", "fusion_lon": 0.0, "lat": 38.918331333333334}, {"rental_uris": {"android": "https://dc.lft.to/lastmile_qr_scan", "ios": "https://dc.lft.to/lastmile_qr_scan"}, "is_reserved": 0, "is_disabled": 0, "name": "8d9f22d8ce691b3933d5befda0886282", "bike_id": "8d9f22d8ce691b3933d5befda0886282", "fusion_lat": 0.0, "lon": -77.01957916666667, "type": "electric_scooter", "fusion_lon": 0.0, "lat": 38.92360516666667}, {"rental_uris": {"android": "https://dc.lft.to/lastmile_qr_scan", "ios": "https://dc.lft.to/lastmile_qr_scan"}, "is_reserved": 0, "is_disabled": 0, "name": "9b39f039ff129858a4da501aa297d01e", "bike_id": "9b39f039ff129858a4da501aa297d01e", "fusion_lat": 0.0, "lon": -76.99477233333333, "type": "electric_scooter", "fusion_lon": 0.0, "lat": 38.86232233333333}, {"rental_uris": {"android": "https://dc.lft.to/lastmile_qr_scan", "ios": "https://dc.lft.to/lastmile_qr_scan"}, "is_reserved": 0, "is_disabled": 0, "name": "943a8909c396489695a32c473bc0e80a", "bike_id": "943a8909c396489695a32c473bc0e80a", "fusion_lat": 0.0, "lon": -77.03352216666667, "type": "electric_scooter", "fusion_lon": 0.0, "lat": 38.902648}, {"rental_uris": {"android": "https://dc.lft.to/lastmile_qr_scan", "ios": "https://dc.lft.to/lastmile_qr_scan"}, "is_reserved": 0, "is_disabled": 0, "name": "f134975c33f19c5a88b1aaeddd5335c9", "bike_id": "f134975c33f19c5a88b1aaeddd5335c9", "fusion_lat": 0.0, "lon": -77.02697733333333, "type": "electric_scooter", "fusion_lon": 0.0, "lat": 38.89884683333333}, {"rental_uris": {"android": "https://dc.lft.to/lastmile_qr_scan", "ios": "https://dc.lft.to/lastmile_qr_scan"}, "is_reserved": 0, "is_disabled": 0, "name": "b7875f90ef0bc8138eea99a67dfbf88b", "bike_id": "b7875f90ef0bc8138eea99a67dfbf88b", "fusion_lat": 0.0, "lon": -77.12934766666666, "type": "electric_bike", "fusion_lon": 0.0, "lat": 38.865800166666666}, {"rental_uris": {"android": "https://dc.lft.to/lastmile_qr_scan", "ios": "https://dc.lft.to/lastmile_qr_scan"}, "is_reserved": 0, "is_disabled": 0, "name": "a87555b23a7d6936ee585e20e6fd0464", "bike_id": "a87555b23a7d6936ee585e20e6fd0464", "fusion_lat": 0.0, "lon": -77.04620183333333, "type": "electric_scooter", "fusion_lon": 0.0, "lat": 38.893525833333335}, {"rental_uris": {"android": "https://dc.lft.to/lastmile_qr_scan", "ios": "https://dc.lft.to/lastmile_qr_scan"}, "is_reserved": 0, "is_disabled": 0, "name": "077790f8003504e22345ac0c350d6a50", "bike_id": "077790f8003504e22345ac0c350d6a50", "fusion_lat": 0.0, "lon": -76.92967616666667, "type": "electric_scooter", "fusion_lon": 0.0, "lat": 38.8963}, {"rental_uris": {"android": "https://dc.lft.to/lastmile_qr_scan", "ios": "https://dc.lft.to/lastmile_qr_scan"}, "is_reserved": 0, "is_disabled": 0, "name": "796dd3a63e7fc72ddf076049f73b8469", "bike_id": "796dd3a63e7fc72ddf076049f73b8469", "fusion_lat": 0.0, "lon": -77.00306383333333, "type": "electric_scooter", "fusion_lon": 0.0, "lat": 38.878548}, {"rental_uris": {"android": "https://dc.lft.to/lastmile_qr_scan", "ios": "https://dc.lft.to/lastmile_qr_scan"}, "is_reserved": 0, "is_disabled": 0, "name": "5151c0fc41a2d576417a6fc17aa9b9c0", "bike_id": "5151c0fc41a2d576417a6fc17aa9b9c0", "fusion_lat": 0.0, "lon": -77.01613166666667, "type": "electric_scooter", "fusion_lon": 0.0, "lat": 38.90301566666667}, {"rental_uris": {"android": "https://dc.lft.to/lastmile_qr_scan", "ios": "https://dc.lft.to/lastmile_qr_scan"}, "is_reserved": 0, "is_disabled": 0, "name": "8a299eda18b6f17b6c4621b18380d8a5", "bike_id": "8a299eda18b6f17b6c4621b18380d8a5", "fusion_lat": 0.0, "lon": -77.06236783333334, "type": "electric_scooter", "fusion_lon": 0.0, "lat": 38.91152016666667}, {"rental_uris": {"android": "https://dc.lft.to/lastmile_qr_scan", "ios": "https://dc.lft.to/lastmile_qr_scan"}, "is_reserved": 0, "is_disabled": 0, "name": "e6a987155ebad7a55525455f34f6033d", "bike_id": "e6a987155ebad7a55525455f34f6033d", "fusion_lat": 0.0, "lon": -76.99174716666667, "type": "electric_scooter", "fusion_lon": 0.0, "lat": 38.90860933333333}, {"rental_uris": {"android": "https://dc.lft.to/lastmile_qr_scan", "ios": "https://dc.lft.to/lastmile_qr_scan"}, "is_reserved": 0, "is_disabled": 0, "name": "844151ef2856e225dc16fca6ec3903fc", "bike_id": "844151ef2856e225dc16fca6ec3903fc", "fusion_lat": 0.0, "lon": -77.02818716666667, "type": "electric_scooter", "fusion_lon": 0.0, "lat": 38.9313095}, {"rental_uris": {"android": "https://dc.lft.to/lastmile_qr_scan", "ios": "https://dc.lft.to/lastmile_qr_scan"}, "is_reserved": 0, "is_disabled": 0, "name": "fbe8ffccac66634b654b312347e56622", "bike_id": "fbe8ffccac66634b654b312347e56622", "fusion_lat": 0.0, "lon": -77.033088, "type": "electric_scooter", "fusion_lon": 0.0, "lat": 38.927554666666666}, {"rental_uris": {"android": "https://dc.lft.to/lastmile_qr_scan", "ios": "https://dc.lft.to/lastmile_qr_scan"}, "is_reserved": 0, "is_disabled": 0, "name": "50f8bb07718f1c56f960314de709e0b1", "bike_id": "50f8bb07718f1c56f960314de709e0b1", "fusion_lat": 0.0, "lon": -77.0450615, "type": "electric_scooter", "fusion_lon": 0.0, "lat": 38.900274333333336}, {"rental_uris": {"android": "https://dc.lft.to/lastmile_qr_scan", "ios": "https://dc.lft.to/lastmile_qr_scan"}, "is_reserved": 0, "is_disabled": 0, "name": "bf1d13d5e17e1d2f6fee8c6e30e332e7", "bike_id": "bf1d13d5e17e1d2f6fee8c6e30e332e7", "fusion_lat": 0.0, "lon": -77.046874, "type": "electric_scooter", "fusion_lon": 0.0, "lat": 38.899625666666665}, {"rental_uris": {"android": "https://dc.lft.to/lastmile_qr_scan", "ios": "https://dc.lft.to/lastmile_qr_scan"}, "is_reserved": 0, "is_disabled": 0, "name": "b3d17d9bc3f2a0bd0e82e8627a51a85b", "bike_id": "b3d17d9bc3f2a0bd0e82e8627a51a85b", "fusion_lat": 0.0, "lon": -76.9991985, "type": "electric_bike", "fusion_lon": 0.0, "lat": 38.864481}, {"rental_uris": {"android": "https://dc.lft.to/lastmile_qr_scan", "ios": "https://dc.lft.to/lastmile_qr_scan"}, "is_reserved": 0, "is_disabled": 0, "name": "c9d3a2d879194274f0384b8dcf93eb69", "bike_id": "c9d3a2d879194274f0384b8dcf93eb69", "fusion_lat": 0.0, "lon": -77.01964566666666, "type": "electric_scooter", "fusion_lon": 0.0, "lat": 38.93424133333333}, {"rental_uris": {"android": "https://dc.lft.to/lastmile_qr_scan", "ios": "https://dc.lft.to/lastmile_qr_scan"}, "is_reserved": 0, "is_disabled": 0, "name": "8c0683d8dfc1ea4aad42e8b8d0185e78", "bike_id": "8c0683d8dfc1ea4aad42e8b8d0185e78", "fusion_lat": 0.0, "lon": -77.004213, "type": "electric_bike", "fusion_lon": 0.0, "lat": 38.98525266666667}, {"rental_uris": {"android": "https://dc.lft.to/lastmile_qr_scan", "ios": "https://dc.lft.to/lastmile_qr_scan"}, "is_reserved": 0, "is_disabled": 0, "name": "997f990806a631d69782a03b310e2faa", "bike_id": "997f990806a631d69782a03b310e2faa", "fusion_lat": 0.0, "lon": -77.01759316666667, "type": "electric_scooter", "fusion_lon": 0.0, "lat": 38.9025165}, {"rental_uris": {"android": "https://dc.lft.to/lastmile_qr_scan", "ios": "https://dc.lft.to/lastmile_qr_scan"}, "is_reserved": 0, "is_disabled": 0, "name": "d3d3df8c8e2e8152392b5be1416a10f5", "bike_id": "d3d3df8c8e2e8152392b5be1416a10f5", "fusion_lat": 0.0, "lon": -77.01948916666667, "type": "electric_scooter", "fusion_lon": 0.0, "lat": 38.92414866666667}, {"rental_uris": {"android": "https://dc.lft.to/lastmile_qr_scan", "ios": "https://dc.lft.to/lastmile_qr_scan"},