{"data": {"bikes": [{"fusion_lon": 0.0, "bike_id": "331f441e57a56a6b0dbf5e5420cee201", "name": "331f441e57a56a6b0dbf5e5420cee201", "rental_uris": {"android": "https://dc.lft.to/lastmile_qr_scan", "ios": "https://dc.lft.to/lastmile_qr_scan"}, "lon": -77.02001683333333, "fusion_lat": 0.0, "is_disabled": 0, "is_reserved": 0, "lat": 38.915719833333334, "type": "electric_scooter"}, {"fusion_lon": 0.0, "bike_id": "632537168a628d4c5730af3951a2a871", "name": "632537168a628d4c5730af3951a2a871", "rental_uris": {"android": "https://dc.lft.to/lastmile_qr_scan", "ios": "https://dc.lft.to/lastmile_qr_scan"}, "lon": -77.03843166666667, "fusion_lat": 0.0, "is_disabled": 0, "is_reserved": 0, "lat": 38.906819, "type": "electric_scooter"}, {"fusion_lon": 0.0, "bike_id": "82390d170d557984b87377a4c048d353", "name": "82390d170d557984b87377a4c048d353", "rental_uris": {"android": "https://dc.lft.to/lastmile_qr_scan", "ios": "https://dc.lft.to/lastmile_qr_scan"}, "lon": -77.0503285, "fusion_lat": 0.0, "is_disabled": 0, "is_reserved": 0, "lat": 38.892432, "type": "electric_scooter"}, {"fusion_lon": 0.0, "bike_id": "ea11f2acc5c00b2464734ac0530028c2", "name": "ea11f2acc5c00b2464734ac0530028c2", "rental_uris": {"android": "https://dc.lft.to/lastmile_qr_scan", "ios": "https://dc.lft.to/lastmile_qr_scan"}, "lon": -77.0583575, "fusion_lat": 0.0, "is_disabled": 0, "is_reserved": 0, "lat": 38.9305745, "type": "electric_scooter"}, {"fusion_lon": 0.0, "bike_id": "f85fa2ff4fdec0130ff9e42958b2a106", "name": "f85fa2ff4fdec0130ff9e42958b2a106", "rental_uris": {"android": "https://dc.lft.to/lastmile_qr_scan", "ios": "https://dc.lft.to/lastmile_qr_scan"}, "lon": -77.02578433333333, "fusion_lat": 0.0, "is_disabled": 0, "is_reserved": 0, "lat": 38.92048033333333, "type": "electric_scooter"}, {"fusion_lon": 0.0, "bike_id": "68da576d707ce6a0872666496580a238", "name": "68da576d707ce6a0872666496580a238", "rental_uris": {"android": "https://dc.lft.to/lastmile_qr_scan", "ios": "https://dc.lft.to/lastmile_qr_scan"}, "lon": -77.03329633333334, "fusion_lat": 0.0, "is_disabled": 0, "is_reserved": 0, "lat": 38.91408216666667, "type": "electric_scooter"}, {"fusion_lon": 0.0, "bike_id": "d215b3dc45f99be1132725afd37fe185", "name": "d215b3dc45f99be1132725afd37fe185", "rental_uris": {"android": "https://dc.lft.to/lastmile_qr_scan", "ios": "https://dc.lft.to/lastmile_qr_scan"}, "lon": -77.03633883333333, "fusion_lat": 0.0, "is_disabled": 0, "is_reserved": 0, "lat": 38.93936033333333, "type": "electric_scooter"}, {"fusion_lon": 0.0, "bike_id": "4708f70849f177e1e6c5a308eef31e68", "name": "4708f70849f177e1e6c5a308eef31e68", "rental_uris": {"android": "https://dc.lft.to/lastmile_qr_scan", "ios": "https://dc.lft.to/lastmile_qr_scan"}, "lon": -77.01660566666666, "fusion_lat": 0.0, "is_disabled": 0, "is_reserved": 0, "lat": 38.9195235, "type": "electric_scooter"}, {"fusion_lon": 0.0, "bike_id": "d9a21b051c22d95c5cb496e61b9cee18", "name": "d9a21b051c22d95c5cb496e61b9cee18", "rental_uris": {"android": "https://dc.lft.to/lastmile_qr_scan", "ios": "https://dc.lft.to/lastmile_qr_scan"}, "lon": -76.94037883333333, "fusion_lat": 0.0, "is_disabled": 0, "is_reserved": 0, "lat": 38.955913333333335, "type": "electric_bike"}, {"fusion_lon": 0.0, "bike_id": "d0b335d038cdd086f892314e823e3c87", "name": "d0b335d038cdd086f892314e823e3c87", "rental_uris": {"android": "https://dc.lft.to/lastmile_qr_scan", "ios": "https://dc.lft.to/lastmile_qr_scan"}, "lon": -77.0694855, "fusion_lat": 0.0, "is_disabled": 0, "is_reserved": 0, "lat": 38.836309166666666, "type": "electric_bike"}, {"fusion_lon": 0.0, "bike_id": "0556039c072f7c5f337af2a54cd571fa", "name": "0556039c072f7c5f337af2a54cd571fa", "rental_uris": {"android": "https://dc.lft.to/lastmile_qr_scan", "ios": "https://dc.lft.to/lastmile_qr_scan"}, "lon": -77.033422, "fusion_lat": 0.0, "is_disabled": 0, "is_reserved": 0, "lat": 38.892245, "type": "electric_scooter"}, {"fusion_lon": 0.0, "bike_id": "ce8ca558ab986b556918c3f02f3360ca", "name": "ce8ca558ab986b556918c3f02f3360ca", "rental_uris": {"android": "https://dc.lft.to/lastmile_qr_scan", "ios": "https://dc.lft.to/lastmile_qr_scan"}, "lon": -76.97447966666667, "fusion_lat": 0.0, "is_disabled": 0, "is_reserved": 0, "lat": 38.9026255, "type": "electric_scooter"}, {"fusion_lon": 0.0, "bike_id": "0542f8f40635735f92243fa7e5167083", "name": "0542f8f40635735f92243fa7e5167083", "rental_uris": {"android": "https://dc.lft.to/lastmile_qr_scan", "ios": "https://dc.lft.to/lastmile_qr_scan"}, "lon": -77.04335366666666, "fusion_lat": 0.0, "is_disabled": 0, "is_reserved": 0, "lat": 38.901453333333336, "type": "electric_scooter"}, {"fusion_lon": 0.0, "bike_id": "ce7649dc5d67123a063629e6229fafc5", "name": "ce7649dc5d67123a063629e6229fafc5", "rental_uris": {"android": "https://dc.lft.to/lastmile_qr_scan", "ios": "https://dc.lft.to/lastmile_qr_scan"}, "lon": -77.02520316666667, "fusion_lat": 0.0, "is_disabled": 0, "is_reserved": 0, "lat": 38.897566833333336, "type": "electric_scooter"}, {"fusion_lon": 0.0, "bike_id": "c870cd3429e7d92b1818a32ed01c66ae", "name": "c870cd3429e7d92b1818a32ed01c66ae", "rental_uris": {"android": "https://dc.lft.to/lastmile_qr_scan", "ios": "https://dc.lft.to/lastmile_qr_scan"}, "lon": -77.04246116666667, "fusion_lat": 0.0, "is_disabled": 0, "is_reserved": 0, "lat": 38.9076645, "type": "electric_scooter"}, {"fusion_lon": 0.0, "bike_id": "b4f5166e98676cbfad29f7b45981b098", "name": "b4f5166e98676cbfad29f7b45981b098", "rental_uris": {"android": "https://dc.lft.to/lastmile_qr_scan", "ios": "https://dc.lft.to/lastmile_qr_scan"}, "lon": -77.01986, "fusion_lat": 0.0, "is_disabled": 0, "is_reserved": 0, "lat": 38.960294166666664, "type": "electric_scooter"}, {"fusion_lon": 0.0, "bike_id": "9a120a519647287d813e22659de6ee26", "name": "9a120a519647287d813e22659de6ee26", "rental_uris": {"android": "https://dc.lft.to/lastmile_qr_scan", "ios": "https://dc.lft.to/lastmile_qr_scan"}, "lon": -77.035451, "fusion_lat": 0.0, "is_disabled": 0, "is_reserved": 0, "lat": 38.9183385, "type": "electric_scooter"}, {"fusion_lon": 0.0, "bike_id": "62da396559cf3f0593a972f539c92631", "name": "62da396559cf3f0593a972f539c92631", "rental_uris": {"android": "https://dc.lft.to/lastmile_qr_scan", "ios": "https://dc.lft.to/lastmile_qr_scan"}, "lon": -77.04652216666666, "fusion_lat": 0.0, "is_disabled": 0, "is_reserved": 0, "lat": 38.89828516666667, "type": "electric_scooter"}, {"fusion_lon": 0.0, "bike_id": "8e746970b43daa71e5f83041f63b387d", "name": "8e746970b43daa71e5f83041f63b387d", "rental_uris": {"android": "https://dc.lft.to/lastmile_qr_scan", "ios": "https://dc.lft.to/lastmile_qr_scan"}, "lon": -76.99452883333333, "fusion_lat": 0.0, "is_disabled": 0, "is_reserved": 0, "lat": 38.90994116666667, "type": "electric_scooter"}, {"fusion_lon": 0.0, "bike_id": "218c375e21c5196acf5d9b05c75d9e9c", "name": "218c375e21c5196acf5d9b05c75d9e9c", "rental_uris": {"android": "https://dc.lft.to/lastmile_qr_scan", "ios": "https://dc.lft.to/lastmile_qr_scan"}, "lon": -77.05116066666666, "fusion_lat": 0.0, "is_disabled": 0, "is_reserved": 0, "lat": 38.813308166666665, "type": "electric_bike"}, {"fusion_lon": 0.0, "bike_id": "75d8fae340825ef8bf4d6e1957161994", "name": "75d8fae340825ef8bf4d6e1957161994", "rental_uris": {"android": "https://dc.lft.to/lastmile_qr_scan", "ios": "https://dc.lft.to/lastmile_qr_scan"}, "lon": -77.02476916666667, "fusion_lat": 0.0, "is_disabled": 0, "is_reserved": 0, "lat": 38.91874966666666, "type": "electric_scooter"}, {"fusion_lon": 0.0, "bike_id": "793ca2cf48cb92136d51f92a132d2b8f", "name": "793ca2cf48cb92136d51f92a132d2b8f", "rental_uris": {"android": "https://dc.lft.to/lastmile_qr_scan", "ios": "https://dc.lft.to/lastmile_qr_scan"}, "lon": -77.01999966666666, "fusion_lat": 0.0, "is_disabled": 0, "is_reserved": 0, "lat": 38.91049616666667, "type": "electric_scooter"}, {"fusion_lon": 0.0, "bike_id": "cef3a283f9ab4fae0b6c338a19af860d", "name": "cef3a283f9ab4fae0b6c338a19af860d", "rental_uris": {"android": "https://dc.lft.to/lastmile_qr_scan", "ios": "https://dc.lft.to/lastmile_qr_scan"}, "lon": -77.02436816666666, "fusion_lat": 0.0, "is_disabled": 0, "is_reserved": 0, "lat": 38.94199966666667, "type": "electric_scooter"}, {"fusion_lon": 0.0, "bike_id": "2361e2e33c2c6af2fe1716075cce445d", "name": "2361e2e33c2c6af2fe1716075cce445d", "rental_uris": {"android": "https://dc.lft.to/lastmile_qr_scan", "ios": "https://dc.lft.to/lastmile_qr_scan"}, "lon": -77.02240566666667, "fusion_lat": 0.0, "is_disabled": 0, "is_reserved": 0, "lat": 38.92242016666667, "type": "electric_scooter"}, {"fusion_lon": 0.0, "bike_id": "4ff0e3f7d23759ed6bb1f576801d7698", "name": "4ff0e3f7d23759ed6bb1f576801d7698", "rental_uris": {"android": "https://dc.lft.to/lastmile_qr_scan", "ios": "https://dc.lft.to/lastmile_qr_scan"}, "lon": -76.99191450000001, "fusion_lat": 0.0, "is_disabled": 0, "is_reserved": 0, "lat": 38.85983983333333, "type": "electric_scooter"}, {"fusion_lon": 0.0, "bike_id": "0d86c228dacc4dc182d07d924ff2f79a", "name": "0d86c228dacc4dc182d07d924ff2f79a", "rental_uris": {"android": "https://dc.lft.to/lastmile_qr_scan", "ios": "https://dc.lft.to/lastmile_qr_scan"}, "lon": -77.020419, "fusion_lat": 0.0, "is_disabled": 0, "is_reserved": 0, "lat": 38.9155915, "type": "electric_scooter"}, {"fusion_lon": 0.0, "bike_id": "96f7c722e5f4da8549551a77b7afcaa1", "name": "96f7c722e5f4da8549551a77b7afcaa1", "rental_uris": {"android": "https://dc.lft.to/lastmile_qr_scan", "ios": "https://dc.lft.to/lastmile_qr_scan"}, "lon": -77.03327166666666, "fusion_lat": 0.0, "is_disabled": 0, "is_reserved": 0, "lat": 38.90834983333333, "type": "electric_scooter"}, {"fusion_lon": 0.0, "bike_id": "98dbc17b2974caf04aa251cb51707282", "name": "98dbc17b2974caf04aa251cb51707282", "rental_uris": {"android": "https://dc.lft.to/lastmile_qr_scan", "ios": "https://dc.lft.to/lastmile_qr_scan"}, "lon": -77.017669, "fusion_lat": 0.0, "is_disabled": 0, "is_reserved": 0, "lat": 38.9389605, "type": "electric_scooter"}, {"fusion_lon": 0.0, "bike_id": "9df4fed7fac5de707eeb3d7e63560141", "name": "9df4fed7fac5de707eeb3d7e63560141", "rental_uris": {"android": "https://dc.lft.to/lastmile_qr_scan", "ios": "https://dc.lft.to/lastmile_qr_scan"}, "lon": -77.04889033333333, "fusion_lat": 0.0, "is_disabled": 0, "is_reserved": 0, "lat": 38.89891, "type": "electric_scooter"}, {"fusion_lon": 0.0, "bike_id": "443e2a7635e3aeebb36f1a9e23c9bea3", "name": "443e2a7635e3aeebb36f1a9e23c9bea3", "rental_uris": {"android": "https://dc.lft.to/lastmile_qr_scan", "ios": "https://dc.lft.to/lastmile_qr_scan"}, "lon": -77.07013783333333, "fusion_lat": 0.0, "is_disabled": 0, "is_reserved": 0, "lat": 38.84110283333333, "type": "electric_bike"}, {"fusion_lon": 0.0, "bike_id": "95ed84c3a5338f08e501cf09ea86908e", "name": "95ed84c3a5338f08e501cf09ea86908e", "rental_uris": {"android": "https://dc.lft.to/lastmile_qr_scan", "ios": "https://dc.lft.to/lastmile_qr_scan"}, "lon": -77.040516, "fusion_lat": 0.0, "is_disabled": 0, "is_reserved": 0, "lat": 38.90596466666667, "type": "electric_scooter"}, {"fusion_lon": 0.0, "bike_id": "ee2b90d4baa15d6d0f9595e0fdd31415", "name": "ee2b90d4baa15d6d0f9595e0fdd31415", "rental_uris": {"android": "https://dc.lft.to/lastmile_qr_scan", "ios": "https://dc.lft.to/lastmile_qr_scan"}, "lon": -77.19985866666667, "fusion_lat": 0.0, "is_disabled": 0, "is_reserved": 0, "lat": 38.949051833333336, "type": "electric_bike"}, {"fusion_lon": 0.0, "bike_id": "d286be289d12d0f579a08c82a1c2c592", "name": "d286be289d12d0f579a08c82a1c2c592", "rental_uris": {"android": "https://dc.lft.to/lastmile_qr_scan", "ios": "https://dc.lft.to/lastmile_qr_scan"}, "lon": -76.96506466666666, "fusion_lat": 0.0, "is_disabled": 0, "is_reserved": 0, "lat": 38.8764625, "type": "electric_scooter"}, {"fusion_lon": 0.0, "bike_id": "b736b34ee68165fef9793fe06804462e", "name": "b736b34ee68165fef9793fe06804462e", "rental_uris": {"android": "https://dc.lft.to/lastmile_qr_scan", "ios": "https://dc.lft.to/lastmile_qr_scan"}, "lon": -76.97329833333333, "fusion_lat": 0.0, "is_disabled": 0, "is_reserved": 0, "lat": 38.90410766666667, "type": "electric_scooter"}, {"fusion_lon": 0.0, "bike_id": "fd63638ab72e91e4d6db44ee55bfe2f6", "name": "fd63638ab72e91e4d6db44ee55bfe2f6", "rental_uris": {"android": "https://dc.lft.to/lastmile_qr_scan", "ios": "https://dc.lft.to/lastmile_qr_scan"}, "lon": -77.04330583333333, "fusion_lat": 0.0, "is_disabled": 0, "is_reserved": 0, "lat": 38.892218666666665, "type": "electric_scooter"}, {"fusion_lon": 0.0, "bike_id": "e48131fcf813f927936ab35b9aea5b83", "name": "e48131fcf813f927936ab35b9aea5b83", "rental_uris": {"android": "https://dc.lft.to/lastmile_qr_scan", "ios": "https://dc.lft.to/lastmile_qr_scan"}, "lon": -76.96978266666666, "fusion_lat": 0.0, "is_disabled": 0, "is_reserved": 0, "lat": 38.87388833333333, "type": "electric_scooter"}, {"fusion_lon": 0.0, "bike_id": "6b08aafe590414c16669e6940d20aadd", "name": "6b08aafe590414c16669e6940d20aadd", "rental_uris": {"android": "https://dc.lft.to/lastmile_qr_scan", "ios": "https://dc.lft.to/lastmile_qr_scan"}, "lon": -77.0240545, "fusion_lat": 0.0, "is_disabled": 0, "is_reserved": 0, "lat": 38.957041, "type": "electric_scooter"}, {"fusion_lon": 0.0, "bike_id": "5dc5f0dbd64d288024f700eea21e3a8d", "name": "5dc5f0dbd64d288024f700eea21e3a8d", "rental_uris": {"android": "https://dc.lft.to/lastmile_qr_scan", "ios": "https://dc.lft.to/lastmile_qr_scan"}, "lon": -77.04477566666667, "fusion_lat": 0.0, "is_disabled": 0, "is_reserved": 0, "lat": 38.92242516666666, "type": "electric_scooter"}, {"fusion_lon": 0.0, "bike_id": "11b84264b0bc526312ddd4391c2be133", "name": "11b84264b0bc526312ddd4391c2be133", "rental_uris": {"android": "https://dc.lft.to/lastmile_qr_scan", "ios": "https://dc.lft.to/lastmile_qr_scan"}, "lon": -77.03259333333334, "fusion_lat": 0.0, "is_disabled": 0, "is_reserved": 0, "lat": 38.938730666666665, "type": "electric_scooter"}, {"fusion_lon": 0.0, "bike_id": "270e5e3d8234d7bff1e3dc1825b12848", "name": "270e5e3d8234d7bff1e3dc1825b12848", "rental_uris": {"android": "https://dc.lft.to/lastmile_qr_scan", "ios": "https://dc.lft.to/lastmile_qr_scan"}, "lon": -77.03773016666666, "fusion_lat": 0.0, "is_disabled": 0, "is_reserved": 0, "lat": 38.929446666666664, "type": "electric_scooter"}, {"fusion_lon": 0.0, "bike_id": "3482bcc2df50122a65eac9b444204374", "name": "3482bcc2df50122a65eac9b444204374", "rental_uris": {"android": "https://dc.lft.to/lastmile_qr_scan", "ios": "https://dc.lft.to/lastmile_qr_scan"}, "lon": -77.00763583333334, "fusion_lat": 0.0, "is_disabled": 0, "is_reserved": 0, "lat": 38.871142666666664, "type": "electric_scooter"}, {"fusion_lon": 0.0, "bike_id": "029de821622420feb3be7bef9cef414e", "name": "029de821622420feb3be7bef9cef414e", "rental_uris": {"android": "https://dc.lft.to/lastmile_qr_scan", "ios": "https://dc.lft.to/lastmile_qr_scan"}, "lon": -77.129801, "fusion_lat": 0.0, "is_disabled": 0, "is_reserved": 0, "lat": 38.799834833333335, "type": "electric_bike"}, {"fusion_lon": 0.0, "bike_id": "6fe174ca5d153c093957bca1219a6715", "name": "6fe174ca5d153c093957bca1219a6715", "rental_uris": {"android": "https://dc.lft.to/lastmile_qr_scan", "ios": "https://dc.lft.to/lastmile_qr_scan"}, "lon": -77.0424885, "fusion_lat": 0.0, "is_disabled": 0, "is_reserved": 0, "lat": 38.9243175, "type": "electric_scooter"}, {"fusion_lon": 0.0, "bike_id": "6dedec7fcc5535927505924dc4be17c0", "name": "6dedec7fcc5535927505924dc4be17c0", "rental_uris": {"android": "https://dc.lft.to/lastmile_qr_scan", "ios": "https://dc.lft.to/lastmile_qr_scan"}, "lon": -76.973314, "fusion_lat": 0.0, "is_disabled": 0, "is_reserved": 0, "lat": 38.85550716666667, "type": "electric_bike"}, {"fusion_lon": 0.0, "bike_id": "2076deabf81678ec237aa87c53b410db", "name": "2076deabf81678ec237aa87c53b410db", "rental_uris": {"android": "https://dc.lft.to/lastmile_qr_scan", "ios": "https://dc.lft.to/lastmile_qr_scan"}, "lon": -77.11779433333334, "fusion_lat": 0.0, "is_disabled": 0, "is_reserved": 0, "lat": 38.81254066666666, "type": "electric_bike"}, {"fusion_lon": 0.0, "bike_id": "b37c381344f291b76226479b3599c8a9", "name": "b37c381344f291b76226479b3599c8a9", "rental_uris": {"android": "https://dc.lft.to/lastmile_qr_scan", "ios": "https://dc.lft.to/lastmile_qr_scan"}, "lon": -77.00342433333333, "fusion_lat": 0.0, "is_disabled": 0, "is_reserved": 0, "lat": 38.89503766666667, "type": "electric_scooter"}, {"fusion_lon": 0.0, "bike_id": "cda37e041c86e7acb2d07ee50a02de79", "name": "cda37e041c86e7acb2d07ee50a02de79", "rental_uris": {"android": "https://dc.lft.to/lastmile_qr_scan", "ios": "https://dc.lft.to/lastmile_qr_scan"}, "lon": -77.055072, "fusion_lat": 0.0, "is_disabled": 0, "is_reserved": 0, "lat": 38.9294405, "type": "electric_scooter"}, {"fusion_lon": 0.0, "bike_id": "607bc0998502bbee097a421d0b913e9f", "name": "607bc0998502bbee097a421d0b913e9f", "rental_uris": {"android": "https://dc.lft.to/lastmile_qr_scan", "ios": "https://dc.lft.to/lastmile_qr_scan"}, "lon": -76.99842683333334, "fusion_lat": 0.0, "is_disabled": 0, "is_reserved": 0, "lat": 38.9005005, "type": "electric_scooter"}, {"fusion_lon": 0.0, "bike_id": "b4607cc47b6db99e635f4059c9867951", "name": "b4607cc47b6db99e635f4059c9867951", "rental_uris": {"android": "https://dc.lft.to/lastmile_qr_scan", "ios": "https://dc.lft.to/lastmile_qr_scan"}, "lon": -77.03867233333334, "fusion_lat": 0.0, "is_disabled": 0, "is_reserved": 0, "lat": 38.92027733333333, "type": "electric_scooter"}, {"fusion_lon": 0.0, "bike_id": "2fa95f9aacd6efea2a79422564b7263a", "name": "2fa95f9aacd6efea2a79422564b7263a", "rental_uris": {"android": "https://dc.lft.to/lastmile_qr_scan", "ios": "https://dc.lft.to/lastmile_qr_scan"}, "lon": -77.02139516666666, "fusion_lat": 0.0, "is_disabled": 0, "is_reserved": 0, "lat": 38.91108666666667, "type": "electric_scooter"}, {"fusion_lon": 0.0, "bike_id": "a8d1829314b91eb9df7b5367049769ae", "name": "a8d1829314b91eb9df7b5367049769ae", "rental_uris": {"android": "https://dc.lft.to/lastmile_qr_scan", "ios": "https://dc.lft.to/lastmile_qr_scan"}, "lon": -77.03830616666667, "fusion_lat": 0.0, "is_disabled": 0, "is_reserved": 0, "lat": 38.91254683333333, "type": "electric_scooter"}, {"fusion_lon": 0.0, "bike_id": "caf636af3b06d6055334f37942c86d50", "name": "caf636af3b06d6055334f37942c86d50", "rental_uris": {"android": "https://dc.lft.to/lastmile_qr_scan", "ios": "https://dc.lft.to/lastmile_qr_scan"}, "lon": -77.04678183333333, "fusion_lat": 0.0, "is_disabled": 0, "is_reserved": 0, "lat": 38.89225533333333, "type": "electric_scooter"}, {"fusion_lon": 0.0, "bike_id": "f3b8be7d8116d4ed24a89e4c6b40be01", "name": "f3b8be7d8116d4ed24a89e4c6b40be01", "rental_uris": {"android": "https://dc.lft.to/lastmile_qr_scan", "ios": "https://dc.lft.to/lastmile_qr_scan"}, "lon": -77.0436245, "fusion_lat": 0.0, "is_disabled": 0, "is_reserved": 0, "lat": 38.9041615, "type": "electric_scooter"}, {"fusion_lon": 0.0, "bike_id": "a64e7fc6ed2c53a68b2339353639c309", "name": "a64e7fc6ed2c53a68b2339353639c309", "rental_uris": {"android": "https://dc.lft.to/lastmile_qr_scan", "ios": "https://dc.lft.to/lastmile_qr_scan"}, "lon": -77.033949, "fusion_lat": 0.0, "is_disabled": 0, "is_reserved": 0, "lat": 38.93842433333333, "type": "electric_scooter"}, {"fusion_lon": 0.0, "bike_id": "3b241086ed107c6871b01a66ec940ec2", "name": "3b241086ed107c6871b01a66ec940ec2", "rental_uris": {"android": "https://dc.lft.to/lastmile_qr_scan", "ios": "https://dc.lft.to/lastmile_qr_scan"}, "lon": -77.03840683333334, "fusion_lat": 0.0, "is_disabled": 0, "is_reserved": 0, "lat": 38.91042133333333, "type": "electric_scooter"}, {"fusion_lon": 0.0, "bike_id": "3ddd289fe3f4726766ec328819c92158", "name": "3ddd289fe3f4726766ec328819c92158", "rental_uris": {"android": "https://dc.lft.to/lastmile_qr_scan", "ios": "https://dc.lft.to/lastmile_qr_scan"}, "lon": -77.03013816666666, "fusion_lat": 0.0, "is_disabled": 0, "is_reserved": 0, "lat": 38.911933833333336, "type": "electric_scooter"}, {"fusion_lon": 0.0, "bike_id": "de29df92f6737a39f12e29f1aade5a63", "name": "de29df92f6737a39f12e29f1aade5a63", "rental_uris": {"android": "https://dc.lft.to/lastmile_qr_scan", "ios": "https://dc.lft.to/lastmile_qr_scan"}, "lon": -77.06376416666667, "fusion_lat": 0.0, "is_disabled": 0, "is_reserved": 0, "lat": 38.90606666666667, "type": "electric_scooter"}, {"fusion_lon": 0.0, "bike_id": "8749e63a4c9f43d21476757e589501df", "name": "8749e63a4c9f43d21476757e589501df", "rental_uris": {"android": "https://dc.lft.to/lastmile_qr_scan", "ios": "https://dc.lft.to/lastmile_qr_scan"}, "lon": -77.045372, "fusion_lat": 0.0, "is_disabled": 0, "is_reserved": 0, "lat": 38.91106716666667, "type": "electric_scooter"}, {"fusion_lon": 0.0, "bike_id": "86cd460577992d7a1c2e0918f141b954", "name": "86cd460577992d7a1c2e0918f141b954", "rental_uris": {"android": "https://dc.lft.to/lastmile_qr_scan", "ios": "https://dc.lft.to/lastmile_qr_scan"}, "lon": -77.020377, "fusion_lat": 0.0, "is_disabled": 0, "is_reserved": 0, "lat": 38.92431833333333, "type": "electric_scooter"}, {"fusion_lon": 0.0, "bike_id": "a9d5e2183aa2cdfbe3a4675780936a8c", "name": "a9d5e2183aa2cdfbe3a4675780936a8c", "rental_uris": {"android": "https://dc.lft.to/lastmile_qr_scan", "ios": "https://dc.lft.to/lastmile_qr_scan"}, "lon": -77.02857183333333, "fusion_lat": 0.0, "is_disabled": 0, "is_reserved": 0, "lat": 38.91698783333333, "type": "electric_scooter"}, {"fusion_lon": 0.0, "bike_id": "390ab79375cd8ee9cc48fe436965f177", "name": "390ab79375cd8ee9cc48fe436965f177", "rental_uris": {"android": "https://dc.lft.to/lastmile_qr_scan", "ios": "https://dc.lft.to/lastmile_qr_scan"}, "lon": -77.2099915, "fusion_lat": 0.0, "is_disabled": 0, "is_reserved": 0, "lat": 38.925906833333336, "type": "electric_bike"}, {"fusion_lon": 0.0, "bike_id": "56eb6547d59656719f32583e6ba5f7fc", "name": "56eb6547d59656719f32583e6ba5f7fc", "rental_uris": {"android": "https://dc.lft.to/lastmile_qr_scan", "ios": "https://dc.lft.to/lastmile_qr_scan"}, "lon": -77.042481, "fusion_lat": 0.0, "is_disabled": 0, "is_reserved": 0, "lat": 38.9063805, "type": "electric_scooter"}, {"fusion_lon": 0.0, "bike_id": "db057f4e025bd3a2cc303652d518c993", "name": "db057f4e025bd3a2cc303652d518c993", "rental_uris": {"android": "https://dc.lft.to/lastmile_qr_scan", "ios": "https://dc.lft.to/lastmile_qr_scan"}, "lon": -76.933809, "fusion_lat": 0.0, "is_disabled": 0, "is_reserved": 0, "lat": 38.89918516666667, "type": "electric_scooter"}, {"fusion_lon": 0.0, "bike_id": "b25318ba66ce11fb9ae3778fd988d613", "name": "b25318ba66ce11fb9ae3778fd988d613", "rental_uris": {"android": "https://dc.lft.to/lastmile_qr_scan", "ios": "https://dc.lft.to/lastmile_qr_scan"}, "lon": -77.01648216666666, "fusion_lat": 0.0, "is_disabled": 0, "is_reserved": 0, "lat": 38.918538166666664, "type": "electric_scooter"}, {"fusion_lon": 0.0, "bike_id": "30e4704d8b1891b46a4332e12cbab21c", "name": "30e4704d8b1891b46a4332e12cbab21c", "rental_uris": {"android": "https://dc.lft.to/lastmile_qr_scan", "ios": "https://dc.lft.to/lastmile_qr_scan"}, "lon": -77.02518933333333, "fusion_lat": 0.0, "is_disabled": 0, "is_reserved": 0, "lat": 38.90410516666667, "type": "electric_scooter"}, {"fusion_lon": 0.0, "bike_id": "b366db034222dd780219cff37ae19a3c", "name": "b366db034222dd780219cff37ae19a3c", "rental_uris": {"android": "https://dc.lft.to/lastmile_qr_scan", "ios": "https://dc.lft.to/lastmile_qr_scan"}, "lon": -76.99722716666666, "fusion_lat": 0.0, "is_disabled": 0, "is_reserved": 0, "lat": 38.910273833333335, "type": "electric_scooter"}, {"fusion_lon": 0.0, "bike_id": "779e76a0158710387678149ab5635cec", "name": "779e76a0158710387678149ab5635cec", "rental_uris": {"android": "https://dc.lft.to/lastmile_qr_scan", "ios": "https://dc.lft.to/lastmile_qr_scan"}, "lon": -77.02402233333333, "fusion_lat": 0.0, "is_disabled": 0, "is_reserved": 0, "lat": 38.898293, "type": "electric_scooter"}, {"fusion_lon": 0.0, "bike_id": "b3999827f4c8523f616141d044b4bae1", "name": "b3999827f4c8523f616141d044b4bae1", "rental_uris": {"android": "https://dc.lft.to/lastmile_qr_scan", "ios": "https://dc.lft.to/lastmile_qr_scan"}, "lon": -77.02154366666667, "fusion_lat": 0.0, "is_disabled": 0, "is_reserved": 0, "lat": 38.925999, "type": "electric_scooter"}, {"fusion_lon": 0.0, "bike_id": "6ff4ca7e200e58d042ad7f7877a972e1", "name": "6ff4ca7e200e58d042ad7f7877a972e1", "rental_uris": {"android": "https://dc.lft.to/lastmile_qr_scan", "ios": "https://dc.lft.to/lastmile_qr_scan"}, "lon": -77.03355266666667, "fusion_lat": 0.0, "is_disabled": 0, "is_reserved": 0, "lat": 38.930544, "type": "electric_scooter"}, {"fusion_lon": 0.0, "bike_id": "4ced49d66a6f106aaf9c1d9c6ab76709", "name": "4ced49d66a6f106aaf9c1d9c6ab76709", "rental_uris": {"android": "https://dc.lft.to/lastmile_qr_scan", "ios": "https://dc.lft.to/lastmile_qr_scan"}, "lon": -76.9650785, "fusion_lat": 0.0, "is_disabled": 0, "is_reserved": 0, "lat": 38.87645966666667, "type": "electric_scooter"}, {"fusion_lon": 0.0, "bike_id": "25a022d4e35643cbc535a3814082251e", "name": "25a022d4e35643cbc535a3814082251e", "rental_uris": {"android": "https://dc.lft.to/lastmile_qr_scan", "ios": "https://dc.lft.to/lastmile_qr_scan"}, "lon": -76.989242, "fusion_lat": 0.0, "is_disabled": 0, "is_reserved": 0, "lat": 38.938238166666665, "type": "electric_scooter"}, {"fusion_lon": 0.0, "bike_id": "9f943eeac809cfafe450948335699fb4", "name": "9f943eeac809cfafe450948335699fb4", "rental_uris": {"android": "https://dc.lft.to/lastmile_qr_scan", "ios": "https://dc.lft.to/lastmile_qr_scan"}, "lon": -76.9933145, "fusion_lat": 0.0, "is_disabled": 0, "is_reserved": 0, "lat": 38.906187, "type": "electric_scooter"}, {"fusion_lon": 0.0, "bike_id": "3fbcfc5b56d8cafec27a46e3ffb2b4ee", "name": "3fbcfc5b56d8cafec27a46e3ffb2b4ee", "rental_uris": {"android": "https://dc.lft.to/lastmile_qr_scan", "ios": "https://dc.lft.to/lastmile_qr_scan"}, "lon": -77.00641083333333, "fusion_lat": 0.0, "is_disabled": 0, "is_reserved": 0, "lat": 38.8718885, "type": "electric_scooter"}, {"fusion_lon": 0.0, "bike_id": "b9eeddda278bb44520adcbe169774769", "name": "b9eeddda278bb44520adcbe169774769", "rental_uris": {"android": "https://dc.lft.to/lastmile_qr_scan", "ios": "https://dc.lft.to/lastmile_qr_scan"}, "lon": -77.02398116666667, "fusion_lat": 0.0, "is_disabled": 0, "is_reserved": 0, "lat": 38.909788, "type": "electric_scooter"}, {"fusion_lon": 0.0, "bike_id": "c74aaa8a2f03f9c29534fc3aa8e84a0f", "name": "c74aaa8a2f03f9c29534fc3aa8e84a0f", "rental_uris": {"android": "https://dc.lft.to/lastmile_qr_scan", "ios": "https://dc.lft.to/lastmile_qr_scan"}, "lon": -77.03219366666667, "fusion_lat": 0.0, "is_disabled": 0, "is_reserved": 0, "lat": 38.901602833333335, "type": "electric_scooter"}, {"fusion_lon": 0.0, "bike_id": "b88b421758b8881a0492b6cbc33a9bee", "name": "b88b421758b8881a0492b6cbc33a9bee", "rental_uris": {"android": "https://dc.lft.to/lastmile_qr_scan", "ios": "https://dc.lft.to/lastmile_qr_scan"}, "lon": -77.00072566666667, "fusion_lat": 0.0, "is_disabled": 0, "is_reserved": 0, "lat": 38.87686866666667, "type": "electric_scooter"}, {"fusion_lon": 0.0, "bike_id": "900793f9ed18f1e769f6cb9d282b0e2d", "name": "900793f9ed18f1e769f6cb9d282b0e2d", "rental_uris": {"android": "https://dc.lft.to/lastmile_qr_scan", "ios": "https://dc.lft.to/lastmile_qr_scan"}, "lon": -77.02034133333333, "fusion_lat": 0.0, "is_disabled": 0, "is_reserved": 0, "lat": 38.92437616666667, "type": "electric_scooter"}, {"fusion_lon": 0.0, "bike_id": "8166b3f9809b49c9b30eee7ec88a4bf3", "name": "8166b3f9809b49c9b30eee7ec88a4bf3", "rental_uris": {"android": "https://dc.lft.to/lastmile_qr_scan", "ios": "https://dc.lft.to/lastmile_qr_scan"}, "lon": -76.952072, "fusion_lat": 0.0, "is_disabled": 0, "is_reserved": 0, "lat": 38.90479233333333, "type": "electric_scooter"}, {"fusion_lon": 0.0, "bike_id": "32bc4d8c2459a278825e4872638f1fea", "name": "32bc4d8c2459a278825e4872638f1fea", "rental_uris": {"android": "https://dc.lft.to/lastmile_qr_scan", "ios": "https://dc.lft.to/lastmile_qr_scan"}, "lon": -77.07276583333334, "fusion_lat": 0.0, "is_disabled": 0, "is_reserved": 0, "lat": 38.93469483333333, "type": "electric_scooter"}, {"fusion_lon": 0.0, "bike_id": "0b0a490081574adb8f5f5a792e2a47f1", "name": "0b0a490081574adb8f5f5a792e2a47f1", "rental_uris": {"android": "https://dc.lft.to/lastmile_qr_scan", "ios": "https://dc.lft.to/lastmile_qr_scan"}, "lon": -77.02947383333333, "fusion_lat": 0.0, "is_disabled": 0, "is_reserved": 0, "lat": 38.9323545, "type": "electric_scooter"}, {"fusion_lon": 0.0, "bike_id": "7713e61768ac1fcc1a6c3c11b2b48abe", "name": "7713e61768ac1fcc1a6c3c11b2b48abe", "rental_uris": {"android": "https://dc.lft.to/lastmile_qr_scan", "ios": "https://dc.lft.to/lastmile_qr_scan"}, "lon": -77.01529766666667, "fusion_lat": 0.0, "is_disabled": 0, "is_reserved": 0, "lat": 38.887377, "type": "electric_scooter"}, {"fusion_lon": 0.0, "bike_id": "7d0f6f91020971df1963ff5fdf8af856", "name": "7d0f6f91020971df1963ff5fdf8af856", "rental_uris": {"android": "https://dc.lft.to/lastmile_qr_scan", "ios": "https://dc.lft.to/lastmile_qr_scan"}, "lon": -77.01972083333334, "fusion_lat": 0.0, "is_disabled": 0, "is_reserved": 0, "lat": 38.89615216666667, "type": "electric_scooter"}, {"fusion_lon": 0.0, "bike_id": "baf73f3a96260c76f5b0b11e52eedab1", "name": "baf73f3a96260c76f5b0b11e52eedab1", "rental_uris": {"android": "https://dc.lft.to/lastmile_qr_scan", "ios": "https://dc.lft.to/lastmile_qr_scan"}, "lon": -77.04655916666667, "fusion_lat": 0.0, "is_disabled": 0, "is_reserved": 0, "lat": 38.899612833333336, "type": "electric_scooter"}, {"fusion_lon": 0.0, "bike_id": "021e719514188f3913f6b637ee3f6b3a", "name": "021e719514188f3913f6b637ee3f6b3a", "rental_uris": {"android": "https://dc.lft.to/lastmile_qr_scan", "ios": "https://dc.lft.to/lastmile_qr_scan"}, "lon": -77.022297, "fusion_lat": 0.0, "is_disabled": 0, "is_reserved": 0, "lat": 38.8945695, "type": "electric_scooter"}, {"fusion_lon": 0.0, "bike_id": "f814a60a0be8234e656ee0ff2388fafc", "name": "f814a60a0be8234e656ee0ff2388fafc", "rental_uris": {"android": "https://dc.lft.to/lastmile_qr_scan", "ios": "https://dc.lft.to/lastmile_qr_scan"}, "lon": -76.92310266666667, "fusion_lat": 0.0, "is_disabled": 0, "is_reserved": 0, "lat": 38.893891333333336, "type": "electric_scooter"}, {"fusion_lon": 0.0, "bike_id": "379c683a7c3613799867c3800e605815", "name": "379c683a7c3613799867c3800e605815", "rental_uris": {"android": "https://dc.lft.to/lastmile_qr_scan", "ios": "https://dc.lft.to/lastmile_qr_scan"}, "lon": -77.01919983333333, "fusion_lat": 0.0, "is_disabled": 0, "is_reserved": 0, "lat": 38.9025095, "type": "electric_scooter"}, {"fusion_lon": 0.0, "bike_id": "44ee226bdd4c525d1d9fc66ca36863b5", "name": "44ee226bdd4c525d1d9fc66ca36863b5", "rental_uris": {"android": "https://dc.lft.to/lastmile_qr_scan", "ios": "https://dc.lft.to/lastmile_qr_scan"}, "lon": -77.035732, "fusion_lat": 0.0, "is_disabled": 0, "is_reserved": 0, "lat": 38.91776633333333, "type": "electric_scooter"}, {"fusion_lon": 0.0, "bike_id": "cb1e5c45c76b30c1328ba44de9d4ffab", "name": "cb1e5c45c76b30c1328ba44de9d4ffab", "rental_uris": {"android": "https://dc.lft.to/lastmile_qr_scan", "ios": "https://dc.lft.to/lastmile_qr_scan"}, "lon": -77.066272, "fusion_lat": 0.0, "is_disabled": 0, "is_reserved": 0, "lat": 38.906118166666666, "type": "electric_scooter"}, {"fusion_lon": 0.0, "bike_id": "5aae5990506cc3841c4eecd74763297f", "name": "5aae5990506cc3841c4eecd74763297f", "rental_uris": {"android": "https://dc.lft.to/lastmile_qr_scan", "ios": "https://dc.lft.to/lastmile_qr_scan"}, "lon": -77.0095965, "fusion_lat": 0.0, "is_disabled": 0, "is_reserved": 0, "lat": 38.9078375, "type": "electric_scooter"}, {"fusion_lon": 0.0, "bike_id": "60045e58f32fc3f6323008df0a7341d7", "name": "60045e58f32fc3f6323008df0a7341d7", "rental_uris": {"android": "https://dc.lft.to/lastmile_qr_scan", "ios": "https://dc.lft.to/lastmile_qr_scan"}, "lon": -77.0423215, "fusion_lat": 0.0, "is_disabled": 0, "is_reserved": 0, "lat": 38.911819, "type": "electric_scooter"}, {"fusion_lon": 0.0, "bike_id": "2656cc11535fb2fdfe1d07aaa8eb37a1", "name": "2656cc11535fb2fdfe1d07aaa8eb37a1", "rental_uris": {"android": "https://dc.lft.to/lastmile_qr_scan", "ios": "https://dc.lft.to/lastmile_qr_scan"}, "lon": -76.97774216666667, "fusion_lat": 0.0, "is_disabled": 0, "is_reserved": 0, "lat": 38.857234, "type": "electric_bike"}, {"fusion_lon": 0.0, "bike_id": "6d7ce3df94f6d150ac20b0790061feb6", "name": "6d7ce3df94f6d150ac20b0790061feb6", "rental_uris": {"android": "https://dc.lft.to/lastmile_qr_scan", "ios": "https://dc.lft.to/lastmile_qr_scan"}, "lon": -77.0393655, "fusion_lat": 0.0, "is_disabled": 0, "is_reserved": 0, "lat": 38.918118166666666, "type": "electric_scooter"}, {"fusion_lon": 0.0, "bike_id": "563a9fc04e52bd8aafcde668b88c0e35", "name": "563a9fc04e52bd8aafcde668b88c0e35", "rental_uris": {"android": "https://dc.lft.to/lastmile_qr_scan", "ios": "https://dc.lft.to/lastmile_qr_scan"}, "lon": -77.02215366666667, "fusion_lat": 0.0, "is_disabled": 0, "is_reserved": 0, "lat": 38.903616166666666, "type": "electric_scooter"}, {"fusion_lon": 0.0, "bike_id": "be985aa1ac56e5f996d413bad8af6a05", "name": "be985aa1ac56e5f996d413bad8af6a05", "rental_uris": {"android": "https://dc.lft.to/lastmile_qr_scan", "ios": "https://dc.lft.to/lastmile_qr_scan"}, "lon": -77.04663366666666, "fusion_lat": 0.0, "is_disabled": 0, "is_reserved": 0, "lat": 38.913433833333336, "type": "electric_scooter"}, {"fusion_lon": 0.0, "bike_id": "21dde7433b86e63c143c60d3c8cfbf79", "name": "21dde7433b86e63c143c60d3c8cfbf79", "rental_uris": {"android": "https://dc.lft.to/lastmile_qr_scan", "ios": "https://dc.lft.to/lastmile_qr_scan"}, "lon": -77.07282933333333, "fusion_lat": 0.0, "is_disabled": 0, "is_reserved": 0, "lat": 38.93203283333333, "type": "electric_scooter"}, {"fusion_lon": 0.0, "bike_id": "9664b18dfaf95e25bb8477c054145e64", "name": "9664b18dfaf95e25bb8477c054145e64", "rental_uris": {"android": "https://dc.lft.to/lastmile_qr_scan", "ios": "https://dc.lft.to/lastmile_qr_scan"}, "lon": -77.036295, "fusion_lat": 0.0, "is_disabled": 0, "is_reserved": 0, "lat": 38.937626, "type": "electric_bike"}, {"fusion_lon": 0.0, "bike_id": "bbfc9d1aa9cc41f94c5048f1b4fe75b4", "name": "bbfc9d1aa9cc41f94c5048f1b4fe75b4", "rental_uris": {"android": "https://dc.lft.to/lastmile_qr_scan", "ios": "https://dc.lft.to/lastmile_qr_scan"}, "lon": -77.00408966666667, "fusion_lat": 0.0, "is_disabled": 0, "is_reserved": 0, "lat": 38.876597833333335, "type": "electric_scooter"}, {"fusion_lon": 0.0, "bike_id": "5447337a69f1ce264032cc0064198164", "name": "5447337a69f1ce264032cc0064198164", "rental_uris": {"android": "https://dc.lft.to/lastmile_qr_scan", "ios": "https://dc.lft.to/lastmile_qr_scan"}, "lon": -76.988186, "fusion_lat": 0.0, "is_disabled": 0, "is_reserved": 0, "lat": 38.84277383333333, "type": "electric_bike"}, {"fusion_lon": 0.0, "bike_id": "23ede8bf9ee5d28e899d9ad1879950ad", "name": "23ede8bf9ee5d28e899d9ad1879950ad", "rental_uris": {"android": "https://dc.lft.to/lastmile_qr_scan", "ios": "https://dc.lft.to/lastmile_qr_scan"}, "lon": -77.04263466666667, "fusion_lat": 0.0, "is_disabled": 0, "is_reserved": 0, "lat": 38.92236716666667, "type": "electric_scooter"}, {"fusion_lon": 0.0, "bike_id": "217da9041fe064244d66c0ba0c86bc5b", "name": "217da9041fe064244d66c0ba0c86bc5b", "rental_uris": {"android": "https://dc.lft.to/lastmile_qr_scan", "ios": "https://dc.lft.to/lastmile_qr_scan"}, "lon": -77.02551616666666, "fusion_lat": 0.0, "is_disabled": 0, "is_reserved": 0, "lat": 38.924850666666664, "type": "electric_scooter"}, {"fusion_lon": 0.0, "bike_id": "a0b460a8aad10c69db31ac1063660021", "name": "a0b460a8aad10c69db31ac1063660021", "rental_uris": {"android": "https://dc.lft.to/lastmile_qr_scan", "ios": "https://dc.lft.to/lastmile_qr_scan"}, "lon": -77.05764366666666, "fusion_lat": 0.0, "is_disabled": 0, "is_reserved": 0, "lat": 38.9245745, "type": "electric_scooter"}, {"fusion_lon": 0.0, "bike_id": "d0dcd0b6389b49a154ff9aae2b78adcd", "name": "d0dcd0b6389b49a154ff9aae2b78adcd", "rental_uris": {"android": "https://dc.lft.to/lastmile_qr_scan", "ios": "https://dc.lft.to/lastmile_qr_scan"}, "lon": -76.996522, "fusion_lat": 0.0, "is_disabled": 0, "is_reserved": 0, "lat": 38.85988616666667, "type": "electric_scooter"}, {"fusion_lon": 0.0, "bike_id": "e9ee1acbf450726df58b21622f08c798", "name": "e9ee1acbf450726df58b21622f08c798", "rental_uris": {"android": "https://dc.lft.to/lastmile_qr_scan", "ios": "https://dc.lft.to/lastmile_qr_scan"}, "lon": -77.06420816666666, "fusion_lat": 0.0, "is_disabled": 0, "is_reserved": 0, "lat": 38.90789066666667, "type": "electric_scooter"}, {"fusion_lon": 0.0, "bike_id": "fa8d1541431a1afaf591eaa249008b3c", "name": "fa8d1541431a1afaf591eaa249008b3c", "rental_uris": {"android": "https://dc.lft.to/lastmile_qr_scan", "ios": "https://dc.lft.to/lastmile_qr_scan"}, "lon": -77.02420183333334, "fusion_lat": 0.0, "is_disabled": 0, "is_reserved": 0, "lat": 38.9206645, "type": "electric_scooter"}, {"fusion_lon": 0.0, "bike_id": "ab813c9f78c8c8fb4dcf6ab418caa37e", "name": "ab813c9f78c8c8fb4dcf6ab418caa37e", "rental_uris": {"android": "https://dc.lft.to/lastmile_qr_scan", "ios": "https://dc.lft.to/lastmile_qr_scan"}, "lon": -77.03025816666667, "fusion_lat": 0.0, "is_disabled": 0, "is_reserved": 0, "lat": 38.9164625, "type": "electric_scooter"}, {"fusion_lon": 0.0, "bike_id": "fd8a4d832e480b91e8a0117183c1d340", "name": "fd8a4d832e480b91e8a0117183c1d340", "rental_uris": {"android": "https://dc.lft.to/lastmile_qr_scan", "ios": "https://dc.lft.to/lastmile_qr_scan"}, "lon": -77.03763316666667, "fusion_lat": 0.0, "is_disabled": 0, "is_reserved": 0, "lat": 38.91396433333333, "type": "electric_scooter"}, {"fusion_lon": 0.0, "bike_id": "ea24669dffb49452cb9f3efe062978c1", "name": "ea24669dffb49452cb9f3efe062978c1", "rental_uris": {"android": "https://dc.lft.to/lastmile_qr_scan", "ios": "https://dc.lft.to/lastmile_qr_scan"}, "lon": -77.03107083333333, "fusion_lat": 0.0, "is_disabled": 0, "is_reserved": 0, "lat": 38.922487833333335, "type": "electric_scooter"}, {"fusion_lon": 0.0, "bike_id": "a6753ef605e928832dfc37f6d9ea88b7", "name": "a6753ef605e928832dfc37f6d9ea88b7", "rental_uris": {"android": "https://dc.lft.to/lastmile_qr_scan", "ios": "https://dc.lft.to/lastmile_qr_scan"}, "lon": -77.02416566666666, "fusion_lat": 0.0, "is_disabled": 0, "is_reserved": 0, "lat": 38.89854166666667, "type": "electric_scooter"}, {"fusion_lon": 0.0, "bike_id": "89c5b9938685c42802be0ca06dde4be3", "name": "89c5b9938685c42802be0ca06dde4be3", "rental_uris": {"android": "https://dc.lft.to/lastmile_qr_scan", "ios": "https://dc.lft.to/lastmile_qr_scan"}, "lon": -77.04461016666667, "fusion_lat": 0.0, "is_disabled": 0, "is_reserved": 0, "lat": 38.918482, "type": "electric_scooter"}, {"fusion_lon": 0.0, "bike_id": "175d30494395d3b6a6988144c9c4efa6", "name": "175d30494395d3b6a6988144c9c4efa6", "rental_uris": {"android": "https://dc.lft.to/lastmile_qr_scan", "ios": "https://dc.lft.to/lastmile_qr_scan"}, "lon": -76.996204, "fusion_lat": 0.0, "is_disabled": 0, "is_reserved": 0, "lat": 38.900287166666665, "type": "electric_scooter"}, {"fusion_lon": 0.0, "bike_id": "3a9da90c3f6ff0cfe4b5f9bf90653b57", "name": "3a9da90c3f6ff0cfe4b5f9bf90653b57", "rental_uris": {"android": "https://dc.lft.to/lastmile_qr_scan", "ios": "https://dc.lft.to/lastmile_qr_scan"}, "lon": -77.04001116666667, "fusion_lat": 0.0, "is_disabled": 0, "is_reserved": 0, "lat": 38.9342705, "type": "electric_scooter"}, {"fusion_lon": 0.0, "bike_id": "e1617e23eac09d6313c2b26c01cb748a", "name": "e1617e23eac09d6313c2b26c01cb748a", "rental_uris": {"android": "https://dc.lft.to/lastmile_qr_scan", "ios": "https://dc.lft.to/lastmile_qr_scan"}, "lon": -77.034277, "fusion_lat": 0.0, "is_disabled": 0, "is_reserved": 0, "lat": 38.9353615, "type": "electric_scooter"}, {"fusion_lon": 0.0, "bike_id": "a3bd717def5868d8b7b7f0279fa322c0", "name": "a3bd717def5868d8b7b7f0279fa322c0", "rental_uris": {"android": "https://dc.lft.to/lastmile_qr_scan", "ios": "https://dc.lft.to/lastmile_qr_scan"}, "lon": -77.04850266666666, "fusion_lat": 0.0, "is_disabled": 0, "is_reserved": 0, "lat": 38.919642, "type": "electric_scooter"}, {"fusion_lon": 0.0, "bike_id": "b8d6d5113c75cb86f862e7ca0a6a0cda", "name": "b8d6d5113c75cb86f862e7ca0a6a0cda", "rental_uris": {"android": "https://dc.lft.to/lastmile_qr_scan", "ios": "https://dc.lft.to/lastmile_qr_scan"}, "lon": -77.03340216666666, "fusion_lat": 0.0, "is_disabled": 0, "is_reserved": 0, "lat": 38.89643316666667, "type": "electric_scooter"}, {"fusion_lon": 0.0, "bike_id": "19b1de2c88b91c5b753146ba89d2af5d", "name": "19b1de2c88b91c5b753146ba89d2af5d", "rental_uris": {"android": "https://dc.lft.to/lastmile_qr_scan", "ios": "https://dc.lft.to/lastmile_qr_scan"}, "lon": -76.92596966666666, "fusion_lat": 0.0, "is_disabled": 0, "is_reserved": 0, "lat": 38.897619, "type": "electric_scooter"}, {"fusion_lon": 0.0, "bike_id": "c1099342563b418a1f0330df264ed7d6", "name": "c1099342563b418a1f0330df264ed7d6", "rental_uris": {"android": "https://dc.lft.to/lastmile_qr_scan", "ios": "https://dc.lft.to/lastmile_qr_scan"}, "lon": -77.02511116666666, "fusion_lat": 0.0, "is_disabled": 0, "is_reserved": 0, "lat": 38.9396825, "type": "electric_scooter"}, {"fusion_lon": 0.0, "bike_id": "eeebc3b95e6a0722dab9b0f98ee9bd2c", "name": "eeebc3b95e6a0722dab9b0f98ee9bd2c", "rental_uris": {"android": "https://dc.lft.to/lastmile_qr_scan", "ios": "https://dc.lft.to/lastmile_qr_scan"}, "lon": -77.02971933333333, "fusion_lat": 0.0, "is_disabled": 0, "is_reserved": 0, "lat": 38.885424666666665, "type": "electric_scooter"}, {"fusion_lon": 0.0, "bike_id": "1bb5654977b58eb31866978dc1618445", "name": "1bb5654977b58eb31866978dc1618445", "rental_uris": {"android": "https://dc.lft.to/lastmile_qr_scan", "ios": "https://dc.lft.to/lastmile_qr_scan"}, "lon": -76.9855285, "fusion_lat": 0.0, "is_disabled": 0, "is_reserved": 0, "lat": 38.899786, "type": "electric_scooter"}, {"fusion_lon": 0.0, "bike_id": "194678361c49e103377bcfaf662bbf6e", "name": "194678361c49e103377bcfaf662bbf6e", "rental_uris": {"android": "https://dc.lft.to/lastmile_qr_scan", "ios": "https://dc.lft.to/lastmile_qr_scan"}, "lon": -77.04203433333333, "fusion_lat": 0.0, "is_disabled": 0, "is_reserved": 0, "lat": 38.9229425, "type": "electric_scooter"}, {"fusion_lon": 0.0, "bike_id": "a0dc0babbade2a756943a1f88493d576", "name": "a0dc0babbade2a756943a1f88493d576", "rental_uris": {"android": "https://dc.lft.to/lastmile_qr_scan", "ios": "https://dc.lft.to/lastmile_qr_scan"}, "lon": -76.98516616666667, "fusion_lat": 0.0, "is_disabled": 0, "is_reserved": 0, "lat": 38.868915666666666, "type": "electric_bike"}, {"fusion_lon": 0.0, "bike_id": "e504f8d048036d70c1c47478bb44edf9", "name": "e504f8d048036d70c1c47478bb44edf9", "rental_uris": {"android": "https://dc.lft.to/lastmile_qr_scan", "ios": "https://dc.lft.to/lastmile_qr_scan"}, "lon": -77.04022766666667, "fusion_lat": 0.0, "is_disabled": 0, "is_reserved": 0, "lat": 38.901449166666666, "type": "electric_scooter"}, {"fusion_lon": 0.0, "bike_id": "c068f4c3cc18cb50e3251f3552f7cddd", "name": "c068f4c3cc18cb50e3251f3552f7cddd", "rental_uris": {"android": "https://dc.lft.to/lastmile_qr_scan", "ios": "https://dc.lft.to/lastmile_qr_scan"}, "lon": -77.03806133333333, "fusion_lat": 0.0, "is_disabled": 0, "is_reserved": 0, "lat": 38.906663, "type": "electric_scooter"}, {"fusion_lon": 0.0, "bike_id": "537cdb3e6e49c5bba39c9c3d3f28b06a", "name": "537cdb3e6e49c5bba39c9c3d3f28b06a", "rental_uris": {"android": "https://dc.lft.to/lastmile_qr_scan", "ios": "https://dc.lft.to/lastmile_qr_scan"}, "lon": -77.04675, "fusion_lat": 0.0, "is_disabled": 0, "is_reserved": 0, "lat": 38.895055, "type": "electric_scooter"}, {"fusion_lon": 0.0, "bike_id": "4dfa2be36c245f92e5d13e8088178d79", "name": "4dfa2be36c245f92e5d13e8088178d79", "rental_uris": {"android": "https://dc.lft.to/lastmile_qr_scan", "ios": "https://dc.lft.to/lastmile_qr_scan"}, "lon": -77.03165183333333, "fusion_lat": 0.0, "is_disabled": 0, "is_reserved": 0, "lat": 38.89215766666667, "type": "electric_scooter"}, {"fusion_lon": 0.0, "bike_id": "b9f62f48d3e060af6458bd8c72cfda7a", "name": "b9f62f48d3e060af6458bd8c72cfda7a", "rental_uris": {"android": "https://dc.lft.to/lastmile_qr_scan", "ios": "https://dc.lft.to/lastmile_qr_scan"}, "lon": -77.03792383333334, "fusion_lat": 0.0, "is_disabled": 0, "is_reserved": 0, "lat": 38.90274133333333, "type": "electric_scooter"}, {"fusion_lon": 0.0, "bike_id": "77ca8170f0c7f10ff2c5ffba80d91862", "name": "77ca8170f0c7f10ff2c5ffba80d91862", "rental_uris": {"android": "https://dc.lft.to/lastmile_qr_scan", "ios": "https://dc.lft.to/lastmile_qr_scan"}, "lon": -77.04230016666666, "fusion_lat": 0.0, "is_disabled": 0, "is_reserved": 0, "lat": 38.921790666666666, "type": "electric_scooter"}, {"fusion_lon": 0.0, "bike_id": "7dee3e83f28347ca128fa7b8a9e48843", "name": "7dee3e83f28347ca128fa7b8a9e48843", "rental_uris": {"android": "https://dc.lft.to/lastmile_qr_scan", "ios": "https://dc.lft.to/lastmile_qr_scan"}, "lon": -76.975241, "fusion_lat": 0.0, "is_disabled": 0, "is_reserved": 0, "lat": 38.840052, "type": "electric_bike"}, {"fusion_lon": 0.0, "bike_id": "349c5674ff4dc2d4852f465cdbe0372e", "name": "349c5674ff4dc2d4852f465cdbe0372e", "rental_uris": {"android": "https://dc.lft.to/lastmile_qr_scan", "ios": "https://dc.lft.to/lastmile_qr_scan"}, "lon": -76.96510116666667, "fusion_lat": 0.0, "is_disabled": 0, "is_reserved": 0, "lat": 38.87645666666667, "type": "electric_scooter"}, {"fusion_lon": 0.0, "bike_id": "6285ebcbb1dd5af25ba293c252b77b3d", "name": "6285ebcbb1dd5af25ba293c252b77b3d", "rental_uris": {"android": "https://dc.lft.to/lastmile_qr_scan", "ios": "https://dc.lft.to/lastmile_qr_scan"}, "lon": -76.959777, "fusion_lat": 0.0, "is_disabled": 0, "is_reserved": 0, "lat": 38.92566266666667, "type": "electric_bike"}, {"fusion_lon": 0.0, "bike_id": "55dbc3ddc96e309a978e30d307c63adf", "name": "55dbc3ddc96e309a978e30d307c63adf", "rental_uris": {"android": "https://dc.lft.to/lastmile_qr_scan", "ios": "https://dc.lft.to/lastmile_qr_scan"}, "lon": -77.0060525, "fusion_lat": 0.0, "is_disabled": 0, "is_reserved": 0, "lat": 38.877549, "type": "electric_scooter"}, {"fusion_lon": 0.0, "bike_id": "68236d96d403acb4e8ffe1b0b1ae55bb", "name": "68236d96d403acb4e8ffe1b0b1ae55bb", "rental_uris": {"android": "https://dc.lft.to/lastmile_qr_scan", "ios": "https://dc.lft.to/lastmile_qr_scan"}, "lon": -76.97334683333334, "fusion_lat": 0.0, "is_disabled": 0, "is_reserved": 0, "lat": 38.9041915, "type": "electric_scooter"}, {"fusion_lon": 0.0, "bike_id": "dc1bb21f6ba269bb0a35a99ab1ff941e", "name": "dc1bb21f6ba269bb0a35a99ab1ff941e", "rental_uris": {"android": "https://dc.lft.to/lastmile_qr_scan", "ios": "https://dc.lft.to/lastmile_qr_scan"}, "lon": -77.04630933333334, "fusion_lat": 0.0, "is_disabled": 0, "is_reserved": 0, "lat": 38.903611833333336, "type": "electric_scooter"}, {"fusion_lon": 0.0, "bike_id": "a172b3db86f21b6329ae12329a360f0c", "name": "a172b3db86f21b6329ae12329a360f0c", "rental_uris": {"android": "https://dc.lft.to/lastmile_qr_scan", "ios": "https://dc.lft.to/lastmile_qr_scan"}, "lon": -77.00285933333333, "fusion_lat": 0.0, "is_disabled": 0, "is_reserved": 0, "lat": 38.89225316666667, "type": "electric_scooter"}, {"fusion_lon": 0.0, "bike_id": "a1d6ce6e254055c84d3af3fde103d550", "name": "a1d6ce6e254055c84d3af3fde103d550", "rental_uris": {"android": "https://dc.lft.to/lastmile_qr_scan", "ios": "https://dc.lft.to/lastmile_qr_scan"}, "lon": -77.03287983333334, "fusion_lat": 0.0, "is_disabled": 0, "is_reserved": 0, "lat": 38.902831666666664, "type": "electric_scooter"}, {"fusion_lon": 0.0, "bike_id": "66ff209bcf4d4ed15656859511d6f7ac", "name": "66ff209bcf4d4ed15656859511d6f7ac", "rental_uris": {"android": "https://dc.lft.to/lastmile_qr_scan", "ios": "https://dc.lft.to/lastmile_qr_scan"}, "lon": -77.045226, "fusion_lat": 0.0, "is_disabled": 0, "is_reserved": 0, "lat": 38.901419, "type": "electric_scooter"}, {"fusion_lon": 0.0, "bike_id": "4f793f24e6e0cf68d43cba7d4105df3f", "name": "4f793f24e6e0cf68d43cba7d4105df3f", "rental_uris": {"android": "https://dc.lft.to/lastmile_qr_scan", "ios": "https://dc.lft.to/lastmile_qr_scan"}, "lon": -77.04665733333333, "fusion_lat": 0.0, "is_disabled": 0, "is_reserved": 0, "lat": 38.9103075, "type": "electric_scooter"}, {"fusion_lon": 0.0, "bike_id": "062424ff88af2cf8139c750b0f14acb8", "name": "062424ff88af2cf8139c750b0f14acb8", "rental_uris": {"android": "https://dc.lft.to/lastmile_qr_scan", "ios": "https://dc.lft.to/lastmile_qr_scan"}, "lon": -77.0182355, "fusion_lat": 0.0, "is_disabled": 0, "is_reserved": 0, "lat": 38.9225525, "type": "electric_scooter"}, {"fusion_lon": 0.0, "bike_id": "1dadff27883f8ca3eb51bb5e060471c5", "name": "1dadff27883f8ca3eb51bb5e060471c5", "rental_uris": {"android": "https://dc.lft.to/lastmile_qr_scan", "ios": "https://dc.lft.to/lastmile_qr_scan"}, "lon": -77.0694855, "fusion_lat": 0.0, "is_disabled": 0, "is_reserved": 0, "lat": 38.917333166666666, "type": "electric_scooter"}, {"fusion_lon": 0.0, "bike_id": "c82d1d0b95ab2dcefdc61efadd1e5708", "name": "c82d1d0b95ab2dcefdc61efadd1e5708", "rental_uris": {"android": "https://dc.lft.to/lastmile_qr_scan", "ios": "https://dc.lft.to/lastmile_qr_scan"}, "lon": -77.02965116666667, "fusion_lat": 0.0, "is_disabled": 0, "is_reserved": 0, "lat": 38.88428416666667, "type": "electric_scooter"}, {"fusion_lon": 0.0, "bike_id": "e6baa110e7e43c371edae06958dfb635", "name": "e6baa110e7e43c371edae06958dfb635", "rental_uris": {"android": "https://dc.lft.to/lastmile_qr_scan", "ios": "https://dc.lft.to/lastmile_qr_scan"}, "lon": -76.9843585, "fusion_lat": 0.0, "is_disabled": 0, "is_reserved": 0, "lat": 38.91434233333333, "type": "electric_scooter"}, {"fusion_lon": 0.0, "bike_id": "243a971a3c809fd3cb83e099d589d617", "name": "243a971a3c809fd3cb83e099d589d617", "rental_uris": {"android": "https://dc.lft.to/lastmile_qr_scan", "ios": "https://dc.lft.to/lastmile_qr_scan"}, "lon": -77.03764033333333, "fusion_lat": 0.0, "is_disabled": 0, "is_reserved": 0, "lat": 38.92706183333333, "type": "electric_scooter"}, {"fusion_lon": 0.0, "bike_id": "63a6d66f22c3f44f78753dbb5d11c7dc", "name": "63a6d66f22c3f44f78753dbb5d11c7dc", "rental_uris": {"android": "https://dc.lft.to/lastmile_qr_scan", "ios": "https://dc.lft.to/lastmile_qr_scan"}, "lon": -77.02945166666667, "fusion_lat": 0.0, "is_disabled": 0, "is_reserved": 0, "lat": 38.9428065, "type": "electric_scooter"}, {"fusion_lon": 0.0, "bike_id": "b6bf0215d5234e8640ecef736ab2f236", "name": "b6bf0215d5234e8640ecef736ab2f236", "rental_uris": {"android": "https://dc.lft.to/lastmile_qr_scan", "ios": "https://dc.lft.to/lastmile_qr_scan"}, "lon": -77.03184433333334, "fusion_lat": 0.0, "is_disabled": 0, "is_reserved": 0, "lat": 38.88731666666666, "type": "electric_scooter"}, {"fusion_lon": 0.0, "bike_id": "00a970d71e902f817a75aab577660d60", "name": "00a970d71e902f817a75aab577660d60", "rental_uris": {"android": "https://dc.lft.to/lastmile_qr_scan", "ios": "https://dc.lft.to/lastmile_qr_scan"}, "lon": -77.019695, "fusion_lat": 0.0, "is_disabled": 0, "is_reserved": 0, "lat": 38.91908766666667, "type": "electric_scooter"}, {"fusion_lon": 0.0, "bike_id": "94ae92aac903e9bb758ea6283317a3a7", "name": "94ae92aac903e9bb758ea6283317a3a7", "rental_uris": {"android": "https://dc.lft.to/lastmile_qr_scan", "ios": "https://dc.lft.to/lastmile_qr_scan"}, "lon": -77.03213966666667, "fusion_lat": 0.0, "is_disabled": 0, "is_reserved": 0, "lat": 38.917759333333336, "type": "electric_scooter"}, {"fusion_lon": 0.0, "bike_id": "fd151e3bb88abc13ec968c4786b7b253", "name": "fd151e3bb88abc13ec968c4786b7b253", "rental_uris": {"android": "https://dc.lft.to/lastmile_qr_scan", "ios": "https://dc.lft.to/lastmile_qr_scan"}, "lon": -77.02373316666667, "fusion_lat": 0.0, "is_disabled": 0, "is_reserved": 0, "lat": 38.91683716666667, "type": "electric_scooter"}, {"fusion_lon": 0.0, "bike_id": "6dbf962c27cbdea6d443982f93244804", "name": "6dbf962c27cbdea6d443982f93244804", "rental_uris": {"android": "https://dc.lft.to/lastmile_qr_scan", "ios": "https://dc.lft.to/lastmile_qr_scan"}, "lon": -77.00468883333333, "fusion_lat": 0.0, "is_disabled": 0, "is_reserved": 0, "lat": 38.9114475, "type": "electric_scooter"}, {"fusion_lon": 0.0, "bike_id": "75684844e1e9b3abd887d21847a68a18", "name": "75684844e1e9b3abd887d21847a68a18", "rental_uris": {"android": "https://dc.lft.to/lastmile_qr_scan", "ios": "https://dc.lft.to/lastmile_qr_scan"}, "lon": -77.0322515, "fusion_lat": 0.0, "is_disabled": 0, "is_reserved": 0, "lat": 38.90961816666667, "type": "electric_scooter"}, {"fusion_lon": 0.0, "bike_id": "86824339e418a82350ca209cde5a4997", "name": "86824339e418a82350ca209cde5a4997", "rental_uris": {"android": "https://dc.lft.to/lastmile_qr_scan", "ios": "https://dc.lft.to/lastmile_qr_scan"}, "lon": -77.03830966666666, "fusion_lat": 0.0, "is_disabled": 0, "is_reserved": 0, "lat": 38.94502416666667, "type": "electric_scooter"}, {"fusion_lon": 0.0, "bike_id": "1f4c1a0b83ad4dcf8bd110af185b971e", "name": "1f4c1a0b83ad4dcf8bd110af185b971e", "rental_uris": {"android": "https://dc.lft.to/lastmile_qr_scan", "ios": "https://dc.lft.to/lastmile_qr_scan"}, "lon": -77.02478083333334, "fusion_lat": 0.0, "is_disabled": 0, "is_reserved": 0, "lat": 38.93100883333334, "type": "electric_scooter"}, {"fusion_lon": 0.0, "bike_id": "ad9d4b2308fedb7a8f356e140e3dfbbd", "name": "ad9d4b2308fedb7a8f356e140e3dfbbd", "rental_uris": {"android": "https://dc.lft.to/lastmile_qr_scan", "ios": "https://dc.lft.to/lastmile_qr_scan"}, "lon": -76.98725683333333, "fusion_lat": 0.0, "is_disabled": 0, "is_reserved": 0, "lat": 38.90358783333333, "type": "electric_scooter"}, {"fusion_lon": 0.0, "bike_id": "dddcfcd59bd034b56e27a061401b4542", "name": "dddcfcd59bd034b56e27a061401b4542", "rental_uris": {"android": "https://dc.lft.to/lastmile_qr_scan", "ios": "https://dc.lft.to/lastmile_qr_scan"}, "lon": -77.02377383333334, "fusion_lat": 0.0, "is_disabled": 0, "is_reserved": 0, "lat": 38.89218433333333, "type": "electric_scooter"}, {"fusion_lon": 0.0, "bike_id": "063d798f9830c002688913b25adcd555", "name": "063d798f9830c002688913b25adcd555", "rental_uris": {"android": "https://dc.lft.to/lastmile_qr_scan", "ios": "https://dc.lft.to/lastmile_qr_scan"}, "lon": -77.06346983333333, "fusion_lat": 0.0, "is_disabled": 0, "is_reserved": 0, "lat": 38.94451216666667, "type": "electric_scooter"}, {"fusion_lon": 0.0, "bike_id": "02e41c588775cfbc428c7d15d993b2dd", "name": "02e41c588775cfbc428c7d15d993b2dd", "rental_uris": {"android": "https://dc.lft.to/lastmile_qr_scan", "ios": "https://dc.lft.to/lastmile_qr_scan"}, "lon": -77.04184533333333, "fusion_lat": 0.0, "is_disabled": 0, "is_reserved": 0, "lat": 38.92049766666667, "type": "electric_scooter"}, {"fusion_lon": 0.0, "bike_id": "f51de11a82a6bdfb8f8ac328fe186e7f", "name": "f51de11a82a6bdfb8f8ac328fe186e7f", "rental_uris": {"android": "https://dc.lft.to/lastmile_qr_scan", "ios": "https://dc.lft.to/lastmile_qr_scan"}, "lon": -77.0185945, "fusion_lat": 0.0, "is_disabled": 0, "is_reserved": 0, "lat": 38.909614, "type": "electric_scooter"}, {"fusion_lon": 0.0, "bike_id": "0d3fb8c7e90683916ff71748465e0260", "name": "0d3fb8c7e90683916ff71748465e0260", "rental_uris": {"android": "https://dc.lft.to/lastmile_qr_scan", "ios": "https://dc.lft.to/lastmile_qr_scan"}, "lon": -77.05051766666666, "fusion_lat": 0.0, "is_disabled": 0, "is_reserved": 0, "lat": 38.90630083333333, "type": "electric_scooter"}, {"fusion_lon": 0.0, "bike_id": "125b8f6fefb9ee031157888f6da12af7", "name": "125b8f6fefb9ee031157888f6da12af7", "rental_uris": {"android": "https://dc.lft.to/lastmile_qr_scan", "ios": "https://dc.lft.to/lastmile_qr_scan"}, "lon": -76.99956333333333, "fusion_lat": 0.0, "is_disabled": 0, "is_reserved": 0, "lat": 38.90411183333333, "type": "electric_scooter"}, {"fusion_lon": 0.0, "bike_id": "4137f680ceccc3c11d4e00669a918fef", "name": "4137f680ceccc3c11d4e00669a918fef", "rental_uris": {"android": "https://dc.lft.to/lastmile_qr_scan", "ios": "https://dc.lft.to/lastmile_qr_scan"}, "lon": -77.027861, "fusion_lat": 0.0, "is_disabled": 0, "is_reserved": 0, "lat": 38.97353416666667, "type": "electric_scooter"}, {"fusion_lon": 0.0, "bike_id": "ccf093304c3d3ab903ae7b5379d2ddab", "name": "ccf093304c3d3ab903ae7b5379d2ddab", "rental_uris": {"android": "https://dc.lft.to/lastmile_qr_scan", "ios": "https://dc.lft.to/lastmile_qr_scan"}, "lon": -76.99464733333333, "fusion_lat": 0.0, "is_disabled": 0, "is_reserved": 0, "lat": 38.94034933333333, "type": "electric_bike"}, {"fusion_lon": 0.0, "bike_id": "fddc60de390f1da7f6e54b1dade1b803", "name": "fddc60de390f1da7f6e54b1dade1b803", "rental_uris": {"android": "https://dc.lft.to/lastmile_qr_scan", "ios": "https://dc.lft.to/lastmile_qr_scan"}, "lon": -77.04381933333333, "fusion_lat": 0.0, "is_disabled": 0, "is_reserved": 0, "lat": 38.909029, "type": "electric_scooter"}, {"fusion_lon": 0.0, "bike_id": "49fab10ca824324554813f48b4f268cd", "name": "49fab10ca824324554813f48b4f268cd", "rental_uris": {"android": "https://dc.lft.to/lastmile_qr_scan", "ios": "https://dc.lft.to/lastmile_qr_scan"}, "lon": -77.04521783333334, "fusion_lat": 0.0, "is_disabled": 0, "is_reserved": 0, "lat": 38.89940166666667, "type": "electric_scooter"}, {"fusion_lon": 0.0, "bike_id": "ce0b40f00b012aa418fd20b7f06fd66a", "name": "ce0b40f00b012aa418fd20b7f06fd66a", "rental_uris": {"android": "https://dc.lft.to/lastmile_qr_scan", "ios": "https://dc.lft.to/lastmile_qr_scan"}, "lon": -77.04703716666667, "fusion_lat": 0.0, "is_disabled": 0, "is_reserved": 0, "lat": 38.900265, "type": "electric_scooter"}, {"fusion_lon": 0.0, "bike_id": "e458f6a63d2fb430dc43315393ddf19b", "name": "e458f6a63d2fb430dc43315393ddf19b", "rental_uris": {"android": "https://dc.lft.to/lastmile_qr_scan", "ios": "https://dc.lft.to/lastmile_qr_scan"}, "lon": -77.06935766666666, "fusion_lat": 0.0, "is_disabled": 0, "is_reserved": 0, "lat": 38.917466833333336, "type": "electric_scooter"}, {"fusion_lon": 0.0, "bike_id": "fa8c2dde884ac2ad82b101bb1c214dd6", "name": "fa8c2dde884ac2ad82b101bb1c214dd6", "rental_uris": {"android": "https://dc.lft.to/lastmile_qr_scan", "ios": "https://dc.lft.to/lastmile_qr_scan"}, "lon": -77.044704, "fusion_lat": 0.0, "is_disabled": 0, "is_reserved": 0, "lat": 38.892202166666664, "type": "electric_scooter"}, {"fusion_lon": 0.0, "bike_id": "866b5635ac414dbf8de273337a69f2a6", "name": "866b5635ac414dbf8de273337a69f2a6", "rental_uris": {"android": "https://dc.lft.to/lastmile_qr_scan", "ios": "https://dc.lft.to/lastmile_qr_scan"}, "lon": -77.08139483333333, "fusion_lat": 0.0, "is_disabled": 0, "is_reserved": 0, "lat": 38.822945833333335, "type": "electric_bike"}, {"fusion_lon": 0.0, "bike_id": "85684d5274e4b2a429afacf33ded8854", "name": "85684d5274e4b2a429afacf33ded8854", "rental_uris": {"android": "https://dc.lft.to/lastmile_qr_scan", "ios": "https://dc.lft.to/lastmile_qr_scan"}, "lon": -77.04551266666667, "fusion_lat": 0.0, "is_disabled": 0, "is_reserved": 0, "lat": 38.912698166666665, "type": "electric_scooter"}, {"fusion_lon": 0.0, "bike_id": "65f26d10800f6c3733a1714fb7479441", "name": "65f26d10800f6c3733a1714fb7479441", "rental_uris": {"android": "https://dc.lft.to/lastmile_qr_scan", "ios": "https://dc.lft.to/lastmile_qr_scan"}, "lon": -77.024831, "fusion_lat": 0.0, "is_disabled": 0, "is_reserved": 0, "lat": 38.923923, "type": "electric_scooter"}, {"fusion_lon": 0.0, "bike_id": "32a230434112371fb1cdbdd3e4bb3db4", "name": "32a230434112371fb1cdbdd3e4bb3db4", "rental_uris": {"android": "https://dc.lft.to/lastmile_qr_scan", "ios": "https://dc.lft.to/lastmile_qr_scan"}, "lon": -77.04907533333333, "fusion_lat": 0.0, "is_disabled": 0, "is_reserved": 0, "lat": 38.8973275, "type": "electric_scooter"}, {"fusion_lon": 0.0, "bike_id": "00ffe7a247deab0bd15c0b76f2c69749", "name": "00ffe7a247deab0bd15c0b76f2c69749", "rental_uris": {"android": "https://dc.lft.to/lastmile_qr_scan", "ios": "https://dc.lft.to/lastmile_qr_scan"}, "lon": -77.02594083333334, "fusion_lat": 0.0, "is_disabled": 0, "is_reserved": 0, "lat": 38.91686083333333, "type": "electric_scooter"}, {"fusion_lon": 0.0, "bike_id": "08a4250007b401a5decab5a4150e7011", "name": "08a4250007b401a5decab5a4150e7011", "rental_uris": {"android": "https://dc.lft.to/lastmile_qr_scan", "ios": "https://dc.lft.to/lastmile_qr_scan"}, "lon": -77.054708, "fusion_lat": 0.0, "is_disabled": 0, "is_reserved": 0, "lat": 38.92325183333333, "type": "electric_scooter"}, {"fusion_lon": 0.0, "bike_id": "f73eaa8f017ee22912af4f6d51e2957a", "name": "f73eaa8f017ee22912af4f6d51e2957a", "rental_uris": {"android": "https://dc.lft.to/lastmile_qr_scan", "ios": "https://dc.lft.to/lastmile_qr_scan"}, "lon": -77.02297216666666, "fusion_lat": 0.0, "is_disabled": 0, "is_reserved": 0, "lat": 38.966734, "type": "electric_bike"}, {"fusion_lon": 0.0, "bike_id": "2d10425fc7a04c5038e9a64bc69bb279", "name": "2d10425fc7a04c5038e9a64bc69bb279", "rental_uris": {"android": "https://dc.lft.to/lastmile_qr_scan", "ios": "https://dc.lft.to/lastmile_qr_scan"}, "lon": -77.02479166666667, "fusion_lat": 0.0, "is_disabled": 0, "is_reserved": 0, "lat": 38.9419695, "type": "electric_scooter"}, {"fusion_lon": 0.0, "bike_id": "81d1ca982c0ba8b4eed39a308ee7383b", "name": "81d1ca982c0ba8b4eed39a308ee7383b", "rental_uris": {"android": "https://dc.lft.to/lastmile_qr_scan", "ios": "https://dc.lft.to/lastmile_qr_scan"}, "lon": -77.00305716666666, "fusion_lat": 0.0, "is_disabled": 0, "is_reserved": 0, "lat": 38.876479, "type": "electric_scooter"}, {"fusion_lon": 0.0, "bike_id": "eaa89fecb9285a6900c11a333b9a0d0e", "name": "eaa89fecb9285a6900c11a333b9a0d0e", "rental_uris": {"android": "https://dc.lft.to/lastmile_qr_scan", "ios": "https://dc.lft.to/lastmile_qr_scan"}, "lon": -77.01372933333333, "fusion_lat": 0.0, "is_disabled": 0, "is_reserved": 0, "lat": 38.9540145, "type": "electric_scooter"}, {"fusion_lon": 0.0, "bike_id": "b2ad8e7e97edab64128d9f16310cea51", "name": "b2ad8e7e97edab64128d9f16310cea51", "rental_uris": {"android": "https://dc.lft.to/lastmile_qr_scan", "ios": "https://dc.lft.to/lastmile_qr_scan"}, "lon": -77.0168585, "fusion_lat": 0.0, "is_disabled": 0, "is_reserved": 0, "lat": 38.920593, "type": "electric_scooter"}, {"fusion_lon": 0.0, "bike_id": "495c5bb4b075cb432367901cd853916e", "name": "495c5bb4b075cb432367901cd853916e", "rental_uris": {"android": "https://dc.lft.to/lastmile_qr_scan", "ios": "https://dc.lft.to/lastmile_qr_scan"}, "lon": -77.068403, "fusion_lat": 0.0, "is_disabled": 0, "is_reserved": 0, "lat": 38.917221166666664, "type": "electric_scooter"}, {"fusion_lon": 0.0, "bike_id": "874f31ca68322f7c6c71ec475974d034", "name": "874f31ca68322f7c6c71ec475974d034", "rental_uris": {"android": "https://dc.lft.to/lastmile_qr_scan", "ios": "https://dc.lft.to/lastmile_qr_scan"}, "lon": -77.03796333333334, "fusion_lat": 0.0, "is_disabled": 0, "is_reserved": 0, "lat": 38.9024415, "type": "electric_scooter"}, {"fusion_lon": 0.0, "bike_id": "65c271dc17869cd10c1ec214bc95dcab", "name": "65c271dc17869cd10c1ec214bc95dcab", "rental_uris": {"android": "https://dc.lft.to/lastmile_qr_scan", "ios": "https://dc.lft.to/lastmile_qr_scan"}, "lon": -77.0314415, "fusion_lat": 0.0, "is_disabled": 0, "is_reserved": 0, "lat": 38.89939366666667, "type": "electric_scooter"}, {"fusion_lon": 0.0, "bike_id": "9360c0fa0fa3ede58060471054e92043", "name": "9360c0fa0fa3ede58060471054e92043", "rental_uris": {"android": "https://dc.lft.to/lastmile_qr_scan", "ios": "https://dc.lft.to/lastmile_qr_scan"}, "lon": -77.05713, "fusion_lat": 0.0, "is_disabled": 0, "is_reserved": 0, "lat": 38.93603933333333, "type": "electric_scooter"}, {"fusion_lon": 0.0, "bike_id": "680a2b3ee8fe2a9b986648bf275fcf5a", "name": "680a2b3ee8fe2a9b986648bf275fcf5a", "rental_uris": {"android": "https://dc.lft.to/lastmile_qr_scan", "ios": "https://dc.lft.to/lastmile_qr_scan"}, "lon": -76.9926715, "fusion_lat": 0.0, "is_disabled": 0, "is_reserved": 0, "lat": 38.90292566666667, "type": "electric_scooter"}, {"fusion_lon": 0.0, "bike_id": "3fcd9eb045ec1a73826e4e7efecaa069", "name": "3fcd9eb045ec1a73826e4e7efecaa069", "rental_uris": {"android": "https://dc.lft.to/lastmile_qr_scan", "ios": "https://dc.lft.to/lastmile_qr_scan"}, "lon": -77.03594066666666, "fusion_lat": 0.0, "is_disabled": 0, "is_reserved": 0, "lat": 38.9262415, "type": "electric_scooter"}, {"fusion_lon": 0.0, "bike_id": "93ba6f4a4a240b198d7bd46ea3afc726", "name": "93ba6f4a4a240b198d7bd46ea3afc726", "rental_uris": {"android": "https://dc.lft.to/lastmile_qr_scan", "ios": "https://dc.lft.to/lastmile_qr_scan"}, "lon": -77.0055515, "fusion_lat": 0.0, "is_disabled": 0, "is_reserved": 0, "lat": 38.875446, "type": "electric_scooter"}, {"fusion_lon": 0.0, "bike_id": "d9694a4c86ead24678d253b89832e658", "name": "d9694a4c86ead24678d253b89832e658", "rental_uris": {"android": "https://dc.lft.to/lastmile_qr_scan", "ios": "https://dc.lft.to/lastmile_qr_scan"}, "lon": -77.00192816666667, "fusion_lat": 0.0, "is_disabled": 0, "is_reserved": 0, "lat": 38.900319333333336, "type": "electric_scooter"}, {"fusion_lon": 0.0, "bike_id": "4b274b7d7c0b43b13bdd5b881b2438d9", "name": "4b274b7d7c0b43b13bdd5b881b2438d9", "rental_uris": {"android": "https://dc.lft.to/lastmile_qr_scan", "ios": "https://dc.lft.to/lastmile_qr_scan"}, "lon": -77.033358, "fusion_lat": 0.0, "is_disabled": 0, "is_reserved": 0, "lat": 38.97213216666667, "type": "electric_scooter"}, {"fusion_lon": 0.0, "bike_id": "91493c0f80d07b1edede63dac2a6c5ec", "name": "91493c0f80d07b1edede63dac2a6c5ec", "rental_uris": {"android": "https://dc.lft.to/lastmile_qr_scan", "ios": "https://dc.lft.to/lastmile_qr_scan"}, "lon": -77.00785033333334, "fusion_lat": 0.0, "is_disabled": 0, "is_reserved": 0, "lat": 38.87938533333333, "type": "electric_scooter"}, {"fusion_lon": 0.0, "bike_id": "a6528cfd63d813ec10e2e42d276966cd", "name": "a6528cfd63d813ec10e2e42d276966cd", "rental_uris": {"android": "https://dc.lft.to/lastmile_qr_scan", "ios": "https://dc.lft.to/lastmile_qr_scan"}, "lon": -77.0380075, "fusion_lat": 0.0, "is_disabled": 0, "is_reserved": 0, "lat": 38.91535616666667, "type": "electric_scooter"}, {"fusion_lon": 0.0, "bike_id": "9ae0310420aee29aacebd3af13f62bbc", "name": "9ae0310420aee29aacebd3af13f62bbc", "rental_uris": {"android": "https://dc.lft.to/lastmile_qr_scan", "ios": "https://dc.lft.to/lastmile_qr_scan"}, "lon": -77.05807633333333, "fusion_lat": 0.0, "is_disabled": 0, "is_reserved": 0, "lat": 38.9044755, "type": "electric_scooter"}, {"fusion_lon": 0.0, "bike_id": "d5d3e3ae5398ddf6f5940323bbb45c70", "name": "d5d3e3ae5398ddf6f5940323bbb45c70", "rental_uris": {"android": "https://dc.lft.to/lastmile_qr_scan", "ios": "https://dc.lft.to/lastmile_qr_scan"}, "lon": -77.02969733333333, "fusion_lat": 0.0, "is_disabled": 0, "is_reserved": 0, "lat": 38.92312616666667, "type": "electric_scooter"}, {"fusion_lon": 0.0, "bike_id": "8618dbe9ef40ed45b84ca8e97cfb43e2", "name": "8618dbe9ef40ed45b84ca8e97cfb43e2", "rental_uris": {"android": "https://dc.lft.to/lastmile_qr_scan", "ios": "https://dc.lft.to/lastmile_qr_scan"}, "lon": -76.996265, "fusion_lat": 0.0, "is_disabled": 0, "is_reserved": 0, "lat": 38.876620333333335, "type": "electric_scooter"}, {"fusion_lon": 0.0, "bike_id": "53d958f474df478591a89b35ca1dcfad", "name": "53d958f474df478591a89b35ca1dcfad", "rental_uris": {"android": "https://dc.lft.to/lastmile_qr_scan", "ios": "https://dc.lft.to/lastmile_qr_scan"}, "lon": -77.059509, "fusion_lat": 0.0, "is_disabled": 0, "is_reserved": 0, "lat": 38.91965783333333, "type": "electric_scooter"}, {"fusion_lon": 0.0, "bike_id": "6fd5c29ce3bb2be044ff732dbafb9829", "name": "6fd5c29ce3bb2be044ff732dbafb9829", "rental_uris": {"android": "https://dc.lft.to/lastmile_qr_scan", "ios": "https://dc.lft.to/lastmile_qr_scan"}, "lon": -77.10609266666667, "fusion_lat": 0.0, "is_disabled": 0, "is_reserved": 0, "lat": 38.9356255, "type": "electric_bike"}, {"fusion_lon": 0.0, "bike_id": "c48dc6d069f565c49e2ef0e9b0607c81", "name": "c48dc6d069f565c49e2ef0e9b0607c81", "rental_uris": {"android": "https://dc.lft.to/lastmile_qr_scan", "ios": "https://dc.lft.to/lastmile_qr_scan"}, "lon": -77.01957083333333, "fusion_lat": 0.0, "is_disabled": 0, "is_reserved": 0, "lat": 38.89924533333333, "type": "electric_scooter"}, {"fusion_lon": 0.0, "bike_id": "aa79c18dc2c2a81ac39b91f97cbdaeb9", "name": "aa79c18dc2c2a81ac39b91f97cbdaeb9", "rental_uris": {"android": "https://dc.lft.to/lastmile_qr_scan", "ios": "https://dc.lft.to/lastmile_qr_scan"}, "lon": -76.95233333333333, "fusion_lat": 0.0, "is_disabled": 0, "is_reserved": 0, "lat": 38.8934625, "type": "electric_scooter"}, {"fusion_lon": 0.0, "bike_id": "6b136328b748792d847d0a5e6987a72a", "name": "6b136328b748792d847d0a5e6987a72a", "rental_uris": {"android": "https://dc.lft.to/lastmile_qr_scan", "ios": "https://dc.lft.to/lastmile_qr_scan"}, "lon": -77.0260215, "fusion_lat": 0.0, "is_disabled": 0, "is_reserved": 0, "lat": 38.91726033333333, "type": "electric_scooter"}, {"fusion_lon": 0.0, "bike_id": "0146d4529ed97a574ffa4ecc4e6a2007", "name": "0146d4529ed97a574ffa4ecc4e6a2007", "rental_uris": {"android": "https://dc.lft.to/lastmile_qr_scan", "ios": "https://dc.lft.to/lastmile_qr_scan"}, "lon": -77.04688416666667, "fusion_lat": 0.0, "is_disabled": 0, "is_reserved": 0, "lat": 38.92097183333333, "type": "electric_scooter"}, {"fusion_lon": 0.0, "bike_id": "317f26fe5b5514db556320f6b67e80d8", "name": "317f26fe5b5514db556320f6b67e80d8", "rental_uris": {"android": "https://dc.lft.to/lastmile_qr_scan", "ios": "https://dc.lft.to/lastmile_qr_scan"}, "lon": -77.00669433333333, "fusion_lat": 0.0, "is_disabled": 0, "is_reserved": 0, "lat": 38.91268983333333, "type": "electric_scooter"}, {"fusion_lon": 0.0, "bike_id": "d2ae9a5882630afde700698afbc7631b", "name": "d2ae9a5882630afde700698afbc7631b", "rental_uris": {"android": "https://dc.lft.to/lastmile_qr_scan", "ios": "https://dc.lft.to/lastmile_qr_scan"}, "lon": -77.0320745, "fusion_lat": 0.0, "is_disabled": 0, "is_reserved": 0, "lat": 38.910476833333334, "type": "electric_scooter"}, {"fusion_lon": 0.0, "bike_id": "067bcd72e7550c285fda86888ebeb6b5", "name": "067bcd72e7550c285fda86888ebeb6b5", "rental_uris": {"android": "https://dc.lft.to/lastmile_qr_scan", "ios": "https://dc.lft.to/lastmile_qr_scan"}, "lon": -77.02178783333333, "fusion_lat": 0.0, "is_disabled": 0, "is_reserved": 0, "lat": 38.887338666666665, "type": "electric_scooter"}, {"fusion_lon": 0.0, "bike_id": "117f82bd090d3eb3bd78cd01becf1526", "name": "117f82bd090d3eb3bd78cd01becf1526", "rental_uris": {"android": "https://dc.lft.to/lastmile_qr_scan", "ios": "https://dc.lft.to/lastmile_qr_scan"}, "lon": -77.05518716666667, "fusion_lat": 0.0, "is_disabled": 0, "is_reserved": 0, "lat": 38.8973235, "type": "electric_scooter"}, {"fusion_lon": 0.0, "bike_id": "5376f6e4aadd5efdc352c011336f4aca", "name": "5376f6e4aadd5efdc352c011336f4aca", "rental_uris": {"android": "https://dc.lft.to/lastmile_qr_scan", "ios": "https://dc.lft.to/lastmile_qr_scan"}, "lon": -77.09061483333333, "fusion_lat": 0.0, "is_disabled": 0, "is_reserved": 0, "lat": 38.934431000000004, "type": "electric_scooter"}, {"fusion_lon": 0.0, "bike_id": "82a68a351b84ad7b89645635766ead1c", "name": "82a68a351b84ad7b89645635766ead1c", "rental_uris": {"android": "https://dc.lft.to/lastmile_qr_scan", "ios": "https://dc.lft.to/lastmile_qr_scan"}, "lon": -77.04152583333334, "fusion_lat": 0.0, "is_disabled": 0, "is_reserved": 0, "lat": 38.91717, "type": "electric_scooter"}, {"fusion_lon": 0.0, "bike_id": "eae19d15fb5402abb952dcee650abd5b", "name": "eae19d15fb5402abb952dcee650abd5b", "rental_uris": {"android": "https://dc.lft.to/lastmile_qr_scan", "ios": "https://dc.lft.to/lastmile_qr_scan"}, "lon": -77.041343, "fusion_lat": 0.0, "is_disabled": 0, "is_reserved": 0, "lat": 38.899336166666664, "type": "electric_scooter"}, {"fusion_lon": 0.0, "bike_id": "7a5a158a45b3e607f417b4cdd1ca305e", "name": "7a5a158a45b3e607f417b4cdd1ca305e", "rental_uris": {"android": "https://dc.lft.to/lastmile_qr_scan", "ios": "https://dc.lft.to/lastmile_qr_scan"}, "lon": -77.23410316666667, "fusion_lat": 0.0, "is_disabled": 0, "is_reserved": 0, "lat": 38.87580166666667, "type": "electric_bike"}, {"fusion_lon": 0.0, "bike_id": "077335a8a0213e9e334315ab9cc75144", "name": "077335a8a0213e9e334315ab9cc75144", "rental_uris": {"android": "https://dc.lft.to/lastmile_qr_scan", "ios": "https://dc.lft.to/lastmile_qr_scan"}, "lon": -77.00345933333334, "fusion_lat": 0.0, "is_disabled": 0, "is_reserved": 0, "lat": 38.89531316666667, "type": "electric_scooter"}, {"fusion_lon": 0.0, "bike_id": "21a67533d6d9b25de2a0e527d46a6977", "name": "21a67533d6d9b25de2a0e527d46a6977", "rental_uris": {"android": "https://dc.lft.to/lastmile_qr_scan", "ios": "https://dc.lft.to/lastmile_qr_scan"}, "lon": -77.03191733333334, "fusion_lat": 0.0, "is_disabled": 0, "is_reserved": 0, "lat": 38.921029833333336, "type": "electric_scooter"}, {"fusion_lon": 0.0, "bike_id": "b0e35019f1b5225d7a7bc7c6c5149de0", "name": "b0e35019f1b5225d7a7bc7c6c5149de0", "rental_uris": {"android": "https://dc.lft.to/lastmile_qr_scan", "ios": "https://dc.lft.to/lastmile_qr_scan"}, "lon": -77.06031633333333, "fusion_lat": 0.0, "is_disabled": 0, "is_reserved": 0, "lat": 38.9031135, "type": "electric_scooter"}, {"fusion_lon": 0.0, "bike_id": "b8e96c137720396a15ac1f0c781a8db7", "name": "b8e96c137720396a15ac1f0c781a8db7", "rental_uris": {"android": "https://dc.lft.to/lastmile_qr_scan", "ios": "https://dc.lft.to/lastmile_qr_scan"}, "lon": -77.037663, "fusion_lat": 0.0, "is_disabled": 0, "is_reserved": 0, "lat": 38.9168975, "type": "electric_scooter"}, {"fusion_lon": 0.0, "bike_id": "47f02c2b9c3ac6481906ddf4fcf08f27", "name": "47f02c2b9c3ac6481906ddf4fcf08f27", "rental_uris": {"android": "https://dc.lft.to/lastmile_qr_scan", "ios": "https://dc.lft.to/lastmile_qr_scan"}, "lon": -77.01664766666667, "fusion_lat": 0.0, "is_disabled": 0, "is_reserved": 0, "lat": 38.92047266666667, "type": "electric_scooter"}, {"fusion_lon": 0.0, "bike_id": "509fe1bbf717a36463c9ed3dd49549a0", "name": "509fe1bbf717a36463c9ed3dd49549a0", "rental_uris": {"android": "https://dc.lft.to/lastmile_qr_scan", "ios": "https://dc.lft.to/lastmile_qr_scan"}, "lon": -77.03207316666666, "fusion_lat": 0.0, "is_disabled": 0, "is_reserved": 0, "lat": 38.91681583333333, "type": "electric_scooter"}, {"fusion_lon": 0.0, "bike_id": "0f5a660c3d0380c58db7b9a7ca72f990", "name": "0f5a660c3d0380c58db7b9a7ca72f990", "rental_uris": {"android": "https://dc.lft.to/lastmile_qr_scan", "ios": "https://dc.lft.to/lastmile_qr_scan"}, "lon": -77.04625016666667, "fusion_lat": 0.0, "is_disabled": 0, "is_reserved": 0, "lat": 38.90968383333333, "type": "electric_scooter"}, {"fusion_lon": 0.0, "bike_id": "864c8cf3bd0a34cadb35dcd8f0a8ef71", "name": "864c8cf3bd0a34cadb35dcd8f0a8ef71", "rental_uris": {"android": "https://dc.lft.to/lastmile_qr_scan", "ios": "https://dc.lft.to/lastmile_qr_scan"}, "lon": -77.05562116666667, "fusion_lat": 0.0, "is_disabled": 0, "is_reserved": 0, "lat": 38.93030366666667, "type": "electric_scooter"}, {"fusion_lon": 0.0, "bike_id": "90249c58ee827dccb998600ead837812", "name": "90249c58ee827dccb998600ead837812", "rental_uris": {"android": "https://dc.lft.to/lastmile_qr_scan", "ios": "https://dc.lft.to/lastmile_qr_scan"}, "lon": -77.021839, "fusion_lat": 0.0, "is_disabled": 0, "is_reserved": 0, "lat": 38.89998, "type": "electric_scooter"}, {"fusion_lon": 0.0, "bike_id": "62039b0591ec753c20d30e662a8f0252", "name": "62039b0591ec753c20d30e662a8f0252", "rental_uris": {"android": "https://dc.lft.to/lastmile_qr_scan", "ios": "https://dc.lft.to/lastmile_qr_scan"}, "lon": -77.03378483333333, "fusion_lat": 0.0, "is_disabled": 0, "is_reserved": 0, "lat": 38.89234966666667, "type": "electric_scooter"}, {"fusion_lon": 0.0, "bike_id": "01bee4ccf75387818ad5275314420738", "name": "01bee4ccf75387818ad5275314420738", "rental_uris": {"android": "https://dc.lft.to/lastmile_qr_scan", "ios": "https://dc.lft.to/lastmile_qr_scan"}, "lon": -77.03427716666667, "fusion_lat": 0.0, "is_disabled": 0, "is_reserved": 0, "lat": 38.91928866666667, "type": "electric_scooter"}, {"fusion_lon": 0.0, "bike_id": "e16cb51ea2d998fe941117a333683bed", "name": "e16cb51ea2d998fe941117a333683bed", "rental_uris": {"android": "https://dc.lft.to/lastmile_qr_scan", "ios": "https://dc.lft.to/lastmile_qr_scan"}, "lon": -77.04863383333333, "fusion_lat": 0.0, "is_disabled": 0, "is_reserved": 0, "lat": 38.900277333333335, "type": "electric_scooter"}, {"fusion_lon": 0.0, "bike_id": "eeceaedb44aefb8d243b78fde5b09e51", "name": "eeceaedb44aefb8d243b78fde5b09e51", "rental_uris": {"android": "https://dc.lft.to/lastmile_qr_scan", "ios": "https://dc.lft.to/lastmile_qr_scan"}, "lon": -76.99380733333334, "fusion_lat": 0.0, "is_disabled": 0, "is_reserved": 0, "lat": 38.893364, "type": "electric_scooter"}, {"fusion_lon": 0.0, "bike_id": "ce6515923b911a883f6e9a8a33ff73eb", "name": "ce6515923b911a883f6e9a8a33ff73eb", "rental_uris": {"android": "https://dc.lft.to/lastmile_qr_scan", "ios": "https://dc.lft.to/lastmile_qr_scan"}, "lon": -77.0069145, "fusion_lat": 0.0, "is_disabled": 0, "is_reserved": 0, "lat": 38.876932, "type": "electric_scooter"}, {"fusion_lon": 0.0, "bike_id": "d81843cb9b8f4605316e4892b0eb496d", "name": "d81843cb9b8f4605316e4892b0eb496d", "rental_uris": {"android": "https://dc.lft.to/lastmile_qr_scan", "ios": "https://dc.lft.to/lastmile_qr_scan"}, "lon": -76.99269566666666, "fusion_lat": 0.0, "is_disabled": 0, "is_reserved": 0, "lat": 38.92226766666667, "type": "electric_scooter"}, {"fusion_lon": 0.0, "bike_id": "55c5bf6ff01181031dfff6e246b73a8e", "name": "55c5bf6ff01181031dfff6e246b73a8e", "rental_uris": {"android": "https://dc.lft.to/lastmile_qr_scan", "ios": "https://dc.lft.to/lastmile_qr_scan"}, "lon": -77.02184833333334, "fusion_lat": 0.0, "is_disabled": 0, "is_reserved": 0, "lat": 38.914306333333336, "type": "electric_scooter"}, {"fusion_lon": 0.0, "bike_id": "decc96852c884ff6cc4687c1be74eb04", "name": "decc96852c884ff6cc4687c1be74eb04", "rental_uris": {"android": "https://dc.lft.to/lastmile_qr_scan", "ios": "https://dc.lft.to/lastmile_qr_scan"}, "lon": -77.07491916666666, "fusion_lat": 0.0, "is_disabled": 0, "is_reserved": 0, "lat": 38.796089333333335, "type": "electric_scooter"}, {"fusion_lon": 0.0, "bike_id": "021450980668efe1502d417f029991c9", "name": "021450980668efe1502d417f029991c9", "rental_uris": {"android": "https://dc.lft.to/lastmile_qr_scan", "ios": "https://dc.lft.to/lastmile_qr_scan"}, "lon": -77.04535116666666, "fusion_lat": 0.0, "is_disabled": 0, "is_reserved": 0, "lat": 38.914045, "type": "electric_scooter"}, {"fusion_lon": 0.0, "bike_id": "feb40151b0399639c958c1fb8117bd43", "name": "feb40151b0399639c958c1fb8117bd43", "rental_uris": {"android": "https://dc.lft.to/lastmile_qr_scan", "ios": "https://dc.lft.to/lastmile_qr_scan"}, "lon": -77.0356385, "fusion_lat": 0.0, "is_disabled": 0, "is_reserved": 0, "lat": 38.9263925, "type": "electric_scooter"}, {"fusion_lon": 0.0, "bike_id": "a889205ddf612eb9c90670a5a565fbbd", "name": "a889205ddf612eb9c90670a5a565fbbd", "rental_uris": {"android": "https://dc.lft.to/lastmile_qr_scan", "ios": "https://dc.lft.to/lastmile_qr_scan"}, "lon": -77.006065, "fusion_lat": 0.0, "is_disabled": 0, "is_reserved": 0, "lat": 38.875815333333335, "type": "electric_scooter"}, {"fusion_lon": 0.0, "bike_id": "3bd600ddd13ede5f420a915cb825dfe8", "name": "3bd600ddd13ede5f420a915cb825dfe8", "rental_uris": {"android": "https://dc.lft.to/lastmile_qr_scan", "ios": "https://dc.lft.to/lastmile_qr_scan"}, "lon": -77.09715566666667, "fusion_lat": 0.0, "is_disabled": 0, "is_reserved": 0, "lat": 38.8073655, "type": "electric_bike"}, {"fusion_lon": 0.0, "bike_id": "c7ea8b47be93e0a4c8f595e6388dbdb9", "name": "c7ea8b47be93e0a4c8f595e6388dbdb9", "rental_uris": {"android": "https://dc.lft.to/lastmile_qr_scan", "ios": "https://dc.lft.to/lastmile_qr_scan"}, "lon": -77.031647, "fusion_lat": 0.0, "is_disabled": 0, "is_reserved": 0, "lat": 38.9164185, "type": "electric_scooter"}, {"fusion_lon": 0.0, "bike_id": "acf4caa0c68428973d81adf8f0aa3cbc", "name": "acf4caa0c68428973d81adf8f0aa3cbc", "rental_uris": {"android": "https://dc.lft.to/lastmile_qr_scan", "ios": "https://dc.lft.to/lastmile_qr_scan"}, "lon": -77.03182683333333, "fusion_lat": 0.0, "is_disabled": 0, "is_reserved": 0, "lat": 38.9135015, "type": "electric_scooter"}, {"fusion_lon": 0.0, "bike_id": "5fcc1d697e021aebb56de1090fbe603e", "name": "5fcc1d697e021aebb56de1090fbe603e", "rental_uris": {"android": "https://dc.lft.to/lastmile_qr_scan", "ios": "https://dc.lft.to/lastmile_qr_scan"}, "lon": -76.98348, "fusion_lat": 0.0, "is_disabled": 0, "is_reserved": 0, "lat": 38.862574, "type": "electric_bike"}, {"fusion_lon": 0.0, "bike_id": "0954e2811f166db0e79cae16820b5378", "name": "0954e2811f166db0e79cae16820b5378", "rental_uris": {"android": "https://dc.lft.to/lastmile_qr_scan", "ios": "https://dc.lft.to/lastmile_qr_scan"}, "lon": -77.03190933333333, "fusion_lat": 0.0, "is_disabled": 0, "is_reserved": 0, "lat": 38.90869933333333, "type": "electric_scooter"}, {"fusion_lon": 0.0, "bike_id": "914306aa7bfad8b09038f1a47f996b1a", "name": "914306aa7bfad8b09038f1a47f996b1a", "rental_uris": {"android": "https://dc.lft.to/lastmile_qr_scan", "ios": "https://dc.lft.to/lastmile_qr_scan"}, "lon": -77.04650566666666, "fusion_lat": 0.0, "is_disabled": 0, "is_reserved": 0, "lat": 38.8922555, "type": "electric_scooter"}, {"fusion_lon": 0.0, "bike_id": "07903c8f32167a74f7e56e39447ef31e", "name": "07903c8f32167a74f7e56e39447ef31e", "rental_uris": {"android": "https://dc.lft.to/lastmile_qr_scan", "ios": "https://dc.lft.to/lastmile_qr_scan"}, "lon": -77.0540025, "fusion_lat": 0.0, "is_disabled": 0, "is_reserved": 0, "lat": 38.9279575, "type": "electric_scooter"}, {"fusion_lon": 0.0, "bike_id": "ac3207a1d9e265646a84b700aa8e406b", "name": "ac3207a1d9e265646a84b700aa8e406b", "rental_uris": {"android": "https://dc.lft.to/lastmile_qr_scan", "ios": "https://dc.lft.to/lastmile_qr_scan"}, "lon": -77.02377933333334, "fusion_lat": 0.0, "is_disabled": 0, "is_reserved": 0, "lat": 38.891955333333335, "type": "electric_scooter"}, {"fusion_lon": 0.0, "bike_id": "5eeeaad24d071e0236492225c4380b56", "name": "5eeeaad24d071e0236492225c4380b56", "rental_uris": {"android": "https://dc.lft.to/lastmile_qr_scan", "ios": "https://dc.lft.to/lastmile_qr_scan"}, "lon": -77.018932, "fusion_lat": 0.0, "is_disabled": 0, "is_reserved": 0, "lat": 38.92265583333333, "type": "electric_scooter"}, {"fusion_lon": 0.0, "bike_id": "45e7cb197cc47e326b1a1ced02b0516b", "name": "45e7cb197cc47e326b1a1ced02b0516b", "rental_uris": {"android": "https://dc.lft.to/lastmile_qr_scan", "ios": "https://dc.lft.to/lastmile_qr_scan"}, "lon": -77.007552, "fusion_lat": 0.0, "is_disabled": 0, "is_reserved": 0, "lat": 38.87667483333333, "type": "electric_scooter"}, {"fusion_lon": 0.0, "bike_id": "0b396b4a8cde07d82911ab888809a147", "name": "0b396b4a8cde07d82911ab888809a147", "rental_uris": {"android": "https://dc.lft.to/lastmile_qr_scan", "ios": "https://dc.lft.to/lastmile_qr_scan"}, "lon": -77.0425105, "fusion_lat": 0.0, "is_disabled": 0, "is_reserved": 0, "lat": 38.921894333333334, "type": "electric_scooter"}, {"fusion_lon": 0.0, "bike_id": "9fb22f8a279156431f351eb26332458a", "name": "9fb22f8a279156431f351eb26332458a", "rental_uris": {"android": "https://dc.lft.to/lastmile_qr_scan", "ios": "https://dc.lft.to/lastmile_qr_scan"}, "lon": -77.05265533333333, "fusion_lat": 0.0, "is_disabled": 0, "is_reserved": 0, "lat": 38.92767283333333, "type": "electric_scooter"}, {"fusion_lon": 0.0, "bike_id": "067775fcbe0cf68c06c78aa76d4bc608", "name": "067775fcbe0cf68c06c78aa76d4bc608", "rental_uris": {"android": "https://dc.lft.to/lastmile_qr_scan", "ios": "https://dc.lft.to/lastmile_qr_scan"}, "lon": -77.02976383333333, "fusion_lat": 0.0, "is_disabled": 0, "is_reserved": 0, "lat": 38.9348135, "type": "electric_scooter"}, {"fusion_lon": 0.0, "bike_id": "ddff4cc0d4f839fb99e8ff9adfb8f96f", "name": "ddff4cc0d4f839fb99e8ff9adfb8f96f", "rental_uris": {"android": "https://dc.lft.to/lastmile_qr_scan", "ios": "https://dc.lft.to/lastmile_qr_scan"}, "lon": -77.0215645, "fusion_lat": 0.0, "is_disabled": 0, "is_reserved": 0, "lat": 38.926030833333336, "type": "electric_scooter"}, {"fusion_lon": 0.0, "bike_id": "6505737cc1d1d33ad322324ce24a47b6", "name": "6505737cc1d1d33ad322324ce24a47b6", "rental_uris": {"android": "https://dc.lft.to/lastmile_qr_scan", "ios": "https://dc.lft.to/lastmile_qr_scan"}, "lon": -76.93177783333333, "fusion_lat": 0.0, "is_disabled": 0, "is_reserved": 0, "lat": 38.89885366666667, "type": "electric_scooter"}, {"fusion_lon": 0.0, "bike_id": "bf95653f375c7fe1057c3bb07aa6ca57", "name": "bf95653f375c7fe1057c3bb07aa6ca57", "rental_uris": {"android": "https://dc.lft.to/lastmile_qr_scan", "ios": "https://dc.lft.to/lastmile_qr_scan"}, "lon": -77.01984816666666, "fusion_lat": 0.0, "is_disabled": 0, "is_reserved": 0, "lat": 38.92415066666667, "type": "electric_scooter"}, {"fusion_lon": 0.0, "bike_id": "f1acd654e7bbff5f728ef55cd71eab3f", "name": "f1acd654e7bbff5f728ef55cd71eab3f", "rental_uris": {"android": "https://dc.lft.to/lastmile_qr_scan", "ios": "https://dc.lft.to/lastmile_qr_scan"}, "lon": -77.02800016666667, "fusion_lat": 0.0, "is_disabled": 0, "is_reserved": 0, "lat": 38.9445285, "type": "electric_scooter"}, {"fusion_lon": 0.0, "bike_id": "fa84afd2d3da8fa3423ec9a3bb1e4ed1", "name": "fa84afd2d3da8fa3423ec9a3bb1e4ed1", "rental_uris": {"android": "https://dc.lft.to/lastmile_qr_scan", "ios": "https://dc.lft.to/lastmile_qr_scan"}, "lon": -76.98435883333333, "fusion_lat": 0.0, "is_disabled": 0, "is_reserved": 0, "lat": 38.9327545, "type": "electric_scooter"}, {"fusion_lon": 0.0, "bike_id": "94569f38c500fcafcca9082b1992764c", "name": "94569f38c500fcafcca9082b1992764c", "rental_uris": {"android": "https://dc.lft.to/lastmile_qr_scan", "ios": "https://dc.lft.to/lastmile_qr_scan"}, "lon": -76.97985083333333, "fusion_lat": 0.0, "is_disabled": 0, "is_reserved": 0, "lat": 38.907334166666665, "type": "electric_scooter"}, {"fusion_lon": 0.0, "bike_id": "0859f1f532a4acf70618ceebdd9aefab", "name": "0859f1f532a4acf70618ceebdd9aefab", "rental_uris": {"android": "https://dc.lft.to/lastmile_qr_scan", "ios": "https://dc.lft.to/lastmile_qr_scan"}, "lon": -77.0487315, "fusion_lat": 0.0, "is_disabled": 0, "is_reserved": 0, "lat": 38.90404133333333, "type": "electric_scooter"}, {"fusion_lon": 0.0, "bike_id": "6a6e58e67cd86526a76cfbe7d2daf033", "name": "6a6e58e67cd86526a76cfbe7d2daf033", "rental_uris": {"android": "https://dc.lft.to/lastmile_qr_scan", "ios": "https://dc.lft.to/lastmile_qr_scan"}, "lon": -76.97332816666666, "fusion_lat": 0.0, "is_disabled": 0, "is_reserved": 0, "lat": 38.904059833333335, "type": "electric_scooter"}, {"fusion_lon": 0.0, "bike_id": "6fa059180cf37613b1b13aa3e1b16d2b", "name": "6fa059180cf37613b1b13aa3e1b16d2b", "rental_uris": {"android": "https://dc.lft.to/lastmile_qr_scan", "ios": "https://dc.lft.to/lastmile_qr_scan"}, "lon": -77.06088066666666, "fusion_lat": 0.0, "is_disabled": 0, "is_reserved": 0, "lat": 38.90234933333333, "type": "electric_scooter"}, {"fusion_lon": 0.0, "bike_id": "e71f32994eab23df18b2c08677c40b77", "name": "e71f32994eab23df18b2c08677c40b77", "rental_uris": {"android": "https://dc.lft.to/lastmile_qr_scan", "ios": "https://dc.lft.to/lastmile_qr_scan"}, "lon": -77.03567183333334, "fusion_lat": 0.0, "is_disabled": 0, "is_reserved": 0, "lat": 38.9022415, "type": "electric_scooter"}, {"fusion_lon": 0.0, "bike_id": "f7cddfae7db09ad57d4867517e9a2dd8", "name": "f7cddfae7db09ad57d4867517e9a2dd8", "rental_uris": {"android": "https://dc.lft.to/lastmile_qr_scan", "ios": "https://dc.lft.to/lastmile_qr_scan"}, "lon": -77.02102433333333, "fusion_lat": 0.0, "is_disabled": 0, "is_reserved": 0, "lat": 38.9270435, "type": "electric_scooter"}, {"fusion_lon": 0.0, "bike_id": "c2ce80f695ba1db055597cba9ac352cd", "name": "c2ce80f695ba1db055597cba9ac352cd", "rental_uris": {"android": "https://dc.lft.to/lastmile_qr_scan", "ios": "https://dc.lft.to/lastmile_qr_scan"}, "lon": -76.99313116666667, "fusion_lat": 0.0, "is_disabled": 0, "is_reserved": 0, "lat": 38.946339, "type": "electric_bike"}, {"fusion_lon": 0.0, "bike_id": "570479fd704903f549dabd90e04b4e0b", "name": "570479fd704903f549dabd90e04b4e0b", "rental_uris": {"android": "https://dc.lft.to/lastmile_qr_scan", "ios": "https://dc.lft.to/lastmile_qr_scan"}, "lon": -77.03147733333333, "fusion_lat": 0.0, "is_disabled": 0, "is_reserved": 0, "lat": 38.8993865, "type": "electric_scooter"}, {"fusion_lon": 0.0, "bike_id": "b15bfed8fc2b64d640232d03cbe52ae2", "name": "b15bfed8fc2b64d640232d03cbe52ae2", "rental_uris": {"android": "https://dc.lft.to/lastmile_qr_scan", "ios": "https://dc.lft.to/lastmile_qr_scan"}, "lon": -77.02406883333333, "fusion_lat": 0.0, "is_disabled": 0, "is_reserved": 0, "lat": 38.92503933333333, "type": "electric_scooter"}, {"fusion_lon": 0.0, "bike_id": "2f9405be004506369407591e20062716", "name": "2f9405be004506369407591e20062716", "rental_uris": {"android": "https://dc.lft.to/lastmile_qr_scan", "ios": "https://dc.lft.to/lastmile_qr_scan"}, "lon": -76.95824916666666, "fusion_lat": 0.0, "is_disabled": 0, "is_reserved": 0, "lat": 38.9200435, "type": "electric_bike"}, {"fusion_lon": 0.0, "bike_id": "7a7ba47ced2724e2116d4e3769a7a1c0", "name": "7a7ba47ced2724e2116d4e3769a7a1c0", "rental_uris": {"android": "https://dc.lft.to/lastmile_qr_scan", "ios": "https://dc.lft.to/lastmile_qr_scan"}, "lon": -77.0215685, "fusion_lat": 0.0, "is_disabled": 0, "is_reserved": 0, "lat": 38.92601716666667, "type": "electric_scooter"}, {"fusion_lon": 0.0, "bike_id": "000e76eff5acc7e8f0cc9f36452c667e", "name": "000e76eff5acc7e8f0cc9f36452c667e", "rental_uris": {"android": "https://dc.lft.to/lastmile_qr_scan", "ios": "https://dc.lft.to/lastmile_qr_scan"}, "lon": -77.0234965, "fusion_lat": 0.0, "is_disabled": 0, "is_reserved": 0, "lat": 38.92997483333333, "type": "electric_scooter"}, {"fusion_lon": 0.0, "bike_id": "48353391374dd2d29c9de24a679912c3", "name": "48353391374dd2d29c9de24a679912c3", "rental_uris": {"android": "https://dc.lft.to/lastmile_qr_scan", "ios": "https://dc.lft.to/lastmile_qr_scan"}, "lon": -77.02612416666666, "fusion_lat": 0.0, "is_disabled": 0, "is_reserved": 0, "lat": 38.89866683333333, "type": "electric_scooter"}, {"fusion_lon": 0.0, "bike_id": "338a1b885140c89d2f302a1fb37ffe7d", "name": "338a1b885140c89d2f302a1fb37ffe7d", "rental_uris": {"android": "https://dc.lft.to/lastmile_qr_scan", "ios": "https://dc.lft.to/lastmile_qr_scan"}, "lon": -77.0325605, "fusion_lat": 0.0, "is_disabled": 0, "is_reserved": 0, "lat": 38.931291, "type": "electric_scooter"}, {"fusion_lon": 0.0, "bike_id": "2bb463a1ab82c8b2244f2804da71a96d", "name": "2bb463a1ab82c8b2244f2804da71a96d", "rental_uris": {"android": "https://dc.lft.to/lastmile_qr_scan", "ios": "https://dc.lft.to/lastmile_qr_scan"}, "lon": -77.02959116666666, "fusion_lat": 0.0, "is_disabled": 0, "is_reserved": 0, "lat": 38.89943, "type": "electric_scooter"}, {"fusion_lon": 0.0, "bike_id": "12fbb4d6ce3308686e62d4ad1eba10bf", "name": "12fbb4d6ce3308686e62d4ad1eba10bf", "rental_uris": {"android": "https://dc.lft.to/lastmile_qr_scan", "ios": "https://dc.lft.to/lastmile_qr_scan"}, "lon": -77.03827416666667, "fusion_lat": 0.0, "is_disabled": 0, "is_reserved": 0, "lat": 38.9189505, "type": "electric_scooter"}, {"fusion_lon": 0.0, "bike_id": "453a2194ba0c3549e810c19328155dde", "name": "453a2194ba0c3549e810c19328155dde", "rental_uris": {"android": "https://dc.lft.to/lastmile_qr_scan", "ios": "https://dc.lft.to/lastmile_qr_scan"}, "lon": -77.023305, "fusion_lat": 0.0, "is_disabled": 0, "is_reserved": 0, "lat": 38.92300783333334, "type": "electric_scooter"}, {"fusion_lon": 0.0, "bike_id": "e94a3af0fb6da893630f4ef47be51318", "name": "e94a3af0fb6da893630f4ef47be51318", "rental_uris": {"android": "https://dc.lft.to/lastmile_qr_scan", "ios": "https://dc.lft.to/lastmile_qr_scan"}, "lon": -77.0793435, "fusion_lat": 0.0, "is_disabled": 0, "is_reserved": 0, "lat": 38.91923233333333, "type": "electric_scooter"}, {"fusion_lon": 0.0, "bike_id": "f95aec72331012b842c021d1c86ea59c", "name": "f95aec72331012b842c021d1c86ea59c", "rental_uris": {"android": "https://dc.lft.to/lastmile_qr_scan", "ios": "https://dc.lft.to/lastmile_qr_scan"}, "lon": -77.045911, "fusion_lat": 0.0, "is_disabled": 0, "is_reserved": 0, "lat": 38.914235166666664, "type": "electric_scooter"}, {"fusion_lon": 0.0, "bike_id": "6c2f556ddbb97c46306844b11375479c", "name": "6c2f556ddbb97c46306844b11375479c", "rental_uris": {"android": "https://dc.lft.to/lastmile_qr_scan", "ios": "https://dc.lft.to/lastmile_qr_scan"}, "lon": -77.03471066666667, "fusion_lat": 0.0, "is_disabled": 0, "is_reserved": 0, "lat": 38.884879, "type": "electric_scooter"}, {"fusion_lon": 0.0, "bike_id": "1a13c284f515a8c3a8f544c9fc71c880", "name": "1a13c284f515a8c3a8f544c9fc71c880", "rental_uris": {"android": "https://dc.lft.to/lastmile_qr_scan", "ios": "https://dc.lft.to/lastmile_qr_scan"}, "lon": -76.99507483333333, "fusion_lat": 0.0, "is_disabled": 0, "is_reserved": 0, "lat": 38.904682, "type": "electric_scooter"}, {"fusion_lon": 0.0, "bike_id": "db15a373638c14b7bc76cf7bc4c938e2", "name": "db15a373638c14b7bc76cf7bc4c938e2", "rental_uris": {"android": "https://dc.lft.to/lastmile_qr_scan", "ios": "https://dc.lft.to/lastmile_qr_scan"}, "lon": -77.01838333333333, "fusion_lat": 0.0, "is_disabled": 0, "is_reserved": 0, "lat": 38.922335333333336, "type": "electric_scooter"}, {"fusion_lon": 0.0, "bike_id": "6b1748fa41a6e6360f5c704c57d755dd", "name": "6b1748fa41a6e6360f5c704c57d755dd", "rental_uris": {"android": "https://dc.lft.to/lastmile_qr_scan", "ios": "https://dc.lft.to/lastmile_qr_scan"}, "lon": -77.03185633333334, "fusion_lat": 0.0, "is_disabled": 0, "is_reserved": 0, "lat": 38.91814566666667, "type": "electric_scooter"}, {"fusion_lon": 0.0, "bike_id": "9feb96938d40aace96b408383c8f4774", "name": "9feb96938d40aace96b408383c8f4774", "rental_uris": {"android": "https://dc.lft.to/lastmile_qr_scan", "ios": "https://dc.lft.to/lastmile_qr_scan"}, "lon": -77.06285683333333, "fusion_lat": 0.0, "is_disabled": 0, "is_reserved": 0, "lat": 38.90245383333333, "type": "electric_scooter"}, {"fusion_lon": 0.0, "bike_id": "d1d2ca3a679993f167610a095bc522bf", "name": "d1d2ca3a679993f167610a095bc522bf", "rental_uris": {"android": "https://dc.lft.to/lastmile_qr_scan", "ios": "https://dc.lft.to/lastmile_qr_scan"}, "lon": -76.97954766666666, "fusion_lat": 0.0, "is_disabled": 0, "is_reserved": 0, "lat": 38.89217583333333, "type": "electric_scooter"}, {"fusion_lon": 0.0, "bike_id": "93e925f8d9f96b8b8bc10d5e513b35a1", "name": "93e925f8d9f96b8b8bc10d5e513b35a1", "rental_uris": {"android": "https://dc.lft.to/lastmile_qr_scan", "ios": "https://dc.lft.to/lastmile_qr_scan"}, "lon": -76.98355616666667, "fusion_lat": 0.0, "is_disabled": 0, "is_reserved": 0, "lat": 38.8872275, "type": "electric_scooter"}, {"fusion_lon": 0.0, "bike_id": "c543d4d0f86cd56bcc95796fbdc17452", "name": "c543d4d0f86cd56bcc95796fbdc17452", "rental_uris": {"android": "https://dc.lft.to/lastmile_qr_scan", "ios": "https://dc.lft.to/lastmile_qr_scan"}, "lon": -77.07469216666667, "fusion_lat": 0.0, "is_disabled": 0, "is_reserved": 0, "lat": 38.935583666666666, "type": "electric_scooter"}, {"fusion_lon": 0.0, "bike_id": "a1c86131af6dd31c43e2090a6b2ac91f", "name": "a1c86131af6dd31c43e2090a6b2ac91f", "rental_uris": {"android": "https://dc.lft.to/lastmile_qr_scan", "ios": "https://dc.lft.to/lastmile_qr_scan"}, "lon": -77.04366416666667, "fusion_lat": 0.0, "is_disabled": 0, "is_reserved": 0, "lat": 38.90530316666667, "type": "electric_scooter"}, {"fusion_lon": 0.0, "bike_id": "4071c9ea4e0b378c5f0ca5e090f9bf98", "name": "4071c9ea4e0b378c5f0ca5e090f9bf98", "rental_uris": {"android": "https://dc.lft.to/lastmile_qr_scan", "ios": "https://dc.lft.to/lastmile_qr_scan"}, "lon": -77.03350433333334, "fusion_lat": 0.0, "is_disabled": 0, "is_reserved": 0, "lat": 38.89530533333333, "type": "electric_scooter"}, {"fusion_lon": 0.0, "bike_id": "9fc01b4bacf7269a099ee388b4b5925e", "name": "9fc01b4bacf7269a099ee388b4b5925e", "rental_uris": {"android": "https://dc.lft.to/lastmile_qr_scan", "ios": "https://dc.lft.to/lastmile_qr_scan"}, "lon": -77.04649266666667, "fusion_lat": 0.0, "is_disabled": 0, "is_reserved": 0, "lat": 38.892298333333336, "type": "electric_scooter"}, {"fusion_lon": 0.0, "bike_id": "6bc1be3cea58e6f8f8c42aac15879b04", "name": "6bc1be3cea58e6f8f8c42aac15879b04", "rental_uris": {"android": "https://dc.lft.to/lastmile_qr_scan", "ios": "https://dc.lft.to/lastmile_qr_scan"}, "lon": -77.04646883333334, "fusion_lat": 0.0, "is_disabled": 0, "is_reserved": 0, "lat": 38.8995715, "type": "electric_scooter"}, {"fusion_lon": 0.0, "bike_id": "379cc7c9a97bef0967572747375df7ac", "name": "379cc7c9a97bef0967572747375df7ac", "rental_uris": {"android": "https://dc.lft.to/lastmile_qr_scan", "ios": "https://dc.lft.to/lastmile_qr_scan"}, "lon": -77.03194416666666, "fusion_lat": 0.0, "is_disabled": 0, "is_reserved": 0, "lat": 38.91527833333333, "type": "electric_scooter"}, {"fusion_lon": 0.0, "bike_id": "0007b072863771ecfc4161d69703daf8", "name": "0007b072863771ecfc4161d69703daf8", "rental_uris": {"android": "https://dc.lft.to/lastmile_qr_scan", "ios": "https://dc.lft.to/lastmile_qr_scan"}, "lon": -77.00206883333334, "fusion_lat": 0.0, "is_disabled": 0, "is_reserved": 0, "lat": 38.91191283333333, "type": "electric_scooter"}, {"fusion_lon": 0.0, "bike_id": "b14eff869a96303990045ad36678b562", "name": "b14eff869a96303990045ad36678b562", "rental_uris": {"android": "https://dc.lft.to/lastmile_qr_scan", "ios": "https://dc.lft.to/lastmile_qr_scan"}, "lon": -77.04058283333333, "fusion_lat": 0.0, "is_disabled": 0, "is_reserved": 0, "lat": 38.917563666666666, "type": "electric_scooter"}, {"fusion_lon": 0.0, "bike_id": "32d75654d5bef79c94c79feb6a8c8925", "name": "32d75654d5bef79c94c79feb6a8c8925", "rental_uris": {"android": "https://dc.lft.to/lastmile_qr_scan", "ios": "https://dc.lft.to/lastmile_qr_scan"}, "lon": -76.9834905, "fusion_lat": 0.0, "is_disabled": 0, "is_reserved": 0, "lat": 38.9351995, "type": "electric_bike"}, {"fusion_lon": 0.0, "bike_id": "4821a078364bde7ecd87b42fb7241b81", "name": "4821a078364bde7ecd87b42fb7241b81", "rental_uris": {"android": "https://dc.lft.to/lastmile_qr_scan", "ios": "https://dc.lft.to/lastmile_qr_scan"}, "lon": -77.02535133333333, "fusion_lat": 0.0, "is_disabled": 0, "is_reserved": 0, "lat": 38.94084683333333, "type": "electric_scooter"}, {"fusion_lon": 0.0, "bike_id": "4bcaadc98683b653c53690b70c4b94cb", "name": "4bcaadc98683b653c53690b70c4b94cb", "rental_uris": {"android": "https://dc.lft.to/lastmile_qr_scan", "ios": "https://dc.lft.to/lastmile_qr_scan"}, "lon": -77.02603566666667, "fusion_lat": 0.0, "is_disabled": 0, "is_reserved": 0, "lat": 38.884243, "type": "electric_scooter"}, {"fusion_lon": 0.0, "bike_id": "f8cc45c8cc7105973372e13cec3486be", "name": "f8cc45c8cc7105973372e13cec3486be", "rental_uris": {"android": "https://dc.lft.to/lastmile_qr_scan", "ios": "https://dc.lft.to/lastmile_qr_scan"}, "lon": -77.00935933333334, "fusion_lat": 0.0, "is_disabled": 0, "is_reserved": 0, "lat": 38.87723033333333, "type": "electric_scooter"}, {"fusion_lon": 0.0, "bike_id": "1ce298169a271cd4fe5d16a3b4925bcb", "name": "1ce298169a271cd4fe5d16a3b4925bcb", "rental_uris": {"android": "https://dc.lft.to/lastmile_qr_scan", "ios": "https://dc.lft.to/lastmile_qr_scan"}, "lon": -77.04035666666667, "fusion_lat": 0.0, "is_disabled": 0, "is_reserved": 0, "lat": 38.92163016666667, "type": "electric_scooter"}, {"fusion_lon": 0.0, "bike_id": "ed934d356f6c7f096e3d572e334d9ecc", "name": "ed934d356f6c7f096e3d572e334d9ecc", "rental_uris": {"android": "https://dc.lft.to/lastmile_qr_scan", "ios": "https://dc.lft.to/lastmile_qr_scan"}, "lon": -77.0190915, "fusion_lat": 0.0, "is_disabled": 0, "is_reserved": 0, "lat": 38.923720333333335, "type": "electric_scooter"}, {"fusion_lon": 0.0, "bike_id": "5e03d2ea463b1947bc8a0b480e62a5d4", "name": "5e03d2ea463b1947bc8a0b480e62a5d4", "rental_uris": {"android": "https://dc.lft.to/lastmile_qr_scan", "ios": "https://dc.lft.to/lastmile_qr_scan"}, "lon": -77.02215366666667, "fusion_lat": 0.0, "is_disabled": 0, "is_reserved": 0, "lat": 38.9206465, "type": "electric_scooter"},