{"data": {"bikes": [{"fusion_lat": 0.0, "type": "electric_scooter", "name": "cfc47bda592df111644fb5303a204904", "fusion_lon": 0.0, "bike_id": "cfc47bda592df111644fb5303a204904", "is_reserved": 0, "rental_uris": {"android": "https://dc.lft.to/lastmile_qr_scan", "ios": "https://dc.lft.to/lastmile_qr_scan"}, "lat": 38.892488166666666, "is_disabled": 0, "lon": -77.0395875}, {"fusion_lat": 0.0, "type": "electric_scooter", "name": "f9d665146cc4810fe723a523afc222ca", "fusion_lon": 0.0, "bike_id": "f9d665146cc4810fe723a523afc222ca", "is_reserved": 0, "rental_uris": {"android": "https://dc.lft.to/lastmile_qr_scan", "ios": "https://dc.lft.to/lastmile_qr_scan"}, "lat": 38.924436166666666, "is_disabled": 0, "lon": -77.0403415}, {"fusion_lat": 0.0, "type": "electric_scooter", "name": "b0b90993978d55f9703c394150b47e27", "fusion_lon": 0.0, "bike_id": "b0b90993978d55f9703c394150b47e27", "is_reserved": 0, "rental_uris": {"android": "https://dc.lft.to/lastmile_qr_scan", "ios": "https://dc.lft.to/lastmile_qr_scan"}, "lat": 38.89309566666667, "is_disabled": 0, "lon": -76.92918433333334}, {"fusion_lat": 0.0, "type": "electric_scooter", "name": "53ae9b8a70127ae556b383ca318e54c0", "fusion_lon": 0.0, "bike_id": "53ae9b8a70127ae556b383ca318e54c0", "is_reserved": 0, "rental_uris": {"android": "https://dc.lft.to/lastmile_qr_scan", "ios": "https://dc.lft.to/lastmile_qr_scan"}, "lat": 38.86502633333333, "is_disabled": 0, "lon": -76.9900465}, {"fusion_lat": 0.0, "type": "electric_scooter", "name": "746e1e31d67f70a31bd9b2e03e545c2e", "fusion_lon": 0.0, "bike_id": "746e1e31d67f70a31bd9b2e03e545c2e", "is_reserved": 0, "rental_uris": {"android": "https://dc.lft.to/lastmile_qr_scan", "ios": "https://dc.lft.to/lastmile_qr_scan"}, "lat": 38.90764433333333, "is_disabled": 0, "lon": -77.001054}, {"fusion_lat": 0.0, "type": "electric_scooter", "name": "94bf04513daf7d944a3a7858b2b3960e", "fusion_lon": 0.0, "bike_id": "94bf04513daf7d944a3a7858b2b3960e", "is_reserved": 0, "rental_uris": {"android": "https://dc.lft.to/lastmile_qr_scan", "ios": "https://dc.lft.to/lastmile_qr_scan"}, "lat": 38.9266595, "is_disabled": 0, "lon": -77.0227645}, {"fusion_lat": 0.0, "type": "electric_bike", "name": "e98cf7e3de860c1071e68034a80ca82b", "fusion_lon": 0.0, "bike_id": "e98cf7e3de860c1071e68034a80ca82b", "is_reserved": 0, "rental_uris": {"android": "https://dc.lft.to/lastmile_qr_scan", "ios": "https://dc.lft.to/lastmile_qr_scan"}, "lat": 38.8120685, "is_disabled": 0, "lon": -77.1084285}, {"fusion_lat": 0.0, "type": "electric_scooter", "name": "5bcc17af25cd9cee64b2589af92d16f9", "fusion_lon": 0.0, "bike_id": "5bcc17af25cd9cee64b2589af92d16f9", "is_reserved": 0, "rental_uris": {"android": "https://dc.lft.to/lastmile_qr_scan", "ios": "https://dc.lft.to/lastmile_qr_scan"}, "lat": 38.927574166666666, "is_disabled": 0, "lon": -77.0328285}, {"fusion_lat": 0.0, "type": "electric_scooter", "name": "886e05bff55ff71f7088ee1ece632a53", "fusion_lon": 0.0, "bike_id": "886e05bff55ff71f7088ee1ece632a53", "is_reserved": 0, "rental_uris": {"android": "https://dc.lft.to/lastmile_qr_scan", "ios": "https://dc.lft.to/lastmile_qr_scan"}, "lat": 38.92739733333333, "is_disabled": 0, "lon": -77.02267716666667}, {"fusion_lat": 0.0, "type": "electric_scooter", "name": "e13b865a760cbd0f7eba58ed47485ef8", "fusion_lon": 0.0, "bike_id": "e13b865a760cbd0f7eba58ed47485ef8", "is_reserved": 0, "rental_uris": {"android": "https://dc.lft.to/lastmile_qr_scan", "ios": "https://dc.lft.to/lastmile_qr_scan"}, "lat": 38.89548533333333, "is_disabled": 0, "lon": -77.00916166666667}, {"fusion_lat": 0.0, "type": "electric_scooter", "name": "5054df8a4f1fc8fb206bb92f6798f72f", "fusion_lon": 0.0, "bike_id": "5054df8a4f1fc8fb206bb92f6798f72f", "is_reserved": 0, "rental_uris": {"android": "https://dc.lft.to/lastmile_qr_scan", "ios": "https://dc.lft.to/lastmile_qr_scan"}, "lat": 38.8981485, "is_disabled": 0, "lon": -77.03305633333333}, {"fusion_lat": 0.0, "type": "electric_scooter", "name": "21dc7b71b65d005cea5a467119d5c349", "fusion_lon": 0.0, "bike_id": "21dc7b71b65d005cea5a467119d5c349", "is_reserved": 0, "rental_uris": {"android": "https://dc.lft.to/lastmile_qr_scan", "ios": "https://dc.lft.to/lastmile_qr_scan"}, "lat": 38.902295, "is_disabled": 0, "lon": -77.02354066666666}, {"fusion_lat": 0.0, "type": "electric_scooter", "name": "45c5631cef03e02757a0547a2734ee79", "fusion_lon": 0.0, "bike_id": "45c5631cef03e02757a0547a2734ee79", "is_reserved": 0, "rental_uris": {"android": "https://dc.lft.to/lastmile_qr_scan", "ios": "https://dc.lft.to/lastmile_qr_scan"}, "lat": 38.9233915, "is_disabled": 0, "lon": -77.03518233333334}, {"fusion_lat": 0.0, "type": "electric_scooter", "name": "160a7f159c48a7a281c9e875d64eac62", "fusion_lon": 0.0, "bike_id": "160a7f159c48a7a281c9e875d64eac62", "is_reserved": 0, "rental_uris": {"android": "https://dc.lft.to/lastmile_qr_scan", "ios": "https://dc.lft.to/lastmile_qr_scan"}, "lat": 38.92054733333333, "is_disabled": 0, "lon": -77.01687}, {"fusion_lat": 0.0, "type": "electric_bike", "name": "ce066ecea4c50ea01ea6b70548d7d671", "fusion_lon": 0.0, "bike_id": "ce066ecea4c50ea01ea6b70548d7d671", "is_reserved": 0, "rental_uris": {"android": "https://dc.lft.to/lastmile_qr_scan", "ios": "https://dc.lft.to/lastmile_qr_scan"}, "lat": 38.860477833333334, "is_disabled": 0, "lon": -77.09561766666667}, {"fusion_lat": 0.0, "type": "electric_bike", "name": "fb9bc756ee095116e1887f349cfc59e7", "fusion_lon": 0.0, "bike_id": "fb9bc756ee095116e1887f349cfc59e7", "is_reserved": 0, "rental_uris": {"android": "https://dc.lft.to/lastmile_qr_scan", "ios": "https://dc.lft.to/lastmile_qr_scan"}, "lat": 38.963075833333335, "is_disabled": 0, "lon": -77.01103883333333}, {"fusion_lat": 0.0, "type": "electric_scooter", "name": "3144ae092088e9252e03e6d7dd779b2e", "fusion_lon": 0.0, "bike_id": "3144ae092088e9252e03e6d7dd779b2e", "is_reserved": 0, "rental_uris": {"android": "https://dc.lft.to/lastmile_qr_scan", "ios": "https://dc.lft.to/lastmile_qr_scan"}, "lat": 38.879709166666665, "is_disabled": 0, "lon": -76.98746633333333}, {"fusion_lat": 0.0, "type": "electric_scooter", "name": "d4fb4e1ce3303a265185c5b65b61c86b", "fusion_lon": 0.0, "bike_id": "d4fb4e1ce3303a265185c5b65b61c86b", "is_reserved": 0, "rental_uris": {"android": "https://dc.lft.to/lastmile_qr_scan", "ios": "https://dc.lft.to/lastmile_qr_scan"}, "lat": 38.89245283333333, "is_disabled": 0, "lon": -76.98828866666666}, {"fusion_lat": 0.0, "type": "electric_scooter", "name": "d5ed4ae922e0dc4ae5d68cd45081afc0", "fusion_lon": 0.0, "bike_id": "d5ed4ae922e0dc4ae5d68cd45081afc0", "is_reserved": 0, "rental_uris": {"android": "https://dc.lft.to/lastmile_qr_scan", "ios": "https://dc.lft.to/lastmile_qr_scan"}, "lat": 38.917034, "is_disabled": 0, "lon": -77.028137}, {"fusion_lat": 0.0, "type": "electric_scooter", "name": "6878a74d09012be3f30d2109c0620932", "fusion_lon": 0.0, "bike_id": "6878a74d09012be3f30d2109c0620932", "is_reserved": 0, "rental_uris": {"android": "https://dc.lft.to/lastmile_qr_scan", "ios": "https://dc.lft.to/lastmile_qr_scan"}, "lat": 38.921300333333335, "is_disabled": 0, "lon": -77.01795983333334}, {"fusion_lat": 0.0, "type": "electric_bike", "name": "36c551b2c34dd7a88ea16b88980f802c", "fusion_lon": 0.0, "bike_id": "36c551b2c34dd7a88ea16b88980f802c", "is_reserved": 0, "rental_uris": {"android": "https://dc.lft.to/lastmile_qr_scan", "ios": "https://dc.lft.to/lastmile_qr_scan"}, "lat": 39.034304666666664, "is_disabled": 0, "lon": -77.04104}, {"fusion_lat": 0.0, "type": "electric_scooter", "name": "6e6c335fbdd4612dde3155fddfdfde48", "fusion_lon": 0.0, "bike_id": "6e6c335fbdd4612dde3155fddfdfde48", "is_reserved": 0, "rental_uris": {"android": "https://dc.lft.to/lastmile_qr_scan", "ios": "https://dc.lft.to/lastmile_qr_scan"}, "lat": 38.921604, "is_disabled": 0, "lon": -77.0335225}, {"fusion_lat": 0.0, "type": "electric_bike", "name": "5853be1a99a7a16e3c745f84df01a4be", "fusion_lon": 0.0, "bike_id": "5853be1a99a7a16e3c745f84df01a4be", "is_reserved": 0, "rental_uris": {"android": "https://dc.lft.to/lastmile_qr_scan", "ios": "https://dc.lft.to/lastmile_qr_scan"}, "lat": 38.883363833333334, "is_disabled": 0, "lon": -77.06568016666667}, {"fusion_lat": 0.0, "type": "electric_scooter", "name": "72487a0a33f7404c7879f3ad2fa34f3b", "fusion_lon": 0.0, "bike_id": "72487a0a33f7404c7879f3ad2fa34f3b", "is_reserved": 0, "rental_uris": {"android": "https://dc.lft.to/lastmile_qr_scan", "ios": "https://dc.lft.to/lastmile_qr_scan"}, "lat": 38.919766833333334, "is_disabled": 0, "lon": -77.03793983333334}, {"fusion_lat": 0.0, "type": "electric_bike", "name": "139b4abf5bf9c227b84f42cffbfc25a9", "fusion_lon": 0.0, "bike_id": "139b4abf5bf9c227b84f42cffbfc25a9", "is_reserved": 0, "rental_uris": {"android": "https://dc.lft.to/lastmile_qr_scan", "ios": "https://dc.lft.to/lastmile_qr_scan"}, "lat": 39.054944666666664, "is_disabled": 0, "lon": -77.11788783333333}, {"fusion_lat": 0.0, "type": "electric_scooter", "name": "8e97c42caaef6489c04174f47cd0ab29", "fusion_lon": 0.0, "bike_id": "8e97c42caaef6489c04174f47cd0ab29", "is_reserved": 0, "rental_uris": {"android": "https://dc.lft.to/lastmile_qr_scan", "ios": "https://dc.lft.to/lastmile_qr_scan"}, "lat": 38.944239333333336, "is_disabled": 0, "lon": -77.02599283333333}, {"fusion_lat": 0.0, "type": "electric_scooter", "name": "683488753d9b71d882742ee9edbc648d", "fusion_lon": 0.0, "bike_id": "683488753d9b71d882742ee9edbc648d", "is_reserved": 0, "rental_uris": {"android": "https://dc.lft.to/lastmile_qr_scan", "ios": "https://dc.lft.to/lastmile_qr_scan"}, "lat": 38.892319666666666, "is_disabled": 0, "lon": -77.03183783333333}, {"fusion_lat": 0.0, "type": "electric_scooter", "name": "6fb718916c27ebd2a07da538920c4080", "fusion_lon": 0.0, "bike_id": "6fb718916c27ebd2a07da538920c4080", "is_reserved": 0, "rental_uris": {"android": "https://dc.lft.to/lastmile_qr_scan", "ios": "https://dc.lft.to/lastmile_qr_scan"}, "lat": 38.89279666666667, "is_disabled": 0, "lon": -77.04873983333333}, {"fusion_lat": 0.0, "type": "electric_scooter", "name": "3fa2433a1a95459ebaba8a030e65b094", "fusion_lon": 0.0, "bike_id": "3fa2433a1a95459ebaba8a030e65b094", "is_reserved": 0, "rental_uris": {"android": "https://dc.lft.to/lastmile_qr_scan", "ios": "https://dc.lft.to/lastmile_qr_scan"}, "lat": 38.93179283333333, "is_disabled": 0, "lon": -77.07100816666667}, {"fusion_lat": 0.0, "type": "electric_bike", "name": "5577b0fe814bd15a26215255dcb76a5b", "fusion_lon": 0.0, "bike_id": "5577b0fe814bd15a26215255dcb76a5b", "is_reserved": 0, "rental_uris": {"android": "https://dc.lft.to/lastmile_qr_scan", "ios": "https://dc.lft.to/lastmile_qr_scan"}, "lat": 38.94267816666667, "is_disabled": 0, "lon": -77.02843733333333}, {"fusion_lat": 0.0, "type": "electric_scooter", "name": "734a31cf28ea4210c47f3dd8e9142af5", "fusion_lon": 0.0, "bike_id": "734a31cf28ea4210c47f3dd8e9142af5", "is_reserved": 0, "rental_uris": {"android": "https://dc.lft.to/lastmile_qr_scan", "ios": "https://dc.lft.to/lastmile_qr_scan"}, "lat": 38.90091616666667, "is_disabled": 0, "lon": -76.930184}, {"fusion_lat": 0.0, "type": "electric_scooter", "name": "7adae6b9e58770e293bfc3a07a62e8fc", "fusion_lon": 0.0, "bike_id": "7adae6b9e58770e293bfc3a07a62e8fc", "is_reserved": 0, "rental_uris": {"android": "https://dc.lft.to/lastmile_qr_scan", "ios": "https://dc.lft.to/lastmile_qr_scan"}, "lat": 38.872090166666666, "is_disabled": 0, "lon": -76.97840016666666}, {"fusion_lat": 0.0, "type": "electric_scooter", "name": "907222ba3369a86312a0f9ccefea30d3", "fusion_lon": 0.0, "bike_id": "907222ba3369a86312a0f9ccefea30d3", "is_reserved": 0, "rental_uris": {"android": "https://dc.lft.to/lastmile_qr_scan", "ios": "https://dc.lft.to/lastmile_qr_scan"}, "lat": 38.85537883333333, "is_disabled": 0, "lon": -76.98417566666667}, {"fusion_lat": 0.0, "type": "electric_scooter", "name": "7909502a48253eee3dc526fa262bcca9", "fusion_lon": 0.0, "bike_id": "7909502a48253eee3dc526fa262bcca9", "is_reserved": 0, "rental_uris": {"android": "https://dc.lft.to/lastmile_qr_scan", "ios": "https://dc.lft.to/lastmile_qr_scan"}, "lat": 38.927114333333336, "is_disabled": 0, "lon": -77.020781}, {"fusion_lat": 0.0, "type": "electric_bike", "name": "5d5471e1566d39f2c9665d967db33e1d", "fusion_lon": 0.0, "bike_id": "5d5471e1566d39f2c9665d967db33e1d", "is_reserved": 0, "rental_uris": {"android": "https://dc.lft.to/lastmile_qr_scan", "ios": "https://dc.lft.to/lastmile_qr_scan"}, "lat": 38.92044116666667, "is_disabled": 0, "lon": -76.99911083333333}, {"fusion_lat": 0.0, "type": "electric_scooter", "name": "e518f7b68282f2564d90a098be1083f6", "fusion_lon": 0.0, "bike_id": "e518f7b68282f2564d90a098be1083f6", "is_reserved": 0, "rental_uris": {"android": "https://dc.lft.to/lastmile_qr_scan", "ios": "https://dc.lft.to/lastmile_qr_scan"}, "lat": 38.935761, "is_disabled": 0, "lon": -77.0811355}, {"fusion_lat": 0.0, "type": "electric_scooter", "name": "a4f4ec68675d5eb084eb68debeeb0d40", "fusion_lon": 0.0, "bike_id": "a4f4ec68675d5eb084eb68debeeb0d40", "is_reserved": 0, "rental_uris": {"android": "https://dc.lft.to/lastmile_qr_scan", "ios": "https://dc.lft.to/lastmile_qr_scan"}, "lat": 38.8848255, "is_disabled": 0, "lon": -76.9261655}, {"fusion_lat": 0.0, "type": "electric_scooter", "name": "1458f897fec37108e0cbc629b367abac", "fusion_lon": 0.0, "bike_id": "1458f897fec37108e0cbc629b367abac", "is_reserved": 0, "rental_uris": {"android": "https://dc.lft.to/lastmile_qr_scan", "ios": "https://dc.lft.to/lastmile_qr_scan"}, "lat": 38.950648666666666, "is_disabled": 0, "lon": -77.08011716666667}, {"fusion_lat": 0.0, "type": "electric_scooter", "name": "eb156e6476f9913f637b62793d0d0abd", "fusion_lon": 0.0, "bike_id": "eb156e6476f9913f637b62793d0d0abd", "is_reserved": 0, "rental_uris": {"android": "https://dc.lft.to/lastmile_qr_scan", "ios": "https://dc.lft.to/lastmile_qr_scan"}, "lat": 38.89719766666666, "is_disabled": 0, "lon": -77.02732266666666}, {"fusion_lat": 0.0, "type": "electric_scooter", "name": "218559577614fe88cc0dc55752a26a0a", "fusion_lon": 0.0, "bike_id": "218559577614fe88cc0dc55752a26a0a", "is_reserved": 0, "rental_uris": {"android": "https://dc.lft.to/lastmile_qr_scan", "ios": "https://dc.lft.to/lastmile_qr_scan"}, "lat": 38.922589, "is_disabled": 0, "lon": -77.020382}, {"fusion_lat": 0.0, "type": "electric_scooter", "name": "5f814d95d0961434d2ca0e9358ecd272", "fusion_lon": 0.0, "bike_id": "5f814d95d0961434d2ca0e9358ecd272", "is_reserved": 0, "rental_uris": {"android": "https://dc.lft.to/lastmile_qr_scan", "ios": "https://dc.lft.to/lastmile_qr_scan"}, "lat": 38.916451, "is_disabled": 0, "lon": -77.042586}, {"fusion_lat": 0.0, "type": "electric_scooter", "name": "2399377624a496ea66aadfff5969a083", "fusion_lon": 0.0, "bike_id": "2399377624a496ea66aadfff5969a083", "is_reserved": 0, "rental_uris": {"android": "https://dc.lft.to/lastmile_qr_scan", "ios": "https://dc.lft.to/lastmile_qr_scan"}, "lat": 38.88088883333333, "is_disabled": 0, "lon": -76.9984355}, {"fusion_lat": 0.0, "type": "electric_scooter", "name": "85a4e66d002cdbb7d5e3ea41de358372", "fusion_lon": 0.0, "bike_id": "85a4e66d002cdbb7d5e3ea41de358372", "is_reserved": 0, "rental_uris": {"android": "https://dc.lft.to/lastmile_qr_scan", "ios": "https://dc.lft.to/lastmile_qr_scan"}, "lat": 38.87630633333333, "is_disabled": 0, "lon": -77.012579}, {"fusion_lat": 0.0, "type": "electric_scooter", "name": "b327a8ac2e6deca599df48feb644c3e2", "fusion_lon": 0.0, "bike_id": "b327a8ac2e6deca599df48feb644c3e2", "is_reserved": 0, "rental_uris": {"android": "https://dc.lft.to/lastmile_qr_scan", "ios": "https://dc.lft.to/lastmile_qr_scan"}, "lat": 38.8987905, "is_disabled": 0, "lon": -77.03949016666667}, {"fusion_lat": 0.0, "type": "electric_scooter", "name": "e2aae23a42e6fe4d6075853a37ef4b55", "fusion_lon": 0.0, "bike_id": "e2aae23a42e6fe4d6075853a37ef4b55", "is_reserved": 0, "rental_uris": {"android": "https://dc.lft.to/lastmile_qr_scan", "ios": "https://dc.lft.to/lastmile_qr_scan"}, "lat": 38.87289616666666, "is_disabled": 0, "lon": -77.00982366666666}, {"fusion_lat": 0.0, "type": "electric_scooter", "name": "ef87e597c8668baaf80ed4c6c2848200", "fusion_lon": 0.0, "bike_id": "ef87e597c8668baaf80ed4c6c2848200", "is_reserved": 0, "rental_uris": {"android": "https://dc.lft.to/lastmile_qr_scan", "ios": "https://dc.lft.to/lastmile_qr_scan"}, "lat": 38.935829166666664, "is_disabled": 0, "lon": -77.03509766666667}, {"fusion_lat": 0.0, "type": "electric_scooter", "name": "d88763f81dc15486212e4dd86b985167", "fusion_lon": 0.0, "bike_id": "d88763f81dc15486212e4dd86b985167", "is_reserved": 0, "rental_uris": {"android": "https://dc.lft.to/lastmile_qr_scan", "ios": "https://dc.lft.to/lastmile_qr_scan"}, "lat": 38.90326433333333, "is_disabled": 0, "lon": -76.991198}, {"fusion_lat": 0.0, "type": "electric_scooter", "name": "0073e4cf8a1a8af6cc84689f9c4870db", "fusion_lon": 0.0, "bike_id": "0073e4cf8a1a8af6cc84689f9c4870db", "is_reserved": 0, "rental_uris": {"android": "https://dc.lft.to/lastmile_qr_scan", "ios": "https://dc.lft.to/lastmile_qr_scan"}, "lat": 38.86009033333333, "is_disabled": 0, "lon": -76.98517533333333}, {"fusion_lat": 0.0, "type": "electric_scooter", "name": "be7af3adfc9f2f550f05615839693a65", "fusion_lon": 0.0, "bike_id": "be7af3adfc9f2f550f05615839693a65", "is_reserved": 0, "rental_uris": {"android": "https://dc.lft.to/lastmile_qr_scan", "ios": "https://dc.lft.to/lastmile_qr_scan"}, "lat": 38.9241215, "is_disabled": 0, "lon": -77.029712}, {"fusion_lat": 0.0, "type": "electric_scooter", "name": "594a67fa7b66cacb667654edf02b7a48", "fusion_lon": 0.0, "bike_id": "594a67fa7b66cacb667654edf02b7a48", "is_reserved": 0, "rental_uris": {"android": "https://dc.lft.to/lastmile_qr_scan", "ios": "https://dc.lft.to/lastmile_qr_scan"}, "lat": 38.92476716666667, "is_disabled": 0, "lon": -77.041561}, {"fusion_lat": 0.0, "type": "electric_scooter", "name": "9ae6898ba2e0f5c6928935142c5d33d9", "fusion_lon": 0.0, "bike_id": "9ae6898ba2e0f5c6928935142c5d33d9", "is_reserved": 0, "rental_uris": {"android": "https://dc.lft.to/lastmile_qr_scan", "ios": "https://dc.lft.to/lastmile_qr_scan"}, "lat": 38.9096445, "is_disabled": 0, "lon": -76.98538516666666}, {"fusion_lat": 0.0, "type": "electric_scooter", "name": "5689204b89b5de8bed9c893b038368d2", "fusion_lon": 0.0, "bike_id": "5689204b89b5de8bed9c893b038368d2", "is_reserved": 0, "rental_uris": {"android": "https://dc.lft.to/lastmile_qr_scan", "ios": "https://dc.lft.to/lastmile_qr_scan"}, "lat": 38.94327783333333, "is_disabled": 0, "lon": -77.026829}, {"fusion_lat": 0.0, "type": "electric_bike", "name": "d9acc1623329fa64223b1c4d1d0f1f7f", "fusion_lon": 0.0, "bike_id": "d9acc1623329fa64223b1c4d1d0f1f7f", "is_reserved": 0, "rental_uris": {"android": "https://dc.lft.to/lastmile_qr_scan", "ios": "https://dc.lft.to/lastmile_qr_scan"}, "lat": 38.90029833333333, "is_disabled": 0, "lon": -76.972261}, {"fusion_lat": 0.0, "type": "electric_scooter", "name": "43ee621c519853201c1cee8e1f38bf73", "fusion_lon": 0.0, "bike_id": "43ee621c519853201c1cee8e1f38bf73", "is_reserved": 0, "rental_uris": {"android": "https://dc.lft.to/lastmile_qr_scan", "ios": "https://dc.lft.to/lastmile_qr_scan"}, "lat": 38.87472666666667, "is_disabled": 0, "lon": -77.018974}, {"fusion_lat": 0.0, "type": "electric_scooter", "name": "25be6182c5ab48e2571c6e57f9599b32", "fusion_lon": 0.0, "bike_id": "25be6182c5ab48e2571c6e57f9599b32", "is_reserved": 0, "rental_uris": {"android": "https://dc.lft.to/lastmile_qr_scan", "ios": "https://dc.lft.to/lastmile_qr_scan"}, "lat": 38.95274766666667, "is_disabled": 0, "lon": -77.069738}, {"fusion_lat": 0.0, "type": "electric_scooter", "name": "0f0f7787727f2e54463396ed09821fa3", "fusion_lon": 0.0, "bike_id": "0f0f7787727f2e54463396ed09821fa3", "is_reserved": 0, "rental_uris": {"android": "https://dc.lft.to/lastmile_qr_scan", "ios": "https://dc.lft.to/lastmile_qr_scan"}, "lat": 38.871685, "is_disabled": 0, "lon": -76.977422}, {"fusion_lat": 0.0, "type": "electric_scooter", "name": "f2d15b387bff3560555f2bdfb82414c9", "fusion_lon": 0.0, "bike_id": "f2d15b387bff3560555f2bdfb82414c9", "is_reserved": 0, "rental_uris": {"android": "https://dc.lft.to/lastmile_qr_scan", "ios": "https://dc.lft.to/lastmile_qr_scan"}, "lat": 38.924411166666665, "is_disabled": 0, "lon": -77.040338}, {"fusion_lat": 0.0, "type": "electric_scooter", "name": "813220fb099b6863355d08f126f48dfd", "fusion_lon": 0.0, "bike_id": "813220fb099b6863355d08f126f48dfd", "is_reserved": 0, "rental_uris": {"android": "https://dc.lft.to/lastmile_qr_scan", "ios": "https://dc.lft.to/lastmile_qr_scan"}, "lat": 38.91633433333333, "is_disabled": 0, "lon": -77.01077766666667}, {"fusion_lat": 0.0, "type": "electric_scooter", "name": "274846601a52f2ae990edf656549bc5e", "fusion_lon": 0.0, "bike_id": "274846601a52f2ae990edf656549bc5e", "is_reserved": 0, "rental_uris": {"android": "https://dc.lft.to/lastmile_qr_scan", "ios": "https://dc.lft.to/lastmile_qr_scan"}, "lat": 38.955581333333335, "is_disabled": 0, "lon": -77.07002216666666}, {"fusion_lat": 0.0, "type": "electric_scooter", "name": "11e575a1d91533f622ea2bf6cad88edf", "fusion_lon": 0.0, "bike_id": "11e575a1d91533f622ea2bf6cad88edf", "is_reserved": 0, "rental_uris": {"android": "https://dc.lft.to/lastmile_qr_scan", "ios": "https://dc.lft.to/lastmile_qr_scan"}, "lat": 38.950432166666666, "is_disabled": 0, "lon": -77.06698966666667}, {"fusion_lat": 0.0, "type": "electric_scooter", "name": "fc12dd810605231a6c3013b34bdd1a9b", "fusion_lon": 0.0, "bike_id": "fc12dd810605231a6c3013b34bdd1a9b", "is_reserved": 0, "rental_uris": {"android": "https://dc.lft.to/lastmile_qr_scan", "ios": "https://dc.lft.to/lastmile_qr_scan"}, "lat": 38.91386133333334, "is_disabled": 0, "lon": -77.03324233333333}, {"fusion_lat": 0.0, "type": "electric_scooter", "name": "6ac5dcdf4443e890916aed417758c2d2", "fusion_lon": 0.0, "bike_id": "6ac5dcdf4443e890916aed417758c2d2", "is_reserved": 0, "rental_uris": {"android": "https://dc.lft.to/lastmile_qr_scan", "ios": "https://dc.lft.to/lastmile_qr_scan"}, "lat": 38.922748166666665, "is_disabled": 0, "lon": -77.036773}, {"fusion_lat": 0.0, "type": "electric_scooter", "name": "4d37f0ebeb811def8fe8af8e2b74f6d7", "fusion_lon": 0.0, "bike_id": "4d37f0ebeb811def8fe8af8e2b74f6d7", "is_reserved": 0, "rental_uris": {"android": "https://dc.lft.to/lastmile_qr_scan", "ios": "https://dc.lft.to/lastmile_qr_scan"}, "lat": 38.933259166666666, "is_disabled": 0, "lon": -77.04405933333334}, {"fusion_lat": 0.0, "type": "electric_scooter", "name": "b867eed8352f42aae6b06f790c8d5a5d", "fusion_lon": 0.0, "bike_id": "b867eed8352f42aae6b06f790c8d5a5d", "is_reserved": 0, "rental_uris": {"android": "https://dc.lft.to/lastmile_qr_scan", "ios": "https://dc.lft.to/lastmile_qr_scan"}, "lat": 38.899974666666665, "is_disabled": 0, "lon": -77.03187016666666}, {"fusion_lat": 0.0, "type": "electric_scooter", "name": "906a20e0a027676969e553ab25d54503", "fusion_lon": 0.0, "bike_id": "906a20e0a027676969e553ab25d54503", "is_reserved": 0, "rental_uris": {"android": "https://dc.lft.to/lastmile_qr_scan", "ios": "https://dc.lft.to/lastmile_qr_scan"}, "lat": 38.90639683333333, "is_disabled": 0, "lon": -77.00576783333334}, {"fusion_lat": 0.0, "type": "electric_scooter", "name": "3a8649bdcc4b93bfe394af66f61c1537", "fusion_lon": 0.0, "bike_id": "3a8649bdcc4b93bfe394af66f61c1537", "is_reserved": 0, "rental_uris": {"android": "https://dc.lft.to/lastmile_qr_scan", "ios": "https://dc.lft.to/lastmile_qr_scan"}, "lat": 38.90564033333333, "is_disabled": 0, "lon": -77.02986783333333}, {"fusion_lat": 0.0, "type": "electric_scooter", "name": "08bb94d5d3810626584410a41dbe367f", "fusion_lon": 0.0, "bike_id": "08bb94d5d3810626584410a41dbe367f", "is_reserved": 0, "rental_uris": {"android": "https://dc.lft.to/lastmile_qr_scan", "ios": "https://dc.lft.to/lastmile_qr_scan"}, "lat": 38.92709383333333, "is_disabled": 0, "lon": -77.03622416666667}, {"fusion_lat": 0.0, "type": "electric_scooter", "name": "4717084bfc822dd5c79466633ebce209", "fusion_lon": 0.0, "bike_id": "4717084bfc822dd5c79466633ebce209", "is_reserved": 0, "rental_uris": {"android": "https://dc.lft.to/lastmile_qr_scan", "ios": "https://dc.lft.to/lastmile_qr_scan"}, "lat": 38.950758666666665, "is_disabled": 0, "lon": -76.99566516666667}, {"fusion_lat": 0.0, "type": "electric_bike", "name": "d596dbfdc9561c7faef6c180308186b4", "fusion_lon": 0.0, "bike_id": "d596dbfdc9561c7faef6c180308186b4", "is_reserved": 0, "rental_uris": {"android": "https://dc.lft.to/lastmile_qr_scan", "ios": "https://dc.lft.to/lastmile_qr_scan"}, "lat": 38.82380583333333, "is_disabled": 0, "lon": -77.00228116666666}, {"fusion_lat": 0.0, "type": "electric_scooter", "name": "c6ef1fd8b056d9ca29d70c845dfd0ccd", "fusion_lon": 0.0, "bike_id": "c6ef1fd8b056d9ca29d70c845dfd0ccd", "is_reserved": 0, "rental_uris": {"android": "https://dc.lft.to/lastmile_qr_scan", "ios": "https://dc.lft.to/lastmile_qr_scan"}, "lat": 38.92387166666666, "is_disabled": 0, "lon": -77.03097416666667}, {"fusion_lat": 0.0, "type": "electric_scooter", "name": "cbe6902560173c3f6e3a0bbab24d43f4", "fusion_lon": 0.0, "bike_id": "cbe6902560173c3f6e3a0bbab24d43f4", "is_reserved": 0, "rental_uris": {"android": "https://dc.lft.to/lastmile_qr_scan", "ios": "https://dc.lft.to/lastmile_qr_scan"}, "lat": 38.899470666666666, "is_disabled": 0, "lon": -77.05356066666667}, {"fusion_lat": 0.0, "type": "electric_scooter", "name": "eca26bcc312a061c14da47a3c20c1a52", "fusion_lon": 0.0, "bike_id": "eca26bcc312a061c14da47a3c20c1a52", "is_reserved": 0, "rental_uris": {"android": "https://dc.lft.to/lastmile_qr_scan", "ios": "https://dc.lft.to/lastmile_qr_scan"}, "lat": 38.897315166666665, "is_disabled": 0, "lon": -77.02716983333333}, {"fusion_lat": 0.0, "type": "electric_bike", "name": "8b9010b527b874fe950d3edaff543c88", "fusion_lon": 0.0, "bike_id": "8b9010b527b874fe950d3edaff543c88", "is_reserved": 0, "rental_uris": {"android": "https://dc.lft.to/lastmile_qr_scan", "ios": "https://dc.lft.to/lastmile_qr_scan"}, "lat": 38.953609, "is_disabled": 0, "lon": -76.98096366666667}, {"fusion_lat": 0.0, "type": "electric_scooter", "name": "abb46bfb581dd85d5b0e7fcfebbb3680", "fusion_lon": 0.0, "bike_id": "abb46bfb581dd85d5b0e7fcfebbb3680", "is_reserved": 0, "rental_uris": {"android": "https://dc.lft.to/lastmile_qr_scan", "ios": "https://dc.lft.to/lastmile_qr_scan"}, "lat": 38.912114333333335, "is_disabled": 0, "lon": -77.03837583333333}, {"fusion_lat": 0.0, "type": "electric_scooter", "name": "d8b0fb1dbf8014abc517397cae07c0f4", "fusion_lon": 0.0, "bike_id": "d8b0fb1dbf8014abc517397cae07c0f4", "is_reserved": 0, "rental_uris": {"android": "https://dc.lft.to/lastmile_qr_scan", "ios": "https://dc.lft.to/lastmile_qr_scan"}, "lat": 38.895480166666665, "is_disabled": 0, "lon": -77.056644}, {"fusion_lat": 0.0, "type": "electric_scooter", "name": "00c4b15e1ec66b9ffe589edbbcb886d0", "fusion_lon": 0.0, "bike_id": "00c4b15e1ec66b9ffe589edbbcb886d0", "is_reserved": 0, "rental_uris": {"android": "https://dc.lft.to/lastmile_qr_scan", "ios": "https://dc.lft.to/lastmile_qr_scan"}, "lat": 38.88119833333333, "is_disabled": 0, "lon": -77.016939}, {"fusion_lat": 0.0, "type": "electric_scooter", "name": "ac197a47adba373e2d66bc091dfac522", "fusion_lon": 0.0, "bike_id": "ac197a47adba373e2d66bc091dfac522", "is_reserved": 0, "rental_uris": {"android": "https://dc.lft.to/lastmile_qr_scan", "ios": "https://dc.lft.to/lastmile_qr_scan"}, "lat": 38.89227283333334, "is_disabled": 0, "lon": -77.03181683333334}, {"fusion_lat": 0.0, "type": "electric_scooter", "name": "53431d78532ba9e2573fe65a19fb1a2f", "fusion_lon": 0.0, "bike_id": "53431d78532ba9e2573fe65a19fb1a2f", "is_reserved": 0, "rental_uris": {"android": "https://dc.lft.to/lastmile_qr_scan", "ios": "https://dc.lft.to/lastmile_qr_scan"}, "lat": 38.8835955, "is_disabled": 0, "lon": -76.99504}, {"fusion_lat": 0.0, "type": "electric_bike", "name": "2e2111fe1e973d3fb63a0dccf9597325", "fusion_lon": 0.0, "bike_id": "2e2111fe1e973d3fb63a0dccf9597325", "is_reserved": 0, "rental_uris": {"android": "https://dc.lft.to/lastmile_qr_scan", "ios": "https://dc.lft.to/lastmile_qr_scan"}, "lat": 38.8804265, "is_disabled": 0, "lon": -77.01129016666667}, {"fusion_lat": 0.0, "type": "electric_scooter", "name": "1389a9faf2ce73e334efe14053141efe", "fusion_lon": 0.0, "bike_id": "1389a9faf2ce73e334efe14053141efe", "is_reserved": 0, "rental_uris": {"android": "https://dc.lft.to/lastmile_qr_scan", "ios": "https://dc.lft.to/lastmile_qr_scan"}, "lat": 38.92201383333333, "is_disabled": 0, "lon": -77.029778}, {"fusion_lat": 0.0, "type": "electric_scooter", "name": "91b5ee05d4ac38e8b9f5ae43087e4900", "fusion_lon": 0.0, "bike_id": "91b5ee05d4ac38e8b9f5ae43087e4900", "is_reserved": 0, "rental_uris": {"android": "https://dc.lft.to/lastmile_qr_scan", "ios": "https://dc.lft.to/lastmile_qr_scan"}, "lat": 38.91337216666667, "is_disabled": 0, "lon": -77.00925}, {"fusion_lat": 0.0, "type": "electric_scooter", "name": "72cc392da45e01762d07ba5a8527c2f4", "fusion_lon": 0.0, "bike_id": "72cc392da45e01762d07ba5a8527c2f4", "is_reserved": 0, "rental_uris": {"android": "https://dc.lft.to/lastmile_qr_scan", "ios": "https://dc.lft.to/lastmile_qr_scan"}, "lat": 38.91684683333333, "is_disabled": 0, "lon": -77.029573}, {"fusion_lat": 0.0, "type": "electric_scooter", "name": "7128b718024339c60c32414bf1f2e8bc", "fusion_lon": 0.0, "bike_id": "7128b718024339c60c32414bf1f2e8bc", "is_reserved": 0, "rental_uris": {"android": "https://dc.lft.to/lastmile_qr_scan", "ios": "https://dc.lft.to/lastmile_qr_scan"}, "lat": 38.905335, "is_disabled": 0, "lon": -77.050424}, {"fusion_lat": 0.0, "type": "electric_scooter", "name": "1260f043b06c5805802f481870ae034d", "fusion_lon": 0.0, "bike_id": "1260f043b06c5805802f481870ae034d", "is_reserved": 0, "rental_uris": {"android": "https://dc.lft.to/lastmile_qr_scan", "ios": "https://dc.lft.to/lastmile_qr_scan"}, "lat": 38.931846666666665, "is_disabled": 0, "lon": -77.03845316666667}, {"fusion_lat": 0.0, "type": "electric_scooter", "name": "e343ff40286bc31038bd11a109ffd7eb", "fusion_lon": 0.0, "bike_id": "e343ff40286bc31038bd11a109ffd7eb", "is_reserved": 0, "rental_uris": {"android": "https://dc.lft.to/lastmile_qr_scan", "ios": "https://dc.lft.to/lastmile_qr_scan"}, "lat": 38.867032333333334, "is_disabled": 0, "lon": -76.98711883333333}, {"fusion_lat": 0.0, "type": "electric_scooter", "name": "747bfd4d3d41355306f6b7d137a60c24", "fusion_lon": 0.0, "bike_id": "747bfd4d3d41355306f6b7d137a60c24", "is_reserved": 0, "rental_uris": {"android": "https://dc.lft.to/lastmile_qr_scan", "ios": "https://dc.lft.to/lastmile_qr_scan"}, "lat": 38.90473433333333, "is_disabled": 0, "lon": -77.03896766666666}, {"fusion_lat": 0.0, "type": "electric_scooter", "name": "22c7ffcaaa09aa75c9cbb9015d8acc52", "fusion_lon": 0.0, "bike_id": "22c7ffcaaa09aa75c9cbb9015d8acc52", "is_reserved": 0, "rental_uris": {"android": "https://dc.lft.to/lastmile_qr_scan", "ios": "https://dc.lft.to/lastmile_qr_scan"}, "lat": 38.892214333333335, "is_disabled": 0, "lon": -77.0262885}, {"fusion_lat": 0.0, "type": "electric_scooter", "name": "618af2da31faa2d1cd5c9e574914ce1a", "fusion_lon": 0.0, "bike_id": "618af2da31faa2d1cd5c9e574914ce1a", "is_reserved": 0, "rental_uris": {"android": "https://dc.lft.to/lastmile_qr_scan", "ios": "https://dc.lft.to/lastmile_qr_scan"}, "lat": 38.9077945, "is_disabled": 0, "lon": -77.022948}, {"fusion_lat": 0.0, "type": "electric_scooter", "name": "d910dad5854a1969da7f41ae6c9fde7f", "fusion_lon": 0.0, "bike_id": "d910dad5854a1969da7f41ae6c9fde7f", "is_reserved": 0, "rental_uris": {"android": "https://dc.lft.to/lastmile_qr_scan", "ios": "https://dc.lft.to/lastmile_qr_scan"}, "lat": 38.915682333333336, "is_disabled": 0, "lon": -77.0317105}, {"fusion_lat": 0.0, "type": "electric_scooter", "name": "774403ad0347ea1086e3217162e6fa71", "fusion_lon": 0.0, "bike_id": "774403ad0347ea1086e3217162e6fa71", "is_reserved": 0, "rental_uris": {"android": "https://dc.lft.to/lastmile_qr_scan", "ios": "https://dc.lft.to/lastmile_qr_scan"}, "lat": 38.924546666666664, "is_disabled": 0, "lon": -77.032822}, {"fusion_lat": 0.0, "type": "electric_bike", "name": "2f5bb0efea4a8879508efaa2d21f86b4", "fusion_lon": 0.0, "bike_id": "2f5bb0efea4a8879508efaa2d21f86b4", "is_reserved": 0, "rental_uris": {"android": "https://dc.lft.to/lastmile_qr_scan", "ios": "https://dc.lft.to/lastmile_qr_scan"}, "lat": 38.96742066666667, "is_disabled": 0, "lon": -76.9819635}, {"fusion_lat": 0.0, "type": "electric_bike", "name": "4570e0a0252342cde7862e4a37e16ad4", "fusion_lon": 0.0, "bike_id": "4570e0a0252342cde7862e4a37e16ad4", "is_reserved": 0, "rental_uris": {"android": "https://dc.lft.to/lastmile_qr_scan", "ios": "https://dc.lft.to/lastmile_qr_scan"}, "lat": 39.0147975, "is_disabled": 0, "lon": -77.0549445}, {"fusion_lat": 0.0, "type": "electric_scooter", "name": "c679fd5966cf023081931cbe49364da5", "fusion_lon": 0.0, "bike_id": "c679fd5966cf023081931cbe49364da5", "is_reserved": 0, "rental_uris": {"android": "https://dc.lft.to/lastmile_qr_scan", "ios": "https://dc.lft.to/lastmile_qr_scan"}, "lat": 38.916192833333334, "is_disabled": 0, "lon": -77.04812316666667}, {"fusion_lat": 0.0, "type": "electric_scooter", "name": "6a5de0674ec8a1a72c94ef8e94a13c20", "fusion_lon": 0.0, "bike_id": "6a5de0674ec8a1a72c94ef8e94a13c20", "is_reserved": 0, "rental_uris": {"android": "https://dc.lft.to/lastmile_qr_scan", "ios": "https://dc.lft.to/lastmile_qr_scan"}, "lat": 38.902472, "is_disabled": 0, "lon": -76.99888966666667}, {"fusion_lat": 0.0, "type": "electric_scooter", "name": "ab83326cd726d322cb8d773596ed3b63", "fusion_lon": 0.0, "bike_id": "ab83326cd726d322cb8d773596ed3b63", "is_reserved": 0, "rental_uris": {"android": "https://dc.lft.to/lastmile_qr_scan", "ios": "https://dc.lft.to/lastmile_qr_scan"}, "lat": 38.913903166666664, "is_disabled": 0, "lon": -77.04178483333334}, {"fusion_lat": 0.0, "type": "electric_scooter", "name": "add43689fc510016600ce720341044ca", "fusion_lon": 0.0, "bike_id": "add43689fc510016600ce720341044ca", "is_reserved": 0, "rental_uris": {"android": "https://dc.lft.to/lastmile_qr_scan", "ios": "https://dc.lft.to/lastmile_qr_scan"}, "lat": 38.89197733333334, "is_disabled": 0, "lon": -77.02772083333333}, {"fusion_lat": 0.0, "type": "electric_scooter", "name": "3fb6fa34d4b127da2d969df6cff14443", "fusion_lon": 0.0, "bike_id": "3fb6fa34d4b127da2d969df6cff14443", "is_reserved": 0, "rental_uris": {"android": "https://dc.lft.to/lastmile_qr_scan", "ios": "https://dc.lft.to/lastmile_qr_scan"}, "lat": 38.9348455, "is_disabled": 0, "lon": -77.02833116666666}, {"fusion_lat": 0.0, "type": "electric_scooter", "name": "124313af4c053d54228fd41cafd9ec0b", "fusion_lon": 0.0, "bike_id": "124313af4c053d54228fd41cafd9ec0b", "is_reserved": 0, "rental_uris": {"android": "https://dc.lft.to/lastmile_qr_scan", "ios": "https://dc.lft.to/lastmile_qr_scan"}, "lat": 38.9098475, "is_disabled": 0, "lon": -77.02186516666667}, {"fusion_lat": 0.0, "type": "electric_scooter", "name": "adeb88b2a66c57d78faef0855dede461", "fusion_lon": 0.0, "bike_id": "adeb88b2a66c57d78faef0855dede461", "is_reserved": 0, "rental_uris": {"android": "https://dc.lft.to/lastmile_qr_scan", "ios": "https://dc.lft.to/lastmile_qr_scan"}, "lat": 38.892212, "is_disabled": 0, "lon": -77.032212}, {"fusion_lat": 0.0, "type": "electric_scooter", "name": "f3f0c11cfff31e3a5f6fe50fe1fe0a03", "fusion_lon": 0.0, "bike_id": "f3f0c11cfff31e3a5f6fe50fe1fe0a03", "is_reserved": 0, "rental_uris": {"android": "https://dc.lft.to/lastmile_qr_scan", "ios": "https://dc.lft.to/lastmile_qr_scan"}, "lat": 38.92438033333333, "is_disabled": 0, "lon": -77.034067}, {"fusion_lat": 0.0, "type": "electric_scooter", "name": "fba495af0c68544b2135a5ddb382de6d", "fusion_lon": 0.0, "bike_id": "fba495af0c68544b2135a5ddb382de6d", "is_reserved": 0, "rental_uris": {"android": "https://dc.lft.to/lastmile_qr_scan", "ios": "https://dc.lft.to/lastmile_qr_scan"}, "lat": 38.90006733333333, "is_disabled": 0, "lon": -76.93029733333333}, {"fusion_lat": 0.0, "type": "electric_scooter", "name": "570711a0dd7d4d2f64777d870d956d22", "fusion_lon": 0.0, "bike_id": "570711a0dd7d4d2f64777d870d956d22", "is_reserved": 0, "rental_uris": {"android": "https://dc.lft.to/lastmile_qr_scan", "ios": "https://dc.lft.to/lastmile_qr_scan"}, "lat": 38.86696833333333, "is_disabled": 0, "lon": -76.98592083333334}, {"fusion_lat": 0.0, "type": "electric_scooter", "name": "49f77686e10c035c1cbd03db86bdb75b", "fusion_lon": 0.0, "bike_id": "49f77686e10c035c1cbd03db86bdb75b", "is_reserved": 0, "rental_uris": {"android": "https://dc.lft.to/lastmile_qr_scan", "ios": "https://dc.lft.to/lastmile_qr_scan"}, "lat": 38.9075155, "is_disabled": 0, "lon": -77.04480783333334}, {"fusion_lat": 0.0, "type": "electric_bike", "name": "df5a9fd1309acc5d261da6c97f104663", "fusion_lon": 0.0, "bike_id": "df5a9fd1309acc5d261da6c97f104663", "is_reserved": 0, "rental_uris": {"android": "https://dc.lft.to/lastmile_qr_scan", "ios": "https://dc.lft.to/lastmile_qr_scan"}, "lat": 38.90481233333333, "is_disabled": 0, "lon": -76.97330483333333}, {"fusion_lat": 0.0, "type": "electric_scooter", "name": "4db560cf0bbd38fe30e58f15c146320e", "fusion_lon": 0.0, "bike_id": "4db560cf0bbd38fe30e58f15c146320e", "is_reserved": 0, "rental_uris": {"android": "https://dc.lft.to/lastmile_qr_scan", "ios": "https://dc.lft.to/lastmile_qr_scan"}, "lat": 38.909681166666665, "is_disabled": 0, "lon": -77.0347315}, {"fusion_lat": 0.0, "type": "electric_scooter", "name": "78296eea6f79c30f84c6f187c6f77c31", "fusion_lon": 0.0, "bike_id": "78296eea6f79c30f84c6f187c6f77c31", "is_reserved": 0, "rental_uris": {"android": "https://dc.lft.to/lastmile_qr_scan", "ios": "https://dc.lft.to/lastmile_qr_scan"}, "lat": 38.924902, "is_disabled": 0, "lon": -77.02137783333333}, {"fusion_lat": 0.0, "type": "electric_scooter", "name": "c9406539976beb53435dee5e1fbc2c28", "fusion_lon": 0.0, "bike_id": "c9406539976beb53435dee5e1fbc2c28", "is_reserved": 0, "rental_uris": {"android": "https://dc.lft.to/lastmile_qr_scan", "ios": "https://dc.lft.to/lastmile_qr_scan"}, "lat": 38.92539383333333, "is_disabled": 0, "lon": -76.972209}, {"fusion_lat": 0.0, "type": "electric_scooter", "name": "c306859b5b37ca7a301d9f986f9d8bb6", "fusion_lon": 0.0, "bike_id": "c306859b5b37ca7a301d9f986f9d8bb6", "is_reserved": 0, "rental_uris": {"android": "https://dc.lft.to/lastmile_qr_scan", "ios": "https://dc.lft.to/lastmile_qr_scan"}, "lat": 38.91908266666667, "is_disabled": 0, "lon": -77.03142433333333}, {"fusion_lat": 0.0, "type": "electric_scooter", "name": "3ce2d7beb5e2e8b56431605a5e5c3ef8", "fusion_lon": 0.0, "bike_id": "3ce2d7beb5e2e8b56431605a5e5c3ef8", "is_reserved": 0, "rental_uris": {"android": "https://dc.lft.to/lastmile_qr_scan", "ios": "https://dc.lft.to/lastmile_qr_scan"}, "lat": 38.8971605, "is_disabled": 0, "lon": -77.02724833333333}, {"fusion_lat": 0.0, "type": "electric_scooter", "name": "17cf9c23b8805646e7c9d49cca1de1e2", "fusion_lon": 0.0, "bike_id": "17cf9c23b8805646e7c9d49cca1de1e2", "is_reserved": 0, "rental_uris": {"android": "https://dc.lft.to/lastmile_qr_scan", "ios": "https://dc.lft.to/lastmile_qr_scan"}, "lat": 38.897994833333335, "is_disabled": 0, "lon": -76.9916445}, {"fusion_lat": 0.0, "type": "electric_bike", "name": "2fe0a6836d8cdd0c1a81fb650f86cf88", "fusion_lon": 0.0, "bike_id": "2fe0a6836d8cdd0c1a81fb650f86cf88", "is_reserved": 0, "rental_uris": {"android": "https://dc.lft.to/lastmile_qr_scan", "ios": "https://dc.lft.to/lastmile_qr_scan"}, "lat": 38.83808583333333, "is_disabled": 0, "lon": -77.09523933333334}, {"fusion_lat": 0.0, "type": "electric_bike", "name": "ecd71189fde491235328ddbc5039f873", "fusion_lon": 0.0, "bike_id": "ecd71189fde491235328ddbc5039f873", "is_reserved": 0, "rental_uris": {"android": "https://dc.lft.to/lastmile_qr_scan", "ios": "https://dc.lft.to/lastmile_qr_scan"}, "lat": 38.865215666666664, "is_disabled": 0, "lon": -76.97335916666667}, {"fusion_lat": 0.0, "type": "electric_scooter", "name": "024afa769387ce41c233edc6f7ea9d46", "fusion_lon": 0.0, "bike_id": "024afa769387ce41c233edc6f7ea9d46", "is_reserved": 0, "rental_uris": {"android": "https://dc.lft.to/lastmile_qr_scan", "ios": "https://dc.lft.to/lastmile_qr_scan"}, "lat": 38.975415166666664, "is_disabled": 0, "lon": -77.01693266666666}, {"fusion_lat": 0.0, "type": "electric_scooter", "name": "3c14d080b105fa059cef0ad7ff7b05e6", "fusion_lon": 0.0, "bike_id": "3c14d080b105fa059cef0ad7ff7b05e6", "is_reserved": 0, "rental_uris": {"android": "https://dc.lft.to/lastmile_qr_scan", "ios": "https://dc.lft.to/lastmile_qr_scan"}, "lat": 38.897433166666666, "is_disabled": 0, "lon": -76.98982966666667}, {"fusion_lat": 0.0, "type": "electric_scooter", "name": "2bed5ea0e160e741edf3c80ca69d3d5e", "fusion_lon": 0.0, "bike_id": "2bed5ea0e160e741edf3c80ca69d3d5e", "is_reserved": 0, "rental_uris": {"android": "https://dc.lft.to/lastmile_qr_scan", "ios": "https://dc.lft.to/lastmile_qr_scan"}, "lat": 38.892174, "is_disabled": 0, "lon": -77.03159966666666}, {"fusion_lat": 0.0, "type": "electric_scooter", "name": "a1e2776715ba64feed1a6734174556fd", "fusion_lon": 0.0, "bike_id": "a1e2776715ba64feed1a6734174556fd", "is_reserved": 0, "rental_uris": {"android": "https://dc.lft.to/lastmile_qr_scan", "ios": "https://dc.lft.to/lastmile_qr_scan"}, "lat": 38.92816466666667, "is_disabled": 0, "lon": -77.05449033333333}, {"fusion_lat": 0.0, "type": "electric_scooter", "name": "0a38ad295da0b63366e0502a4bd8ec71", "fusion_lon": 0.0, "bike_id": "0a38ad295da0b63366e0502a4bd8ec71", "is_reserved": 0, "rental_uris": {"android": "https://dc.lft.to/lastmile_qr_scan", "ios": "https://dc.lft.to/lastmile_qr_scan"}, "lat": 38.94989983333333, "is_disabled": 0, "lon": -77.02705116666667}, {"fusion_lat": 0.0, "type": "electric_scooter", "name": "49a939a5010c242da1d07e23fb64805f", "fusion_lon": 0.0, "bike_id": "49a939a5010c242da1d07e23fb64805f", "is_reserved": 0, "rental_uris": {"android": "https://dc.lft.to/lastmile_qr_scan", "ios": "https://dc.lft.to/lastmile_qr_scan"}, "lat": 38.898262333333335, "is_disabled": 0, "lon": -77.00754433333333}, {"fusion_lat": 0.0, "type": "electric_scooter", "name": "b559724a969109da911f60ff4bf21eff", "fusion_lon": 0.0, "bike_id": "b559724a969109da911f60ff4bf21eff", "is_reserved": 0, "rental_uris": {"android": "https://dc.lft.to/lastmile_qr_scan", "ios": "https://dc.lft.to/lastmile_qr_scan"}, "lat": 38.86667416666667, "is_disabled": 0, "lon": -76.98518483333334}, {"fusion_lat": 0.0, "type": "electric_scooter", "name": "03757391218cdfb9ad730314ffb8d7f6", "fusion_lon": 0.0, "bike_id": "03757391218cdfb9ad730314ffb8d7f6", "is_reserved": 0, "rental_uris": {"android": "https://dc.lft.to/lastmile_qr_scan", "ios": "https://dc.lft.to/lastmile_qr_scan"}, "lat": 38.92678466666667, "is_disabled": 0, "lon": -77.02858316666666}, {"fusion_lat": 0.0, "type": "electric_scooter", "name": "b00507bbc508718b8352e6e20e15eca9", "fusion_lon": 0.0, "bike_id": "b00507bbc508718b8352e6e20e15eca9", "is_reserved": 0, "rental_uris": {"android": "https://dc.lft.to/lastmile_qr_scan", "ios": "https://dc.lft.to/lastmile_qr_scan"}, "lat": 38.936111333333336, "is_disabled": 0, "lon": -77.05893483333334}, {"fusion_lat": 0.0, "type": "electric_scooter", "name": "1f9841e1cd5a84266a0d44b19452addd", "fusion_lon": 0.0, "bike_id": "1f9841e1cd5a84266a0d44b19452addd", "is_reserved": 0, "rental_uris": {"android": "https://dc.lft.to/lastmile_qr_scan", "ios": "https://dc.lft.to/lastmile_qr_scan"}, "lat": 38.89843916666667, "is_disabled": 0, "lon": -76.94640916666667}, {"fusion_lat": 0.0, "type": "electric_bike", "name": "46ababee9074c27cb02609f2fe0f73a4", "fusion_lon": 0.0, "bike_id": "46ababee9074c27cb02609f2fe0f73a4", "is_reserved": 0, "rental_uris": {"android": "https://dc.lft.to/lastmile_qr_scan", "ios": "https://dc.lft.to/lastmile_qr_scan"}, "lat": 38.97396533333333, "is_disabled": 0, "lon": -77.06452383333334}, {"fusion_lat": 0.0, "type": "electric_scooter", "name": "84aed1a7bceb24a6a07117a1378fba80", "fusion_lon": 0.0, "bike_id": "84aed1a7bceb24a6a07117a1378fba80", "is_reserved": 0, "rental_uris": {"android": "https://dc.lft.to/lastmile_qr_scan", "ios": "https://dc.lft.to/lastmile_qr_scan"}, "lat": 38.915549666666664, "is_disabled": 0, "lon": -77.03172683333334}, {"fusion_lat": 0.0, "type": "electric_scooter", "name": "1d396d574880568d3cada83a07c6732d", "fusion_lon": 0.0, "bike_id": "1d396d574880568d3cada83a07c6732d", "is_reserved": 0, "rental_uris": {"android": "https://dc.lft.to/lastmile_qr_scan", "ios": "https://dc.lft.to/lastmile_qr_scan"}, "lat": 38.90806666666667, "is_disabled": 0, "lon": -76.98738733333333}, {"fusion_lat": 0.0, "type": "electric_scooter", "name": "410671042b9fffc54da40a70127a54f3", "fusion_lon": 0.0, "bike_id": "410671042b9fffc54da40a70127a54f3", "is_reserved": 0, "rental_uris": {"android": "https://dc.lft.to/lastmile_qr_scan", "ios": "https://dc.lft.to/lastmile_qr_scan"}, "lat": 38.899721666666665, "is_disabled": 0, "lon": -77.04219916666666}, {"fusion_lat": 0.0, "type": "electric_scooter", "name": "ea86c15ba041b257daa81c11f81fbddb", "fusion_lon": 0.0, "bike_id": "ea86c15ba041b257daa81c11f81fbddb", "is_reserved": 0, "rental_uris": {"android": "https://dc.lft.to/lastmile_qr_scan", "ios": "https://dc.lft.to/lastmile_qr_scan"}, "lat": 38.892256333333336, "is_disabled": 0, "lon": -77.04332283333333}, {"fusion_lat": 0.0, "type": "electric_scooter", "name": "b900a8d3d4de3995fc0ff9a5c9e1413c", "fusion_lon": 0.0, "bike_id": "b900a8d3d4de3995fc0ff9a5c9e1413c", "is_reserved": 0, "rental_uris": {"android": "https://dc.lft.to/lastmile_qr_scan", "ios": "https://dc.lft.to/lastmile_qr_scan"}, "lat": 38.92883366666667, "is_disabled": 0, "lon": -77.01414033333333}, {"fusion_lat": 0.0, "type": "electric_scooter", "name": "d51d18ab8562bb8b61f97f07fa232f4d", "fusion_lon": 0.0, "bike_id": "d51d18ab8562bb8b61f97f07fa232f4d", "is_reserved": 0, "rental_uris": {"android": "https://dc.lft.to/lastmile_qr_scan", "ios": "https://dc.lft.to/lastmile_qr_scan"}, "lat": 38.917060166666666, "is_disabled": 0, "lon": -77.03343033333333}, {"fusion_lat": 0.0, "type": "electric_scooter", "name": "904fb5cf4cadbf637d2f4c977de93075", "fusion_lon": 0.0, "bike_id": "904fb5cf4cadbf637d2f4c977de93075", "is_reserved": 0, "rental_uris": {"android": "https://dc.lft.to/lastmile_qr_scan", "ios": "https://dc.lft.to/lastmile_qr_scan"}, "lat": 38.90963083333333, "is_disabled": 0, "lon": -77.03471116666667}, {"fusion_lat": 0.0, "type": "electric_scooter", "name": "60c67d5a418caa81e862c51102c6316a", "fusion_lon": 0.0, "bike_id": "60c67d5a418caa81e862c51102c6316a", "is_reserved": 0, "rental_uris": {"android": "https://dc.lft.to/lastmile_qr_scan", "ios": "https://dc.lft.to/lastmile_qr_scan"}, "lat": 38.924160666666666, "is_disabled": 0, "lon": -77.01946516666666}, {"fusion_lat": 0.0, "type": "electric_scooter", "name": "d487f142e322226a44861d286491812c", "fusion_lon": 0.0, "bike_id": "d487f142e322226a44861d286491812c", "is_reserved": 0, "rental_uris": {"android": "https://dc.lft.to/lastmile_qr_scan", "ios": "https://dc.lft.to/lastmile_qr_scan"}, "lat": 38.90338283333333, "is_disabled": 0, "lon": -77.04657983333334}, {"fusion_lat": 0.0, "type": "electric_scooter", "name": "7ded7c43eb467a483134bbb4cf35cbdb", "fusion_lon": 0.0, "bike_id": "7ded7c43eb467a483134bbb4cf35cbdb", "is_reserved": 0, "rental_uris": {"android": "https://dc.lft.to/lastmile_qr_scan", "ios": "https://dc.lft.to/lastmile_qr_scan"}, "lat": 38.923834, "is_disabled": 0, "lon": -77.03093533333333}, {"fusion_lat": 0.0, "type": "electric_scooter", "name": "05ee3e55a1768fdf1c8b9705243e4005", "fusion_lon": 0.0, "bike_id": "05ee3e55a1768fdf1c8b9705243e4005", "is_reserved": 0, "rental_uris": {"android": "https://dc.lft.to/lastmile_qr_scan", "ios": "https://dc.lft.to/lastmile_qr_scan"}, "lat": 38.90843666666667, "is_disabled": 0, "lon": -77.04363166666667}, {"fusion_lat": 0.0, "type": "electric_scooter", "name": "eec0b14662ad806490dda006177a0cfb", "fusion_lon": 0.0, "bike_id": "eec0b14662ad806490dda006177a0cfb", "is_reserved": 0, "rental_uris": {"android": "https://dc.lft.to/lastmile_qr_scan", "ios": "https://dc.lft.to/lastmile_qr_scan"}, "lat": 38.89890183333333, "is_disabled": 0, "lon": -77.05300283333334}, {"fusion_lat": 0.0, "type": "electric_scooter", "name": "ff0c981b9d70d0850bfae3f3a587996d", "fusion_lon": 0.0, "bike_id": "ff0c981b9d70d0850bfae3f3a587996d", "is_reserved": 0, "rental_uris": {"android": "https://dc.lft.to/lastmile_qr_scan", "ios": "https://dc.lft.to/lastmile_qr_scan"}, "lat": 38.91479733333333, "is_disabled": 0, "lon": -77.02579233333333}, {"fusion_lat": 0.0, "type": "electric_scooter", "name": "edf50baf6cb9ad167741bb396c8d820e", "fusion_lon": 0.0, "bike_id": "edf50baf6cb9ad167741bb396c8d820e", "is_reserved": 0, "rental_uris": {"android": "https://dc.lft.to/lastmile_qr_scan", "ios": "https://dc.lft.to/lastmile_qr_scan"}, "lat": 38.88918783333333, "is_disabled": 0, "lon": -76.99132933333334}, {"fusion_lat": 0.0, "type": "electric_scooter", "name": "692b8e09724b919eb079794f8473b698", "fusion_lon": 0.0, "bike_id": "692b8e09724b919eb079794f8473b698", "is_reserved": 0, "rental_uris": {"android": "https://dc.lft.to/lastmile_qr_scan", "ios": "https://dc.lft.to/lastmile_qr_scan"}, "lat": 38.90535233333333, "is_disabled": 0, "lon": -77.048393}, {"fusion_lat": 0.0, "type": "electric_scooter", "name": "fdb7941b18a96224cc0418911d27f7ee", "fusion_lon": 0.0, "bike_id": "fdb7941b18a96224cc0418911d27f7ee", "is_reserved": 0, "rental_uris": {"android": "https://dc.lft.to/lastmile_qr_scan", "ios": "https://dc.lft.to/lastmile_qr_scan"}, "lat": 38.921311, "is_disabled": 0, "lon": -77.02512866666666}, {"fusion_lat": 0.0, "type": "electric_scooter", "name": "548585d484143e6253db157935fdd207", "fusion_lon": 0.0, "bike_id": "548585d484143e6253db157935fdd207", "is_reserved": 0, "rental_uris": {"android": "https://dc.lft.to/lastmile_qr_scan", "ios": "https://dc.lft.to/lastmile_qr_scan"}, "lat": 38.918186666666664, "is_disabled": 0, "lon": -77.03444966666666}, {"fusion_lat": 0.0, "type": "electric_bike", "name": "b2975c967832044d33feee97c1d77f0c", "fusion_lon": 0.0, "bike_id": "b2975c967832044d33feee97c1d77f0c", "is_reserved": 0, "rental_uris": {"android": "https://dc.lft.to/lastmile_qr_scan", "ios": "https://dc.lft.to/lastmile_qr_scan"}, "lat": 38.896498333333334, "is_disabled": 0, "lon": -76.93012016666667}, {"fusion_lat": 0.0, "type": "electric_scooter", "name": "56207738e34dca555151efe77c0fd457", "fusion_lon": 0.0, "bike_id": "56207738e34dca555151efe77c0fd457", "is_reserved": 0, "rental_uris": {"android": "https://dc.lft.to/lastmile_qr_scan", "ios": "https://dc.lft.to/lastmile_qr_scan"}, "lat": 38.9195035, "is_disabled": 0, "lon": -76.98079466666667}, {"fusion_lat": 0.0, "type": "electric_scooter", "name": "106d685b9714c900ac3c31b49e4fa46c", "fusion_lon": 0.0, "bike_id": "106d685b9714c900ac3c31b49e4fa46c", "is_reserved": 0, "rental_uris": {"android": "https://dc.lft.to/lastmile_qr_scan", "ios": "https://dc.lft.to/lastmile_qr_scan"}, "lat": 38.913258166666665, "is_disabled": 0, "lon": -77.04536883333333}, {"fusion_lat": 0.0, "type": "electric_scooter", "name": "b99dc4ac433f191667e16a3acab8e87e", "fusion_lon": 0.0, "bike_id": "b99dc4ac433f191667e16a3acab8e87e", "is_reserved": 0, "rental_uris": {"android": "https://dc.lft.to/lastmile_qr_scan", "ios": "https://dc.lft.to/lastmile_qr_scan"}, "lat": 38.93526116666666, "is_disabled": 0, "lon": -77.07284666666666}, {"fusion_lat": 0.0, "type": "electric_scooter", "name": "4dd64a61e066593076874ad2e81778fa", "fusion_lon": 0.0, "bike_id": "4dd64a61e066593076874ad2e81778fa", "is_reserved": 0, "rental_uris": {"android": "https://dc.lft.to/lastmile_qr_scan", "ios": "https://dc.lft.to/lastmile_qr_scan"}, "lat": 38.908551, "is_disabled": 0, "lon": -77.04262183333333}, {"fusion_lat": 0.0, "type": "electric_scooter", "name": "b0baf298cfe656da5a9dbf8d1430fbfe", "fusion_lon": 0.0, "bike_id": "b0baf298cfe656da5a9dbf8d1430fbfe", "is_reserved": 0, "rental_uris": {"android": "https://dc.lft.to/lastmile_qr_scan", "ios": "https://dc.lft.to/lastmile_qr_scan"}, "lat": 38.922390666666665, "is_disabled": 0, "lon": -77.043646}, {"fusion_lat": 0.0, "type": "electric_scooter", "name": "c937eeaff1e7957291764e8085b92b42", "fusion_lon": 0.0, "bike_id": "c937eeaff1e7957291764e8085b92b42", "is_reserved": 0, "rental_uris": {"android": "https://dc.lft.to/lastmile_qr_scan", "ios": "https://dc.lft.to/lastmile_qr_scan"}, "lat": 38.920464333333335, "is_disabled": 0, "lon": -77.03658183333333}, {"fusion_lat": 0.0, "type": "electric_scooter", "name": "bcb6d675729eb59a9f107a673c53ca45", "fusion_lon": 0.0, "bike_id": "bcb6d675729eb59a9f107a673c53ca45", "is_reserved": 0, "rental_uris": {"android": "https://dc.lft.to/lastmile_qr_scan", "ios": "https://dc.lft.to/lastmile_qr_scan"}, "lat": 38.89428233333334, "is_disabled": 0, "lon": -76.94879483333334}, {"fusion_lat": 0.0, "type": "electric_scooter", "name": "4bf52ed615c008a338ac222e13aa1b9e", "fusion_lon": 0.0, "bike_id": "4bf52ed615c008a338ac222e13aa1b9e", "is_reserved": 0, "rental_uris": {"android": "https://dc.lft.to/lastmile_qr_scan", "ios": "https://dc.lft.to/lastmile_qr_scan"}, "lat": 38.92195066666667, "is_disabled": 0, "lon": -77.0423425}, {"fusion_lat": 0.0, "type": "electric_scooter", "name": "3f6b96ef94e5a12e980c8f8456ab133b", "fusion_lon": 0.0, "bike_id": "3f6b96ef94e5a12e980c8f8456ab133b", "is_reserved": 0, "rental_uris": {"android": "https://dc.lft.to/lastmile_qr_scan", "ios": "https://dc.lft.to/lastmile_qr_scan"}, "lat": 38.917177333333335, "is_disabled": 0, "lon": -77.02377566666667}, {"fusion_lat": 0.0, "type": "electric_bike", "name": "ca5aaff0ce52f789b0bdb1240eb331c7", "fusion_lon": 0.0, "bike_id": "ca5aaff0ce52f789b0bdb1240eb331c7", "is_reserved": 0, "rental_uris": {"android": "https://dc.lft.to/lastmile_qr_scan", "ios": "https://dc.lft.to/lastmile_qr_scan"}, "lat": 38.895635, "is_disabled": 0, "lon": -77.1273165}, {"fusion_lat": 0.0, "type": "electric_scooter", "name": "bd496f33acb85fca0da06340911a4255", "fusion_lon": 0.0, "bike_id": "bd496f33acb85fca0da06340911a4255", "is_reserved": 0, "rental_uris": {"android": "https://dc.lft.to/lastmile_qr_scan", "ios": "https://dc.lft.to/lastmile_qr_scan"}, "lat": 38.93401383333333, "is_disabled": 0, "lon": -77.04140533333333}, {"fusion_lat": 0.0, "type": "electric_scooter", "name": "952b7174a43b018b582b8855ab5b128b", "fusion_lon": 0.0, "bike_id": "952b7174a43b018b582b8855ab5b128b", "is_reserved": 0, "rental_uris": {"android": "https://dc.lft.to/lastmile_qr_scan", "ios": "https://dc.lft.to/lastmile_qr_scan"}, "lat": 38.9316545, "is_disabled": 0, "lon": -77.05613283333334}, {"fusion_lat": 0.0, "type": "electric_scooter", "name": "0c8b8b4cda4d4823dcd4cdf89eeba824", "fusion_lon": 0.0, "bike_id": "0c8b8b4cda4d4823dcd4cdf89eeba824", "is_reserved": 0, "rental_uris": {"android": "https://dc.lft.to/lastmile_qr_scan", "ios": "https://dc.lft.to/lastmile_qr_scan"}, "lat": 38.89102116666667, "is_disabled": 0, "lon": -77.00285166666667}, {"fusion_lat": 0.0, "type": "electric_scooter", "name": "706793b1d0cc280d8f16bfc17c68d846", "fusion_lon": 0.0, "bike_id": "706793b1d0cc280d8f16bfc17c68d846", "is_reserved": 0, "rental_uris": {"android": "https://dc.lft.to/lastmile_qr_scan", "ios": "https://dc.lft.to/lastmile_qr_scan"}, "lat": 38.90709366666667, "is_disabled": 0, "lon": -77.04483416666666}, {"fusion_lat": 0.0, "type": "electric_scooter", "name": "1911ed0d217449071a851f1627006445", "fusion_lon": 0.0, "bike_id": "1911ed0d217449071a851f1627006445", "is_reserved": 0, "rental_uris": {"android": "https://dc.lft.to/lastmile_qr_scan", "ios": "https://dc.lft.to/lastmile_qr_scan"}, "lat": 38.94098833333334, "is_disabled": 0, "lon": -77.02108966666667}, {"fusion_lat": 0.0, "type": "electric_scooter", "name": "76821e00fa2cdd549bd74d5e7319f8f1", "fusion_lon": 0.0, "bike_id": "76821e00fa2cdd549bd74d5e7319f8f1", "is_reserved": 0, "rental_uris": {"android": "https://dc.lft.to/lastmile_qr_scan", "ios": "https://dc.lft.to/lastmile_qr_scan"}, "lat": 38.9101345, "is_disabled": 0, "lon": -76.993901}, {"fusion_lat": 0.0, "type": "electric_scooter", "name": "16095609e6e68fe745d80b6c75667cca", "fusion_lon": 0.0, "bike_id": "16095609e6e68fe745d80b6c75667cca", "is_reserved": 0, "rental_uris": {"android": "https://dc.lft.to/lastmile_qr_scan", "ios": "https://dc.lft.to/lastmile_qr_scan"}, "lat": 38.9325025, "is_disabled": 0, "lon": -77.0328665}, {"fusion_lat": 0.0, "type": "electric_scooter", "name": "49dc6b9998a7033bca44d70e8ab26574", "fusion_lon": 0.0, "bike_id": "49dc6b9998a7033bca44d70e8ab26574", "is_reserved": 0, "rental_uris": {"android": "https://dc.lft.to/lastmile_qr_scan", "ios": "https://dc.lft.to/lastmile_qr_scan"}, "lat": 38.894536, "is_disabled": 0, "lon": -76.99833133333334}, {"fusion_lat": 0.0, "type": "electric_scooter", "name": "f5c0b330c9090b10e1ed6d5653f88729", "fusion_lon": 0.0, "bike_id": "f5c0b330c9090b10e1ed6d5653f88729", "is_reserved": 0, "rental_uris": {"android": "https://dc.lft.to/lastmile_qr_scan", "ios": "https://dc.lft.to/lastmile_qr_scan"}, "lat": 38.922868333333334, "is_disabled": 0, "lon": -77.02965016666667}, {"fusion_lat": 0.0, "type": "electric_scooter", "name": "8512224dea6c3d5ba68065cf6e241821", "fusion_lon": 0.0, "bike_id": "8512224dea6c3d5ba68065cf6e241821", "is_reserved": 0, "rental_uris": {"android": "https://dc.lft.to/lastmile_qr_scan", "ios": "https://dc.lft.to/lastmile_qr_scan"}, "lat": 38.915878666666664, "is_disabled": 0, "lon": -77.04378233333334}, {"fusion_lat": 0.0, "type": "electric_scooter", "name": "61e73bb0c435544817da351a1efcd55c", "fusion_lon": 0.0, "bike_id": "61e73bb0c435544817da351a1efcd55c", "is_reserved": 0, "rental_uris": {"android": "https://dc.lft.to/lastmile_qr_scan", "ios": "https://dc.lft.to/lastmile_qr_scan"}, "lat": 38.9246565, "is_disabled": 0, "lon": -77.057653}, {"fusion_lat": 0.0, "type": "electric_scooter", "name": "914ededd4e2e581a83f7778a6c9e26dc", "fusion_lon": 0.0, "bike_id": "914ededd4e2e581a83f7778a6c9e26dc", "is_reserved": 0, "rental_uris": {"android": "https://dc.lft.to/lastmile_qr_scan", "ios": "https://dc.lft.to/lastmile_qr_scan"}, "lat": 38.918628, "is_disabled": 0, "lon": -77.04595533333334}, {"fusion_lat": 0.0, "type": "electric_scooter", "name": "cf1a465fcd0c001fc978cfa9d63828a5", "fusion_lon": 0.0, "bike_id": "cf1a465fcd0c001fc978cfa9d63828a5", "is_reserved": 0, "rental_uris": {"android": "https://dc.lft.to/lastmile_qr_scan", "ios": "https://dc.lft.to/lastmile_qr_scan"}, "lat": 38.86379316666667, "is_disabled": 0, "lon": -76.990625}, {"fusion_lat": 0.0, "type": "electric_scooter", "name": "b767e71f4c319c5bd141ad94f199d72f", "fusion_lon": 0.0, "bike_id": "b767e71f4c319c5bd141ad94f199d72f", "is_reserved": 0, "rental_uris": {"android": "https://dc.lft.to/lastmile_qr_scan", "ios": "https://dc.lft.to/lastmile_qr_scan"}, "lat": 38.9377535, "is_disabled": 0, "lon": -77.03265983333333}, {"fusion_lat": 0.0, "type": "electric_scooter", "name": "c5345151497262ed680551327080a32d", "fusion_lon": 0.0, "bike_id": "c5345151497262ed680551327080a32d", "is_reserved": 0, "rental_uris": {"android": "https://dc.lft.to/lastmile_qr_scan", "ios": "https://dc.lft.to/lastmile_qr_scan"}, "lat": 38.88729566666667, "is_disabled": 0, "lon": -77.025826}, {"fusion_lat": 0.0, "type": "electric_scooter", "name": "d806aef2a0b6c9d9c71fad293aecf44a", "fusion_lon": 0.0, "bike_id": "d806aef2a0b6c9d9c71fad293aecf44a", "is_reserved": 0, "rental_uris": {"android": "https://dc.lft.to/lastmile_qr_scan", "ios": "https://dc.lft.to/lastmile_qr_scan"}, "lat": 38.92156116666666, "is_disabled": 0, "lon": -77.0350805}, {"fusion_lat": 0.0, "type": "electric_scooter", "name": "58584dfdf8b893ed47966d2f09744389", "fusion_lon": 0.0, "bike_id": "58584dfdf8b893ed47966d2f09744389", "is_reserved": 0, "rental_uris": {"android": "https://dc.lft.to/lastmile_qr_scan", "ios": "https://dc.lft.to/lastmile_qr_scan"}, "lat": 38.924156333333336, "is_disabled": 0, "lon": -77.02302783333333}, {"fusion_lat": 0.0, "type": "electric_scooter", "name": "1e2ba46f5ebcc283a512072fd9bdd3a2", "fusion_lon": 0.0, "bike_id": "1e2ba46f5ebcc283a512072fd9bdd3a2", "is_reserved": 0, "rental_uris": {"android": "https://dc.lft.to/lastmile_qr_scan", "ios": "https://dc.lft.to/lastmile_qr_scan"}, "lat": 38.952043, "is_disabled": 0, "lon": -77.02725983333333}, {"fusion_lat": 0.0, "type": "electric_scooter", "name": "e26a6947018e396dec5d9c3d20db1677", "fusion_lon": 0.0, "bike_id": "e26a6947018e396dec5d9c3d20db1677", "is_reserved": 0, "rental_uris": {"android": "https://dc.lft.to/lastmile_qr_scan", "ios": "https://dc.lft.to/lastmile_qr_scan"}, "lat": 38.9286565, "is_disabled": 0, "lon": -77.03282833333333}, {"fusion_lat": 0.0, "type": "electric_scooter", "name": "88bd1bf53a9778bd43253bb5375dd9a3", "fusion_lon": 0.0, "bike_id": "88bd1bf53a9778bd43253bb5375dd9a3", "is_reserved": 0, "rental_uris": {"android": "https://dc.lft.to/lastmile_qr_scan", "ios": "https://dc.lft.to/lastmile_qr_scan"}, "lat": 38.892192666666666, "is_disabled": 0, "lon": -77.0316515}, {"fusion_lat": 0.0, "type": "electric_bike", "name": "d47d6a8c5912ab39efd013510a670807", "fusion_lon": 0.0, "bike_id": "d47d6a8c5912ab39efd013510a670807", "is_reserved": 0, "rental_uris": {"android": "https://dc.lft.to/lastmile_qr_scan", "ios": "https://dc.lft.to/lastmile_qr_scan"}, "lat": 38.96510216666667, "is_disabled": 0, "lon": -77.0282345}, {"fusion_lat": 0.0, "type": "electric_scooter", "name": "e0ae0c411767f2a3bd6bbf2409facb59", "fusion_lon": 0.0, "bike_id": "e0ae0c411767f2a3bd6bbf2409facb59", "is_reserved": 0, "rental_uris": {"android": "https://dc.lft.to/lastmile_qr_scan", "ios": "https://dc.lft.to/lastmile_qr_scan"}, "lat": 38.9168395, "is_disabled": 0, "lon": -77.029551}, {"fusion_lat": 0.0, "type": "electric_scooter", "name": "4ca8d6bb56f51e0e6bc09e3054b92c5f", "fusion_lon": 0.0, "bike_id": "4ca8d6bb56f51e0e6bc09e3054b92c5f", "is_reserved": 0, "rental_uris": {"android": "https://dc.lft.to/lastmile_qr_scan", "ios": "https://dc.lft.to/lastmile_qr_scan"}, "lat": 38.86418466666667, "is_disabled": 0, "lon": -76.99135433333333}, {"fusion_lat": 0.0, "type": "electric_scooter", "name": "d4872ad1de152ce1e52a5e3b47c4a487", "fusion_lon": 0.0, "bike_id": "d4872ad1de152ce1e52a5e3b47c4a487", "is_reserved": 0, "rental_uris": {"android": "https://dc.lft.to/lastmile_qr_scan", "ios": "https://dc.lft.to/lastmile_qr_scan"}, "lat": 38.89718233333333, "is_disabled": 0, "lon": -77.00798183333333}, {"fusion_lat": 0.0, "type": "electric_scooter", "name": "56fc8a239f86f85f2cb38aee617129be", "fusion_lon": 0.0, "bike_id": "56fc8a239f86f85f2cb38aee617129be", "is_reserved": 0, "rental_uris": {"android": "https://dc.lft.to/lastmile_qr_scan", "ios": "https://dc.lft.to/lastmile_qr_scan"}, "lat": 38.931023833333334, "is_disabled": 0, "lon": -77.03272233333334}, {"fusion_lat": 0.0, "type": "electric_scooter", "name": "51e215104f3e963a9fabd437cf1acd02", "fusion_lon": 0.0, "bike_id": "51e215104f3e963a9fabd437cf1acd02", "is_reserved": 0, "rental_uris": {"android": "https://dc.lft.to/lastmile_qr_scan", "ios": "https://dc.lft.to/lastmile_qr_scan"}, "lat": 38.89280866666667, "is_disabled": 0, "lon": -77.032066}, {"fusion_lat": 0.0, "type": "electric_scooter", "name": "c170573c365dfaf38a387b49f27557cf", "fusion_lon": 0.0, "bike_id": "c170573c365dfaf38a387b49f27557cf", "is_reserved": 0, "rental_uris": {"android": "https://dc.lft.to/lastmile_qr_scan", "ios": "https://dc.lft.to/lastmile_qr_scan"}, "lat": 38.885892, "is_disabled": 0, "lon": -77.0122935}, {"fusion_lat": 0.0, "type": "electric_scooter", "name": "082233ec53c1df38ec238fc6163330d4", "fusion_lon": 0.0, "bike_id": "082233ec53c1df38ec238fc6163330d4", "is_reserved": 0, "rental_uris": {"android": "https://dc.lft.to/lastmile_qr_scan", "ios": "https://dc.lft.to/lastmile_qr_scan"}, "lat": 38.90512066666667, "is_disabled": 0, "lon": -77.0687085}, {"fusion_lat": 0.0, "type": "electric_scooter", "name": "d6bb496c68af555faadfaf5217bdb109", "fusion_lon": 0.0, "bike_id": "d6bb496c68af555faadfaf5217bdb109", "is_reserved": 0, "rental_uris": {"android": "https://dc.lft.to/lastmile_qr_scan", "ios": "https://dc.lft.to/lastmile_qr_scan"}, "lat": 38.919675166666664, "is_disabled": 0, "lon": -77.04515866666667}, {"fusion_lat": 0.0, "type": "electric_scooter", "name": "c034ad840b0a986413f285ed0cb924bf", "fusion_lon": 0.0, "bike_id": "c034ad840b0a986413f285ed0cb924bf", "is_reserved": 0, "rental_uris": {"android": "https://dc.lft.to/lastmile_qr_scan", "ios": "https://dc.lft.to/lastmile_qr_scan"}, "lat": 38.888495, "is_disabled": 0, "lon": -76.9268175}, {"fusion_lat": 0.0, "type": "electric_scooter", "name": "10399dccc23daafd7382a86eaebdd68e", "fusion_lon": 0.0, "bike_id": "10399dccc23daafd7382a86eaebdd68e", "is_reserved": 0, "rental_uris": {"android": "https://dc.lft.to/lastmile_qr_scan", "ios": "https://dc.lft.to/lastmile_qr_scan"}, "lat": 38.90514116666667, "is_disabled": 0, "lon": -77.04817116666666}, {"fusion_lat": 0.0, "type": "electric_scooter", "name": "d9ff2667dd9b57ccbd67d64bde5c9e48", "fusion_lon": 0.0, "bike_id": "d9ff2667dd9b57ccbd67d64bde5c9e48", "is_reserved": 0, "rental_uris": {"android": "https://dc.lft.to/lastmile_qr_scan", "ios": "https://dc.lft.to/lastmile_qr_scan"}, "lat": 38.91647183333333, "is_disabled": 0, "lon": -77.0365975}, {"fusion_lat": 0.0, "type": "electric_scooter", "name": "071841c64a4b0f5390ffc881ce5ee7e2", "fusion_lon": 0.0, "bike_id": "071841c64a4b0f5390ffc881ce5ee7e2", "is_reserved": 0, "rental_uris": {"android": "https://dc.lft.to/lastmile_qr_scan", "ios": "https://dc.lft.to/lastmile_qr_scan"}, "lat": 38.92131283333333, "is_disabled": 0, "lon": -77.01797283333333}, {"fusion_lat": 0.0, "type": "electric_scooter", "name": "6e94342defc75d0ff9879cecbe549773", "fusion_lon": 0.0, "bike_id": "6e94342defc75d0ff9879cecbe549773", "is_reserved": 0, "rental_uris": {"android": "https://dc.lft.to/lastmile_qr_scan", "ios": "https://dc.lft.to/lastmile_qr_scan"}, "lat": 38.918073, "is_disabled": 0, "lon": -77.03361133333334}, {"fusion_lat": 0.0, "type": "electric_scooter", "name": "0471bf30a43c466c39e3789b0bc68968", "fusion_lon": 0.0, "bike_id": "0471bf30a43c466c39e3789b0bc68968", "is_reserved": 0, "rental_uris": {"android": "https://dc.lft.to/lastmile_qr_scan", "ios": "https://dc.lft.to/lastmile_qr_scan"}, "lat": 38.90713183333333, "is_disabled": 0, "lon": -77.04357766666666}, {"fusion_lat": 0.0, "type": "electric_scooter", "name": "31cb299292a4c04980a94417b79976dd", "fusion_lon": 0.0, "bike_id": "31cb299292a4c04980a94417b79976dd", "is_reserved": 0, "rental_uris": {"android": "https://dc.lft.to/lastmile_qr_scan", "ios": "https://dc.lft.to/lastmile_qr_scan"}, "lat": 38.93561916666667, "is_disabled": 0, "lon": -77.0820265}, {"fusion_lat": 0.0, "type": "electric_scooter", "name": "f6734355cf1ec9affad57969f8ca3b1e", "fusion_lon": 0.0, "bike_id": "f6734355cf1ec9affad57969f8ca3b1e", "is_reserved": 0, "rental_uris": {"android": "https://dc.lft.to/lastmile_qr_scan", "ios": "https://dc.lft.to/lastmile_qr_scan"}, "lat": 38.90823416666667, "is_disabled": 0, "lon": -77.03832266666667}, {"fusion_lat": 0.0, "type": "electric_bike", "name": "352e391683d39cc6ebaf2f97a9551a12", "fusion_lon": 0.0, "bike_id": "352e391683d39cc6ebaf2f97a9551a12", "is_reserved": 0, "rental_uris": {"android": "https://dc.lft.to/lastmile_qr_scan", "ios": "https://dc.lft.to/lastmile_qr_scan"}, "lat": 38.985513166666664, "is_disabled": 0, "lon": -77.00399066666667}, {"fusion_lat": 0.0, "type": "electric_scooter", "name": "574cee57cae7e632d770019ad155dd78", "fusion_lon": 0.0, "bike_id": "574cee57cae7e632d770019ad155dd78", "is_reserved": 0, "rental_uris": {"android": "https://dc.lft.to/lastmile_qr_scan", "ios": "https://dc.lft.to/lastmile_qr_scan"}, "lat": 38.8997025, "is_disabled": 0, "lon": -77.02587466666667}, {"fusion_lat": 0.0, "type": "electric_scooter", "name": "70bada775991c589b9cac532986597ee", "fusion_lon": 0.0, "bike_id": "70bada775991c589b9cac532986597ee", "is_reserved": 0, "rental_uris": {"android": "https://dc.lft.to/lastmile_qr_scan", "ios": "https://dc.lft.to/lastmile_qr_scan"}, "lat": 38.87198083333333, "is_disabled": 0, "lon": -77.00572766666667}, {"fusion_lat": 0.0, "type": "electric_scooter", "name": "f75015d8478eb6ad12cdf8319afad6b3", "fusion_lon": 0.0, "bike_id": "f75015d8478eb6ad12cdf8319afad6b3", "is_reserved": 0, "rental_uris": {"android": "https://dc.lft.to/lastmile_qr_scan", "ios": "https://dc.lft.to/lastmile_qr_scan"}, "lat": 38.89226466666667, "is_disabled": 0, "lon": -77.02345866666667}, {"fusion_lat": 0.0, "type": "electric_bike", "name": "a5a2f73c75d671112e8b6f13e4b2697f", "fusion_lon": 0.0, "bike_id": "a5a2f73c75d671112e8b6f13e4b2697f", "is_reserved": 0, "rental_uris": {"android": "https://dc.lft.to/lastmile_qr_scan", "ios": "https://dc.lft.to/lastmile_qr_scan"}, "lat": 38.8694285, "is_disabled": 0, "lon": -77.09466816666666}, {"fusion_lat": 0.0, "type": "electric_bike", "name": "388b52097ae0392a591308f3b605cf28", "fusion_lon": 0.0, "bike_id": "388b52097ae0392a591308f3b605cf28", "is_reserved": 0, "rental_uris": {"android": "https://dc.lft.to/lastmile_qr_scan", "ios": "https://dc.lft.to/lastmile_qr_scan"}, "lat": 38.996838833333335, "is_disabled": 0, "lon": -77.037725}, {"fusion_lat": 0.0, "type": "electric_scooter", "name": "3eb6157087dd4172555b04da1cb3e0e7", "fusion_lon": 0.0, "bike_id": "3eb6157087dd4172555b04da1cb3e0e7", "is_reserved": 0, "rental_uris": {"android": "https://dc.lft.to/lastmile_qr_scan", "ios": "https://dc.lft.to/lastmile_qr_scan"}, "lat": 38.902478, "is_disabled": 0, "lon": -76.97413316666666}, {"fusion_lat": 0.0, "type": "electric_scooter", "name": "4528f36e155209831b77d3de9893d1fb", "fusion_lon": 0.0, "bike_id": "4528f36e155209831b77d3de9893d1fb", "is_reserved": 0, "rental_uris": {"android": "https://dc.lft.to/lastmile_qr_scan", "ios": "https://dc.lft.to/lastmile_qr_scan"}, "lat": 38.92248333333333, "is_disabled": 0, "lon": -77.02857666666667}, {"fusion_lat": 0.0, "type": "electric_scooter", "name": "6d007cfd2d5ab78bcf6fe4b1de714815", "fusion_lon": 0.0, "bike_id": "6d007cfd2d5ab78bcf6fe4b1de714815", "is_reserved": 0, "rental_uris": {"android": "https://dc.lft.to/lastmile_qr_scan", "ios": "https://dc.lft.to/lastmile_qr_scan"}, "lat": 38.91239316666667, "is_disabled": 0, "lon": -77.00919816666666}, {"fusion_lat": 0.0, "type": "electric_scooter", "name": "5ce6977a83972450c2a041991b22df6d", "fusion_lon": 0.0, "bike_id": "5ce6977a83972450c2a041991b22df6d", "is_reserved": 0, "rental_uris": {"android": "https://dc.lft.to/lastmile_qr_scan", "ios": "https://dc.lft.to/lastmile_qr_scan"}, "lat": 38.874582833333335, "is_disabled": 0, "lon": -77.0159495}, {"fusion_lat": 0.0, "type": "electric_scooter", "name": "89ca1abd8c20066ec05e75bc96e01c94", "fusion_lon": 0.0, "bike_id": "89ca1abd8c20066ec05e75bc96e01c94", "is_reserved": 0, "rental_uris": {"android": "https://dc.lft.to/lastmile_qr_scan", "ios": "https://dc.lft.to/lastmile_qr_scan"}, "lat": 38.8978085, "is_disabled": 0, "lon": -77.0547565}, {"fusion_lat": 0.0, "type": "electric_scooter", "name": "3ef73a9e5d7e06485fe4ed73635fa267", "fusion_lon": 0.0, "bike_id": "3ef73a9e5d7e06485fe4ed73635fa267", "is_reserved": 0, "rental_uris": {"android": "https://dc.lft.to/lastmile_qr_scan", "ios": "https://dc.lft.to/lastmile_qr_scan"}, "lat": 38.90854866666667, "is_disabled": 0, "lon": -77.02356033333334}, {"fusion_lat": 0.0, "type": "electric_scooter", "name": "2aeb421159b0f81007e5c56507b3ab4c", "fusion_lon": 0.0, "bike_id": "2aeb421159b0f81007e5c56507b3ab4c", "is_reserved": 0, "rental_uris": {"android": "https://dc.lft.to/lastmile_qr_scan", "ios": "https://dc.lft.to/lastmile_qr_scan"}, "lat": 38.943935833333335, "is_disabled": 0, "lon": -77.026839}, {"fusion_lat": 0.0, "type": "electric_scooter", "name": "eb5049a35479c61c8e8c69fb26eef4bc", "fusion_lon": 0.0, "bike_id": "eb5049a35479c61c8e8c69fb26eef4bc", "is_reserved": 0, "rental_uris": {"android": "https://dc.lft.to/lastmile_qr_scan", "ios": "https://dc.lft.to/lastmile_qr_scan"}, "lat": 38.92824866666667, "is_disabled": 0, "lon": -77.02260416666667}, {"fusion_lat": 0.0, "type": "electric_scooter", "name": "8472f8de4a8293a1c567e5b49d9714db", "fusion_lon": 0.0, "bike_id": "8472f8de4a8293a1c567e5b49d9714db", "is_reserved": 0, "rental_uris": {"android": "https://dc.lft.to/lastmile_qr_scan", "ios": "https://dc.lft.to/lastmile_qr_scan"}, "lat": 38.8666355, "is_disabled": 0, "lon": -76.98513016666666}, {"fusion_lat": 0.0, "type": "electric_bike", "name": "7763c8baa48cd4688a604c8cac83e9ba", "fusion_lon": 0.0, "bike_id": "7763c8baa48cd4688a604c8cac83e9ba", "is_reserved": 0, "rental_uris": {"android": "https://dc.lft.to/lastmile_qr_scan", "ios": "https://dc.lft.to/lastmile_qr_scan"}, "lat": 38.896138, "is_disabled": 0, "lon": -76.90742866666666}, {"fusion_lat": 0.0, "type": "electric_scooter", "name": "31898ad09cbcf572cf563469f24b50f5", "fusion_lon": 0.0, "bike_id": "31898ad09cbcf572cf563469f24b50f5", "is_reserved": 0, "rental_uris": {"android": "https://dc.lft.to/lastmile_qr_scan", "ios": "https://dc.lft.to/lastmile_qr_scan"}, "lat": 38.909569833333336, "is_disabled": 0, "lon": -77.027173}, {"fusion_lat": 0.0, "type": "electric_bike", "name": "c574aaced1132d92a7f325c9501b70db", "fusion_lon": 0.0, "bike_id": "c574aaced1132d92a7f325c9501b70db", "is_reserved": 0, "rental_uris": {"android": "https://dc.lft.to/lastmile_qr_scan", "ios": "https://dc.lft.to/lastmile_qr_scan"}, "lat": 38.855263, "is_disabled": 0, "lon": -76.98452216666666}, {"fusion_lat": 0.0, "type": "electric_scooter", "name": "9749a6a988490df8cd64c81956b3d276", "fusion_lon": 0.0, "bike_id": "9749a6a988490df8cd64c81956b3d276", "is_reserved": 0, "rental_uris": {"android": "https://dc.lft.to/lastmile_qr_scan", "ios": "https://dc.lft.to/lastmile_qr_scan"}, "lat": 38.91116, "is_disabled": 0, "lon": -77.038273}, {"fusion_lat": 0.0, "type": "electric_scooter", "name": "f7996aa0e10958b939eb691ac9e8843a", "fusion_lon": 0.0, "bike_id": "f7996aa0e10958b939eb691ac9e8843a", "is_reserved": 0, "rental_uris": {"android": "https://dc.lft.to/lastmile_qr_scan", "ios": "https://dc.lft.to/lastmile_qr_scan"}, "lat": 38.874737833333334, "is_disabled": 0, "lon": -77.00515266666666}, {"fusion_lat": 0.0, "type": "electric_scooter", "name": "c98ff8e3a6847067c3719cea076707f4", "fusion_lon": 0.0, "bike_id": "c98ff8e3a6847067c3719cea076707f4", "is_reserved": 0, "rental_uris": {"android": "https://dc.lft.to/lastmile_qr_scan", "ios": "https://dc.lft.to/lastmile_qr_scan"}, "lat": 38.921851833333335, "is_disabled": 0, "lon": -77.04216483333333}, {"fusion_lat": 0.0, "type": "electric_scooter", "name": "6655c88915396263992364b58a69caff", "fusion_lon": 0.0, "bike_id": "6655c88915396263992364b58a69caff", "is_reserved": 0, "rental_uris": {"android": "https://dc.lft.to/lastmile_qr_scan", "ios": "https://dc.lft.to/lastmile_qr_scan"}, "lat": 38.863577166666666, "is_disabled": 0, "lon": -76.9906135}, {"fusion_lat": 0.0, "type": "electric_scooter", "name": "2d20049930e18948844203b9f6975a2e", "fusion_lon": 0.0, "bike_id": "2d20049930e18948844203b9f6975a2e", "is_reserved": 0, "rental_uris": {"android": "https://dc.lft.to/lastmile_qr_scan", "ios": "https://dc.lft.to/lastmile_qr_scan"}, "lat": 38.931031, "is_disabled": 0, "lon": -77.03638716666667}, {"fusion_lat": 0.0, "type": "electric_scooter", "name": "72cc0f1556b2b92e09baf9c6a4e0b157", "fusion_lon": 0.0, "bike_id": "72cc0f1556b2b92e09baf9c6a4e0b157", "is_reserved": 0, "rental_uris": {"android": "https://dc.lft.to/lastmile_qr_scan", "ios": "https://dc.lft.to/lastmile_qr_scan"}, "lat": 38.902651666666664, "is_disabled": 0, "lon": -77.00580316666667}, {"fusion_lat": 0.0, "type": "electric_scooter", "name": "edf3779cf6b370f582c973c10d6af3ab", "fusion_lon": 0.0, "bike_id": "edf3779cf6b370f582c973c10d6af3ab", "is_reserved": 0, "rental_uris": {"android": "https://dc.lft.to/lastmile_qr_scan", "ios": "https://dc.lft.to/lastmile_qr_scan"}, "lat": 38.912673833333336, "is_disabled": 0, "lon": -77.0446975}, {"fusion_lat": 0.0, "type": "electric_scooter", "name": "379e0bca7ada7c6bcebc7c7cb59d9363", "fusion_lon": 0.0, "bike_id": "379e0bca7ada7c6bcebc7c7cb59d9363", "is_reserved": 0, "rental_uris": {"android": "https://dc.lft.to/lastmile_qr_scan", "ios": "https://dc.lft.to/lastmile_qr_scan"}, "lat": 38.91205166666667, "is_disabled": 0, "lon": -77.03454166666667}, {"fusion_lat": 0.0, "type": "electric_scooter", "name": "0f5242b1fc77ae35cb56ff831f961ab2", "fusion_lon": 0.0, "bike_id": "0f5242b1fc77ae35cb56ff831f961ab2", "is_reserved": 0, "rental_uris": {"android": "https://dc.lft.to/lastmile_qr_scan", "ios": "https://dc.lft.to/lastmile_qr_scan"}, "lat": 38.910070166666664, "is_disabled": 0, "lon": -77.04012183333333}, {"fusion_lat": 0.0, "type": "electric_scooter", "name": "f0c618f60b44c4c1355eafff5e370e9c", "fusion_lon": 0.0, "bike_id": "f0c618f60b44c4c1355eafff5e370e9c", "is_reserved": 0, "rental_uris": {"android": "https://dc.lft.to/lastmile_qr_scan", "ios": "https://dc.lft.to/lastmile_qr_scan"}, "lat": 38.8988055, "is_disabled": 0, "lon": -77.02590666666667}, {"fusion_lat": 0.0, "type": "electric_scooter", "name": "ee9fd84eeb4443e9d1348f2f2c19bf17", "fusion_lon": 0.0, "bike_id": "ee9fd84eeb4443e9d1348f2f2c19bf17", "is_reserved": 0, "rental_uris": {"android": "https://dc.lft.to/lastmile_qr_scan", "ios": "https://dc.lft.to/lastmile_qr_scan"}, "lat": 38.90652883333333, "is_disabled": 0, "lon": -77.011382}, {"fusion_lat": 0.0, "type": "electric_scooter", "name": "16e84b5d0403a30fcd7228d27b504438", "fusion_lon": 0.0, "bike_id": "16e84b5d0403a30fcd7228d27b504438", "is_reserved": 0, "rental_uris": {"android": "https://dc.lft.to/lastmile_qr_scan", "ios": "https://dc.lft.to/lastmile_qr_scan"}, "lat": 38.8922805, "is_disabled": 0, "lon": -77.050021}, {"fusion_lat": 0.0, "type": "electric_scooter", "name": "a54295c806db90724851f5d4f92840fb", "fusion_lon": 0.0, "bike_id": "a54295c806db90724851f5d4f92840fb", "is_reserved": 0, "rental_uris": {"android": "https://dc.lft.to/lastmile_qr_scan", "ios": "https://dc.lft.to/lastmile_qr_scan"}, "lat": 38.952788, "is_disabled": 0, "lon": -77.0684395}, {"fusion_lat": 0.0, "type": "electric_scooter", "name": "a084a1d9dbf49f8af87e8fa1a459d03a", "fusion_lon": 0.0, "bike_id": "a084a1d9dbf49f8af87e8fa1a459d03a", "is_reserved": 0, "rental_uris": {"android": "https://dc.lft.to/lastmile_qr_scan", "ios": "https://dc.lft.to/lastmile_qr_scan"}, "lat": 38.8961535, "is_disabled": 0, "lon": -77.03198883333333}, {"fusion_lat": 0.0, "type": "electric_scooter", "name": "fb2de11c0f19328a9101a90b580c6446", "fusion_lon": 0.0, "bike_id": "fb2de11c0f19328a9101a90b580c6446", "is_reserved": 0, "rental_uris": {"android": "https://dc.lft.to/lastmile_qr_scan", "ios": "https://dc.lft.to/lastmile_qr_scan"}, "lat": 38.92614583333334, "is_disabled": 0, "lon": -77.04326633333334}, {"fusion_lat": 0.0, "type": "electric_scooter", "name": "7dcc3694a4a68d879b4ba3d9bdb9331b", "fusion_lon": 0.0, "bike_id": "7dcc3694a4a68d879b4ba3d9bdb9331b", "is_reserved": 0, "rental_uris": {"android": "https://dc.lft.to/lastmile_qr_scan", "ios": "https://dc.lft.to/lastmile_qr_scan"}, "lat": 38.95188066666667, "is_disabled": 0, "lon": -77.02611816666666}, {"fusion_lat": 0.0, "type": "electric_scooter", "name": "bcab6ebf6157aa164a3cd5ad17c9715e", "fusion_lon": 0.0, "bike_id": "bcab6ebf6157aa164a3cd5ad17c9715e", "is_reserved": 0, "rental_uris": {"android": "https://dc.lft.to/lastmile_qr_scan", "ios": "https://dc.lft.to/lastmile_qr_scan"}, "lat": 38.924555166666664, "is_disabled": 0, "lon": -77.02974566666667}, {"fusion_lat": 0.0, "type": "electric_scooter", "name": "b9876bba839d99915ee3f102cf8737a1", "fusion_lon": 0.0, "bike_id": "b9876bba839d99915ee3f102cf8737a1", "is_reserved": 0, "rental_uris": {"android": "https://dc.lft.to/lastmile_qr_scan", "ios": "https://dc.lft.to/lastmile_qr_scan"}, "lat": 38.92474266666667, "is_disabled": 0, "lon": -77.02669233333333}, {"fusion_lat": 0.0, "type": "electric_scooter", "name": "26617ac8abac1a928e3fb2bf30e59117", "fusion_lon": 0.0, "bike_id": "26617ac8abac1a928e3fb2bf30e59117", "is_reserved": 0, "rental_uris": {"android": "https://dc.lft.to/lastmile_qr_scan", "ios": "https://dc.lft.to/lastmile_qr_scan"}, "lat": 38.92174333333333, "is_disabled": 0, "lon": -77.03381016666667}, {"fusion_lat": 0.0, "type": "electric_scooter", "name": "61afd9ca93d5c2d0b36d2f42caf2dd38", "fusion_lon": 0.0, "bike_id": "61afd9ca93d5c2d0b36d2f42caf2dd38", "is_reserved": 0, "rental_uris": {"android": "https://dc.lft.to/lastmile_qr_scan", "ios": "https://dc.lft.to/lastmile_qr_scan"}, "lat": 38.903052833333334, "is_disabled": 0, "lon": -77.05051616666667}, {"fusion_lat": 0.0, "type": "electric_scooter", "name": "06dbdadfefd74c3f389b09cdb8098148", "fusion_lon": 0.0, "bike_id": "06dbdadfefd74c3f389b09cdb8098148", "is_reserved": 0, "rental_uris": {"android": "https://dc.lft.to/lastmile_qr_scan", "ios": "https://dc.lft.to/lastmile_qr_scan"}, "lat": 38.9183755, "is_disabled": 0, "lon": -77.05949666666666}, {"fusion_lat": 0.0, "type": "electric_bike", "name": "c4e8a5bf90da5258266f4fb3077e4342", "fusion_lon": 0.0, "bike_id": "c4e8a5bf90da5258266f4fb3077e4342", "is_reserved": 0, "rental_uris": {"android": "https://dc.lft.to/lastmile_qr_scan", "ios": "https://dc.lft.to/lastmile_qr_scan"}, "lat": 38.95324433333333, "is_disabled": 0, "lon": -76.95432816666667}, {"fusion_lat": 0.0, "type": "electric_bike", "name": "4abd3d9b95a5d928d8ab0f3ea81d778d", "fusion_lon": 0.0, "bike_id": "4abd3d9b95a5d928d8ab0f3ea81d778d", "is_reserved": 0, "rental_uris": {"android": "https://dc.lft.to/lastmile_qr_scan", "ios": "https://dc.lft.to/lastmile_qr_scan"}, "lat": 38.932267833333334, "is_disabled": 0, "lon": -77.1812375}, {"fusion_lat": 0.0, "type": "electric_scooter", "name": "9ffacf11be92ddaa5ecb750b506aa5be", "fusion_lon": 0.0, "bike_id": "9ffacf11be92ddaa5ecb750b506aa5be", "is_reserved": 0, "rental_uris": {"android": "https://dc.lft.to/lastmile_qr_scan", "ios": "https://dc.lft.to/lastmile_qr_scan"}, "lat": 38.91375166666667, "is_disabled": 0, "lon": -77.03141916666667}, {"fusion_lat": 0.0, "type": "electric_scooter", "name": "c7957013dbfbad27671d020dac5fd2d1", "fusion_lon": 0.0, "bike_id": "c7957013dbfbad27671d020dac5fd2d1", "is_reserved": 0, "rental_uris": {"android": "https://dc.lft.to/lastmile_qr_scan", "ios": "https://dc.lft.to/lastmile_qr_scan"}, "lat": 38.8890615, "is_disabled": 0, "lon": -77.04920016666667}, {"fusion_lat": 0.0, "type": "electric_scooter", "name": "81430d2a7c2f59200c8077e2a89973d0", "fusion_lon": 0.0, "bike_id": "81430d2a7c2f59200c8077e2a89973d0", "is_reserved": 0, "rental_uris": {"android": "https://dc.lft.to/lastmile_qr_scan", "ios": "https://dc.lft.to/lastmile_qr_scan"}, "lat": 38.916445, "is_disabled": 0, "lon": -77.04793966666666}, {"fusion_lat": 0.0, "type": "electric_scooter", "name": "e0f707110dc77bfa087a1319828f9698", "fusion_lon": 0.0, "bike_id": "e0f707110dc77bfa087a1319828f9698", "is_reserved": 0, "rental_uris": {"android": "https://dc.lft.to/lastmile_qr_scan", "ios": "https://dc.lft.to/lastmile_qr_scan"}, "lat": 38.89903283333334, "is_disabled": 0, "lon": -76.993869}, {"fusion_lat": 0.0, "type": "electric_scooter", "name": "af3340832ca40b5b1d42857d3b93ce7e", "fusion_lon": 0.0, "bike_id": "af3340832ca40b5b1d42857d3b93ce7e", "is_reserved": 0, "rental_uris": {"android": "https://dc.lft.to/lastmile_qr_scan", "ios": "https://dc.lft.to/lastmile_qr_scan"}, "lat": 38.911175666666665, "is_disabled": 0, "lon": -77.02199833333333}, {"fusion_lat": 0.0, "type": "electric_scooter", "name": "26415b961afed79e5d3d0d371ab531e7", "fusion_lon": 0.0, "bike_id": "26415b961afed79e5d3d0d371ab531e7", "is_reserved": 0, "rental_uris": {"android": "https://dc.lft.to/lastmile_qr_scan", "ios": "https://dc.lft.to/lastmile_qr_scan"}, "lat": 38.9097335, "is_disabled": 0, "lon": -77.03439333333333}, {"fusion_lat": 0.0, "type": "electric_scooter", "name": "36ccd1d27efc281814c0418273b53fc1", "fusion_lon": 0.0, "bike_id": "36ccd1d27efc281814c0418273b53fc1", "is_reserved": 0, "rental_uris": {"android": "https://dc.lft.to/lastmile_qr_scan", "ios": "https://dc.lft.to/lastmile_qr_scan"}, "lat": 38.889953, "is_disabled": 0, "lon": -76.98335083333333}, {"fusion_lat": 0.0, "type": "electric_scooter", "name": "8ee3fc0daa601ad9ac0d4aa26b31cbbc", "fusion_lon": 0.0, "bike_id": "8ee3fc0daa601ad9ac0d4aa26b31cbbc", "is_reserved": 0, "rental_uris": {"android": "https://dc.lft.to/lastmile_qr_scan", "ios": "https://dc.lft.to/lastmile_qr_scan"}, "lat": 38.91323466666667, "is_disabled": 0, "lon": -77.04531816666666}, {"fusion_lat": 0.0, "type": "electric_scooter", "name": "e3e948ec77623551394462389e485ca2", "fusion_lon": 0.0, "bike_id": "e3e948ec77623551394462389e485ca2", "is_reserved": 0, "rental_uris": {"android": "https://dc.lft.to/lastmile_qr_scan", "ios": "https://dc.lft.to/lastmile_qr_scan"}, "lat": 38.929895, "is_disabled": 0, "lon": -77.034767}, {"fusion_lat": 0.0, "type": "electric_scooter", "name": "c096de0d38af84a1d9e04b1b131e7f8b", "fusion_lon": 0.0, "bike_id": "c096de0d38af84a1d9e04b1b131e7f8b", "is_reserved": 0, "rental_uris": {"android": "https://dc.lft.to/lastmile_qr_scan", "ios": "https://dc.lft.to/lastmile_qr_scan"}, "lat": 38.900094, "is_disabled": 0, "lon": -77.0447525}, {"fusion_lat": 0.0, "type": "electric_scooter", "name": "3c721197aa3d752e4af35e094dea7877", "fusion_lon": 0.0, "bike_id": "3c721197aa3d752e4af35e094dea7877", "is_reserved": 0, "rental_uris": {"android": "https://dc.lft.to/lastmile_qr_scan", "ios": "https://dc.lft.to/lastmile_qr_scan"}, "lat": 38.927269333333335, "is_disabled": 0, "lon": -77.04130166666667}, {"fusion_lat": 0.0, "type": "electric_scooter", "name": "b76e8f31ab956649eb0871fdf731133c", "fusion_lon": 0.0, "bike_id": "b76e8f31ab956649eb0871fdf731133c", "is_reserved": 0, "rental_uris": {"android": "https://dc.lft.to/lastmile_qr_scan", "ios": "https://dc.lft.to/lastmile_qr_scan"}, "lat": 38.92820583333334, "is_disabled": 0, "lon": -77.05525183333333}, {"fusion_lat": 0.0, "type": "electric_bike", "name": "5b000ca0f3b2357be6cf833e953073e9", "fusion_lon": 0.0, "bike_id": "5b000ca0f3b2357be6cf833e953073e9", "is_reserved": 0, "rental_uris": {"android": "https://dc.lft.to/lastmile_qr_scan", "ios": "https://dc.lft.to/lastmile_qr_scan"}, "lat": 38.898173, "is_disabled": 0, "lon": -77.00609533333333}, {"fusion_lat": 0.0, "type": "electric_scooter", "name": "83f852763d33b3a0e5b5b227f7065fa1", "fusion_lon": 0.0, "bike_id": "83f852763d33b3a0e5b5b227f7065fa1", "is_reserved": 0, "rental_uris": {"android": "https://dc.lft.to/lastmile_qr_scan", "ios": "https://dc.lft.to/lastmile_qr_scan"}, "lat": 38.92869733333333, "is_disabled": 0, "lon": -77.03294683333333}, {"fusion_lat": 0.0, "type": "electric_scooter", "name": "8d717c7f447175f5ba7aa6facc95c936", "fusion_lon": 0.0, "bike_id": "8d717c7f447175f5ba7aa6facc95c936", "is_reserved": 0, "rental_uris": {"android": "https://dc.lft.to/lastmile_qr_scan", "ios": "https://dc.lft.to/lastmile_qr_scan"}, "lat": 38.952335, "is_disabled": 0, "lon": -77.0142815}, {"fusion_lat": 0.0, "type": "electric_scooter", "name": "be104554716ab0ff5e1575a0bba966f5", "fusion_lon": 0.0, "bike_id": "be104554716ab0ff5e1575a0bba966f5", "is_reserved": 0, "rental_uris": {"android": "https://dc.lft.to/lastmile_qr_scan", "ios": "https://dc.lft.to/lastmile_qr_scan"}, "lat": 38.9308355, "is_disabled": 0, "lon": -77.00409633333334}, {"fusion_lat": 0.0, "type": "electric_scooter", "name": "a04dccd0349d8e7542083e1a2d709381", "fusion_lon": 0.0, "bike_id": "a04dccd0349d8e7542083e1a2d709381", "is_reserved": 0, "rental_uris": {"android": "https://dc.lft.to/lastmile_qr_scan", "ios": "https://dc.lft.to/lastmile_qr_scan"}, "lat": 38.905562, "is_disabled": 0, "lon": -77.033991}, {"fusion_lat": 0.0, "type": "electric_scooter", "name": "89657d04534c930a63bcc0cdd4271488", "fusion_lon": 0.0, "bike_id": "89657d04534c930a63bcc0cdd4271488", "is_reserved": 0, "rental_uris": {"android": "https://dc.lft.to/lastmile_qr_scan", "ios": "https://dc.lft.to/lastmile_qr_scan"}, "lat": 38.90388816666667, "is_disabled": 0, "lon": -77.03844733333334}, {"fusion_lat": 0.0, "type": "electric_scooter", "name": "aee96b4b210eef45f1495a12c7a46c26", "fusion_lon": 0.0, "bike_id": "aee96b4b210eef45f1495a12c7a46c26", "is_reserved": 0, "rental_uris": {"android": "https://dc.lft.to/lastmile_qr_scan", "ios": "https://dc.lft.to/lastmile_qr_scan"}, "lat": 38.9146005, "is_disabled": 0, "lon": -77.018854}, {"fusion_lat": 0.0, "type": "electric_scooter", "name": "c773f39c633556b256c9835d4e6c68c5", "fusion_lon": 0.0, "bike_id": "c773f39c633556b256c9835d4e6c68c5", "is_reserved": 0, "rental_uris": {"android": "https://dc.lft.to/lastmile_qr_scan", "ios": "https://dc.lft.to/lastmile_qr_scan"}, "lat": 38.909464166666666, "is_disabled": 0, "lon": -77.04666733333333}, {"fusion_lat": 0.0, "type": "electric_scooter", "name": "d9a6144725837e2d6a85201ca31b7047", "fusion_lon": 0.0, "bike_id": "d9a6144725837e2d6a85201ca31b7047", "is_reserved": 0, "rental_uris": {"android": "https://dc.lft.to/lastmile_qr_scan", "ios": "https://dc.lft.to/lastmile_qr_scan"}, "lat": 38.907861833333335, "is_disabled": 0, "lon": -77.04513583333333}, {"fusion_lat": 0.0, "type": "electric_scooter", "name": "a2dec1a0a3127de24dc06a83f35903ab", "fusion_lon": 0.0, "bike_id": "a2dec1a0a3127de24dc06a83f35903ab", "is_reserved": 0, "rental_uris": {"android": "https://dc.lft.to/lastmile_qr_scan", "ios": "https://dc.lft.to/lastmile_qr_scan"}, "lat": 38.90311366666667, "is_disabled": 0, "lon": -77.02371583333333}, {"fusion_lat": 0.0, "type": "electric_bike", "name": "df75440ac2e9cb6fb8bcc635cf8ecaae", "fusion_lon": 0.0, "bike_id": "df75440ac2e9cb6fb8bcc635cf8ecaae", "is_reserved": 0, "rental_uris": {"android": "https://dc.lft.to/lastmile_qr_scan", "ios": "https://dc.lft.to/lastmile_qr_scan"}, "lat": 38.918671, "is_disabled": 0, "lon": -76.9609125}, {"fusion_lat": 0.0, "type": "electric_scooter", "name": "bb2a2b6ebe46a4338409877fa592fc44", "fusion_lon": 0.0, "bike_id": "bb2a2b6ebe46a4338409877fa592fc44", "is_reserved": 0, "rental_uris": {"android": "https://dc.lft.to/lastmile_qr_scan", "ios": "https://dc.lft.to/lastmile_qr_scan"}, "lat": 38.922544333333335, "is_disabled": 0, "lon": -77.0352075}, {"fusion_lat": 0.0, "type": "electric_scooter", "name": "3ee03ccb9c05622842df327db65744ae", "fusion_lon": 0.0, "bike_id": "3ee03ccb9c05622842df327db65744ae", "is_reserved": 0, "rental_uris": {"android": "https://dc.lft.to/lastmile_qr_scan", "ios": "https://dc.lft.to/lastmile_qr_scan"}, "lat": 38.9044295, "is_disabled": 0, "lon": -76.98490316666667}, {"fusion_lat": 0.0, "type": "electric_scooter", "name": "c0443da7bd467c78034bc0f11fcc2d21", "fusion_lon": 0.0, "bike_id": "c0443da7bd467c78034bc0f11fcc2d21", "is_reserved": 0, "rental_uris": {"android": "https://dc.lft.to/lastmile_qr_scan", "ios": "https://dc.lft.to/lastmile_qr_scan"}, "lat": 38.89614733333333, "is_disabled": 0, "lon": -77.05042733333333}, {"fusion_lat": 0.0, "type": "electric_bike", "name": "7e633c5424b600a34b46e4e901586340", "fusion_lon": 0.0, "bike_id": "7e633c5424b600a34b46e4e901586340", "is_reserved": 0, "rental_uris": {"android": "https://dc.lft.to/lastmile_qr_scan", "ios": "https://dc.lft.to/lastmile_qr_scan"}, "lat": 38.94914633333333, "is_disabled": 0, "lon": -77.0079925}, {"fusion_lat": 0.0, "type": "electric_scooter", "name": "8ee9dab7b7d8c25fb6a53aebd1fe4fe0", "fusion_lon": 0.0, "bike_id": "8ee9dab7b7d8c25fb6a53aebd1fe4fe0", "is_reserved": 0, "rental_uris": {"android": "https://dc.lft.to/lastmile_qr_scan", "ios": "https://dc.lft.to/lastmile_qr_scan"}, "lat": 38.9082395, "is_disabled": 0, "lon": -77.03840516666666}, {"fusion_lat": 0.0, "type": "electric_scooter", "name": "aa36f135e18ec7cd133161cc386b0f21", "fusion_lon": 0.0, "bike_id": "aa36f135e18ec7cd133161cc386b0f21", "is_reserved": 0, "rental_uris": {"android": "https://dc.lft.to/lastmile_qr_scan", "ios": "https://dc.lft.to/lastmile_qr_scan"}, "lat": 38.906903666666665, "is_disabled": 0, "lon": -77.03595433333334}, {"fusion_lat": 0.0, "type": "electric_bike", "name": "fd14748e501e5abf1a2ff2b20f6ed961", "fusion_lon": 0.0, "bike_id": "fd14748e501e5abf1a2ff2b20f6ed961", "is_reserved": 0, "rental_uris": {"android": "https://dc.lft.to/lastmile_qr_scan", "ios": "https://dc.lft.to/lastmile_qr_scan"}, "lat": 38.968049666666666, "is_disabled": 0, "lon": -77.07234333333334}, {"fusion_lat": 0.0, "type": "electric_scooter", "name": "b9ce6443edef380e329663ebb0fdbd8b", "fusion_lon": 0.0, "bike_id": "b9ce6443edef380e329663ebb0fdbd8b", "is_reserved": 0, "rental_uris": {"android": "https://dc.lft.to/lastmile_qr_scan", "ios": "https://dc.lft.to/lastmile_qr_scan"}, "lat": 38.922269166666666, "is_disabled": 0, "lon": -77.04236716666666}, {"fusion_lat": 0.0, "type": "electric_scooter", "name": "2ac60797345158bd2b6e23218d7c084c", "fusion_lon": 0.0, "bike_id": "2ac60797345158bd2b6e23218d7c084c", "is_reserved": 0, "rental_uris": {"android": "https://dc.lft.to/lastmile_qr_scan", "ios": "https://dc.lft.to/lastmile_qr_scan"}, "lat": 38.91681766666667, "is_disabled": 0, "lon": -77.02983133333333}, {"fusion_lat": 0.0, "type": "electric_scooter", "name": "acfc8784a4eec57044e7d87a7abdac7a", "fusion_lon": 0.0, "bike_id": "acfc8784a4eec57044e7d87a7abdac7a", "is_reserved": 0, "rental_uris": {"android": "https://dc.lft.to/lastmile_qr_scan", "ios": "https://dc.lft.to/lastmile_qr_scan"}, "lat": 38.9206105, "is_disabled": 0, "lon": -77.03345816666666}, {"fusion_lat": 0.0, "type": "electric_scooter", "name": "c03a1f9c80509cff390a6b94823d150e", "fusion_lon": 0.0, "bike_id": "c03a1f9c80509cff390a6b94823d150e", "is_reserved": 0, "rental_uris": {"android": "https://dc.lft.to/lastmile_qr_scan", "ios": "https://dc.lft.to/lastmile_qr_scan"}, "lat": 38.8992025, "is_disabled": 0, "lon": -76.93379533333334}, {"fusion_lat": 0.0, "type": "electric_scooter", "name": "f9e6198f53b8bb2e19a6675ace9c31f1", "fusion_lon": 0.0, "bike_id": "f9e6198f53b8bb2e19a6675ace9c31f1", "is_reserved": 0, "rental_uris": {"android": "https://dc.lft.to/lastmile_qr_scan", "ios": "https://dc.lft.to/lastmile_qr_scan"}, "lat": 38.921656, "is_disabled": 0, "lon": -77.038423}, {"fusion_lat": 0.0, "type": "electric_bike", "name": "08f100ebedcd2650a3d7548b8a127673", "fusion_lon": 0.0, "bike_id": "08f100ebedcd2650a3d7548b8a127673", "is_reserved": 0, "rental_uris": {"android": "https://dc.lft.to/lastmile_qr_scan", "ios": "https://dc.lft.to/lastmile_qr_scan"}, "lat": 38.893501, "is_disabled": 0, "lon": -77.18739483333333}, {"fusion_lat": 0.0, "type": "electric_scooter", "name": "14656debafbe6f7dce697ab23dab9458", "fusion_lon": 0.0, "bike_id": "14656debafbe6f7dce697ab23dab9458", "is_reserved": 0, "rental_uris": {"android": "https://dc.lft.to/lastmile_qr_scan", "ios": "https://dc.lft.to/lastmile_qr_scan"}, "lat": 38.902393000000004, "is_disabled": 0, "lon": -77.0265655}, {"fusion_lat": 0.0, "type": "electric_scooter", "name": "3e52265762becd4c63b2617518d5a2f7", "fusion_lon": 0.0, "bike_id": "3e52265762becd4c63b2617518d5a2f7", "is_reserved": 0, "rental_uris": {"android": "https://dc.lft.to/lastmile_qr_scan", "ios": "https://dc.lft.to/lastmile_qr_scan"}, "lat": 38.91224666666667, "is_disabled": 0, "lon": -77.02278716666666}, {"fusion_lat": 0.0, "type": "electric_scooter", "name": "cab08cb225f35c617a59ec1caa97d20f", "fusion_lon": 0.0, "bike_id": "cab08cb225f35c617a59ec1caa97d20f", "is_reserved": 0, "rental_uris": {"android": "https://dc.lft.to/lastmile_qr_scan", "ios": "https://dc.lft.to/lastmile_qr_scan"}, "lat": 38.911752166666666, "is_disabled": 0, "lon": -77.04918516666666}, {"fusion_lat": 0.0, "type": "electric_scooter", "name": "520da548c83af15e36310d4b41a4acae", "fusion_lon": 0.0, "bike_id": "520da548c83af15e36310d4b41a4acae", "is_reserved": 0, "rental_uris": {"android": "https://dc.lft.to/lastmile_qr_scan", "ios": "https://dc.lft.to/lastmile_qr_scan"}, "lat": 38.92360216666667, "is_disabled": 0, "lon": -77.0504705}, {"fusion_lat": 0.0, "type": "electric_scooter", "name": "07b66ee8ebef3741ee1c53e91c406589", "fusion_lon": 0.0, "bike_id": "07b66ee8ebef3741ee1c53e91c406589", "is_reserved": 0, "rental_uris": {"android": "https://dc.lft.to/lastmile_qr_scan", "ios": "https://dc.lft.to/lastmile_qr_scan"}, "lat": 38.88755, "is_disabled": 0, "lon": -77.00877816666667}, {"fusion_lat": 0.0, "type": "electric_scooter", "name": "327d9fae5e4144d227daf7a4e7c1adc8", "fusion_lon": 0.0, "bike_id": "327d9fae5e4144d227daf7a4e7c1adc8", "is_reserved": 0, "rental_uris": {"android": "https://dc.lft.to/lastmile_qr_scan", "ios": "https://dc.lft.to/lastmile_qr_scan"}, "lat": 38.90497383333334, "is_disabled": 0, "lon": -76.97925233333333}, {"fusion_lat": 0.0, "type": "electric_scooter", "name": "bfd91d24654913f44490b1114361c7a0", "fusion_lon": 0.0, "bike_id": "bfd91d24654913f44490b1114361c7a0", "is_reserved": 0, "rental_uris": {"android": "https://dc.lft.to/lastmile_qr_scan", "ios": "https://dc.lft.to/lastmile_qr_scan"}, "lat": 38.90556566666667, "is_disabled": 0, "lon": -76.973896}, {"fusion_lat": 0.0, "type": "electric_bike", "name": "c4c11820cb92543459a045fec201a6c5", "fusion_lon": 0.0, "bike_id": "c4c11820cb92543459a045fec201a6c5", "is_reserved": 0, "rental_uris": {"android": "https://dc.lft.to/lastmile_qr_scan", "ios": "https://dc.lft.to/lastmile_qr_scan"}, "lat": 38.854236666666665, "is_disabled": 0, "lon": -77.12080183333333}, {"fusion_lat": 0.0, "type": "electric_scooter", "name": "28da4bceac92f9a093b2545020dabc4d", "fusion_lon": 0.0, "bike_id": "28da4bceac92f9a093b2545020dabc4d", "is_reserved": 0, "rental_uris": {"android": "https://dc.lft.to/lastmile_qr_scan", "ios": "https://dc.lft.to/lastmile_qr_scan"}, "lat": 38.902071, "is_disabled": 0, "lon": -77.0217765}, {"fusion_lat": 0.0, "type": "electric_scooter", "name": "a2cd4e9be871f6da3ddc9336e38cf4c4", "fusion_lon": 0.0, "bike_id": "a2cd4e9be871f6da3ddc9336e38cf4c4", "is_reserved": 0, "rental_uris": {"android": "https://dc.lft.to/lastmile_qr_scan", "ios": "https://dc.lft.to/lastmile_qr_scan"}, "lat": 38.924629833333334, "is_disabled": 0, "lon": -77.07809166666667}, {"fusion_lat": 0.0, "type": "electric_scooter", "name": "6f6076d3075e8f319032f588442ee763", "fusion_lon": 0.0, "bike_id": "6f6076d3075e8f319032f588442ee763", "is_reserved": 0, "rental_uris": {"android": "https://dc.lft.to/lastmile_qr_scan", "ios": "https://dc.lft.to/lastmile_qr_scan"}, "lat": 38.89324283333333, "is_disabled": 0, "lon": -76.9438445}, {"fusion_lat": 0.0, "type": "electric_scooter", "name": "569720dbd89c4982b3f527a0748ed0e7", "fusion_lon": 0.0, "bike_id": "569720dbd89c4982b3f527a0748ed0e7", "is_reserved": 0, "rental_uris": {"android": "https://dc.lft.to/lastmile_qr_scan", "ios": "https://dc.lft.to/lastmile_qr_scan"}, "lat": 38.926050333333336, "is_disabled": 0, "lon": -77.02158966666667}, {"fusion_lat": 0.0, "type": "electric_scooter", "name": "8c7c1140447a7864c8304cf1fc5b4a39", "fusion_lon": 0.0, "bike_id": "8c7c1140447a7864c8304cf1fc5b4a39", "is_reserved": 0, "rental_uris": {"android": "https://dc.lft.to/lastmile_qr_scan", "ios": "https://dc.lft.to/lastmile_qr_scan"}, "lat": 38.9141425, "is_disabled": 0, "lon": -77.04162183333334}, {"fusion_lat": 0.0, "type": "electric_bike", "name": "7d0292622a8020d907ae3e2eed37bda1", "fusion_lon": 0.0, "bike_id": "7d0292622a8020d907ae3e2eed37bda1", "is_reserved": 0, "rental_uris": {"android": "https://dc.lft.to/lastmile_qr_scan", "ios": "https://dc.lft.to/lastmile_qr_scan"}, "lat": 38.85578966666667, "is_disabled": 0, "lon": -77.117698}, {"fusion_lat": 0.0, "type": "electric_bike", "name": "54bb4c50a0ca552f0f1b29941be26b24", "fusion_lon": 0.0, "bike_id": "54bb4c50a0ca552f0f1b29941be26b24", "is_reserved": 0, "rental_uris": {"android": "https://dc.lft.to/lastmile_qr_scan", "ios": "https://dc.lft.to/lastmile_qr_scan"}, "lat": 38.936916333333336, "is_disabled": 0, "lon": -76.99060533333333}, {"fusion_lat": 0.0, "type": "electric_bike", "name": "5d7f6ee398da2de4e9e9ae7ae7a350c1", "fusion_lon": 0.0, "bike_id": "5d7f6ee398da2de4e9e9ae7ae7a350c1", "is_reserved": 0, "rental_uris": {"android": "https://dc.lft.to/lastmile_qr_scan", "ios": "https://dc.lft.to/lastmile_qr_scan"}, "lat": 38.845075666666666, "is_disabled": 0, "lon": -76.9935775}, {"fusion_lat": 0.0, "type": "electric_scooter", "name": "043fd028d9acc45abe037e3ed8a43eac", "fusion_lon": 0.0, "bike_id": "043fd028d9acc45abe037e3ed8a43eac", "is_reserved": 0, "rental_uris": {"android": "https://dc.lft.to/lastmile_qr_scan", "ios": "https://dc.lft.to/lastmile_qr_scan"}, "lat": 38.9190305, "is_disabled": 0, "lon": -77.03184933333333},