{"data": {"bikes": [{"lat": 38.924838333333334, "lon": -77.0227245, "is_disabled": 0, "fusion_lon": 0.0, "is_reserved": 0, "name": "65b6d3e1dbafb5284995ba3e665ddc1b", "type": "electric_scooter", "bike_id": "65b6d3e1dbafb5284995ba3e665ddc1b", "rental_uris": {"ios": "https://dc.lft.to/lastmile_qr_scan", "android": "https://dc.lft.to/lastmile_qr_scan"}, "fusion_lat": 0.0}, {"lat": 38.89591266666667, "lon": -77.0259855, "is_disabled": 0, "fusion_lon": 0.0, "is_reserved": 0, "name": "fc5479daaae19acec52cb9cec076ea41", "type": "electric_bike", "bike_id": "fc5479daaae19acec52cb9cec076ea41", "rental_uris": {"ios": "https://dc.lft.to/lastmile_qr_scan", "android": "https://dc.lft.to/lastmile_qr_scan"}, "fusion_lat": 0.0}, {"lat": 38.9383935, "lon": -77.03388883333334, "is_disabled": 0, "fusion_lon": 0.0, "is_reserved": 0, "name": "c24ab0cd59d36422ac5bb345e05c4930", "type": "electric_scooter", "bike_id": "c24ab0cd59d36422ac5bb345e05c4930", "rental_uris": {"ios": "https://dc.lft.to/lastmile_qr_scan", "android": "https://dc.lft.to/lastmile_qr_scan"}, "fusion_lat": 0.0}, {"lat": 38.917962, "lon": -77.04015216666667, "is_disabled": 0, "fusion_lon": 0.0, "is_reserved": 0, "name": "1394db7098edc3b274c5aa37e6035b6d", "type": "electric_scooter", "bike_id": "1394db7098edc3b274c5aa37e6035b6d", "rental_uris": {"ios": "https://dc.lft.to/lastmile_qr_scan", "android": "https://dc.lft.to/lastmile_qr_scan"}, "fusion_lat": 0.0}, {"lat": 38.927572, "lon": -77.0328125, "is_disabled": 0, "fusion_lon": 0.0, "is_reserved": 0, "name": "6e4f08a6fc4226f29ca6b1d3d0ddba1d", "type": "electric_scooter", "bike_id": "6e4f08a6fc4226f29ca6b1d3d0ddba1d", "rental_uris": {"ios": "https://dc.lft.to/lastmile_qr_scan", "android": "https://dc.lft.to/lastmile_qr_scan"}, "fusion_lat": 0.0}, {"lat": 38.90139466666667, "lon": -77.02581983333333, "is_disabled": 0, "fusion_lon": 0.0, "is_reserved": 0, "name": "30c22b70aa828d60ef5c0f312c23d808", "type": "electric_scooter", "bike_id": "30c22b70aa828d60ef5c0f312c23d808", "rental_uris": {"ios": "https://dc.lft.to/lastmile_qr_scan", "android": "https://dc.lft.to/lastmile_qr_scan"}, "fusion_lat": 0.0}, {"lat": 38.903544333333336, "lon": -77.02972983333333, "is_disabled": 0, "fusion_lon": 0.0, "is_reserved": 0, "name": "332a0b94ec1f7295f57c9f66e37c0825", "type": "electric_scooter", "bike_id": "332a0b94ec1f7295f57c9f66e37c0825", "rental_uris": {"ios": "https://dc.lft.to/lastmile_qr_scan", "android": "https://dc.lft.to/lastmile_qr_scan"}, "fusion_lat": 0.0}, {"lat": 38.9212645, "lon": -77.2367935, "is_disabled": 0, "fusion_lon": 0.0, "is_reserved": 0, "name": "59cf39f084f2e0ce58506fcc0f705e7a", "type": "electric_bike", "bike_id": "59cf39f084f2e0ce58506fcc0f705e7a", "rental_uris": {"ios": "https://dc.lft.to/lastmile_qr_scan", "android": "https://dc.lft.to/lastmile_qr_scan"}, "fusion_lat": 0.0}, {"lat": 38.876621, "lon": -77.00334983333333, "is_disabled": 0, "fusion_lon": 0.0, "is_reserved": 0, "name": "ee7fc5342b40c7d01197b90b2355f55d", "type": "electric_scooter", "bike_id": "ee7fc5342b40c7d01197b90b2355f55d", "rental_uris": {"ios": "https://dc.lft.to/lastmile_qr_scan", "android": "https://dc.lft.to/lastmile_qr_scan"}, "fusion_lat": 0.0}, {"lat": 38.91262916666667, "lon": -77.0446585, "is_disabled": 0, "fusion_lon": 0.0, "is_reserved": 0, "name": "17f11fd929f258b3b269af212af6a401", "type": "electric_scooter", "bike_id": "17f11fd929f258b3b269af212af6a401", "rental_uris": {"ios": "https://dc.lft.to/lastmile_qr_scan", "android": "https://dc.lft.to/lastmile_qr_scan"}, "fusion_lat": 0.0}, {"lat": 38.9397515, "lon": -77.03693183333333, "is_disabled": 0, "fusion_lon": 0.0, "is_reserved": 0, "name": "8e7a3e922068f3b4b5fda7cd31c2d4c6", "type": "electric_scooter", "bike_id": "8e7a3e922068f3b4b5fda7cd31c2d4c6", "rental_uris": {"ios": "https://dc.lft.to/lastmile_qr_scan", "android": "https://dc.lft.to/lastmile_qr_scan"}, "fusion_lat": 0.0}, {"lat": 38.896526, "lon": -77.05028116666666, "is_disabled": 0, "fusion_lon": 0.0, "is_reserved": 0, "name": "c3100b57b06d4abcbf2c6fc918a2faae", "type": "electric_scooter", "bike_id": "c3100b57b06d4abcbf2c6fc918a2faae", "rental_uris": {"ios": "https://dc.lft.to/lastmile_qr_scan", "android": "https://dc.lft.to/lastmile_qr_scan"}, "fusion_lat": 0.0}, {"lat": 38.89227233333333, "lon": -77.04897, "is_disabled": 0, "fusion_lon": 0.0, "is_reserved": 0, "name": "1f35a6bcaec7a0b66401534904b2a041", "type": "electric_scooter", "bike_id": "1f35a6bcaec7a0b66401534904b2a041", "rental_uris": {"ios": "https://dc.lft.to/lastmile_qr_scan", "android": "https://dc.lft.to/lastmile_qr_scan"}, "fusion_lat": 0.0}, {"lat": 38.901452, "lon": -77.0298265, "is_disabled": 0, "fusion_lon": 0.0, "is_reserved": 0, "name": "182bcd175213ac9ae0d4800a2a63f264", "type": "electric_bike", "bike_id": "182bcd175213ac9ae0d4800a2a63f264", "rental_uris": {"ios": "https://dc.lft.to/lastmile_qr_scan", "android": "https://dc.lft.to/lastmile_qr_scan"}, "fusion_lat": 0.0}, {"lat": 38.93845533333333, "lon": -77.07232416666666, "is_disabled": 0, "fusion_lon": 0.0, "is_reserved": 0, "name": "44c6e3a7662fb8cab668d6b6e758d0f4", "type": "electric_scooter", "bike_id": "44c6e3a7662fb8cab668d6b6e758d0f4", "rental_uris": {"ios": "https://dc.lft.to/lastmile_qr_scan", "android": "https://dc.lft.to/lastmile_qr_scan"}, "fusion_lat": 0.0}, {"lat": 38.893018, "lon": -77.01239266666667, "is_disabled": 0, "fusion_lon": 0.0, "is_reserved": 0, "name": "c78195bf12dc0fdf97f2503cf2c20e8f", "type": "electric_scooter", "bike_id": "c78195bf12dc0fdf97f2503cf2c20e8f", "rental_uris": {"ios": "https://dc.lft.to/lastmile_qr_scan", "android": "https://dc.lft.to/lastmile_qr_scan"}, "fusion_lat": 0.0}, {"lat": 38.86271266666667, "lon": -76.99541783333333, "is_disabled": 0, "fusion_lon": 0.0, "is_reserved": 0, "name": "89f0056258a0cc95646ed7663d8bc226", "type": "electric_scooter", "bike_id": "89f0056258a0cc95646ed7663d8bc226", "rental_uris": {"ios": "https://dc.lft.to/lastmile_qr_scan", "android": "https://dc.lft.to/lastmile_qr_scan"}, "fusion_lat": 0.0}, {"lat": 38.91983716666667, "lon": -77.02401383333333, "is_disabled": 0, "fusion_lon": 0.0, "is_reserved": 0, "name": "a0ae7c9bcbc6a4cc587dda52ec84dfed", "type": "electric_scooter", "bike_id": "a0ae7c9bcbc6a4cc587dda52ec84dfed", "rental_uris": {"ios": "https://dc.lft.to/lastmile_qr_scan", "android": "https://dc.lft.to/lastmile_qr_scan"}, "fusion_lat": 0.0}, {"lat": 38.992151666666665, "lon": -77.03205216666667, "is_disabled": 0, "fusion_lon": 0.0, "is_reserved": 0, "name": "b3b062bbd79b9dd372f241b62599af58", "type": "electric_bike", "bike_id": "b3b062bbd79b9dd372f241b62599af58", "rental_uris": {"ios": "https://dc.lft.to/lastmile_qr_scan", "android": "https://dc.lft.to/lastmile_qr_scan"}, "fusion_lat": 0.0}, {"lat": 38.966081333333335, "lon": -77.02747216666667, "is_disabled": 0, "fusion_lon": 0.0, "is_reserved": 0, "name": "68773dd94a4024c53cbe539be729997b", "type": "electric_scooter", "bike_id": "68773dd94a4024c53cbe539be729997b", "rental_uris": {"ios": "https://dc.lft.to/lastmile_qr_scan", "android": "https://dc.lft.to/lastmile_qr_scan"}, "fusion_lat": 0.0}, {"lat": 38.97374216666667, "lon": -77.01269966666666, "is_disabled": 0, "fusion_lon": 0.0, "is_reserved": 0, "name": "353b601145ea146af4a313e77f5d6c87", "type": "electric_scooter", "bike_id": "353b601145ea146af4a313e77f5d6c87", "rental_uris": {"ios": "https://dc.lft.to/lastmile_qr_scan", "android": "https://dc.lft.to/lastmile_qr_scan"}, "fusion_lat": 0.0}, {"lat": 38.9141935, "lon": -77.04496416666667, "is_disabled": 0, "fusion_lon": 0.0, "is_reserved": 0, "name": "f0cf29dce4d0039d9afb27327533299a", "type": "electric_scooter", "bike_id": "f0cf29dce4d0039d9afb27327533299a", "rental_uris": {"ios": "https://dc.lft.to/lastmile_qr_scan", "android": "https://dc.lft.to/lastmile_qr_scan"}, "fusion_lat": 0.0}, {"lat": 38.90661166666667, "lon": -76.9894665, "is_disabled": 0, "fusion_lon": 0.0, "is_reserved": 0, "name": "06e4cabac7a1b6dbe0d5439d6db9d787", "type": "electric_scooter", "bike_id": "06e4cabac7a1b6dbe0d5439d6db9d787", "rental_uris": {"ios": "https://dc.lft.to/lastmile_qr_scan", "android": "https://dc.lft.to/lastmile_qr_scan"}, "fusion_lat": 0.0}, {"lat": 38.93537083333333, "lon": -77.05742533333333, "is_disabled": 0, "fusion_lon": 0.0, "is_reserved": 0, "name": "c07f278277b8af304fb343e8287b50fe", "type": "electric_scooter", "bike_id": "c07f278277b8af304fb343e8287b50fe", "rental_uris": {"ios": "https://dc.lft.to/lastmile_qr_scan", "android": "https://dc.lft.to/lastmile_qr_scan"}, "fusion_lat": 0.0}, {"lat": 38.9010395, "lon": -76.93048133333333, "is_disabled": 0, "fusion_lon": 0.0, "is_reserved": 0, "name": "b971b22ea24c24198d1ce0b47f009dff", "type": "electric_scooter", "bike_id": "b971b22ea24c24198d1ce0b47f009dff", "rental_uris": {"ios": "https://dc.lft.to/lastmile_qr_scan", "android": "https://dc.lft.to/lastmile_qr_scan"}, "fusion_lat": 0.0}, {"lat": 38.91124516666667, "lon": -77.03189233333333, "is_disabled": 0, "fusion_lon": 0.0, "is_reserved": 0, "name": "eedba9d5c46ba589fef9010ab9f130be", "type": "electric_scooter", "bike_id": "eedba9d5c46ba589fef9010ab9f130be", "rental_uris": {"ios": "https://dc.lft.to/lastmile_qr_scan", "android": "https://dc.lft.to/lastmile_qr_scan"}, "fusion_lat": 0.0}, {"lat": 38.9182205, "lon": -77.02422383333334, "is_disabled": 0, "fusion_lon": 0.0, "is_reserved": 0, "name": "7046271436c7bf76cde758d81f28336b", "type": "electric_scooter", "bike_id": "7046271436c7bf76cde758d81f28336b", "rental_uris": {"ios": "https://dc.lft.to/lastmile_qr_scan", "android": "https://dc.lft.to/lastmile_qr_scan"}, "fusion_lat": 0.0}, {"lat": 38.91051483333333, "lon": -77.0217675, "is_disabled": 0, "fusion_lon": 0.0, "is_reserved": 0, "name": "ca0e6d503271511fe7db327ae52c8964", "type": "electric_scooter", "bike_id": "ca0e6d503271511fe7db327ae52c8964", "rental_uris": {"ios": "https://dc.lft.to/lastmile_qr_scan", "android": "https://dc.lft.to/lastmile_qr_scan"}, "fusion_lat": 0.0}, {"lat": 38.918358166666664, "lon": -77.0229795, "is_disabled": 0, "fusion_lon": 0.0, "is_reserved": 0, "name": "e370bff14f21017014a0e8c44a947bc1", "type": "electric_scooter", "bike_id": "e370bff14f21017014a0e8c44a947bc1", "rental_uris": {"ios": "https://dc.lft.to/lastmile_qr_scan", "android": "https://dc.lft.to/lastmile_qr_scan"}, "fusion_lat": 0.0}, {"lat": 38.90582833333333, "lon": -77.06999066666667, "is_disabled": 0, "fusion_lon": 0.0, "is_reserved": 0, "name": "7c107321e0bb4e70389c0b0f164b3908", "type": "electric_scooter", "bike_id": "7c107321e0bb4e70389c0b0f164b3908", "rental_uris": {"ios": "https://dc.lft.to/lastmile_qr_scan", "android": "https://dc.lft.to/lastmile_qr_scan"}, "fusion_lat": 0.0}, {"lat": 38.9093355, "lon": -77.03052316666667, "is_disabled": 0, "fusion_lon": 0.0, "is_reserved": 0, "name": "88b613d894a0b6fe163777b5947be397", "type": "electric_scooter", "bike_id": "88b613d894a0b6fe163777b5947be397", "rental_uris": {"ios": "https://dc.lft.to/lastmile_qr_scan", "android": "https://dc.lft.to/lastmile_qr_scan"}, "fusion_lat": 0.0}, {"lat": 38.90773016666667, "lon": -77.03766633333333, "is_disabled": 0, "fusion_lon": 0.0, "is_reserved": 0, "name": "f313500eb1cb955d95227595c6905b2a", "type": "electric_scooter", "bike_id": "f313500eb1cb955d95227595c6905b2a", "rental_uris": {"ios": "https://dc.lft.to/lastmile_qr_scan", "android": "https://dc.lft.to/lastmile_qr_scan"}, "fusion_lat": 0.0}, {"lat": 38.903828, "lon": -77.03841083333333, "is_disabled": 0, "fusion_lon": 0.0, "is_reserved": 0, "name": "740c4597944295e65ed774705014e989", "type": "electric_scooter", "bike_id": "740c4597944295e65ed774705014e989", "rental_uris": {"ios": "https://dc.lft.to/lastmile_qr_scan", "android": "https://dc.lft.to/lastmile_qr_scan"}, "fusion_lat": 0.0}, {"lat": 38.860135666666665, "lon": -76.9670545, "is_disabled": 0, "fusion_lon": 0.0, "is_reserved": 0, "name": "b0960e0ee6709e52b708c224bb1ffa1e", "type": "electric_scooter", "bike_id": "b0960e0ee6709e52b708c224bb1ffa1e", "rental_uris": {"ios": "https://dc.lft.to/lastmile_qr_scan", "android": "https://dc.lft.to/lastmile_qr_scan"}, "fusion_lat": 0.0}, {"lat": 38.90198783333334, "lon": -77.02320816666666, "is_disabled": 0, "fusion_lon": 0.0, "is_reserved": 0, "name": "e6094d069e0e93f26436ae9a6595789c", "type": "electric_scooter", "bike_id": "e6094d069e0e93f26436ae9a6595789c", "rental_uris": {"ios": "https://dc.lft.to/lastmile_qr_scan", "android": "https://dc.lft.to/lastmile_qr_scan"}, "fusion_lat": 0.0}, {"lat": 38.93197583333333, "lon": -77.03860266666666, "is_disabled": 0, "fusion_lon": 0.0, "is_reserved": 0, "name": "f452697a5f1f8fea3c467bc8f5860d58", "type": "electric_scooter", "bike_id": "f452697a5f1f8fea3c467bc8f5860d58", "rental_uris": {"ios": "https://dc.lft.to/lastmile_qr_scan", "android": "https://dc.lft.to/lastmile_qr_scan"}, "fusion_lat": 0.0}, {"lat": 38.927208666666665, "lon": -77.02275, "is_disabled": 0, "fusion_lon": 0.0, "is_reserved": 0, "name": "6c57b2bd9a0b2939aaa1630ea99e029d", "type": "electric_scooter", "bike_id": "6c57b2bd9a0b2939aaa1630ea99e029d", "rental_uris": {"ios": "https://dc.lft.to/lastmile_qr_scan", "android": "https://dc.lft.to/lastmile_qr_scan"}, "fusion_lat": 0.0}, {"lat": 38.936255833333334, "lon": -77.05877783333334, "is_disabled": 0, "fusion_lon": 0.0, "is_reserved": 0, "name": "ee1477d55d32084e488185ea6f6daba2", "type": "electric_scooter", "bike_id": "ee1477d55d32084e488185ea6f6daba2", "rental_uris": {"ios": "https://dc.lft.to/lastmile_qr_scan", "android": "https://dc.lft.to/lastmile_qr_scan"}, "fusion_lat": 0.0}, {"lat": 38.87651566666667, "lon": -77.00113566666667, "is_disabled": 0, "fusion_lon": 0.0, "is_reserved": 0, "name": "1062a0e77e19c6047f62f9c78585a42d", "type": "electric_scooter", "bike_id": "1062a0e77e19c6047f62f9c78585a42d", "rental_uris": {"ios": "https://dc.lft.to/lastmile_qr_scan", "android": "https://dc.lft.to/lastmile_qr_scan"}, "fusion_lat": 0.0}, {"lat": 38.90163, "lon": -76.98078416666667, "is_disabled": 0, "fusion_lon": 0.0, "is_reserved": 0, "name": "546ba8374b751ddfc2791a394553f140", "type": "electric_scooter", "bike_id": "546ba8374b751ddfc2791a394553f140", "rental_uris": {"ios": "https://dc.lft.to/lastmile_qr_scan", "android": "https://dc.lft.to/lastmile_qr_scan"}, "fusion_lat": 0.0}, {"lat": 38.90270816666666, "lon": -77.01520916666666, "is_disabled": 0, "fusion_lon": 0.0, "is_reserved": 0, "name": "45aca9805caeabfc9f122574ff2ee278", "type": "electric_scooter", "bike_id": "45aca9805caeabfc9f122574ff2ee278", "rental_uris": {"ios": "https://dc.lft.to/lastmile_qr_scan", "android": "https://dc.lft.to/lastmile_qr_scan"}, "fusion_lat": 0.0}, {"lat": 38.899454666666664, "lon": -77.02809716666667, "is_disabled": 0, "fusion_lon": 0.0, "is_reserved": 0, "name": "27453059ab12d3aa3719c3c47602a950", "type": "electric_scooter", "bike_id": "27453059ab12d3aa3719c3c47602a950", "rental_uris": {"ios": "https://dc.lft.to/lastmile_qr_scan", "android": "https://dc.lft.to/lastmile_qr_scan"}, "fusion_lat": 0.0}, {"lat": 38.891973166666666, "lon": -76.9938695, "is_disabled": 0, "fusion_lon": 0.0, "is_reserved": 0, "name": "0193c458ab9d62cdad1b4166f3586029", "type": "electric_scooter", "bike_id": "0193c458ab9d62cdad1b4166f3586029", "rental_uris": {"ios": "https://dc.lft.to/lastmile_qr_scan", "android": "https://dc.lft.to/lastmile_qr_scan"}, "fusion_lat": 0.0}, {"lat": 38.923371, "lon": -77.03614816666666, "is_disabled": 0, "fusion_lon": 0.0, "is_reserved": 0, "name": "54f0a3b33f13efc27bc29c1feb394d64", "type": "electric_scooter", "bike_id": "54f0a3b33f13efc27bc29c1feb394d64", "rental_uris": {"ios": "https://dc.lft.to/lastmile_qr_scan", "android": "https://dc.lft.to/lastmile_qr_scan"}, "fusion_lat": 0.0}, {"lat": 38.9100685, "lon": -77.03438933333334, "is_disabled": 0, "fusion_lon": 0.0, "is_reserved": 0, "name": "1e200a7497452151d8f69badea183131", "type": "electric_scooter", "bike_id": "1e200a7497452151d8f69badea183131", "rental_uris": {"ios": "https://dc.lft.to/lastmile_qr_scan", "android": "https://dc.lft.to/lastmile_qr_scan"}, "fusion_lat": 0.0}, {"lat": 38.90278566666667, "lon": -77.03661733333334, "is_disabled": 0, "fusion_lon": 0.0, "is_reserved": 0, "name": "c5a1c19a88ab9f2968beb6999dd18066", "type": "electric_scooter", "bike_id": "c5a1c19a88ab9f2968beb6999dd18066", "rental_uris": {"ios": "https://dc.lft.to/lastmile_qr_scan", "android": "https://dc.lft.to/lastmile_qr_scan"}, "fusion_lat": 0.0}, {"lat": 38.898600333333334, "lon": -77.0334625, "is_disabled": 0, "fusion_lon": 0.0, "is_reserved": 0, "name": "14e20f9d215b07f0ce19ce3da7b16180", "type": "electric_scooter", "bike_id": "14e20f9d215b07f0ce19ce3da7b16180", "rental_uris": {"ios": "https://dc.lft.to/lastmile_qr_scan", "android": "https://dc.lft.to/lastmile_qr_scan"}, "fusion_lat": 0.0}, {"lat": 38.9180935, "lon": -77.02683866666666, "is_disabled": 0, "fusion_lon": 0.0, "is_reserved": 0, "name": "6e5aa236b5f56f3a7a7d13b151ad3cf7", "type": "electric_scooter", "bike_id": "6e5aa236b5f56f3a7a7d13b151ad3cf7", "rental_uris": {"ios": "https://dc.lft.to/lastmile_qr_scan", "android": "https://dc.lft.to/lastmile_qr_scan"}, "fusion_lat": 0.0}, {"lat": 38.902662166666666, "lon": -77.043374, "is_disabled": 0, "fusion_lon": 0.0, "is_reserved": 0, "name": "29092dfe713f58ea7a0ea360f30b1426", "type": "electric_scooter", "bike_id": "29092dfe713f58ea7a0ea360f30b1426", "rental_uris": {"ios": "https://dc.lft.to/lastmile_qr_scan", "android": "https://dc.lft.to/lastmile_qr_scan"}, "fusion_lat": 0.0}, {"lat": 38.89221766666667, "lon": -77.041993, "is_disabled": 0, "fusion_lon": 0.0, "is_reserved": 0, "name": "55a8eb4a53ea47c80e9fe3abcfd82cb7", "type": "electric_scooter", "bike_id": "55a8eb4a53ea47c80e9fe3abcfd82cb7", "rental_uris": {"ios": "https://dc.lft.to/lastmile_qr_scan", "android": "https://dc.lft.to/lastmile_qr_scan"}, "fusion_lat": 0.0}, {"lat": 38.897486, "lon": -77.02095966666667, "is_disabled": 0, "fusion_lon": 0.0, "is_reserved": 0, "name": "5ccc9a569347fa4c0df0496cec904de0", "type": "electric_scooter", "bike_id": "5ccc9a569347fa4c0df0496cec904de0", "rental_uris": {"ios": "https://dc.lft.to/lastmile_qr_scan", "android": "https://dc.lft.to/lastmile_qr_scan"}, "fusion_lat": 0.0}, {"lat": 38.91871016666666, "lon": -76.96437366666666, "is_disabled": 0, "fusion_lon": 0.0, "is_reserved": 0, "name": "85bceb0a3cff9f4158229a135bb51924", "type": "electric_bike", "bike_id": "85bceb0a3cff9f4158229a135bb51924", "rental_uris": {"ios": "https://dc.lft.to/lastmile_qr_scan", "android": "https://dc.lft.to/lastmile_qr_scan"}, "fusion_lat": 0.0}, {"lat": 38.911825666666665, "lon": -77.04824233333333, "is_disabled": 0, "fusion_lon": 0.0, "is_reserved": 0, "name": "f6d7fea9bf173a0fcb35d50e2d7afe41", "type": "electric_scooter", "bike_id": "f6d7fea9bf173a0fcb35d50e2d7afe41", "rental_uris": {"ios": "https://dc.lft.to/lastmile_qr_scan", "android": "https://dc.lft.to/lastmile_qr_scan"}, "fusion_lat": 0.0}, {"lat": 38.91330416666667, "lon": -77.04862416666667, "is_disabled": 0, "fusion_lon": 0.0, "is_reserved": 0, "name": "1aced5c923dc822ffa96226614b1bfd4", "type": "electric_scooter", "bike_id": "1aced5c923dc822ffa96226614b1bfd4", "rental_uris": {"ios": "https://dc.lft.to/lastmile_qr_scan", "android": "https://dc.lft.to/lastmile_qr_scan"}, "fusion_lat": 0.0}, {"lat": 38.91815416666667, "lon": -77.012141, "is_disabled": 0, "fusion_lon": 0.0, "is_reserved": 0, "name": "9271e24d792f7c667344bba079b37d96", "type": "electric_scooter", "bike_id": "9271e24d792f7c667344bba079b37d96", "rental_uris": {"ios": "https://dc.lft.to/lastmile_qr_scan", "android": "https://dc.lft.to/lastmile_qr_scan"}, "fusion_lat": 0.0}, {"lat": 38.924723166666666, "lon": -77.022336, "is_disabled": 0, "fusion_lon": 0.0, "is_reserved": 0, "name": "d045cf1e9e1218fb6a03d2aaff390093", "type": "electric_scooter", "bike_id": "d045cf1e9e1218fb6a03d2aaff390093", "rental_uris": {"ios": "https://dc.lft.to/lastmile_qr_scan", "android": "https://dc.lft.to/lastmile_qr_scan"}, "fusion_lat": 0.0}, {"lat": 38.89734283333333, "lon": -77.0077465, "is_disabled": 0, "fusion_lon": 0.0, "is_reserved": 0, "name": "989fd37ebb839a561bfe944c605eb73c", "type": "electric_scooter", "bike_id": "989fd37ebb839a561bfe944c605eb73c", "rental_uris": {"ios": "https://dc.lft.to/lastmile_qr_scan", "android": "https://dc.lft.to/lastmile_qr_scan"}, "fusion_lat": 0.0}, {"lat": 38.93991183333333, "lon": -77.02550433333333, "is_disabled": 0, "fusion_lon": 0.0, "is_reserved": 0, "name": "b4b741925de5349790508bf61bbb5326", "type": "electric_scooter", "bike_id": "b4b741925de5349790508bf61bbb5326", "rental_uris": {"ios": "https://dc.lft.to/lastmile_qr_scan", "android": "https://dc.lft.to/lastmile_qr_scan"}, "fusion_lat": 0.0}, {"lat": 38.923029, "lon": -76.99775033333333, "is_disabled": 0, "fusion_lon": 0.0, "is_reserved": 0, "name": "95a9686405e6f698a9a29e9e1d6bc1ff", "type": "electric_bike", "bike_id": "95a9686405e6f698a9a29e9e1d6bc1ff", "rental_uris": {"ios": "https://dc.lft.to/lastmile_qr_scan", "android": "https://dc.lft.to/lastmile_qr_scan"}, "fusion_lat": 0.0}, {"lat": 38.92416266666667, "lon": -77.05064266666666, "is_disabled": 0, "fusion_lon": 0.0, "is_reserved": 0, "name": "9979ab9c78add855691bd6f750331154", "type": "electric_scooter", "bike_id": "9979ab9c78add855691bd6f750331154", "rental_uris": {"ios": "https://dc.lft.to/lastmile_qr_scan", "android": "https://dc.lft.to/lastmile_qr_scan"}, "fusion_lat": 0.0}, {"lat": 38.92026966666667, "lon": -77.030612, "is_disabled": 0, "fusion_lon": 0.0, "is_reserved": 0, "name": "ece2a75b8f0ab8f74475d7e310e030d9", "type": "electric_scooter", "bike_id": "ece2a75b8f0ab8f74475d7e310e030d9", "rental_uris": {"ios": "https://dc.lft.to/lastmile_qr_scan", "android": "https://dc.lft.to/lastmile_qr_scan"}, "fusion_lat": 0.0}, {"lat": 38.902925, "lon": -77.02818333333333, "is_disabled": 0, "fusion_lon": 0.0, "is_reserved": 0, "name": "5d0ecb4f7e6898170ef6cdce354dce30", "type": "electric_scooter", "bike_id": "5d0ecb4f7e6898170ef6cdce354dce30", "rental_uris": {"ios": "https://dc.lft.to/lastmile_qr_scan", "android": "https://dc.lft.to/lastmile_qr_scan"}, "fusion_lat": 0.0}, {"lat": 38.893544, "lon": -77.00335916666667, "is_disabled": 0, "fusion_lon": 0.0, "is_reserved": 0, "name": "189650022fdee404f01f8be2c81ba3dc", "type": "electric_scooter", "bike_id": "189650022fdee404f01f8be2c81ba3dc", "rental_uris": {"ios": "https://dc.lft.to/lastmile_qr_scan", "android": "https://dc.lft.to/lastmile_qr_scan"}, "fusion_lat": 0.0}, {"lat": 38.905457166666665, "lon": -77.00273383333334, "is_disabled": 0, "fusion_lon": 0.0, "is_reserved": 0, "name": "8a5691474af1bd270b445cdb4458bd37", "type": "electric_scooter", "bike_id": "8a5691474af1bd270b445cdb4458bd37", "rental_uris": {"ios": "https://dc.lft.to/lastmile_qr_scan", "android": "https://dc.lft.to/lastmile_qr_scan"}, "fusion_lat": 0.0}, {"lat": 38.90259783333333, "lon": -77.015353, "is_disabled": 0, "fusion_lon": 0.0, "is_reserved": 0, "name": "97db2304a1e9437aaf6e239d59a60f52", "type": "electric_scooter", "bike_id": "97db2304a1e9437aaf6e239d59a60f52", "rental_uris": {"ios": "https://dc.lft.to/lastmile_qr_scan", "android": "https://dc.lft.to/lastmile_qr_scan"}, "fusion_lat": 0.0}, {"lat": 38.890431166666666, "lon": -76.93762466666666, "is_disabled": 0, "fusion_lon": 0.0, "is_reserved": 0, "name": "f76353cfbdd1c6bbd1444d3958d56a91", "type": "electric_scooter", "bike_id": "f76353cfbdd1c6bbd1444d3958d56a91", "rental_uris": {"ios": "https://dc.lft.to/lastmile_qr_scan", "android": "https://dc.lft.to/lastmile_qr_scan"}, "fusion_lat": 0.0}, {"lat": 38.896080833333336, "lon": -77.04269483333333, "is_disabled": 0, "fusion_lon": 0.0, "is_reserved": 0, "name": "d893be9ed910a778656337bcb033d548", "type": "electric_scooter", "bike_id": "d893be9ed910a778656337bcb033d548", "rental_uris": {"ios": "https://dc.lft.to/lastmile_qr_scan", "android": "https://dc.lft.to/lastmile_qr_scan"}, "fusion_lat": 0.0}, {"lat": 38.916914, "lon": -77.02742166666667, "is_disabled": 0, "fusion_lon": 0.0, "is_reserved": 0, "name": "d1f0dfc5d0ca4447440e6aecd607b583", "type": "electric_scooter", "bike_id": "d1f0dfc5d0ca4447440e6aecd607b583", "rental_uris": {"ios": "https://dc.lft.to/lastmile_qr_scan", "android": "https://dc.lft.to/lastmile_qr_scan"}, "fusion_lat": 0.0}, {"lat": 38.89853266666667, "lon": -77.04371916666666, "is_disabled": 0, "fusion_lon": 0.0, "is_reserved": 0, "name": "2d5d903ce3842f5638b68fcc43607906", "type": "electric_scooter", "bike_id": "2d5d903ce3842f5638b68fcc43607906", "rental_uris": {"ios": "https://dc.lft.to/lastmile_qr_scan", "android": "https://dc.lft.to/lastmile_qr_scan"}, "fusion_lat": 0.0}, {"lat": 38.898852, "lon": -77.0529545, "is_disabled": 0, "fusion_lon": 0.0, "is_reserved": 0, "name": "35795da70b2ca948877c352f60d9dbc8", "type": "electric_scooter", "bike_id": "35795da70b2ca948877c352f60d9dbc8", "rental_uris": {"ios": "https://dc.lft.to/lastmile_qr_scan", "android": "https://dc.lft.to/lastmile_qr_scan"}, "fusion_lat": 0.0}, {"lat": 38.892211, "lon": -77.04506116666667, "is_disabled": 0, "fusion_lon": 0.0, "is_reserved": 0, "name": "b801a002d2f634cf2a1d014fe8dc3729", "type": "electric_scooter", "bike_id": "b801a002d2f634cf2a1d014fe8dc3729", "rental_uris": {"ios": "https://dc.lft.to/lastmile_qr_scan", "android": "https://dc.lft.to/lastmile_qr_scan"}, "fusion_lat": 0.0}, {"lat": 38.87869583333333, "lon": -76.99681733333334, "is_disabled": 0, "fusion_lon": 0.0, "is_reserved": 0, "name": "acdfd9a50ebc5747576bcf6248968dec", "type": "electric_scooter", "bike_id": "acdfd9a50ebc5747576bcf6248968dec", "rental_uris": {"ios": "https://dc.lft.to/lastmile_qr_scan", "android": "https://dc.lft.to/lastmile_qr_scan"}, "fusion_lat": 0.0}, {"lat": 38.8784355, "lon": -77.0194595, "is_disabled": 0, "fusion_lon": 0.0, "is_reserved": 0, "name": "550338e9db41095d02abfb73dca36ee8", "type": "electric_scooter", "bike_id": "550338e9db41095d02abfb73dca36ee8", "rental_uris": {"ios": "https://dc.lft.to/lastmile_qr_scan", "android": "https://dc.lft.to/lastmile_qr_scan"}, "fusion_lat": 0.0}, {"lat": 38.9345165, "lon": -77.03867166666667, "is_disabled": 0, "fusion_lon": 0.0, "is_reserved": 0, "name": "2e743e516de02ef9df609f861898d103", "type": "electric_scooter", "bike_id": "2e743e516de02ef9df609f861898d103", "rental_uris": {"ios": "https://dc.lft.to/lastmile_qr_scan", "android": "https://dc.lft.to/lastmile_qr_scan"}, "fusion_lat": 0.0}, {"lat": 38.8926525, "lon": -77.0467745, "is_disabled": 0, "fusion_lon": 0.0, "is_reserved": 0, "name": "78b337436f05377a3d3a4b6e1a9a249a", "type": "electric_scooter", "bike_id": "78b337436f05377a3d3a4b6e1a9a249a", "rental_uris": {"ios": "https://dc.lft.to/lastmile_qr_scan", "android": "https://dc.lft.to/lastmile_qr_scan"}, "fusion_lat": 0.0}, {"lat": 38.91596966666667, "lon": -77.049068, "is_disabled": 0, "fusion_lon": 0.0, "is_reserved": 0, "name": "518c1ab42fb69a0098806a14bda8f87f", "type": "electric_scooter", "bike_id": "518c1ab42fb69a0098806a14bda8f87f", "rental_uris": {"ios": "https://dc.lft.to/lastmile_qr_scan", "android": "https://dc.lft.to/lastmile_qr_scan"}, "fusion_lat": 0.0}, {"lat": 38.8979015, "lon": -77.03954333333333, "is_disabled": 0, "fusion_lon": 0.0, "is_reserved": 0, "name": "fe1bced1b7cbd0d656383d0882b60058", "type": "electric_scooter", "bike_id": "fe1bced1b7cbd0d656383d0882b60058", "rental_uris": {"ios": "https://dc.lft.to/lastmile_qr_scan", "android": "https://dc.lft.to/lastmile_qr_scan"}, "fusion_lat": 0.0}, {"lat": 38.887457833333336, "lon": -77.01405333333334, "is_disabled": 0, "fusion_lon": 0.0, "is_reserved": 0, "name": "361939011c7ac230895fea29b20f0744", "type": "electric_scooter", "bike_id": "361939011c7ac230895fea29b20f0744", "rental_uris": {"ios": "https://dc.lft.to/lastmile_qr_scan", "android": "https://dc.lft.to/lastmile_qr_scan"}, "fusion_lat": 0.0}, {"lat": 38.92174133333333, "lon": -77.03834283333333, "is_disabled": 0, "fusion_lon": 0.0, "is_reserved": 0, "name": "d815f23b372ca8a418499af255763bc7", "type": "electric_scooter", "bike_id": "d815f23b372ca8a418499af255763bc7", "rental_uris": {"ios": "https://dc.lft.to/lastmile_qr_scan", "android": "https://dc.lft.to/lastmile_qr_scan"}, "fusion_lat": 0.0}, {"lat": 38.8873785, "lon": -77.0213545, "is_disabled": 0, "fusion_lon": 0.0, "is_reserved": 0, "name": "7f87e62e40c3f64bc17434379f576caf", "type": "electric_scooter", "bike_id": "7f87e62e40c3f64bc17434379f576caf", "rental_uris": {"ios": "https://dc.lft.to/lastmile_qr_scan", "android": "https://dc.lft.to/lastmile_qr_scan"}, "fusion_lat": 0.0}, {"lat": 38.900463, "lon": -77.01295516666667, "is_disabled": 0, "fusion_lon": 0.0, "is_reserved": 0, "name": "95a95e206cad26208480881acf6faaed", "type": "electric_scooter", "bike_id": "95a95e206cad26208480881acf6faaed", "rental_uris": {"ios": "https://dc.lft.to/lastmile_qr_scan", "android": "https://dc.lft.to/lastmile_qr_scan"}, "fusion_lat": 0.0}, {"lat": 38.892659333333334, "lon": -77.046757, "is_disabled": 0, "fusion_lon": 0.0, "is_reserved": 0, "name": "92482d7006ba5ee981ea75e1fb64d590", "type": "electric_scooter", "bike_id": "92482d7006ba5ee981ea75e1fb64d590", "rental_uris": {"ios": "https://dc.lft.to/lastmile_qr_scan", "android": "https://dc.lft.to/lastmile_qr_scan"}, "fusion_lat": 0.0}, {"lat": 38.961423833333335, "lon": -77.0278035, "is_disabled": 0, "fusion_lon": 0.0, "is_reserved": 0, "name": "88aa9800bd853d67988372bae19af819", "type": "electric_scooter", "bike_id": "88aa9800bd853d67988372bae19af819", "rental_uris": {"ios": "https://dc.lft.to/lastmile_qr_scan", "android": "https://dc.lft.to/lastmile_qr_scan"}, "fusion_lat": 0.0}, {"lat": 38.910031833333335, "lon": -76.99410033333334, "is_disabled": 0, "fusion_lon": 0.0, "is_reserved": 0, "name": "ec6bb7f180a0eafe6b7c841e135f1d71", "type": "electric_scooter", "bike_id": "ec6bb7f180a0eafe6b7c841e135f1d71", "rental_uris": {"ios": "https://dc.lft.to/lastmile_qr_scan", "android": "https://dc.lft.to/lastmile_qr_scan"}, "fusion_lat": 0.0}, {"lat": 38.892329, "lon": -77.04874433333333, "is_disabled": 0, "fusion_lon": 0.0, "is_reserved": 0, "name": "95efeb8bb75802f74565647450f18139", "type": "electric_scooter", "bike_id": "95efeb8bb75802f74565647450f18139", "rental_uris": {"ios": "https://dc.lft.to/lastmile_qr_scan", "android": "https://dc.lft.to/lastmile_qr_scan"}, "fusion_lat": 0.0}, {"lat": 38.903807, "lon": -76.9761335, "is_disabled": 0, "fusion_lon": 0.0, "is_reserved": 0, "name": "3c6398f46c5d80f78558b9009b5dffbe", "type": "electric_scooter", "bike_id": "3c6398f46c5d80f78558b9009b5dffbe", "rental_uris": {"ios": "https://dc.lft.to/lastmile_qr_scan", "android": "https://dc.lft.to/lastmile_qr_scan"}, "fusion_lat": 0.0}, {"lat": 38.921328833333334, "lon": -77.00945366666667, "is_disabled": 0, "fusion_lon": 0.0, "is_reserved": 0, "name": "8b795596545150e01df446a5a0454f44", "type": "electric_scooter", "bike_id": "8b795596545150e01df446a5a0454f44", "rental_uris": {"ios": "https://dc.lft.to/lastmile_qr_scan", "android": "https://dc.lft.to/lastmile_qr_scan"}, "fusion_lat": 0.0}, {"lat": 38.917715666666666, "lon": -77.0211725, "is_disabled": 0, "fusion_lon": 0.0, "is_reserved": 0, "name": "c32e0087f093767452f70ecf9b0fb228", "type": "electric_scooter", "bike_id": "c32e0087f093767452f70ecf9b0fb228", "rental_uris": {"ios": "https://dc.lft.to/lastmile_qr_scan", "android": "https://dc.lft.to/lastmile_qr_scan"}, "fusion_lat": 0.0}, {"lat": 38.91796466666667, "lon": -77.0270995, "is_disabled": 0, "fusion_lon": 0.0, "is_reserved": 0, "name": "ab8989af143f5412919674c5526f4dd6", "type": "electric_scooter", "bike_id": "ab8989af143f5412919674c5526f4dd6", "rental_uris": {"ios": "https://dc.lft.to/lastmile_qr_scan", "android": "https://dc.lft.to/lastmile_qr_scan"}, "fusion_lat": 0.0}, {"lat": 38.92881716666667, "lon": -77.03274266666666, "is_disabled": 0, "fusion_lon": 0.0, "is_reserved": 0, "name": "acaf2e1d4afeac16bb432db0f20f6bb7", "type": "electric_scooter", "bike_id": "acaf2e1d4afeac16bb432db0f20f6bb7", "rental_uris": {"ios": "https://dc.lft.to/lastmile_qr_scan", "android": "https://dc.lft.to/lastmile_qr_scan"}, "fusion_lat": 0.0}, {"lat": 38.9263775, "lon": -77.02845866666667, "is_disabled": 0, "fusion_lon": 0.0, "is_reserved": 0, "name": "fc9af210f7db4d8ea46270a1fcfbc2e5", "type": "electric_bike", "bike_id": "fc9af210f7db4d8ea46270a1fcfbc2e5", "rental_uris": {"ios": "https://dc.lft.to/lastmile_qr_scan", "android": "https://dc.lft.to/lastmile_qr_scan"}, "fusion_lat": 0.0}, {"lat": 38.929079333333334, "lon": -77.07305833333334, "is_disabled": 0, "fusion_lon": 0.0, "is_reserved": 0, "name": "cfab3c0ae64e749bfda9708a62452309", "type": "electric_scooter", "bike_id": "cfab3c0ae64e749bfda9708a62452309", "rental_uris": {"ios": "https://dc.lft.to/lastmile_qr_scan", "android": "https://dc.lft.to/lastmile_qr_scan"}, "fusion_lat": 0.0}, {"lat": 38.9099645, "lon": -76.98392466666667, "is_disabled": 0, "fusion_lon": 0.0, "is_reserved": 0, "name": "45b7687c4ae04ad99b443b50a282413f", "type": "electric_scooter", "bike_id": "45b7687c4ae04ad99b443b50a282413f", "rental_uris": {"ios": "https://dc.lft.to/lastmile_qr_scan", "android": "https://dc.lft.to/lastmile_qr_scan"}, "fusion_lat": 0.0}, {"lat": 38.910080666666666, "lon": -76.994083, "is_disabled": 0, "fusion_lon": 0.0, "is_reserved": 0, "name": "1b550ab2ab9040444ca9138ed9ab100d", "type": "electric_scooter", "bike_id": "1b550ab2ab9040444ca9138ed9ab100d", "rental_uris": {"ios": "https://dc.lft.to/lastmile_qr_scan", "android": "https://dc.lft.to/lastmile_qr_scan"}, "fusion_lat": 0.0}, {"lat": 38.91036366666667, "lon": -77.039904, "is_disabled": 0, "fusion_lon": 0.0, "is_reserved": 0, "name": "b54eb5bafac19313d15e46eb09489594", "type": "electric_scooter", "bike_id": "b54eb5bafac19313d15e46eb09489594", "rental_uris": {"ios": "https://dc.lft.to/lastmile_qr_scan", "android": "https://dc.lft.to/lastmile_qr_scan"}, "fusion_lat": 0.0}, {"lat": 38.9464785, "lon": -77.02963216666667, "is_disabled": 0, "fusion_lon": 0.0, "is_reserved": 0, "name": "7cefd84cf43595ff5ab9d0d42db4e086", "type": "electric_scooter", "bike_id": "7cefd84cf43595ff5ab9d0d42db4e086", "rental_uris": {"ios": "https://dc.lft.to/lastmile_qr_scan", "android": "https://dc.lft.to/lastmile_qr_scan"}, "fusion_lat": 0.0}, {"lat": 38.92753116666667, "lon": -77.03353283333334, "is_disabled": 0, "fusion_lon": 0.0, "is_reserved": 0, "name": "f433e009987b1d29c2c9c261c6958524", "type": "electric_scooter", "bike_id": "f433e009987b1d29c2c9c261c6958524", "rental_uris": {"ios": "https://dc.lft.to/lastmile_qr_scan", "android": "https://dc.lft.to/lastmile_qr_scan"}, "fusion_lat": 0.0}, {"lat": 38.877384166666666, "lon": -76.97029566666667, "is_disabled": 0, "fusion_lon": 0.0, "is_reserved": 0, "name": "4e416a7db9017211fecc662b8ed7250f", "type": "electric_scooter", "bike_id": "4e416a7db9017211fecc662b8ed7250f", "rental_uris": {"ios": "https://dc.lft.to/lastmile_qr_scan", "android": "https://dc.lft.to/lastmile_qr_scan"}, "fusion_lat": 0.0}, {"lat": 38.9243205, "lon": -77.02034083333334, "is_disabled": 0, "fusion_lon": 0.0, "is_reserved": 0, "name": "c784c63c48501a4272434e6c4d9aa80a", "type": "electric_scooter", "bike_id": "c784c63c48501a4272434e6c4d9aa80a", "rental_uris": {"ios": "https://dc.lft.to/lastmile_qr_scan", "android": "https://dc.lft.to/lastmile_qr_scan"}, "fusion_lat": 0.0}, {"lat": 38.892331166666665, "lon": -77.0487625, "is_disabled": 0, "fusion_lon": 0.0, "is_reserved": 0, "name": "8c5257526d42d61659bedbefc290fc62", "type": "electric_scooter", "bike_id": "8c5257526d42d61659bedbefc290fc62", "rental_uris": {"ios": "https://dc.lft.to/lastmile_qr_scan", "android": "https://dc.lft.to/lastmile_qr_scan"}, "fusion_lat": 0.0}, {"lat": 38.901675, "lon": -76.97674, "is_disabled": 0, "fusion_lon": 0.0, "is_reserved": 0, "name": "d02f568842509137b5975a8b8d262a54", "type": "electric_bike", "bike_id": "d02f568842509137b5975a8b8d262a54", "rental_uris": {"ios": "https://dc.lft.to/lastmile_qr_scan", "android": "https://dc.lft.to/lastmile_qr_scan"}, "fusion_lat": 0.0}, {"lat": 38.92419816666666, "lon": -77.02008116666667, "is_disabled": 0, "fusion_lon": 0.0, "is_reserved": 0, "name": "be344605f75949094ac70a8b4f47d190", "type": "electric_scooter", "bike_id": "be344605f75949094ac70a8b4f47d190", "rental_uris": {"ios": "https://dc.lft.to/lastmile_qr_scan", "android": "https://dc.lft.to/lastmile_qr_scan"}, "fusion_lat": 0.0}, {"lat": 38.9236625, "lon": -77.02920266666666, "is_disabled": 0, "fusion_lon": 0.0, "is_reserved": 0, "name": "6f438ee7be0d2112e259733cf801e46d", "type": "electric_scooter", "bike_id": "6f438ee7be0d2112e259733cf801e46d", "rental_uris": {"ios": "https://dc.lft.to/lastmile_qr_scan", "android": "https://dc.lft.to/lastmile_qr_scan"}, "fusion_lat": 0.0}, {"lat": 38.927005333333334, "lon": -76.99765266666667, "is_disabled": 0, "fusion_lon": 0.0, "is_reserved": 0, "name": "88f238724cbaa4be3e267679e172296d", "type": "electric_scooter", "bike_id": "88f238724cbaa4be3e267679e172296d", "rental_uris": {"ios": "https://dc.lft.to/lastmile_qr_scan", "android": "https://dc.lft.to/lastmile_qr_scan"}, "fusion_lat": 0.0}, {"lat": 38.923200666666666, "lon": -77.04186333333334, "is_disabled": 0, "fusion_lon": 0.0, "is_reserved": 0, "name": "15c105fd99f3af98805e205ce91f9517", "type": "electric_scooter", "bike_id": "15c105fd99f3af98805e205ce91f9517", "rental_uris": {"ios": "https://dc.lft.to/lastmile_qr_scan", "android": "https://dc.lft.to/lastmile_qr_scan"}, "fusion_lat": 0.0}, {"lat": 38.91905466666667, "lon": -77.04113416666667, "is_disabled": 0, "fusion_lon": 0.0, "is_reserved": 0, "name": "95bd14a1208c94d9a07e91a0de085451", "type": "electric_scooter", "bike_id": "95bd14a1208c94d9a07e91a0de085451", "rental_uris": {"ios": "https://dc.lft.to/lastmile_qr_scan", "android": "https://dc.lft.to/lastmile_qr_scan"}, "fusion_lat": 0.0}, {"lat": 38.90719883333333, "lon": -77.043284, "is_disabled": 0, "fusion_lon": 0.0, "is_reserved": 0, "name": "028300dbc98b5fd05c263d86e2bfb9e6", "type": "electric_scooter", "bike_id": "028300dbc98b5fd05c263d86e2bfb9e6", "rental_uris": {"ios": "https://dc.lft.to/lastmile_qr_scan", "android": "https://dc.lft.to/lastmile_qr_scan"}, "fusion_lat": 0.0}, {"lat": 38.9094415, "lon": -77.0344325, "is_disabled": 0, "fusion_lon": 0.0, "is_reserved": 0, "name": "1aedb796371e103f9a607e5a8661e40d", "type": "electric_scooter", "bike_id": "1aedb796371e103f9a607e5a8661e40d", "rental_uris": {"ios": "https://dc.lft.to/lastmile_qr_scan", "android": "https://dc.lft.to/lastmile_qr_scan"}, "fusion_lat": 0.0}, {"lat": 38.899583, "lon": -77.0067965, "is_disabled": 0, "fusion_lon": 0.0, "is_reserved": 0, "name": "194e9b0db53b6f240326e57f1488d044", "type": "electric_bike", "bike_id": "194e9b0db53b6f240326e57f1488d044", "rental_uris": {"ios": "https://dc.lft.to/lastmile_qr_scan", "android": "https://dc.lft.to/lastmile_qr_scan"}, "fusion_lat": 0.0}, {"lat": 38.912234833333336, "lon": -77.0269565, "is_disabled": 0, "fusion_lon": 0.0, "is_reserved": 0, "name": "7391786f31082c11c1cac08a5d7ff387", "type": "electric_scooter", "bike_id": "7391786f31082c11c1cac08a5d7ff387", "rental_uris": {"ios": "https://dc.lft.to/lastmile_qr_scan", "android": "https://dc.lft.to/lastmile_qr_scan"}, "fusion_lat": 0.0}, {"lat": 38.87829983333334, "lon": -77.01745583333333, "is_disabled": 0, "fusion_lon": 0.0, "is_reserved": 0, "name": "ee52b7d865c2a4e6dd13a6d1bf72cba1", "type": "electric_scooter", "bike_id": "ee52b7d865c2a4e6dd13a6d1bf72cba1", "rental_uris": {"ios": "https://dc.lft.to/lastmile_qr_scan", "android": "https://dc.lft.to/lastmile_qr_scan"}, "fusion_lat": 0.0}, {"lat": 38.89379133333333, "lon": -77.046731, "is_disabled": 0, "fusion_lon": 0.0, "is_reserved": 0, "name": "71c8d73b879b2a616692f831afa47dff", "type": "electric_scooter", "bike_id": "71c8d73b879b2a616692f831afa47dff", "rental_uris": {"ios": "https://dc.lft.to/lastmile_qr_scan", "android": "https://dc.lft.to/lastmile_qr_scan"}, "fusion_lat": 0.0}, {"lat": 38.87240833333333, "lon": -77.009008, "is_disabled": 0, "fusion_lon": 0.0, "is_reserved": 0, "name": "e1361ea44a8501ecad6412fda1c756d8", "type": "electric_bike", "bike_id": "e1361ea44a8501ecad6412fda1c756d8", "rental_uris": {"ios": "https://dc.lft.to/lastmile_qr_scan", "android": "https://dc.lft.to/lastmile_qr_scan"}, "fusion_lat": 0.0}, {"lat": 38.89038166666667, "lon": -76.93758083333333, "is_disabled": 0, "fusion_lon": 0.0, "is_reserved": 0, "name": "8a028862d86acd0704f56cabd43cfafa", "type": "electric_scooter", "bike_id": "8a028862d86acd0704f56cabd43cfafa", "rental_uris": {"ios": "https://dc.lft.to/lastmile_qr_scan", "android": "https://dc.lft.to/lastmile_qr_scan"}, "fusion_lat": 0.0}, {"lat": 38.901949333333334, "lon": -77.02378233333333, "is_disabled": 0, "fusion_lon": 0.0, "is_reserved": 0, "name": "6198a156396fb157f4bdcc7269e09f90", "type": "electric_scooter", "bike_id": "6198a156396fb157f4bdcc7269e09f90", "rental_uris": {"ios": "https://dc.lft.to/lastmile_qr_scan", "android": "https://dc.lft.to/lastmile_qr_scan"}, "fusion_lat": 0.0}, {"lat": 38.927286, "lon": -77.027845, "is_disabled": 0, "fusion_lon": 0.0, "is_reserved": 0, "name": "bda9dfb22199c7a52396b43123ead757", "type": "electric_scooter", "bike_id": "bda9dfb22199c7a52396b43123ead757", "rental_uris": {"ios": "https://dc.lft.to/lastmile_qr_scan", "android": "https://dc.lft.to/lastmile_qr_scan"}, "fusion_lat": 0.0}, {"lat": 38.910326833333336, "lon": -77.04270783333334, "is_disabled": 0, "fusion_lon": 0.0, "is_reserved": 0, "name": "f2e825b4ed090ffa8e74d6aa51ac9b49", "type": "electric_scooter", "bike_id": "f2e825b4ed090ffa8e74d6aa51ac9b49", "rental_uris": {"ios": "https://dc.lft.to/lastmile_qr_scan", "android": "https://dc.lft.to/lastmile_qr_scan"}, "fusion_lat": 0.0}, {"lat": 38.94427533333333, "lon": -77.06323, "is_disabled": 0, "fusion_lon": 0.0, "is_reserved": 0, "name": "6541bddc8211246de0fca93efa9baeb2", "type": "electric_scooter", "bike_id": "6541bddc8211246de0fca93efa9baeb2", "rental_uris": {"ios": "https://dc.lft.to/lastmile_qr_scan", "android": "https://dc.lft.to/lastmile_qr_scan"}, "fusion_lat": 0.0}, {"lat": 38.92485383333333, "lon": -77.23343783333334, "is_disabled": 0, "fusion_lon": 0.0, "is_reserved": 0, "name": "15e979c07ce2df7d5fb184a7185556c9", "type": "electric_bike", "bike_id": "15e979c07ce2df7d5fb184a7185556c9", "rental_uris": {"ios": "https://dc.lft.to/lastmile_qr_scan", "android": "https://dc.lft.to/lastmile_qr_scan"}, "fusion_lat": 0.0}, {"lat": 38.892266, "lon": -77.04369483333333, "is_disabled": 0, "fusion_lon": 0.0, "is_reserved": 0, "name": "3cd1ade6c137212e819b2ec230ac29df", "type": "electric_scooter", "bike_id": "3cd1ade6c137212e819b2ec230ac29df", "rental_uris": {"ios": "https://dc.lft.to/lastmile_qr_scan", "android": "https://dc.lft.to/lastmile_qr_scan"}, "fusion_lat": 0.0}, {"lat": 38.914203, "lon": -77.032065, "is_disabled": 0, "fusion_lon": 0.0, "is_reserved": 0, "name": "ac878d0952ae49f7f4adbe9f5cf42d32", "type": "electric_scooter", "bike_id": "ac878d0952ae49f7f4adbe9f5cf42d32", "rental_uris": {"ios": "https://dc.lft.to/lastmile_qr_scan", "android": "https://dc.lft.to/lastmile_qr_scan"}, "fusion_lat": 0.0}, {"lat": 38.93602166666667, "lon": -77.03181283333333, "is_disabled": 0, "fusion_lon": 0.0, "is_reserved": 0, "name": "1139abd1b05a35b1a774172623fd47db", "type": "electric_scooter", "bike_id": "1139abd1b05a35b1a774172623fd47db", "rental_uris": {"ios": "https://dc.lft.to/lastmile_qr_scan", "android": "https://dc.lft.to/lastmile_qr_scan"}, "fusion_lat": 0.0}, {"lat": 38.92760333333333, "lon": -76.973485, "is_disabled": 0, "fusion_lon": 0.0, "is_reserved": 0, "name": "9b4f1c2bde9cc93da740b2fcd431ee7b", "type": "electric_scooter", "bike_id": "9b4f1c2bde9cc93da740b2fcd431ee7b", "rental_uris": {"ios": "https://dc.lft.to/lastmile_qr_scan", "android": "https://dc.lft.to/lastmile_qr_scan"}, "fusion_lat": 0.0}, {"lat": 38.898581666666665, "lon": -77.039535, "is_disabled": 0, "fusion_lon": 0.0, "is_reserved": 0, "name": "b8e09c6e7261ea7b43a0dcf6560e1b14", "type": "electric_scooter", "bike_id": "b8e09c6e7261ea7b43a0dcf6560e1b14", "rental_uris": {"ios": "https://dc.lft.to/lastmile_qr_scan", "android": "https://dc.lft.to/lastmile_qr_scan"}, "fusion_lat": 0.0}, {"lat": 38.94562483333333, "lon": -77.079594, "is_disabled": 0, "fusion_lon": 0.0, "is_reserved": 0, "name": "7d6f12fafeec6d9113e66b37cd243918", "type": "electric_scooter", "bike_id": "7d6f12fafeec6d9113e66b37cd243918", "rental_uris": {"ios": "https://dc.lft.to/lastmile_qr_scan", "android": "https://dc.lft.to/lastmile_qr_scan"}, "fusion_lat": 0.0}, {"lat": 38.906655, "lon": -77.02712466666667, "is_disabled": 0, "fusion_lon": 0.0, "is_reserved": 0, "name": "21face47bd7986c6303085347f2749f5", "type": "electric_scooter", "bike_id": "21face47bd7986c6303085347f2749f5", "rental_uris": {"ios": "https://dc.lft.to/lastmile_qr_scan", "android": "https://dc.lft.to/lastmile_qr_scan"}, "fusion_lat": 0.0}, {"lat": 38.939471, "lon": -77.021825, "is_disabled": 0, "fusion_lon": 0.0, "is_reserved": 0, "name": "d074253bbf54bd8dbb568ec20d046170", "type": "electric_scooter", "bike_id": "d074253bbf54bd8dbb568ec20d046170", "rental_uris": {"ios": "https://dc.lft.to/lastmile_qr_scan", "android": "https://dc.lft.to/lastmile_qr_scan"}, "fusion_lat": 0.0}, {"lat": 38.9506595, "lon": -77.0773845, "is_disabled": 0, "fusion_lon": 0.0, "is_reserved": 0, "name": "8c34c6283f995fe584a4604240e6564c", "type": "electric_bike", "bike_id": "8c34c6283f995fe584a4604240e6564c", "rental_uris": {"ios": "https://dc.lft.to/lastmile_qr_scan", "android": "https://dc.lft.to/lastmile_qr_scan"}, "fusion_lat": 0.0}, {"lat": 38.956361666666666, "lon": -77.033032, "is_disabled": 0, "fusion_lon": 0.0, "is_reserved": 0, "name": "c321c55c82af76eee56aa40748c2d3b7", "type": "electric_scooter", "bike_id": "c321c55c82af76eee56aa40748c2d3b7", "rental_uris": {"ios": "https://dc.lft.to/lastmile_qr_scan", "android": "https://dc.lft.to/lastmile_qr_scan"}, "fusion_lat": 0.0}, {"lat": 38.898920333333336, "lon": -77.00977583333334, "is_disabled": 0, "fusion_lon": 0.0, "is_reserved": 0, "name": "dc94e71ba304231d8958d3429f3ae8f0", "type": "electric_scooter", "bike_id": "dc94e71ba304231d8958d3429f3ae8f0", "rental_uris": {"ios": "https://dc.lft.to/lastmile_qr_scan", "android": "https://dc.lft.to/lastmile_qr_scan"}, "fusion_lat": 0.0}, {"lat": 38.905355, "lon": -77.04751016666667, "is_disabled": 0, "fusion_lon": 0.0, "is_reserved": 0, "name": "a08823ede86bec4fd346102677b48372", "type": "electric_scooter", "bike_id": "a08823ede86bec4fd346102677b48372", "rental_uris": {"ios": "https://dc.lft.to/lastmile_qr_scan", "android": "https://dc.lft.to/lastmile_qr_scan"}, "fusion_lat": 0.0}, {"lat": 38.9202655, "lon": -77.0103305, "is_disabled": 0, "fusion_lon": 0.0, "is_reserved": 0, "name": "2a5a62f0c42186284a79de20bcaccabd", "type": "electric_scooter", "bike_id": "2a5a62f0c42186284a79de20bcaccabd", "rental_uris": {"ios": "https://dc.lft.to/lastmile_qr_scan", "android": "https://dc.lft.to/lastmile_qr_scan"}, "fusion_lat": 0.0}, {"lat": 38.92836116666667, "lon": -77.00600733333333, "is_disabled": 0, "fusion_lon": 0.0, "is_reserved": 0, "name": "4a7f6c983cde4ea6bf20faac66775bde", "type": "electric_scooter", "bike_id": "4a7f6c983cde4ea6bf20faac66775bde", "rental_uris": {"ios": "https://dc.lft.to/lastmile_qr_scan", "android": "https://dc.lft.to/lastmile_qr_scan"}, "fusion_lat": 0.0}, {"lat": 38.80670033333333, "lon": -77.0691865, "is_disabled": 0, "fusion_lon": 0.0, "is_reserved": 0, "name": "d2bd9ab13fe09010196667f741cd4065", "type": "electric_bike", "bike_id": "d2bd9ab13fe09010196667f741cd4065", "rental_uris": {"ios": "https://dc.lft.to/lastmile_qr_scan", "android": "https://dc.lft.to/lastmile_qr_scan"}, "fusion_lat": 0.0}, {"lat": 38.90262333333333, "lon": -77.06270933333333, "is_disabled": 0, "fusion_lon": 0.0, "is_reserved": 0, "name": "f05c74cc0631bd7f4ee39b25bf516b29", "type": "electric_scooter", "bike_id": "f05c74cc0631bd7f4ee39b25bf516b29", "rental_uris": {"ios": "https://dc.lft.to/lastmile_qr_scan", "android": "https://dc.lft.to/lastmile_qr_scan"}, "fusion_lat": 0.0}, {"lat": 38.93080066666667, "lon": -77.034054, "is_disabled": 0, "fusion_lon": 0.0, "is_reserved": 0, "name": "d6967c136316582b8c2a51c43cb154b1", "type": "electric_scooter", "bike_id": "d6967c136316582b8c2a51c43cb154b1", "rental_uris": {"ios": "https://dc.lft.to/lastmile_qr_scan", "android": "https://dc.lft.to/lastmile_qr_scan"}, "fusion_lat": 0.0}, {"lat": 38.9057605, "lon": -77.04516683333334, "is_disabled": 0, "fusion_lon": 0.0, "is_reserved": 0, "name": "6155cccbcbbb850f8a5a5276f6de3159", "type": "electric_scooter", "bike_id": "6155cccbcbbb850f8a5a5276f6de3159", "rental_uris": {"ios": "https://dc.lft.to/lastmile_qr_scan", "android": "https://dc.lft.to/lastmile_qr_scan"}, "fusion_lat": 0.0}, {"lat": 38.921703, "lon": -77.04038916666667, "is_disabled": 0, "fusion_lon": 0.0, "is_reserved": 0, "name": "01c3fc1ed1d36b25962145b1e8948678", "type": "electric_scooter", "bike_id": "01c3fc1ed1d36b25962145b1e8948678", "rental_uris": {"ios": "https://dc.lft.to/lastmile_qr_scan", "android": "https://dc.lft.to/lastmile_qr_scan"}, "fusion_lat": 0.0}, {"lat": 38.901310333333335, "lon": -77.03242466666667, "is_disabled": 0, "fusion_lon": 0.0, "is_reserved": 0, "name": "04768bae1156225c7bf0e6a1fa24d290", "type": "electric_scooter", "bike_id": "04768bae1156225c7bf0e6a1fa24d290", "rental_uris": {"ios": "https://dc.lft.to/lastmile_qr_scan", "android": "https://dc.lft.to/lastmile_qr_scan"}, "fusion_lat": 0.0}, {"lat": 38.901407166666665, "lon": -77.038505, "is_disabled": 0, "fusion_lon": 0.0, "is_reserved": 0, "name": "3baca3d709a7fa14462cdad69a179bb5", "type": "electric_scooter", "bike_id": "3baca3d709a7fa14462cdad69a179bb5", "rental_uris": {"ios": "https://dc.lft.to/lastmile_qr_scan", "android": "https://dc.lft.to/lastmile_qr_scan"}, "fusion_lat": 0.0}, {"lat": 38.920039833333334, "lon": -77.02366066666667, "is_disabled": 0, "fusion_lon": 0.0, "is_reserved": 0, "name": "4e3dd4f365f34d44c5aeae5a1e5e0f5f", "type": "electric_scooter", "bike_id": "4e3dd4f365f34d44c5aeae5a1e5e0f5f", "rental_uris": {"ios": "https://dc.lft.to/lastmile_qr_scan", "android": "https://dc.lft.to/lastmile_qr_scan"}, "fusion_lat": 0.0}, {"lat": 38.90949116666667, "lon": -77.044935, "is_disabled": 0, "fusion_lon": 0.0, "is_reserved": 0, "name": "84528c371249a1091c62d20cdd8eba6c", "type": "electric_scooter", "bike_id": "84528c371249a1091c62d20cdd8eba6c", "rental_uris": {"ios": "https://dc.lft.to/lastmile_qr_scan", "android": "https://dc.lft.to/lastmile_qr_scan"}, "fusion_lat": 0.0}, {"lat": 38.930436666666665, "lon": -77.05568166666667, "is_disabled": 0, "fusion_lon": 0.0, "is_reserved": 0, "name": "460011dd311ecf43d3505c986bbda276", "type": "electric_scooter", "bike_id": "460011dd311ecf43d3505c986bbda276", "rental_uris": {"ios": "https://dc.lft.to/lastmile_qr_scan", "android": "https://dc.lft.to/lastmile_qr_scan"}, "fusion_lat": 0.0}, {"lat": 38.89543066666667, "lon": -76.98339433333334, "is_disabled": 0, "fusion_lon": 0.0, "is_reserved": 0, "name": "15c6e833ece901e89c650f4ee389a389", "type": "electric_scooter", "bike_id": "15c6e833ece901e89c650f4ee389a389", "rental_uris": {"ios": "https://dc.lft.to/lastmile_qr_scan", "android": "https://dc.lft.to/lastmile_qr_scan"}, "fusion_lat": 0.0}, {"lat": 38.9156595, "lon": -77.0200755, "is_disabled": 0, "fusion_lon": 0.0, "is_reserved": 0, "name": "75a6a66d1b0985d32b8fbf9165bc96cc", "type": "electric_scooter", "bike_id": "75a6a66d1b0985d32b8fbf9165bc96cc", "rental_uris": {"ios": "https://dc.lft.to/lastmile_qr_scan", "android": "https://dc.lft.to/lastmile_qr_scan"}, "fusion_lat": 0.0}, {"lat": 38.887622, "lon": -77.00194266666666, "is_disabled": 0, "fusion_lon": 0.0, "is_reserved": 0, "name": "58ce6697db0ffba96ee91966f998fd30", "type": "electric_scooter", "bike_id": "58ce6697db0ffba96ee91966f998fd30", "rental_uris": {"ios": "https://dc.lft.to/lastmile_qr_scan", "android": "https://dc.lft.to/lastmile_qr_scan"}, "fusion_lat": 0.0}, {"lat": 38.916479333333335, "lon": -77.02245166666667, "is_disabled": 0, "fusion_lon": 0.0, "is_reserved": 0, "name": "ca8202b3961b619cdfd8bae7a6f84730", "type": "electric_scooter", "bike_id": "ca8202b3961b619cdfd8bae7a6f84730", "rental_uris": {"ios": "https://dc.lft.to/lastmile_qr_scan", "android": "https://dc.lft.to/lastmile_qr_scan"}, "fusion_lat": 0.0}, {"lat": 38.919387, "lon": -77.03205266666667, "is_disabled": 0, "fusion_lon": 0.0, "is_reserved": 0, "name": "8c48b28667ee834052da8c8aba2b01fc", "type": "electric_scooter", "bike_id": "8c48b28667ee834052da8c8aba2b01fc", "rental_uris": {"ios": "https://dc.lft.to/lastmile_qr_scan", "android": "https://dc.lft.to/lastmile_qr_scan"}, "fusion_lat": 0.0}, {"lat": 38.898240333333334, "lon": -77.03157566666667, "is_disabled": 0, "fusion_lon": 0.0, "is_reserved": 0, "name": "edf7cbcfdb1c7b359466955e167b762b", "type": "electric_scooter", "bike_id": "edf7cbcfdb1c7b359466955e167b762b", "rental_uris": {"ios": "https://dc.lft.to/lastmile_qr_scan", "android": "https://dc.lft.to/lastmile_qr_scan"}, "fusion_lat": 0.0}, {"lat": 38.92228383333333, "lon": -77.01816983333333, "is_disabled": 0, "fusion_lon": 0.0, "is_reserved": 0, "name": "9fb40dd3a9f12d06ab4c365d7fbca703", "type": "electric_scooter", "bike_id": "9fb40dd3a9f12d06ab4c365d7fbca703", "rental_uris": {"ios": "https://dc.lft.to/lastmile_qr_scan", "android": "https://dc.lft.to/lastmile_qr_scan"}, "fusion_lat": 0.0}, {"lat": 38.92312583333333, "lon": -77.0304615, "is_disabled": 0, "fusion_lon": 0.0, "is_reserved": 0, "name": "f02fd6758354e12b58d981b83d1f4ee9", "type": "electric_scooter", "bike_id": "f02fd6758354e12b58d981b83d1f4ee9", "rental_uris": {"ios": "https://dc.lft.to/lastmile_qr_scan", "android": "https://dc.lft.to/lastmile_qr_scan"}, "fusion_lat": 0.0}, {"lat": 38.9195855, "lon": -77.02365016666667, "is_disabled": 0, "fusion_lon": 0.0, "is_reserved": 0, "name": "7add9c89693367ad6233d73f5c1ae30a", "type": "electric_scooter", "bike_id": "7add9c89693367ad6233d73f5c1ae30a", "rental_uris": {"ios": "https://dc.lft.to/lastmile_qr_scan", "android": "https://dc.lft.to/lastmile_qr_scan"}, "fusion_lat": 0.0}, {"lat": 38.95594716666667, "lon": -77.01002433333333, "is_disabled": 0, "fusion_lon": 0.0, "is_reserved": 0, "name": "075785722ce8c446f5221441cd8db717", "type": "electric_bike", "bike_id": "075785722ce8c446f5221441cd8db717", "rental_uris": {"ios": "https://dc.lft.to/lastmile_qr_scan", "android": "https://dc.lft.to/lastmile_qr_scan"}, "fusion_lat": 0.0}, {"lat": 38.92960166666667, "lon": -77.01146, "is_disabled": 0, "fusion_lon": 0.0, "is_reserved": 0, "name": "96aad6e09960e19f1288f2b18f0e1260", "type": "electric_scooter", "bike_id": "96aad6e09960e19f1288f2b18f0e1260", "rental_uris": {"ios": "https://dc.lft.to/lastmile_qr_scan", "android": "https://dc.lft.to/lastmile_qr_scan"}, "fusion_lat": 0.0}, {"lat": 38.888222, "lon": -76.97719183333334, "is_disabled": 0, "fusion_lon": 0.0, "is_reserved": 0, "name": "ad60f1c09aa4a5b8378e49561c3b6d37", "type": "electric_scooter", "bike_id": "ad60f1c09aa4a5b8378e49561c3b6d37", "rental_uris": {"ios": "https://dc.lft.to/lastmile_qr_scan", "android": "https://dc.lft.to/lastmile_qr_scan"}, "fusion_lat": 0.0}, {"lat": 38.91822283333333, "lon": -77.024235, "is_disabled": 0, "fusion_lon": 0.0, "is_reserved": 0, "name": "3ed3600ac2c4e6638ad50152828c4500", "type": "electric_scooter", "bike_id": "3ed3600ac2c4e6638ad50152828c4500", "rental_uris": {"ios": "https://dc.lft.to/lastmile_qr_scan", "android": "https://dc.lft.to/lastmile_qr_scan"}, "fusion_lat": 0.0}, {"lat": 38.891950333333334, "lon": -77.0029335, "is_disabled": 0, "fusion_lon": 0.0, "is_reserved": 0, "name": "10860e79464185f33411eb734e00bb6b", "type": "electric_scooter", "bike_id": "10860e79464185f33411eb734e00bb6b", "rental_uris": {"ios": "https://dc.lft.to/lastmile_qr_scan", "android": "https://dc.lft.to/lastmile_qr_scan"}, "fusion_lat": 0.0}, {"lat": 38.894401, "lon": -76.978185, "is_disabled": 0, "fusion_lon": 0.0, "is_reserved": 0, "name": "11fcb38de49d877e232ef09bd568cef5", "type": "electric_scooter", "bike_id": "11fcb38de49d877e232ef09bd568cef5", "rental_uris": {"ios": "https://dc.lft.to/lastmile_qr_scan", "android": "https://dc.lft.to/lastmile_qr_scan"}, "fusion_lat": 0.0}, {"lat": 38.90367066666666, "lon": -77.0220495, "is_disabled": 0, "fusion_lon": 0.0, "is_reserved": 0, "name": "51f04c26831f756c6f79a5a97c192d05", "type": "electric_scooter", "bike_id": "51f04c26831f756c6f79a5a97c192d05", "rental_uris": {"ios": "https://dc.lft.to/lastmile_qr_scan", "android": "https://dc.lft.to/lastmile_qr_scan"}, "fusion_lat": 0.0}, {"lat": 38.906253166666666, "lon": -77.02973283333333, "is_disabled": 0, "fusion_lon": 0.0, "is_reserved": 0, "name": "b187f530bce1b4655714c635c774cd35", "type": "electric_scooter", "bike_id": "b187f530bce1b4655714c635c774cd35", "rental_uris": {"ios": "https://dc.lft.to/lastmile_qr_scan", "android": "https://dc.lft.to/lastmile_qr_scan"}, "fusion_lat": 0.0}, {"lat": 38.91693683333333, "lon": -77.024326, "is_disabled": 0, "fusion_lon": 0.0, "is_reserved": 0, "name": "942f297aae88ef9dbbe2da9c4fe23f80", "type": "electric_scooter", "bike_id": "942f297aae88ef9dbbe2da9c4fe23f80", "rental_uris": {"ios": "https://dc.lft.to/lastmile_qr_scan", "android": "https://dc.lft.to/lastmile_qr_scan"}, "fusion_lat": 0.0}, {"lat": 38.9050405, "lon": -77.065479, "is_disabled": 0, "fusion_lon": 0.0, "is_reserved": 0, "name": "fc15fb589b5b8ef79b3c485712064f02", "type": "electric_scooter", "bike_id": "fc15fb589b5b8ef79b3c485712064f02", "rental_uris": {"ios": "https://dc.lft.to/lastmile_qr_scan", "android": "https://dc.lft.to/lastmile_qr_scan"}, "fusion_lat": 0.0}, {"lat": 38.90548666666667, "lon": -77.04660216666667, "is_disabled": 0, "fusion_lon": 0.0, "is_reserved": 0, "name": "fdd8da10917500dd97108db5f3cfe249", "type": "electric_scooter", "bike_id": "fdd8da10917500dd97108db5f3cfe249", "rental_uris": {"ios": "https://dc.lft.to/lastmile_qr_scan", "android": "https://dc.lft.to/lastmile_qr_scan"}, "fusion_lat": 0.0}, {"lat": 38.926493666666666, "lon": -77.0414595, "is_disabled": 0, "fusion_lon": 0.0, "is_reserved": 0, "name": "bf18a656f9cde87bba45074c1e3b30f5", "type": "electric_scooter", "bike_id": "bf18a656f9cde87bba45074c1e3b30f5", "rental_uris": {"ios": "https://dc.lft.to/lastmile_qr_scan", "android": "https://dc.lft.to/lastmile_qr_scan"}, "fusion_lat": 0.0}, {"lat": 38.91998183333333, "lon": -77.0476115, "is_disabled": 0, "fusion_lon": 0.0, "is_reserved": 0, "name": "e76e9d1a9e4153f38949b4113f26b3f1", "type": "electric_scooter", "bike_id": "e76e9d1a9e4153f38949b4113f26b3f1", "rental_uris": {"ios": "https://dc.lft.to/lastmile_qr_scan", "android": "https://dc.lft.to/lastmile_qr_scan"}, "fusion_lat": 0.0}, {"lat": 38.90120133333333, "lon": -77.04995883333333, "is_disabled": 0, "fusion_lon": 0.0, "is_reserved": 0, "name": "8f809c04569573e90b0791c5dc4ae777", "type": "electric_scooter", "bike_id": "8f809c04569573e90b0791c5dc4ae777", "rental_uris": {"ios": "https://dc.lft.to/lastmile_qr_scan", "android": "https://dc.lft.to/lastmile_qr_scan"}, "fusion_lat": 0.0}, {"lat": 38.89039016666667, "lon": -76.93759133333333, "is_disabled": 0, "fusion_lon": 0.0, "is_reserved": 0, "name": "dde4ede254f25e338f2850109de84a07", "type": "electric_scooter", "bike_id": "dde4ede254f25e338f2850109de84a07", "rental_uris": {"ios": "https://dc.lft.to/lastmile_qr_scan", "android": "https://dc.lft.to/lastmile_qr_scan"}, "fusion_lat": 0.0}, {"lat": 38.875191, "lon": -77.00029616666667, "is_disabled": 0, "fusion_lon": 0.0, "is_reserved": 0, "name": "4425d346fe174f3b73cb86f2daca2127", "type": "electric_scooter", "bike_id": "4425d346fe174f3b73cb86f2daca2127", "rental_uris": {"ios": "https://dc.lft.to/lastmile_qr_scan", "android": "https://dc.lft.to/lastmile_qr_scan"}, "fusion_lat": 0.0}, {"lat": 38.90958833333333, "lon": -77.02276566666667, "is_disabled": 0, "fusion_lon": 0.0, "is_reserved": 0, "name": "be48e23c6e582cb4bb146acb2af4cf80", "type": "electric_scooter", "bike_id": "be48e23c6e582cb4bb146acb2af4cf80", "rental_uris": {"ios": "https://dc.lft.to/lastmile_qr_scan", "android": "https://dc.lft.to/lastmile_qr_scan"}, "fusion_lat": 0.0}, {"lat": 38.9076535, "lon": -76.99717266666667, "is_disabled": 0, "fusion_lon": 0.0, "is_reserved": 0, "name": "287cf78100165a0b0605aecd7ca04055", "type": "electric_scooter", "bike_id": "287cf78100165a0b0605aecd7ca04055", "rental_uris": {"ios": "https://dc.lft.to/lastmile_qr_scan", "android": "https://dc.lft.to/lastmile_qr_scan"}, "fusion_lat": 0.0}, {"lat": 38.941106166666664, "lon": -77.000483, "is_disabled": 0, "fusion_lon": 0.0, "is_reserved": 0, "name": "ea221939f79f7714bdd0d48e4bec40ab", "type": "electric_scooter", "bike_id": "ea221939f79f7714bdd0d48e4bec40ab", "rental_uris": {"ios": "https://dc.lft.to/lastmile_qr_scan", "android": "https://dc.lft.to/lastmile_qr_scan"}, "fusion_lat": 0.0}, {"lat": 38.91627733333333, "lon": -77.0318925, "is_disabled": 0, "fusion_lon": 0.0, "is_reserved": 0, "name": "3993128715d5126caa1b7b8ddf558631", "type": "electric_scooter", "bike_id": "3993128715d5126caa1b7b8ddf558631", "rental_uris": {"ios": "https://dc.lft.to/lastmile_qr_scan", "android": "https://dc.lft.to/lastmile_qr_scan"}, "fusion_lat": 0.0}, {"lat": 38.91115166666667, "lon": -77.04468016666667, "is_disabled": 0, "fusion_lon": 0.0, "is_reserved": 0, "name": "9a0c1c90c6782270b0b427977b601469", "type": "electric_scooter", "bike_id": "9a0c1c90c6782270b0b427977b601469", "rental_uris": {"ios": "https://dc.lft.to/lastmile_qr_scan", "android": "https://dc.lft.to/lastmile_qr_scan"}, "fusion_lat": 0.0}, {"lat": 38.9614255, "lon": -77.02780633333333, "is_disabled": 0, "fusion_lon": 0.0, "is_reserved": 0, "name": "09890cb1d42b6fae44cc8e9bd895891b", "type": "electric_scooter", "bike_id": "09890cb1d42b6fae44cc8e9bd895891b", "rental_uris": {"ios": "https://dc.lft.to/lastmile_qr_scan", "android": "https://dc.lft.to/lastmile_qr_scan"}, "fusion_lat": 0.0}, {"lat": 38.892254666666666, "lon": -77.03220733333333, "is_disabled": 0, "fusion_lon": 0.0, "is_reserved": 0, "name": "81ff2651287a388c4202582be54e3d74", "type": "electric_scooter", "bike_id": "81ff2651287a388c4202582be54e3d74", "rental_uris": {"ios": "https://dc.lft.to/lastmile_qr_scan", "android": "https://dc.lft.to/lastmile_qr_scan"}, "fusion_lat": 0.0}, {"lat": 38.93472533333333, "lon": -77.072681, "is_disabled": 0, "fusion_lon": 0.0, "is_reserved": 0, "name": "3bcd5acc0b9e346bc4c300208abccc32", "type": "electric_scooter", "bike_id": "3bcd5acc0b9e346bc4c300208abccc32", "rental_uris": {"ios": "https://dc.lft.to/lastmile_qr_scan", "android": "https://dc.lft.to/lastmile_qr_scan"}, "fusion_lat": 0.0}, {"lat": 38.8897085, "lon": -76.99469366666666, "is_disabled": 0, "fusion_lon": 0.0, "is_reserved": 0, "name": "6687deabb3052ae673f600d7245383b8", "type": "electric_scooter", "bike_id": "6687deabb3052ae673f600d7245383b8", "rental_uris": {"ios": "https://dc.lft.to/lastmile_qr_scan", "android": "https://dc.lft.to/lastmile_qr_scan"}, "fusion_lat": 0.0}, {"lat": 38.897196666666666, "lon": -77.07886483333333, "is_disabled": 0, "fusion_lon": 0.0, "is_reserved": 0, "name": "38db9c7842fe61ce7716cbdbd9d266f6", "type": "electric_scooter", "bike_id": "38db9c7842fe61ce7716cbdbd9d266f6", "rental_uris": {"ios": "https://dc.lft.to/lastmile_qr_scan", "android": "https://dc.lft.to/lastmile_qr_scan"}, "fusion_lat": 0.0}, {"lat": 38.90367166666667, "lon": -77.0219445, "is_disabled": 0, "fusion_lon": 0.0, "is_reserved": 0, "name": "8fdb881c62f140cbb5fbc88f3e555700", "type": "electric_scooter", "bike_id": "8fdb881c62f140cbb5fbc88f3e555700", "rental_uris": {"ios": "https://dc.lft.to/lastmile_qr_scan", "android": "https://dc.lft.to/lastmile_qr_scan"}, "fusion_lat": 0.0}, {"lat": 38.90124316666667, "lon": -77.03472183333334, "is_disabled": 0, "fusion_lon": 0.0, "is_reserved": 0, "name": "66c96ad6f692c118d01ec576e25f41e9", "type": "electric_scooter", "bike_id": "66c96ad6f692c118d01ec576e25f41e9", "rental_uris": {"ios": "https://dc.lft.to/lastmile_qr_scan", "android": "https://dc.lft.to/lastmile_qr_scan"}, "fusion_lat": 0.0}, {"lat": 38.929734, "lon": -77.02791583333334, "is_disabled": 0, "fusion_lon": 0.0, "is_reserved": 0, "name": "0a36e5557ea557a805669c19634803f8", "type": "electric_scooter", "bike_id": "0a36e5557ea557a805669c19634803f8", "rental_uris": {"ios": "https://dc.lft.to/lastmile_qr_scan", "android": "https://dc.lft.to/lastmile_qr_scan"}, "fusion_lat": 0.0}, {"lat": 38.892391833333335, "lon": -77.03193966666667, "is_disabled": 0, "fusion_lon": 0.0, "is_reserved": 0, "name": "c6210e984d551077f6c6460ed0cf5108", "type": "electric_scooter", "bike_id": "c6210e984d551077f6c6460ed0cf5108", "rental_uris": {"ios": "https://dc.lft.to/lastmile_qr_scan", "android": "https://dc.lft.to/lastmile_qr_scan"}, "fusion_lat": 0.0}, {"lat": 38.92512166666667, "lon": -77.02365166666667, "is_disabled": 0, "fusion_lon": 0.0, "is_reserved": 0, "name": "5aec2355983c9deabf7aabdc380f7271", "type": "electric_scooter", "bike_id": "5aec2355983c9deabf7aabdc380f7271", "rental_uris": {"ios": "https://dc.lft.to/lastmile_qr_scan", "android": "https://dc.lft.to/lastmile_qr_scan"}, "fusion_lat": 0.0}, {"lat": 38.924786166666664, "lon": -77.02598083333334, "is_disabled": 0, "fusion_lon": 0.0, "is_reserved": 0, "name": "a99c1e929b3b214be5b7d1ea199d5c52", "type": "electric_scooter", "bike_id": "a99c1e929b3b214be5b7d1ea199d5c52", "rental_uris": {"ios": "https://dc.lft.to/lastmile_qr_scan", "android": "https://dc.lft.to/lastmile_qr_scan"}, "fusion_lat": 0.0}, {"lat": 38.90008616666667, "lon": -77.0466335, "is_disabled": 0, "fusion_lon": 0.0, "is_reserved": 0, "name": "f4f275b96924c74514cd36a5bf7e0557", "type": "electric_scooter", "bike_id": "f4f275b96924c74514cd36a5bf7e0557", "rental_uris": {"ios": "https://dc.lft.to/lastmile_qr_scan", "android": "https://dc.lft.to/lastmile_qr_scan"}, "fusion_lat": 0.0}, {"lat": 38.910463666666665, "lon": -77.0318895, "is_disabled": 0, "fusion_lon": 0.0, "is_reserved": 0, "name": "de980ea709a64d30806353a66b27b1fd", "type": "electric_scooter", "bike_id": "de980ea709a64d30806353a66b27b1fd", "rental_uris": {"ios": "https://dc.lft.to/lastmile_qr_scan", "android": "https://dc.lft.to/lastmile_qr_scan"}, "fusion_lat": 0.0}, {"lat": 38.910981666666665, "lon": -77.0319085, "is_disabled": 0, "fusion_lon": 0.0, "is_reserved": 0, "name": "171a17bc152e7977ada0e0023ab4a9a2", "type": "electric_scooter", "bike_id": "171a17bc152e7977ada0e0023ab4a9a2", "rental_uris": {"ios": "https://dc.lft.to/lastmile_qr_scan", "android": "https://dc.lft.to/lastmile_qr_scan"}, "fusion_lat": 0.0}, {"lat": 38.9247545, "lon": -77.02659816666667, "is_disabled": 0, "fusion_lon": 0.0, "is_reserved": 0, "name": "a25d4e42fe2b7175709e87f8fa0e380e", "type": "electric_scooter", "bike_id": "a25d4e42fe2b7175709e87f8fa0e380e", "rental_uris": {"ios": "https://dc.lft.to/lastmile_qr_scan", "android": "https://dc.lft.to/lastmile_qr_scan"}, "fusion_lat": 0.0}, {"lat": 38.9040945, "lon": -76.97333616666667, "is_disabled": 0, "fusion_lon": 0.0, "is_reserved": 0, "name": "6f1f347cb5627d9f271b0c62d743e5b8", "type": "electric_scooter", "bike_id": "6f1f347cb5627d9f271b0c62d743e5b8", "rental_uris": {"ios": "https://dc.lft.to/lastmile_qr_scan", "android": "https://dc.lft.to/lastmile_qr_scan"}, "fusion_lat": 0.0}, {"lat": 38.925052, "lon": -77.03878516666667, "is_disabled": 0, "fusion_lon": 0.0, "is_reserved": 0, "name": "4838f99c33e1830bf468bb2650a63046", "type": "electric_scooter", "bike_id": "4838f99c33e1830bf468bb2650a63046", "rental_uris": {"ios": "https://dc.lft.to/lastmile_qr_scan", "android": "https://dc.lft.to/lastmile_qr_scan"}, "fusion_lat": 0.0}, {"lat": 38.875553333333336, "lon": -77.0055785, "is_disabled": 0, "fusion_lon": 0.0, "is_reserved": 0, "name": "8713de10008e4d7844a2427ac8707de2", "type": "electric_scooter", "bike_id": "8713de10008e4d7844a2427ac8707de2", "rental_uris": {"ios": "https://dc.lft.to/lastmile_qr_scan", "android": "https://dc.lft.to/lastmile_qr_scan"}, "fusion_lat": 0.0}, {"lat": 38.9184695, "lon": -77.02467366666667, "is_disabled": 0, "fusion_lon": 0.0, "is_reserved": 0, "name": "527e219343aadc4df9f0363b0a247d39", "type": "electric_scooter", "bike_id": "527e219343aadc4df9f0363b0a247d39", "rental_uris": {"ios": "https://dc.lft.to/lastmile_qr_scan", "android": "https://dc.lft.to/lastmile_qr_scan"}, "fusion_lat": 0.0}, {"lat": 38.95044683333333, "lon": -77.027293, "is_disabled": 0, "fusion_lon": 0.0, "is_reserved": 0, "name": "0ba42620d7ffa9d5150b88909acf2f3f", "type": "electric_scooter", "bike_id": "0ba42620d7ffa9d5150b88909acf2f3f", "rental_uris": {"ios": "https://dc.lft.to/lastmile_qr_scan", "android": "https://dc.lft.to/lastmile_qr_scan"}, "fusion_lat": 0.0}, {"lat": 38.898110333333335, "lon": -77.04669666666666, "is_disabled": 0, "fusion_lon": 0.0, "is_reserved": 0, "name": "2ef0dfad0b4fdb571fb81db8fe036438", "type": "electric_bike", "bike_id": "2ef0dfad0b4fdb571fb81db8fe036438", "rental_uris": {"ios": "https://dc.lft.to/lastmile_qr_scan", "android": "https://dc.lft.to/lastmile_qr_scan"}, "fusion_lat": 0.0}, {"lat": 38.902627833333334, "lon": -77.04234433333333, "is_disabled": 0, "fusion_lon": 0.0, "is_reserved": 0, "name": "1395db0cb3c2b535dc14f9140d36af38", "type": "electric_scooter", "bike_id": "1395db0cb3c2b535dc14f9140d36af38", "rental_uris": {"ios": "https://dc.lft.to/lastmile_qr_scan", "android": "https://dc.lft.to/lastmile_qr_scan"}, "fusion_lat": 0.0}, {"lat": 38.90953416666667, "lon": -77.02675533333333, "is_disabled": 0, "fusion_lon": 0.0, "is_reserved": 0, "name": "e32ffca8fe9c4f776e519f3ad894f3a1", "type": "electric_scooter", "bike_id": "e32ffca8fe9c4f776e519f3ad894f3a1", "rental_uris": {"ios": "https://dc.lft.to/lastmile_qr_scan", "android": "https://dc.lft.to/lastmile_qr_scan"}, "fusion_lat": 0.0}, {"lat": 38.892216833333336, "lon": -77.04506116666667, "is_disabled": 0, "fusion_lon": 0.0, "is_reserved": 0, "name": "40af58427efe49a31bc174d874f55cd4", "type": "electric_scooter", "bike_id": "40af58427efe49a31bc174d874f55cd4", "rental_uris": {"ios": "https://dc.lft.to/lastmile_qr_scan", "android": "https://dc.lft.to/lastmile_qr_scan"}, "fusion_lat": 0.0}, {"lat": 38.9288285, "lon": -77.01361716666666, "is_disabled": 0, "fusion_lon": 0.0, "is_reserved": 0, "name": "7484b592870ffa6491c480b8b8f785f0", "type": "electric_scooter", "bike_id": "7484b592870ffa6491c480b8b8f785f0", "rental_uris": {"ios": "https://dc.lft.to/lastmile_qr_scan", "android": "https://dc.lft.to/lastmile_qr_scan"}, "fusion_lat": 0.0}, {"lat": 38.911024833333336, "lon": -77.04545116666667, "is_disabled": 0, "fusion_lon": 0.0, "is_reserved": 0, "name": "e1e8e6b62cde5298acdc232b9417f74c", "type": "electric_scooter", "bike_id": "e1e8e6b62cde5298acdc232b9417f74c", "rental_uris": {"ios": "https://dc.lft.to/lastmile_qr_scan", "android": "https://dc.lft.to/lastmile_qr_scan"}, "fusion_lat": 0.0}, {"lat": 38.956193166666665, "lon": -76.93867133333333, "is_disabled": 0, "fusion_lon": 0.0, "is_reserved": 0, "name": "64b4e9130eacb290c3ed6b7cd77abcc7", "type": "electric_bike", "bike_id": "64b4e9130eacb290c3ed6b7cd77abcc7", "rental_uris": {"ios": "https://dc.lft.to/lastmile_qr_scan", "android": "https://dc.lft.to/lastmile_qr_scan"}, "fusion_lat": 0.0}, {"lat": 38.876564333333334, "lon": -77.00312066666666, "is_disabled": 0, "fusion_lon": 0.0, "is_reserved": 0, "name": "8d5f245c6ae36cfb53665b70993b0912", "type": "electric_scooter", "bike_id": "8d5f245c6ae36cfb53665b70993b0912", "rental_uris": {"ios": "https://dc.lft.to/lastmile_qr_scan", "android": "https://dc.lft.to/lastmile_qr_scan"}, "fusion_lat": 0.0}, {"lat": 38.9070965, "lon": -77.03451966666667, "is_disabled": 0, "fusion_lon": 0.0, "is_reserved": 0, "name": "8c8933eee139662a2d08b1b287519ad7", "type": "electric_scooter", "bike_id": "8c8933eee139662a2d08b1b287519ad7", "rental_uris": {"ios": "https://dc.lft.to/lastmile_qr_scan", "android": "https://dc.lft.to/lastmile_qr_scan"}, "fusion_lat": 0.0}, {"lat": 38.90427116666667, "lon": -77.0465515, "is_disabled": 0, "fusion_lon": 0.0, "is_reserved": 0, "name": "46b763037ee91033e40ccb5a3d4683d7", "type": "electric_scooter", "bike_id": "46b763037ee91033e40ccb5a3d4683d7", "rental_uris": {"ios": "https://dc.lft.to/lastmile_qr_scan", "android": "https://dc.lft.to/lastmile_qr_scan"}, "fusion_lat": 0.0}, {"lat": 38.91754433333333, "lon": -77.03182616666666, "is_disabled": 0, "fusion_lon": 0.0, "is_reserved": 0, "name": "61e5085a0db2b347155b395b5716a412", "type": "electric_scooter", "bike_id": "61e5085a0db2b347155b395b5716a412", "rental_uris": {"ios": "https://dc.lft.to/lastmile_qr_scan", "android": "https://dc.lft.to/lastmile_qr_scan"}, "fusion_lat": 0.0}, {"lat": 38.885033, "lon": -77.02974616666667, "is_disabled": 0, "fusion_lon": 0.0, "is_reserved": 0, "name": "96ae9693dd8080e6eb3887ea5cb7389d", "type": "electric_scooter", "bike_id": "96ae9693dd8080e6eb3887ea5cb7389d", "rental_uris": {"ios": "https://dc.lft.to/lastmile_qr_scan", "android": "https://dc.lft.to/lastmile_qr_scan"}, "fusion_lat": 0.0}, {"lat": 38.90246966666667, "lon": -77.0356185, "is_disabled": 0, "fusion_lon": 0.0, "is_reserved": 0, "name": "e59bf03cbc95bc298faf7eb526567778", "type": "electric_scooter", "bike_id": "e59bf03cbc95bc298faf7eb526567778", "rental_uris": {"ios": "https://dc.lft.to/lastmile_qr_scan", "android": "https://dc.lft.to/lastmile_qr_scan"}, "fusion_lat": 0.0}, {"lat": 38.92301833333333, "lon": -77.04166983333333, "is_disabled": 0, "fusion_lon": 0.0, "is_reserved": 0, "name": "eac9ce38971dcf7d828de5706dc72751", "type": "electric_scooter", "bike_id": "eac9ce38971dcf7d828de5706dc72751", "rental_uris": {"ios": "https://dc.lft.to/lastmile_qr_scan", "android": "https://dc.lft.to/lastmile_qr_scan"}, "fusion_lat": 0.0}, {"lat": 38.911100833333336, "lon": -76.99757016666666, "is_disabled": 0, "fusion_lon": 0.0, "is_reserved": 0, "name": "202a4a2b756671030e7e1caebd73d386", "type": "electric_scooter", "bike_id": "202a4a2b756671030e7e1caebd73d386", "rental_uris": {"ios": "https://dc.lft.to/lastmile_qr_scan", "android": "https://dc.lft.to/lastmile_qr_scan"}, "fusion_lat": 0.0}, {"lat": 38.936991666666664, "lon": -77.02401516666667, "is_disabled": 0, "fusion_lon": 0.0, "is_reserved": 0, "name": "9c2f5db948c6a4a2c8ff59115162356e", "type": "electric_scooter", "bike_id": "9c2f5db948c6a4a2c8ff59115162356e", "rental_uris": {"ios": "https://dc.lft.to/lastmile_qr_scan", "android": "https://dc.lft.to/lastmile_qr_scan"}, "fusion_lat": 0.0}, {"lat": 38.927842, "lon": -77.0156205, "is_disabled": 0, "fusion_lon": 0.0, "is_reserved": 0, "name": "672a4b655bf73c37db951408785bb256", "type": "electric_scooter", "bike_id": "672a4b655bf73c37db951408785bb256", "rental_uris": {"ios": "https://dc.lft.to/lastmile_qr_scan", "android": "https://dc.lft.to/lastmile_qr_scan"}, "fusion_lat": 0.0}, {"lat": 38.89822016666667, "lon": -77.02583, "is_disabled": 0, "fusion_lon": 0.0, "is_reserved": 0, "name": "e98a0ff2a4be65d407ffbfd0f5906549", "type": "electric_scooter", "bike_id": "e98a0ff2a4be65d407ffbfd0f5906549", "rental_uris": {"ios": "https://dc.lft.to/lastmile_qr_scan", "android": "https://dc.lft.to/lastmile_qr_scan"}, "fusion_lat": 0.0}, {"lat": 38.92119566666667, "lon": -77.01213283333334, "is_disabled": 0, "fusion_lon": 0.0, "is_reserved": 0, "name": "f1ae1cbbd19d58aa38feea5e946d25d2", "type": "electric_bike", "bike_id": "f1ae1cbbd19d58aa38feea5e946d25d2", "rental_uris": {"ios": "https://dc.lft.to/lastmile_qr_scan", "android": "https://dc.lft.to/lastmile_qr_scan"}, "fusion_lat": 0.0}, {"lat": 38.90498183333333, "lon": -77.06472, "is_disabled": 0, "fusion_lon": 0.0, "is_reserved": 0, "name": "13eb05913100b463079813a176658a52", "type": "electric_scooter", "bike_id": "13eb05913100b463079813a176658a52", "rental_uris": {"ios": "https://dc.lft.to/lastmile_qr_scan", "android": "https://dc.lft.to/lastmile_qr_scan"}, "fusion_lat": 0.0}, {"lat": 38.915764333333335, "lon": -77.01239983333333, "is_disabled": 0, "fusion_lon": 0.0, "is_reserved": 0, "name": "179dc28083ab7644c999a8890234653d", "type": "electric_scooter", "bike_id": "179dc28083ab7644c999a8890234653d", "rental_uris": {"ios": "https://dc.lft.to/lastmile_qr_scan", "android": "https://dc.lft.to/lastmile_qr_scan"}, "fusion_lat": 0.0}, {"lat": 38.916931166666664, "lon": -77.04341716666667, "is_disabled": 0, "fusion_lon": 0.0, "is_reserved": 0, "name": "77e508b7cbbfb84ba33f287d8d934842", "type": "electric_scooter", "bike_id": "77e508b7cbbfb84ba33f287d8d934842", "rental_uris": {"ios": "https://dc.lft.to/lastmile_qr_scan", "android": "https://dc.lft.to/lastmile_qr_scan"}, "fusion_lat": 0.0}, {"lat": 38.89731866666666, "lon": -77.02709816666666, "is_disabled": 0, "fusion_lon": 0.0, "is_reserved": 0, "name": "6fc97e9d2594459c401b5944cd86ccd2", "type": "electric_scooter", "bike_id": "6fc97e9d2594459c401b5944cd86ccd2", "rental_uris": {"ios": "https://dc.lft.to/lastmile_qr_scan", "android": "https://dc.lft.to/lastmile_qr_scan"}, "fusion_lat": 0.0}, {"lat": 38.90547383333333, "lon": -77.003055, "is_disabled": 0, "fusion_lon": 0.0, "is_reserved": 0, "name": "d93b1070cdebf744f6ef37df880116a3", "type": "electric_scooter", "bike_id": "d93b1070cdebf744f6ef37df880116a3", "rental_uris": {"ios": "https://dc.lft.to/lastmile_qr_scan", "android": "https://dc.lft.to/lastmile_qr_scan"}, "fusion_lat": 0.0}, {"lat": 38.88741783333333, "lon": -77.02568466666666, "is_disabled": 0, "fusion_lon": 0.0, "is_reserved": 0, "name": "81074516573d2957baf7382a1c98ab28", "type": "electric_scooter", "bike_id": "81074516573d2957baf7382a1c98ab28", "rental_uris": {"ios": "https://dc.lft.to/lastmile_qr_scan", "android": "https://dc.lft.to/lastmile_qr_scan"}, "fusion_lat": 0.0}, {"lat": 38.906813666666665, "lon": -77.03858766666667, "is_disabled": 0, "fusion_lon": 0.0, "is_reserved": 0, "name": "b60feec0369ba7c4281e8e28ae961a6b", "type": "electric_scooter", "bike_id": "b60feec0369ba7c4281e8e28ae961a6b", "rental_uris": {"ios": "https://dc.lft.to/lastmile_qr_scan", "android": "https://dc.lft.to/lastmile_qr_scan"}, "fusion_lat": 0.0}, {"lat": 38.936222, "lon": -77.0864205, "is_disabled": 0, "fusion_lon": 0.0, "is_reserved": 0, "name": "6326788db9de88ce53bf0fb68b9b67a2", "type": "electric_scooter", "bike_id": "6326788db9de88ce53bf0fb68b9b67a2", "rental_uris": {"ios": "https://dc.lft.to/lastmile_qr_scan", "android": "https://dc.lft.to/lastmile_qr_scan"}, "fusion_lat": 0.0}, {"lat": 38.91402633333333, "lon": -77.029904, "is_disabled": 0, "fusion_lon": 0.0, "is_reserved": 0, "name": "ec5194fdaa892f5e9863b42cdf1ec1c9", "type": "electric_scooter", "bike_id": "ec5194fdaa892f5e9863b42cdf1ec1c9", "rental_uris": {"ios": "https://dc.lft.to/lastmile_qr_scan", "android": "https://dc.lft.to/lastmile_qr_scan"}, "fusion_lat": 0.0}, {"lat": 38.94831383333333, "lon": -77.100017, "is_disabled": 0, "fusion_lon": 0.0, "is_reserved": 0, "name": "1052081b9991a4cde1bafe14905331b1", "type": "electric_scooter", "bike_id": "1052081b9991a4cde1bafe14905331b1", "rental_uris": {"ios": "https://dc.lft.to/lastmile_qr_scan", "android": "https://dc.lft.to/lastmile_qr_scan"}, "fusion_lat": 0.0}, {"lat": 38.90304616666667, "lon": -77.05819716666667, "is_disabled": 0, "fusion_lon": 0.0, "is_reserved": 0, "name": "8c45296a74b486badc26e2e9726fbc99", "type": "electric_scooter", "bike_id": "8c45296a74b486badc26e2e9726fbc99", "rental_uris": {"ios": "https://dc.lft.to/lastmile_qr_scan", "android": "https://dc.lft.to/lastmile_qr_scan"}, "fusion_lat": 0.0}, {"lat": 38.98478166666666, "lon": -77.026319, "is_disabled": 0, "fusion_lon": 0.0, "is_reserved": 0, "name": "6bc068dc8bfa6ab3c2be4fa438c48124", "type": "electric_scooter", "bike_id": "6bc068dc8bfa6ab3c2be4fa438c48124", "rental_uris": {"ios": "https://dc.lft.to/lastmile_qr_scan", "android": "https://dc.lft.to/lastmile_qr_scan"}, "fusion_lat": 0.0}, {"lat": 38.90717733333334, "lon": -77.0436115, "is_disabled": 0, "fusion_lon": 0.0, "is_reserved": 0, "name": "c18a0e091d8158d3d4d488c4114c0014", "type": "electric_scooter", "bike_id": "c18a0e091d8158d3d4d488c4114c0014", "rental_uris": {"ios": "https://dc.lft.to/lastmile_qr_scan", "android": "https://dc.lft.to/lastmile_qr_scan"}, "fusion_lat": 0.0}, {"lat": 38.89001533333333, "lon": -76.97736866666666, "is_disabled": 0, "fusion_lon": 0.0, "is_reserved": 0, "name": "17961494479939814f463637456e1156", "type": "electric_scooter", "bike_id": "17961494479939814f463637456e1156", "rental_uris": {"ios": "https://dc.lft.to/lastmile_qr_scan", "android": "https://dc.lft.to/lastmile_qr_scan"}, "fusion_lat": 0.0}, {"lat": 38.901272166666665, "lon": -77.01657316666666, "is_disabled": 0, "fusion_lon": 0.0, "is_reserved": 0, "name": "958ae04b10b2e9c64e89ec495b4ec3cb", "type": "electric_scooter", "bike_id": "958ae04b10b2e9c64e89ec495b4ec3cb", "rental_uris": {"ios": "https://dc.lft.to/lastmile_qr_scan", "android": "https://dc.lft.to/lastmile_qr_scan"}, "fusion_lat": 0.0}, {"lat": 38.92367816666667, "lon": -77.021252, "is_disabled": 0, "fusion_lon": 0.0, "is_reserved": 0, "name": "8e2b8ccd7b39fa3ce8185b08653a930a", "type": "electric_scooter", "bike_id": "8e2b8ccd7b39fa3ce8185b08653a930a", "rental_uris": {"ios": "https://dc.lft.to/lastmile_qr_scan", "android": "https://dc.lft.to/lastmile_qr_scan"}, "fusion_lat": 0.0}, {"lat": 38.92761516666667, "lon": -77.05272, "is_disabled": 0, "fusion_lon": 0.0, "is_reserved": 0, "name": "6700b5ccdde7b4a6ba0a05a652cfb1b4", "type": "electric_scooter", "bike_id": "6700b5ccdde7b4a6ba0a05a652cfb1b4", "rental_uris": {"ios": "https://dc.lft.to/lastmile_qr_scan", "android": "https://dc.lft.to/lastmile_qr_scan"}, "fusion_lat": 0.0}, {"lat": 38.90725483333333, "lon": -77.03474833333334, "is_disabled": 0, "fusion_lon": 0.0, "is_reserved": 0, "name": "4bff41f4ea01ca6a08daa29bdfa8982b", "type": "electric_scooter", "bike_id": "4bff41f4ea01ca6a08daa29bdfa8982b", "rental_uris": {"ios": "https://dc.lft.to/lastmile_qr_scan", "android": "https://dc.lft.to/lastmile_qr_scan"}, "fusion_lat": 0.0}, {"lat": 38.89174216666667, "lon": -76.92650666666667, "is_disabled": 0, "fusion_lon": 0.0, "is_reserved": 0, "name": "2bd1b013a4000d4fa28f35e3420c3690", "type": "electric_scooter", "bike_id": "2bd1b013a4000d4fa28f35e3420c3690", "rental_uris": {"ios": "https://dc.lft.to/lastmile_qr_scan", "android": "https://dc.lft.to/lastmile_qr_scan"}, "fusion_lat": 0.0}, {"lat": 38.819785333333336, "lon": -76.99812633333333, "is_disabled": 0, "fusion_lon": 0.0, "is_reserved": 0, "name": "9ddb20a65df9d5c45433db32e6d92461", "type": "electric_bike", "bike_id": "9ddb20a65df9d5c45433db32e6d92461", "rental_uris": {"ios": "https://dc.lft.to/lastmile_qr_scan", "android": "https://dc.lft.to/lastmile_qr_scan"}, "fusion_lat": 0.0}, {"lat": 38.91115, "lon": -76.99767283333334, "is_disabled": 0, "fusion_lon": 0.0, "is_reserved": 0, "name": "aaece077e56a73a96b614fdcb881d08c", "type": "electric_scooter", "bike_id": "aaece077e56a73a96b614fdcb881d08c", "rental_uris": {"ios": "https://dc.lft.to/lastmile_qr_scan", "android": "https://dc.lft.to/lastmile_qr_scan"}, "fusion_lat": 0.0}, {"lat": 38.9025515, "lon": -77.02688866666666, "is_disabled": 0, "fusion_lon": 0.0, "is_reserved": 0, "name": "30addbf02de377a8c5b37b192956ebf5", "type": "electric_scooter", "bike_id": "30addbf02de377a8c5b37b192956ebf5", "rental_uris": {"ios": "https://dc.lft.to/lastmile_qr_scan", "android": "https://dc.lft.to/lastmile_qr_scan"}, "fusion_lat": 0.0}, {"lat": 38.88430616666667, "lon": -77.01765183333333, "is_disabled": 0, "fusion_lon": 0.0, "is_reserved": 0, "name": "398a20076259b66ae332e08c967e40aa", "type": "electric_scooter", "bike_id": "398a20076259b66ae332e08c967e40aa", "rental_uris": {"ios": "https://dc.lft.to/lastmile_qr_scan", "android": "https://dc.lft.to/lastmile_qr_scan"}, "fusion_lat": 0.0}, {"lat": 38.92517866666667, "lon": -77.0504045, "is_disabled": 0, "fusion_lon": 0.0, "is_reserved": 0, "name": "846ee62dfd2cc212d0bf0ba6927ed430", "type": "electric_scooter", "bike_id": "846ee62dfd2cc212d0bf0ba6927ed430", "rental_uris": {"ios": "https://dc.lft.to/lastmile_qr_scan", "android": "https://dc.lft.to/lastmile_qr_scan"}, "fusion_lat": 0.0}, {"lat": 38.90820633333333, "lon": -77.0319095, "is_disabled": 0, "fusion_lon": 0.0, "is_reserved": 0, "name": "24d8837884d65ac5a340a3b4a543b279", "type": "electric_scooter", "bike_id": "24d8837884d65ac5a340a3b4a543b279", "rental_uris": {"ios": "https://dc.lft.to/lastmile_qr_scan", "android": "https://dc.lft.to/lastmile_qr_scan"}, "fusion_lat": 0.0}, {"lat": 38.89507016666667, "lon": -77.04653933333333, "is_disabled": 0, "fusion_lon": 0.0, "is_reserved": 0, "name": "4d206149a39c38285b54cd8ae4031a53", "type": "electric_scooter", "bike_id": "4d206149a39c38285b54cd8ae4031a53", "rental_uris": {"ios": "https://dc.lft.to/lastmile_qr_scan", "android": "https://dc.lft.to/lastmile_qr_scan"}, "fusion_lat": 0.0}, {"lat": 38.90945416666667, "lon": -77.03427666666667, "is_disabled": 0, "fusion_lon": 0.0, "is_reserved": 0, "name": "fea8476af3a8d418df37396163bd7e19", "type": "electric_scooter", "bike_id": "fea8476af3a8d418df37396163bd7e19", "rental_uris": {"ios": "https://dc.lft.to/lastmile_qr_scan", "android": "https://dc.lft.to/lastmile_qr_scan"}, "fusion_lat": 0.0}, {"lat": 38.89219166666667, "lon": -77.04325366666667, "is_disabled": 0, "fusion_lon": 0.0, "is_reserved": 0, "name": "b5a4be6aea83041ea2d7d846b08bb114", "type": "electric_scooter", "bike_id": "b5a4be6aea83041ea2d7d846b08bb114", "rental_uris": {"ios": "https://dc.lft.to/lastmile_qr_scan", "android": "https://dc.lft.to/lastmile_qr_scan"}, "fusion_lat": 0.0}, {"lat": 38.95651866666667, "lon": -77.0095, "is_disabled": 0, "fusion_lon": 0.0, "is_reserved": 0, "name": "acee23dff8f39e59e637f7fb3af7a204", "type": "electric_scooter", "bike_id": "acee23dff8f39e59e637f7fb3af7a204", "rental_uris": {"ios": "https://dc.lft.to/lastmile_qr_scan", "android": "https://dc.lft.to/lastmile_qr_scan"}, "fusion_lat": 0.0}, {"lat": 38.91417283333333, "lon": -77.02089566666666, "is_disabled": 0, "fusion_lon": 0.0, "is_reserved": 0, "name": "c28b7734f6991c710af9192be459c9f3", "type": "electric_scooter", "bike_id": "c28b7734f6991c710af9192be459c9f3", "rental_uris": {"ios": "https://dc.lft.to/lastmile_qr_scan", "android": "https://dc.lft.to/lastmile_qr_scan"}, "fusion_lat": 0.0}, {"lat": 38.92442, "lon": -76.98985533333334, "is_disabled": 0, "fusion_lon": 0.0, "is_reserved": 0, "name": "77c08ccf45adc624e1f3ba7a0ede90f6", "type": "electric_scooter", "bike_id": "77c08ccf45adc624e1f3ba7a0ede90f6", "rental_uris": {"ios": "https://dc.lft.to/lastmile_qr_scan", "android": "https://dc.lft.to/lastmile_qr_scan"}, "fusion_lat": 0.0}, {"lat": 38.918009166666664, "lon": -77.0401695, "is_disabled": 0, "fusion_lon": 0.0, "is_reserved": 0, "name": "51f4af87ec9a5c89d458c402231c06d1", "type": "electric_scooter", "bike_id": "51f4af87ec9a5c89d458c402231c06d1", "rental_uris": {"ios": "https://dc.lft.to/lastmile_qr_scan", "android": "https://dc.lft.to/lastmile_qr_scan"}, "fusion_lat": 0.0}, {"lat": 38.89531433333333, "lon": -77.04649333333333, "is_disabled": 0, "fusion_lon": 0.0, "is_reserved": 0, "name": "ab9d2d07741b69d546ee08e28c5cdfba", "type": "electric_scooter", "bike_id": "ab9d2d07741b69d546ee08e28c5cdfba", "rental_uris": {"ios": "https://dc.lft.to/lastmile_qr_scan", "android": "https://dc.lft.to/lastmile_qr_scan"}, "fusion_lat": 0.0}, {"lat": 38.910188, "lon": -77.029352, "is_disabled": 0, "fusion_lon": 0.0, "is_reserved": 0, "name": "3179f03a5a30298e6dc5e7c87bd35572", "type": "electric_scooter", "bike_id": "3179f03a5a30298e6dc5e7c87bd35572", "rental_uris": {"ios": "https://dc.lft.to/lastmile_qr_scan", "android": "https://dc.lft.to/lastmile_qr_scan"}, "fusion_lat": 0.0}, {"lat": 38.92733716666667, "lon": -76.99558916666666, "is_disabled": 0, "fusion_lon": 0.0, "is_reserved": 0, "name": "cc185a5c01afdf28185a2f7577ed3fef", "type": "electric_scooter", "bike_id": "cc185a5c01afdf28185a2f7577ed3fef", "rental_uris": {"ios": "https://dc.lft.to/lastmile_qr_scan", "android": "https://dc.lft.to/lastmile_qr_scan"}, "fusion_lat": 0.0}, {"lat": 38.90169233333334, "lon": -77.016073, "is_disabled": 0, "fusion_lon": 0.0, "is_reserved": 0, "name": "5d248649aa69acd2b2b6aeed6a745e59", "type": "electric_scooter", "bike_id": "5d248649aa69acd2b2b6aeed6a745e59", "rental_uris": {"ios": "https://dc.lft.to/lastmile_qr_scan", "android": "https://dc.lft.to/lastmile_qr_scan"}, "fusion_lat": 0.0}, {"lat": 38.91361333333333, "lon": -77.02055783333333, "is_disabled": 0, "fusion_lon": 0.0, "is_reserved": 0, "name": "7305882cb7afe2b6614ceb35f9321ab1", "type": "electric_scooter", "bike_id": "7305882cb7afe2b6614ceb35f9321ab1", "rental_uris": {"ios": "https://dc.lft.to/lastmile_qr_scan", "android": "https://dc.lft.to/lastmile_qr_scan"}, "fusion_lat": 0.0}, {"lat": 38.90518983333333, "lon": -77.04831633333333, "is_disabled": 0, "fusion_lon": 0.0, "is_reserved": 0, "name": "1f224a7c6cbd261b41bb35c19fa95c24", "type": "electric_scooter", "bike_id": "1f224a7c6cbd261b41bb35c19fa95c24", "rental_uris": {"ios": "https://dc.lft.to/lastmile_qr_scan", "android": "https://dc.lft.to/lastmile_qr_scan"}, "fusion_lat": 0.0}, {"lat": 38.870945666666664, "lon": -76.94212683333333, "is_disabled": 0, "fusion_lon": 0.0, "is_reserved": 0, "name": "35956829d40b91f503218d3abc377858", "type": "electric_scooter", "bike_id": "35956829d40b91f503218d3abc377858", "rental_uris": {"ios": "https://dc.lft.to/lastmile_qr_scan", "android": "https://dc.lft.to/lastmile_qr_scan"}, "fusion_lat": 0.0}, {"lat": 38.90368466666666, "lon": -77.0388475, "is_disabled": 0, "fusion_lon": 0.0, "is_reserved": 0, "name": "41172fde373b221e38c0003547c8f10b", "type": "electric_scooter", "bike_id": "41172fde373b221e38c0003547c8f10b", "rental_uris": {"ios": "https://dc.lft.to/lastmile_qr_scan", "android": "https://dc.lft.to/lastmile_qr_scan"}, "fusion_lat": 0.0}, {"lat": 38.839671833333334, "lon": -76.97736516666667, "is_disabled": 0, "fusion_lon": 0.0, "is_reserved": 0, "name": "c98f0c51c9844ce7186f0f495ec16d7b", "type": "electric_bike", "bike_id": "c98f0c51c9844ce7186f0f495ec16d7b", "rental_uris": {"ios": "https://dc.lft.to/lastmile_qr_scan", "android": "https://dc.lft.to/lastmile_qr_scan"}, "fusion_lat": 0.0}, {"lat": 38.90661583333333, "lon": -77.03802866666666, "is_disabled": 0, "fusion_lon": 0.0, "is_reserved": 0, "name": "59699ed9d7a0931c88af8b3c60cf7e4f", "type": "electric_scooter", "bike_id": "59699ed9d7a0931c88af8b3c60cf7e4f", "rental_uris": {"ios": "https://dc.lft.to/lastmile_qr_scan", "android": "https://dc.lft.to/lastmile_qr_scan"}, "fusion_lat": 0.0}, {"lat": 39.00480916666667, "lon": -77.02188883333334, "is_disabled": 0, "fusion_lon": 0.0, "is_reserved": 0, "name": "d028e1f22bfb68774d19c2a2b4219850", "type": "electric_bike", "bike_id": "d028e1f22bfb68774d19c2a2b4219850", "rental_uris": {"ios": "https://dc.lft.to/lastmile_qr_scan", "android": "https://dc.lft.to/lastmile_qr_scan"}, "fusion_lat": 0.0}, {"lat": 38.89247866666667, "lon": -76.9885025, "is_disabled": 0, "fusion_lon": 0.0, "is_reserved": 0, "name": "2fe9fe18d90b7b78caab8ac1614e712b", "type": "electric_scooter", "bike_id": "2fe9fe18d90b7b78caab8ac1614e712b", "rental_uris": {"ios": "https://dc.lft.to/lastmile_qr_scan", "android": "https://dc.lft.to/lastmile_qr_scan"}, "fusion_lat": 0.0}, {"lat": 38.910879, "lon": -77.0447885, "is_disabled": 0, "fusion_lon": 0.0, "is_reserved": 0, "name": "eda7520da82343503837f38fa4a61361", "type": "electric_scooter", "bike_id": "eda7520da82343503837f38fa4a61361", "rental_uris": {"ios": "https://dc.lft.to/lastmile_qr_scan", "android": "https://dc.lft.to/lastmile_qr_scan"}, "fusion_lat": 0.0}, {"lat": 38.911145833333336, "lon": -77.03620266666667, "is_disabled": 0, "fusion_lon": 0.0, "is_reserved": 0, "name": "7f4e5eb734080a77170c571f783e8dbe", "type": "electric_scooter", "bike_id": "7f4e5eb734080a77170c571f783e8dbe", "rental_uris": {"ios": "https://dc.lft.to/lastmile_qr_scan", "android": "https://dc.lft.to/lastmile_qr_scan"}, "fusion_lat": 0.0}, {"lat": 38.90467366666667, "lon": -77.06599266666667, "is_disabled": 0, "fusion_lon": 0.0, "is_reserved": 0, "name": "0bb296c85441166c92980a95768800f9", "type": "electric_scooter", "bike_id": "0bb296c85441166c92980a95768800f9", "rental_uris": {"ios": "https://dc.lft.to/lastmile_qr_scan", "android": "https://dc.lft.to/lastmile_qr_scan"}, "fusion_lat": 0.0}, {"lat": 38.838727, "lon": -76.99708166666667, "is_disabled": 0, "fusion_lon": 0.0, "is_reserved": 0, "name": "3c2850b7f1c1911fc75aaba5fde0edb8", "type": "electric_bike", "bike_id": "3c2850b7f1c1911fc75aaba5fde0edb8", "rental_uris": {"ios": "https://dc.lft.to/lastmile_qr_scan", "android": "https://dc.lft.to/lastmile_qr_scan"}, "fusion_lat": 0.0}, {"lat": 38.863287166666666, "lon": -76.98722666666667, "is_disabled": 0, "fusion_lon": 0.0, "is_reserved": 0, "name": "5bc20355f33e9eb72f207b30a7a97d33", "type": "electric_bike", "bike_id": "5bc20355f33e9eb72f207b30a7a97d33", "rental_uris": {"ios": "https://dc.lft.to/lastmile_qr_scan", "android": "https://dc.lft.to/lastmile_qr_scan"}, "fusion_lat": 0.0}, {"lat": 38.9878395, "lon": -77.14101716666667, "is_disabled": 0, "fusion_lon": 0.0, "is_reserved": 0, "name": "60766c5df478c3571cc98c170291d9aa", "type": "electric_bike", "bike_id": "60766c5df478c3571cc98c170291d9aa", "rental_uris": {"ios": "https://dc.lft.to/lastmile_qr_scan", "android": "https://dc.lft.to/lastmile_qr_scan"}, "fusion_lat": 0.0}, {"lat": 38.87371783333333, "lon": -77.00131533333334, "is_disabled": 0, "fusion_lon": 0.0, "is_reserved": 0, "name": "f7d3c60b2925b1bdf96de328c565dfd2", "type": "electric_scooter", "bike_id": "f7d3c60b2925b1bdf96de328c565dfd2", "rental_uris": {"ios": "https://dc.lft.to/lastmile_qr_scan", "android": "https://dc.lft.to/lastmile_qr_scan"}, "fusion_lat": 0.0}, {"lat": 38.898221666666664, "lon": -77.01530266666667, "is_disabled": 0, "fusion_lon": 0.0, "is_reserved": 0, "name": "fefd44c3ec108f6a8a6213f2864fe94b", "type": "electric_scooter", "bike_id": "fefd44c3ec108f6a8a6213f2864fe94b", "rental_uris": {"ios": "https://dc.lft.to/lastmile_qr_scan", "android": "https://dc.lft.to/lastmile_qr_scan"}, "fusion_lat": 0.0}, {"lat": 38.91589, "lon": -77.046566, "is_disabled": 0, "fusion_lon": 0.0, "is_reserved": 0, "name": "2b136f7bfb64e387383c4d08cafdd8c3", "type": "electric_scooter", "bike_id": "2b136f7bfb64e387383c4d08cafdd8c3", "rental_uris": {"ios": "https://dc.lft.to/lastmile_qr_scan", "android": "https://dc.lft.to/lastmile_qr_scan"}, "fusion_lat": 0.0}, {"lat": 38.88505466666667, "lon": -77.01588316666667, "is_disabled": 0, "fusion_lon": 0.0, "is_reserved": 0, "name": "b3f01fe0132f20b862bbcaae6297c611", "type": "electric_scooter", "bike_id": "b3f01fe0132f20b862bbcaae6297c611", "rental_uris": {"ios": "https://dc.lft.to/lastmile_qr_scan", "android": "https://dc.lft.to/lastmile_qr_scan"}, "fusion_lat": 0.0}, {"lat": 38.91120633333333, "lon": -77.031885, "is_disabled": 0, "fusion_lon": 0.0, "is_reserved": 0, "name": "d0bd17696ed5b2a5f023f6775820be5d", "type": "electric_scooter", "bike_id": "d0bd17696ed5b2a5f023f6775820be5d", "rental_uris": {"ios": "https://dc.lft.to/lastmile_qr_scan", "android": "https://dc.lft.to/lastmile_qr_scan"}, "fusion_lat": 0.0}, {"lat": 38.8954405, "lon": -76.98338633333333, "is_disabled": 0, "fusion_lon": 0.0, "is_reserved": 0, "name": "ec820de0cb56227eb5fc73c8a0dd8ef2", "type": "electric_scooter", "bike_id": "ec820de0cb56227eb5fc73c8a0dd8ef2", "rental_uris": {"ios": "https://dc.lft.to/lastmile_qr_scan", "android": "https://dc.lft.to/lastmile_qr_scan"}, "fusion_lat": 0.0}, {"lat": 38.8976235, "lon": -77.03204016666666, "is_disabled": 0, "fusion_lon": 0.0, "is_reserved": 0, "name": "813fe0366ca97785901f8afd5267b359", "type": "electric_scooter", "bike_id": "813fe0366ca97785901f8afd5267b359", "rental_uris": {"ios": "https://dc.lft.to/lastmile_qr_scan", "android": "https://dc.lft.to/lastmile_qr_scan"}, "fusion_lat": 0.0}, {"lat": 38.90260166666667, "lon": -77.046126, "is_disabled": 0, "fusion_lon": 0.0, "is_reserved": 0, "name": "cd732402c166dea121d5ebc4529e887d", "type": "electric_scooter", "bike_id": "cd732402c166dea121d5ebc4529e887d", "rental_uris": {"ios": "https://dc.lft.to/lastmile_qr_scan", "android": "https://dc.lft.to/lastmile_qr_scan"}, "fusion_lat": 0.0}, {"lat": 38.90499466666667, "lon": -77.04819333333333, "is_disabled": 0, "fusion_lon": 0.0, "is_reserved": 0, "name": "afa210d00952bd662fdafe7f8cdb9efb", "type": "electric_scooter", "bike_id": "afa210d00952bd662fdafe7f8cdb9efb", "rental_uris": {"ios": "https://dc.lft.to/lastmile_qr_scan", "android": "https://dc.lft.to/lastmile_qr_scan"}, "fusion_lat": 0.0}, {"lat": 38.88543266666667, "lon": -76.97892933333333, "is_disabled": 0, "fusion_lon": 0.0, "is_reserved": 0, "name": "a61b955dabd1550cc8441d89c0ac5e68", "type": "electric_scooter", "bike_id": "a61b955dabd1550cc8441d89c0ac5e68", "rental_uris": {"ios": "https://dc.lft.to/lastmile_qr_scan", "android": "https://dc.lft.to/lastmile_qr_scan"}, "fusion_lat": 0.0}, {"lat": 38.90249983333333, "lon": -76.98480733333334, "is_disabled": 0, "fusion_lon": 0.0, "is_reserved": 0, "name": "fdf1269077c5ac8e0f4cfcafebc041cb", "type": "electric_scooter", "bike_id": "fdf1269077c5ac8e0f4cfcafebc041cb", "rental_uris": {"ios": "https://dc.lft.to/lastmile_qr_scan", "android": "https://dc.lft.to/lastmile_qr_scan"}, "fusion_lat": 0.0}, {"lat": 38.90267333333333, "lon": -77.034628, "is_disabled": 0, "fusion_lon": 0.0, "is_reserved": 0, "name": "56e729f01a8ad485b3105684b426fea8", "type": "electric_scooter", "bike_id": "56e729f01a8ad485b3105684b426fea8", "rental_uris": {"ios": "https://dc.lft.to/lastmile_qr_scan", "android": "https://dc.lft.to/lastmile_qr_scan"}, "fusion_lat": 0.0}, {"lat": 38.90904783333333, "lon": -77.0397325, "is_disabled": 0, "fusion_lon": 0.0, "is_reserved": 0, "name": "995b21ecd2973285e9b4aed63476301e", "type": "electric_scooter", "bike_id": "995b21ecd2973285e9b4aed63476301e", "rental_uris": {"ios": "https://dc.lft.to/lastmile_qr_scan", "android": "https://dc.lft.to/lastmile_qr_scan"}, "fusion_lat": 0.0}, {"lat": 38.921527833333336, "lon": -77.01792783333333, "is_disabled": 0, "fusion_lon": 0.0, "is_reserved": 0, "name": "b0f21b8e6020ebca3498255813cd23fd", "type": "electric_scooter", "bike_id": "b0f21b8e6020ebca3498255813cd23fd", "rental_uris": {"ios": "https://dc.lft.to/lastmile_qr_scan", "android": "https://dc.lft.to/lastmile_qr_scan"}, "fusion_lat": 0.0}, {"lat": 38.899871166666664, "lon": -77.02281516666666, "is_disabled": 0, "fusion_lon": 0.0, "is_reserved": 0, "name": "9a8d1f3593e669473df62ef41095318a", "type": "electric_scooter", "bike_id": "9a8d1f3593e669473df62ef41095318a", "rental_uris": {"ios": "https://dc.lft.to/lastmile_qr_scan", "android": "https://dc.lft.to/lastmile_qr_scan"}, "fusion_lat": 0.0}, {"lat": 38.897892, "lon": -77.00917166666666, "is_disabled": 0, "fusion_lon": 0.0, "is_reserved": 0, "name": "9afb869e25b418da101e8bdf7bb5ba0a", "type": "electric_scooter", "bike_id": "9afb869e25b418da101e8bdf7bb5ba0a", "rental_uris": {"ios": "https://dc.lft.to/lastmile_qr_scan", "android": "https://dc.lft.to/lastmile_qr_scan"}, "fusion_lat": 0.0}, {"lat": 38.915459, "lon": -77.03205216666667, "is_disabled": 0, "fusion_lon": 0.0, "is_reserved": 0, "name": "0096ace00a903c91b2c82c5a117dcf9e", "type": "electric_scooter", "bike_id": "0096ace00a903c91b2c82c5a117dcf9e", "rental_uris": {"ios": "https://dc.lft.to/lastmile_qr_scan", "android": "https://dc.lft.to/lastmile_qr_scan"}, "fusion_lat": 0.0}, {"lat": 38.90941866666667, "lon": -77.047401, "is_disabled": 0, "fusion_lon": 0.0, "is_reserved": 0, "name": "1a00cf364b5f30d8cf2e89b5fffe755d", "type": "electric_bike", "bike_id": "1a00cf364b5f30d8cf2e89b5fffe755d", "rental_uris": {"ios": "https://dc.lft.to/lastmile_qr_scan", "android": "https://dc.lft.to/lastmile_qr_scan"}, "fusion_lat": 0.0}, {"lat": 38.9170345, "lon": -77.02423166666667, "is_disabled": 0, "fusion_lon": 0.0, "is_reserved": 0, "name": "53f605e75d4250da578b92844eb4ce0f", "type": "electric_scooter", "bike_id": "53f605e75d4250da578b92844eb4ce0f", "rental_uris": {"ios": "https://dc.lft.to/lastmile_qr_scan", "android": "https://dc.lft.to/lastmile_qr_scan"}, "fusion_lat": 0.0}, {"lat": 38.918107166666665, "lon": -77.02683083333334, "is_disabled": 0, "fusion_lon": 0.0, "is_reserved": 0, "name": "86e456aa44748fdb072e38c40ad05c33", "type": "electric_scooter", "bike_id": "86e456aa44748fdb072e38c40ad05c33", "rental_uris": {"ios": "https://dc.lft.to/lastmile_qr_scan", "android": "https://dc.lft.to/lastmile_qr_scan"}, "fusion_lat": 0.0},